{"last_updated":1784657292,"ttl":60,"version":"2.2","data":{"bikes":[{"bike_id":"7ef36254-6bb3-448c-8d77-979d957d54b6","system_id":"levelo_inurba_marseille","lat":43.337444,"lon":5.374475,"is_reserved":false,"is_disabled":false,"rental_uris":{"android":"levelo://app?vid=7ef36254-6bb3-448c-8d77-979d957d54b6","ios":"levelo://app?vid=7ef36254-6bb3-448c-8d77-979d957d54b6"},"vehicle_type_id":"4","last_reported":1784657293,"current_range_meters":0,"station_id":"","pricing_plan_id":"cebpf4jnsgd1na2vs0mg"},{"bike_id":"21fe2e98-0432-4b40-a81f-10dd00b0f57d","system_id":"levelo_inurba_marseille","lat":43.337444,"lon":5.374475,"is_reserved":false,"is_disabled":false,"rental_uris":{"android":"levelo://app?vid=21fe2e98-0432-4b40-a81f-10dd00b0f57d","ios":"levelo://app?vid=21fe2e98-0432-4b40-a81f-10dd00b0f57d"},"vehicle_type_id":"4","last_reported":1784657293,"current_range_meters":0,"station_id":"","pricing_plan_id":"cebpf4jnsgd1na2vs0mg"},{"bike_id":"deab0385-0efa-4bfa-9d6c-fc9e57b19cd0","system_id":"levelo_inurba_marseille","lat":43.30046,"lon":5.36986,"is_reserved":false,"is_disabled":false,"rental_uris":{"android":"levelo://app?vid=deab0385-0efa-4bfa-9d6c-fc9e57b19cd0","ios":"levelo://app?vid=deab0385-0efa-4bfa-9d6c-fc9e57b19cd0"},"vehicle_type_id":"4","last_reported":1784657293,"current_range_meters":2800,"station_id":"","pricing_plan_id":"cebpf4jnsgd1na2vs0mg"},{"bike_id":"425cee52-7ff4-408d-b63f-f1bb20a33257","system_id":"levelo_inurba_marseille","lat":43.27485,"lon":5.42541,"is_reserved":false,"is_disabled":false,"rental_uris":{"android":"levelo://app?vid=425cee52-7ff4-408d-b63f-f1bb20a33257","ios":"levelo://app?vid=425cee52-7ff4-408d-b63f-f1bb20a33257"},"vehicle_type_id":"4","last_reported":1784657293,"current_range_meters":2800,"station_id":"st_d8t4bh7nbrqs73arha60","pricing_plan_id":"cebpf4jnsgd1na2vs0mg"},{"bike_id":"bbb6d84d-52b2-4523-b78b-60cb354411ef","system_id":"levelo_inurba_marseille","lat":43.321119,"lon":5.367626,"is_reserved":false,"is_disabled":false,"rental_uris":{"android":"levelo://app?vid=bbb6d84d-52b2-4523-b78b-60cb354411ef","ios":"levelo://app?vid=bbb6d84d-52b2-4523-b78b-60cb354411ef"},"vehicle_type_id":"4","last_reported":1784657293,"current_range_meters":2800,"station_id":"ce4bhrh2rcd13ifvqhug","pricing_plan_id":"cebpf4jnsgd1na2vs0mg"},{"bike_id":"073f10d5-979e-452e-acc8-aae60a2137f1","system_id":"levelo_inurba_marseille","lat":43.30312,"lon":5.36909,"is_reserved":false,"is_disabled":true,"rental_uris":{"android":"levelo://app?vid=073f10d5-979e-452e-acc8-aae60a2137f1","ios":"levelo://app?vid=073f10d5-979e-452e-acc8-aae60a2137f1"},"vehicle_type_id":"4","last_reported":1784657293,"current_range_meters":2800,"station_id":"ce4bgqh2rcd13ifvqc5g","pricing_plan_id":"cebpf4jnsgd1na2vs0mg"},{"bike_id":"ee993008-3520-4145-a892-ac51da19ce9a","system_id":"levelo_inurba_marseille","lat":43.275,"lon":5.42533,"is_reserved":false,"is_disabled":true,"rental_uris":{"android":"levelo://app?vid=ee993008-3520-4145-a892-ac51da19ce9a","ios":"levelo://app?vid=ee993008-3520-4145-a892-ac51da19ce9a"},"vehicle_type_id":"4","last_reported":1784657293,"current_range_meters":2800,"station_id":"st_d8t4bh7nbrqs73arha60","pricing_plan_id":"cebpf4jnsgd1na2vs0mg"},{"bike_id":"446e6cd1-be3e-4282-b6f0-2ad72c209a9b","system_id":"levelo_inurba_marseille","lat":43.26206,"lon":5.37919,"is_reserved":false,"is_disabled":false,"rental_uris":{"android":"levelo://app?vid=446e6cd1-be3e-4282-b6f0-2ad72c209a9b","ios":"levelo://app?vid=446e6cd1-be3e-4282-b6f0-2ad72c209a9b"},"vehicle_type_id":"4","last_reported":1784657293,"current_range_meters":2800,"station_id":"ce4bhjp2rcd13ifvqg90","pricing_plan_id":"cebpf4jnsgd1na2vs0mg"},{"bike_id":"0d309a6b-3e2c-42ee-b89f-ed34b6006a61","system_id":"levelo_inurba_marseille","lat":43.26789,"lon":5.37533,"is_reserved":false,"is_disabled":false,"rental_uris":{"android":"levelo://app?vid=0d309a6b-3e2c-42ee-b89f-ed34b6006a61","ios":"levelo://app?vid=0d309a6b-3e2c-42ee-b89f-ed34b6006a61"},"vehicle_type_id":"4","last_reported":1784657293,"current_range_meters":2800,"station_id":"","pricing_plan_id":"cebpf4jnsgd1na2vs0mg"},{"bike_id":"bdc95179-e044-4e80-a8ce-81f5dcc41918","system_id":"levelo_inurba_marseille","lat":43.29738,"lon":5.35916,"is_reserved":false,"is_disabled":false,"rental_uris":{"android":"levelo://app?vid=bdc95179-e044-4e80-a8ce-81f5dcc41918","ios":"levelo://app?vid=bdc95179-e044-4e80-a8ce-81f5dcc41918"},"vehicle_type_id":"4","last_reported":1784657293,"current_range_meters":2800,"station_id":"","pricing_plan_id":"cebpf4jnsgd1na2vs0mg"},{"bike_id":"0aea9caa-bcd6-4907-9cd5-27adb3f6da7e","system_id":"levelo_inurba_marseille","lat":43.28935,"lon":5.36623,"is_reserved":false,"is_disabled":false,"rental_uris":{"android":"levelo://app?vid=0aea9caa-bcd6-4907-9cd5-27adb3f6da7e","ios":"levelo://app?vid=0aea9caa-bcd6-4907-9cd5-27adb3f6da7e"},"vehicle_type_id":"4","last_reported":1784657293,"current_range_meters":2800,"station_id":"ce4bhap2rcd13ifvqek0","pricing_plan_id":"cebpf4jnsgd1na2vs0mg"},{"bike_id":"604b8293-b9da-413b-b835-224d90531498","system_id":"levelo_inurba_marseille","lat":43.28276,"lon":5.35076,"is_reserved":false,"is_disabled":false,"rental_uris":{"android":"levelo://app?vid=604b8293-b9da-413b-b835-224d90531498","ios":"levelo://app?vid=604b8293-b9da-413b-b835-224d90531498"},"vehicle_type_id":"4","last_reported":1784657293,"current_range_meters":2800,"station_id":"ce4bhbp2rcd13ifvqerg","pricing_plan_id":"cebpf4jnsgd1na2vs0mg"},{"bike_id":"e71b67c6-a71b-4170-872e-4ab4a4488d0e","system_id":"levelo_inurba_marseille","lat":43.33027,"lon":5.39033,"is_reserved":false,"is_disabled":false,"rental_uris":{"android":"levelo://app?vid=e71b67c6-a71b-4170-872e-4ab4a4488d0e","ios":"levelo://app?vid=e71b67c6-a71b-4170-872e-4ab4a4488d0e"},"vehicle_type_id":"4","last_reported":1784657293,"current_range_meters":2800,"station_id":"ce4bhr92rcd13ifvqhrg","pricing_plan_id":"cebpf4jnsgd1na2vs0mg"},{"bike_id":"b373f021-5a5e-4789-a74c-c4b389637566","system_id":"levelo_inurba_marseille","lat":43.295109,"lon":5.384678,"is_reserved":false,"is_disabled":false,"rental_uris":{"android":"levelo://app?vid=b373f021-5a5e-4789-a74c-c4b389637566","ios":"levelo://app?vid=b373f021-5a5e-4789-a74c-c4b389637566"},"vehicle_type_id":"4","last_reported":1784657293,"current_range_meters":2800,"station_id":"ce4bgih2rcd13ifvqba0","pricing_plan_id":"cebpf4jnsgd1na2vs0mg"},{"bike_id":"1a1c1316-bd3b-4f6e-bd14-7ce719ec5d81","system_id":"levelo_inurba_marseille","lat":43.25596,"lon":5.38218,"is_reserved":false,"is_disabled":false,"rental_uris":{"android":"levelo://app?vid=1a1c1316-bd3b-4f6e-bd14-7ce719ec5d81","ios":"levelo://app?vid=1a1c1316-bd3b-4f6e-bd14-7ce719ec5d81"},"vehicle_type_id":"4","last_reported":1784657293,"current_range_meters":2800,"station_id":"ce4bhih2rcd13ifvqfs0","pricing_plan_id":"cebpf4jnsgd1na2vs0mg"},{"bike_id":"1a8abd86-ab42-48d8-a340-5f03ec7a4014","system_id":"levelo_inurba_marseille","lat":43.29529,"lon":5.39049,"is_reserved":false,"is_disabled":false,"rental_uris":{"android":"levelo://app?vid=1a8abd86-ab42-48d8-a340-5f03ec7a4014","ios":"levelo://app?vid=1a8abd86-ab42-48d8-a340-5f03ec7a4014"},"vehicle_type_id":"4","last_reported":1784657293,"current_range_meters":2800,"station_id":"ce4bh3p2rcd13ifvqdp0","pricing_plan_id":"cebpf4jnsgd1na2vs0mg"},{"bike_id":"f2df53ec-f9e5-48d7-a749-c4beb8c13184","system_id":"levelo_inurba_marseille","lat":43.28281,"lon":5.35088,"is_reserved":false,"is_disabled":false,"rental_uris":{"android":"levelo://app?vid=f2df53ec-f9e5-48d7-a749-c4beb8c13184","ios":"levelo://app?vid=f2df53ec-f9e5-48d7-a749-c4beb8c13184"},"vehicle_type_id":"4","last_reported":1784657293,"current_range_meters":2800,"station_id":"ce4bhbp2rcd13ifvqerg","pricing_plan_id":"cebpf4jnsgd1na2vs0mg"},{"bike_id":"00f0b636-466a-40d9-9fc7-f8ec92a7305f","system_id":"levelo_inurba_marseille","lat":43.29899,"lon":5.38181,"is_reserved":false,"is_disabled":false,"rental_uris":{"android":"levelo://app?vid=00f0b636-466a-40d9-9fc7-f8ec92a7305f","ios":"levelo://app?vid=00f0b636-466a-40d9-9fc7-f8ec92a7305f"},"vehicle_type_id":"4","last_reported":1784657293,"current_range_meters":2800,"station_id":"ce4bgj12rcd13ifvqbc0","pricing_plan_id":"cebpf4jnsgd1na2vs0mg"},{"bike_id":"42bc2ce7-b5df-4945-bb68-1987fe78093e","system_id":"levelo_inurba_marseille","lat":43.298766,"lon":5.397356,"is_reserved":false,"is_disabled":false,"rental_uris":{"android":"levelo://app?vid=42bc2ce7-b5df-4945-bb68-1987fe78093e","ios":"levelo://app?vid=42bc2ce7-b5df-4945-bb68-1987fe78093e"},"vehicle_type_id":"4","last_reported":1784657293,"current_range_meters":2800,"station_id":"ce4bh0h2rcd13ifvqd50","pricing_plan_id":"cebpf4jnsgd1na2vs0mg"},{"bike_id":"9fbf5cfb-1924-4c93-a9aa-7d91078260e6","system_id":"levelo_inurba_marseille","lat":43.29529,"lon":5.38536,"is_reserved":false,"is_disabled":false,"rental_uris":{"android":"levelo://app?vid=9fbf5cfb-1924-4c93-a9aa-7d91078260e6","ios":"levelo://app?vid=9fbf5cfb-1924-4c93-a9aa-7d91078260e6"},"vehicle_type_id":"4","last_reported":1784657293,"current_range_meters":2800,"station_id":"ce4bgih2rcd13ifvqba0","pricing_plan_id":"cebpf4jnsgd1na2vs0mg"},{"bike_id":"ae9b5372-d718-4f9e-8dbf-3c2594ce9336","system_id":"levelo_inurba_marseille","lat":43.32366,"lon":5.38882,"is_reserved":false,"is_disabled":false,"rental_uris":{"android":"levelo://app?vid=ae9b5372-d718-4f9e-8dbf-3c2594ce9336","ios":"levelo://app?vid=ae9b5372-d718-4f9e-8dbf-3c2594ce9336"},"vehicle_type_id":"4","last_reported":1784657293,"current_range_meters":2800,"station_id":"ce4bhqp2rcd13ifvqhog","pricing_plan_id":"cebpf4jnsgd1na2vs0mg"},{"bike_id":"129b09b4-d12e-460d-972b-218caab1e37e","system_id":"levelo_inurba_marseille","lat":43.24945,"lon":5.40489,"is_reserved":false,"is_disabled":false,"rental_uris":{"android":"levelo://app?vid=129b09b4-d12e-460d-972b-218caab1e37e","ios":"levelo://app?vid=129b09b4-d12e-460d-972b-218caab1e37e"},"vehicle_type_id":"4","last_reported":1784657293,"current_range_meters":3200,"station_id":"st_d2ngiaodas8pm72gd1h0","pricing_plan_id":"cebpf4jnsgd1na2vs0mg"},{"bike_id":"33959574-2dc9-4c44-a338-ac32dcc444a4","system_id":"levelo_inurba_marseille","lat":43.26209,"lon":5.37439,"is_reserved":false,"is_disabled":false,"rental_uris":{"android":"levelo://app?vid=33959574-2dc9-4c44-a338-ac32dcc444a4","ios":"levelo://app?vid=33959574-2dc9-4c44-a338-ac32dcc444a4"},"vehicle_type_id":"4","last_reported":1784657293,"current_range_meters":3200,"station_id":"ce4bhgp2rcd13ifvqfc0","pricing_plan_id":"cebpf4jnsgd1na2vs0mg"},{"bike_id":"33a042ef-b299-4364-8fb1-6e90f188d3d6","system_id":"levelo_inurba_marseille","lat":43.28415,"lon":5.34986,"is_reserved":false,"is_disabled":false,"rental_uris":{"android":"levelo://app?vid=33a042ef-b299-4364-8fb1-6e90f188d3d6","ios":"levelo://app?vid=33a042ef-b299-4364-8fb1-6e90f188d3d6"},"vehicle_type_id":"4","last_reported":1784657293,"current_range_meters":3200,"station_id":"ce4bhbh2rcd13ifvqepg","pricing_plan_id":"cebpf4jnsgd1na2vs0mg"},{"bike_id":"0887bece-2d4f-4e80-973b-13908d13331a","system_id":"levelo_inurba_marseille","lat":43.24863,"lon":5.37345,"is_reserved":false,"is_disabled":false,"rental_uris":{"android":"levelo://app?vid=0887bece-2d4f-4e80-973b-13908d13331a","ios":"levelo://app?vid=0887bece-2d4f-4e80-973b-13908d13331a"},"vehicle_type_id":"4","last_reported":1784657293,"current_range_meters":3200,"station_id":"","pricing_plan_id":"cebpf4jnsgd1na2vs0mg"},{"bike_id":"9d58e724-e7b8-41d4-8723-8c088358c0c9","system_id":"levelo_inurba_marseille","lat":43.26928,"lon":5.38914,"is_reserved":false,"is_disabled":false,"rental_uris":{"android":"levelo://app?vid=9d58e724-e7b8-41d4-8723-8c088358c0c9","ios":"levelo://app?vid=9d58e724-e7b8-41d4-8723-8c088358c0c9"},"vehicle_type_id":"4","last_reported":1784657293,"current_range_meters":3200,"station_id":"ce4bhhh2rcd13ifvqfl0","pricing_plan_id":"cebpf4jnsgd1na2vs0mg"},{"bike_id":"0d177229-5a93-4bce-af04-6830e20b86be","system_id":"levelo_inurba_marseille","lat":43.27682,"lon":5.38886,"is_reserved":false,"is_disabled":false,"rental_uris":{"android":"levelo://app?vid=0d177229-5a93-4bce-af04-6830e20b86be","ios":"levelo://app?vid=0d177229-5a93-4bce-af04-6830e20b86be"},"vehicle_type_id":"4","last_reported":1784657293,"current_range_meters":3200,"station_id":"ce4bhi12rcd13ifvqfo0","pricing_plan_id":"cebpf4jnsgd1na2vs0mg"},{"bike_id":"52d103f6-2722-4d94-93b6-488a1fe8ffb0","system_id":"levelo_inurba_marseille","lat":43.28977,"lon":5.35623,"is_reserved":false,"is_disabled":false,"rental_uris":{"android":"levelo://app?vid=52d103f6-2722-4d94-93b6-488a1fe8ffb0","ios":"levelo://app?vid=52d103f6-2722-4d94-93b6-488a1fe8ffb0"},"vehicle_type_id":"4","last_reported":1784657293,"current_range_meters":3200,"station_id":"ce4bhb92rcd13ifvqen0","pricing_plan_id":"cebpf4jnsgd1na2vs0mg"},{"bike_id":"c78588e5-e842-46d1-9397-b2b42bcbb509","system_id":"levelo_inurba_marseille","lat":43.26698,"lon":5.38747,"is_reserved":false,"is_disabled":false,"rental_uris":{"android":"levelo://app?vid=c78588e5-e842-46d1-9397-b2b42bcbb509","ios":"levelo://app?vid=c78588e5-e842-46d1-9397-b2b42bcbb509"},"vehicle_type_id":"4","last_reported":1784657293,"current_range_meters":3200,"station_id":"","pricing_plan_id":"cebpf4jnsgd1na2vs0mg"},{"bike_id":"965c213d-63c4-4cf1-9017-f661f523d87b","system_id":"levelo_inurba_marseille","lat":43.32414,"lon":5.40748,"is_reserved":false,"is_disabled":false,"rental_uris":{"android":"levelo://app?vid=965c213d-63c4-4cf1-9017-f661f523d87b","ios":"levelo://app?vid=965c213d-63c4-4cf1-9017-f661f523d87b"},"vehicle_type_id":"4","last_reported":1784657293,"current_range_meters":3200,"station_id":"","pricing_plan_id":"cebpf4jnsgd1na2vs0mg"},{"bike_id":"7baa07fa-dec9-4f8c-bacd-a2283307ee1a","system_id":"levelo_inurba_marseille","lat":43.30922,"lon":5.40143,"is_reserved":false,"is_disabled":false,"rental_uris":{"android":"levelo://app?vid=7baa07fa-dec9-4f8c-bacd-a2283307ee1a","ios":"levelo://app?vid=7baa07fa-dec9-4f8c-bacd-a2283307ee1a"},"vehicle_type_id":"4","last_reported":1784657293,"current_range_meters":3200,"station_id":"ce4bgvp2rcd13ifvqct0","pricing_plan_id":"cebpf4jnsgd1na2vs0mg"},{"bike_id":"5bc72dc3-83be-4a6b-89ac-b484cf13d2ff","system_id":"levelo_inurba_marseille","lat":43.26421,"lon":5.39887,"is_reserved":false,"is_disabled":false,"rental_uris":{"android":"levelo://app?vid=5bc72dc3-83be-4a6b-89ac-b484cf13d2ff","ios":"levelo://app?vid=5bc72dc3-83be-4a6b-89ac-b484cf13d2ff"},"vehicle_type_id":"4","last_reported":1784657293,"current_range_meters":3200,"station_id":"","pricing_plan_id":"cebpf4jnsgd1na2vs0mg"},{"bike_id":"fc5c6550-d064-4371-b106-c78baba87a00","system_id":"levelo_inurba_marseille","lat":43.265494,"lon":5.372847,"is_reserved":false,"is_disabled":false,"rental_uris":{"android":"levelo://app?vid=fc5c6550-d064-4371-b106-c78baba87a00","ios":"levelo://app?vid=fc5c6550-d064-4371-b106-c78baba87a00"},"vehicle_type_id":"4","last_reported":1784657293,"current_range_meters":3200,"station_id":"ce4bhg12rcd13ifvqf70","pricing_plan_id":"cebpf4jnsgd1na2vs0mg"},{"bike_id":"0ac32533-0f1f-43cc-a51c-ce3d3727e96e","system_id":"levelo_inurba_marseille","lat":43.28035,"lon":5.36081,"is_reserved":false,"is_disabled":false,"rental_uris":{"android":"levelo://app?vid=0ac32533-0f1f-43cc-a51c-ce3d3727e96e","ios":"levelo://app?vid=0ac32533-0f1f-43cc-a51c-ce3d3727e96e"},"vehicle_type_id":"4","last_reported":1784657293,"current_range_meters":3200,"station_id":"","pricing_plan_id":"cebpf4jnsgd1na2vs0mg"},{"bike_id":"143b0326-bcc2-41fe-ac94-ce3903ac509a","system_id":"levelo_inurba_marseille","lat":43.30838,"lon":5.40423,"is_reserved":false,"is_disabled":false,"rental_uris":{"android":"levelo://app?vid=143b0326-bcc2-41fe-ac94-ce3903ac509a","ios":"levelo://app?vid=143b0326-bcc2-41fe-ac94-ce3903ac509a"},"vehicle_type_id":"4","last_reported":1784657293,"current_range_meters":3600,"station_id":"","pricing_plan_id":"cebpf4jnsgd1na2vs0mg"},{"bike_id":"1ae20384-5ccd-4145-9a1d-f626b16c7a9e","system_id":"levelo_inurba_marseille","lat":43.31133,"lon":5.46436,"is_reserved":false,"is_disabled":false,"rental_uris":{"android":"levelo://app?vid=1ae20384-5ccd-4145-9a1d-f626b16c7a9e","ios":"levelo://app?vid=1ae20384-5ccd-4145-9a1d-f626b16c7a9e"},"vehicle_type_id":"4","last_reported":1784657293,"current_range_meters":3600,"station_id":"","pricing_plan_id":"cebpf4jnsgd1na2vs0mg"},{"bike_id":"be9def7e-1f9e-4a2a-9f18-1b6c8aeefc4f","system_id":"levelo_inurba_marseille","lat":43.31162,"lon":5.38601,"is_reserved":false,"is_disabled":false,"rental_uris":{"android":"levelo://app?vid=be9def7e-1f9e-4a2a-9f18-1b6c8aeefc4f","ios":"levelo://app?vid=be9def7e-1f9e-4a2a-9f18-1b6c8aeefc4f"},"vehicle_type_id":"4","last_reported":1784657293,"current_range_meters":3600,"station_id":"","pricing_plan_id":"cebpf4jnsgd1na2vs0mg"},{"bike_id":"5a9c339b-d4aa-4b9f-9738-85b7ed5a0f46","system_id":"levelo_inurba_marseille","lat":43.29581,"lon":5.36756,"is_reserved":false,"is_disabled":false,"rental_uris":{"android":"levelo://app?vid=5a9c339b-d4aa-4b9f-9738-85b7ed5a0f46","ios":"levelo://app?vid=5a9c339b-d4aa-4b9f-9738-85b7ed5a0f46"},"vehicle_type_id":"4","last_reported":1784657293,"current_range_meters":3600,"station_id":"","pricing_plan_id":"cebpf4jnsgd1na2vs0mg"},{"bike_id":"230febdd-e8b1-4571-a53f-077a899c84dd","system_id":"levelo_inurba_marseille","lat":43.300874,"lon":5.390809,"is_reserved":false,"is_disabled":false,"rental_uris":{"android":"levelo://app?vid=230febdd-e8b1-4571-a53f-077a899c84dd","ios":"levelo://app?vid=230febdd-e8b1-4571-a53f-077a899c84dd"},"vehicle_type_id":"4","last_reported":1784657293,"current_range_meters":3600,"station_id":"ce4bh192rcd13ifvqdb0","pricing_plan_id":"cebpf4jnsgd1na2vs0mg"},{"bike_id":"6e74caa9-dd75-4f4f-a381-885f76895511","system_id":"levelo_inurba_marseille","lat":43.3171,"lon":5.37763,"is_reserved":false,"is_disabled":false,"rental_uris":{"android":"levelo://app?vid=6e74caa9-dd75-4f4f-a381-885f76895511","ios":"levelo://app?vid=6e74caa9-dd75-4f4f-a381-885f76895511"},"vehicle_type_id":"4","last_reported":1784657293,"current_range_meters":3600,"station_id":"ce4bgth2rcd13ifvqch0","pricing_plan_id":"cebpf4jnsgd1na2vs0mg"},{"bike_id":"3dc5c94a-91b9-4004-95ec-7064c9b53155","system_id":"levelo_inurba_marseille","lat":43.28697,"lon":5.46694,"is_reserved":false,"is_disabled":false,"rental_uris":{"android":"levelo://app?vid=3dc5c94a-91b9-4004-95ec-7064c9b53155","ios":"levelo://app?vid=3dc5c94a-91b9-4004-95ec-7064c9b53155"},"vehicle_type_id":"4","last_reported":1784657293,"current_range_meters":3600,"station_id":"st_d6tc3vkotcvc738tfjhg","pricing_plan_id":"cebpf4jnsgd1na2vs0mg"},{"bike_id":"c959a0d8-a43b-4b91-be9a-464342ecdbcb","system_id":"levelo_inurba_marseille","lat":43.29265,"lon":5.36846,"is_reserved":false,"is_disabled":true,"rental_uris":{"android":"levelo://app?vid=c959a0d8-a43b-4b91-be9a-464342ecdbcb","ios":"levelo://app?vid=c959a0d8-a43b-4b91-be9a-464342ecdbcb"},"vehicle_type_id":"4","last_reported":1784657293,"current_range_meters":3600,"station_id":"","pricing_plan_id":"cebpf4jnsgd1na2vs0mg"},{"bike_id":"6b98d8e9-61cd-4fa1-ac38-ca27269adffa","system_id":"levelo_inurba_marseille","lat":43.31343,"lon":5.39707,"is_reserved":false,"is_disabled":false,"rental_uris":{"android":"levelo://app?vid=6b98d8e9-61cd-4fa1-ac38-ca27269adffa","ios":"levelo://app?vid=6b98d8e9-61cd-4fa1-ac38-ca27269adffa"},"vehicle_type_id":"4","last_reported":1784657293,"current_range_meters":3600,"station_id":"ce4bgvp2rcd13ifvqcu0","pricing_plan_id":"cebpf4jnsgd1na2vs0mg"},{"bike_id":"d97e9252-f2ec-42b3-899a-35449d25dc7b","system_id":"levelo_inurba_marseille","lat":43.26033,"lon":5.37544,"is_reserved":false,"is_disabled":false,"rental_uris":{"android":"levelo://app?vid=d97e9252-f2ec-42b3-899a-35449d25dc7b","ios":"levelo://app?vid=d97e9252-f2ec-42b3-899a-35449d25dc7b"},"vehicle_type_id":"4","last_reported":1784657293,"current_range_meters":3600,"station_id":"ce4bhgh2rcd13ifvqfa0","pricing_plan_id":"cebpf4jnsgd1na2vs0mg"},{"bike_id":"c9ea0748-106e-40e1-aa41-01d81f5f146d","system_id":"levelo_inurba_marseille","lat":43.21755,"lon":5.346,"is_reserved":false,"is_disabled":false,"rental_uris":{"android":"levelo://app?vid=c9ea0748-106e-40e1-aa41-01d81f5f146d","ios":"levelo://app?vid=c9ea0748-106e-40e1-aa41-01d81f5f146d"},"vehicle_type_id":"4","last_reported":1784657293,"current_range_meters":3600,"station_id":"st_cvj6r9ubvosntc0bgbag","pricing_plan_id":"cebpf4jnsgd1na2vs0mg"},{"bike_id":"23f7077c-788f-46bb-bca4-2f9d5550e5d5","system_id":"levelo_inurba_marseille","lat":43.27633,"lon":5.36099,"is_reserved":false,"is_disabled":false,"rental_uris":{"android":"levelo://app?vid=23f7077c-788f-46bb-bca4-2f9d5550e5d5","ios":"levelo://app?vid=23f7077c-788f-46bb-bca4-2f9d5550e5d5"},"vehicle_type_id":"4","last_reported":1784657293,"current_range_meters":3600,"station_id":"ce4bgj92rcd13ifvqbe0","pricing_plan_id":"cebpf4jnsgd1na2vs0mg"},{"bike_id":"c356d87f-5267-4bd2-ab01-b783e780e0b1","system_id":"levelo_inurba_marseille","lat":43.21191,"lon":5.35066,"is_reserved":false,"is_disabled":false,"rental_uris":{"android":"levelo://app?vid=c356d87f-5267-4bd2-ab01-b783e780e0b1","ios":"levelo://app?vid=c356d87f-5267-4bd2-ab01-b783e780e0b1"},"vehicle_type_id":"4","last_reported":1784657293,"current_range_meters":3600,"station_id":"st_cvj6sg6p6f1abm77japg","pricing_plan_id":"cebpf4jnsgd1na2vs0mg"},{"bike_id":"7136b449-2c92-4676-9144-020b830b36aa","system_id":"levelo_inurba_marseille","lat":43.21196,"lon":5.35065,"is_reserved":false,"is_disabled":false,"rental_uris":{"android":"levelo://app?vid=7136b449-2c92-4676-9144-020b830b36aa","ios":"levelo://app?vid=7136b449-2c92-4676-9144-020b830b36aa"},"vehicle_type_id":"4","last_reported":1784657293,"current_range_meters":3600,"station_id":"st_cvj6sg6p6f1abm77japg","pricing_plan_id":"cebpf4jnsgd1na2vs0mg"},{"bike_id":"2dc73b1c-f8fc-4aa4-b8da-ac18de82f76c","system_id":"levelo_inurba_marseille","lat":43.299,"lon":5.38137,"is_reserved":false,"is_disabled":false,"rental_uris":{"android":"levelo://app?vid=2dc73b1c-f8fc-4aa4-b8da-ac18de82f76c","ios":"levelo://app?vid=2dc73b1c-f8fc-4aa4-b8da-ac18de82f76c"},"vehicle_type_id":"4","last_reported":1784657293,"current_range_meters":3600,"station_id":"ce4bgj12rcd13ifvqbc0","pricing_plan_id":"cebpf4jnsgd1na2vs0mg"},{"bike_id":"14c58f5c-5159-4f74-b24f-cc07dfc07cdb","system_id":"levelo_inurba_marseille","lat":43.22549,"lon":5.41628,"is_reserved":false,"is_disabled":false,"rental_uris":{"android":"levelo://app?vid=14c58f5c-5159-4f74-b24f-cc07dfc07cdb","ios":"levelo://app?vid=14c58f5c-5159-4f74-b24f-cc07dfc07cdb"},"vehicle_type_id":"4","last_reported":1784657293,"current_range_meters":3600,"station_id":"st_d2o4gvlbi1j2169b742g","pricing_plan_id":"cebpf4jnsgd1na2vs0mg"},{"bike_id":"1d9536b0-bb9c-45fd-88cf-878234fc39a5","system_id":"levelo_inurba_marseille","lat":43.2466,"lon":5.41608,"is_reserved":false,"is_disabled":false,"rental_uris":{"android":"levelo://app?vid=1d9536b0-bb9c-45fd-88cf-878234fc39a5","ios":"levelo://app?vid=1d9536b0-bb9c-45fd-88cf-878234fc39a5"},"vehicle_type_id":"4","last_reported":1784657293,"current_range_meters":3600,"station_id":"","pricing_plan_id":"cebpf4jnsgd1na2vs0mg"},{"bike_id":"559e9981-8b1a-4858-8763-9db123719336","system_id":"levelo_inurba_marseille","lat":43.282741,"lon":5.350605,"is_reserved":false,"is_disabled":false,"rental_uris":{"android":"levelo://app?vid=559e9981-8b1a-4858-8763-9db123719336","ios":"levelo://app?vid=559e9981-8b1a-4858-8763-9db123719336"},"vehicle_type_id":"4","last_reported":1784657293,"current_range_meters":3600,"station_id":"ce4bhbp2rcd13ifvqerg","pricing_plan_id":"cebpf4jnsgd1na2vs0mg"},{"bike_id":"ce0979eb-4e19-46ef-b757-2df70ce36711","system_id":"levelo_inurba_marseille","lat":43.27495,"lon":5.42462,"is_reserved":false,"is_disabled":false,"rental_uris":{"android":"levelo://app?vid=ce0979eb-4e19-46ef-b757-2df70ce36711","ios":"levelo://app?vid=ce0979eb-4e19-46ef-b757-2df70ce36711"},"vehicle_type_id":"4","last_reported":1784657293,"current_range_meters":4000,"station_id":"ce4bhn92rcd13ifvqgrg","pricing_plan_id":"cebpf4jnsgd1na2vs0mg"},{"bike_id":"24678dfb-385e-4c23-beb0-1294407b4c0f","system_id":"levelo_inurba_marseille","lat":43.29491,"lon":5.43292,"is_reserved":false,"is_disabled":false,"rental_uris":{"android":"levelo://app?vid=24678dfb-385e-4c23-beb0-1294407b4c0f","ios":"levelo://app?vid=24678dfb-385e-4c23-beb0-1294407b4c0f"},"vehicle_type_id":"4","last_reported":1784657293,"current_range_meters":4000,"station_id":"st_d3j5ugp08ojc73fj9d10","pricing_plan_id":"cebpf4jnsgd1na2vs0mg"},{"bike_id":"5ad00290-abed-4c08-8ab0-2bae27fe8393","system_id":"levelo_inurba_marseille","lat":43.28849,"lon":5.35843,"is_reserved":false,"is_disabled":false,"rental_uris":{"android":"levelo://app?vid=5ad00290-abed-4c08-8ab0-2bae27fe8393","ios":"levelo://app?vid=5ad00290-abed-4c08-8ab0-2bae27fe8393"},"vehicle_type_id":"4","last_reported":1784657293,"current_range_meters":4000,"station_id":"ce4bhb12rcd13ifvqem0","pricing_plan_id":"cebpf4jnsgd1na2vs0mg"},{"bike_id":"1b076a88-a1fa-4ce9-9a66-fb83e1301c77","system_id":"levelo_inurba_marseille","lat":43.24808,"lon":5.3745,"is_reserved":false,"is_disabled":false,"rental_uris":{"android":"levelo://app?vid=1b076a88-a1fa-4ce9-9a66-fb83e1301c77","ios":"levelo://app?vid=1b076a88-a1fa-4ce9-9a66-fb83e1301c77"},"vehicle_type_id":"4","last_reported":1784657293,"current_range_meters":4000,"station_id":"ce4bhgh2rcd13ifvqfb0","pricing_plan_id":"cebpf4jnsgd1na2vs0mg"},{"bike_id":"cb7c2025-0144-4f53-ae50-4f2322ebec90","system_id":"levelo_inurba_marseille","lat":43.28273,"lon":5.35069,"is_reserved":false,"is_disabled":false,"rental_uris":{"android":"levelo://app?vid=cb7c2025-0144-4f53-ae50-4f2322ebec90","ios":"levelo://app?vid=cb7c2025-0144-4f53-ae50-4f2322ebec90"},"vehicle_type_id":"4","last_reported":1784657293,"current_range_meters":4000,"station_id":"ce4bhbp2rcd13ifvqerg","pricing_plan_id":"cebpf4jnsgd1na2vs0mg"},{"bike_id":"e4a8b9e3-c52a-4443-b1d6-b105c6d39104","system_id":"levelo_inurba_marseille","lat":43.26434,"lon":5.37107,"is_reserved":false,"is_disabled":true,"rental_uris":{"android":"levelo://app?vid=e4a8b9e3-c52a-4443-b1d6-b105c6d39104","ios":"levelo://app?vid=e4a8b9e3-c52a-4443-b1d6-b105c6d39104"},"vehicle_type_id":"4","last_reported":1784657293,"current_range_meters":4000,"station_id":"","pricing_plan_id":"cebpf4jnsgd1na2vs0mg"},{"bike_id":"1378dd7a-8710-457a-b701-f563e82ed61f","system_id":"levelo_inurba_marseille","lat":43.27373,"lon":5.36254,"is_reserved":false,"is_disabled":false,"rental_uris":{"android":"levelo://app?vid=1378dd7a-8710-457a-b701-f563e82ed61f","ios":"levelo://app?vid=1378dd7a-8710-457a-b701-f563e82ed61f"},"vehicle_type_id":"4","last_reported":1784657293,"current_range_meters":4000,"station_id":"ce4bhbh2rcd13ifvqeo0","pricing_plan_id":"cebpf4jnsgd1na2vs0mg"},{"bike_id":"29ebc74b-c926-403f-8ad2-a76fc708b9ba","system_id":"levelo_inurba_marseille","lat":43.32659,"lon":5.4099,"is_reserved":false,"is_disabled":false,"rental_uris":{"android":"levelo://app?vid=29ebc74b-c926-403f-8ad2-a76fc708b9ba","ios":"levelo://app?vid=29ebc74b-c926-403f-8ad2-a76fc708b9ba"},"vehicle_type_id":"4","last_reported":1784657293,"current_range_meters":4000,"station_id":"ce4bhpp2rcd13ifvqhgg","pricing_plan_id":"cebpf4jnsgd1na2vs0mg"},{"bike_id":"0af2572c-170a-48b0-8194-e1c9dc60569a","system_id":"levelo_inurba_marseille","lat":43.29634,"lon":5.40595,"is_reserved":false,"is_disabled":false,"rental_uris":{"android":"levelo://app?vid=0af2572c-170a-48b0-8194-e1c9dc60569a","ios":"levelo://app?vid=0af2572c-170a-48b0-8194-e1c9dc60569a"},"vehicle_type_id":"4","last_reported":1784657293,"current_range_meters":4000,"station_id":"ce4bh0h2rcd13ifvqd60","pricing_plan_id":"cebpf4jnsgd1na2vs0mg"},{"bike_id":"472db486-7bf9-44da-865a-2d96eba81268","system_id":"levelo_inurba_marseille","lat":43.29521,"lon":5.38126,"is_reserved":false,"is_disabled":false,"rental_uris":{"android":"levelo://app?vid=472db486-7bf9-44da-865a-2d96eba81268","ios":"levelo://app?vid=472db486-7bf9-44da-865a-2d96eba81268"},"vehicle_type_id":"4","last_reported":1784657293,"current_range_meters":4000,"station_id":"","pricing_plan_id":"cebpf4jnsgd1na2vs0mg"},{"bike_id":"6494ec5d-169a-40e7-8f47-5535fc728f1a","system_id":"levelo_inurba_marseille","lat":43.28934,"lon":5.36641,"is_reserved":false,"is_disabled":false,"rental_uris":{"android":"levelo://app?vid=6494ec5d-169a-40e7-8f47-5535fc728f1a","ios":"levelo://app?vid=6494ec5d-169a-40e7-8f47-5535fc728f1a"},"vehicle_type_id":"4","last_reported":1784657293,"current_range_meters":4000,"station_id":"ce4bhap2rcd13ifvqek0","pricing_plan_id":"cebpf4jnsgd1na2vs0mg"},{"bike_id":"3adaa436-b43b-48cb-8b46-f9ab5d9a6fa2","system_id":"levelo_inurba_marseille","lat":43.2903,"lon":5.4329,"is_reserved":false,"is_disabled":false,"rental_uris":{"android":"levelo://app?vid=3adaa436-b43b-48cb-8b46-f9ab5d9a6fa2","ios":"levelo://app?vid=3adaa436-b43b-48cb-8b46-f9ab5d9a6fa2"},"vehicle_type_id":"4","last_reported":1784657293,"current_range_meters":4000,"station_id":"","pricing_plan_id":"cebpf4jnsgd1na2vs0mg"},{"bike_id":"35fd9c9d-aae6-4949-9fc2-afeda0755e2e","system_id":"levelo_inurba_marseille","lat":43.29625,"lon":5.40593,"is_reserved":false,"is_disabled":false,"rental_uris":{"android":"levelo://app?vid=35fd9c9d-aae6-4949-9fc2-afeda0755e2e","ios":"levelo://app?vid=35fd9c9d-aae6-4949-9fc2-afeda0755e2e"},"vehicle_type_id":"4","last_reported":1784657293,"current_range_meters":4000,"station_id":"ce4bh0h2rcd13ifvqd60","pricing_plan_id":"cebpf4jnsgd1na2vs0mg"},{"bike_id":"9d68dbf3-63cb-4ea8-b04d-3bea4cd92dba","system_id":"levelo_inurba_marseille","lat":43.24798,"lon":5.37455,"is_reserved":false,"is_disabled":false,"rental_uris":{"android":"levelo://app?vid=9d68dbf3-63cb-4ea8-b04d-3bea4cd92dba","ios":"levelo://app?vid=9d68dbf3-63cb-4ea8-b04d-3bea4cd92dba"},"vehicle_type_id":"4","last_reported":1784657293,"current_range_meters":4000,"station_id":"ce4bhgh2rcd13ifvqfb0","pricing_plan_id":"cebpf4jnsgd1na2vs0mg"},{"bike_id":"cd577293-cbff-48ce-9c87-eb636bccbfc3","system_id":"levelo_inurba_marseille","lat":43.28282,"lon":5.35076,"is_reserved":false,"is_disabled":false,"rental_uris":{"android":"levelo://app?vid=cd577293-cbff-48ce-9c87-eb636bccbfc3","ios":"levelo://app?vid=cd577293-cbff-48ce-9c87-eb636bccbfc3"},"vehicle_type_id":"4","last_reported":1784657293,"current_range_meters":4000,"station_id":"ce4bhbp2rcd13ifvqerg","pricing_plan_id":"cebpf4jnsgd1na2vs0mg"},{"bike_id":"57b1db6c-e237-41c2-8650-944d418ebe6a","system_id":"levelo_inurba_marseille","lat":43.23897,"lon":5.37459,"is_reserved":false,"is_disabled":false,"rental_uris":{"android":"levelo://app?vid=57b1db6c-e237-41c2-8650-944d418ebe6a","ios":"levelo://app?vid=57b1db6c-e237-41c2-8650-944d418ebe6a"},"vehicle_type_id":"4","last_reported":1784657293,"current_range_meters":4000,"station_id":"st_d6sm7csbq4hs73f8fpjg","pricing_plan_id":"cebpf4jnsgd1na2vs0mg"},{"bike_id":"284d0864-8f6f-4254-98e2-f78082466239","system_id":"levelo_inurba_marseille","lat":43.28718,"lon":5.35205,"is_reserved":false,"is_disabled":false,"rental_uris":{"android":"levelo://app?vid=284d0864-8f6f-4254-98e2-f78082466239","ios":"levelo://app?vid=284d0864-8f6f-4254-98e2-f78082466239"},"vehicle_type_id":"4","last_reported":1784657293,"current_range_meters":4400,"station_id":"","pricing_plan_id":"cebpf4jnsgd1na2vs0mg"},{"bike_id":"d2861908-1fc6-40df-93af-8c183c3dbd31","system_id":"levelo_inurba_marseille","lat":43.29784,"lon":5.39336,"is_reserved":false,"is_disabled":true,"rental_uris":{"android":"levelo://app?vid=d2861908-1fc6-40df-93af-8c183c3dbd31","ios":"levelo://app?vid=d2861908-1fc6-40df-93af-8c183c3dbd31"},"vehicle_type_id":"4","last_reported":1784657293,"current_range_meters":4400,"station_id":"chh1huq6cuj3fo74tm60","pricing_plan_id":"cebpf4jnsgd1na2vs0mg"},{"bike_id":"7d6837a7-2ba7-49e4-84de-3581e0b0ae4c","system_id":"levelo_inurba_marseille","lat":43.27613,"lon":5.36105,"is_reserved":false,"is_disabled":false,"rental_uris":{"android":"levelo://app?vid=7d6837a7-2ba7-49e4-84de-3581e0b0ae4c","ios":"levelo://app?vid=7d6837a7-2ba7-49e4-84de-3581e0b0ae4c"},"vehicle_type_id":"4","last_reported":1784657293,"current_range_meters":4400,"station_id":"ce4bgj92rcd13ifvqbe0","pricing_plan_id":"cebpf4jnsgd1na2vs0mg"},{"bike_id":"97d170f8-b4d7-4c6f-bccf-c1df5a4c63f6","system_id":"levelo_inurba_marseille","lat":43.28262,"lon":5.35062,"is_reserved":false,"is_disabled":false,"rental_uris":{"android":"levelo://app?vid=97d170f8-b4d7-4c6f-bccf-c1df5a4c63f6","ios":"levelo://app?vid=97d170f8-b4d7-4c6f-bccf-c1df5a4c63f6"},"vehicle_type_id":"4","last_reported":1784657293,"current_range_meters":4400,"station_id":"ce4bhbp2rcd13ifvqerg","pricing_plan_id":"cebpf4jnsgd1na2vs0mg"},{"bike_id":"f3da1450-b759-4c75-8515-28cb50f5af77","system_id":"levelo_inurba_marseille","lat":43.31589,"lon":5.40612,"is_reserved":false,"is_disabled":false,"rental_uris":{"android":"levelo://app?vid=f3da1450-b759-4c75-8515-28cb50f5af77","ios":"levelo://app?vid=f3da1450-b759-4c75-8515-28cb50f5af77"},"vehicle_type_id":"4","last_reported":1784657293,"current_range_meters":4400,"station_id":"","pricing_plan_id":"cebpf4jnsgd1na2vs0mg"},{"bike_id":"82c094ba-6621-432a-9b61-3b9614be9311","system_id":"levelo_inurba_marseille","lat":43.27545,"lon":5.40927,"is_reserved":false,"is_disabled":false,"rental_uris":{"android":"levelo://app?vid=82c094ba-6621-432a-9b61-3b9614be9311","ios":"levelo://app?vid=82c094ba-6621-432a-9b61-3b9614be9311"},"vehicle_type_id":"4","last_reported":1784657293,"current_range_meters":4400,"station_id":"","pricing_plan_id":"cebpf4jnsgd1na2vs0mg"},{"bike_id":"a9962570-c2a2-41c8-a29d-154b817fefaa","system_id":"levelo_inurba_marseille","lat":43.24475,"lon":5.4109,"is_reserved":false,"is_disabled":false,"rental_uris":{"android":"levelo://app?vid=a9962570-c2a2-41c8-a29d-154b817fefaa","ios":"levelo://app?vid=a9962570-c2a2-41c8-a29d-154b817fefaa"},"vehicle_type_id":"4","last_reported":1784657293,"current_range_meters":4400,"station_id":"","pricing_plan_id":"cebpf4jnsgd1na2vs0mg"},{"bike_id":"6501867b-15c4-4a58-890c-6baad7569cb5","system_id":"levelo_inurba_marseille","lat":43.28613,"lon":5.37068,"is_reserved":false,"is_disabled":false,"rental_uris":{"android":"levelo://app?vid=6501867b-15c4-4a58-890c-6baad7569cb5","ios":"levelo://app?vid=6501867b-15c4-4a58-890c-6baad7569cb5"},"vehicle_type_id":"4","last_reported":1784657293,"current_range_meters":4400,"station_id":"ce4bht12rcd13ifvqi60","pricing_plan_id":"cebpf4jnsgd1na2vs0mg"},{"bike_id":"474c8d97-9420-47d2-ab02-e63bdd8afe30","system_id":"levelo_inurba_marseille","lat":43.29222,"lon":5.36073,"is_reserved":false,"is_disabled":false,"rental_uris":{"android":"levelo://app?vid=474c8d97-9420-47d2-ab02-e63bdd8afe30","ios":"levelo://app?vid=474c8d97-9420-47d2-ab02-e63bdd8afe30"},"vehicle_type_id":"4","last_reported":1784657293,"current_range_meters":4400,"station_id":"","pricing_plan_id":"cebpf4jnsgd1na2vs0mg"},{"bike_id":"a5033e46-59df-4ea2-aa93-eebc81fc66d5","system_id":"levelo_inurba_marseille","lat":43.25504,"lon":5.37642,"is_reserved":false,"is_disabled":false,"rental_uris":{"android":"levelo://app?vid=a5033e46-59df-4ea2-aa93-eebc81fc66d5","ios":"levelo://app?vid=a5033e46-59df-4ea2-aa93-eebc81fc66d5"},"vehicle_type_id":"4","last_reported":1784657293,"current_range_meters":4400,"station_id":"ce4bhh12rcd13ifvqff0","pricing_plan_id":"cebpf4jnsgd1na2vs0mg"},{"bike_id":"4dca912d-b1c5-443a-aa68-365eceb47a42","system_id":"levelo_inurba_marseille","lat":43.26924,"lon":5.38894,"is_reserved":false,"is_disabled":false,"rental_uris":{"android":"levelo://app?vid=4dca912d-b1c5-443a-aa68-365eceb47a42","ios":"levelo://app?vid=4dca912d-b1c5-443a-aa68-365eceb47a42"},"vehicle_type_id":"4","last_reported":1784657293,"current_range_meters":4400,"station_id":"ce4bhhh2rcd13ifvqfl0","pricing_plan_id":"cebpf4jnsgd1na2vs0mg"},{"bike_id":"c109b2d9-65da-4e50-aaec-c693244e4c92","system_id":"levelo_inurba_marseille","lat":43.29586,"lon":5.38095,"is_reserved":false,"is_disabled":false,"rental_uris":{"android":"levelo://app?vid=c109b2d9-65da-4e50-aaec-c693244e4c92","ios":"levelo://app?vid=c109b2d9-65da-4e50-aaec-c693244e4c92"},"vehicle_type_id":"4","last_reported":1784657293,"current_range_meters":4400,"station_id":"ce4bgl12rcd13ifvqbo0","pricing_plan_id":"cebpf4jnsgd1na2vs0mg"},{"bike_id":"2d9d0803-4771-496d-8925-5b2e232b4636","system_id":"levelo_inurba_marseille","lat":43.2256,"lon":5.41618,"is_reserved":false,"is_disabled":false,"rental_uris":{"android":"levelo://app?vid=2d9d0803-4771-496d-8925-5b2e232b4636","ios":"levelo://app?vid=2d9d0803-4771-496d-8925-5b2e232b4636"},"vehicle_type_id":"4","last_reported":1784657293,"current_range_meters":4400,"station_id":"st_d2o4gvlbi1j2169b742g","pricing_plan_id":"cebpf4jnsgd1na2vs0mg"},{"bike_id":"be7033ce-6349-45aa-896a-387ca8ede0b4","system_id":"levelo_inurba_marseille","lat":43.2848,"lon":5.48406,"is_reserved":false,"is_disabled":false,"rental_uris":{"android":"levelo://app?vid=be7033ce-6349-45aa-896a-387ca8ede0b4","ios":"levelo://app?vid=be7033ce-6349-45aa-896a-387ca8ede0b4"},"vehicle_type_id":"4","last_reported":1784657293,"current_range_meters":4800,"station_id":"st_d3svhcjqgbts73a3dn0g","pricing_plan_id":"cebpf4jnsgd1na2vs0mg"},{"bike_id":"c61b03c7-bdcc-4b43-9eb2-16cb8d8e68f6","system_id":"levelo_inurba_marseille","lat":43.3354,"lon":5.3745,"is_reserved":false,"is_disabled":false,"rental_uris":{"android":"levelo://app?vid=c61b03c7-bdcc-4b43-9eb2-16cb8d8e68f6","ios":"levelo://app?vid=c61b03c7-bdcc-4b43-9eb2-16cb8d8e68f6"},"vehicle_type_id":"4","last_reported":1784657293,"current_range_meters":4800,"station_id":"st_d46tts09ee8s73dlu43g","pricing_plan_id":"cebpf4jnsgd1na2vs0mg"},{"bike_id":"489d4e83-3aa3-449d-a2ce-274b8bbe70f0","system_id":"levelo_inurba_marseille","lat":43.30119,"lon":5.43111,"is_reserved":false,"is_disabled":false,"rental_uris":{"android":"levelo://app?vid=489d4e83-3aa3-449d-a2ce-274b8bbe70f0","ios":"levelo://app?vid=489d4e83-3aa3-449d-a2ce-274b8bbe70f0"},"vehicle_type_id":"4","last_reported":1784657293,"current_range_meters":4800,"station_id":"st_d3js3co5814s73ftftug","pricing_plan_id":"cebpf4jnsgd1na2vs0mg"},{"bike_id":"8b493a28-e69a-41bf-b257-785b09356034","system_id":"levelo_inurba_marseille","lat":43.2694,"lon":5.40257,"is_reserved":false,"is_disabled":false,"rental_uris":{"android":"levelo://app?vid=8b493a28-e69a-41bf-b257-785b09356034","ios":"levelo://app?vid=8b493a28-e69a-41bf-b257-785b09356034"},"vehicle_type_id":"4","last_reported":1784657293,"current_range_meters":4800,"station_id":"cjm6bp8fraef2m0cb0m0","pricing_plan_id":"cebpf4jnsgd1na2vs0mg"},{"bike_id":"c5f2fb66-30d9-4cc8-ba12-ddf356dbdf5b","system_id":"levelo_inurba_marseille","lat":43.33158,"lon":5.37671,"is_reserved":false,"is_disabled":false,"rental_uris":{"android":"levelo://app?vid=c5f2fb66-30d9-4cc8-ba12-ddf356dbdf5b","ios":"levelo://app?vid=c5f2fb66-30d9-4cc8-ba12-ddf356dbdf5b"},"vehicle_type_id":"4","last_reported":1784657293,"current_range_meters":4800,"station_id":"st_d46cu089ee8s73dldbu0","pricing_plan_id":"cebpf4jnsgd1na2vs0mg"},{"bike_id":"f07902e8-bab7-4fab-8a5b-abe7dedcfe8a","system_id":"levelo_inurba_marseille","lat":43.22833,"lon":5.44095,"is_reserved":false,"is_disabled":false,"rental_uris":{"android":"levelo://app?vid=f07902e8-bab7-4fab-8a5b-abe7dedcfe8a","ios":"levelo://app?vid=f07902e8-bab7-4fab-8a5b-abe7dedcfe8a"},"vehicle_type_id":"4","last_reported":1784657293,"current_range_meters":4800,"station_id":"","pricing_plan_id":"cebpf4jnsgd1na2vs0mg"},{"bike_id":"28da6f2c-bc63-4b13-9bb8-5bc787f700a5","system_id":"levelo_inurba_marseille","lat":43.29895,"lon":5.38147,"is_reserved":false,"is_disabled":false,"rental_uris":{"android":"levelo://app?vid=28da6f2c-bc63-4b13-9bb8-5bc787f700a5","ios":"levelo://app?vid=28da6f2c-bc63-4b13-9bb8-5bc787f700a5"},"vehicle_type_id":"4","last_reported":1784657293,"current_range_meters":4800,"station_id":"ce4bgj12rcd13ifvqbc0","pricing_plan_id":"cebpf4jnsgd1na2vs0mg"},{"bike_id":"8923e282-16ce-478e-91d0-b741eab043c7","system_id":"levelo_inurba_marseille","lat":43.24162,"lon":5.36397,"is_reserved":false,"is_disabled":false,"rental_uris":{"android":"levelo://app?vid=8923e282-16ce-478e-91d0-b741eab043c7","ios":"levelo://app?vid=8923e282-16ce-478e-91d0-b741eab043c7"},"vehicle_type_id":"4","last_reported":1784657293,"current_range_meters":4800,"station_id":"cpo36qri1sfpv3e86is0","pricing_plan_id":"cebpf4jnsgd1na2vs0mg"},{"bike_id":"2579bf3d-f1f8-4484-8f57-db533dfc4340","system_id":"levelo_inurba_marseille","lat":43.29587,"lon":5.38066,"is_reserved":false,"is_disabled":false,"rental_uris":{"android":"levelo://app?vid=2579bf3d-f1f8-4484-8f57-db533dfc4340","ios":"levelo://app?vid=2579bf3d-f1f8-4484-8f57-db533dfc4340"},"vehicle_type_id":"4","last_reported":1784657293,"current_range_meters":4800,"station_id":"ce4bgl12rcd13ifvqbo0","pricing_plan_id":"cebpf4jnsgd1na2vs0mg"},{"bike_id":"df8f4a4d-9f13-4f28-9bf9-46b162157317","system_id":"levelo_inurba_marseille","lat":43.28616,"lon":5.35099,"is_reserved":false,"is_disabled":false,"rental_uris":{"android":"levelo://app?vid=df8f4a4d-9f13-4f28-9bf9-46b162157317","ios":"levelo://app?vid=df8f4a4d-9f13-4f28-9bf9-46b162157317"},"vehicle_type_id":"4","last_reported":1784657293,"current_range_meters":4800,"station_id":"ce4bhch2rcd13ifvqeug","pricing_plan_id":"cebpf4jnsgd1na2vs0mg"},{"bike_id":"56e35eae-513e-40ba-a34d-368986699dd6","system_id":"levelo_inurba_marseille","lat":43.25414,"lon":5.37976,"is_reserved":false,"is_disabled":false,"rental_uris":{"android":"levelo://app?vid=56e35eae-513e-40ba-a34d-368986699dd6","ios":"levelo://app?vid=56e35eae-513e-40ba-a34d-368986699dd6"},"vehicle_type_id":"4","last_reported":1784657293,"current_range_meters":4800,"station_id":"","pricing_plan_id":"cebpf4jnsgd1na2vs0mg"},{"bike_id":"f9a4978c-66bc-414a-b059-ba0305add237","system_id":"levelo_inurba_marseille","lat":43.33095,"lon":5.43137,"is_reserved":false,"is_disabled":false,"rental_uris":{"android":"levelo://app?vid=f9a4978c-66bc-414a-b059-ba0305add237","ios":"levelo://app?vid=f9a4978c-66bc-414a-b059-ba0305add237"},"vehicle_type_id":"4","last_reported":1784657293,"current_range_meters":4800,"station_id":"","pricing_plan_id":"cebpf4jnsgd1na2vs0mg"},{"bike_id":"54432d48-dbc8-400e-a32a-384b498beb75","system_id":"levelo_inurba_marseille","lat":43.2833,"lon":5.35045,"is_reserved":false,"is_disabled":false,"rental_uris":{"android":"levelo://app?vid=54432d48-dbc8-400e-a32a-384b498beb75","ios":"levelo://app?vid=54432d48-dbc8-400e-a32a-384b498beb75"},"vehicle_type_id":"4","last_reported":1784657293,"current_range_meters":4800,"station_id":"","pricing_plan_id":"cebpf4jnsgd1na2vs0mg"},{"bike_id":"92f85151-daa2-43c8-9d61-8afa8d01f66f","system_id":"levelo_inurba_marseille","lat":43.27815,"lon":5.40718,"is_reserved":false,"is_disabled":false,"rental_uris":{"android":"levelo://app?vid=92f85151-daa2-43c8-9d61-8afa8d01f66f","ios":"levelo://app?vid=92f85151-daa2-43c8-9d61-8afa8d01f66f"},"vehicle_type_id":"4","last_reported":1784657293,"current_range_meters":4800,"station_id":"ce4bhnh2rcd13ifvqgtg","pricing_plan_id":"cebpf4jnsgd1na2vs0mg"},{"bike_id":"21f2f8f5-ce18-43f4-b88d-4b5d5da1d3d0","system_id":"levelo_inurba_marseille","lat":43.31698,"lon":5.37774,"is_reserved":false,"is_disabled":false,"rental_uris":{"android":"levelo://app?vid=21f2f8f5-ce18-43f4-b88d-4b5d5da1d3d0","ios":"levelo://app?vid=21f2f8f5-ce18-43f4-b88d-4b5d5da1d3d0"},"vehicle_type_id":"4","last_reported":1784657293,"current_range_meters":4800,"station_id":"ce4bgth2rcd13ifvqch0","pricing_plan_id":"cebpf4jnsgd1na2vs0mg"},{"bike_id":"fe0e5e6d-839c-45e5-a2cb-5f7c757a7da5","system_id":"levelo_inurba_marseille","lat":43.24401,"lon":5.37057,"is_reserved":false,"is_disabled":false,"rental_uris":{"android":"levelo://app?vid=fe0e5e6d-839c-45e5-a2cb-5f7c757a7da5","ios":"levelo://app?vid=fe0e5e6d-839c-45e5-a2cb-5f7c757a7da5"},"vehicle_type_id":"4","last_reported":1784657293,"current_range_meters":4800,"station_id":"ce4bhhh2rcd13ifvqfk0","pricing_plan_id":"cebpf4jnsgd1na2vs0mg"},{"bike_id":"f09944ae-0f8c-4f65-b88b-7367a4c8b3b3","system_id":"levelo_inurba_marseille","lat":43.29269,"lon":5.384444,"is_reserved":false,"is_disabled":false,"rental_uris":{"android":"levelo://app?vid=f09944ae-0f8c-4f65-b88b-7367a4c8b3b3","ios":"levelo://app?vid=f09944ae-0f8c-4f65-b88b-7367a4c8b3b3"},"vehicle_type_id":"4","last_reported":1784657293,"current_range_meters":4800,"station_id":"ce4bh692rcd13ifvqea0","pricing_plan_id":"cebpf4jnsgd1na2vs0mg"},{"bike_id":"86e27c36-84a9-484f-8a51-03bc71d682c3","system_id":"levelo_inurba_marseille","lat":43.24393,"lon":5.37049,"is_reserved":false,"is_disabled":false,"rental_uris":{"android":"levelo://app?vid=86e27c36-84a9-484f-8a51-03bc71d682c3","ios":"levelo://app?vid=86e27c36-84a9-484f-8a51-03bc71d682c3"},"vehicle_type_id":"4","last_reported":1784657293,"current_range_meters":4800,"station_id":"ce4bhhh2rcd13ifvqfk0","pricing_plan_id":"cebpf4jnsgd1na2vs0mg"},{"bike_id":"6193b969-3961-43c9-bf7c-d68788aa0336","system_id":"levelo_inurba_marseille","lat":43.29009,"lon":5.35625,"is_reserved":false,"is_disabled":false,"rental_uris":{"android":"levelo://app?vid=6193b969-3961-43c9-bf7c-d68788aa0336","ios":"levelo://app?vid=6193b969-3961-43c9-bf7c-d68788aa0336"},"vehicle_type_id":"4","last_reported":1784657293,"current_range_meters":4800,"station_id":"ce4bhb92rcd13ifvqen0","pricing_plan_id":"cebpf4jnsgd1na2vs0mg"},{"bike_id":"0a467022-780a-4469-b731-e13c1092e801","system_id":"levelo_inurba_marseille","lat":43.27071,"lon":5.42276,"is_reserved":false,"is_disabled":false,"rental_uris":{"android":"levelo://app?vid=0a467022-780a-4469-b731-e13c1092e801","ios":"levelo://app?vid=0a467022-780a-4469-b731-e13c1092e801"},"vehicle_type_id":"4","last_reported":1784657293,"current_range_meters":4800,"station_id":"ce4bhk92rcd13ifvqgb0","pricing_plan_id":"cebpf4jnsgd1na2vs0mg"},{"bike_id":"738c6760-fc14-4545-8647-510c6979846b","system_id":"levelo_inurba_marseille","lat":43.28355,"lon":5.38102,"is_reserved":false,"is_disabled":false,"rental_uris":{"android":"levelo://app?vid=738c6760-fc14-4545-8647-510c6979846b","ios":"levelo://app?vid=738c6760-fc14-4545-8647-510c6979846b"},"vehicle_type_id":"4","last_reported":1784657293,"current_range_meters":4800,"station_id":"ce4bh412rcd13ifvqdr0","pricing_plan_id":"cebpf4jnsgd1na2vs0mg"},{"bike_id":"35932a5b-ab6f-4e43-b1b0-cfa2f28e8737","system_id":"levelo_inurba_marseille","lat":43.28616,"lon":5.35106,"is_reserved":false,"is_disabled":false,"rental_uris":{"android":"levelo://app?vid=35932a5b-ab6f-4e43-b1b0-cfa2f28e8737","ios":"levelo://app?vid=35932a5b-ab6f-4e43-b1b0-cfa2f28e8737"},"vehicle_type_id":"4","last_reported":1784657293,"current_range_meters":4800,"station_id":"ce4bhch2rcd13ifvqeug","pricing_plan_id":"cebpf4jnsgd1na2vs0mg"},{"bike_id":"a8cb955e-1755-4705-bd00-a8686eb3b1dd","system_id":"levelo_inurba_marseille","lat":43.29596,"lon":5.38097,"is_reserved":false,"is_disabled":false,"rental_uris":{"android":"levelo://app?vid=a8cb955e-1755-4705-bd00-a8686eb3b1dd","ios":"levelo://app?vid=a8cb955e-1755-4705-bd00-a8686eb3b1dd"},"vehicle_type_id":"4","last_reported":1784657293,"current_range_meters":4800,"station_id":"ce4bgl12rcd13ifvqbo0","pricing_plan_id":"cebpf4jnsgd1na2vs0mg"},{"bike_id":"1fc8443c-ce65-4cef-9e27-7a7fe91135f0","system_id":"levelo_inurba_marseille","lat":43.33236,"lon":5.36454,"is_reserved":false,"is_disabled":false,"rental_uris":{"android":"levelo://app?vid=1fc8443c-ce65-4cef-9e27-7a7fe91135f0","ios":"levelo://app?vid=1fc8443c-ce65-4cef-9e27-7a7fe91135f0"},"vehicle_type_id":"4","last_reported":1784657293,"current_range_meters":5600,"station_id":"","pricing_plan_id":"cebpf4jnsgd1na2vs0mg"},{"bike_id":"300434e3-033f-4cfe-afb5-86f6b36b6890","system_id":"levelo_inurba_marseille","lat":43.3145,"lon":5.40627,"is_reserved":false,"is_disabled":false,"rental_uris":{"android":"levelo://app?vid=300434e3-033f-4cfe-afb5-86f6b36b6890","ios":"levelo://app?vid=300434e3-033f-4cfe-afb5-86f6b36b6890"},"vehicle_type_id":"4","last_reported":1784657293,"current_range_meters":5600,"station_id":"","pricing_plan_id":"cebpf4jnsgd1na2vs0mg"},{"bike_id":"516b0a0a-27a0-4508-8fdd-ca9076add130","system_id":"levelo_inurba_marseille","lat":43.31236,"lon":5.36854,"is_reserved":false,"is_disabled":false,"rental_uris":{"android":"levelo://app?vid=516b0a0a-27a0-4508-8fdd-ca9076add130","ios":"levelo://app?vid=516b0a0a-27a0-4508-8fdd-ca9076add130"},"vehicle_type_id":"4","last_reported":1784657293,"current_range_meters":5600,"station_id":"ce4bgl92rcd13ifvqbq0","pricing_plan_id":"cebpf4jnsgd1na2vs0mg"},{"bike_id":"28510ffc-cfd4-4767-bd9c-21b68da4e0a3","system_id":"levelo_inurba_marseille","lat":43.28034,"lon":5.36953,"is_reserved":false,"is_disabled":false,"rental_uris":{"android":"levelo://app?vid=28510ffc-cfd4-4767-bd9c-21b68da4e0a3","ios":"levelo://app?vid=28510ffc-cfd4-4767-bd9c-21b68da4e0a3"},"vehicle_type_id":"4","last_reported":1784657293,"current_range_meters":5600,"station_id":"ce4bha12rcd13ifvqef0","pricing_plan_id":"cebpf4jnsgd1na2vs0mg"},{"bike_id":"f347ef58-4c9d-4b0f-bd9e-5e526bc84384","system_id":"levelo_inurba_marseille","lat":43.289354,"lon":5.366433,"is_reserved":false,"is_disabled":false,"rental_uris":{"android":"levelo://app?vid=f347ef58-4c9d-4b0f-bd9e-5e526bc84384","ios":"levelo://app?vid=f347ef58-4c9d-4b0f-bd9e-5e526bc84384"},"vehicle_type_id":"4","last_reported":1784657293,"current_range_meters":5600,"station_id":"ce4bhap2rcd13ifvqek0","pricing_plan_id":"cebpf4jnsgd1na2vs0mg"},{"bike_id":"bb194f04-d81c-4617-bc91-7e0f73fc458d","system_id":"levelo_inurba_marseille","lat":43.27368,"lon":5.36259,"is_reserved":false,"is_disabled":false,"rental_uris":{"android":"levelo://app?vid=bb194f04-d81c-4617-bc91-7e0f73fc458d","ios":"levelo://app?vid=bb194f04-d81c-4617-bc91-7e0f73fc458d"},"vehicle_type_id":"4","last_reported":1784657293,"current_range_meters":5600,"station_id":"ce4bhbh2rcd13ifvqeo0","pricing_plan_id":"cebpf4jnsgd1na2vs0mg"},{"bike_id":"4d59ed3d-3f4e-4cfc-9a44-a6d3555aff98","system_id":"levelo_inurba_marseille","lat":43.24949,"lon":5.40491,"is_reserved":false,"is_disabled":false,"rental_uris":{"android":"levelo://app?vid=4d59ed3d-3f4e-4cfc-9a44-a6d3555aff98","ios":"levelo://app?vid=4d59ed3d-3f4e-4cfc-9a44-a6d3555aff98"},"vehicle_type_id":"4","last_reported":1784657293,"current_range_meters":5600,"station_id":"st_d2ngiaodas8pm72gd1h0","pricing_plan_id":"cebpf4jnsgd1na2vs0mg"},{"bike_id":"fe83f1f5-2555-406f-89e5-aa500c4d56ff","system_id":"levelo_inurba_marseille","lat":43.29742,"lon":5.38314,"is_reserved":false,"is_disabled":false,"rental_uris":{"android":"levelo://app?vid=fe83f1f5-2555-406f-89e5-aa500c4d56ff","ios":"levelo://app?vid=fe83f1f5-2555-406f-89e5-aa500c4d56ff"},"vehicle_type_id":"4","last_reported":1784657293,"current_range_meters":5600,"station_id":"","pricing_plan_id":"cebpf4jnsgd1na2vs0mg"},{"bike_id":"18c7e924-898b-41d9-9fcf-9dc786cb45c1","system_id":"levelo_inurba_marseille","lat":43.28368,"lon":5.38631,"is_reserved":false,"is_disabled":false,"rental_uris":{"android":"levelo://app?vid=18c7e924-898b-41d9-9fcf-9dc786cb45c1","ios":"levelo://app?vid=18c7e924-898b-41d9-9fcf-9dc786cb45c1"},"vehicle_type_id":"4","last_reported":1784657293,"current_range_meters":5600,"station_id":"ce4bh492rcd13ifvqdvg","pricing_plan_id":"cebpf4jnsgd1na2vs0mg"},{"bike_id":"f1cbc82e-16e7-4468-966f-cf965458e2f2","system_id":"levelo_inurba_marseille","lat":43.2841,"lon":5.34974,"is_reserved":false,"is_disabled":false,"rental_uris":{"android":"levelo://app?vid=f1cbc82e-16e7-4468-966f-cf965458e2f2","ios":"levelo://app?vid=f1cbc82e-16e7-4468-966f-cf965458e2f2"},"vehicle_type_id":"4","last_reported":1784657293,"current_range_meters":5600,"station_id":"ce4bhbh2rcd13ifvqepg","pricing_plan_id":"cebpf4jnsgd1na2vs0mg"},{"bike_id":"31b9fa8f-0c56-44db-819a-77e3937abafe","system_id":"levelo_inurba_marseille","lat":43.29379,"lon":5.37933,"is_reserved":false,"is_disabled":false,"rental_uris":{"android":"levelo://app?vid=31b9fa8f-0c56-44db-819a-77e3937abafe","ios":"levelo://app?vid=31b9fa8f-0c56-44db-819a-77e3937abafe"},"vehicle_type_id":"4","last_reported":1784657293,"current_range_meters":5600,"station_id":"","pricing_plan_id":"cebpf4jnsgd1na2vs0mg"},{"bike_id":"dfafbcce-0c98-4974-9428-07e3e3f07917","system_id":"levelo_inurba_marseille","lat":43.30804,"lon":5.3815,"is_reserved":false,"is_disabled":false,"rental_uris":{"android":"levelo://app?vid=dfafbcce-0c98-4974-9428-07e3e3f07917","ios":"levelo://app?vid=dfafbcce-0c98-4974-9428-07e3e3f07917"},"vehicle_type_id":"4","last_reported":1784657293,"current_range_meters":6000,"station_id":"ce4bgt12rcd13ifvqce0","pricing_plan_id":"cebpf4jnsgd1na2vs0mg"},{"bike_id":"57156c65-1a15-45b8-a151-77ea4ff03097","system_id":"levelo_inurba_marseille","lat":43.29194,"lon":5.35791,"is_reserved":false,"is_disabled":false,"rental_uris":{"android":"levelo://app?vid=57156c65-1a15-45b8-a151-77ea4ff03097","ios":"levelo://app?vid=57156c65-1a15-45b8-a151-77ea4ff03097"},"vehicle_type_id":"4","last_reported":1784657293,"current_range_meters":6000,"station_id":"ce4bhb12rcd13ifvqel0","pricing_plan_id":"cebpf4jnsgd1na2vs0mg"},{"bike_id":"9f5e27eb-8b76-44c6-8b96-3f73c03290b1","system_id":"levelo_inurba_marseille","lat":43.29264,"lon":5.39022,"is_reserved":false,"is_disabled":false,"rental_uris":{"android":"levelo://app?vid=9f5e27eb-8b76-44c6-8b96-3f73c03290b1","ios":"levelo://app?vid=9f5e27eb-8b76-44c6-8b96-3f73c03290b1"},"vehicle_type_id":"4","last_reported":1784657293,"current_range_meters":6000,"station_id":"","pricing_plan_id":"cebpf4jnsgd1na2vs0mg"},{"bike_id":"e043adce-eef3-482c-8d47-d20a4c32ef44","system_id":"levelo_inurba_marseille","lat":43.25501,"lon":5.37656,"is_reserved":false,"is_disabled":true,"rental_uris":{"android":"levelo://app?vid=e043adce-eef3-482c-8d47-d20a4c32ef44","ios":"levelo://app?vid=e043adce-eef3-482c-8d47-d20a4c32ef44"},"vehicle_type_id":"4","last_reported":1784657293,"current_range_meters":6000,"station_id":"ce4bhh12rcd13ifvqff0","pricing_plan_id":"cebpf4jnsgd1na2vs0mg"},{"bike_id":"03efafb4-27ff-4f80-9fd8-13d48350a67f","system_id":"levelo_inurba_marseille","lat":43.29925,"lon":5.37477,"is_reserved":false,"is_disabled":false,"rental_uris":{"android":"levelo://app?vid=03efafb4-27ff-4f80-9fd8-13d48350a67f","ios":"levelo://app?vid=03efafb4-27ff-4f80-9fd8-13d48350a67f"},"vehicle_type_id":"4","last_reported":1784657293,"current_range_meters":6000,"station_id":"ce4bgjh2rcd13ifvqbg0","pricing_plan_id":"cebpf4jnsgd1na2vs0mg"},{"bike_id":"9041c935-dc6e-4393-a82d-6d78c284078a","system_id":"levelo_inurba_marseille","lat":43.25009,"lon":5.38906,"is_reserved":false,"is_disabled":false,"rental_uris":{"android":"levelo://app?vid=9041c935-dc6e-4393-a82d-6d78c284078a","ios":"levelo://app?vid=9041c935-dc6e-4393-a82d-6d78c284078a"},"vehicle_type_id":"4","last_reported":1784657293,"current_range_meters":6000,"station_id":"ce4bhgp2rcd13ifvqfd0","pricing_plan_id":"cebpf4jnsgd1na2vs0mg"},{"bike_id":"b8edb94b-9d2f-45da-8595-e3f812c93260","system_id":"levelo_inurba_marseille","lat":43.28459,"lon":5.35885,"is_reserved":false,"is_disabled":false,"rental_uris":{"android":"levelo://app?vid=b8edb94b-9d2f-45da-8595-e3f812c93260","ios":"levelo://app?vid=b8edb94b-9d2f-45da-8595-e3f812c93260"},"vehicle_type_id":"4","last_reported":1784657293,"current_range_meters":6000,"station_id":"ce4bhah2rcd13ifvqei0","pricing_plan_id":"cebpf4jnsgd1na2vs0mg"},{"bike_id":"48efa583-a8f7-4ed2-9b3b-ce2726ad9916","system_id":"levelo_inurba_marseille","lat":43.29525,"lon":5.39046,"is_reserved":false,"is_disabled":false,"rental_uris":{"android":"levelo://app?vid=48efa583-a8f7-4ed2-9b3b-ce2726ad9916","ios":"levelo://app?vid=48efa583-a8f7-4ed2-9b3b-ce2726ad9916"},"vehicle_type_id":"4","last_reported":1784657293,"current_range_meters":6000,"station_id":"ce4bh3p2rcd13ifvqdp0","pricing_plan_id":"cebpf4jnsgd1na2vs0mg"},{"bike_id":"b657b424-57c8-43fc-be93-f12ca7f7fe9f","system_id":"levelo_inurba_marseille","lat":43.30596,"lon":5.39361,"is_reserved":false,"is_disabled":false,"rental_uris":{"android":"levelo://app?vid=b657b424-57c8-43fc-be93-f12ca7f7fe9f","ios":"levelo://app?vid=b657b424-57c8-43fc-be93-f12ca7f7fe9f"},"vehicle_type_id":"4","last_reported":1784657293,"current_range_meters":6000,"station_id":"ce4bh0p2rcd13ifvqd80","pricing_plan_id":"cebpf4jnsgd1na2vs0mg"},{"bike_id":"d5f79294-18a5-4b76-b587-1f41aa861375","system_id":"levelo_inurba_marseille","lat":43.2981,"lon":5.42049,"is_reserved":false,"is_disabled":false,"rental_uris":{"android":"levelo://app?vid=d5f79294-18a5-4b76-b587-1f41aa861375","ios":"levelo://app?vid=d5f79294-18a5-4b76-b587-1f41aa861375"},"vehicle_type_id":"4","last_reported":1784657293,"current_range_meters":6400,"station_id":"st_d6tc004otcvc738tfe70","pricing_plan_id":"cebpf4jnsgd1na2vs0mg"},{"bike_id":"b2540b46-8634-4050-a68b-d01e093a7f5a","system_id":"levelo_inurba_marseille","lat":43.28273,"lon":5.35073,"is_reserved":false,"is_disabled":false,"rental_uris":{"android":"levelo://app?vid=b2540b46-8634-4050-a68b-d01e093a7f5a","ios":"levelo://app?vid=b2540b46-8634-4050-a68b-d01e093a7f5a"},"vehicle_type_id":"4","last_reported":1784657293,"current_range_meters":6400,"station_id":"ce4bhbp2rcd13ifvqerg","pricing_plan_id":"cebpf4jnsgd1na2vs0mg"},{"bike_id":"4e5df8fe-2783-41b7-954c-797564f4a0a3","system_id":"levelo_inurba_marseille","lat":43.24466,"lon":5.42525,"is_reserved":false,"is_disabled":false,"rental_uris":{"android":"levelo://app?vid=4e5df8fe-2783-41b7-954c-797564f4a0a3","ios":"levelo://app?vid=4e5df8fe-2783-41b7-954c-797564f4a0a3"},"vehicle_type_id":"4","last_reported":1784657293,"current_range_meters":6400,"station_id":"st_d4a3vfp97mjs738cd8kg","pricing_plan_id":"cebpf4jnsgd1na2vs0mg"},{"bike_id":"84f5eedf-c475-478a-8d6b-f2764ed1e723","system_id":"levelo_inurba_marseille","lat":43.24793,"lon":5.37464,"is_reserved":false,"is_disabled":false,"rental_uris":{"android":"levelo://app?vid=84f5eedf-c475-478a-8d6b-f2764ed1e723","ios":"levelo://app?vid=84f5eedf-c475-478a-8d6b-f2764ed1e723"},"vehicle_type_id":"4","last_reported":1784657293,"current_range_meters":6400,"station_id":"ce4bhgh2rcd13ifvqfb0","pricing_plan_id":"cebpf4jnsgd1na2vs0mg"},{"bike_id":"e5c62589-bae8-4184-ba0f-92e01cc78443","system_id":"levelo_inurba_marseille","lat":43.31755,"lon":5.39021,"is_reserved":false,"is_disabled":false,"rental_uris":{"android":"levelo://app?vid=e5c62589-bae8-4184-ba0f-92e01cc78443","ios":"levelo://app?vid=e5c62589-bae8-4184-ba0f-92e01cc78443"},"vehicle_type_id":"4","last_reported":1784657293,"current_range_meters":6400,"station_id":"ce4bhqp2rcd13ifvqhng","pricing_plan_id":"cebpf4jnsgd1na2vs0mg"},{"bike_id":"b16c2a78-f598-4ccf-b0e4-054944a4b1d4","system_id":"levelo_inurba_marseille","lat":43.28612,"lon":5.35109,"is_reserved":false,"is_disabled":false,"rental_uris":{"android":"levelo://app?vid=b16c2a78-f598-4ccf-b0e4-054944a4b1d4","ios":"levelo://app?vid=b16c2a78-f598-4ccf-b0e4-054944a4b1d4"},"vehicle_type_id":"4","last_reported":1784657293,"current_range_meters":6400,"station_id":"ce4bhch2rcd13ifvqeug","pricing_plan_id":"cebpf4jnsgd1na2vs0mg"},{"bike_id":"ccb03048-66c7-46b3-af6e-96e94b4357bb","system_id":"levelo_inurba_marseille","lat":43.2857,"lon":5.39496,"is_reserved":false,"is_disabled":false,"rental_uris":{"android":"levelo://app?vid=ccb03048-66c7-46b3-af6e-96e94b4357bb","ios":"levelo://app?vid=ccb03048-66c7-46b3-af6e-96e94b4357bb"},"vehicle_type_id":"4","last_reported":1784657293,"current_range_meters":6400,"station_id":"ce4bh292rcd13ifvqdg0","pricing_plan_id":"cebpf4jnsgd1na2vs0mg"},{"bike_id":"fa8915f3-29b7-4cc8-8398-f4e636a2f290","system_id":"levelo_inurba_marseille","lat":43.29026,"lon":5.38643,"is_reserved":false,"is_disabled":false,"rental_uris":{"android":"levelo://app?vid=fa8915f3-29b7-4cc8-8398-f4e636a2f290","ios":"levelo://app?vid=fa8915f3-29b7-4cc8-8398-f4e636a2f290"},"vehicle_type_id":"4","last_reported":1784657293,"current_range_meters":6400,"station_id":"ce4bh4p2rcd13ifvqe0g","pricing_plan_id":"cebpf4jnsgd1na2vs0mg"},{"bike_id":"1851f267-3c7a-40a0-a5ac-e447a9a29f87","system_id":"levelo_inurba_marseille","lat":43.28481,"lon":5.48393,"is_reserved":false,"is_disabled":false,"rental_uris":{"android":"levelo://app?vid=1851f267-3c7a-40a0-a5ac-e447a9a29f87","ios":"levelo://app?vid=1851f267-3c7a-40a0-a5ac-e447a9a29f87"},"vehicle_type_id":"4","last_reported":1784657293,"current_range_meters":6400,"station_id":"st_d3svhcjqgbts73a3dn0g","pricing_plan_id":"cebpf4jnsgd1na2vs0mg"},{"bike_id":"c72b5002-ac2a-4c1c-ba4c-f1c1abda84c7","system_id":"levelo_inurba_marseille","lat":43.2971,"lon":5.3663,"is_reserved":false,"is_disabled":false,"rental_uris":{"android":"levelo://app?vid=c72b5002-ac2a-4c1c-ba4c-f1c1abda84c7","ios":"levelo://app?vid=c72b5002-ac2a-4c1c-ba4c-f1c1abda84c7"},"vehicle_type_id":"4","last_reported":1784657293,"current_range_meters":6400,"station_id":"ce4bgn12rcd13ifvqbt0","pricing_plan_id":"cebpf4jnsgd1na2vs0mg"},{"bike_id":"8f990aee-2b29-45f2-96d6-bc76023e9bd7","system_id":"levelo_inurba_marseille","lat":43.23189,"lon":5.3555,"is_reserved":false,"is_disabled":false,"rental_uris":{"android":"levelo://app?vid=8f990aee-2b29-45f2-96d6-bc76023e9bd7","ios":"levelo://app?vid=8f990aee-2b29-45f2-96d6-bc76023e9bd7"},"vehicle_type_id":"4","last_reported":1784657293,"current_range_meters":6400,"station_id":"ce4bhu92rcd13ifvqi70","pricing_plan_id":"cebpf4jnsgd1na2vs0mg"},{"bike_id":"4bf85544-84dc-4500-9552-7355996688c3","system_id":"levelo_inurba_marseille","lat":43.2915,"lon":5.37669,"is_reserved":false,"is_disabled":false,"rental_uris":{"android":"levelo://app?vid=4bf85544-84dc-4500-9552-7355996688c3","ios":"levelo://app?vid=4bf85544-84dc-4500-9552-7355996688c3"},"vehicle_type_id":"4","last_reported":1784657293,"current_range_meters":6400,"station_id":"","pricing_plan_id":"cebpf4jnsgd1na2vs0mg"},{"bike_id":"b53fc34e-835a-4c61-a41e-3d8763f1e88a","system_id":"levelo_inurba_marseille","lat":43.2928,"lon":5.40114,"is_reserved":false,"is_disabled":false,"rental_uris":{"android":"levelo://app?vid=b53fc34e-835a-4c61-a41e-3d8763f1e88a","ios":"levelo://app?vid=b53fc34e-835a-4c61-a41e-3d8763f1e88a"},"vehicle_type_id":"4","last_reported":1784657293,"current_range_meters":6400,"station_id":"ce4bh312rcd13ifvqdk0","pricing_plan_id":"cebpf4jnsgd1na2vs0mg"},{"bike_id":"09d9ef3d-9c6f-430a-91c3-bb4831e96fd6","system_id":"levelo_inurba_marseille","lat":43.22816,"lon":5.34941,"is_reserved":false,"is_disabled":false,"rental_uris":{"android":"levelo://app?vid=09d9ef3d-9c6f-430a-91c3-bb4831e96fd6","ios":"levelo://app?vid=09d9ef3d-9c6f-430a-91c3-bb4831e96fd6"},"vehicle_type_id":"4","last_reported":1784657293,"current_range_meters":6400,"station_id":"","pricing_plan_id":"cebpf4jnsgd1na2vs0mg"},{"bike_id":"a4e15bf9-7b24-4fd8-b187-39ed75273a73","system_id":"levelo_inurba_marseille","lat":43.21732,"lon":5.34601,"is_reserved":false,"is_disabled":false,"rental_uris":{"android":"levelo://app?vid=a4e15bf9-7b24-4fd8-b187-39ed75273a73","ios":"levelo://app?vid=a4e15bf9-7b24-4fd8-b187-39ed75273a73"},"vehicle_type_id":"4","last_reported":1784657293,"current_range_meters":6400,"station_id":"st_cvj6r9ubvosntc0bgbag","pricing_plan_id":"cebpf4jnsgd1na2vs0mg"},{"bike_id":"efe1a1c6-1569-4879-accc-14f17bba8c6d","system_id":"levelo_inurba_marseille","lat":43.29725,"lon":5.35954,"is_reserved":false,"is_disabled":false,"rental_uris":{"android":"levelo://app?vid=efe1a1c6-1569-4879-accc-14f17bba8c6d","ios":"levelo://app?vid=efe1a1c6-1569-4879-accc-14f17bba8c6d"},"vehicle_type_id":"4","last_reported":1784657293,"current_range_meters":6400,"station_id":"","pricing_plan_id":"cebpf4jnsgd1na2vs0mg"},{"bike_id":"b2d800e5-3728-49d1-8ac5-c09df2267af1","system_id":"levelo_inurba_marseille","lat":43.26159,"lon":5.3819,"is_reserved":false,"is_disabled":false,"rental_uris":{"android":"levelo://app?vid=b2d800e5-3728-49d1-8ac5-c09df2267af1","ios":"levelo://app?vid=b2d800e5-3728-49d1-8ac5-c09df2267af1"},"vehicle_type_id":"4","last_reported":1784657293,"current_range_meters":6400,"station_id":"","pricing_plan_id":"cebpf4jnsgd1na2vs0mg"},{"bike_id":"fecff0c7-27ae-402e-8587-e1d002834990","system_id":"levelo_inurba_marseille","lat":43.28347,"lon":5.45991,"is_reserved":false,"is_disabled":false,"rental_uris":{"android":"levelo://app?vid=fecff0c7-27ae-402e-8587-e1d002834990","ios":"levelo://app?vid=fecff0c7-27ae-402e-8587-e1d002834990"},"vehicle_type_id":"4","last_reported":1784657293,"current_range_meters":6400,"station_id":"","pricing_plan_id":"cebpf4jnsgd1na2vs0mg"},{"bike_id":"473c4181-d88e-4c49-8e24-d6505da42899","system_id":"levelo_inurba_marseille","lat":43.27569,"lon":5.38417,"is_reserved":false,"is_disabled":false,"rental_uris":{"android":"levelo://app?vid=473c4181-d88e-4c49-8e24-d6505da42899","ios":"levelo://app?vid=473c4181-d88e-4c49-8e24-d6505da42899"},"vehicle_type_id":"4","last_reported":1784657293,"current_range_meters":6800,"station_id":"ce4bhh92rcd13ifvqfi0","pricing_plan_id":"cebpf4jnsgd1na2vs0mg"},{"bike_id":"b97f1724-4f09-4f82-a8dd-d9c661ad559e","system_id":"levelo_inurba_marseille","lat":43.3089,"lon":5.37198,"is_reserved":false,"is_disabled":true,"rental_uris":{"android":"levelo://app?vid=b97f1724-4f09-4f82-a8dd-d9c661ad559e","ios":"levelo://app?vid=b97f1724-4f09-4f82-a8dd-d9c661ad559e"},"vehicle_type_id":"4","last_reported":1784657293,"current_range_meters":6800,"station_id":"ce4bguh2rcd13ifvqckg","pricing_plan_id":"cebpf4jnsgd1na2vs0mg"},{"bike_id":"cfd81fe6-1467-45db-8286-f68c2fe8aac3","system_id":"levelo_inurba_marseille","lat":43.29301,"lon":5.37172,"is_reserved":false,"is_disabled":false,"rental_uris":{"android":"levelo://app?vid=cfd81fe6-1467-45db-8286-f68c2fe8aac3","ios":"levelo://app?vid=cfd81fe6-1467-45db-8286-f68c2fe8aac3"},"vehicle_type_id":"4","last_reported":1784657293,"current_range_meters":6800,"station_id":"ce4bgh92rcd13ifvqb40","pricing_plan_id":"cebpf4jnsgd1na2vs0mg"},{"bike_id":"f1288106-a8c3-4624-ad2a-44299213b3e2","system_id":"levelo_inurba_marseille","lat":43.29597,"lon":5.36741,"is_reserved":false,"is_disabled":true,"rental_uris":{"android":"levelo://app?vid=f1288106-a8c3-4624-ad2a-44299213b3e2","ios":"levelo://app?vid=f1288106-a8c3-4624-ad2a-44299213b3e2"},"vehicle_type_id":"4","last_reported":1784657293,"current_range_meters":6800,"station_id":"","pricing_plan_id":"cebpf4jnsgd1na2vs0mg"},{"bike_id":"319be591-4203-4a93-bba2-7775dc123384","system_id":"levelo_inurba_marseille","lat":43.27381,"lon":5.36247,"is_reserved":false,"is_disabled":false,"rental_uris":{"android":"levelo://app?vid=319be591-4203-4a93-bba2-7775dc123384","ios":"levelo://app?vid=319be591-4203-4a93-bba2-7775dc123384"},"vehicle_type_id":"4","last_reported":1784657293,"current_range_meters":6800,"station_id":"ce4bhbh2rcd13ifvqeo0","pricing_plan_id":"cebpf4jnsgd1na2vs0mg"},{"bike_id":"654e9c62-61d5-4f22-8ad1-0d455ddd0280","system_id":"levelo_inurba_marseille","lat":43.28613,"lon":5.35106,"is_reserved":false,"is_disabled":false,"rental_uris":{"android":"levelo://app?vid=654e9c62-61d5-4f22-8ad1-0d455ddd0280","ios":"levelo://app?vid=654e9c62-61d5-4f22-8ad1-0d455ddd0280"},"vehicle_type_id":"4","last_reported":1784657293,"current_range_meters":6800,"station_id":"ce4bhch2rcd13ifvqeug","pricing_plan_id":"cebpf4jnsgd1na2vs0mg"},{"bike_id":"0a5ea0fc-c8a1-429f-9d8f-ecb1f7bb061c","system_id":"levelo_inurba_marseille","lat":43.2841,"lon":5.3498,"is_reserved":false,"is_disabled":false,"rental_uris":{"android":"levelo://app?vid=0a5ea0fc-c8a1-429f-9d8f-ecb1f7bb061c","ios":"levelo://app?vid=0a5ea0fc-c8a1-429f-9d8f-ecb1f7bb061c"},"vehicle_type_id":"4","last_reported":1784657293,"current_range_meters":6800,"station_id":"ce4bhbh2rcd13ifvqepg","pricing_plan_id":"cebpf4jnsgd1na2vs0mg"},{"bike_id":"577454df-abda-44d7-ab7b-1eb463549a1f","system_id":"levelo_inurba_marseille","lat":43.32107,"lon":5.36756,"is_reserved":false,"is_disabled":false,"rental_uris":{"android":"levelo://app?vid=577454df-abda-44d7-ab7b-1eb463549a1f","ios":"levelo://app?vid=577454df-abda-44d7-ab7b-1eb463549a1f"},"vehicle_type_id":"4","last_reported":1784657293,"current_range_meters":6800,"station_id":"ce4bhrh2rcd13ifvqhug","pricing_plan_id":"cebpf4jnsgd1na2vs0mg"},{"bike_id":"103e6a14-912e-4ed0-9ef4-75dcd03ff9c8","system_id":"levelo_inurba_marseille","lat":43.28417,"lon":5.34987,"is_reserved":false,"is_disabled":false,"rental_uris":{"android":"levelo://app?vid=103e6a14-912e-4ed0-9ef4-75dcd03ff9c8","ios":"levelo://app?vid=103e6a14-912e-4ed0-9ef4-75dcd03ff9c8"},"vehicle_type_id":"4","last_reported":1784657293,"current_range_meters":6800,"station_id":"ce4bhbh2rcd13ifvqepg","pricing_plan_id":"cebpf4jnsgd1na2vs0mg"},{"bike_id":"8a867620-8625-40da-aae5-d95d7bca02e8","system_id":"levelo_inurba_marseille","lat":43.31892,"lon":5.36791,"is_reserved":false,"is_disabled":false,"rental_uris":{"android":"levelo://app?vid=8a867620-8625-40da-aae5-d95d7bca02e8","ios":"levelo://app?vid=8a867620-8625-40da-aae5-d95d7bca02e8"},"vehicle_type_id":"4","last_reported":1784657293,"current_range_meters":6800,"station_id":"st_d6o2h0d0559c73evc1b0","pricing_plan_id":"cebpf4jnsgd1na2vs0mg"},{"bike_id":"f0f65092-efe9-46e8-8e63-748f9c256a92","system_id":"levelo_inurba_marseille","lat":43.28988,"lon":5.35598,"is_reserved":false,"is_disabled":false,"rental_uris":{"android":"levelo://app?vid=f0f65092-efe9-46e8-8e63-748f9c256a92","ios":"levelo://app?vid=f0f65092-efe9-46e8-8e63-748f9c256a92"},"vehicle_type_id":"4","last_reported":1784657293,"current_range_meters":6800,"station_id":"ce4bhb92rcd13ifvqen0","pricing_plan_id":"cebpf4jnsgd1na2vs0mg"},{"bike_id":"b3d629b1-168c-4183-90f3-3fdf07d3bac2","system_id":"levelo_inurba_marseille","lat":43.25568,"lon":5.38233,"is_reserved":false,"is_disabled":false,"rental_uris":{"android":"levelo://app?vid=b3d629b1-168c-4183-90f3-3fdf07d3bac2","ios":"levelo://app?vid=b3d629b1-168c-4183-90f3-3fdf07d3bac2"},"vehicle_type_id":"4","last_reported":1784657293,"current_range_meters":6800,"station_id":"ce4bhih2rcd13ifvqfs0","pricing_plan_id":"cebpf4jnsgd1na2vs0mg"},{"bike_id":"6d50cbb9-0790-411c-8eeb-925907f38afc","system_id":"levelo_inurba_marseille","lat":43.29725,"lon":5.40097,"is_reserved":false,"is_disabled":false,"rental_uris":{"android":"levelo://app?vid=6d50cbb9-0790-411c-8eeb-925907f38afc","ios":"levelo://app?vid=6d50cbb9-0790-411c-8eeb-925907f38afc"},"vehicle_type_id":"4","last_reported":1784657293,"current_range_meters":6800,"station_id":"","pricing_plan_id":"cebpf4jnsgd1na2vs0mg"},{"bike_id":"3e18d6e4-af39-4a9a-a1df-a7e5cda6c7bb","system_id":"levelo_inurba_marseille","lat":43.27376,"lon":5.36257,"is_reserved":false,"is_disabled":false,"rental_uris":{"android":"levelo://app?vid=3e18d6e4-af39-4a9a-a1df-a7e5cda6c7bb","ios":"levelo://app?vid=3e18d6e4-af39-4a9a-a1df-a7e5cda6c7bb"},"vehicle_type_id":"4","last_reported":1784657293,"current_range_meters":6800,"station_id":"ce4bhbh2rcd13ifvqeo0","pricing_plan_id":"cebpf4jnsgd1na2vs0mg"},{"bike_id":"282ace12-d533-4e78-8a43-b40e8bf108d3","system_id":"levelo_inurba_marseille","lat":43.30923,"lon":5.40169,"is_reserved":false,"is_disabled":false,"rental_uris":{"android":"levelo://app?vid=282ace12-d533-4e78-8a43-b40e8bf108d3","ios":"levelo://app?vid=282ace12-d533-4e78-8a43-b40e8bf108d3"},"vehicle_type_id":"4","last_reported":1784657293,"current_range_meters":6800,"station_id":"ce4bgvp2rcd13ifvqct0","pricing_plan_id":"cebpf4jnsgd1na2vs0mg"},{"bike_id":"8c95522f-296c-4289-9635-4e5fc3e75f8c","system_id":"levelo_inurba_marseille","lat":43.27619,"lon":5.36096,"is_reserved":false,"is_disabled":false,"rental_uris":{"android":"levelo://app?vid=8c95522f-296c-4289-9635-4e5fc3e75f8c","ios":"levelo://app?vid=8c95522f-296c-4289-9635-4e5fc3e75f8c"},"vehicle_type_id":"4","last_reported":1784657293,"current_range_meters":6800,"station_id":"ce4bgj92rcd13ifvqbe0","pricing_plan_id":"cebpf4jnsgd1na2vs0mg"},{"bike_id":"9bd440d9-b27a-4958-a9f0-4142986abb18","system_id":"levelo_inurba_marseille","lat":43.2487,"lon":5.39413,"is_reserved":false,"is_disabled":false,"rental_uris":{"android":"levelo://app?vid=9bd440d9-b27a-4958-a9f0-4142986abb18","ios":"levelo://app?vid=9bd440d9-b27a-4958-a9f0-4142986abb18"},"vehicle_type_id":"4","last_reported":1784657293,"current_range_meters":6800,"station_id":"","pricing_plan_id":"cebpf4jnsgd1na2vs0mg"},{"bike_id":"825de0d1-7be6-41f2-a58a-1dcf1a8629b3","system_id":"levelo_inurba_marseille","lat":43.28587,"lon":5.3879,"is_reserved":false,"is_disabled":false,"rental_uris":{"android":"levelo://app?vid=825de0d1-7be6-41f2-a58a-1dcf1a8629b3","ios":"levelo://app?vid=825de0d1-7be6-41f2-a58a-1dcf1a8629b3"},"vehicle_type_id":"4","last_reported":1784657293,"current_range_meters":6800,"station_id":"","pricing_plan_id":"cebpf4jnsgd1na2vs0mg"},{"bike_id":"2c2b351e-ed91-4a11-992e-36ac4bc1c5c1","system_id":"levelo_inurba_marseille","lat":43.28274,"lon":5.35072,"is_reserved":false,"is_disabled":false,"rental_uris":{"android":"levelo://app?vid=2c2b351e-ed91-4a11-992e-36ac4bc1c5c1","ios":"levelo://app?vid=2c2b351e-ed91-4a11-992e-36ac4bc1c5c1"},"vehicle_type_id":"4","last_reported":1784657293,"current_range_meters":6800,"station_id":"ce4bhbp2rcd13ifvqerg","pricing_plan_id":"cebpf4jnsgd1na2vs0mg"},{"bike_id":"278f3296-4d30-4fe3-b4b6-1124858a6234","system_id":"levelo_inurba_marseille","lat":43.28608,"lon":5.35097,"is_reserved":false,"is_disabled":false,"rental_uris":{"android":"levelo://app?vid=278f3296-4d30-4fe3-b4b6-1124858a6234","ios":"levelo://app?vid=278f3296-4d30-4fe3-b4b6-1124858a6234"},"vehicle_type_id":"4","last_reported":1784657293,"current_range_meters":7200,"station_id":"ce4bhch2rcd13ifvqeug","pricing_plan_id":"cebpf4jnsgd1na2vs0mg"},{"bike_id":"f9c65922-483e-4914-92f4-f7524b9a110d","system_id":"levelo_inurba_marseille","lat":43.32362,"lon":5.36772,"is_reserved":false,"is_disabled":false,"rental_uris":{"android":"levelo://app?vid=f9c65922-483e-4914-92f4-f7524b9a110d","ios":"levelo://app?vid=f9c65922-483e-4914-92f4-f7524b9a110d"},"vehicle_type_id":"4","last_reported":1784657293,"current_range_meters":7200,"station_id":"ce4bhsh2rcd13ifvqi2g","pricing_plan_id":"cebpf4jnsgd1na2vs0mg"},{"bike_id":"f33493ed-994f-4f08-a4de-95ded251e4a9","system_id":"levelo_inurba_marseille","lat":43.28418,"lon":5.34989,"is_reserved":false,"is_disabled":false,"rental_uris":{"android":"levelo://app?vid=f33493ed-994f-4f08-a4de-95ded251e4a9","ios":"levelo://app?vid=f33493ed-994f-4f08-a4de-95ded251e4a9"},"vehicle_type_id":"4","last_reported":1784657293,"current_range_meters":7200,"station_id":"ce4bhbh2rcd13ifvqepg","pricing_plan_id":"cebpf4jnsgd1na2vs0mg"},{"bike_id":"5f3aab80-1eb7-445c-8ee0-1acfe4e76309","system_id":"levelo_inurba_marseille","lat":43.2523,"lon":5.3728,"is_reserved":false,"is_disabled":false,"rental_uris":{"android":"levelo://app?vid=5f3aab80-1eb7-445c-8ee0-1acfe4e76309","ios":"levelo://app?vid=5f3aab80-1eb7-445c-8ee0-1acfe4e76309"},"vehicle_type_id":"4","last_reported":1784657293,"current_range_meters":7200,"station_id":"","pricing_plan_id":"cebpf4jnsgd1na2vs0mg"},{"bike_id":"64540e75-8886-4b8c-a4e5-27e9e74969b8","system_id":"levelo_inurba_marseille","lat":43.28612,"lon":5.3511,"is_reserved":false,"is_disabled":false,"rental_uris":{"android":"levelo://app?vid=64540e75-8886-4b8c-a4e5-27e9e74969b8","ios":"levelo://app?vid=64540e75-8886-4b8c-a4e5-27e9e74969b8"},"vehicle_type_id":"4","last_reported":1784657293,"current_range_meters":7200,"station_id":"ce4bhch2rcd13ifvqeug","pricing_plan_id":"cebpf4jnsgd1na2vs0mg"},{"bike_id":"8f9bdf45-12dd-4021-b249-580afdf03556","system_id":"levelo_inurba_marseille","lat":43.2319,"lon":5.35546,"is_reserved":false,"is_disabled":false,"rental_uris":{"android":"levelo://app?vid=8f9bdf45-12dd-4021-b249-580afdf03556","ios":"levelo://app?vid=8f9bdf45-12dd-4021-b249-580afdf03556"},"vehicle_type_id":"4","last_reported":1784657293,"current_range_meters":7200,"station_id":"ce4bhu92rcd13ifvqi70","pricing_plan_id":"cebpf4jnsgd1na2vs0mg"},{"bike_id":"c418e52b-d902-4f42-8fd0-c774715a4b06","system_id":"levelo_inurba_marseille","lat":43.248887,"lon":5.375206,"is_reserved":false,"is_disabled":false,"rental_uris":{"android":"levelo://app?vid=c418e52b-d902-4f42-8fd0-c774715a4b06","ios":"levelo://app?vid=c418e52b-d902-4f42-8fd0-c774715a4b06"},"vehicle_type_id":"4","last_reported":1784657293,"current_range_meters":7200,"station_id":"ce4bhi12rcd13ifvqfp0","pricing_plan_id":"cebpf4jnsgd1na2vs0mg"},{"bike_id":"b680019b-319f-40f0-b6fc-a1ed66f1a5ec","system_id":"levelo_inurba_marseille","lat":43.28271,"lon":5.35063,"is_reserved":false,"is_disabled":false,"rental_uris":{"android":"levelo://app?vid=b680019b-319f-40f0-b6fc-a1ed66f1a5ec","ios":"levelo://app?vid=b680019b-319f-40f0-b6fc-a1ed66f1a5ec"},"vehicle_type_id":"4","last_reported":1784657293,"current_range_meters":7200,"station_id":"ce4bhbp2rcd13ifvqerg","pricing_plan_id":"cebpf4jnsgd1na2vs0mg"},{"bike_id":"e8f580ac-936d-4dc3-a874-ca74bcf99fe2","system_id":"levelo_inurba_marseille","lat":43.28433,"lon":5.34985,"is_reserved":false,"is_disabled":false,"rental_uris":{"android":"levelo://app?vid=e8f580ac-936d-4dc3-a874-ca74bcf99fe2","ios":"levelo://app?vid=e8f580ac-936d-4dc3-a874-ca74bcf99fe2"},"vehicle_type_id":"4","last_reported":1784657293,"current_range_meters":7200,"station_id":"ce4bhbh2rcd13ifvqepg","pricing_plan_id":"cebpf4jnsgd1na2vs0mg"},{"bike_id":"fd230485-3c4d-4c6a-ad0f-17d1d0006f6a","system_id":"levelo_inurba_marseille","lat":43.2438,"lon":5.37045,"is_reserved":false,"is_disabled":false,"rental_uris":{"android":"levelo://app?vid=fd230485-3c4d-4c6a-ad0f-17d1d0006f6a","ios":"levelo://app?vid=fd230485-3c4d-4c6a-ad0f-17d1d0006f6a"},"vehicle_type_id":"4","last_reported":1784657293,"current_range_meters":7200,"station_id":"ce4bhhh2rcd13ifvqfk0","pricing_plan_id":"cebpf4jnsgd1na2vs0mg"},{"bike_id":"7eadaaa6-ac95-4c85-ac94-3d3b064145c2","system_id":"levelo_inurba_marseille","lat":43.27426,"lon":5.39415,"is_reserved":false,"is_disabled":false,"rental_uris":{"android":"levelo://app?vid=7eadaaa6-ac95-4c85-ac94-3d3b064145c2","ios":"levelo://app?vid=7eadaaa6-ac95-4c85-ac94-3d3b064145c2"},"vehicle_type_id":"4","last_reported":1784657293,"current_range_meters":7200,"station_id":"ce4bhdp2rcd13ifvqf20","pricing_plan_id":"cebpf4jnsgd1na2vs0mg"},{"bike_id":"ee280364-7ef1-498a-b35f-e91739ee1f6f","system_id":"levelo_inurba_marseille","lat":43.28005,"lon":5.4001,"is_reserved":false,"is_disabled":false,"rental_uris":{"android":"levelo://app?vid=ee280364-7ef1-498a-b35f-e91739ee1f6f","ios":"levelo://app?vid=ee280364-7ef1-498a-b35f-e91739ee1f6f"},"vehicle_type_id":"4","last_reported":1784657293,"current_range_meters":7200,"station_id":"ce4bho92rcd13ifvqh4g","pricing_plan_id":"cebpf4jnsgd1na2vs0mg"},{"bike_id":"4cc1cfdd-70ae-4041-8eb5-cc6376043b11","system_id":"levelo_inurba_marseille","lat":43.22565,"lon":5.41613,"is_reserved":false,"is_disabled":false,"rental_uris":{"android":"levelo://app?vid=4cc1cfdd-70ae-4041-8eb5-cc6376043b11","ios":"levelo://app?vid=4cc1cfdd-70ae-4041-8eb5-cc6376043b11"},"vehicle_type_id":"4","last_reported":1784657293,"current_range_meters":7200,"station_id":"st_d2o4gvlbi1j2169b742g","pricing_plan_id":"cebpf4jnsgd1na2vs0mg"},{"bike_id":"55addbb1-175b-4837-8485-d9a03d18a0e7","system_id":"levelo_inurba_marseille","lat":43.29009,"lon":5.3561,"is_reserved":false,"is_disabled":false,"rental_uris":{"android":"levelo://app?vid=55addbb1-175b-4837-8485-d9a03d18a0e7","ios":"levelo://app?vid=55addbb1-175b-4837-8485-d9a03d18a0e7"},"vehicle_type_id":"4","last_reported":1784657293,"current_range_meters":7200,"station_id":"ce4bhb92rcd13ifvqen0","pricing_plan_id":"cebpf4jnsgd1na2vs0mg"},{"bike_id":"700d94ec-8ca6-49b5-9305-bc324b5b00bf","system_id":"levelo_inurba_marseille","lat":43.29317,"lon":5.37188,"is_reserved":false,"is_disabled":true,"rental_uris":{"android":"levelo://app?vid=700d94ec-8ca6-49b5-9305-bc324b5b00bf","ios":"levelo://app?vid=700d94ec-8ca6-49b5-9305-bc324b5b00bf"},"vehicle_type_id":"4","last_reported":1784657293,"current_range_meters":7200,"station_id":"ce4bgh92rcd13ifvqb40","pricing_plan_id":"cebpf4jnsgd1na2vs0mg"},{"bike_id":"14411d93-18ee-418c-98e4-8a12d35ce0c6","system_id":"levelo_inurba_marseille","lat":43.2919,"lon":5.37267,"is_reserved":false,"is_disabled":false,"rental_uris":{"android":"levelo://app?vid=14411d93-18ee-418c-98e4-8a12d35ce0c6","ios":"levelo://app?vid=14411d93-18ee-418c-98e4-8a12d35ce0c6"},"vehicle_type_id":"4","last_reported":1784657293,"current_range_meters":7200,"station_id":"","pricing_plan_id":"cebpf4jnsgd1na2vs0mg"},{"bike_id":"e2701541-cf25-4239-b843-aa7eb7669457","system_id":"levelo_inurba_marseille","lat":43.28153,"lon":5.37502,"is_reserved":false,"is_disabled":false,"rental_uris":{"android":"levelo://app?vid=e2701541-cf25-4239-b843-aa7eb7669457","ios":"levelo://app?vid=e2701541-cf25-4239-b843-aa7eb7669457"},"vehicle_type_id":"4","last_reported":1784657293,"current_range_meters":7200,"station_id":"","pricing_plan_id":"cebpf4jnsgd1na2vs0mg"},{"bike_id":"ccbe0418-b41f-4d34-9cbb-722d4bc10aac","system_id":"levelo_inurba_marseille","lat":43.25263,"lon":5.42218,"is_reserved":false,"is_disabled":false,"rental_uris":{"android":"levelo://app?vid=ccbe0418-b41f-4d34-9cbb-722d4bc10aac","ios":"levelo://app?vid=ccbe0418-b41f-4d34-9cbb-722d4bc10aac"},"vehicle_type_id":"4","last_reported":1784657293,"current_range_meters":7200,"station_id":"","pricing_plan_id":"cebpf4jnsgd1na2vs0mg"},{"bike_id":"39654aa2-beef-4d3e-9ae4-c32d52dcef5c","system_id":"levelo_inurba_marseille","lat":43.29622,"lon":5.37732,"is_reserved":false,"is_disabled":false,"rental_uris":{"android":"levelo://app?vid=39654aa2-beef-4d3e-9ae4-c32d52dcef5c","ios":"levelo://app?vid=39654aa2-beef-4d3e-9ae4-c32d52dcef5c"},"vehicle_type_id":"4","last_reported":1784657293,"current_range_meters":8000,"station_id":"ce4bgi92rcd13ifvqb90","pricing_plan_id":"cebpf4jnsgd1na2vs0mg"},{"bike_id":"e751d334-5774-4580-8ff5-93738898df80","system_id":"levelo_inurba_marseille","lat":43.29012,"lon":5.35594,"is_reserved":false,"is_disabled":false,"rental_uris":{"android":"levelo://app?vid=e751d334-5774-4580-8ff5-93738898df80","ios":"levelo://app?vid=e751d334-5774-4580-8ff5-93738898df80"},"vehicle_type_id":"4","last_reported":1784657293,"current_range_meters":8000,"station_id":"ce4bhb92rcd13ifvqen0","pricing_plan_id":"cebpf4jnsgd1na2vs0mg"},{"bike_id":"354a079f-ed28-41a7-a06b-85ab194fda38","system_id":"levelo_inurba_marseille","lat":43.2942,"lon":5.39779,"is_reserved":false,"is_disabled":true,"rental_uris":{"android":"levelo://app?vid=354a079f-ed28-41a7-a06b-85ab194fda38","ios":"levelo://app?vid=354a079f-ed28-41a7-a06b-85ab194fda38"},"vehicle_type_id":"4","last_reported":1784657293,"current_range_meters":8000,"station_id":"ce4bh3h2rcd13ifvqdo0","pricing_plan_id":"cebpf4jnsgd1na2vs0mg"},{"bike_id":"1a99ef5e-e166-421e-b3df-05510d7b9c1c","system_id":"levelo_inurba_marseille","lat":43.29002,"lon":5.35608,"is_reserved":false,"is_disabled":false,"rental_uris":{"android":"levelo://app?vid=1a99ef5e-e166-421e-b3df-05510d7b9c1c","ios":"levelo://app?vid=1a99ef5e-e166-421e-b3df-05510d7b9c1c"},"vehicle_type_id":"4","last_reported":1784657293,"current_range_meters":8000,"station_id":"ce4bhb92rcd13ifvqen0","pricing_plan_id":"cebpf4jnsgd1na2vs0mg"},{"bike_id":"54821e4c-5053-4e47-9e18-5cccb4c20a9d","system_id":"levelo_inurba_marseille","lat":43.30339,"lon":5.40452,"is_reserved":false,"is_disabled":false,"rental_uris":{"android":"levelo://app?vid=54821e4c-5053-4e47-9e18-5cccb4c20a9d","ios":"levelo://app?vid=54821e4c-5053-4e47-9e18-5cccb4c20a9d"},"vehicle_type_id":"4","last_reported":1784657293,"current_range_meters":8000,"station_id":"ce4bh012rcd13ifvqd10","pricing_plan_id":"cebpf4jnsgd1na2vs0mg"},{"bike_id":"b4031808-2b9a-4007-8b57-6eca181fb0ea","system_id":"levelo_inurba_marseille","lat":43.24177,"lon":5.3973,"is_reserved":false,"is_disabled":false,"rental_uris":{"android":"levelo://app?vid=b4031808-2b9a-4007-8b57-6eca181fb0ea","ios":"levelo://app?vid=b4031808-2b9a-4007-8b57-6eca181fb0ea"},"vehicle_type_id":"4","last_reported":1784657293,"current_range_meters":8000,"station_id":"ce4bhn12rcd13ifvqgpg","pricing_plan_id":"cebpf4jnsgd1na2vs0mg"},{"bike_id":"f4a10a50-028e-45f5-952f-48cf0af83665","system_id":"levelo_inurba_marseille","lat":43.23234,"lon":5.40372,"is_reserved":false,"is_disabled":false,"rental_uris":{"android":"levelo://app?vid=f4a10a50-028e-45f5-952f-48cf0af83665","ios":"levelo://app?vid=f4a10a50-028e-45f5-952f-48cf0af83665"},"vehicle_type_id":"4","last_reported":1784657293,"current_range_meters":8000,"station_id":"","pricing_plan_id":"cebpf4jnsgd1na2vs0mg"},{"bike_id":"fa570896-6f25-48c8-abd3-6ac2343ee8bd","system_id":"levelo_inurba_marseille","lat":43.29492,"lon":5.38309,"is_reserved":false,"is_disabled":false,"rental_uris":{"android":"levelo://app?vid=fa570896-6f25-48c8-abd3-6ac2343ee8bd","ios":"levelo://app?vid=fa570896-6f25-48c8-abd3-6ac2343ee8bd"},"vehicle_type_id":"4","last_reported":1784657293,"current_range_meters":8000,"station_id":"","pricing_plan_id":"cebpf4jnsgd1na2vs0mg"},{"bike_id":"009250ca-72e2-428c-af9d-85429cc5646b","system_id":"levelo_inurba_marseille","lat":43.25108,"lon":5.39475,"is_reserved":false,"is_disabled":false,"rental_uris":{"android":"levelo://app?vid=009250ca-72e2-428c-af9d-85429cc5646b","ios":"levelo://app?vid=009250ca-72e2-428c-af9d-85429cc5646b"},"vehicle_type_id":"4","last_reported":1784657293,"current_range_meters":8000,"station_id":"ce4bhm12rcd13ifvqgkg","pricing_plan_id":"cebpf4jnsgd1na2vs0mg"},{"bike_id":"1f721667-3543-4fc6-ace1-68e92592874e","system_id":"levelo_inurba_marseille","lat":43.29262,"lon":5.38445,"is_reserved":false,"is_disabled":false,"rental_uris":{"android":"levelo://app?vid=1f721667-3543-4fc6-ace1-68e92592874e","ios":"levelo://app?vid=1f721667-3543-4fc6-ace1-68e92592874e"},"vehicle_type_id":"4","last_reported":1784657293,"current_range_meters":8000,"station_id":"ce4bh692rcd13ifvqea0","pricing_plan_id":"cebpf4jnsgd1na2vs0mg"},{"bike_id":"a9012715-ec62-4810-a79b-d543ac625b3b","system_id":"levelo_inurba_marseille","lat":43.22558,"lon":5.41621,"is_reserved":false,"is_disabled":false,"rental_uris":{"android":"levelo://app?vid=a9012715-ec62-4810-a79b-d543ac625b3b","ios":"levelo://app?vid=a9012715-ec62-4810-a79b-d543ac625b3b"},"vehicle_type_id":"4","last_reported":1784657293,"current_range_meters":8000,"station_id":"st_d2o4gvlbi1j2169b742g","pricing_plan_id":"cebpf4jnsgd1na2vs0mg"},{"bike_id":"9c51386e-2d5d-4f5d-9bf1-11534464d176","system_id":"levelo_inurba_marseille","lat":43.3059,"lon":5.39356,"is_reserved":false,"is_disabled":false,"rental_uris":{"android":"levelo://app?vid=9c51386e-2d5d-4f5d-9bf1-11534464d176","ios":"levelo://app?vid=9c51386e-2d5d-4f5d-9bf1-11534464d176"},"vehicle_type_id":"4","last_reported":1784657293,"current_range_meters":8000,"station_id":"ce4bh0p2rcd13ifvqd80","pricing_plan_id":"cebpf4jnsgd1na2vs0mg"},{"bike_id":"0c006d21-0d06-4ad9-908e-449914495fab","system_id":"levelo_inurba_marseille","lat":43.2894,"lon":5.36632,"is_reserved":false,"is_disabled":false,"rental_uris":{"android":"levelo://app?vid=0c006d21-0d06-4ad9-908e-449914495fab","ios":"levelo://app?vid=0c006d21-0d06-4ad9-908e-449914495fab"},"vehicle_type_id":"4","last_reported":1784657293,"current_range_meters":8000,"station_id":"ce4bhap2rcd13ifvqek0","pricing_plan_id":"cebpf4jnsgd1na2vs0mg"},{"bike_id":"c0024b18-6094-4eae-bf5b-c52a4e6ef59d","system_id":"levelo_inurba_marseille","lat":43.28482,"lon":5.48384,"is_reserved":false,"is_disabled":false,"rental_uris":{"android":"levelo://app?vid=c0024b18-6094-4eae-bf5b-c52a4e6ef59d","ios":"levelo://app?vid=c0024b18-6094-4eae-bf5b-c52a4e6ef59d"},"vehicle_type_id":"4","last_reported":1784657293,"current_range_meters":8000,"station_id":"st_d3svhcjqgbts73a3dn0g","pricing_plan_id":"cebpf4jnsgd1na2vs0mg"},{"bike_id":"f650209b-9e30-4039-8697-0890df958998","system_id":"levelo_inurba_marseille","lat":43.28278,"lon":5.35073,"is_reserved":false,"is_disabled":false,"rental_uris":{"android":"levelo://app?vid=f650209b-9e30-4039-8697-0890df958998","ios":"levelo://app?vid=f650209b-9e30-4039-8697-0890df958998"},"vehicle_type_id":"4","last_reported":1784657293,"current_range_meters":8000,"station_id":"ce4bhbp2rcd13ifvqerg","pricing_plan_id":"cebpf4jnsgd1na2vs0mg"},{"bike_id":"c1d16761-0474-44cd-8e6f-0c976ab0fe33","system_id":"levelo_inurba_marseille","lat":43.30969,"lon":5.39316,"is_reserved":false,"is_disabled":false,"rental_uris":{"android":"levelo://app?vid=c1d16761-0474-44cd-8e6f-0c976ab0fe33","ios":"levelo://app?vid=c1d16761-0474-44cd-8e6f-0c976ab0fe33"},"vehicle_type_id":"4","last_reported":1784657293,"current_range_meters":8000,"station_id":"","pricing_plan_id":"cebpf4jnsgd1na2vs0mg"},{"bike_id":"60700d91-a313-4263-9ef8-2879e6cec456","system_id":"levelo_inurba_marseille","lat":43.26695,"lon":5.3867,"is_reserved":false,"is_disabled":false,"rental_uris":{"android":"levelo://app?vid=60700d91-a313-4263-9ef8-2879e6cec456","ios":"levelo://app?vid=60700d91-a313-4263-9ef8-2879e6cec456"},"vehicle_type_id":"4","last_reported":1784657293,"current_range_meters":8000,"station_id":"","pricing_plan_id":"cebpf4jnsgd1na2vs0mg"},{"bike_id":"726d13be-008a-44f8-9c5d-d53d064ebae1","system_id":"levelo_inurba_marseille","lat":43.24174,"lon":5.36384,"is_reserved":false,"is_disabled":false,"rental_uris":{"android":"levelo://app?vid=726d13be-008a-44f8-9c5d-d53d064ebae1","ios":"levelo://app?vid=726d13be-008a-44f8-9c5d-d53d064ebae1"},"vehicle_type_id":"4","last_reported":1784657293,"current_range_meters":8000,"station_id":"cpo36qri1sfpv3e86is0","pricing_plan_id":"cebpf4jnsgd1na2vs0mg"},{"bike_id":"34956d41-a560-4ed5-b96c-9b97e19b89ac","system_id":"levelo_inurba_marseille","lat":43.28978,"lon":5.35616,"is_reserved":false,"is_disabled":false,"rental_uris":{"android":"levelo://app?vid=34956d41-a560-4ed5-b96c-9b97e19b89ac","ios":"levelo://app?vid=34956d41-a560-4ed5-b96c-9b97e19b89ac"},"vehicle_type_id":"4","last_reported":1784657293,"current_range_meters":8000,"station_id":"ce4bhb92rcd13ifvqen0","pricing_plan_id":"cebpf4jnsgd1na2vs0mg"},{"bike_id":"8c7de06a-bfc1-48cf-89af-1def42ebdd12","system_id":"levelo_inurba_marseille","lat":43.25086,"lon":5.39524,"is_reserved":false,"is_disabled":false,"rental_uris":{"android":"levelo://app?vid=8c7de06a-bfc1-48cf-89af-1def42ebdd12","ios":"levelo://app?vid=8c7de06a-bfc1-48cf-89af-1def42ebdd12"},"vehicle_type_id":"4","last_reported":1784657293,"current_range_meters":8000,"station_id":"ce4bhm12rcd13ifvqgkg","pricing_plan_id":"cebpf4jnsgd1na2vs0mg"},{"bike_id":"42515e5e-51d3-486d-ad16-a4dbf51fbf10","system_id":"levelo_inurba_marseille","lat":43.24929,"lon":5.38871,"is_reserved":false,"is_disabled":false,"rental_uris":{"android":"levelo://app?vid=42515e5e-51d3-486d-ad16-a4dbf51fbf10","ios":"levelo://app?vid=42515e5e-51d3-486d-ad16-a4dbf51fbf10"},"vehicle_type_id":"4","last_reported":1784657293,"current_range_meters":8000,"station_id":"","pricing_plan_id":"cebpf4jnsgd1na2vs0mg"},{"bike_id":"bf720be3-207c-41aa-bdb2-2d086f76cbcd","system_id":"levelo_inurba_marseille","lat":43.26561,"lon":5.40328,"is_reserved":false,"is_disabled":false,"rental_uris":{"android":"levelo://app?vid=bf720be3-207c-41aa-bdb2-2d086f76cbcd","ios":"levelo://app?vid=bf720be3-207c-41aa-bdb2-2d086f76cbcd"},"vehicle_type_id":"4","last_reported":1784657293,"current_range_meters":8400,"station_id":"ce4bhmp2rcd13ifvqgng","pricing_plan_id":"cebpf4jnsgd1na2vs0mg"},{"bike_id":"ceeeae32-60d7-4369-8ec2-48a380e93de8","system_id":"levelo_inurba_marseille","lat":43.24381,"lon":5.37041,"is_reserved":false,"is_disabled":false,"rental_uris":{"android":"levelo://app?vid=ceeeae32-60d7-4369-8ec2-48a380e93de8","ios":"levelo://app?vid=ceeeae32-60d7-4369-8ec2-48a380e93de8"},"vehicle_type_id":"4","last_reported":1784657293,"current_range_meters":8400,"station_id":"ce4bhhh2rcd13ifvqfk0","pricing_plan_id":"cebpf4jnsgd1na2vs0mg"},{"bike_id":"a7c9489a-3c37-4218-bc38-92c335aa3a8a","system_id":"levelo_inurba_marseille","lat":43.28483,"lon":5.48386,"is_reserved":false,"is_disabled":false,"rental_uris":{"android":"levelo://app?vid=a7c9489a-3c37-4218-bc38-92c335aa3a8a","ios":"levelo://app?vid=a7c9489a-3c37-4218-bc38-92c335aa3a8a"},"vehicle_type_id":"4","last_reported":1784657293,"current_range_meters":8400,"station_id":"st_d3svhcjqgbts73a3dn0g","pricing_plan_id":"cebpf4jnsgd1na2vs0mg"},{"bike_id":"1a8f7e32-5d47-4694-89a5-a9089b244299","system_id":"levelo_inurba_marseille","lat":43.28082,"lon":5.3847,"is_reserved":false,"is_disabled":false,"rental_uris":{"android":"levelo://app?vid=1a8f7e32-5d47-4694-89a5-a9089b244299","ios":"levelo://app?vid=1a8f7e32-5d47-4694-89a5-a9089b244299"},"vehicle_type_id":"4","last_reported":1784657293,"current_range_meters":8400,"station_id":"","pricing_plan_id":"cebpf4jnsgd1na2vs0mg"},{"bike_id":"a5d5d334-913d-4004-8736-e04a5c6162ae","system_id":"levelo_inurba_marseille","lat":43.28417,"lon":5.34988,"is_reserved":false,"is_disabled":false,"rental_uris":{"android":"levelo://app?vid=a5d5d334-913d-4004-8736-e04a5c6162ae","ios":"levelo://app?vid=a5d5d334-913d-4004-8736-e04a5c6162ae"},"vehicle_type_id":"4","last_reported":1784657293,"current_range_meters":8400,"station_id":"ce4bhbh2rcd13ifvqepg","pricing_plan_id":"cebpf4jnsgd1na2vs0mg"},{"bike_id":"f9ae5099-74e4-4ba3-bc39-b9bf0515edd5","system_id":"levelo_inurba_marseille","lat":43.24681,"lon":5.38152,"is_reserved":false,"is_disabled":false,"rental_uris":{"android":"levelo://app?vid=f9ae5099-74e4-4ba3-bc39-b9bf0515edd5","ios":"levelo://app?vid=f9ae5099-74e4-4ba3-bc39-b9bf0515edd5"},"vehicle_type_id":"4","last_reported":1784657293,"current_range_meters":8400,"station_id":"ce4bhih2rcd13ifvqfr0","pricing_plan_id":"cebpf4jnsgd1na2vs0mg"},{"bike_id":"eaf339ff-47ea-4a11-a219-7f2d433d51de","system_id":"levelo_inurba_marseille","lat":43.26198,"lon":5.37441,"is_reserved":false,"is_disabled":false,"rental_uris":{"android":"levelo://app?vid=eaf339ff-47ea-4a11-a219-7f2d433d51de","ios":"levelo://app?vid=eaf339ff-47ea-4a11-a219-7f2d433d51de"},"vehicle_type_id":"4","last_reported":1784657293,"current_range_meters":8400,"station_id":"ce4bhgp2rcd13ifvqfc0","pricing_plan_id":"cebpf4jnsgd1na2vs0mg"},{"bike_id":"9cae4b4a-a214-4196-a7bc-08f6b5150d3a","system_id":"levelo_inurba_marseille","lat":43.27066,"lon":5.42268,"is_reserved":false,"is_disabled":true,"rental_uris":{"android":"levelo://app?vid=9cae4b4a-a214-4196-a7bc-08f6b5150d3a","ios":"levelo://app?vid=9cae4b4a-a214-4196-a7bc-08f6b5150d3a"},"vehicle_type_id":"4","last_reported":1784657293,"current_range_meters":8400,"station_id":"ce4bhk92rcd13ifvqgb0","pricing_plan_id":"cebpf4jnsgd1na2vs0mg"},{"bike_id":"28b53a6f-005c-4752-8ff1-e3836361f072","system_id":"levelo_inurba_marseille","lat":43.28407,"lon":5.34977,"is_reserved":false,"is_disabled":false,"rental_uris":{"android":"levelo://app?vid=28b53a6f-005c-4752-8ff1-e3836361f072","ios":"levelo://app?vid=28b53a6f-005c-4752-8ff1-e3836361f072"},"vehicle_type_id":"4","last_reported":1784657293,"current_range_meters":8400,"station_id":"ce4bhbh2rcd13ifvqepg","pricing_plan_id":"cebpf4jnsgd1na2vs0mg"},{"bike_id":"6e332e86-de15-4d4d-bca0-6fd68dd8444f","system_id":"levelo_inurba_marseille","lat":43.33318,"lon":5.43649,"is_reserved":false,"is_disabled":false,"rental_uris":{"android":"levelo://app?vid=6e332e86-de15-4d4d-bca0-6fd68dd8444f","ios":"levelo://app?vid=6e332e86-de15-4d4d-bca0-6fd68dd8444f"},"vehicle_type_id":"4","last_reported":1784657293,"current_range_meters":8400,"station_id":"","pricing_plan_id":"cebpf4jnsgd1na2vs0mg"},{"bike_id":"07edaab3-33a2-4ef3-a5f0-2c83f40c3ba9","system_id":"levelo_inurba_marseille","lat":43.27497,"lon":5.41572,"is_reserved":false,"is_disabled":true,"rental_uris":{"android":"levelo://app?vid=07edaab3-33a2-4ef3-a5f0-2c83f40c3ba9","ios":"levelo://app?vid=07edaab3-33a2-4ef3-a5f0-2c83f40c3ba9"},"vehicle_type_id":"4","last_reported":1784657293,"current_range_meters":8400,"station_id":"st_d6im8g6chgec73a5pndg","pricing_plan_id":"cebpf4jnsgd1na2vs0mg"},{"bike_id":"29ec4c92-5235-41ac-8b29-bab24e026710","system_id":"levelo_inurba_marseille","lat":43.26057,"lon":5.39393,"is_reserved":false,"is_disabled":false,"rental_uris":{"android":"levelo://app?vid=29ec4c92-5235-41ac-8b29-bab24e026710","ios":"levelo://app?vid=29ec4c92-5235-41ac-8b29-bab24e026710"},"vehicle_type_id":"4","last_reported":1784657293,"current_range_meters":8400,"station_id":"ce4bhh92rcd13ifvqfj0","pricing_plan_id":"cebpf4jnsgd1na2vs0mg"},{"bike_id":"6c026192-2325-4a35-90f4-cde69491245e","system_id":"levelo_inurba_marseille","lat":43.27173,"lon":5.40994,"is_reserved":false,"is_disabled":false,"rental_uris":{"android":"levelo://app?vid=6c026192-2325-4a35-90f4-cde69491245e","ios":"levelo://app?vid=6c026192-2325-4a35-90f4-cde69491245e"},"vehicle_type_id":"4","last_reported":1784657293,"current_range_meters":8400,"station_id":"ce4bhl12rcd13ifvqgf0","pricing_plan_id":"cebpf4jnsgd1na2vs0mg"},{"bike_id":"3c77d917-1e16-4f7d-a9fa-2030e3ffc3a3","system_id":"levelo_inurba_marseille","lat":43.27988,"lon":5.41647,"is_reserved":false,"is_disabled":true,"rental_uris":{"android":"levelo://app?vid=3c77d917-1e16-4f7d-a9fa-2030e3ffc3a3","ios":"levelo://app?vid=3c77d917-1e16-4f7d-a9fa-2030e3ffc3a3"},"vehicle_type_id":"4","last_reported":1784657293,"current_range_meters":8400,"station_id":"ce4bho12rcd13ifvqh1g","pricing_plan_id":"cebpf4jnsgd1na2vs0mg"},{"bike_id":"90be5e2d-583d-4ce6-95cf-91a68b648a48","system_id":"levelo_inurba_marseille","lat":43.24076,"lon":5.37751,"is_reserved":false,"is_disabled":false,"rental_uris":{"android":"levelo://app?vid=90be5e2d-583d-4ce6-95cf-91a68b648a48","ios":"levelo://app?vid=90be5e2d-583d-4ce6-95cf-91a68b648a48"},"vehicle_type_id":"4","last_reported":1784657293,"current_range_meters":8400,"station_id":"ce4bhnp2rcd13ifvqgvg","pricing_plan_id":"cebpf4jnsgd1na2vs0mg"},{"bike_id":"c2ffb063-eaa6-4af9-b4d4-da54a453082c","system_id":"levelo_inurba_marseille","lat":43.32673,"lon":5.40714,"is_reserved":false,"is_disabled":false,"rental_uris":{"android":"levelo://app?vid=c2ffb063-eaa6-4af9-b4d4-da54a453082c","ios":"levelo://app?vid=c2ffb063-eaa6-4af9-b4d4-da54a453082c"},"vehicle_type_id":"4","last_reported":1784657293,"current_range_meters":8400,"station_id":"","pricing_plan_id":"cebpf4jnsgd1na2vs0mg"},{"bike_id":"6422cf3d-2df7-4e60-ae6b-3ac54d248869","system_id":"levelo_inurba_marseille","lat":43.21281,"lon":5.34436,"is_reserved":false,"is_disabled":false,"rental_uris":{"android":"levelo://app?vid=6422cf3d-2df7-4e60-ae6b-3ac54d248869","ios":"levelo://app?vid=6422cf3d-2df7-4e60-ae6b-3ac54d248869"},"vehicle_type_id":"4","last_reported":1784657293,"current_range_meters":8400,"station_id":"","pricing_plan_id":"cebpf4jnsgd1na2vs0mg"},{"bike_id":"6f3aa994-d3ee-44d7-a9f2-f50b75604ab1","system_id":"levelo_inurba_marseille","lat":43.24168,"lon":5.36392,"is_reserved":false,"is_disabled":false,"rental_uris":{"android":"levelo://app?vid=6f3aa994-d3ee-44d7-a9f2-f50b75604ab1","ios":"levelo://app?vid=6f3aa994-d3ee-44d7-a9f2-f50b75604ab1"},"vehicle_type_id":"4","last_reported":1784657293,"current_range_meters":8400,"station_id":"cpo36qri1sfpv3e86is0","pricing_plan_id":"cebpf4jnsgd1na2vs0mg"},{"bike_id":"d24490e5-162d-4808-91fb-eceac9bfc108","system_id":"levelo_inurba_marseille","lat":43.31165,"lon":5.39485,"is_reserved":false,"is_disabled":false,"rental_uris":{"android":"levelo://app?vid=d24490e5-162d-4808-91fb-eceac9bfc108","ios":"levelo://app?vid=d24490e5-162d-4808-91fb-eceac9bfc108"},"vehicle_type_id":"4","last_reported":1784657293,"current_range_meters":8400,"station_id":"","pricing_plan_id":"cebpf4jnsgd1na2vs0mg"},{"bike_id":"bd4b34eb-b83f-4d24-955c-a90509fb46f9","system_id":"levelo_inurba_marseille","lat":43.23183,"lon":5.39979,"is_reserved":false,"is_disabled":false,"rental_uris":{"android":"levelo://app?vid=bd4b34eb-b83f-4d24-955c-a90509fb46f9","ios":"levelo://app?vid=bd4b34eb-b83f-4d24-955c-a90509fb46f9"},"vehicle_type_id":"4","last_reported":1784657293,"current_range_meters":8400,"station_id":"ce4bhn12rcd13ifvqgqg","pricing_plan_id":"cebpf4jnsgd1na2vs0mg"},{"bike_id":"ecd2189c-df1e-45a0-8225-c8755954ebfe","system_id":"levelo_inurba_marseille","lat":43.25084,"lon":5.42922,"is_reserved":false,"is_disabled":false,"rental_uris":{"android":"levelo://app?vid=ecd2189c-df1e-45a0-8225-c8755954ebfe","ios":"levelo://app?vid=ecd2189c-df1e-45a0-8225-c8755954ebfe"},"vehicle_type_id":"4","last_reported":1784657293,"current_range_meters":8400,"station_id":"","pricing_plan_id":"cebpf4jnsgd1na2vs0mg"},