{"last_updated":1702318165,"ttl":30,"version":"2.2","data":{"bikes":[{"bike_id":"c0d8f211-7634-4763-a33f-bc0b6ca412e3","system_id":"levelo_inurba_marseille","lat":43.312239,"lon":5.368562,"is_reserved":false,"is_disabled":false,"rental_uris":{"android":"levelo://app?vid=c0d8f211-7634-4763-a33f-bc0b6ca412e3","ios":"levelo://app?vid=c0d8f211-7634-4763-a33f-bc0b6ca412e3"},"vehicle_type_id":"4","last_reported":1702318166,"current_range_meters":5600,"station_id":"ce4bgl92rcd13ifvqbq0","pricing_plan_id":"free"},{"bike_id":"f4264fb6-b092-4a42-9016-e7bb26d77d67","system_id":"levelo_inurba_marseille","lat":43.3123,"lon":5.3685,"is_reserved":false,"is_disabled":false,"rental_uris":{"android":"levelo://app?vid=f4264fb6-b092-4a42-9016-e7bb26d77d67","ios":"levelo://app?vid=f4264fb6-b092-4a42-9016-e7bb26d77d67"},"vehicle_type_id":"4","last_reported":1702318166,"current_range_meters":0,"station_id":"ce4bgl92rcd13ifvqbq0","pricing_plan_id":"free"},{"bike_id":"b19150a2-f56d-4a3a-9dd1-0a5b95d0f75a","system_id":"levelo_inurba_marseille","lat":43.309076,"lon":5.368465,"is_reserved":false,"is_disabled":false,"rental_uris":{"android":"levelo://app?vid=b19150a2-f56d-4a3a-9dd1-0a5b95d0f75a","ios":"levelo://app?vid=b19150a2-f56d-4a3a-9dd1-0a5b95d0f75a"},"vehicle_type_id":"4","last_reported":1702318166,"current_range_meters":25200,"station_id":"ce4bgn92rcd13ifvqbvg","pricing_plan_id":"free"},{"bike_id":"ebc039e5-7b26-480e-aecd-6f2aab3a448a","system_id":"levelo_inurba_marseille","lat":43.309039,"lon":5.371797,"is_reserved":false,"is_disabled":false,"rental_uris":{"android":"levelo://app?vid=ebc039e5-7b26-480e-aecd-6f2aab3a448a","ios":"levelo://app?vid=ebc039e5-7b26-480e-aecd-6f2aab3a448a"},"vehicle_type_id":"4","last_reported":1702318166,"current_range_meters":14800,"station_id":"ce4bguh2rcd13ifvqckg","pricing_plan_id":"free"},{"bike_id":"2a35934f-bf35-44c6-af46-317633729d96","system_id":"levelo_inurba_marseille","lat":43.30549,"lon":5.36535,"is_reserved":false,"is_disabled":false,"rental_uris":{"android":"levelo://app?vid=2a35934f-bf35-44c6-af46-317633729d96","ios":"levelo://app?vid=2a35934f-bf35-44c6-af46-317633729d96"},"vehicle_type_id":"4","last_reported":1702318166,"current_range_meters":0,"station_id":"ce4bgs12rcd13ifvqcag","pricing_plan_id":"free"},{"bike_id":"53c294b5-37ff-4d50-8b51-97dfc2fc700b","system_id":"levelo_inurba_marseille","lat":43.305989,"lon":5.37225,"is_reserved":false,"is_disabled":false,"rental_uris":{"android":"levelo://app?vid=53c294b5-37ff-4d50-8b51-97dfc2fc700b","ios":"levelo://app?vid=53c294b5-37ff-4d50-8b51-97dfc2fc700b"},"vehicle_type_id":"4","last_reported":1702318166,"current_range_meters":1600,"station_id":"ce4bgqh2rcd13ifvqc4g","pricing_plan_id":"free"},{"bike_id":"427ac077-da03-48f3-9381-c932a86c4e12","system_id":"levelo_inurba_marseille","lat":43.305989,"lon":5.37225,"is_reserved":false,"is_disabled":false,"rental_uris":{"android":"levelo://app?vid=427ac077-da03-48f3-9381-c932a86c4e12","ios":"levelo://app?vid=427ac077-da03-48f3-9381-c932a86c4e12"},"vehicle_type_id":"4","last_reported":1702318166,"current_range_meters":13200,"station_id":"ce4bgqh2rcd13ifvqc4g","pricing_plan_id":"free"},{"bike_id":"eb55ab0f-4cf4-4960-b142-1557f23bc7ca","system_id":"levelo_inurba_marseille","lat":43.311131,"lon":5.377651,"is_reserved":false,"is_disabled":false,"rental_uris":{"android":"levelo://app?vid=eb55ab0f-4cf4-4960-b142-1557f23bc7ca","ios":"levelo://app?vid=eb55ab0f-4cf4-4960-b142-1557f23bc7ca"},"vehicle_type_id":"4","last_reported":1702318166,"current_range_meters":0,"station_id":"ce4bgt92rcd13ifvqcg0","pricing_plan_id":"free"},{"bike_id":"2e359c06-8aa7-494f-bebc-fd6078eea2ce","system_id":"levelo_inurba_marseille","lat":43.307945,"lon":5.376487,"is_reserved":false,"is_disabled":false,"rental_uris":{"android":"levelo://app?vid=2e359c06-8aa7-494f-bebc-fd6078eea2ce","ios":"levelo://app?vid=2e359c06-8aa7-494f-bebc-fd6078eea2ce"},"vehicle_type_id":"4","last_reported":1702318166,"current_range_meters":26800,"station_id":"ce4bgv92rcd13ifvqcq0","pricing_plan_id":"free"},{"bike_id":"d3a6aa3f-c67b-4fb2-a23f-3f8bba76afb7","system_id":"levelo_inurba_marseille","lat":43.317075,"lon":5.377367,"is_reserved":false,"is_disabled":false,"rental_uris":{"android":"levelo://app?vid=d3a6aa3f-c67b-4fb2-a23f-3f8bba76afb7","ios":"levelo://app?vid=d3a6aa3f-c67b-4fb2-a23f-3f8bba76afb7"},"vehicle_type_id":"4","last_reported":1702318166,"current_range_meters":0,"station_id":"ce4bgth2rcd13ifvqch0","pricing_plan_id":"free"},{"bike_id":"2a5d914f-4ca7-474a-ba92-d7be1a9064e0","system_id":"levelo_inurba_marseille","lat":43.303046,"lon":5.368981,"is_reserved":false,"is_disabled":false,"rental_uris":{"android":"levelo://app?vid=2a5d914f-4ca7-474a-ba92-d7be1a9064e0","ios":"levelo://app?vid=2a5d914f-4ca7-474a-ba92-d7be1a9064e0"},"vehicle_type_id":"4","last_reported":1702318166,"current_range_meters":22400,"station_id":"ce4bgqh2rcd13ifvqc5g","pricing_plan_id":"free"},{"bike_id":"e9627390-7690-4fa6-86d0-ff8597dd3cc8","system_id":"levelo_inurba_marseille","lat":43.315417,"lon":5.380237,"is_reserved":false,"is_disabled":false,"rental_uris":{"android":"levelo://app?vid=e9627390-7690-4fa6-86d0-ff8597dd3cc8","ios":"levelo://app?vid=e9627390-7690-4fa6-86d0-ff8597dd3cc8"},"vehicle_type_id":"4","last_reported":1702318166,"current_range_meters":22000,"station_id":"ce4bhsp2rcd13ifvqi50","pricing_plan_id":"free"},{"bike_id":"eb260c2c-8d20-4b31-9d70-77c14402eaec","system_id":"levelo_inurba_marseille","lat":43.31537,"lon":5.38033,"is_reserved":false,"is_disabled":false,"rental_uris":{"android":"levelo://app?vid=eb260c2c-8d20-4b31-9d70-77c14402eaec","ios":"levelo://app?vid=eb260c2c-8d20-4b31-9d70-77c14402eaec"},"vehicle_type_id":"4","last_reported":1702318166,"current_range_meters":22400,"station_id":"ce4bhsp2rcd13ifvqi50","pricing_plan_id":"free"},{"bike_id":"713a2cea-686c-4198-bacf-20da41a77af0","system_id":"levelo_inurba_marseille","lat":43.308012,"lon":5.381511,"is_reserved":false,"is_disabled":false,"rental_uris":{"android":"levelo://app?vid=713a2cea-686c-4198-bacf-20da41a77af0","ios":"levelo://app?vid=713a2cea-686c-4198-bacf-20da41a77af0"},"vehicle_type_id":"4","last_reported":1702318166,"current_range_meters":13200,"station_id":"ce4bgt12rcd13ifvqce0","pricing_plan_id":"free"},{"bike_id":"2e460499-8f09-4f2f-885c-17b5e9d63b25","system_id":"levelo_inurba_marseille","lat":43.304606,"lon":5.379026,"is_reserved":false,"is_disabled":false,"rental_uris":{"android":"levelo://app?vid=2e460499-8f09-4f2f-885c-17b5e9d63b25","ios":"levelo://app?vid=2e460499-8f09-4f2f-885c-17b5e9d63b25"},"vehicle_type_id":"4","last_reported":1702318166,"current_range_meters":18400,"station_id":"ce4bgup2rcd13ifvqcn0","pricing_plan_id":"free"},{"bike_id":"12caf35a-b98b-4d85-8622-7415295b1c7b","system_id":"levelo_inurba_marseille","lat":43.304606,"lon":5.379026,"is_reserved":false,"is_disabled":false,"rental_uris":{"android":"levelo://app?vid=12caf35a-b98b-4d85-8622-7415295b1c7b","ios":"levelo://app?vid=12caf35a-b98b-4d85-8622-7415295b1c7b"},"vehicle_type_id":"4","last_reported":1702318166,"current_range_meters":30400,"station_id":"ce4bgup2rcd13ifvqcn0","pricing_plan_id":"free"},{"bike_id":"a5589e38-f15a-46fe-9b37-27cf16ba9de2","system_id":"levelo_inurba_marseille","lat":43.31636,"lon":5.38341,"is_reserved":false,"is_disabled":false,"rental_uris":{"android":"levelo://app?vid=a5589e38-f15a-46fe-9b37-27cf16ba9de2","ios":"levelo://app?vid=a5589e38-f15a-46fe-9b37-27cf16ba9de2"},"vehicle_type_id":"4","last_reported":1702318166,"current_range_meters":23200,"station_id":"","pricing_plan_id":"free"},{"bike_id":"d507dc20-f3f0-485a-b520-e5ecd0effbe5","system_id":"levelo_inurba_marseille","lat":43.319935,"lon":5.381699,"is_reserved":false,"is_disabled":false,"rental_uris":{"android":"levelo://app?vid=d507dc20-f3f0-485a-b520-e5ecd0effbe5","ios":"levelo://app?vid=d507dc20-f3f0-485a-b520-e5ecd0effbe5"},"vehicle_type_id":"4","last_reported":1702318166,"current_range_meters":18000,"station_id":"ce4bhr12rcd13ifvqhpg","pricing_plan_id":"free"},{"bike_id":"11c78c5e-cf89-4e9a-8945-c17f47c86c75","system_id":"levelo_inurba_marseille","lat":43.313571,"lon":5.384829,"is_reserved":false,"is_disabled":false,"rental_uris":{"android":"levelo://app?vid=11c78c5e-cf89-4e9a-8945-c17f47c86c75","ios":"levelo://app?vid=11c78c5e-cf89-4e9a-8945-c17f47c86c75"},"vehicle_type_id":"4","last_reported":1702318166,"current_range_meters":22400,"station_id":"ce4bgt92rcd13ifvqcf0","pricing_plan_id":"free"},{"bike_id":"f5dc87db-1627-40f9-8d4d-6dfa629a504a","system_id":"levelo_inurba_marseille","lat":43.31356,"lon":5.38493,"is_reserved":false,"is_disabled":false,"rental_uris":{"android":"levelo://app?vid=f5dc87db-1627-40f9-8d4d-6dfa629a504a","ios":"levelo://app?vid=f5dc87db-1627-40f9-8d4d-6dfa629a504a"},"vehicle_type_id":"4","last_reported":1702318166,"current_range_meters":15600,"station_id":"ce4bgt92rcd13ifvqcf0","pricing_plan_id":"free"},{"bike_id":"c78f5afd-15b0-4137-a3b4-2808a0cca7a6","system_id":"levelo_inurba_marseille","lat":43.313571,"lon":5.384829,"is_reserved":false,"is_disabled":false,"rental_uris":{"android":"levelo://app?vid=c78f5afd-15b0-4137-a3b4-2808a0cca7a6","ios":"levelo://app?vid=c78f5afd-15b0-4137-a3b4-2808a0cca7a6"},"vehicle_type_id":"4","last_reported":1702318166,"current_range_meters":0,"station_id":"ce4bgt92rcd13ifvqcf0","pricing_plan_id":"free"},{"bike_id":"c6f69528-c138-4d2f-ade9-d057e1002d40","system_id":"levelo_inurba_marseille","lat":43.299724,"lon":5.371829,"is_reserved":false,"is_disabled":false,"rental_uris":{"android":"levelo://app?vid=c6f69528-c138-4d2f-ade9-d057e1002d40","ios":"levelo://app?vid=c6f69528-c138-4d2f-ade9-d057e1002d40"},"vehicle_type_id":"4","last_reported":1702318166,"current_range_meters":14800,"station_id":"ce4bgr92rcd13ifvqc7g","pricing_plan_id":"free"},{"bike_id":"8b6d7883-524a-4044-b7a6-e31f3b52bea9","system_id":"levelo_inurba_marseille","lat":43.298433,"lon":5.362774,"is_reserved":false,"is_disabled":false,"rental_uris":{"android":"levelo://app?vid=8b6d7883-524a-4044-b7a6-e31f3b52bea9","ios":"levelo://app?vid=8b6d7883-524a-4044-b7a6-e31f3b52bea9"},"vehicle_type_id":"4","last_reported":1702318166,"current_range_meters":31200,"station_id":"ce4bgpp2rcd13ifvqc3g","pricing_plan_id":"free"},{"bike_id":"76ca42d9-c835-432f-a3d5-981f52a265be","system_id":"levelo_inurba_marseille","lat":43.298433,"lon":5.362774,"is_reserved":false,"is_disabled":false,"rental_uris":{"android":"levelo://app?vid=76ca42d9-c835-432f-a3d5-981f52a265be","ios":"levelo://app?vid=76ca42d9-c835-432f-a3d5-981f52a265be"},"vehicle_type_id":"4","last_reported":1702318166,"current_range_meters":30800,"station_id":"ce4bgpp2rcd13ifvqc3g","pricing_plan_id":"free"},{"bike_id":"9a1399ed-22fc-441c-97c9-b06e1171bf7d","system_id":"levelo_inurba_marseille","lat":43.311722,"lon":5.387247,"is_reserved":false,"is_disabled":false,"rental_uris":{"android":"levelo://app?vid=9a1399ed-22fc-441c-97c9-b06e1171bf7d","ios":"levelo://app?vid=9a1399ed-22fc-441c-97c9-b06e1171bf7d"},"vehicle_type_id":"4","last_reported":1702318166,"current_range_meters":24800,"station_id":"ce4bgv12rcd13ifvqcp0","pricing_plan_id":"free"},{"bike_id":"ea30782d-6269-40ef-81ac-0eb759ccbe99","system_id":"levelo_inurba_marseille","lat":43.322872,"lon":5.382756,"is_reserved":false,"is_disabled":false,"rental_uris":{"android":"levelo://app?vid=ea30782d-6269-40ef-81ac-0eb759ccbe99","ios":"levelo://app?vid=ea30782d-6269-40ef-81ac-0eb759ccbe99"},"vehicle_type_id":"4","last_reported":1702318166,"current_range_meters":30000,"station_id":"ce4bhr12rcd13ifvqhqg","pricing_plan_id":"free"},{"bike_id":"52d8b7ba-7505-413c-b898-efb75f14c13c","system_id":"levelo_inurba_marseille","lat":43.328296,"lon":5.366748,"is_reserved":false,"is_disabled":false,"rental_uris":{"android":"levelo://app?vid=52d8b7ba-7505-413c-b898-efb75f14c13c","ios":"levelo://app?vid=52d8b7ba-7505-413c-b898-efb75f14c13c"},"vehicle_type_id":"4","last_reported":1702318166,"current_range_meters":16800,"station_id":"ce4bhs92rcd13ifvqi0g","pricing_plan_id":"free"},{"bike_id":"61a9d821-211d-4cd3-b66f-6a9b3fadd2d2","system_id":"levelo_inurba_marseille","lat":43.32834,"lon":5.36686,"is_reserved":false,"is_disabled":false,"rental_uris":{"android":"levelo://app?vid=61a9d821-211d-4cd3-b66f-6a9b3fadd2d2","ios":"levelo://app?vid=61a9d821-211d-4cd3-b66f-6a9b3fadd2d2"},"vehicle_type_id":"4","last_reported":1702318166,"current_range_meters":22000,"station_id":"ce4bhs92rcd13ifvqi0g","pricing_plan_id":"free"},{"bike_id":"e943b487-c43c-4967-b791-c50dc3993506","system_id":"levelo_inurba_marseille","lat":43.29573,"lon":5.367355,"is_reserved":false,"is_disabled":false,"rental_uris":{"android":"levelo://app?vid=e943b487-c43c-4967-b791-c50dc3993506","ios":"levelo://app?vid=e943b487-c43c-4967-b791-c50dc3993506"},"vehicle_type_id":"4","last_reported":1702318166,"current_range_meters":28000,"station_id":"ce4bgph2rcd13ifvqc2g","pricing_plan_id":"free"},{"bike_id":"479e6b8b-9702-488e-9bd9-79528f00b52a","system_id":"levelo_inurba_marseille","lat":43.297102,"lon":5.376757,"is_reserved":false,"is_disabled":false,"rental_uris":{"android":"levelo://app?vid=479e6b8b-9702-488e-9bd9-79528f00b52a","ios":"levelo://app?vid=479e6b8b-9702-488e-9bd9-79528f00b52a"},"vehicle_type_id":"4","last_reported":1702318166,"current_range_meters":25600,"station_id":"ce4bgkh2rcd13ifvqbl0","pricing_plan_id":"free"},{"bike_id":"e445088b-ea85-4a39-915c-fe076c5e8f64","system_id":"levelo_inurba_marseille","lat":43.330536,"lon":5.370782,"is_reserved":false,"is_disabled":false,"rental_uris":{"android":"levelo://app?vid=e445088b-ea85-4a39-915c-fe076c5e8f64","ios":"levelo://app?vid=e445088b-ea85-4a39-915c-fe076c5e8f64"},"vehicle_type_id":"4","last_reported":1702318166,"current_range_meters":3600,"station_id":"","pricing_plan_id":"free"},{"bike_id":"f9511353-d9b4-45e3-b6c9-a620b1db365c","system_id":"levelo_inurba_marseille","lat":43.304278,"lon":5.388868,"is_reserved":false,"is_disabled":false,"rental_uris":{"android":"levelo://app?vid=f9511353-d9b4-45e3-b6c9-a620b1db365c","ios":"levelo://app?vid=f9511353-d9b4-45e3-b6c9-a620b1db365c"},"vehicle_type_id":"4","last_reported":1702318166,"current_range_meters":8400,"station_id":"ce4bgk12rcd13ifvqbi0","pricing_plan_id":"free"},{"bike_id":"9b0409c8-952e-43cd-8929-2c98668b8e00","system_id":"levelo_inurba_marseille","lat":43.33059,"lon":5.370719,"is_reserved":false,"is_disabled":false,"rental_uris":{"android":"levelo://app?vid=9b0409c8-952e-43cd-8929-2c98668b8e00","ios":"levelo://app?vid=9b0409c8-952e-43cd-8929-2c98668b8e00"},"vehicle_type_id":"4","last_reported":1702318166,"current_range_meters":12800,"station_id":"","pricing_plan_id":"free"},{"bike_id":"113bf9da-c543-4091-a9eb-cabe63f55e58","system_id":"levelo_inurba_marseille","lat":43.30431,"lon":5.38898,"is_reserved":false,"is_disabled":false,"rental_uris":{"android":"levelo://app?vid=113bf9da-c543-4091-a9eb-cabe63f55e58","ios":"levelo://app?vid=113bf9da-c543-4091-a9eb-cabe63f55e58"},"vehicle_type_id":"4","last_reported":1702318166,"current_range_meters":9200,"station_id":"ce4bgk12rcd13ifvqbi0","pricing_plan_id":"free"},{"bike_id":"c226b706-7031-4bee-b21d-e1af6c90767c","system_id":"levelo_inurba_marseille","lat":43.304274,"lon":5.388873,"is_reserved":false,"is_disabled":false,"rental_uris":{"android":"levelo://app?vid=c226b706-7031-4bee-b21d-e1af6c90767c","ios":"levelo://app?vid=c226b706-7031-4bee-b21d-e1af6c90767c"},"vehicle_type_id":"4","last_reported":1702318166,"current_range_meters":0,"station_id":"ce4bgk12rcd13ifvqbi0","pricing_plan_id":"free"},{"bike_id":"e4715ec5-5143-4bd6-8dfa-53a766959235","system_id":"levelo_inurba_marseille","lat":43.295748,"lon":5.37522,"is_reserved":false,"is_disabled":false,"rental_uris":{"android":"levelo://app?vid=e4715ec5-5143-4bd6-8dfa-53a766959235","ios":"levelo://app?vid=e4715ec5-5143-4bd6-8dfa-53a766959235"},"vehicle_type_id":"4","last_reported":1702318166,"current_range_meters":30800,"station_id":"ce4bgh92rcd13ifvqb50","pricing_plan_id":"free"},{"bike_id":"5f87770f-ebb5-40c1-a69a-c37d735a7410","system_id":"levelo_inurba_marseille","lat":43.296263,"lon":5.377094,"is_reserved":false,"is_disabled":false,"rental_uris":{"android":"levelo://app?vid=5f87770f-ebb5-40c1-a69a-c37d735a7410","ios":"levelo://app?vid=5f87770f-ebb5-40c1-a69a-c37d735a7410"},"vehicle_type_id":"4","last_reported":1702318166,"current_range_meters":0,"station_id":"ce4bgi92rcd13ifvqb90","pricing_plan_id":"free"},{"bike_id":"225e2bcc-b16d-4ed9-9e99-72781159e8d1","system_id":"levelo_inurba_marseille","lat":43.299724,"lon":5.384848,"is_reserved":false,"is_disabled":false,"rental_uris":{"android":"levelo://app?vid=225e2bcc-b16d-4ed9-9e99-72781159e8d1","ios":"levelo://app?vid=225e2bcc-b16d-4ed9-9e99-72781159e8d1"},"vehicle_type_id":"4","last_reported":1702318166,"current_range_meters":8400,"station_id":"ce4bgj92rcd13ifvqbd0","pricing_plan_id":"free"},{"bike_id":"77a6c46d-d898-4e4f-8846-efa91689c7f0","system_id":"levelo_inurba_marseille","lat":43.295515,"lon":5.3793,"is_reserved":false,"is_disabled":false,"rental_uris":{"android":"levelo://app?vid=77a6c46d-d898-4e4f-8846-efa91689c7f0","ios":"levelo://app?vid=77a6c46d-d898-4e4f-8846-efa91689c7f0"},"vehicle_type_id":"4","last_reported":1702318166,"current_range_meters":0,"station_id":"","pricing_plan_id":"free"},{"bike_id":"2f40371b-34cc-46d0-8e2a-7f604c58e304","system_id":"levelo_inurba_marseille","lat":43.305875,"lon":5.393581,"is_reserved":false,"is_disabled":false,"rental_uris":{"android":"levelo://app?vid=2f40371b-34cc-46d0-8e2a-7f604c58e304","ios":"levelo://app?vid=2f40371b-34cc-46d0-8e2a-7f604c58e304"},"vehicle_type_id":"4","last_reported":1702318166,"current_range_meters":14800,"station_id":"","pricing_plan_id":"free"},{"bike_id":"3ab59caf-3e4e-4b0b-8c42-bdd2a3d0da1c","system_id":"levelo_inurba_marseille","lat":43.303002,"lon":5.392142,"is_reserved":false,"is_disabled":false,"rental_uris":{"android":"levelo://app?vid=3ab59caf-3e4e-4b0b-8c42-bdd2a3d0da1c","ios":"levelo://app?vid=3ab59caf-3e4e-4b0b-8c42-bdd2a3d0da1c"},"vehicle_type_id":"4","last_reported":1702318166,"current_range_meters":0,"station_id":"ce4bgkh2rcd13ifvqbk0","pricing_plan_id":"free"},{"bike_id":"cdf49dfd-cb5a-4dca-bbf9-abf7a0f9176d","system_id":"levelo_inurba_marseille","lat":43.2936,"lon":5.37835,"is_reserved":false,"is_disabled":false,"rental_uris":{"android":"levelo://app?vid=cdf49dfd-cb5a-4dca-bbf9-abf7a0f9176d","ios":"levelo://app?vid=cdf49dfd-cb5a-4dca-bbf9-abf7a0f9176d"},"vehicle_type_id":"4","last_reported":1702318166,"current_range_meters":3600,"station_id":"ce4bgjh2rcd13ifvqbf0","pricing_plan_id":"free"},{"bike_id":"79fd0227-fc8d-455e-8b1f-efbe44a99512","system_id":"levelo_inurba_marseille","lat":43.300852,"lon":5.390859,"is_reserved":false,"is_disabled":false,"rental_uris":{"android":"levelo://app?vid=79fd0227-fc8d-455e-8b1f-efbe44a99512","ios":"levelo://app?vid=79fd0227-fc8d-455e-8b1f-efbe44a99512"},"vehicle_type_id":"4","last_reported":1702318166,"current_range_meters":23200,"station_id":"ce4bh192rcd13ifvqdb0","pricing_plan_id":"free"},{"bike_id":"1c815252-3519-4c04-b8b3-c8ae95cc2adf","system_id":"levelo_inurba_marseille","lat":43.313291,"lon":5.396838,"is_reserved":false,"is_disabled":false,"rental_uris":{"android":"levelo://app?vid=1c815252-3519-4c04-b8b3-c8ae95cc2adf","ios":"levelo://app?vid=1c815252-3519-4c04-b8b3-c8ae95cc2adf"},"vehicle_type_id":"4","last_reported":1702318166,"current_range_meters":26400,"station_id":"ce4bgvp2rcd13ifvqcu0","pricing_plan_id":"free"},{"bike_id":"a0a58a02-c207-41d5-9335-45b75c2e136c","system_id":"levelo_inurba_marseille","lat":43.313291,"lon":5.396838,"is_reserved":false,"is_disabled":false,"rental_uris":{"android":"levelo://app?vid=a0a58a02-c207-41d5-9335-45b75c2e136c","ios":"levelo://app?vid=a0a58a02-c207-41d5-9335-45b75c2e136c"},"vehicle_type_id":"4","last_reported":1702318166,"current_range_meters":27600,"station_id":"ce4bgvp2rcd13ifvqcu0","pricing_plan_id":"free"},{"bike_id":"ee0843cd-945a-44cc-9699-41b3ec18ea77","system_id":"levelo_inurba_marseille","lat":43.30211,"lon":5.39456,"is_reserved":false,"is_disabled":false,"rental_uris":{"android":"levelo://app?vid=ee0843cd-945a-44cc-9699-41b3ec18ea77","ios":"levelo://app?vid=ee0843cd-945a-44cc-9699-41b3ec18ea77"},"vehicle_type_id":"4","last_reported":1702318166,"current_range_meters":0,"station_id":"ce4bh0p2rcd13ifvqd70","pricing_plan_id":"free"},{"bike_id":"dd070621-6f81-452e-89f7-7a2001fd9e17","system_id":"levelo_inurba_marseille","lat":43.28957,"lon":5.36639,"is_reserved":false,"is_disabled":false,"rental_uris":{"android":"levelo://app?vid=dd070621-6f81-452e-89f7-7a2001fd9e17","ios":"levelo://app?vid=dd070621-6f81-452e-89f7-7a2001fd9e17"},"vehicle_type_id":"4","last_reported":1702318166,"current_range_meters":15600,"station_id":"ce4bhap2rcd13ifvqek0","pricing_plan_id":"free"},{"bike_id":"6e79ea52-aea3-444c-8050-3007b4cf7b5b","system_id":"levelo_inurba_marseille","lat":43.29044,"lon":5.37588,"is_reserved":false,"is_disabled":false,"rental_uris":{"android":"levelo://app?vid=6e79ea52-aea3-444c-8050-3007b4cf7b5b","ios":"levelo://app?vid=6e79ea52-aea3-444c-8050-3007b4cf7b5b"},"vehicle_type_id":"4","last_reported":1702318166,"current_range_meters":29200,"station_id":"","pricing_plan_id":"free"},{"bike_id":"d4239c2c-a7a6-408c-b438-db1fc3e7d45a","system_id":"levelo_inurba_marseille","lat":43.2894,"lon":5.36377,"is_reserved":false,"is_disabled":false,"rental_uris":{"android":"levelo://app?vid=d4239c2c-a7a6-408c-b438-db1fc3e7d45a","ios":"levelo://app?vid=d4239c2c-a7a6-408c-b438-db1fc3e7d45a"},"vehicle_type_id":"4","last_reported":1702318166,"current_range_meters":26000,"station_id":"ce4bhc92rcd13ifvqetg","pricing_plan_id":"free"},{"bike_id":"72bd96bb-9c85-4491-a868-e86a9e8b9642","system_id":"levelo_inurba_marseille","lat":43.289184,"lon":5.366408,"is_reserved":false,"is_disabled":false,"rental_uris":{"android":"levelo://app?vid=72bd96bb-9c85-4491-a868-e86a9e8b9642","ios":"levelo://app?vid=72bd96bb-9c85-4491-a868-e86a9e8b9642"},"vehicle_type_id":"4","last_reported":1702318166,"current_range_meters":29200,"station_id":"ce4bhap2rcd13ifvqek0","pricing_plan_id":"free"},{"bike_id":"3fdaf998-ca74-42dd-9778-d7b7fd69f425","system_id":"levelo_inurba_marseille","lat":43.292644,"lon":5.384257,"is_reserved":false,"is_disabled":false,"rental_uris":{"android":"levelo://app?vid=3fdaf998-ca74-42dd-9778-d7b7fd69f425","ios":"levelo://app?vid=3fdaf998-ca74-42dd-9778-d7b7fd69f425"},"vehicle_type_id":"4","last_reported":1702318166,"current_range_meters":24800,"station_id":"ce4bh692rcd13ifvqea0","pricing_plan_id":"free"},{"bike_id":"154d336f-f8e4-49bd-acbd-9b78eb4da3aa","system_id":"levelo_inurba_marseille","lat":43.292644,"lon":5.384257,"is_reserved":false,"is_disabled":false,"rental_uris":{"android":"levelo://app?vid=154d336f-f8e4-49bd-acbd-9b78eb4da3aa","ios":"levelo://app?vid=154d336f-f8e4-49bd-acbd-9b78eb4da3aa"},"vehicle_type_id":"4","last_reported":1702318166,"current_range_meters":0,"station_id":"ce4bh692rcd13ifvqea0","pricing_plan_id":"free"},{"bike_id":"f1896741-896e-40c9-aa4d-96fe134ed880","system_id":"levelo_inurba_marseille","lat":43.3304,"lon":5.38919,"is_reserved":false,"is_disabled":false,"rental_uris":{"android":"levelo://app?vid=f1896741-896e-40c9-aa4d-96fe134ed880","ios":"levelo://app?vid=f1896741-896e-40c9-aa4d-96fe134ed880"},"vehicle_type_id":"4","last_reported":1702318166,"current_range_meters":5200,"station_id":"ce4bhr92rcd13ifvqhrg","pricing_plan_id":"free"},{"bike_id":"9d8e17a7-c4c7-4287-a923-25a1cf206b9b","system_id":"levelo_inurba_marseille","lat":43.33045,"lon":5.38917,"is_reserved":false,"is_disabled":false,"rental_uris":{"android":"levelo://app?vid=9d8e17a7-c4c7-4287-a923-25a1cf206b9b","ios":"levelo://app?vid=9d8e17a7-c4c7-4287-a923-25a1cf206b9b"},"vehicle_type_id":"4","last_reported":1702318166,"current_range_meters":11200,"station_id":"ce4bhr92rcd13ifvqhrg","pricing_plan_id":"free"},{"bike_id":"83cf1aad-d2bf-457b-b136-c41daf9848c3","system_id":"levelo_inurba_marseille","lat":43.330456,"lon":5.389168,"is_reserved":false,"is_disabled":false,"rental_uris":{"android":"levelo://app?vid=83cf1aad-d2bf-457b-b136-c41daf9848c3","ios":"levelo://app?vid=83cf1aad-d2bf-457b-b136-c41daf9848c3"},"vehicle_type_id":"4","last_reported":1702318166,"current_range_meters":16800,"station_id":"ce4bhr92rcd13ifvqhrg","pricing_plan_id":"free"},{"bike_id":"4601da1a-2bc2-4be5-8fac-e44f32e20802","system_id":"levelo_inurba_marseille","lat":43.330442,"lon":5.389148,"is_reserved":false,"is_disabled":false,"rental_uris":{"android":"levelo://app?vid=4601da1a-2bc2-4be5-8fac-e44f32e20802","ios":"levelo://app?vid=4601da1a-2bc2-4be5-8fac-e44f32e20802"},"vehicle_type_id":"4","last_reported":1702318166,"current_range_meters":27600,"station_id":"ce4bhr92rcd13ifvqhrg","pricing_plan_id":"free"},{"bike_id":"79e54e97-282f-458b-99cb-504a981ed0c1","system_id":"levelo_inurba_marseille","lat":43.288627,"lon":5.358543,"is_reserved":false,"is_disabled":false,"rental_uris":{"android":"levelo://app?vid=79e54e97-282f-458b-99cb-504a981ed0c1","ios":"levelo://app?vid=79e54e97-282f-458b-99cb-504a981ed0c1"},"vehicle_type_id":"4","last_reported":1702318166,"current_range_meters":31200,"station_id":"ce4bhb12rcd13ifvqem0","pricing_plan_id":"free"},{"bike_id":"98bbbf16-b9aa-43e2-ac67-95900ca8e654","system_id":"levelo_inurba_marseille","lat":43.28856,"lon":5.358371,"is_reserved":false,"is_disabled":false,"rental_uris":{"android":"levelo://app?vid=98bbbf16-b9aa-43e2-ac67-95900ca8e654","ios":"levelo://app?vid=98bbbf16-b9aa-43e2-ac67-95900ca8e654"},"vehicle_type_id":"4","last_reported":1702318166,"current_range_meters":12800,"station_id":"ce4bhb12rcd13ifvqem0","pricing_plan_id":"free"},{"bike_id":"1ffa6cab-2192-4490-9617-61044011c6b1","system_id":"levelo_inurba_marseille","lat":43.33736,"lon":5.37457,"is_reserved":false,"is_disabled":false,"rental_uris":{"android":"levelo://app?vid=1ffa6cab-2192-4490-9617-61044011c6b1","ios":"levelo://app?vid=1ffa6cab-2192-4490-9617-61044011c6b1"},"vehicle_type_id":"4","last_reported":1702318166,"current_range_meters":19600,"station_id":"","pricing_plan_id":"free"},{"bike_id":"357c0342-4746-4875-8863-f1f19ff2fa1a","system_id":"levelo_inurba_marseille","lat":43.33757,"lon":5.37467,"is_reserved":false,"is_disabled":false,"rental_uris":{"android":"levelo://app?vid=357c0342-4746-4875-8863-f1f19ff2fa1a","ios":"levelo://app?vid=357c0342-4746-4875-8863-f1f19ff2fa1a"},"vehicle_type_id":"4","last_reported":1702318166,"current_range_meters":26800,"station_id":"","pricing_plan_id":"free"},{"bike_id":"60f84eb0-2206-4e1b-94df-fd8c129930f0","system_id":"levelo_inurba_marseille","lat":43.337668,"lon":5.374343,"is_reserved":false,"is_disabled":false,"rental_uris":{"android":"levelo://app?vid=60f84eb0-2206-4e1b-94df-fd8c129930f0","ios":"levelo://app?vid=60f84eb0-2206-4e1b-94df-fd8c129930f0"},"vehicle_type_id":"4","last_reported":1702318166,"current_range_meters":14800,"station_id":"","pricing_plan_id":"free"},{"bike_id":"3f9429ce-0e2f-4adf-9908-c8a7985761c7","system_id":"levelo_inurba_marseille","lat":43.28727,"lon":5.36078,"is_reserved":false,"is_disabled":false,"rental_uris":{"android":"levelo://app?vid=3f9429ce-0e2f-4adf-9908-c8a7985761c7","ios":"levelo://app?vid=3f9429ce-0e2f-4adf-9908-c8a7985761c7"},"vehicle_type_id":"4","last_reported":1702318166,"current_range_meters":21600,"station_id":"cki0cbj6b192h4jlfktg","pricing_plan_id":"free"},{"bike_id":"60a45afe-0bd5-48f5-aa51-c1609240a90e","system_id":"levelo_inurba_marseille","lat":43.28727,"lon":5.36078,"is_reserved":false,"is_disabled":false,"rental_uris":{"android":"levelo://app?vid=60a45afe-0bd5-48f5-aa51-c1609240a90e","ios":"levelo://app?vid=60a45afe-0bd5-48f5-aa51-c1609240a90e"},"vehicle_type_id":"4","last_reported":1702318166,"current_range_meters":14400,"station_id":"cki0cbj6b192h4jlfktg","pricing_plan_id":"free"},{"bike_id":"a8d9a6d2-2d17-4be1-ab4e-c0ebf0ea381a","system_id":"levelo_inurba_marseille","lat":43.295194,"lon":5.39397,"is_reserved":false,"is_disabled":false,"rental_uris":{"android":"levelo://app?vid=a8d9a6d2-2d17-4be1-ab4e-c0ebf0ea381a","ios":"levelo://app?vid=a8d9a6d2-2d17-4be1-ab4e-c0ebf0ea381a"},"vehicle_type_id":"4","last_reported":1702318166,"current_range_meters":5600,"station_id":"ce4bh292rcd13ifvqdf0","pricing_plan_id":"free"},{"bike_id":"3befa7ae-2cbf-4fdd-adc5-34e296c46364","system_id":"levelo_inurba_marseille","lat":43.295194,"lon":5.39397,"is_reserved":false,"is_disabled":false,"rental_uris":{"android":"levelo://app?vid=3befa7ae-2cbf-4fdd-adc5-34e296c46364","ios":"levelo://app?vid=3befa7ae-2cbf-4fdd-adc5-34e296c46364"},"vehicle_type_id":"4","last_reported":1702318166,"current_range_meters":12000,"station_id":"ce4bh292rcd13ifvqdf0","pricing_plan_id":"free"},{"bike_id":"43fbe28e-48c9-4e92-a4ad-85d959d3133f","system_id":"levelo_inurba_marseille","lat":43.290345,"lon":5.38646,"is_reserved":false,"is_disabled":false,"rental_uris":{"android":"levelo://app?vid=43fbe28e-48c9-4e92-a4ad-85d959d3133f","ios":"levelo://app?vid=43fbe28e-48c9-4e92-a4ad-85d959d3133f"},"vehicle_type_id":"4","last_reported":1702318166,"current_range_meters":22800,"station_id":"ce4bh4p2rcd13ifvqe0g","pricing_plan_id":"free"},{"bike_id":"09226e5a-6f94-4b9c-a664-c5350cc7af30","system_id":"levelo_inurba_marseille","lat":43.290336,"lon":5.386425,"is_reserved":false,"is_disabled":false,"rental_uris":{"android":"levelo://app?vid=09226e5a-6f94-4b9c-a664-c5350cc7af30","ios":"levelo://app?vid=09226e5a-6f94-4b9c-a664-c5350cc7af30"},"vehicle_type_id":"4","last_reported":1702318166,"current_range_meters":11600,"station_id":"ce4bh4p2rcd13ifvqe0g","pricing_plan_id":"free"},{"bike_id":"e303afea-768c-4439-a2b9-a360ccd64d2c","system_id":"levelo_inurba_marseille","lat":43.29515,"lon":5.39408,"is_reserved":false,"is_disabled":false,"rental_uris":{"android":"levelo://app?vid=e303afea-768c-4439-a2b9-a360ccd64d2c","ios":"levelo://app?vid=e303afea-768c-4439-a2b9-a360ccd64d2c"},"vehicle_type_id":"4","last_reported":1702318166,"current_range_meters":0,"station_id":"ce4bh292rcd13ifvqdf0","pricing_plan_id":"free"},{"bike_id":"b044cd00-dc59-43e6-ac32-12ecf28927b1","system_id":"levelo_inurba_marseille","lat":43.29029,"lon":5.38622,"is_reserved":false,"is_disabled":false,"rental_uris":{"android":"levelo://app?vid=b044cd00-dc59-43e6-ac32-12ecf28927b1","ios":"levelo://app?vid=b044cd00-dc59-43e6-ac32-12ecf28927b1"},"vehicle_type_id":"4","last_reported":1702318166,"current_range_meters":0,"station_id":"ce4bh4p2rcd13ifvqe0g","pricing_plan_id":"free"},{"bike_id":"dd0bb3d3-8820-4327-9db6-f3085ab2ea9f","system_id":"levelo_inurba_marseille","lat":43.295196,"lon":5.39397,"is_reserved":false,"is_disabled":false,"rental_uris":{"android":"levelo://app?vid=dd0bb3d3-8820-4327-9db6-f3085ab2ea9f","ios":"levelo://app?vid=dd0bb3d3-8820-4327-9db6-f3085ab2ea9f"},"vehicle_type_id":"4","last_reported":1702318166,"current_range_meters":12000,"station_id":"ce4bh292rcd13ifvqdf0","pricing_plan_id":"free"},{"bike_id":"be560497-a975-4969-a741-a5a964c60f2b","system_id":"levelo_inurba_marseille","lat":43.302759,"lon":5.400793,"is_reserved":false,"is_disabled":false,"rental_uris":{"android":"levelo://app?vid=be560497-a975-4969-a741-a5a964c60f2b","ios":"levelo://app?vid=be560497-a975-4969-a741-a5a964c60f2b"},"vehicle_type_id":"4","last_reported":1702318166,"current_range_meters":20000,"station_id":"ce4bgvh2rcd13ifvqcs0","pricing_plan_id":"free"},{"bike_id":"5bb97058-2e2a-44d1-bcc0-d7cfb99921b7","system_id":"levelo_inurba_marseille","lat":43.291994,"lon":5.392907,"is_reserved":false,"is_disabled":false,"rental_uris":{"android":"levelo://app?vid=5bb97058-2e2a-44d1-bcc0-d7cfb99921b7","ios":"levelo://app?vid=5bb97058-2e2a-44d1-bcc0-d7cfb99921b7"},"vehicle_type_id":"4","last_reported":1702318166,"current_range_meters":22400,"station_id":"ce4bh192rcd13ifvqdd0","pricing_plan_id":"free"},{"bike_id":"8c33a149-3b1a-41b1-a799-91e7b355b3af","system_id":"levelo_inurba_marseille","lat":43.284538,"lon":5.358657,"is_reserved":false,"is_disabled":false,"rental_uris":{"android":"levelo://app?vid=8c33a149-3b1a-41b1-a799-91e7b355b3af","ios":"levelo://app?vid=8c33a149-3b1a-41b1-a799-91e7b355b3af"},"vehicle_type_id":"4","last_reported":1702318166,"current_range_meters":18400,"station_id":"ce4bhah2rcd13ifvqei0","pricing_plan_id":"free"},{"bike_id":"0e13425f-ff46-439c-b40e-89de6230b5d1","system_id":"levelo_inurba_marseille","lat":43.284538,"lon":5.358657,"is_reserved":false,"is_disabled":false,"rental_uris":{"android":"levelo://app?vid=0e13425f-ff46-439c-b40e-89de6230b5d1","ios":"levelo://app?vid=0e13425f-ff46-439c-b40e-89de6230b5d1"},"vehicle_type_id":"4","last_reported":1702318166,"current_range_meters":31200,"station_id":"ce4bhah2rcd13ifvqei0","pricing_plan_id":"free"},{"bike_id":"a4ec76d4-b5d2-466e-8492-64aef71406c8","system_id":"levelo_inurba_marseille","lat":43.285848,"lon":5.350787,"is_reserved":false,"is_disabled":false,"rental_uris":{"android":"levelo://app?vid=a4ec76d4-b5d2-466e-8492-64aef71406c8","ios":"levelo://app?vid=a4ec76d4-b5d2-466e-8492-64aef71406c8"},"vehicle_type_id":"4","last_reported":1702318166,"current_range_meters":18800,"station_id":"ce4bhch2rcd13ifvqeug","pricing_plan_id":"free"},{"bike_id":"97d8fcc7-4aef-45da-b019-c3d5381f038e","system_id":"levelo_inurba_marseille","lat":43.28611,"lon":5.35106,"is_reserved":false,"is_disabled":false,"rental_uris":{"android":"levelo://app?vid=97d8fcc7-4aef-45da-b019-c3d5381f038e","ios":"levelo://app?vid=97d8fcc7-4aef-45da-b019-c3d5381f038e"},"vehicle_type_id":"4","last_reported":1702318166,"current_range_meters":30400,"station_id":"ce4bhch2rcd13ifvqeug","pricing_plan_id":"free"},{"bike_id":"dfe33a7a-8df1-4075-a702-8334f62a7c78","system_id":"levelo_inurba_marseille","lat":43.283998,"lon":5.375062,"is_reserved":false,"is_disabled":false,"rental_uris":{"android":"levelo://app?vid=dfe33a7a-8df1-4075-a702-8334f62a7c78","ios":"levelo://app?vid=dfe33a7a-8df1-4075-a702-8334f62a7c78"},"vehicle_type_id":"4","last_reported":1702318166,"current_range_meters":18400,"station_id":"ce4bh412rcd13ifvqds0","pricing_plan_id":"free"},{"bike_id":"32bd40ac-da3e-40dc-b0f7-fa5ead6de926","system_id":"levelo_inurba_marseille","lat":43.283998,"lon":5.375062,"is_reserved":false,"is_disabled":false,"rental_uris":{"android":"levelo://app?vid=32bd40ac-da3e-40dc-b0f7-fa5ead6de926","ios":"levelo://app?vid=32bd40ac-da3e-40dc-b0f7-fa5ead6de926"},"vehicle_type_id":"4","last_reported":1702318166,"current_range_meters":21200,"station_id":"ce4bh412rcd13ifvqds0","pricing_plan_id":"free"},{"bike_id":"6a7222ae-5022-4800-88ff-60bb053db041","system_id":"levelo_inurba_marseille","lat":43.283998,"lon":5.375062,"is_reserved":false,"is_disabled":false,"rental_uris":{"android":"levelo://app?vid=6a7222ae-5022-4800-88ff-60bb053db041","ios":"levelo://app?vid=6a7222ae-5022-4800-88ff-60bb053db041"},"vehicle_type_id":"4","last_reported":1702318166,"current_range_meters":17200,"station_id":"ce4bh412rcd13ifvqds0","pricing_plan_id":"free"},{"bike_id":"4542782c-66fa-41b7-80c7-0150b4d26fe2","system_id":"levelo_inurba_marseille","lat":43.286595,"lon":5.386795,"is_reserved":false,"is_disabled":false,"rental_uris":{"android":"levelo://app?vid=4542782c-66fa-41b7-80c7-0150b4d26fe2","ios":"levelo://app?vid=4542782c-66fa-41b7-80c7-0150b4d26fe2"},"vehicle_type_id":"4","last_reported":1702318166,"current_range_meters":20000,"station_id":"ce4bh492rcd13ifvqdug","pricing_plan_id":"free"},{"bike_id":"6795b5ec-b108-446b-ae78-56580a5f05eb","system_id":"levelo_inurba_marseille","lat":43.297946,"lon":5.404063,"is_reserved":false,"is_disabled":false,"rental_uris":{"android":"levelo://app?vid=6795b5ec-b108-446b-ae78-56580a5f05eb","ios":"levelo://app?vid=6795b5ec-b108-446b-ae78-56580a5f05eb"},"vehicle_type_id":"4","last_reported":1702318166,"current_range_meters":6000,"station_id":"ce4bh112rcd13ifvqd90","pricing_plan_id":"free"},{"bike_id":"ae580ee0-516c-41dd-85d9-7b4cf4de99e6","system_id":"levelo_inurba_marseille","lat":43.284214,"lon":5.349706,"is_reserved":false,"is_disabled":false,"rental_uris":{"android":"levelo://app?vid=ae580ee0-516c-41dd-85d9-7b4cf4de99e6","ios":"levelo://app?vid=ae580ee0-516c-41dd-85d9-7b4cf4de99e6"},"vehicle_type_id":"4","last_reported":1702318166,"current_range_meters":27200,"station_id":"ce4bhbh2rcd13ifvqepg","pricing_plan_id":"free"},{"bike_id":"6189f8e6-db51-4db9-8edf-e5cb587d8e86","system_id":"levelo_inurba_marseille","lat":43.282754,"lon":5.350519,"is_reserved":false,"is_disabled":false,"rental_uris":{"android":"levelo://app?vid=6189f8e6-db51-4db9-8edf-e5cb587d8e86","ios":"levelo://app?vid=6189f8e6-db51-4db9-8edf-e5cb587d8e86"},"vehicle_type_id":"4","last_reported":1702318166,"current_range_meters":28400,"station_id":"ce4bhbp2rcd13ifvqerg","pricing_plan_id":"free"},{"bike_id":"a6293421-2f53-4d22-b3a9-1a774e17b5cb","system_id":"levelo_inurba_marseille","lat":43.282754,"lon":5.350519,"is_reserved":false,"is_disabled":false,"rental_uris":{"android":"levelo://app?vid=a6293421-2f53-4d22-b3a9-1a774e17b5cb","ios":"levelo://app?vid=a6293421-2f53-4d22-b3a9-1a774e17b5cb"},"vehicle_type_id":"4","last_reported":1702318166,"current_range_meters":30800,"station_id":"ce4bhbp2rcd13ifvqerg","pricing_plan_id":"free"},{"bike_id":"79f2da63-5223-4c7c-b72b-c3226f261b56","system_id":"levelo_inurba_marseille","lat":43.282754,"lon":5.350519,"is_reserved":false,"is_disabled":false,"rental_uris":{"android":"levelo://app?vid=79f2da63-5223-4c7c-b72b-c3226f261b56","ios":"levelo://app?vid=79f2da63-5223-4c7c-b72b-c3226f261b56"},"vehicle_type_id":"4","last_reported":1702318166,"current_range_meters":29600,"station_id":"ce4bhbp2rcd13ifvqerg","pricing_plan_id":"free"},{"bike_id":"1a755c5d-9b3c-4f8b-a5a3-2cb0e2abc85a","system_id":"levelo_inurba_marseille","lat":43.282754,"lon":5.350519,"is_reserved":false,"is_disabled":false,"rental_uris":{"android":"levelo://app?vid=1a755c5d-9b3c-4f8b-a5a3-2cb0e2abc85a","ios":"levelo://app?vid=1a755c5d-9b3c-4f8b-a5a3-2cb0e2abc85a"},"vehicle_type_id":"4","last_reported":1702318166,"current_range_meters":30800,"station_id":"ce4bhbp2rcd13ifvqerg","pricing_plan_id":"free"},{"bike_id":"26dc6ef3-64ad-4075-a6b8-5e52c07bdc5a","system_id":"levelo_inurba_marseille","lat":43.28039,"lon":5.369297,"is_reserved":false,"is_disabled":false,"rental_uris":{"android":"levelo://app?vid=26dc6ef3-64ad-4075-a6b8-5e52c07bdc5a","ios":"levelo://app?vid=26dc6ef3-64ad-4075-a6b8-5e52c07bdc5a"},"vehicle_type_id":"4","last_reported":1702318166,"current_range_meters":7200,"station_id":"ce4bha12rcd13ifvqef0","pricing_plan_id":"free"},{"bike_id":"dbb32c68-89ea-42d5-9bbd-5de5751b5866","system_id":"levelo_inurba_marseille","lat":43.280382,"lon":5.369291,"is_reserved":false,"is_disabled":false,"rental_uris":{"android":"levelo://app?vid=dbb32c68-89ea-42d5-9bbd-5de5751b5866","ios":"levelo://app?vid=dbb32c68-89ea-42d5-9bbd-5de5751b5866"},"vehicle_type_id":"4","last_reported":1702318166,"current_range_meters":31200,"station_id":"ce4bha12rcd13ifvqef0","pricing_plan_id":"free"},{"bike_id":"4ee53fc3-95fe-4ec3-ae50-b9a8cd12442e","system_id":"levelo_inurba_marseille","lat":43.280382,"lon":5.369291,"is_reserved":false,"is_disabled":false,"rental_uris":{"android":"levelo://app?vid=4ee53fc3-95fe-4ec3-ae50-b9a8cd12442e","ios":"levelo://app?vid=4ee53fc3-95fe-4ec3-ae50-b9a8cd12442e"},"vehicle_type_id":"4","last_reported":1702318166,"current_range_meters":10400,"station_id":"ce4bha12rcd13ifvqef0","pricing_plan_id":"free"},{"bike_id":"a9087632-d97b-4295-ac27-f172913e6205","system_id":"levelo_inurba_marseille","lat":43.280223,"lon":5.36953,"is_reserved":false,"is_disabled":false,"rental_uris":{"android":"levelo://app?vid=a9087632-d97b-4295-ac27-f172913e6205","ios":"levelo://app?vid=a9087632-d97b-4295-ac27-f172913e6205"},"vehicle_type_id":"4","last_reported":1702318166,"current_range_meters":29600,"station_id":"ce4bha12rcd13ifvqef0","pricing_plan_id":"free"},{"bike_id":"02236a8e-9ac3-4a3d-83fd-37450246f54e","system_id":"levelo_inurba_marseille","lat":43.281044,"lon":5.378308,"is_reserved":false,"is_disabled":false,"rental_uris":{"android":"levelo://app?vid=02236a8e-9ac3-4a3d-83fd-37450246f54e","ios":"levelo://app?vid=02236a8e-9ac3-4a3d-83fd-37450246f54e"},"vehicle_type_id":"4","last_reported":1702318166,"current_range_meters":9600,"station_id":"ce4bha12rcd13ifvqee0","pricing_plan_id":"free"},{"bike_id":"160bd7e5-05f6-43a1-9bc7-4629c7a42466","system_id":"levelo_inurba_marseille","lat":43.31321,"lon":5.41284,"is_reserved":false,"is_disabled":false,"rental_uris":{"android":"levelo://app?vid=160bd7e5-05f6-43a1-9bc7-4629c7a42466","ios":"levelo://app?vid=160bd7e5-05f6-43a1-9bc7-4629c7a42466"},"vehicle_type_id":"4","last_reported":1702318166,"current_range_meters":400,"station_id":"","pricing_plan_id":"free"},{"bike_id":"a5ccf812-c64f-4176-b0f3-da9c5f6628cf","system_id":"levelo_inurba_marseille","lat":43.304188,"lon":5.412904,"is_reserved":false,"is_disabled":false,"rental_uris":{"android":"levelo://app?vid=a5ccf812-c64f-4176-b0f3-da9c5f6628cf","ios":"levelo://app?vid=a5ccf812-c64f-4176-b0f3-da9c5f6628cf"},"vehicle_type_id":"4","last_reported":1702318166,"current_range_meters":28800,"station_id":"ce4bhop2rcd13ifvqh8g","pricing_plan_id":"free"},{"bike_id":"070c9c61-00e8-45e7-9532-0060d1d8c735","system_id":"levelo_inurba_marseille","lat":43.304188,"lon":5.412904,"is_reserved":false,"is_disabled":false,"rental_uris":{"android":"levelo://app?vid=070c9c61-00e8-45e7-9532-0060d1d8c735","ios":"levelo://app?vid=070c9c61-00e8-45e7-9532-0060d1d8c735"},"vehicle_type_id":"4","last_reported":1702318166,"current_range_meters":16000,"station_id":"ce4bhop2rcd13ifvqh8g","pricing_plan_id":"free"},{"bike_id":"ebfbbb2e-acb6-4a22-9397-ce61dd5f6230","system_id":"levelo_inurba_marseille","lat":43.320045,"lon":5.415046,"is_reserved":false,"is_disabled":false,"rental_uris":{"android":"levelo://app?vid=ebfbbb2e-acb6-4a22-9397-ce61dd5f6230","ios":"levelo://app?vid=ebfbbb2e-acb6-4a22-9397-ce61dd5f6230"},"vehicle_type_id":"4","last_reported":1702318166,"current_range_meters":17600,"station_id":"ce4bhq92rcd13ifvqhkg","pricing_plan_id":"free"},{"bike_id":"d9a9dddd-01a7-4576-b076-07bed5bbdec9","system_id":"levelo_inurba_marseille","lat":43.292571,"lon":5.409107,"is_reserved":false,"is_disabled":false,"rental_uris":{"android":"levelo://app?vid=d9a9dddd-01a7-4576-b076-07bed5bbdec9","ios":"levelo://app?vid=d9a9dddd-01a7-4576-b076-07bed5bbdec9"},"vehicle_type_id":"4","last_reported":1702318166,"current_range_meters":26800,"station_id":"ce4bh192rcd13ifvqdc0","pricing_plan_id":"free"},{"bike_id":"0affd34a-26a3-4b23-9979-f74eada3d752","system_id":"levelo_inurba_marseille","lat":43.27618,"lon":5.361009,"is_reserved":false,"is_disabled":false,"rental_uris":{"android":"levelo://app?vid=0affd34a-26a3-4b23-9979-f74eada3d752","ios":"levelo://app?vid=0affd34a-26a3-4b23-9979-f74eada3d752"},"vehicle_type_id":"4","last_reported":1702318166,"current_range_meters":16000,"station_id":"ce4bgj92rcd13ifvqbe0","pricing_plan_id":"free"},{"bike_id":"085b0029-6aa3-46ef-a837-c50a7a1bfff8","system_id":"levelo_inurba_marseille","lat":43.292569,"lon":5.409107,"is_reserved":false,"is_disabled":false,"rental_uris":{"android":"levelo://app?vid=085b0029-6aa3-46ef-a837-c50a7a1bfff8","ios":"levelo://app?vid=085b0029-6aa3-46ef-a837-c50a7a1bfff8"},"vehicle_type_id":"4","last_reported":1702318166,"current_range_meters":17200,"station_id":"ce4bh192rcd13ifvqdc0","pricing_plan_id":"free"},{"bike_id":"d2d1a980-81d0-4b43-a286-ebecc7be733a","system_id":"levelo_inurba_marseille","lat":43.27618,"lon":5.361009,"is_reserved":false,"is_disabled":false,"rental_uris":{"android":"levelo://app?vid=d2d1a980-81d0-4b43-a286-ebecc7be733a","ios":"levelo://app?vid=d2d1a980-81d0-4b43-a286-ebecc7be733a"},"vehicle_type_id":"4","last_reported":1702318166,"current_range_meters":26000,"station_id":"ce4bgj92rcd13ifvqbe0","pricing_plan_id":"free"},{"bike_id":"6fb7d017-b245-43a0-8373-a842d3457d15","system_id":"levelo_inurba_marseille","lat":43.286953,"lon":5.406073,"is_reserved":false,"is_disabled":false,"rental_uris":{"android":"levelo://app?vid=6fb7d017-b245-43a0-8373-a842d3457d15","ios":"levelo://app?vid=6fb7d017-b245-43a0-8373-a842d3457d15"},"vehicle_type_id":"4","last_reported":1702318166,"current_range_meters":6800,"station_id":"","pricing_plan_id":"free"},{"bike_id":"9861af89-9127-44a7-97f2-3ce99764f464","system_id":"levelo_inurba_marseille","lat":43.280833,"lon":5.396633,"is_reserved":false,"is_disabled":false,"rental_uris":{"android":"levelo://app?vid=9861af89-9127-44a7-97f2-3ce99764f464","ios":"levelo://app?vid=9861af89-9127-44a7-97f2-3ce99764f464"},"vehicle_type_id":"4","last_reported":1702318166,"current_range_meters":22800,"station_id":"ce4bho12rcd13ifvqh2g","pricing_plan_id":"free"},{"bike_id":"838bfe5f-34ae-4431-b141-3cc014ad55c5","system_id":"levelo_inurba_marseille","lat":43.280784,"lon":5.396622,"is_reserved":false,"is_disabled":false,"rental_uris":{"android":"levelo://app?vid=838bfe5f-34ae-4431-b141-3cc014ad55c5","ios":"levelo://app?vid=838bfe5f-34ae-4431-b141-3cc014ad55c5"},"vehicle_type_id":"4","last_reported":1702318166,"current_range_meters":400,"station_id":"ce4bho12rcd13ifvqh2g","pricing_plan_id":"free"},{"bike_id":"9ea10af0-3940-4224-a189-633a8d8b6409","system_id":"levelo_inurba_marseille","lat":43.273613,"lon":5.362705,"is_reserved":false,"is_disabled":false,"rental_uris":{"android":"levelo://app?vid=9ea10af0-3940-4224-a189-633a8d8b6409","ios":"levelo://app?vid=9ea10af0-3940-4224-a189-633a8d8b6409"},"vehicle_type_id":"4","last_reported":1702318166,"current_range_meters":400,"station_id":"ce4bhbh2rcd13ifvqeo0","pricing_plan_id":"free"},{"bike_id":"b1c028eb-0fe1-4afa-b35c-b9783a0e9537","system_id":"levelo_inurba_marseille","lat":43.31723,"lon":5.42405,"is_reserved":false,"is_disabled":false,"rental_uris":{"android":"levelo://app?vid=b1c028eb-0fe1-4afa-b35c-b9783a0e9537","ios":"levelo://app?vid=b1c028eb-0fe1-4afa-b35c-b9783a0e9537"},"vehicle_type_id":"4","last_reported":1702318166,"current_range_meters":8800,"station_id":"ce4bhp92rcd13ifvqhbg","pricing_plan_id":"free"},{"bike_id":"60028bd0-d6d1-4701-b5c6-9f4db0fb3489","system_id":"levelo_inurba_marseille","lat":43.340804,"lon":5.410219,"is_reserved":false,"is_disabled":false,"rental_uris":{"android":"levelo://app?vid=60028bd0-d6d1-4701-b5c6-9f4db0fb3489","ios":"levelo://app?vid=60028bd0-d6d1-4701-b5c6-9f4db0fb3489"},"vehicle_type_id":"4","last_reported":1702318166,"current_range_meters":23200,"station_id":"ce4bhqh2rcd13ifvqhlg","pricing_plan_id":"free"},{"bike_id":"7c285ede-df86-45f0-b2d3-c60b875e39f8","system_id":"levelo_inurba_marseille","lat":43.274099,"lon":5.394019,"is_reserved":false,"is_disabled":false,"rental_uris":{"android":"levelo://app?vid=7c285ede-df86-45f0-b2d3-c60b875e39f8","ios":"levelo://app?vid=7c285ede-df86-45f0-b2d3-c60b875e39f8"},"vehicle_type_id":"4","last_reported":1702318166,"current_range_meters":2800,"station_id":"ce4bhdp2rcd13ifvqf20","pricing_plan_id":"free"},{"bike_id":"5eb071ac-e5cb-47bc-814c-b1a4073b4e65","system_id":"levelo_inurba_marseille","lat":43.27496,"lon":5.39656,"is_reserved":false,"is_disabled":false,"rental_uris":{"android":"levelo://app?vid=5eb071ac-e5cb-47bc-814c-b1a4073b4e65","ios":"levelo://app?vid=5eb071ac-e5cb-47bc-814c-b1a4073b4e65"},"vehicle_type_id":"4","last_reported":1702318166,"current_range_meters":20800,"station_id":"","pricing_plan_id":"free"},{"bike_id":"114ed9a0-f405-4e5a-8abc-a36515ad57b3","system_id":"levelo_inurba_marseille","lat":43.27229,"lon":5.39222,"is_reserved":false,"is_disabled":false,"rental_uris":{"android":"levelo://app?vid=114ed9a0-f405-4e5a-8abc-a36515ad57b3","ios":"levelo://app?vid=114ed9a0-f405-4e5a-8abc-a36515ad57b3"},"vehicle_type_id":"4","last_reported":1702318166,"current_range_meters":23200,"station_id":"ce4bhhp2rcd13ifvqfm0","pricing_plan_id":"free"},{"bike_id":"ed13fbf8-eb74-4510-acfa-91b221077aa6","system_id":"levelo_inurba_marseille","lat":43.278128,"lon":5.407195,"is_reserved":false,"is_disabled":false,"rental_uris":{"android":"levelo://app?vid=ed13fbf8-eb74-4510-acfa-91b221077aa6","ios":"levelo://app?vid=ed13fbf8-eb74-4510-acfa-91b221077aa6"},"vehicle_type_id":"4","last_reported":1702318166,"current_range_meters":23600,"station_id":"ce4bhnh2rcd13ifvqgtg","pricing_plan_id":"free"},{"bike_id":"a7b1f43e-d8d2-4764-96aa-f0eab6ca25be","system_id":"levelo_inurba_marseille","lat":43.279465,"lon":5.410561,"is_reserved":false,"is_disabled":false,"rental_uris":{"android":"levelo://app?vid=a7b1f43e-d8d2-4764-96aa-f0eab6ca25be","ios":"levelo://app?vid=a7b1f43e-d8d2-4764-96aa-f0eab6ca25be"},"vehicle_type_id":"4","last_reported":1702318166,"current_range_meters":14000,"station_id":"ce4bhnp2rcd13ifvqh0g","pricing_plan_id":"free"},{"bike_id":"629197af-30a4-4732-afe0-3c712ab8a4ce","system_id":"levelo_inurba_marseille","lat":43.279465,"lon":5.410561,"is_reserved":false,"is_disabled":false,"rental_uris":{"android":"levelo://app?vid=629197af-30a4-4732-afe0-3c712ab8a4ce","ios":"levelo://app?vid=629197af-30a4-4732-afe0-3c712ab8a4ce"},"vehicle_type_id":"4","last_reported":1702318166,"current_range_meters":28800,"station_id":"ce4bhnp2rcd13ifvqh0g","pricing_plan_id":"free"},{"bike_id":"048a7c17-97c6-4e8b-b365-1d7721c101c5","system_id":"levelo_inurba_marseille","lat":43.27946,"lon":5.410463,"is_reserved":false,"is_disabled":false,"rental_uris":{"android":"levelo://app?vid=048a7c17-97c6-4e8b-b365-1d7721c101c5","ios":"levelo://app?vid=048a7c17-97c6-4e8b-b365-1d7721c101c5"},"vehicle_type_id":"4","last_reported":1702318166,"current_range_meters":8800,"station_id":"ce4bhnp2rcd13ifvqh0g","pricing_plan_id":"free"},{"bike_id":"a067e802-c225-4205-9122-212f5713a183","system_id":"levelo_inurba_marseille","lat":43.265714,"lon":5.372891,"is_reserved":false,"is_disabled":false,"rental_uris":{"android":"levelo://app?vid=a067e802-c225-4205-9122-212f5713a183","ios":"levelo://app?vid=a067e802-c225-4205-9122-212f5713a183"},"vehicle_type_id":"4","last_reported":1702318166,"current_range_meters":25600,"station_id":"ce4bhg12rcd13ifvqf70","pricing_plan_id":"free"},{"bike_id":"b82e3ff7-6824-4eb6-9baf-96fee802bc08","system_id":"levelo_inurba_marseille","lat":43.308051,"lon":5.43527,"is_reserved":false,"is_disabled":false,"rental_uris":{"android":"levelo://app?vid=b82e3ff7-6824-4eb6-9baf-96fee802bc08","ios":"levelo://app?vid=b82e3ff7-6824-4eb6-9baf-96fee802bc08"},"vehicle_type_id":"4","last_reported":1702318166,"current_range_meters":20400,"station_id":"ce4bhph2rcd13ifvqheg","pricing_plan_id":"free"},{"bike_id":"e6f4e18b-a5e5-484e-a1d0-6dc14637b170","system_id":"levelo_inurba_marseille","lat":43.265571,"lon":5.390032,"is_reserved":false,"is_disabled":false,"rental_uris":{"android":"levelo://app?vid=e6f4e18b-a5e5-484e-a1d0-6dc14637b170","ios":"levelo://app?vid=e6f4e18b-a5e5-484e-a1d0-6dc14637b170"},"vehicle_type_id":"4","last_reported":1702318166,"current_range_meters":0,"station_id":"ce4bhe12rcd13ifvqf30","pricing_plan_id":"free"},{"bike_id":"a4c2e866-1ad6-4353-a4f2-cb755e151f55","system_id":"levelo_inurba_marseille","lat":43.26324,"lon":5.37682,"is_reserved":false,"is_disabled":false,"rental_uris":{"android":"levelo://app?vid=a4c2e866-1ad6-4353-a4f2-cb755e151f55","ios":"levelo://app?vid=a4c2e866-1ad6-4353-a4f2-cb755e151f55"},"vehicle_type_id":"4","last_reported":1702318166,"current_range_meters":13600,"station_id":"","pricing_plan_id":"free"},{"bike_id":"4f07ba13-ee95-42b1-8fe5-63c20d09eddd","system_id":"levelo_inurba_marseille","lat":43.265511,"lon":5.389947,"is_reserved":false,"is_disabled":false,"rental_uris":{"android":"levelo://app?vid=4f07ba13-ee95-42b1-8fe5-63c20d09eddd","ios":"levelo://app?vid=4f07ba13-ee95-42b1-8fe5-63c20d09eddd"},"vehicle_type_id":"4","last_reported":1702318166,"current_range_meters":24800,"station_id":"ce4bhe12rcd13ifvqf30","pricing_plan_id":"free"},{"bike_id":"cdd036f6-7ea5-4424-b6f3-3af93ebb2fa0","system_id":"levelo_inurba_marseille","lat":43.317104,"lon":5.436818,"is_reserved":false,"is_disabled":false,"rental_uris":{"android":"levelo://app?vid=cdd036f6-7ea5-4424-b6f3-3af93ebb2fa0","ios":"levelo://app?vid=cdd036f6-7ea5-4424-b6f3-3af93ebb2fa0"},"vehicle_type_id":"4","last_reported":1702318166,"current_range_meters":31200,"station_id":"ce4bhp92rcd13ifvqhcg","pricing_plan_id":"free"},{"bike_id":"37645cb8-5c24-41ba-b0d3-f9e32e3bff51","system_id":"levelo_inurba_marseille","lat":43.317104,"lon":5.436818,"is_reserved":false,"is_disabled":false,"rental_uris":{"android":"levelo://app?vid=37645cb8-5c24-41ba-b0d3-f9e32e3bff51","ios":"levelo://app?vid=37645cb8-5c24-41ba-b0d3-f9e32e3bff51"},"vehicle_type_id":"4","last_reported":1702318166,"current_range_meters":31200,"station_id":"ce4bhp92rcd13ifvqhcg","pricing_plan_id":"free"},{"bike_id":"4ee2ebe4-ccab-47af-b669-1b687cc9fb82","system_id":"levelo_inurba_marseille","lat":43.317104,"lon":5.436818,"is_reserved":false,"is_disabled":false,"rental_uris":{"android":"levelo://app?vid=4ee2ebe4-ccab-47af-b669-1b687cc9fb82","ios":"levelo://app?vid=4ee2ebe4-ccab-47af-b669-1b687cc9fb82"},"vehicle_type_id":"4","last_reported":1702318166,"current_range_meters":12000,"station_id":"ce4bhp92rcd13ifvqhcg","pricing_plan_id":"free"},{"bike_id":"782cbed8-9ac9-41c0-b7d2-c9e45a9fba70","system_id":"levelo_inurba_marseille","lat":43.271368,"lon":5.40928,"is_reserved":false,"is_disabled":false,"rental_uris":{"android":"levelo://app?vid=782cbed8-9ac9-41c0-b7d2-c9e45a9fba70","ios":"levelo://app?vid=782cbed8-9ac9-41c0-b7d2-c9e45a9fba70"},"vehicle_type_id":"4","last_reported":1702318166,"current_range_meters":30000,"station_id":"ce4bhl12rcd13ifvqgf0","pricing_plan_id":"free"},{"bike_id":"951245a1-0b43-4ce6-b962-224508a1c002","system_id":"levelo_inurba_marseille","lat":43.267959,"lon":5.402685,"is_reserved":false,"is_disabled":false,"rental_uris":{"android":"levelo://app?vid=951245a1-0b43-4ce6-b962-224508a1c002","ios":"levelo://app?vid=951245a1-0b43-4ce6-b962-224508a1c002"},"vehicle_type_id":"4","last_reported":1702318166,"current_range_meters":11600,"station_id":"ce501612rcd8frsf0b60","pricing_plan_id":"free"},{"bike_id":"f81eea78-69c9-40c6-87f8-dea729488e09","system_id":"levelo_inurba_marseille","lat":43.267959,"lon":5.402687,"is_reserved":false,"is_disabled":false,"rental_uris":{"android":"levelo://app?vid=f81eea78-69c9-40c6-87f8-dea729488e09","ios":"levelo://app?vid=f81eea78-69c9-40c6-87f8-dea729488e09"},"vehicle_type_id":"4","last_reported":1702318166,"current_range_meters":22800,"station_id":"ce501612rcd8frsf0b60","pricing_plan_id":"free"},{"bike_id":"4e6e4a4d-e00f-4453-991c-edd03f91627b","system_id":"levelo_inurba_marseille","lat":43.27701,"lon":5.41984,"is_reserved":false,"is_disabled":false,"rental_uris":{"android":"levelo://app?vid=4e6e4a4d-e00f-4453-991c-edd03f91627b","ios":"levelo://app?vid=4e6e4a4d-e00f-4453-991c-edd03f91627b"},"vehicle_type_id":"4","last_reported":1702318166,"current_range_meters":0,"station_id":"","pricing_plan_id":"free"},{"bike_id":"7ef0e874-4d14-4db6-97d3-23537a85b219","system_id":"levelo_inurba_marseille","lat":43.298768,"lon":5.43643,"is_reserved":false,"is_disabled":false,"rental_uris":{"android":"levelo://app?vid=7ef0e874-4d14-4db6-97d3-23537a85b219","ios":"levelo://app?vid=7ef0e874-4d14-4db6-97d3-23537a85b219"},"vehicle_type_id":"4","last_reported":1702318166,"current_range_meters":27600,"station_id":"ce4bhpp2rcd13ifvqhfg","pricing_plan_id":"free"},{"bike_id":"958b505a-b8bd-4f40-9f08-d4f875f828f5","system_id":"levelo_inurba_marseille","lat":43.28137,"lon":5.42664,"is_reserved":false,"is_disabled":false,"rental_uris":{"android":"levelo://app?vid=958b505a-b8bd-4f40-9f08-d4f875f828f5","ios":"levelo://app?vid=958b505a-b8bd-4f40-9f08-d4f875f828f5"},"vehicle_type_id":"4","last_reported":1702318166,"current_range_meters":8400,"station_id":"ce4bhnh2rcd13ifvqgug","pricing_plan_id":"free"},{"bike_id":"53819856-ede5-4fde-bd18-7e773325882d","system_id":"levelo_inurba_marseille","lat":43.2607,"lon":5.393983,"is_reserved":false,"is_disabled":false,"rental_uris":{"android":"levelo://app?vid=53819856-ede5-4fde-bd18-7e773325882d","ios":"levelo://app?vid=53819856-ede5-4fde-bd18-7e773325882d"},"vehicle_type_id":"4","last_reported":1702318166,"current_range_meters":2000,"station_id":"ce4bhh92rcd13ifvqfj0","pricing_plan_id":"free"},{"bike_id":"3f9ae87e-4631-4744-b0b7-b2163a8ee7aa","system_id":"levelo_inurba_marseille","lat":43.26068,"lon":5.39399,"is_reserved":false,"is_disabled":false,"rental_uris":{"android":"levelo://app?vid=3f9ae87e-4631-4744-b0b7-b2163a8ee7aa","ios":"levelo://app?vid=3f9ae87e-4631-4744-b0b7-b2163a8ee7aa"},"vehicle_type_id":"4","last_reported":1702318166,"current_range_meters":20000,"station_id":"ce4bhh92rcd13ifvqfj0","pricing_plan_id":"free"},{"bike_id":"f5a209d3-0717-4b22-8548-a98dcfce4bd1","system_id":"levelo_inurba_marseille","lat":43.2607,"lon":5.393983,"is_reserved":false,"is_disabled":false,"rental_uris":{"android":"levelo://app?vid=f5a209d3-0717-4b22-8548-a98dcfce4bd1","ios":"levelo://app?vid=f5a209d3-0717-4b22-8548-a98dcfce4bd1"},"vehicle_type_id":"4","last_reported":1702318166,"current_range_meters":25200,"station_id":"ce4bhh92rcd13ifvqfj0","pricing_plan_id":"free"},{"bike_id":"78eee102-556e-472e-8350-9a917e4e60d2","system_id":"levelo_inurba_marseille","lat":43.2607,"lon":5.393983,"is_reserved":false,"is_disabled":false,"rental_uris":{"android":"levelo://app?vid=78eee102-556e-472e-8350-9a917e4e60d2","ios":"levelo://app?vid=78eee102-556e-472e-8350-9a917e4e60d2"},"vehicle_type_id":"4","last_reported":1702318166,"current_range_meters":7600,"station_id":"ce4bhh92rcd13ifvqfj0","pricing_plan_id":"free"},{"bike_id":"2904fadb-7bd9-4958-ab41-36e416d618b9","system_id":"levelo_inurba_marseille","lat":43.275028,"lon":5.424534,"is_reserved":false,"is_disabled":false,"rental_uris":{"android":"levelo://app?vid=2904fadb-7bd9-4958-ab41-36e416d618b9","ios":"levelo://app?vid=2904fadb-7bd9-4958-ab41-36e416d618b9"},"vehicle_type_id":"4","last_reported":1702318166,"current_range_meters":22800,"station_id":"ce4bhn92rcd13ifvqgrg","pricing_plan_id":"free"},{"bike_id":"2e7dc1fa-29bd-4ddd-a4ad-33e44ff84d87","system_id":"levelo_inurba_marseille","lat":43.275028,"lon":5.424534,"is_reserved":false,"is_disabled":false,"rental_uris":{"android":"levelo://app?vid=2e7dc1fa-29bd-4ddd-a4ad-33e44ff84d87","ios":"levelo://app?vid=2e7dc1fa-29bd-4ddd-a4ad-33e44ff84d87"},"vehicle_type_id":"4","last_reported":1702318166,"current_range_meters":29200,"station_id":"ce4bhn92rcd13ifvqgrg","pricing_plan_id":"free"},{"bike_id":"0a36431f-273e-45e8-8123-6194dac4ae34","system_id":"levelo_inurba_marseille","lat":43.258224,"lon":5.394369,"is_reserved":false,"is_disabled":false,"rental_uris":{"android":"levelo://app?vid=0a36431f-273e-45e8-8123-6194dac4ae34","ios":"levelo://app?vid=0a36431f-273e-45e8-8123-6194dac4ae34"},"vehicle_type_id":"4","last_reported":1702318166,"current_range_meters":20000,"station_id":"ce4bhip2rcd13ifvqft0","pricing_plan_id":"free"},{"bike_id":"08604fde-0229-4c8b-960c-aecd68cd796f","system_id":"levelo_inurba_marseille","lat":43.25575,"lon":5.38248,"is_reserved":false,"is_disabled":false,"rental_uris":{"android":"levelo://app?vid=08604fde-0229-4c8b-960c-aecd68cd796f","ios":"levelo://app?vid=08604fde-0229-4c8b-960c-aecd68cd796f"},"vehicle_type_id":"4","last_reported":1702318166,"current_range_meters":20800,"station_id":"ce4bhih2rcd13ifvqfs0","pricing_plan_id":"free"},{"bike_id":"15769193-0940-4264-9a80-7f743e32b7e2","system_id":"levelo_inurba_marseille","lat":43.258658,"lon":5.398935,"is_reserved":false,"is_disabled":false,"rental_uris":{"android":"levelo://app?vid=15769193-0940-4264-9a80-7f743e32b7e2","ios":"levelo://app?vid=15769193-0940-4264-9a80-7f743e32b7e2"},"vehicle_type_id":"4","last_reported":1702318166,"current_range_meters":15200,"station_id":"ce4bhl92rcd13ifvqghg","pricing_plan_id":"free"},{"bike_id":"8bfba5f0-6d02-4058-854b-b88f3097ad8f","system_id":"levelo_inurba_marseille","lat":43.25709,"lon":5.41124,"is_reserved":false,"is_disabled":false,"rental_uris":{"android":"levelo://app?vid=8bfba5f0-6d02-4058-854b-b88f3097ad8f","ios":"levelo://app?vid=8bfba5f0-6d02-4058-854b-b88f3097ad8f"},"vehicle_type_id":"4","last_reported":1702318166,"current_range_meters":9200,"station_id":"ce4bhkp2rcd13ifvqgd0","pricing_plan_id":"free"},{"bike_id":"3086e0f2-bcc4-4ced-841c-f94898213122","system_id":"levelo_inurba_marseille","lat":43.250023,"lon":5.38919,"is_reserved":false,"is_disabled":false,"rental_uris":{"android":"levelo://app?vid=3086e0f2-bcc4-4ced-841c-f94898213122","ios":"levelo://app?vid=3086e0f2-bcc4-4ced-841c-f94898213122"},"vehicle_type_id":"4","last_reported":1702318166,"current_range_meters":19600,"station_id":"ce4bhgp2rcd13ifvqfd0","pricing_plan_id":"free"},{"bike_id":"cc63f9b4-668f-4eb3-a064-7a13fd62d877","system_id":"levelo_inurba_marseille","lat":43.239588,"lon":5.366238,"is_reserved":false,"is_disabled":false,"rental_uris":{"android":"levelo://app?vid=cc63f9b4-668f-4eb3-a064-7a13fd62d877","ios":"levelo://app?vid=cc63f9b4-668f-4eb3-a064-7a13fd62d877"},"vehicle_type_id":"4","last_reported":1702318166,"current_range_meters":13200,"station_id":"ce4bhi12rcd13ifvqfp0","pricing_plan_id":"free"},{"bike_id":"fa6a6016-9855-491f-9d19-bcb54d12d7c9","system_id":"levelo_inurba_marseille","lat":43.239588,"lon":5.366238,"is_reserved":false,"is_disabled":false,"rental_uris":{"android":"levelo://app?vid=fa6a6016-9855-491f-9d19-bcb54d12d7c9","ios":"levelo://app?vid=fa6a6016-9855-491f-9d19-bcb54d12d7c9"},"vehicle_type_id":"4","last_reported":1702318166,"current_range_meters":7200,"station_id":"ce4bhi12rcd13ifvqfp0","pricing_plan_id":"free"},{"bike_id":"89ec9a6b-af8d-4604-898e-bbb935932588","system_id":"levelo_inurba_marseille","lat":43.239588,"lon":5.366238,"is_reserved":false,"is_disabled":false,"rental_uris":{"android":"levelo://app?vid=89ec9a6b-af8d-4604-898e-bbb935932588","ios":"levelo://app?vid=89ec9a6b-af8d-4604-898e-bbb935932588"},"vehicle_type_id":"4","last_reported":1702318166,"current_range_meters":12800,"station_id":"ce4bhi12rcd13ifvqfp0","pricing_plan_id":"free"},{"bike_id":"427b3a01-2a24-4146-94be-e5cf0c19ca82","system_id":"levelo_inurba_marseille","lat":43.241782,"lon":5.397261,"is_reserved":false,"is_disabled":false,"rental_uris":{"android":"levelo://app?vid=427b3a01-2a24-4146-94be-e5cf0c19ca82","ios":"levelo://app?vid=427b3a01-2a24-4146-94be-e5cf0c19ca82"},"vehicle_type_id":"4","last_reported":1702318166,"current_range_meters":8800,"station_id":"ce4bhn12rcd13ifvqgpg","pricing_plan_id":"free"},{"bike_id":"65a732be-a23e-4899-8cd3-be07a2e68d78","system_id":"levelo_inurba_marseille","lat":43.231793,"lon":5.400044,"is_reserved":false,"is_disabled":false,"rental_uris":{"android":"levelo://app?vid=65a732be-a23e-4899-8cd3-be07a2e68d78","ios":"levelo://app?vid=65a732be-a23e-4899-8cd3-be07a2e68d78"},"vehicle_type_id":"4","last_reported":1702318166,"current_range_meters":19600,"station_id":"ce4bhn12rcd13ifvqgqg","pricing_plan_id":"free"},{"bike_id":"d4216b28-6573-4e3c-9c6e-b1f827f4d9da","system_id":"levelo_inurba_marseille","lat":43.231794,"lon":5.400052,"is_reserved":false,"is_disabled":false,"rental_uris":{"android":"levelo://app?vid=d4216b28-6573-4e3c-9c6e-b1f827f4d9da","ios":"levelo://app?vid=d4216b28-6573-4e3c-9c6e-b1f827f4d9da"},"vehicle_type_id":"4","last_reported":1702318166,"current_range_meters":24400,"station_id":"ce4bhn12rcd13ifvqgqg","pricing_plan_id":"free"}]}}