{"last_updated":1727867280,"ttl":60,"version":"2.2","data":{"bikes":[{"bike_id":"590a8d58-4170-45bf-9ac5-837bd3ff5b81","system_id":"levelo_inurba_marseille","lat":43.27076,"lon":5.42273,"is_reserved":false,"is_disabled":false,"rental_uris":{"android":"levelo://app?vid=590a8d58-4170-45bf-9ac5-837bd3ff5b81","ios":"levelo://app?vid=590a8d58-4170-45bf-9ac5-837bd3ff5b81"},"vehicle_type_id":"4","last_reported":1727867280,"current_range_meters":24400,"station_id":"ce4bhk92rcd13ifvqgb0","pricing_plan_id":"cebpf4jnsgd1na2vs0mg"},{"bike_id":"44cefc2e-25d9-4040-b45f-14956c78c679","system_id":"levelo_inurba_marseille","lat":43.27064,"lon":5.42286,"is_reserved":false,"is_disabled":false,"rental_uris":{"android":"levelo://app?vid=44cefc2e-25d9-4040-b45f-14956c78c679","ios":"levelo://app?vid=44cefc2e-25d9-4040-b45f-14956c78c679"},"vehicle_type_id":"4","last_reported":1727867280,"current_range_meters":37600,"station_id":"ce4bhk92rcd13ifvqgb0","pricing_plan_id":"cebpf4jnsgd1na2vs0mg"},{"bike_id":"4f60feaa-1808-4e7f-9340-f6a0254476e2","system_id":"levelo_inurba_marseille","lat":43.2396,"lon":5.36653,"is_reserved":false,"is_disabled":false,"rental_uris":{"android":"levelo://app?vid=4f60feaa-1808-4e7f-9340-f6a0254476e2","ios":"levelo://app?vid=4f60feaa-1808-4e7f-9340-f6a0254476e2"},"vehicle_type_id":"4","last_reported":1727867280,"current_range_meters":38800,"station_id":"ce4bhi12rcd13ifvqfp0","pricing_plan_id":"cebpf4jnsgd1na2vs0mg"},{"bike_id":"98bbd9c1-8307-405d-9250-6682408d96e2","system_id":"levelo_inurba_marseille","lat":43.33744,"lon":5.37491,"is_reserved":false,"is_disabled":false,"rental_uris":{"android":"levelo://app?vid=98bbd9c1-8307-405d-9250-6682408d96e2","ios":"levelo://app?vid=98bbd9c1-8307-405d-9250-6682408d96e2"},"vehicle_type_id":"4","last_reported":1727867280,"current_range_meters":38400,"station_id":"","pricing_plan_id":"cebpf4jnsgd1na2vs0mg"},{"bike_id":"319fd1e4-b3f8-4703-8a3c-e20f7a80a1b0","system_id":"levelo_inurba_marseille","lat":43.31073,"lon":5.38353,"is_reserved":false,"is_disabled":false,"rental_uris":{"android":"levelo://app?vid=319fd1e4-b3f8-4703-8a3c-e20f7a80a1b0","ios":"levelo://app?vid=319fd1e4-b3f8-4703-8a3c-e20f7a80a1b0"},"vehicle_type_id":"4","last_reported":1727867280,"current_range_meters":19600,"station_id":"ce4bgv92rcd13ifvqcr0","pricing_plan_id":"cebpf4jnsgd1na2vs0mg"},{"bike_id":"0c89dfa8-c55b-430e-a9b8-c5ed3ad99e35","system_id":"levelo_inurba_marseille","lat":43.30548,"lon":5.36531,"is_reserved":false,"is_disabled":false,"rental_uris":{"android":"levelo://app?vid=0c89dfa8-c55b-430e-a9b8-c5ed3ad99e35","ios":"levelo://app?vid=0c89dfa8-c55b-430e-a9b8-c5ed3ad99e35"},"vehicle_type_id":"4","last_reported":1727867280,"current_range_meters":37600,"station_id":"ce4bgs12rcd13ifvqcag","pricing_plan_id":"cebpf4jnsgd1na2vs0mg"},{"bike_id":"49cd4443-d6dd-4b0a-b11d-28dd808839ca","system_id":"levelo_inurba_marseille","lat":43.27375,"lon":5.36257,"is_reserved":false,"is_disabled":false,"rental_uris":{"android":"levelo://app?vid=49cd4443-d6dd-4b0a-b11d-28dd808839ca","ios":"levelo://app?vid=49cd4443-d6dd-4b0a-b11d-28dd808839ca"},"vehicle_type_id":"4","last_reported":1727867280,"current_range_meters":14400,"station_id":"ce4bhbh2rcd13ifvqeo0","pricing_plan_id":"cebpf4jnsgd1na2vs0mg"},{"bike_id":"23956b25-bcbe-4a67-a90c-e5799d8fabf0","system_id":"levelo_inurba_marseille","lat":43.30887,"lon":5.39645,"is_reserved":false,"is_disabled":false,"rental_uris":{"android":"levelo://app?vid=23956b25-bcbe-4a67-a90c-e5799d8fabf0","ios":"levelo://app?vid=23956b25-bcbe-4a67-a90c-e5799d8fabf0"},"vehicle_type_id":"4","last_reported":1727867280,"current_range_meters":24000,"station_id":"ce4bh012rcd13ifvqcv0","pricing_plan_id":"cebpf4jnsgd1na2vs0mg"},{"bike_id":"36c16717-a39d-4982-b908-c0d63ba1e343","system_id":"levelo_inurba_marseille","lat":43.30152,"lon":5.38079,"is_reserved":false,"is_disabled":false,"rental_uris":{"android":"levelo://app?vid=36c16717-a39d-4982-b908-c0d63ba1e343","ios":"levelo://app?vid=36c16717-a39d-4982-b908-c0d63ba1e343"},"vehicle_type_id":"4","last_reported":1727867280,"current_range_meters":10800,"station_id":"ce4bgjp2rcd13ifvqbh0","pricing_plan_id":"cebpf4jnsgd1na2vs0mg"},{"bike_id":"3b85ce28-aa68-4e1f-810c-2833baaabd97","system_id":"levelo_inurba_marseille","lat":43.30603,"lon":5.39359,"is_reserved":false,"is_disabled":false,"rental_uris":{"android":"levelo://app?vid=3b85ce28-aa68-4e1f-810c-2833baaabd97","ios":"levelo://app?vid=3b85ce28-aa68-4e1f-810c-2833baaabd97"},"vehicle_type_id":"4","last_reported":1727867280,"current_range_meters":9200,"station_id":"ce4bh0p2rcd13ifvqd80","pricing_plan_id":"cebpf4jnsgd1na2vs0mg"},{"bike_id":"ee824e04-1ea0-475b-ae3a-320ae472dac0","system_id":"levelo_inurba_marseille","lat":43.23182,"lon":5.39993,"is_reserved":false,"is_disabled":false,"rental_uris":{"android":"levelo://app?vid=ee824e04-1ea0-475b-ae3a-320ae472dac0","ios":"levelo://app?vid=ee824e04-1ea0-475b-ae3a-320ae472dac0"},"vehicle_type_id":"4","last_reported":1727867280,"current_range_meters":28000,"station_id":"ce4bhn12rcd13ifvqgqg","pricing_plan_id":"cebpf4jnsgd1na2vs0mg"},{"bike_id":"663c38ca-f7ed-4d2d-9a76-c267bd21796f","system_id":"levelo_inurba_marseille","lat":43.29703,"lon":5.37347,"is_reserved":false,"is_disabled":false,"rental_uris":{"android":"levelo://app?vid=663c38ca-f7ed-4d2d-9a76-c267bd21796f","ios":"levelo://app?vid=663c38ca-f7ed-4d2d-9a76-c267bd21796f"},"vehicle_type_id":"4","last_reported":1727867280,"current_range_meters":28400,"station_id":"ce4bgr92rcd13ifvqc6g","pricing_plan_id":"cebpf4jnsgd1na2vs0mg"},{"bike_id":"c55846a8-d141-44b0-b323-3b1289cff724","system_id":"levelo_inurba_marseille","lat":43.287137,"lon":5.379368,"is_reserved":false,"is_disabled":false,"rental_uris":{"android":"levelo://app?vid=c55846a8-d141-44b0-b323-3b1289cff724","ios":"levelo://app?vid=c55846a8-d141-44b0-b323-3b1289cff724"},"vehicle_type_id":"4","last_reported":1727867280,"current_range_meters":30400,"station_id":"ce4bh9p2rcd13ifvqec0","pricing_plan_id":"cebpf4jnsgd1na2vs0mg"},{"bike_id":"472ac8d8-6e47-4ad4-a15a-63625bba5597","system_id":"levelo_inurba_marseille","lat":43.279043,"lon":5.39583,"is_reserved":false,"is_disabled":false,"rental_uris":{"android":"levelo://app?vid=472ac8d8-6e47-4ad4-a15a-63625bba5597","ios":"levelo://app?vid=472ac8d8-6e47-4ad4-a15a-63625bba5597"},"vehicle_type_id":"4","last_reported":1727867280,"current_range_meters":35600,"station_id":"ce4bhf92rcd13ifvqf40","pricing_plan_id":"cebpf4jnsgd1na2vs0mg"},{"bike_id":"ee847438-f627-4ace-9f79-acc010094817","system_id":"levelo_inurba_marseille","lat":43.29576,"lon":5.37495,"is_reserved":false,"is_disabled":false,"rental_uris":{"android":"levelo://app?vid=ee847438-f627-4ace-9f79-acc010094817","ios":"levelo://app?vid=ee847438-f627-4ace-9f79-acc010094817"},"vehicle_type_id":"4","last_reported":1727867280,"current_range_meters":27200,"station_id":"ce4bgh92rcd13ifvqb50","pricing_plan_id":"cebpf4jnsgd1na2vs0mg"},{"bike_id":"946ee451-d831-4dc1-86ad-9698924fecbb","system_id":"levelo_inurba_marseille","lat":43.29933,"lon":5.36542,"is_reserved":false,"is_disabled":false,"rental_uris":{"android":"levelo://app?vid=946ee451-d831-4dc1-86ad-9698924fecbb","ios":"levelo://app?vid=946ee451-d831-4dc1-86ad-9698924fecbb"},"vehicle_type_id":"4","last_reported":1727867280,"current_range_meters":4000,"station_id":"ce4bgm92rcd13ifvqbr0","pricing_plan_id":"cebpf4jnsgd1na2vs0mg"},{"bike_id":"cc1b0ea3-ad3d-4cdd-bd2d-01272f02e72c","system_id":"levelo_inurba_marseille","lat":43.30093,"lon":5.39073,"is_reserved":false,"is_disabled":false,"rental_uris":{"android":"levelo://app?vid=cc1b0ea3-ad3d-4cdd-bd2d-01272f02e72c","ios":"levelo://app?vid=cc1b0ea3-ad3d-4cdd-bd2d-01272f02e72c"},"vehicle_type_id":"4","last_reported":1727867280,"current_range_meters":35600,"station_id":"ce4bh192rcd13ifvqdb0","pricing_plan_id":"cebpf4jnsgd1na2vs0mg"},{"bike_id":"9f2f804a-3bf6-4a03-96ab-13f387c432aa","system_id":"levelo_inurba_marseille","lat":43.29801,"lon":5.40402,"is_reserved":false,"is_disabled":false,"rental_uris":{"android":"levelo://app?vid=9f2f804a-3bf6-4a03-96ab-13f387c432aa","ios":"levelo://app?vid=9f2f804a-3bf6-4a03-96ab-13f387c432aa"},"vehicle_type_id":"4","last_reported":1727867280,"current_range_meters":34800,"station_id":"ce4bh112rcd13ifvqd90","pricing_plan_id":"cebpf4jnsgd1na2vs0mg"},{"bike_id":"3266d668-2f81-4f3b-ae04-8070b32a0e52","system_id":"levelo_inurba_marseille","lat":43.33023,"lon":5.39045,"is_reserved":false,"is_disabled":false,"rental_uris":{"android":"levelo://app?vid=3266d668-2f81-4f3b-ae04-8070b32a0e52","ios":"levelo://app?vid=3266d668-2f81-4f3b-ae04-8070b32a0e52"},"vehicle_type_id":"4","last_reported":1727867280,"current_range_meters":38800,"station_id":"ce4bhr92rcd13ifvqhrg","pricing_plan_id":"cebpf4jnsgd1na2vs0mg"},{"bike_id":"09f5d7e1-13c8-45c2-9dbf-20d4d7b9aadd","system_id":"levelo_inurba_marseille","lat":43.30297,"lon":5.36883,"is_reserved":false,"is_disabled":false,"rental_uris":{"android":"levelo://app?vid=09f5d7e1-13c8-45c2-9dbf-20d4d7b9aadd","ios":"levelo://app?vid=09f5d7e1-13c8-45c2-9dbf-20d4d7b9aadd"},"vehicle_type_id":"4","last_reported":1727867280,"current_range_meters":22000,"station_id":"ce4bgqh2rcd13ifvqc5g","pricing_plan_id":"cebpf4jnsgd1na2vs0mg"},{"bike_id":"9be5b0ff-0133-4d88-a566-3d4f835df562","system_id":"levelo_inurba_marseille","lat":43.30594,"lon":5.3721,"is_reserved":false,"is_disabled":false,"rental_uris":{"android":"levelo://app?vid=9be5b0ff-0133-4d88-a566-3d4f835df562","ios":"levelo://app?vid=9be5b0ff-0133-4d88-a566-3d4f835df562"},"vehicle_type_id":"4","last_reported":1727867280,"current_range_meters":8400,"station_id":"ce4bgqh2rcd13ifvqc4g","pricing_plan_id":"cebpf4jnsgd1na2vs0mg"},{"bike_id":"04c4f3a1-e68b-4742-8514-e5257e4c170a","system_id":"levelo_inurba_marseille","lat":43.29558,"lon":5.42287,"is_reserved":false,"is_disabled":false,"rental_uris":{"android":"levelo://app?vid=04c4f3a1-e68b-4742-8514-e5257e4c170a","ios":"levelo://app?vid=04c4f3a1-e68b-4742-8514-e5257e4c170a"},"vehicle_type_id":"4","last_reported":1727867280,"current_range_meters":35200,"station_id":"ce4bhph2rcd13ifvqhdg","pricing_plan_id":"cebpf4jnsgd1na2vs0mg"},{"bike_id":"5c20e32a-e7b8-4f0c-859f-df9defd23ccb","system_id":"levelo_inurba_marseille","lat":43.30552,"lon":5.36533,"is_reserved":false,"is_disabled":false,"rental_uris":{"android":"levelo://app?vid=5c20e32a-e7b8-4f0c-859f-df9defd23ccb","ios":"levelo://app?vid=5c20e32a-e7b8-4f0c-859f-df9defd23ccb"},"vehicle_type_id":"4","last_reported":1727867280,"current_range_meters":19600,"station_id":"ce4bgs12rcd13ifvqcag","pricing_plan_id":"cebpf4jnsgd1na2vs0mg"},{"bike_id":"cc640da1-a3dd-4e35-b4a7-a69a4681666a","system_id":"levelo_inurba_marseille","lat":43.27067,"lon":5.42271,"is_reserved":false,"is_disabled":false,"rental_uris":{"android":"levelo://app?vid=cc640da1-a3dd-4e35-b4a7-a69a4681666a","ios":"levelo://app?vid=cc640da1-a3dd-4e35-b4a7-a69a4681666a"},"vehicle_type_id":"4","last_reported":1727867280,"current_range_meters":17600,"station_id":"ce4bhk92rcd13ifvqgb0","pricing_plan_id":"cebpf4jnsgd1na2vs0mg"},{"bike_id":"49632480-6851-4a12-93ee-95beeac5f560","system_id":"levelo_inurba_marseille","lat":43.30148,"lon":5.38072,"is_reserved":false,"is_disabled":false,"rental_uris":{"android":"levelo://app?vid=49632480-6851-4a12-93ee-95beeac5f560","ios":"levelo://app?vid=49632480-6851-4a12-93ee-95beeac5f560"},"vehicle_type_id":"4","last_reported":1727867280,"current_range_meters":6800,"station_id":"ce4bgjp2rcd13ifvqbh0","pricing_plan_id":"cebpf4jnsgd1na2vs0mg"},{"bike_id":"fe354e2a-93e8-4fa1-ba05-d6ea5fd248fa","system_id":"levelo_inurba_marseille","lat":43.29977,"lon":5.37194,"is_reserved":false,"is_disabled":false,"rental_uris":{"android":"levelo://app?vid=fe354e2a-93e8-4fa1-ba05-d6ea5fd248fa","ios":"levelo://app?vid=fe354e2a-93e8-4fa1-ba05-d6ea5fd248fa"},"vehicle_type_id":"4","last_reported":1727867280,"current_range_meters":22000,"station_id":"ce4bgr92rcd13ifvqc7g","pricing_plan_id":"cebpf4jnsgd1na2vs0mg"},{"bike_id":"06289e99-5886-4880-8c1c-2c4d9eeac6cb","system_id":"levelo_inurba_marseille","lat":43.30137,"lon":5.38776,"is_reserved":false,"is_disabled":false,"rental_uris":{"android":"levelo://app?vid=06289e99-5886-4880-8c1c-2c4d9eeac6cb","ios":"levelo://app?vid=06289e99-5886-4880-8c1c-2c4d9eeac6cb"},"vehicle_type_id":"4","last_reported":1727867280,"current_range_meters":6800,"station_id":"ce4bghh2rcd13ifvqb60","pricing_plan_id":"cebpf4jnsgd1na2vs0mg"},{"bike_id":"633759f0-dd89-43e7-802d-5a114b6967c7","system_id":"levelo_inurba_marseille","lat":43.30538,"lon":5.36528,"is_reserved":false,"is_disabled":false,"rental_uris":{"android":"levelo://app?vid=633759f0-dd89-43e7-802d-5a114b6967c7","ios":"levelo://app?vid=633759f0-dd89-43e7-802d-5a114b6967c7"},"vehicle_type_id":"4","last_reported":1727867280,"current_range_meters":16400,"station_id":"ce4bgs12rcd13ifvqcag","pricing_plan_id":"cebpf4jnsgd1na2vs0mg"},{"bike_id":"c74f1376-2916-44fc-8a70-6bafd2d8139f","system_id":"levelo_inurba_marseille","lat":43.32405,"lon":5.36716,"is_reserved":false,"is_disabled":false,"rental_uris":{"android":"levelo://app?vid=c74f1376-2916-44fc-8a70-6bafd2d8139f","ios":"levelo://app?vid=c74f1376-2916-44fc-8a70-6bafd2d8139f"},"vehicle_type_id":"4","last_reported":1727867280,"current_range_meters":9600,"station_id":"ce4bgl92rcd13ifvqbq0","pricing_plan_id":"cebpf4jnsgd1na2vs0mg"},{"bike_id":"ec1c3e2c-022c-4156-88fa-de4eba1043d2","system_id":"levelo_inurba_marseille","lat":43.25008,"lon":5.38914,"is_reserved":false,"is_disabled":false,"rental_uris":{"android":"levelo://app?vid=ec1c3e2c-022c-4156-88fa-de4eba1043d2","ios":"levelo://app?vid=ec1c3e2c-022c-4156-88fa-de4eba1043d2"},"vehicle_type_id":"4","last_reported":1727867280,"current_range_meters":33600,"station_id":"ce4bhgp2rcd13ifvqfd0","pricing_plan_id":"cebpf4jnsgd1na2vs0mg"},{"bike_id":"186d1d7d-1293-4df2-9a3c-509d9f14d3c3","system_id":"levelo_inurba_marseille","lat":43.25928,"lon":5.40906,"is_reserved":false,"is_disabled":false,"rental_uris":{"android":"levelo://app?vid=186d1d7d-1293-4df2-9a3c-509d9f14d3c3","ios":"levelo://app?vid=186d1d7d-1293-4df2-9a3c-509d9f14d3c3"},"vehicle_type_id":"4","last_reported":1727867280,"current_range_meters":28400,"station_id":"ce4bhm92rcd13ifvqglg","pricing_plan_id":"cebpf4jnsgd1na2vs0mg"},{"bike_id":"124863e4-db68-43d5-b9aa-40c8641a8244","system_id":"levelo_inurba_marseille","lat":43.30315,"lon":5.369,"is_reserved":false,"is_disabled":false,"rental_uris":{"android":"levelo://app?vid=124863e4-db68-43d5-b9aa-40c8641a8244","ios":"levelo://app?vid=124863e4-db68-43d5-b9aa-40c8641a8244"},"vehicle_type_id":"4","last_reported":1727867280,"current_range_meters":39200,"station_id":"ce4bgqh2rcd13ifvqc5g","pricing_plan_id":"cebpf4jnsgd1na2vs0mg"},{"bike_id":"3d30b62e-5fc7-4bef-9935-91207f387dfd","system_id":"levelo_inurba_marseille","lat":43.29593,"lon":5.38103,"is_reserved":false,"is_disabled":false,"rental_uris":{"android":"levelo://app?vid=3d30b62e-5fc7-4bef-9935-91207f387dfd","ios":"levelo://app?vid=3d30b62e-5fc7-4bef-9935-91207f387dfd"},"vehicle_type_id":"4","last_reported":1727867280,"current_range_meters":24000,"station_id":"ce4bgl12rcd13ifvqbo0","pricing_plan_id":"cebpf4jnsgd1na2vs0mg"},{"bike_id":"21bd0eaa-d1a8-4886-9288-7871e0263a69","system_id":"levelo_inurba_marseille","lat":43.30542,"lon":5.36523,"is_reserved":false,"is_disabled":false,"rental_uris":{"android":"levelo://app?vid=21bd0eaa-d1a8-4886-9288-7871e0263a69","ios":"levelo://app?vid=21bd0eaa-d1a8-4886-9288-7871e0263a69"},"vehicle_type_id":"4","last_reported":1727867280,"current_range_meters":6400,"station_id":"ce4bgs12rcd13ifvqcag","pricing_plan_id":"cebpf4jnsgd1na2vs0mg"},{"bike_id":"d5bf9db1-7dca-49c1-8306-b4004223ad4f","system_id":"levelo_inurba_marseille","lat":43.30531,"lon":5.36535,"is_reserved":false,"is_disabled":false,"rental_uris":{"android":"levelo://app?vid=d5bf9db1-7dca-49c1-8306-b4004223ad4f","ios":"levelo://app?vid=d5bf9db1-7dca-49c1-8306-b4004223ad4f"},"vehicle_type_id":"4","last_reported":1727867280,"current_range_meters":38800,"station_id":"ce4bgs12rcd13ifvqcag","pricing_plan_id":"cebpf4jnsgd1na2vs0mg"},{"bike_id":"035fc273-33d9-493b-a7ef-44834f54ec0e","system_id":"levelo_inurba_marseille","lat":43.2757,"lon":5.3842,"is_reserved":false,"is_disabled":false,"rental_uris":{"android":"levelo://app?vid=035fc273-33d9-493b-a7ef-44834f54ec0e","ios":"levelo://app?vid=035fc273-33d9-493b-a7ef-44834f54ec0e"},"vehicle_type_id":"4","last_reported":1727867280,"current_range_meters":38000,"station_id":"ce4bhh92rcd13ifvqfi0","pricing_plan_id":"cebpf4jnsgd1na2vs0mg"},{"bike_id":"b55bcffb-001b-4380-b55f-fd7c8019e833","system_id":"levelo_inurba_marseille","lat":43.28698,"lon":5.37396,"is_reserved":false,"is_disabled":false,"rental_uris":{"android":"levelo://app?vid=b55bcffb-001b-4380-b55f-fd7c8019e833","ios":"levelo://app?vid=b55bcffb-001b-4380-b55f-fd7c8019e833"},"vehicle_type_id":"4","last_reported":1727867280,"current_range_meters":22800,"station_id":"ce4bh3p2rcd13ifvqdq0","pricing_plan_id":"cebpf4jnsgd1na2vs0mg"},{"bike_id":"0523c2b4-9b7b-4f12-9f03-e365ddcf8f5b","system_id":"levelo_inurba_marseille","lat":43.29979,"lon":5.37171,"is_reserved":false,"is_disabled":false,"rental_uris":{"android":"levelo://app?vid=0523c2b4-9b7b-4f12-9f03-e365ddcf8f5b","ios":"levelo://app?vid=0523c2b4-9b7b-4f12-9f03-e365ddcf8f5b"},"vehicle_type_id":"4","last_reported":1727867280,"current_range_meters":15200,"station_id":"ce4bgr92rcd13ifvqc7g","pricing_plan_id":"cebpf4jnsgd1na2vs0mg"},{"bike_id":"0b848804-049b-412d-b88c-d47f765f174f","system_id":"levelo_inurba_marseille","lat":43.30597,"lon":5.39357,"is_reserved":false,"is_disabled":false,"rental_uris":{"android":"levelo://app?vid=0b848804-049b-412d-b88c-d47f765f174f","ios":"levelo://app?vid=0b848804-049b-412d-b88c-d47f765f174f"},"vehicle_type_id":"4","last_reported":1727867280,"current_range_meters":33600,"station_id":"ce4bh0p2rcd13ifvqd80","pricing_plan_id":"cebpf4jnsgd1na2vs0mg"},{"bike_id":"d8b770fd-2389-4bb4-9928-2519373ef5f7","system_id":"levelo_inurba_marseille","lat":43.29847,"lon":5.36273,"is_reserved":false,"is_disabled":false,"rental_uris":{"android":"levelo://app?vid=d8b770fd-2389-4bb4-9928-2519373ef5f7","ios":"levelo://app?vid=d8b770fd-2389-4bb4-9928-2519373ef5f7"},"vehicle_type_id":"4","last_reported":1727867280,"current_range_meters":8400,"station_id":"ce4bgpp2rcd13ifvqc3g","pricing_plan_id":"cebpf4jnsgd1na2vs0mg"},{"bike_id":"b5d56b76-19a0-465c-a73e-b74aeb88ef9a","system_id":"levelo_inurba_marseille","lat":43.26807,"lon":5.40272,"is_reserved":false,"is_disabled":false,"rental_uris":{"android":"levelo://app?vid=b5d56b76-19a0-465c-a73e-b74aeb88ef9a","ios":"levelo://app?vid=b5d56b76-19a0-465c-a73e-b74aeb88ef9a"},"vehicle_type_id":"4","last_reported":1727867280,"current_range_meters":25200,"station_id":"ce501612rcd8frsf0b60","pricing_plan_id":"cebpf4jnsgd1na2vs0mg"},{"bike_id":"2fe4425b-e9c9-47e7-96a4-de80fefdb80a","system_id":"levelo_inurba_marseille","lat":43.29903,"lon":5.37471,"is_reserved":false,"is_disabled":false,"rental_uris":{"android":"levelo://app?vid=2fe4425b-e9c9-47e7-96a4-de80fefdb80a","ios":"levelo://app?vid=2fe4425b-e9c9-47e7-96a4-de80fefdb80a"},"vehicle_type_id":"4","last_reported":1727867280,"current_range_meters":20000,"station_id":"ce4bgjh2rcd13ifvqbg0","pricing_plan_id":"cebpf4jnsgd1na2vs0mg"},{"bike_id":"11d8e8c4-ba71-4ab4-9cac-530b1f4f9a0b","system_id":"levelo_inurba_marseille","lat":43.30155,"lon":5.38066,"is_reserved":false,"is_disabled":false,"rental_uris":{"android":"levelo://app?vid=11d8e8c4-ba71-4ab4-9cac-530b1f4f9a0b","ios":"levelo://app?vid=11d8e8c4-ba71-4ab4-9cac-530b1f4f9a0b"},"vehicle_type_id":"4","last_reported":1727867280,"current_range_meters":8000,"station_id":"ce4bgjp2rcd13ifvqbh0","pricing_plan_id":"cebpf4jnsgd1na2vs0mg"},{"bike_id":"4af40065-c5ec-4f7d-88bb-124a1c77e44a","system_id":"levelo_inurba_marseille","lat":43.31352,"lon":5.36729,"is_reserved":false,"is_disabled":false,"rental_uris":{"android":"levelo://app?vid=4af40065-c5ec-4f7d-88bb-124a1c77e44a","ios":"levelo://app?vid=4af40065-c5ec-4f7d-88bb-124a1c77e44a"},"vehicle_type_id":"4","last_reported":1727867280,"current_range_meters":36800,"station_id":"ce4bgr92rcd13ifvqc6g","pricing_plan_id":"cebpf4jnsgd1na2vs0mg"},{"bike_id":"04ecb14f-36ef-4b2c-a213-f635924af087","system_id":"levelo_inurba_marseille","lat":43.29187,"lon":5.39315,"is_reserved":false,"is_disabled":false,"rental_uris":{"android":"levelo://app?vid=04ecb14f-36ef-4b2c-a213-f635924af087","ios":"levelo://app?vid=04ecb14f-36ef-4b2c-a213-f635924af087"},"vehicle_type_id":"4","last_reported":1727867280,"current_range_meters":17200,"station_id":"ce4bh192rcd13ifvqdd0","pricing_plan_id":"cebpf4jnsgd1na2vs0mg"},{"bike_id":"89ffb2ff-ff03-44e6-9c94-1b56a6a36ea8","system_id":"levelo_inurba_marseille","lat":43.25083,"lon":5.39749,"is_reserved":false,"is_disabled":false,"rental_uris":{"android":"levelo://app?vid=89ffb2ff-ff03-44e6-9c94-1b56a6a36ea8","ios":"levelo://app?vid=89ffb2ff-ff03-44e6-9c94-1b56a6a36ea8"},"vehicle_type_id":"4","last_reported":1727867280,"current_range_meters":17200,"station_id":"ce4bhm12rcd13ifvqgkg","pricing_plan_id":"cebpf4jnsgd1na2vs0mg"},{"bike_id":"3a48058d-bdb7-4fa4-aea5-da158a7a0b38","system_id":"levelo_inurba_marseille","lat":43.33028,"lon":5.39043,"is_reserved":false,"is_disabled":false,"rental_uris":{"android":"levelo://app?vid=3a48058d-bdb7-4fa4-aea5-da158a7a0b38","ios":"levelo://app?vid=3a48058d-bdb7-4fa4-aea5-da158a7a0b38"},"vehicle_type_id":"4","last_reported":1727867280,"current_range_meters":32000,"station_id":"ce4bhr92rcd13ifvqhrg","pricing_plan_id":"cebpf4jnsgd1na2vs0mg"},{"bike_id":"2392ac77-55f7-4c80-af73-e5c5c755b68a","system_id":"levelo_inurba_marseille","lat":43.26563,"lon":5.37279,"is_reserved":false,"is_disabled":false,"rental_uris":{"android":"levelo://app?vid=2392ac77-55f7-4c80-af73-e5c5c755b68a","ios":"levelo://app?vid=2392ac77-55f7-4c80-af73-e5c5c755b68a"},"vehicle_type_id":"4","last_reported":1727867280,"current_range_meters":28000,"station_id":"ce4bhg12rcd13ifvqf70","pricing_plan_id":"cebpf4jnsgd1na2vs0mg"},{"bike_id":"13b575d4-1fec-4929-99ad-018db5fe092c","system_id":"levelo_inurba_marseille","lat":43.2897,"lon":5.37826,"is_reserved":false,"is_disabled":false,"rental_uris":{"android":"levelo://app?vid=13b575d4-1fec-4929-99ad-018db5fe092c","ios":"levelo://app?vid=13b575d4-1fec-4929-99ad-018db5fe092c"},"vehicle_type_id":"4","last_reported":1727867280,"current_range_meters":13600,"station_id":"ce4bh9p2rcd13ifvqed0","pricing_plan_id":"cebpf4jnsgd1na2vs0mg"},{"bike_id":"7265c070-4fa6-4142-91ee-b08200581727","system_id":"levelo_inurba_marseille","lat":43.25947,"lon":5.4089,"is_reserved":false,"is_disabled":false,"rental_uris":{"android":"levelo://app?vid=7265c070-4fa6-4142-91ee-b08200581727","ios":"levelo://app?vid=7265c070-4fa6-4142-91ee-b08200581727"},"vehicle_type_id":"4","last_reported":1727867280,"current_range_meters":19200,"station_id":"ce4bhm92rcd13ifvqglg","pricing_plan_id":"cebpf4jnsgd1na2vs0mg"},{"bike_id":"a1ac91c2-e22c-4ece-bfe2-4d5e13ad6026","system_id":"levelo_inurba_marseille","lat":43.34073,"lon":5.42003,"is_reserved":false,"is_disabled":false,"rental_uris":{"android":"levelo://app?vid=a1ac91c2-e22c-4ece-bfe2-4d5e13ad6026","ios":"levelo://app?vid=a1ac91c2-e22c-4ece-bfe2-4d5e13ad6026"},"vehicle_type_id":"4","last_reported":1727867280,"current_range_meters":5600,"station_id":"","pricing_plan_id":"cebpf4jnsgd1na2vs0mg"},{"bike_id":"a2b2e7ec-9291-4e2e-99f8-400018f4dc70","system_id":"levelo_inurba_marseille","lat":43.30535,"lon":5.36699,"is_reserved":false,"is_disabled":false,"rental_uris":{"android":"levelo://app?vid=a2b2e7ec-9291-4e2e-99f8-400018f4dc70","ios":"levelo://app?vid=a2b2e7ec-9291-4e2e-99f8-400018f4dc70"},"vehicle_type_id":"4","last_reported":1727867280,"current_range_meters":39200,"station_id":"ce4bgrp2rcd13ifvqc9g","pricing_plan_id":"cebpf4jnsgd1na2vs0mg"},{"bike_id":"603ef565-229d-4524-afea-39fb0d7d52f8","system_id":"levelo_inurba_marseille","lat":43.29582,"lon":5.36746,"is_reserved":false,"is_disabled":false,"rental_uris":{"android":"levelo://app?vid=603ef565-229d-4524-afea-39fb0d7d52f8","ios":"levelo://app?vid=603ef565-229d-4524-afea-39fb0d7d52f8"},"vehicle_type_id":"4","last_reported":1727867280,"current_range_meters":38800,"station_id":"ce4bgph2rcd13ifvqc2g","pricing_plan_id":"cebpf4jnsgd1na2vs0mg"},{"bike_id":"0933283f-23b5-483a-928e-a01f753f3c3f","system_id":"levelo_inurba_marseille","lat":43.34143,"lon":5.40897,"is_reserved":false,"is_disabled":false,"rental_uris":{"android":"levelo://app?vid=0933283f-23b5-483a-928e-a01f753f3c3f","ios":"levelo://app?vid=0933283f-23b5-483a-928e-a01f753f3c3f"},"vehicle_type_id":"4","last_reported":1727867280,"current_range_meters":15200,"station_id":"ce4bhqh2rcd13ifvqhlg","pricing_plan_id":"cebpf4jnsgd1na2vs0mg"},{"bike_id":"609844d3-402e-4c83-8b7f-d2093120cb67","system_id":"levelo_inurba_marseille","lat":43.325223,"lon":5.414542,"is_reserved":false,"is_disabled":false,"rental_uris":{"android":"levelo://app?vid=609844d3-402e-4c83-8b7f-d2093120cb67","ios":"levelo://app?vid=609844d3-402e-4c83-8b7f-d2093120cb67"},"vehicle_type_id":"4","last_reported":1727867280,"current_range_meters":36000,"station_id":"ce4bhq12rcd13ifvqhhg","pricing_plan_id":"cebpf4jnsgd1na2vs0mg"},{"bike_id":"c64ff77d-3632-4073-a0d7-4043c7110954","system_id":"levelo_inurba_marseille","lat":43.23187,"lon":5.39982,"is_reserved":false,"is_disabled":false,"rental_uris":{"android":"levelo://app?vid=c64ff77d-3632-4073-a0d7-4043c7110954","ios":"levelo://app?vid=c64ff77d-3632-4073-a0d7-4043c7110954"},"vehicle_type_id":"4","last_reported":1727867280,"current_range_meters":20400,"station_id":"ce4bhn12rcd13ifvqgqg","pricing_plan_id":"cebpf4jnsgd1na2vs0mg"},{"bike_id":"8d3622d7-7ae8-4674-a466-eb513d115408","system_id":"levelo_inurba_marseille","lat":43.28564,"lon":5.39496,"is_reserved":false,"is_disabled":false,"rental_uris":{"android":"levelo://app?vid=8d3622d7-7ae8-4674-a466-eb513d115408","ios":"levelo://app?vid=8d3622d7-7ae8-4674-a466-eb513d115408"},"vehicle_type_id":"4","last_reported":1727867280,"current_range_meters":37600,"station_id":"ce4bh292rcd13ifvqdg0","pricing_plan_id":"cebpf4jnsgd1na2vs0mg"},{"bike_id":"649b0ebd-72c1-4ccb-bdb5-0127394604e7","system_id":"levelo_inurba_marseille","lat":43.33612,"lon":5.41009,"is_reserved":false,"is_disabled":false,"rental_uris":{"android":"levelo://app?vid=649b0ebd-72c1-4ccb-bdb5-0127394604e7","ios":"levelo://app?vid=649b0ebd-72c1-4ccb-bdb5-0127394604e7"},"vehicle_type_id":"4","last_reported":1727867280,"current_range_meters":37600,"station_id":"ce4bhqh2rcd13ifvqhmg","pricing_plan_id":"cebpf4jnsgd1na2vs0mg"},{"bike_id":"40160568-b988-450d-81cb-9c974df25d5c","system_id":"levelo_inurba_marseille","lat":43.30326,"lon":5.40433,"is_reserved":false,"is_disabled":false,"rental_uris":{"android":"levelo://app?vid=40160568-b988-450d-81cb-9c974df25d5c","ios":"levelo://app?vid=40160568-b988-450d-81cb-9c974df25d5c"},"vehicle_type_id":"4","last_reported":1727867280,"current_range_meters":12400,"station_id":"ce4bh012rcd13ifvqd10","pricing_plan_id":"cebpf4jnsgd1na2vs0mg"},{"bike_id":"9e6f82c5-7edd-4d61-8fe9-86f829a7226e","system_id":"levelo_inurba_marseille","lat":43.2315,"lon":5.43722,"is_reserved":false,"is_disabled":false,"rental_uris":{"android":"levelo://app?vid=9e6f82c5-7edd-4d61-8fe9-86f829a7226e","ios":"levelo://app?vid=9e6f82c5-7edd-4d61-8fe9-86f829a7226e"},"vehicle_type_id":"4","last_reported":1727867280,"current_range_meters":11200,"station_id":"ce4bhmp2rcd13ifvqgog","pricing_plan_id":"cebpf4jnsgd1na2vs0mg"},{"bike_id":"8a833c6a-fe80-487c-aa43-eb1282f2bfb9","system_id":"levelo_inurba_marseille","lat":43.308,"lon":5.43527,"is_reserved":false,"is_disabled":false,"rental_uris":{"android":"levelo://app?vid=8a833c6a-fe80-487c-aa43-eb1282f2bfb9","ios":"levelo://app?vid=8a833c6a-fe80-487c-aa43-eb1282f2bfb9"},"vehicle_type_id":"4","last_reported":1727867280,"current_range_meters":9600,"station_id":"ce4bhph2rcd13ifvqheg","pricing_plan_id":"cebpf4jnsgd1na2vs0mg"},{"bike_id":"2350ed59-f8b0-4469-ad4a-7ded6097c1f9","system_id":"levelo_inurba_marseille","lat":43.32993,"lon":5.39619,"is_reserved":false,"is_disabled":false,"rental_uris":{"android":"levelo://app?vid=2350ed59-f8b0-4469-ad4a-7ded6097c1f9","ios":"levelo://app?vid=2350ed59-f8b0-4469-ad4a-7ded6097c1f9"},"vehicle_type_id":"4","last_reported":1727867280,"current_range_meters":24800,"station_id":"ce4bhqh2rcd13ifvqhlg","pricing_plan_id":"cebpf4jnsgd1na2vs0mg"},{"bike_id":"5a0d3d90-449e-478b-94b1-488eb695ddbe","system_id":"levelo_inurba_marseille","lat":43.29843,"lon":5.36269,"is_reserved":false,"is_disabled":false,"rental_uris":{"android":"levelo://app?vid=5a0d3d90-449e-478b-94b1-488eb695ddbe","ios":"levelo://app?vid=5a0d3d90-449e-478b-94b1-488eb695ddbe"},"vehicle_type_id":"4","last_reported":1727867280,"current_range_meters":36800,"station_id":"ce4bgpp2rcd13ifvqc3g","pricing_plan_id":"cebpf4jnsgd1na2vs0mg"},{"bike_id":"54edffe6-5495-491b-9f2e-e7373852c7d2","system_id":"levelo_inurba_marseille","lat":43.30542,"lon":5.36708,"is_reserved":false,"is_disabled":false,"rental_uris":{"android":"levelo://app?vid=54edffe6-5495-491b-9f2e-e7373852c7d2","ios":"levelo://app?vid=54edffe6-5495-491b-9f2e-e7373852c7d2"},"vehicle_type_id":"4","last_reported":1727867280,"current_range_meters":36000,"station_id":"ce4bgrp2rcd13ifvqc9g","pricing_plan_id":"cebpf4jnsgd1na2vs0mg"},{"bike_id":"c21b1971-e803-4d69-8040-3929591eb9e9","system_id":"levelo_inurba_marseille","lat":43.30134,"lon":5.38772,"is_reserved":false,"is_disabled":false,"rental_uris":{"android":"levelo://app?vid=c21b1971-e803-4d69-8040-3929591eb9e9","ios":"levelo://app?vid=c21b1971-e803-4d69-8040-3929591eb9e9"},"vehicle_type_id":"4","last_reported":1727867280,"current_range_meters":12000,"station_id":"ce4bghh2rcd13ifvqb60","pricing_plan_id":"cebpf4jnsgd1na2vs0mg"},{"bike_id":"4ceb4daa-94ef-4782-89f1-366723e34673","system_id":"levelo_inurba_marseille","lat":43.27505,"lon":5.42447,"is_reserved":false,"is_disabled":false,"rental_uris":{"android":"levelo://app?vid=4ceb4daa-94ef-4782-89f1-366723e34673","ios":"levelo://app?vid=4ceb4daa-94ef-4782-89f1-366723e34673"},"vehicle_type_id":"4","last_reported":1727867280,"current_range_meters":28800,"station_id":"ce4bhn92rcd13ifvqgrg","pricing_plan_id":"cebpf4jnsgd1na2vs0mg"},{"bike_id":"a2b8cd9d-feb4-4bfc-9051-419ee5152320","system_id":"levelo_inurba_marseille","lat":43.2315,"lon":5.43704,"is_reserved":false,"is_disabled":false,"rental_uris":{"android":"levelo://app?vid=a2b8cd9d-feb4-4bfc-9051-419ee5152320","ios":"levelo://app?vid=a2b8cd9d-feb4-4bfc-9051-419ee5152320"},"vehicle_type_id":"4","last_reported":1727867280,"current_range_meters":38800,"station_id":"ce4bhmp2rcd13ifvqgog","pricing_plan_id":"cebpf4jnsgd1na2vs0mg"},{"bike_id":"eb7c1b6d-ad29-411c-b3fe-e45b6b9386c9","system_id":"levelo_inurba_marseille","lat":43.25499,"lon":5.37647,"is_reserved":false,"is_disabled":false,"rental_uris":{"android":"levelo://app?vid=eb7c1b6d-ad29-411c-b3fe-e45b6b9386c9","ios":"levelo://app?vid=eb7c1b6d-ad29-411c-b3fe-e45b6b9386c9"},"vehicle_type_id":"4","last_reported":1727867280,"current_range_meters":30400,"station_id":"ce4bhh12rcd13ifvqff0","pricing_plan_id":"cebpf4jnsgd1na2vs0mg"},{"bike_id":"8820dce1-16b5-4934-96cb-9938a9a746d3","system_id":"levelo_inurba_marseille","lat":43.23152,"lon":5.43713,"is_reserved":false,"is_disabled":false,"rental_uris":{"android":"levelo://app?vid=8820dce1-16b5-4934-96cb-9938a9a746d3","ios":"levelo://app?vid=8820dce1-16b5-4934-96cb-9938a9a746d3"},"vehicle_type_id":"4","last_reported":1727867280,"current_range_meters":16800,"station_id":"ce4bhmp2rcd13ifvqgog","pricing_plan_id":"cebpf4jnsgd1na2vs0mg"},{"bike_id":"a253aee3-25a2-4169-81f0-7160ec578495","system_id":"levelo_inurba_marseille","lat":43.27371,"lon":5.362644,"is_reserved":false,"is_disabled":false,"rental_uris":{"android":"levelo://app?vid=a253aee3-25a2-4169-81f0-7160ec578495","ios":"levelo://app?vid=a253aee3-25a2-4169-81f0-7160ec578495"},"vehicle_type_id":"4","last_reported":1727867280,"current_range_meters":34800,"station_id":"ce4bhbh2rcd13ifvqeo0","pricing_plan_id":"cebpf4jnsgd1na2vs0mg"},{"bike_id":"39c7dc54-6d62-4b84-92eb-f8a41a50040c","system_id":"levelo_inurba_marseille","lat":43.23155,"lon":5.43707,"is_reserved":false,"is_disabled":false,"rental_uris":{"android":"levelo://app?vid=39c7dc54-6d62-4b84-92eb-f8a41a50040c","ios":"levelo://app?vid=39c7dc54-6d62-4b84-92eb-f8a41a50040c"},"vehicle_type_id":"4","last_reported":1727867280,"current_range_meters":26000,"station_id":"ce4bhmp2rcd13ifvqgog","pricing_plan_id":"cebpf4jnsgd1na2vs0mg"},{"bike_id":"fec1c4e0-ecc5-4650-bb2c-a7b963c3d8fe","system_id":"levelo_inurba_marseille","lat":43.2781,"lon":5.40701,"is_reserved":false,"is_disabled":false,"rental_uris":{"android":"levelo://app?vid=fec1c4e0-ecc5-4650-bb2c-a7b963c3d8fe","ios":"levelo://app?vid=fec1c4e0-ecc5-4650-bb2c-a7b963c3d8fe"},"vehicle_type_id":"4","last_reported":1727867280,"current_range_meters":9200,"station_id":"ce4bhnh2rcd13ifvqgtg","pricing_plan_id":"cebpf4jnsgd1na2vs0mg"},{"bike_id":"123ff6ed-4385-4a10-999b-eb298bcab43c","system_id":"levelo_inurba_marseille","lat":43.33025,"lon":5.39038,"is_reserved":false,"is_disabled":false,"rental_uris":{"android":"levelo://app?vid=123ff6ed-4385-4a10-999b-eb298bcab43c","ios":"levelo://app?vid=123ff6ed-4385-4a10-999b-eb298bcab43c"},"vehicle_type_id":"4","last_reported":1727867280,"current_range_meters":38800,"station_id":"ce4bhr92rcd13ifvqhrg","pricing_plan_id":"cebpf4jnsgd1na2vs0mg"},{"bike_id":"42cac6a6-0734-4f01-ae81-efcc9d0c0a29","system_id":"levelo_inurba_marseille","lat":43.29376,"lon":5.37848,"is_reserved":false,"is_disabled":false,"rental_uris":{"android":"levelo://app?vid=42cac6a6-0734-4f01-ae81-efcc9d0c0a29","ios":"levelo://app?vid=42cac6a6-0734-4f01-ae81-efcc9d0c0a29"},"vehicle_type_id":"4","last_reported":1727867280,"current_range_meters":24800,"station_id":"ce4bgjh2rcd13ifvqbf0","pricing_plan_id":"cebpf4jnsgd1na2vs0mg"},{"bike_id":"0095ee95-1189-45c2-b786-72d8803c637e","system_id":"levelo_inurba_marseille","lat":43.30553,"lon":5.36531,"is_reserved":false,"is_disabled":false,"rental_uris":{"android":"levelo://app?vid=0095ee95-1189-45c2-b786-72d8803c637e","ios":"levelo://app?vid=0095ee95-1189-45c2-b786-72d8803c637e"},"vehicle_type_id":"4","last_reported":1727867280,"current_range_meters":38800,"station_id":"ce4bgs12rcd13ifvqcag","pricing_plan_id":"cebpf4jnsgd1na2vs0mg"},{"bike_id":"2d3f8489-4760-472c-8e7d-072c09854ae3","system_id":"levelo_inurba_marseille","lat":43.25,"lon":5.38927,"is_reserved":false,"is_disabled":false,"rental_uris":{"android":"levelo://app?vid=2d3f8489-4760-472c-8e7d-072c09854ae3","ios":"levelo://app?vid=2d3f8489-4760-472c-8e7d-072c09854ae3"},"vehicle_type_id":"4","last_reported":1727867280,"current_range_meters":8400,"station_id":"ce4bhgp2rcd13ifvqfd0","pricing_plan_id":"cebpf4jnsgd1na2vs0mg"},{"bike_id":"969aa1a2-4eb8-401e-9280-238be2927952","system_id":"levelo_inurba_marseille","lat":43.27499,"lon":5.42445,"is_reserved":false,"is_disabled":false,"rental_uris":{"android":"levelo://app?vid=969aa1a2-4eb8-401e-9280-238be2927952","ios":"levelo://app?vid=969aa1a2-4eb8-401e-9280-238be2927952"},"vehicle_type_id":"4","last_reported":1727867280,"current_range_meters":18800,"station_id":"ce4bhn92rcd13ifvqgrg","pricing_plan_id":"cebpf4jnsgd1na2vs0mg"},{"bike_id":"d2bab9b9-e575-434a-b8f8-f612b8922a6d","system_id":"levelo_inurba_marseille","lat":43.29072,"lon":5.37176,"is_reserved":false,"is_disabled":false,"rental_uris":{"android":"levelo://app?vid=d2bab9b9-e575-434a-b8f8-f612b8922a6d","ios":"levelo://app?vid=d2bab9b9-e575-434a-b8f8-f612b8922a6d"},"vehicle_type_id":"4","last_reported":1727867280,"current_range_meters":22000,"station_id":"ce4bh5p2rcd13ifvqe4g","pricing_plan_id":"cebpf4jnsgd1na2vs0mg"},{"bike_id":"81c8f3eb-4f47-48de-b362-cac094d7e803","system_id":"levelo_inurba_marseille","lat":43.25934,"lon":5.4091,"is_reserved":false,"is_disabled":false,"rental_uris":{"android":"levelo://app?vid=81c8f3eb-4f47-48de-b362-cac094d7e803","ios":"levelo://app?vid=81c8f3eb-4f47-48de-b362-cac094d7e803"},"vehicle_type_id":"4","last_reported":1727867280,"current_range_meters":7200,"station_id":"ce4bhm92rcd13ifvqglg","pricing_plan_id":"cebpf4jnsgd1na2vs0mg"},{"bike_id":"9d79c47d-8505-46d4-9c1e-3ff50963265b","system_id":"levelo_inurba_marseille","lat":43.2718,"lon":5.40984,"is_reserved":false,"is_disabled":false,"rental_uris":{"android":"levelo://app?vid=9d79c47d-8505-46d4-9c1e-3ff50963265b","ios":"levelo://app?vid=9d79c47d-8505-46d4-9c1e-3ff50963265b"},"vehicle_type_id":"4","last_reported":1727867280,"current_range_meters":38800,"station_id":"ce4bhl12rcd13ifvqgf0","pricing_plan_id":"cebpf4jnsgd1na2vs0mg"},{"bike_id":"f13ce329-f8b8-4bb6-af15-73a2a240f5fe","system_id":"levelo_inurba_marseille","lat":43.32218,"lon":5.36747,"is_reserved":false,"is_disabled":false,"rental_uris":{"android":"levelo://app?vid=f13ce329-f8b8-4bb6-af15-73a2a240f5fe","ios":"levelo://app?vid=f13ce329-f8b8-4bb6-af15-73a2a240f5fe"},"vehicle_type_id":"4","last_reported":1727867280,"current_range_meters":29600,"station_id":"ce4bhs12rcd13ifvqhvg","pricing_plan_id":"cebpf4jnsgd1na2vs0mg"},{"bike_id":"070e769f-47d6-4acc-8ccb-6be635793b53","system_id":"levelo_inurba_marseille","lat":43.23053,"lon":5.35495,"is_reserved":false,"is_disabled":false,"rental_uris":{"android":"levelo://app?vid=070e769f-47d6-4acc-8ccb-6be635793b53","ios":"levelo://app?vid=070e769f-47d6-4acc-8ccb-6be635793b53"},"vehicle_type_id":"4","last_reported":1727867280,"current_range_meters":16800,"station_id":"cpo3342slgdg3j2ifvpg","pricing_plan_id":"cebpf4jnsgd1na2vs0mg"},{"bike_id":"3de6e063-d170-445d-99e6-b76ac33be872","system_id":"levelo_inurba_marseille","lat":43.23157,"lon":5.43697,"is_reserved":false,"is_disabled":false,"rental_uris":{"android":"levelo://app?vid=3de6e063-d170-445d-99e6-b76ac33be872","ios":"levelo://app?vid=3de6e063-d170-445d-99e6-b76ac33be872"},"vehicle_type_id":"4","last_reported":1727867280,"current_range_meters":17600,"station_id":"ce4bhmp2rcd13ifvqgog","pricing_plan_id":"cebpf4jnsgd1na2vs0mg"},{"bike_id":"49f70484-8757-4395-998e-fc3633fa05de","system_id":"levelo_inurba_marseille","lat":43.32542,"lon":5.4142,"is_reserved":false,"is_disabled":false,"rental_uris":{"android":"levelo://app?vid=49f70484-8757-4395-998e-fc3633fa05de","ios":"levelo://app?vid=49f70484-8757-4395-998e-fc3633fa05de"},"vehicle_type_id":"4","last_reported":1727867280,"current_range_meters":25200,"station_id":"ce4bhq12rcd13ifvqhhg","pricing_plan_id":"cebpf4jnsgd1na2vs0mg"},{"bike_id":"e7f9ec9e-b988-4f37-a0e2-4f60dad53f9f","system_id":"levelo_inurba_marseille","lat":43.284144,"lon":5.375109,"is_reserved":false,"is_disabled":false,"rental_uris":{"android":"levelo://app?vid=e7f9ec9e-b988-4f37-a0e2-4f60dad53f9f","ios":"levelo://app?vid=e7f9ec9e-b988-4f37-a0e2-4f60dad53f9f"},"vehicle_type_id":"4","last_reported":1727867280,"current_range_meters":27600,"station_id":"ce4bh412rcd13ifvqds0","pricing_plan_id":"cebpf4jnsgd1na2vs0mg"},{"bike_id":"fceaeb14-0563-4b0f-885e-a63c514d85cd","system_id":"levelo_inurba_marseille","lat":43.2841,"lon":5.34979,"is_reserved":false,"is_disabled":false,"rental_uris":{"android":"levelo://app?vid=fceaeb14-0563-4b0f-885e-a63c514d85cd","ios":"levelo://app?vid=fceaeb14-0563-4b0f-885e-a63c514d85cd"},"vehicle_type_id":"4","last_reported":1727867280,"current_range_meters":38800,"station_id":"ce4bhbh2rcd13ifvqepg","pricing_plan_id":"cebpf4jnsgd1na2vs0mg"},{"bike_id":"630bf99b-8da5-4fa5-9381-4552175c26f1","system_id":"levelo_inurba_marseille","lat":43.30913,"lon":5.36849,"is_reserved":false,"is_disabled":false,"rental_uris":{"android":"levelo://app?vid=630bf99b-8da5-4fa5-9381-4552175c26f1","ios":"levelo://app?vid=630bf99b-8da5-4fa5-9381-4552175c26f1"},"vehicle_type_id":"4","last_reported":1727867280,"current_range_meters":36800,"station_id":"ce4bgn92rcd13ifvqbvg","pricing_plan_id":"cebpf4jnsgd1na2vs0mg"},{"bike_id":"f8f518e3-bd48-40f5-801a-4ead88758ee2","system_id":"levelo_inurba_marseille","lat":43.32113,"lon":5.36772,"is_reserved":false,"is_disabled":false,"rental_uris":{"android":"levelo://app?vid=f8f518e3-bd48-40f5-801a-4ead88758ee2","ios":"levelo://app?vid=f8f518e3-bd48-40f5-801a-4ead88758ee2"},"vehicle_type_id":"4","last_reported":1727867280,"current_range_meters":9600,"station_id":"ce4bhrh2rcd13ifvqhug","pricing_plan_id":"cebpf4jnsgd1na2vs0mg"},{"bike_id":"a794d5ed-d3e3-4d3d-80c1-8f4bf2cc2eb8","system_id":"levelo_inurba_marseille","lat":43.32651,"lon":5.41365,"is_reserved":false,"is_disabled":false,"rental_uris":{"android":"levelo://app?vid=a794d5ed-d3e3-4d3d-80c1-8f4bf2cc2eb8","ios":"levelo://app?vid=a794d5ed-d3e3-4d3d-80c1-8f4bf2cc2eb8"},"vehicle_type_id":"4","last_reported":1727867280,"current_range_meters":20400,"station_id":"ce4bhqh2rcd13ifvqhmg","pricing_plan_id":"cebpf4jnsgd1na2vs0mg"},{"bike_id":"cdb7cf2e-2e87-4673-920d-e49ad8e2f5e8","system_id":"levelo_inurba_marseille","lat":43.29625,"lon":5.37151,"is_reserved":false,"is_disabled":false,"rental_uris":{"android":"levelo://app?vid=cdb7cf2e-2e87-4673-920d-e49ad8e2f5e8","ios":"levelo://app?vid=cdb7cf2e-2e87-4673-920d-e49ad8e2f5e8"},"vehicle_type_id":"4","last_reported":1727867280,"current_range_meters":25600,"station_id":"ce4bgnh2rcd13ifvqc0g","pricing_plan_id":"cebpf4jnsgd1na2vs0mg"},{"bike_id":"b8d0f0fe-9829-4e25-b3fc-9da75c2774f3","system_id":"levelo_inurba_marseille","lat":43.25935,"lon":5.40913,"is_reserved":false,"is_disabled":false,"rental_uris":{"android":"levelo://app?vid=b8d0f0fe-9829-4e25-b3fc-9da75c2774f3","ios":"levelo://app?vid=b8d0f0fe-9829-4e25-b3fc-9da75c2774f3"},"vehicle_type_id":"4","last_reported":1727867280,"current_range_meters":16400,"station_id":"ce4bhm92rcd13ifvqglg","pricing_plan_id":"cebpf4jnsgd1na2vs0mg"},{"bike_id":"1090c467-845e-4a37-83b2-277521f93c9a","system_id":"levelo_inurba_marseille","lat":43.27614,"lon":5.36107,"is_reserved":false,"is_disabled":false,"rental_uris":{"android":"levelo://app?vid=1090c467-845e-4a37-83b2-277521f93c9a","ios":"levelo://app?vid=1090c467-845e-4a37-83b2-277521f93c9a"},"vehicle_type_id":"4","last_reported":1727867280,"current_range_meters":24000,"station_id":"ce4bgj92rcd13ifvqbe0","pricing_plan_id":"cebpf4jnsgd1na2vs0mg"},{"bike_id":"add29882-e415-4ee9-8de1-1553af38535a","system_id":"levelo_inurba_marseille","lat":43.25116,"lon":5.40322,"is_reserved":false,"is_disabled":false,"rental_uris":{"android":"levelo://app?vid=add29882-e415-4ee9-8de1-1553af38535a","ios":"levelo://app?vid=add29882-e415-4ee9-8de1-1553af38535a"},"vehicle_type_id":"4","last_reported":1727867280,"current_range_meters":36400,"station_id":"ce4bhlh2rcd13ifvqgig","pricing_plan_id":"cebpf4jnsgd1na2vs0mg"},{"bike_id":"47d52636-a105-447e-a9a1-a4ac217e6404","system_id":"levelo_inurba_marseille","lat":43.27781,"lon":5.399682,"is_reserved":false,"is_disabled":false,"rental_uris":{"android":"levelo://app?vid=47d52636-a105-447e-a9a1-a4ac217e6404","ios":"levelo://app?vid=47d52636-a105-447e-a9a1-a4ac217e6404"},"vehicle_type_id":"4","last_reported":1727867280,"current_range_meters":20400,"station_id":"ce4bhnh2rcd13ifvqgtg","pricing_plan_id":"cebpf4jnsgd1na2vs0mg"},{"bike_id":"62d9cf17-26e9-40b8-94e7-9cf72e0293ee","system_id":"levelo_inurba_marseille","lat":43.30793,"lon":5.43531,"is_reserved":false,"is_disabled":false,"rental_uris":{"android":"levelo://app?vid=62d9cf17-26e9-40b8-94e7-9cf72e0293ee","ios":"levelo://app?vid=62d9cf17-26e9-40b8-94e7-9cf72e0293ee"},"vehicle_type_id":"4","last_reported":1727867280,"current_range_meters":4800,"station_id":"ce4bhph2rcd13ifvqheg","pricing_plan_id":"cebpf4jnsgd1na2vs0mg"},{"bike_id":"c79512c0-5855-4853-a139-4583c6a4ff0a","system_id":"levelo_inurba_marseille","lat":43.25006,"lon":5.38929,"is_reserved":false,"is_disabled":false,"rental_uris":{"android":"levelo://app?vid=c79512c0-5855-4853-a139-4583c6a4ff0a","ios":"levelo://app?vid=c79512c0-5855-4853-a139-4583c6a4ff0a"},"vehicle_type_id":"4","last_reported":1727867280,"current_range_meters":38800,"station_id":"ce4bhgp2rcd13ifvqfd0","pricing_plan_id":"cebpf4jnsgd1na2vs0mg"},{"bike_id":"4fb7ff78-54e5-4e4f-aa5c-30cbeea1704f","system_id":"levelo_inurba_marseille","lat":43.28843,"lon":5.39321,"is_reserved":false,"is_disabled":false,"rental_uris":{"android":"levelo://app?vid=4fb7ff78-54e5-4e4f-aa5c-30cbeea1704f","ios":"levelo://app?vid=4fb7ff78-54e5-4e4f-aa5c-30cbeea1704f"},"vehicle_type_id":"4","last_reported":1727867280,"current_range_meters":29600,"station_id":"ce4bh2p2rcd13ifvqdi0","pricing_plan_id":"cebpf4jnsgd1na2vs0mg"},{"bike_id":"4938965f-0cf4-4be3-aab3-2cd44f175194","system_id":"levelo_inurba_marseille","lat":43.30422,"lon":5.41279,"is_reserved":false,"is_disabled":false,"rental_uris":{"android":"levelo://app?vid=4938965f-0cf4-4be3-aab3-2cd44f175194","ios":"levelo://app?vid=4938965f-0cf4-4be3-aab3-2cd44f175194"},"vehicle_type_id":"4","last_reported":1727867280,"current_range_meters":33200,"station_id":"ce4bhop2rcd13ifvqh8g","pricing_plan_id":"cebpf4jnsgd1na2vs0mg"},{"bike_id":"94eb947a-ad36-47f0-bbd9-f03b94063c72","system_id":"levelo_inurba_marseille","lat":43.2694,"lon":5.40252,"is_reserved":false,"is_disabled":false,"rental_uris":{"android":"levelo://app?vid=94eb947a-ad36-47f0-bbd9-f03b94063c72","ios":"levelo://app?vid=94eb947a-ad36-47f0-bbd9-f03b94063c72"},"vehicle_type_id":"4","last_reported":1727867280,"current_range_meters":8800,"station_id":"cjm6bp8fraef2m0cb0m0","pricing_plan_id":"cebpf4jnsgd1na2vs0mg"},{"bike_id":"bade70f9-e511-4283-b212-5526921bfb00","system_id":"levelo_inurba_marseille","lat":43.32538,"lon":5.41425,"is_reserved":false,"is_disabled":false,"rental_uris":{"android":"levelo://app?vid=bade70f9-e511-4283-b212-5526921bfb00","ios":"levelo://app?vid=bade70f9-e511-4283-b212-5526921bfb00"},"vehicle_type_id":"4","last_reported":1727867280,"current_range_meters":5600,"station_id":"ce4bhq12rcd13ifvqhhg","pricing_plan_id":"cebpf4jnsgd1na2vs0mg"},{"bike_id":"9133ee8d-ccd2-4140-a7a0-c7c1092ce7bc","system_id":"levelo_inurba_marseille","lat":43.31691,"lon":5.40476,"is_reserved":false,"is_disabled":false,"rental_uris":{"android":"levelo://app?vid=9133ee8d-ccd2-4140-a7a0-c7c1092ce7bc","ios":"levelo://app?vid=9133ee8d-ccd2-4140-a7a0-c7c1092ce7bc"},"vehicle_type_id":"4","last_reported":1727867280,"current_range_meters":32800,"station_id":"ce4bh012rcd13ifvqd00","pricing_plan_id":"cebpf4jnsgd1na2vs0mg"},{"bike_id":"a2d8eb35-2330-409a-9b2c-e220964f4e99","system_id":"levelo_inurba_marseille","lat":43.26031,"lon":5.37545,"is_reserved":false,"is_disabled":false,"rental_uris":{"android":"levelo://app?vid=a2d8eb35-2330-409a-9b2c-e220964f4e99","ios":"levelo://app?vid=a2d8eb35-2330-409a-9b2c-e220964f4e99"},"vehicle_type_id":"4","last_reported":1727867280,"current_range_meters":8400,"station_id":"ce4bhgh2rcd13ifvqfa0","pricing_plan_id":"cebpf4jnsgd1na2vs0mg"},{"bike_id":"3bbea3d4-c54c-42db-a520-1334d156c3d8","system_id":"levelo_inurba_marseille","lat":43.33026,"lon":5.39034,"is_reserved":false,"is_disabled":false,"rental_uris":{"android":"levelo://app?vid=3bbea3d4-c54c-42db-a520-1334d156c3d8","ios":"levelo://app?vid=3bbea3d4-c54c-42db-a520-1334d156c3d8"},"vehicle_type_id":"4","last_reported":1727867280,"current_range_meters":18000,"station_id":"ce4bhr92rcd13ifvqhrg","pricing_plan_id":"cebpf4jnsgd1na2vs0mg"},{"bike_id":"dc51fba8-1576-4e6f-9737-ee877150796f","system_id":"levelo_inurba_marseille","lat":43.30099,"lon":5.39087,"is_reserved":false,"is_disabled":false,"rental_uris":{"android":"levelo://app?vid=dc51fba8-1576-4e6f-9737-ee877150796f","ios":"levelo://app?vid=dc51fba8-1576-4e6f-9737-ee877150796f"},"vehicle_type_id":"4","last_reported":1727867280,"current_range_meters":5600,"station_id":"ce4bh192rcd13ifvqdb0","pricing_plan_id":"cebpf4jnsgd1na2vs0mg"},{"bike_id":"57a691a8-2598-4db5-9c3d-2c8d584fa97a","system_id":"levelo_inurba_marseille","lat":43.3248,"lon":5.36558,"is_reserved":false,"is_disabled":false,"rental_uris":{"android":"levelo://app?vid=57a691a8-2598-4db5-9c3d-2c8d584fa97a","ios":"levelo://app?vid=57a691a8-2598-4db5-9c3d-2c8d584fa97a"},"vehicle_type_id":"4","last_reported":1727867280,"current_range_meters":38400,"station_id":"","pricing_plan_id":"cebpf4jnsgd1na2vs0mg"},{"bike_id":"b7b2c6a4-94bb-4e4c-942a-7dd2f55032d9","system_id":"levelo_inurba_marseille","lat":43.3055,"lon":5.36526,"is_reserved":false,"is_disabled":false,"rental_uris":{"android":"levelo://app?vid=b7b2c6a4-94bb-4e4c-942a-7dd2f55032d9","ios":"levelo://app?vid=b7b2c6a4-94bb-4e4c-942a-7dd2f55032d9"},"vehicle_type_id":"4","last_reported":1727867280,"current_range_meters":28800,"station_id":"ce4bgs12rcd13ifvqcag","pricing_plan_id":"cebpf4jnsgd1na2vs0mg"},{"bike_id":"59488e4b-298c-4bd5-9b76-f732ec93e1e3","system_id":"levelo_inurba_marseille","lat":43.29912,"lon":5.37476,"is_reserved":false,"is_disabled":false,"rental_uris":{"android":"levelo://app?vid=59488e4b-298c-4bd5-9b76-f732ec93e1e3","ios":"levelo://app?vid=59488e4b-298c-4bd5-9b76-f732ec93e1e3"},"vehicle_type_id":"4","last_reported":1727867280,"current_range_meters":36400,"station_id":"ce4bgjh2rcd13ifvqbg0","pricing_plan_id":"cebpf4jnsgd1na2vs0mg"},{"bike_id":"9e0f8531-ac87-4939-876c-6806e8dfeda9","system_id":"levelo_inurba_marseille","lat":43.23151,"lon":5.43709,"is_reserved":false,"is_disabled":false,"rental_uris":{"android":"levelo://app?vid=9e0f8531-ac87-4939-876c-6806e8dfeda9","ios":"levelo://app?vid=9e0f8531-ac87-4939-876c-6806e8dfeda9"},"vehicle_type_id":"4","last_reported":1727867280,"current_range_meters":8000,"station_id":"ce4bhmp2rcd13ifvqgog","pricing_plan_id":"cebpf4jnsgd1na2vs0mg"},{"bike_id":"53c6fe7a-c5f0-4c29-bdb6-08c6c7db5c71","system_id":"levelo_inurba_marseille","lat":43.3207,"lon":5.36754,"is_reserved":false,"is_disabled":false,"rental_uris":{"android":"levelo://app?vid=53c6fe7a-c5f0-4c29-bdb6-08c6c7db5c71","ios":"levelo://app?vid=53c6fe7a-c5f0-4c29-bdb6-08c6c7db5c71"},"vehicle_type_id":"4","last_reported":1727867280,"current_range_meters":16800,"station_id":"ce4bhrh2rcd13ifvqhug","pricing_plan_id":"cebpf4jnsgd1na2vs0mg"},{"bike_id":"752fa587-4efa-4c3d-8f25-f4befaeb5f78","system_id":"levelo_inurba_marseille","lat":43.27071,"lon":5.42282,"is_reserved":false,"is_disabled":false,"rental_uris":{"android":"levelo://app?vid=752fa587-4efa-4c3d-8f25-f4befaeb5f78","ios":"levelo://app?vid=752fa587-4efa-4c3d-8f25-f4befaeb5f78"},"vehicle_type_id":"4","last_reported":1727867280,"current_range_meters":23200,"station_id":"ce4bhk92rcd13ifvqgb0","pricing_plan_id":"cebpf4jnsgd1na2vs0mg"},{"bike_id":"b29bef7e-f629-4992-8dce-37c2c2cc32d2","system_id":"levelo_inurba_marseille","lat":43.29838,"lon":5.36269,"is_reserved":false,"is_disabled":false,"rental_uris":{"android":"levelo://app?vid=b29bef7e-f629-4992-8dce-37c2c2cc32d2","ios":"levelo://app?vid=b29bef7e-f629-4992-8dce-37c2c2cc32d2"},"vehicle_type_id":"4","last_reported":1727867280,"current_range_meters":34800,"station_id":"ce4bgpp2rcd13ifvqc3g","pricing_plan_id":"cebpf4jnsgd1na2vs0mg"},{"bike_id":"df952b1f-0654-4cff-8972-4495d5d3b837","system_id":"levelo_inurba_marseille","lat":43.3375,"lon":5.37479,"is_reserved":false,"is_disabled":false,"rental_uris":{"android":"levelo://app?vid=df952b1f-0654-4cff-8972-4495d5d3b837","ios":"levelo://app?vid=df952b1f-0654-4cff-8972-4495d5d3b837"},"vehicle_type_id":"4","last_reported":1727867280,"current_range_meters":8400,"station_id":"","pricing_plan_id":"cebpf4jnsgd1na2vs0mg"},{"bike_id":"804e3d71-db47-4264-9445-f1dd957f20d8","system_id":"levelo_inurba_marseille","lat":43.30311,"lon":5.36903,"is_reserved":false,"is_disabled":false,"rental_uris":{"android":"levelo://app?vid=804e3d71-db47-4264-9445-f1dd957f20d8","ios":"levelo://app?vid=804e3d71-db47-4264-9445-f1dd957f20d8"},"vehicle_type_id":"4","last_reported":1727867280,"current_range_meters":39200,"station_id":"ce4bgqh2rcd13ifvqc5g","pricing_plan_id":"cebpf4jnsgd1na2vs0mg"},{"bike_id":"8192b593-9aca-468c-b907-030a74254c59","system_id":"levelo_inurba_marseille","lat":43.30907,"lon":5.36854,"is_reserved":false,"is_disabled":false,"rental_uris":{"android":"levelo://app?vid=8192b593-9aca-468c-b907-030a74254c59","ios":"levelo://app?vid=8192b593-9aca-468c-b907-030a74254c59"},"vehicle_type_id":"4","last_reported":1727867280,"current_range_meters":8000,"station_id":"ce4bgn92rcd13ifvqbvg","pricing_plan_id":"cebpf4jnsgd1na2vs0mg"},{"bike_id":"7342b183-3ae0-4b13-bc62-309d7f65e884","system_id":"levelo_inurba_marseille","lat":43.231476,"lon":5.437177,"is_reserved":false,"is_disabled":false,"rental_uris":{"android":"levelo://app?vid=7342b183-3ae0-4b13-bc62-309d7f65e884","ios":"levelo://app?vid=7342b183-3ae0-4b13-bc62-309d7f65e884"},"vehicle_type_id":"4","last_reported":1727867280,"current_range_meters":16800,"station_id":"ce4bhmp2rcd13ifvqgog","pricing_plan_id":"cebpf4jnsgd1na2vs0mg"},{"bike_id":"ebdc203d-7cc2-4cd6-8aa2-f6211f747a1c","system_id":"levelo_inurba_marseille","lat":43.24548,"lon":5.39518,"is_reserved":false,"is_disabled":false,"rental_uris":{"android":"levelo://app?vid=ebdc203d-7cc2-4cd6-8aa2-f6211f747a1c","ios":"levelo://app?vid=ebdc203d-7cc2-4cd6-8aa2-f6211f747a1c"},"vehicle_type_id":"4","last_reported":1727867280,"current_range_meters":17200,"station_id":"ce4bhlp2rcd13ifvqgjg","pricing_plan_id":"cebpf4jnsgd1na2vs0mg"},{"bike_id":"12492740-aab6-4171-851d-b5ed7b1cca55","system_id":"levelo_inurba_marseille","lat":43.29282,"lon":5.40114,"is_reserved":false,"is_disabled":false,"rental_uris":{"android":"levelo://app?vid=12492740-aab6-4171-851d-b5ed7b1cca55","ios":"levelo://app?vid=12492740-aab6-4171-851d-b5ed7b1cca55"},"vehicle_type_id":"4","last_reported":1727867280,"current_range_meters":27200,"station_id":"ce4bh312rcd13ifvqdk0","pricing_plan_id":"cebpf4jnsgd1na2vs0mg"},{"bike_id":"ee30eb65-e2b5-42f0-9767-04264112c239","system_id":"levelo_inurba_marseille","lat":43.30546,"lon":5.36533,"is_reserved":false,"is_disabled":false,"rental_uris":{"android":"levelo://app?vid=ee30eb65-e2b5-42f0-9767-04264112c239","ios":"levelo://app?vid=ee30eb65-e2b5-42f0-9767-04264112c239"},"vehicle_type_id":"4","last_reported":1727867280,"current_range_meters":14800,"station_id":"ce4bgs12rcd13ifvqcag","pricing_plan_id":"cebpf4jnsgd1na2vs0mg"},{"bike_id":"92778824-43d0-48af-977c-04511febaa5e","system_id":"levelo_inurba_marseille","lat":43.33757,"lon":5.37433,"is_reserved":false,"is_disabled":false,"rental_uris":{"android":"levelo://app?vid=92778824-43d0-48af-977c-04511febaa5e","ios":"levelo://app?vid=92778824-43d0-48af-977c-04511febaa5e"},"vehicle_type_id":"4","last_reported":1727867280,"current_range_meters":35200,"station_id":"","pricing_plan_id":"cebpf4jnsgd1na2vs0mg"},{"bike_id":"ac71fb7f-f595-4dab-a1df-f7fe92805bbd","system_id":"levelo_inurba_marseille","lat":43.33606,"lon":5.41024,"is_reserved":false,"is_disabled":false,"rental_uris":{"android":"levelo://app?vid=ac71fb7f-f595-4dab-a1df-f7fe92805bbd","ios":"levelo://app?vid=ac71fb7f-f595-4dab-a1df-f7fe92805bbd"},"vehicle_type_id":"4","last_reported":1727867280,"current_range_meters":9600,"station_id":"ce4bhqh2rcd13ifvqhmg","pricing_plan_id":"cebpf4jnsgd1na2vs0mg"},{"bike_id":"7755968c-1dde-4b85-b4c1-da09675a4ad3","system_id":"levelo_inurba_marseille","lat":43.274843,"lon":5.382574,"is_reserved":false,"is_disabled":false,"rental_uris":{"android":"levelo://app?vid=7755968c-1dde-4b85-b4c1-da09675a4ad3","ios":"levelo://app?vid=7755968c-1dde-4b85-b4c1-da09675a4ad3"},"vehicle_type_id":"4","last_reported":1727867280,"current_range_meters":14000,"station_id":"ce4bhip2rcd13ifvqft0","pricing_plan_id":"cebpf4jnsgd1na2vs0mg"},{"bike_id":"d882c178-db66-4976-adc4-d612f68051db","system_id":"levelo_inurba_marseille","lat":43.25869,"lon":5.39901,"is_reserved":false,"is_disabled":false,"rental_uris":{"android":"levelo://app?vid=d882c178-db66-4976-adc4-d612f68051db","ios":"levelo://app?vid=d882c178-db66-4976-adc4-d612f68051db"},"vehicle_type_id":"4","last_reported":1727867280,"current_range_meters":38800,"station_id":"ce4bhl92rcd13ifvqghg","pricing_plan_id":"cebpf4jnsgd1na2vs0mg"},{"bike_id":"6f56c7d5-80f4-4890-9da3-5901fe31371f","system_id":"levelo_inurba_marseille","lat":43.30278,"lon":5.37703,"is_reserved":false,"is_disabled":false,"rental_uris":{"android":"levelo://app?vid=6f56c7d5-80f4-4890-9da3-5901fe31371f","ios":"levelo://app?vid=6f56c7d5-80f4-4890-9da3-5901fe31371f"},"vehicle_type_id":"4","last_reported":1727867280,"current_range_meters":38800,"station_id":"ce4bguh2rcd13ifvqcj0","pricing_plan_id":"cebpf4jnsgd1na2vs0mg"},{"bike_id":"c24e5f50-a926-40d1-bdc1-3f195a81d222","system_id":"levelo_inurba_marseille","lat":43.25824,"lon":5.39431,"is_reserved":false,"is_disabled":false,"rental_uris":{"android":"levelo://app?vid=c24e5f50-a926-40d1-bdc1-3f195a81d222","ios":"levelo://app?vid=c24e5f50-a926-40d1-bdc1-3f195a81d222"},"vehicle_type_id":"4","last_reported":1727867280,"current_range_meters":9600,"station_id":"ce4bhip2rcd13ifvqft0","pricing_plan_id":"cebpf4jnsgd1na2vs0mg"},{"bike_id":"b2612679-836a-4080-83ee-8dd54a53003e","system_id":"levelo_inurba_marseille","lat":43.31057,"lon":5.37876,"is_reserved":false,"is_disabled":false,"rental_uris":{"android":"levelo://app?vid=b2612679-836a-4080-83ee-8dd54a53003e","ios":"levelo://app?vid=b2612679-836a-4080-83ee-8dd54a53003e"},"vehicle_type_id":"4","last_reported":1727867280,"current_range_meters":29600,"station_id":"ce4bgg92rcd13ifvqb30","pricing_plan_id":"cebpf4jnsgd1na2vs0mg"},{"bike_id":"389dbe3b-4b02-4d49-9def-1a6fa2f84c9b","system_id":"levelo_inurba_marseille","lat":43.30556,"lon":5.36535,"is_reserved":false,"is_disabled":false,"rental_uris":{"android":"levelo://app?vid=389dbe3b-4b02-4d49-9def-1a6fa2f84c9b","ios":"levelo://app?vid=389dbe3b-4b02-4d49-9def-1a6fa2f84c9b"},"vehicle_type_id":"4","last_reported":1727867280,"current_range_meters":30400,"station_id":"ce4bgs12rcd13ifvqcag","pricing_plan_id":"cebpf4jnsgd1na2vs0mg"},{"bike_id":"a3f70483-fe18-44d6-9457-77df7d0dd9bb","system_id":"levelo_inurba_marseille","lat":43.29302,"lon":5.37459,"is_reserved":false,"is_disabled":false,"rental_uris":{"android":"levelo://app?vid=a3f70483-fe18-44d6-9457-77df7d0dd9bb","ios":"levelo://app?vid=a3f70483-fe18-44d6-9457-77df7d0dd9bb"},"vehicle_type_id":"4","last_reported":1727867280,"current_range_meters":16000,"station_id":"ce4bgi12rcd13ifvqb70","pricing_plan_id":"cebpf4jnsgd1na2vs0mg"},{"bike_id":"e87b5406-bfc3-450b-90be-ea33674025e0","system_id":"levelo_inurba_marseille","lat":43.31352,"lon":5.36717,"is_reserved":false,"is_disabled":false,"rental_uris":{"android":"levelo://app?vid=e87b5406-bfc3-450b-90be-ea33674025e0","ios":"levelo://app?vid=e87b5406-bfc3-450b-90be-ea33674025e0"},"vehicle_type_id":"4","last_reported":1727867280,"current_range_meters":38800,"station_id":"ce4bgr92rcd13ifvqc6g","pricing_plan_id":"cebpf4jnsgd1na2vs0mg"},{"bike_id":"1bbd7508-357c-42f0-82fa-0b7652d09d2b","system_id":"levelo_inurba_marseille","lat":43.33607,"lon":5.41013,"is_reserved":false,"is_disabled":false,"rental_uris":{"android":"levelo://app?vid=1bbd7508-357c-42f0-82fa-0b7652d09d2b","ios":"levelo://app?vid=1bbd7508-357c-42f0-82fa-0b7652d09d2b"},"vehicle_type_id":"4","last_reported":1727867280,"current_range_meters":38800,"station_id":"ce4bhqh2rcd13ifvqhmg","pricing_plan_id":"cebpf4jnsgd1na2vs0mg"},{"bike_id":"a6dee003-1feb-474f-90ab-955ae11dce3f","system_id":"levelo_inurba_marseille","lat":43.29776,"lon":5.37104,"is_reserved":false,"is_disabled":false,"rental_uris":{"android":"levelo://app?vid=a6dee003-1feb-474f-90ab-955ae11dce3f","ios":"levelo://app?vid=a6dee003-1feb-474f-90ab-955ae11dce3f"},"vehicle_type_id":"4","last_reported":1727867280,"current_range_meters":18000,"station_id":"ce4bgop2rcd13ifvqc1g","pricing_plan_id":"cebpf4jnsgd1na2vs0mg"},{"bike_id":"4585a52b-704e-4d73-8d39-1c11231f55bb","system_id":"levelo_inurba_marseille","lat":43.29972,"lon":5.37199,"is_reserved":false,"is_disabled":false,"rental_uris":{"android":"levelo://app?vid=4585a52b-704e-4d73-8d39-1c11231f55bb","ios":"levelo://app?vid=4585a52b-704e-4d73-8d39-1c11231f55bb"},"vehicle_type_id":"4","last_reported":1727867280,"current_range_meters":38800,"station_id":"ce4bgr92rcd13ifvqc7g","pricing_plan_id":"cebpf4jnsgd1na2vs0mg"},{"bike_id":"4bd2bdb0-2428-4b26-b66c-938192bf3d68","system_id":"levelo_inurba_marseille","lat":43.33757,"lon":5.37417,"is_reserved":false,"is_disabled":false,"rental_uris":{"android":"levelo://app?vid=4bd2bdb0-2428-4b26-b66c-938192bf3d68","ios":"levelo://app?vid=4bd2bdb0-2428-4b26-b66c-938192bf3d68"},"vehicle_type_id":"4","last_reported":1727867280,"current_range_meters":33600,"station_id":"","pricing_plan_id":"cebpf4jnsgd1na2vs0mg"},{"bike_id":"e64a0093-32b0-4ded-ba1f-6ae7c472f95a","system_id":"levelo_inurba_marseille","lat":43.26277,"lon":5.39669,"is_reserved":false,"is_disabled":false,"rental_uris":{"android":"levelo://app?vid=e64a0093-32b0-4ded-ba1f-6ae7c472f95a","ios":"levelo://app?vid=e64a0093-32b0-4ded-ba1f-6ae7c472f95a"},"vehicle_type_id":"4","last_reported":1727867280,"current_range_meters":36000,"station_id":"ce4bhi12rcd13ifvqfq0","pricing_plan_id":"cebpf4jnsgd1na2vs0mg"},{"bike_id":"c6aefcac-9b59-4be9-ba9c-464572888e5a","system_id":"levelo_inurba_marseille","lat":43.30545,"lon":5.36707,"is_reserved":false,"is_disabled":false,"rental_uris":{"android":"levelo://app?vid=c6aefcac-9b59-4be9-ba9c-464572888e5a","ios":"levelo://app?vid=c6aefcac-9b59-4be9-ba9c-464572888e5a"},"vehicle_type_id":"4","last_reported":1727867280,"current_range_meters":39200,"station_id":"ce4bgrp2rcd13ifvqc9g","pricing_plan_id":"cebpf4jnsgd1na2vs0mg"},{"bike_id":"e327d4c5-e7de-478d-89b6-da24369c6f53","system_id":"levelo_inurba_marseille","lat":43.29851,"lon":5.36271,"is_reserved":false,"is_disabled":false,"rental_uris":{"android":"levelo://app?vid=e327d4c5-e7de-478d-89b6-da24369c6f53","ios":"levelo://app?vid=e327d4c5-e7de-478d-89b6-da24369c6f53"},"vehicle_type_id":"4","last_reported":1727867280,"current_range_meters":38800,"station_id":"ce4bgpp2rcd13ifvqc3g","pricing_plan_id":"cebpf4jnsgd1na2vs0mg"},{"bike_id":"8a000fa7-b3d8-4601-893e-031fbcff3074","system_id":"levelo_inurba_marseille","lat":43.25117,"lon":5.40316,"is_reserved":false,"is_disabled":false,"rental_uris":{"android":"levelo://app?vid=8a000fa7-b3d8-4601-893e-031fbcff3074","ios":"levelo://app?vid=8a000fa7-b3d8-4601-893e-031fbcff3074"},"vehicle_type_id":"4","last_reported":1727867280,"current_range_meters":9600,"station_id":"ce4bhlh2rcd13ifvqgig","pricing_plan_id":"cebpf4jnsgd1na2vs0mg"},{"bike_id":"c7b9d95c-e0a1-459d-b666-50e7dd71d420","system_id":"levelo_inurba_marseille","lat":43.25728,"lon":5.41105,"is_reserved":false,"is_disabled":false,"rental_uris":{"android":"levelo://app?vid=c7b9d95c-e0a1-459d-b666-50e7dd71d420","ios":"levelo://app?vid=c7b9d95c-e0a1-459d-b666-50e7dd71d420"},"vehicle_type_id":"4","last_reported":1727867280,"current_range_meters":6000,"station_id":"ce4bhkp2rcd13ifvqgd0","pricing_plan_id":"cebpf4jnsgd1na2vs0mg"},{"bike_id":"81b94490-1dea-44a2-9e98-cf0c9bd477b0","system_id":"levelo_inurba_marseille","lat":43.30313,"lon":5.36903,"is_reserved":false,"is_disabled":false,"rental_uris":{"android":"levelo://app?vid=81b94490-1dea-44a2-9e98-cf0c9bd477b0","ios":"levelo://app?vid=81b94490-1dea-44a2-9e98-cf0c9bd477b0"},"vehicle_type_id":"4","last_reported":1727867280,"current_range_meters":18800,"station_id":"ce4bgqh2rcd13ifvqc5g","pricing_plan_id":"cebpf4jnsgd1na2vs0mg"},{"bike_id":"52f30e6c-f606-4ff4-8227-96d837b6d159","system_id":"levelo_inurba_marseille","lat":43.29017,"lon":5.38126,"is_reserved":false,"is_disabled":false,"rental_uris":{"android":"levelo://app?vid=52f30e6c-f606-4ff4-8227-96d837b6d159","ios":"levelo://app?vid=52f30e6c-f606-4ff4-8227-96d837b6d159"},"vehicle_type_id":"4","last_reported":1727867280,"current_range_meters":18000,"station_id":"ce4bh4p2rcd13ifvqe1g","pricing_plan_id":"cebpf4jnsgd1na2vs0mg"},{"bike_id":"1e2737e7-54c2-4f7b-aa39-91934f88be6c","system_id":"levelo_inurba_marseille","lat":43.26061,"lon":5.39401,"is_reserved":false,"is_disabled":false,"rental_uris":{"android":"levelo://app?vid=1e2737e7-54c2-4f7b-aa39-91934f88be6c","ios":"levelo://app?vid=1e2737e7-54c2-4f7b-aa39-91934f88be6c"},"vehicle_type_id":"4","last_reported":1727867280,"current_range_meters":12000,"station_id":"ce4bhh92rcd13ifvqfj0","pricing_plan_id":"cebpf4jnsgd1na2vs0mg"},{"bike_id":"2ca17723-8b32-496b-b428-556feeb1d3c4","system_id":"levelo_inurba_marseille","lat":43.2594,"lon":5.40903,"is_reserved":false,"is_disabled":false,"rental_uris":{"android":"levelo://app?vid=2ca17723-8b32-496b-b428-556feeb1d3c4","ios":"levelo://app?vid=2ca17723-8b32-496b-b428-556feeb1d3c4"},"vehicle_type_id":"4","last_reported":1727867280,"current_range_meters":30800,"station_id":"ce4bhm92rcd13ifvqglg","pricing_plan_id":"cebpf4jnsgd1na2vs0mg"},{"bike_id":"66c1cfb0-2b20-433a-94b2-c02013f6c4e9","system_id":"levelo_inurba_marseille","lat":43.30554,"lon":5.36539,"is_reserved":false,"is_disabled":false,"rental_uris":{"android":"levelo://app?vid=66c1cfb0-2b20-433a-94b2-c02013f6c4e9","ios":"levelo://app?vid=66c1cfb0-2b20-433a-94b2-c02013f6c4e9"},"vehicle_type_id":"4","last_reported":1727867280,"current_range_meters":8800,"station_id":"ce4bgs12rcd13ifvqcag","pricing_plan_id":"cebpf4jnsgd1na2vs0mg"},{"bike_id":"7d37349f-bb19-406f-ac5f-7584883c0f0d","system_id":"levelo_inurba_marseille","lat":43.26939,"lon":5.40256,"is_reserved":false,"is_disabled":false,"rental_uris":{"android":"levelo://app?vid=7d37349f-bb19-406f-ac5f-7584883c0f0d","ios":"levelo://app?vid=7d37349f-bb19-406f-ac5f-7584883c0f0d"},"vehicle_type_id":"4","last_reported":1727867280,"current_range_meters":19600,"station_id":"cjm6bp8fraef2m0cb0m0","pricing_plan_id":"cebpf4jnsgd1na2vs0mg"},{"bike_id":"9da4a5f4-1a97-4224-a5a8-18de5740c318","system_id":"levelo_inurba_marseille","lat":43.3054,"lon":5.36535,"is_reserved":false,"is_disabled":false,"rental_uris":{"android":"levelo://app?vid=9da4a5f4-1a97-4224-a5a8-18de5740c318","ios":"levelo://app?vid=9da4a5f4-1a97-4224-a5a8-18de5740c318"},"vehicle_type_id":"4","last_reported":1727867280,"current_range_meters":28800,"station_id":"ce4bgs12rcd13ifvqcag","pricing_plan_id":"cebpf4jnsgd1na2vs0mg"},{"bike_id":"5232706d-f6ed-49c5-82b0-3d08f9db9c69","system_id":"levelo_inurba_marseille","lat":43.29846,"lon":5.36262,"is_reserved":false,"is_disabled":false,"rental_uris":{"android":"levelo://app?vid=5232706d-f6ed-49c5-82b0-3d08f9db9c69","ios":"levelo://app?vid=5232706d-f6ed-49c5-82b0-3d08f9db9c69"},"vehicle_type_id":"4","last_reported":1727867280,"current_range_meters":38800,"station_id":"ce4bgpp2rcd13ifvqc3g","pricing_plan_id":"cebpf4jnsgd1na2vs0mg"},{"bike_id":"6ca24f61-090a-4715-a991-883ca237ff8b","system_id":"levelo_inurba_marseille","lat":43.29846,"lon":5.36275,"is_reserved":false,"is_disabled":false,"rental_uris":{"android":"levelo://app?vid=6ca24f61-090a-4715-a991-883ca237ff8b","ios":"levelo://app?vid=6ca24f61-090a-4715-a991-883ca237ff8b"},"vehicle_type_id":"4","last_reported":1727867280,"current_range_meters":38000,"station_id":"ce4bgpp2rcd13ifvqc3g","pricing_plan_id":"cebpf4jnsgd1na2vs0mg"},{"bike_id":"23fcd5dc-52e3-40b6-b601-8da82c35b64a","system_id":"levelo_inurba_marseille","lat":43.23196,"lon":5.35553,"is_reserved":false,"is_disabled":false,"rental_uris":{"android":"levelo://app?vid=23fcd5dc-52e3-40b6-b601-8da82c35b64a","ios":"levelo://app?vid=23fcd5dc-52e3-40b6-b601-8da82c35b64a"},"vehicle_type_id":"4","last_reported":1727867280,"current_range_meters":7200,"station_id":"ce4bhu92rcd13ifvqi70","pricing_plan_id":"cebpf4jnsgd1na2vs0mg"},{"bike_id":"8eebbf9b-09d5-41f7-9fcb-1a511b9e8ee3","system_id":"levelo_inurba_marseille","lat":43.23149,"lon":5.43714,"is_reserved":false,"is_disabled":false,"rental_uris":{"android":"levelo://app?vid=8eebbf9b-09d5-41f7-9fcb-1a511b9e8ee3","ios":"levelo://app?vid=8eebbf9b-09d5-41f7-9fcb-1a511b9e8ee3"},"vehicle_type_id":"4","last_reported":1727867280,"current_range_meters":38800,"station_id":"ce4bhmp2rcd13ifvqgog","pricing_plan_id":"cebpf4jnsgd1na2vs0mg"},{"bike_id":"3950dbb9-bb5e-4d2d-844f-21e848370ba3","system_id":"levelo_inurba_marseille","lat":43.29041,"lon":5.37573,"is_reserved":false,"is_disabled":false,"rental_uris":{"android":"levelo://app?vid=3950dbb9-bb5e-4d2d-844f-21e848370ba3","ios":"levelo://app?vid=3950dbb9-bb5e-4d2d-844f-21e848370ba3"},"vehicle_type_id":"4","last_reported":1727867280,"current_range_meters":35600,"station_id":"ce4bh692rcd13ifvqe90","pricing_plan_id":"cebpf4jnsgd1na2vs0mg"},{"bike_id":"0525355d-4320-47a5-8dcd-2ebc85c2a1e1","system_id":"levelo_inurba_marseille","lat":43.29621,"lon":5.37157,"is_reserved":false,"is_disabled":false,"rental_uris":{"android":"levelo://app?vid=0525355d-4320-47a5-8dcd-2ebc85c2a1e1","ios":"levelo://app?vid=0525355d-4320-47a5-8dcd-2ebc85c2a1e1"},"vehicle_type_id":"4","last_reported":1727867280,"current_range_meters":24400,"station_id":"ce4bgnh2rcd13ifvqc0g","pricing_plan_id":"cebpf4jnsgd1na2vs0mg"},{"bike_id":"ff81554b-3927-4266-9e7d-a2b22a630c94","system_id":"levelo_inurba_marseille","lat":43.25502,"lon":5.37648,"is_reserved":false,"is_disabled":false,"rental_uris":{"android":"levelo://app?vid=ff81554b-3927-4266-9e7d-a2b22a630c94","ios":"levelo://app?vid=ff81554b-3927-4266-9e7d-a2b22a630c94"},"vehicle_type_id":"4","last_reported":1727867280,"current_range_meters":7200,"station_id":"ce4bhh12rcd13ifvqff0","pricing_plan_id":"cebpf4jnsgd1na2vs0mg"},{"bike_id":"a163300a-e4b1-41bf-adba-9eb6dbc0cbdb","system_id":"levelo_inurba_marseille","lat":43.30882,"lon":5.39636,"is_reserved":false,"is_disabled":false,"rental_uris":{"android":"levelo://app?vid=a163300a-e4b1-41bf-adba-9eb6dbc0cbdb","ios":"levelo://app?vid=a163300a-e4b1-41bf-adba-9eb6dbc0cbdb"},"vehicle_type_id":"4","last_reported":1727867280,"current_range_meters":30800,"station_id":"ce4bh012rcd13ifvqcv0","pricing_plan_id":"cebpf4jnsgd1na2vs0mg"},{"bike_id":"54e018a7-7fbc-4580-b942-5a53fc542609","system_id":"levelo_inurba_marseille","lat":43.241811,"lon":5.397311,"is_reserved":false,"is_disabled":false,"rental_uris":{"android":"levelo://app?vid=54e018a7-7fbc-4580-b942-5a53fc542609","ios":"levelo://app?vid=54e018a7-7fbc-4580-b942-5a53fc542609"},"vehicle_type_id":"4","last_reported":1727867280,"current_range_meters":11200,"station_id":"ce4bhn12rcd13ifvqgpg","pricing_plan_id":"cebpf4jnsgd1na2vs0mg"},{"bike_id":"772088a0-7828-4f69-ba5d-0f6cdb83dec2","system_id":"levelo_inurba_marseille","lat":43.337444,"lon":5.374475,"is_reserved":false,"is_disabled":false,"rental_uris":{"android":"levelo://app?vid=772088a0-7828-4f69-ba5d-0f6cdb83dec2","ios":"levelo://app?vid=772088a0-7828-4f69-ba5d-0f6cdb83dec2"},"vehicle_type_id":"4","last_reported":1727867280,"current_range_meters":6400,"station_id":"","pricing_plan_id":"cebpf4jnsgd1na2vs0mg"},{"bike_id":"f3985b92-ec46-44e2-815d-ba7f4279e0cc","system_id":"levelo_inurba_marseille","lat":43.30457,"lon":5.4018,"is_reserved":false,"is_disabled":false,"rental_uris":{"android":"levelo://app?vid=f3985b92-ec46-44e2-815d-ba7f4279e0cc","ios":"levelo://app?vid=f3985b92-ec46-44e2-815d-ba7f4279e0cc"},"vehicle_type_id":"4","last_reported":1727867280,"current_range_meters":14000,"station_id":"","pricing_plan_id":"cebpf4jnsgd1na2vs0mg"},{"bike_id":"7a7e4978-023c-4125-ae1e-54a889e3191f","system_id":"levelo_inurba_marseille","lat":43.30557,"lon":5.36537,"is_reserved":false,"is_disabled":false,"rental_uris":{"android":"levelo://app?vid=7a7e4978-023c-4125-ae1e-54a889e3191f","ios":"levelo://app?vid=7a7e4978-023c-4125-ae1e-54a889e3191f"},"vehicle_type_id":"4","last_reported":1727867280,"current_range_meters":23200,"station_id":"ce4bgs12rcd13ifvqcag","pricing_plan_id":"cebpf4jnsgd1na2vs0mg"},{"bike_id":"cd385f71-7ba5-497a-9c21-e01e06c76d4e","system_id":"levelo_inurba_marseille","lat":43.320303,"lon":5.415527,"is_reserved":false,"is_disabled":false,"rental_uris":{"android":"levelo://app?vid=cd385f71-7ba5-497a-9c21-e01e06c76d4e","ios":"levelo://app?vid=cd385f71-7ba5-497a-9c21-e01e06c76d4e"},"vehicle_type_id":"4","last_reported":1727867280,"current_range_meters":9600,"station_id":"ce4bhq92rcd13ifvqhkg","pricing_plan_id":"cebpf4jnsgd1na2vs0mg"},{"bike_id":"e9878543-7f1c-4063-ba42-0856f97a7591","system_id":"levelo_inurba_marseille","lat":43.29797,"lon":5.40395,"is_reserved":false,"is_disabled":false,"rental_uris":{"android":"levelo://app?vid=e9878543-7f1c-4063-ba42-0856f97a7591","ios":"levelo://app?vid=e9878543-7f1c-4063-ba42-0856f97a7591"},"vehicle_type_id":"4","last_reported":1727867280,"current_range_meters":17600,"station_id":"ce4bh112rcd13ifvqd90","pricing_plan_id":"cebpf4jnsgd1na2vs0mg"},{"bike_id":"8b079757-e6cd-4f6e-ade5-5df3e832340e","system_id":"levelo_inurba_marseille","lat":43.32537,"lon":5.4142,"is_reserved":false,"is_disabled":false,"rental_uris":{"android":"levelo://app?vid=8b079757-e6cd-4f6e-ade5-5df3e832340e","ios":"levelo://app?vid=8b079757-e6cd-4f6e-ade5-5df3e832340e"},"vehicle_type_id":"4","last_reported":1727867280,"current_range_meters":36000,"station_id":"ce4bhq12rcd13ifvqhhg","pricing_plan_id":"cebpf4jnsgd1na2vs0mg"},{"bike_id":"084b55e2-5b9d-49e5-b805-c69100c135ab","system_id":"levelo_inurba_marseille","lat":43.30793,"lon":5.37641,"is_reserved":false,"is_disabled":false,"rental_uris":{"android":"levelo://app?vid=084b55e2-5b9d-49e5-b805-c69100c135ab","ios":"levelo://app?vid=084b55e2-5b9d-49e5-b805-c69100c135ab"},"vehicle_type_id":"4","last_reported":1727867280,"current_range_meters":31200,"station_id":"ce4bgv92rcd13ifvqcq0","pricing_plan_id":"cebpf4jnsgd1na2vs0mg"},{"bike_id":"93a09bd4-b4ac-4185-9e12-0f57b4f3984d","system_id":"levelo_inurba_marseille","lat":43.23157,"lon":5.43692,"is_reserved":false,"is_disabled":false,"rental_uris":{"android":"levelo://app?vid=93a09bd4-b4ac-4185-9e12-0f57b4f3984d","ios":"levelo://app?vid=93a09bd4-b4ac-4185-9e12-0f57b4f3984d"},"vehicle_type_id":"4","last_reported":1727867280,"current_range_meters":38800,"station_id":"ce4bhmp2rcd13ifvqgog","pricing_plan_id":"cebpf4jnsgd1na2vs0mg"},{"bike_id":"f2eafe04-603e-4fb0-8676-42d468e4f953","system_id":"levelo_inurba_marseille","lat":43.33756,"lon":5.37444,"is_reserved":false,"is_disabled":false,"rental_uris":{"android":"levelo://app?vid=f2eafe04-603e-4fb0-8676-42d468e4f953","ios":"levelo://app?vid=f2eafe04-603e-4fb0-8676-42d468e4f953"},"vehicle_type_id":"4","last_reported":1727867280,"current_range_meters":38800,"station_id":"","pricing_plan_id":"cebpf4jnsgd1na2vs0mg"},{"bike_id":"2cd4f78f-27e8-4ffa-b41d-1ce28787607e","system_id":"levelo_inurba_marseille","lat":43.29956,"lon":5.41312,"is_reserved":false,"is_disabled":false,"rental_uris":{"android":"levelo://app?vid=2cd4f78f-27e8-4ffa-b41d-1ce28787607e","ios":"levelo://app?vid=2cd4f78f-27e8-4ffa-b41d-1ce28787607e"},"vehicle_type_id":"4","last_reported":1727867280,"current_range_meters":23200,"station_id":"ce4bhp12rcd13ifvqh9g","pricing_plan_id":"cebpf4jnsgd1na2vs0mg"},{"bike_id":"50fb320e-909d-433c-86e1-186aedb0774b","system_id":"levelo_inurba_marseille","lat":43.29558,"lon":5.42293,"is_reserved":false,"is_disabled":false,"rental_uris":{"android":"levelo://app?vid=50fb320e-909d-433c-86e1-186aedb0774b","ios":"levelo://app?vid=50fb320e-909d-433c-86e1-186aedb0774b"},"vehicle_type_id":"4","last_reported":1727867280,"current_range_meters":24000,"station_id":"ce4bhph2rcd13ifvqhdg","pricing_plan_id":"cebpf4jnsgd1na2vs0mg"},{"bike_id":"39f7225f-645e-40c4-a62a-85ad1c5640eb","system_id":"levelo_inurba_marseille","lat":43.301,"lon":5.39083,"is_reserved":false,"is_disabled":false,"rental_uris":{"android":"levelo://app?vid=39f7225f-645e-40c4-a62a-85ad1c5640eb","ios":"levelo://app?vid=39f7225f-645e-40c4-a62a-85ad1c5640eb"},"vehicle_type_id":"4","last_reported":1727867280,"current_range_meters":26800,"station_id":"ce4bh192rcd13ifvqdb0","pricing_plan_id":"cebpf4jnsgd1na2vs0mg"},{"bike_id":"5166060d-6121-42a7-b047-e66a52d4243a","system_id":"levelo_inurba_marseille","lat":43.26957,"lon":5.38634,"is_reserved":false,"is_disabled":false,"rental_uris":{"android":"levelo://app?vid=5166060d-6121-42a7-b047-e66a52d4243a","ios":"levelo://app?vid=5166060d-6121-42a7-b047-e66a52d4243a"},"vehicle_type_id":"4","last_reported":1727867280,"current_range_meters":33200,"station_id":"ce4bhh92rcd13ifvqfh0","pricing_plan_id":"cebpf4jnsgd1na2vs0mg"},{"bike_id":"d3ebeb68-0451-4448-80dd-ce3f712f8989","system_id":"levelo_inurba_marseille","lat":43.28415,"lon":5.34977,"is_reserved":false,"is_disabled":false,"rental_uris":{"android":"levelo://app?vid=d3ebeb68-0451-4448-80dd-ce3f712f8989","ios":"levelo://app?vid=d3ebeb68-0451-4448-80dd-ce3f712f8989"},"vehicle_type_id":"4","last_reported":1727867280,"current_range_meters":28800,"station_id":"ce4bhbh2rcd13ifvqepg","pricing_plan_id":"cebpf4jnsgd1na2vs0mg"},{"bike_id":"ae8fe54b-0758-4598-a3a6-368c8971129e","system_id":"levelo_inurba_marseille","lat":43.30555,"lon":5.36538,"is_reserved":false,"is_disabled":false,"rental_uris":{"android":"levelo://app?vid=ae8fe54b-0758-4598-a3a6-368c8971129e","ios":"levelo://app?vid=ae8fe54b-0758-4598-a3a6-368c8971129e"},"vehicle_type_id":"4","last_reported":1727867280,"current_range_meters":29600,"station_id":"ce4bgs12rcd13ifvqcag","pricing_plan_id":"cebpf4jnsgd1na2vs0mg"},{"bike_id":"95426676-1b18-4e34-b8cb-2570afa2d932","system_id":"levelo_inurba_marseille","lat":43.30419,"lon":5.41277,"is_reserved":false,"is_disabled":false,"rental_uris":{"android":"levelo://app?vid=95426676-1b18-4e34-b8cb-2570afa2d932","ios":"levelo://app?vid=95426676-1b18-4e34-b8cb-2570afa2d932"},"vehicle_type_id":"4","last_reported":1727867280,"current_range_meters":16800,"station_id":"ce4bhop2rcd13ifvqh8g","pricing_plan_id":"cebpf4jnsgd1na2vs0mg"},{"bike_id":"0bd5e980-7c20-4784-b04e-1383e7a5e5aa","system_id":"levelo_inurba_marseille","lat":43.31363,"lon":5.38492,"is_reserved":false,"is_disabled":false,"rental_uris":{"android":"levelo://app?vid=0bd5e980-7c20-4784-b04e-1383e7a5e5aa","ios":"levelo://app?vid=0bd5e980-7c20-4784-b04e-1383e7a5e5aa"},"vehicle_type_id":"4","last_reported":1727867280,"current_range_meters":16000,"station_id":"ce4bgt92rcd13ifvqcf0","pricing_plan_id":"cebpf4jnsgd1na2vs0mg"},{"bike_id":"398c0393-24e2-409a-8dfe-b91fa1e063e4","system_id":"levelo_inurba_marseille","lat":43.34137,"lon":5.40901,"is_reserved":false,"is_disabled":false,"rental_uris":{"android":"levelo://app?vid=398c0393-24e2-409a-8dfe-b91fa1e063e4","ios":"levelo://app?vid=398c0393-24e2-409a-8dfe-b91fa1e063e4"},"vehicle_type_id":"4","last_reported":1727867280,"current_range_meters":36000,"station_id":"ce4bhqh2rcd13ifvqhlg","pricing_plan_id":"cebpf4jnsgd1na2vs0mg"},{"bike_id":"39f189fb-e459-44c7-ba09-be559ff98528","system_id":"levelo_inurba_marseille","lat":43.27813,"lon":5.4071,"is_reserved":false,"is_disabled":false,"rental_uris":{"android":"levelo://app?vid=39f189fb-e459-44c7-ba09-be559ff98528","ios":"levelo://app?vid=39f189fb-e459-44c7-ba09-be559ff98528"},"vehicle_type_id":"4","last_reported":1727867280,"current_range_meters":5600,"station_id":"ce4bhnh2rcd13ifvqgtg","pricing_plan_id":"cebpf4jnsgd1na2vs0mg"},{"bike_id":"a2ba7602-9b90-45c6-8d5a-66c0710e2f94","system_id":"levelo_inurba_marseille","lat":43.33607,"lon":5.41025,"is_reserved":false,"is_disabled":false,"rental_uris":{"android":"levelo://app?vid=a2ba7602-9b90-45c6-8d5a-66c0710e2f94","ios":"levelo://app?vid=a2ba7602-9b90-45c6-8d5a-66c0710e2f94"},"vehicle_type_id":"4","last_reported":1727867280,"current_range_meters":24000,"station_id":"ce4bhqh2rcd13ifvqhmg","pricing_plan_id":"cebpf4jnsgd1na2vs0mg"},{"bike_id":"b4e71af6-fd30-4c78-9cc3-a2c5013eff28","system_id":"levelo_inurba_marseille","lat":43.28716,"lon":5.37932,"is_reserved":false,"is_disabled":false,"rental_uris":{"android":"levelo://app?vid=b4e71af6-fd30-4c78-9cc3-a2c5013eff28","ios":"levelo://app?vid=b4e71af6-fd30-4c78-9cc3-a2c5013eff28"},"vehicle_type_id":"4","last_reported":1727867280,"current_range_meters":33200,"station_id":"ce4bh9p2rcd13ifvqec0","pricing_plan_id":"cebpf4jnsgd1na2vs0mg"},{"bike_id":"1026fc0e-c472-4222-8e18-41611cbab263","system_id":"levelo_inurba_marseille","lat":43.27841,"lon":5.3921,"is_reserved":false,"is_disabled":false,"rental_uris":{"android":"levelo://app?vid=1026fc0e-c472-4222-8e18-41611cbab263","ios":"levelo://app?vid=1026fc0e-c472-4222-8e18-41611cbab263"},"vehicle_type_id":"4","last_reported":1727867280,"current_range_meters":9200,"station_id":"ce4bhjp2rcd13ifvqga0","pricing_plan_id":"cebpf4jnsgd1na2vs0mg"},{"bike_id":"b3988bd0-b870-43ec-b253-16935f88b4c8","system_id":"levelo_inurba_marseille","lat":43.28419,"lon":5.34983,"is_reserved":false,"is_disabled":false,"rental_uris":{"android":"levelo://app?vid=b3988bd0-b870-43ec-b253-16935f88b4c8","ios":"levelo://app?vid=b3988bd0-b870-43ec-b253-16935f88b4c8"},"vehicle_type_id":"4","last_reported":1727867280,"current_range_meters":38400,"station_id":"ce4bhbh2rcd13ifvqepg","pricing_plan_id":"cebpf4jnsgd1na2vs0mg"},{"bike_id":"944921ee-70dc-4d30-9b46-3b7ac809f999","system_id":"levelo_inurba_marseille","lat":43.31221,"lon":5.36871,"is_reserved":false,"is_disabled":false,"rental_uris":{"android":"levelo://app?vid=944921ee-70dc-4d30-9b46-3b7ac809f999","ios":"levelo://app?vid=944921ee-70dc-4d30-9b46-3b7ac809f999"},"vehicle_type_id":"4","last_reported":1727867280,"current_range_meters":39200,"station_id":"ce4bgl92rcd13ifvqbq0","pricing_plan_id":"cebpf4jnsgd1na2vs0mg"},{"bike_id":"b1e473d1-2fa9-4b32-9332-17fa92fe2708","system_id":"levelo_inurba_marseille","lat":43.3375,"lon":5.37465,"is_reserved":false,"is_disabled":false,"rental_uris":{"android":"levelo://app?vid=b1e473d1-2fa9-4b32-9332-17fa92fe2708","ios":"levelo://app?vid=b1e473d1-2fa9-4b32-9332-17fa92fe2708"},"vehicle_type_id":"4","last_reported":1727867280,"current_range_meters":38800,"station_id":"","pricing_plan_id":"cebpf4jnsgd1na2vs0mg"},{"bike_id":"26910d4e-dfca-45c5-9dfb-228d098ca3b4","system_id":"levelo_inurba_marseille","lat":43.31326,"lon":5.36747,"is_reserved":false,"is_disabled":false,"rental_uris":{"android":"levelo://app?vid=26910d4e-dfca-45c5-9dfb-228d098ca3b4","ios":"levelo://app?vid=26910d4e-dfca-45c5-9dfb-228d098ca3b4"},"vehicle_type_id":"4","last_reported":1727867280,"current_range_meters":38000,"station_id":"ce4bgk12rcd13ifvqbj0","pricing_plan_id":"cebpf4jnsgd1na2vs0mg"},{"bike_id":"606ac12e-3140-4ad1-a02a-5377728488f2","system_id":"levelo_inurba_marseille","lat":43.258748,"lon":5.39422,"is_reserved":false,"is_disabled":false,"rental_uris":{"android":"levelo://app?vid=606ac12e-3140-4ad1-a02a-5377728488f2","ios":"levelo://app?vid=606ac12e-3140-4ad1-a02a-5377728488f2"},"vehicle_type_id":"4","last_reported":1727867280,"current_range_meters":18800,"station_id":"","pricing_plan_id":"cebpf4jnsgd1na2vs0mg"},{"bike_id":"abd5d167-e57c-484c-802a-fa7bc8898347","system_id":"levelo_inurba_marseille","lat":43.28408,"lon":5.34976,"is_reserved":false,"is_disabled":false,"rental_uris":{"android":"levelo://app?vid=abd5d167-e57c-484c-802a-fa7bc8898347","ios":"levelo://app?vid=abd5d167-e57c-484c-802a-fa7bc8898347"},"vehicle_type_id":"4","last_reported":1727867280,"current_range_meters":38800,"station_id":"ce4bhbh2rcd13ifvqepg","pricing_plan_id":"cebpf4jnsgd1na2vs0mg"},{"bike_id":"c546708d-ab03-4bef-84fb-2920175ec1cf","system_id":"levelo_inurba_marseille","lat":43.29995,"lon":5.37157,"is_reserved":false,"is_disabled":false,"rental_uris":{"android":"levelo://app?vid=c546708d-ab03-4bef-84fb-2920175ec1cf","ios":"levelo://app?vid=c546708d-ab03-4bef-84fb-2920175ec1cf"},"vehicle_type_id":"4","last_reported":1727867280,"current_range_meters":30000,"station_id":"ce4bgr92rcd13ifvqc7g","pricing_plan_id":"cebpf4jnsgd1na2vs0mg"},{"bike_id":"7c7831b8-5083-4675-8d1a-f60c9fd82b32","system_id":"levelo_inurba_marseille","lat":43.25732,"lon":5.41105,"is_reserved":false,"is_disabled":false,"rental_uris":{"android":"levelo://app?vid=7c7831b8-5083-4675-8d1a-f60c9fd82b32","ios":"levelo://app?vid=7c7831b8-5083-4675-8d1a-f60c9fd82b32"},"vehicle_type_id":"4","last_reported":1727867280,"current_range_meters":12800,"station_id":"ce4bhkp2rcd13ifvqgd0","pricing_plan_id":"cebpf4jnsgd1na2vs0mg"},{"bike_id":"8e04e756-45a8-4231-8aa2-ed12843ddb07","system_id":"levelo_inurba_marseille","lat":43.30268,"lon":5.37705,"is_reserved":false,"is_disabled":false,"rental_uris":{"android":"levelo://app?vid=8e04e756-45a8-4231-8aa2-ed12843ddb07","ios":"levelo://app?vid=8e04e756-45a8-4231-8aa2-ed12843ddb07"},"vehicle_type_id":"4","last_reported":1727867280,"current_range_meters":37600,"station_id":"ce4bguh2rcd13ifvqcj0","pricing_plan_id":"cebpf4jnsgd1na2vs0mg"},{"bike_id":"c7058b14-e6f6-4c41-916b-09a9a29c38e0","system_id":"levelo_inurba_marseille","lat":43.27052,"lon":5.4026,"is_reserved":false,"is_disabled":false,"rental_uris":{"android":"levelo://app?vid=c7058b14-e6f6-4c41-916b-09a9a29c38e0","ios":"levelo://app?vid=c7058b14-e6f6-4c41-916b-09a9a29c38e0"},"vehicle_type_id":"4","last_reported":1727867280,"current_range_meters":38400,"station_id":"ce4bhk92rcd13ifvqgc0","pricing_plan_id":"cebpf4jnsgd1na2vs0mg"},{"bike_id":"5084d4e8-22d7-4248-aec8-4997331ff1e0","system_id":"levelo_inurba_marseille","lat":43.22924,"lon":5.35375,"is_reserved":false,"is_disabled":false,"rental_uris":{"android":"levelo://app?vid=5084d4e8-22d7-4248-aec8-4997331ff1e0","ios":"levelo://app?vid=5084d4e8-22d7-4248-aec8-4997331ff1e0"},"vehicle_type_id":"4","last_reported":1727867280,"current_range_meters":38800,"station_id":"cpo3532slgdg3j2ikp40","pricing_plan_id":"cebpf4jnsgd1na2vs0mg"},{"bike_id":"efaace72-bd69-4038-97a7-ba58282b4de2","system_id":"levelo_inurba_marseille","lat":43.23966,"lon":5.36632,"is_reserved":false,"is_disabled":false,"rental_uris":{"android":"levelo://app?vid=efaace72-bd69-4038-97a7-ba58282b4de2","ios":"levelo://app?vid=efaace72-bd69-4038-97a7-ba58282b4de2"},"vehicle_type_id":"4","last_reported":1727867280,"current_range_meters":33200,"station_id":"ce4bhi12rcd13ifvqfp0","pricing_plan_id":"cebpf4jnsgd1na2vs0mg"},{"bike_id":"21cd8bee-8581-4f36-9fc1-52a9ec9169ef","system_id":"levelo_inurba_marseille","lat":43.23151,"lon":5.43704,"is_reserved":false,"is_disabled":false,"rental_uris":{"android":"levelo://app?vid=21cd8bee-8581-4f36-9fc1-52a9ec9169ef","ios":"levelo://app?vid=21cd8bee-8581-4f36-9fc1-52a9ec9169ef"},"vehicle_type_id":"4","last_reported":1727867280,"current_range_meters":38400,"station_id":"ce4bhmp2rcd13ifvqgog","pricing_plan_id":"cebpf4jnsgd1na2vs0mg"},{"bike_id":"2c6b4966-b106-46cf-9b00-605af2aff535","system_id":"levelo_inurba_marseille","lat":43.30299,"lon":5.39203,"is_reserved":false,"is_disabled":false,"rental_uris":{"android":"levelo://app?vid=2c6b4966-b106-46cf-9b00-605af2aff535","ios":"levelo://app?vid=2c6b4966-b106-46cf-9b00-605af2aff535"},"vehicle_type_id":"4","last_reported":1727867280,"current_range_meters":22800,"station_id":"ce4bgkh2rcd13ifvqbk0","pricing_plan_id":"cebpf4jnsgd1na2vs0mg"},{"bike_id":"6153543f-5e3f-48f0-9614-a51a9c3ce506","system_id":"levelo_inurba_marseille","lat":43.3303,"lon":5.39043,"is_reserved":false,"is_disabled":false,"rental_uris":{"android":"levelo://app?vid=6153543f-5e3f-48f0-9614-a51a9c3ce506","ios":"levelo://app?vid=6153543f-5e3f-48f0-9614-a51a9c3ce506"},"vehicle_type_id":"4","last_reported":1727867280,"current_range_meters":30800,"station_id":"ce4bhr92rcd13ifvqhrg","pricing_plan_id":"cebpf4jnsgd1na2vs0mg"},{"bike_id":"68fbe977-0cd5-4564-8f23-a8c2e9bcb77d","system_id":"levelo_inurba_marseille","lat":43.30315,"lon":5.36897,"is_reserved":false,"is_disabled":false,"rental_uris":{"android":"levelo://app?vid=68fbe977-0cd5-4564-8f23-a8c2e9bcb77d","ios":"levelo://app?vid=68fbe977-0cd5-4564-8f23-a8c2e9bcb77d"},"vehicle_type_id":"4","last_reported":1727867280,"current_range_meters":35600,"station_id":"ce4bgqh2rcd13ifvqc5g","pricing_plan_id":"cebpf4jnsgd1na2vs0mg"},{"bike_id":"770f2ae9-cbc9-4cc0-a614-23018e4798e2","system_id":"levelo_inurba_marseille","lat":43.30799,"lon":5.38169,"is_reserved":false,"is_disabled":false,"rental_uris":{"android":"levelo://app?vid=770f2ae9-cbc9-4cc0-a614-23018e4798e2","ios":"levelo://app?vid=770f2ae9-cbc9-4cc0-a614-23018e4798e2"},"vehicle_type_id":"4","last_reported":1727867280,"current_range_meters":21600,"station_id":"ce4bgt12rcd13ifvqce0","pricing_plan_id":"cebpf4jnsgd1na2vs0mg"},{"bike_id":"2a967336-3328-4e48-a435-bf7a1d464584","system_id":"levelo_inurba_marseille","lat":43.30911,"lon":5.36854,"is_reserved":false,"is_disabled":false,"rental_uris":{"android":"levelo://app?vid=2a967336-3328-4e48-a435-bf7a1d464584","ios":"levelo://app?vid=2a967336-3328-4e48-a435-bf7a1d464584"},"vehicle_type_id":"4","last_reported":1727867280,"current_range_meters":14400,"station_id":"ce4bgn92rcd13ifvqbvg","pricing_plan_id":"cebpf4jnsgd1na2vs0mg"},{"bike_id":"849785e9-3354-451b-a4b8-9dfecd3e3883","system_id":"levelo_inurba_marseille","lat":43.2668,"lon":5.38275,"is_reserved":false,"is_disabled":false,"rental_uris":{"android":"levelo://app?vid=849785e9-3354-451b-a4b8-9dfecd3e3883","ios":"levelo://app?vid=849785e9-3354-451b-a4b8-9dfecd3e3883"},"vehicle_type_id":"4","last_reported":1727867280,"current_range_meters":38800,"station_id":"ce4bhg92rcd13ifvqf90","pricing_plan_id":"cebpf4jnsgd1na2vs0mg"},{"bike_id":"386a5fbe-8b7c-4402-86bd-3f2db913f95f","system_id":"levelo_inurba_marseille","lat":43.26198,"lon":5.37937,"is_reserved":false,"is_disabled":false,"rental_uris":{"android":"levelo://app?vid=386a5fbe-8b7c-4402-86bd-3f2db913f95f","ios":"levelo://app?vid=386a5fbe-8b7c-4402-86bd-3f2db913f95f"},"vehicle_type_id":"4","last_reported":1727867280,"current_range_meters":30400,"station_id":"ce4bhjp2rcd13ifvqg90","pricing_plan_id":"cebpf4jnsgd1na2vs0mg"},{"bike_id":"76e72baa-4044-48b9-a47d-38dcf94b591e","system_id":"levelo_inurba_marseille","lat":43.30902,"lon":5.36858,"is_reserved":false,"is_disabled":false,"rental_uris":{"android":"levelo://app?vid=76e72baa-4044-48b9-a47d-38dcf94b591e","ios":"levelo://app?vid=76e72baa-4044-48b9-a47d-38dcf94b591e"},"vehicle_type_id":"4","last_reported":1727867280,"current_range_meters":38800,"station_id":"ce4bgn92rcd13ifvqbvg","pricing_plan_id":"cebpf4jnsgd1na2vs0mg"},{"bike_id":"a0a8a104-5f24-4ed2-83a3-3321dfd691f7","system_id":"levelo_inurba_marseille","lat":43.33608,"lon":5.41012,"is_reserved":false,"is_disabled":false,"rental_uris":{"android":"levelo://app?vid=a0a8a104-5f24-4ed2-83a3-3321dfd691f7","ios":"levelo://app?vid=a0a8a104-5f24-4ed2-83a3-3321dfd691f7"},"vehicle_type_id":"4","last_reported":1727867280,"current_range_meters":36000,"station_id":"ce4bhqh2rcd13ifvqhmg","pricing_plan_id":"cebpf4jnsgd1na2vs0mg"},{"bike_id":"361c4015-fea1-4d09-abed-03e20c4632cc","system_id":"levelo_inurba_marseille","lat":43.30913,"lon":5.36842,"is_reserved":false,"is_disabled":false,"rental_uris":{"android":"levelo://app?vid=361c4015-fea1-4d09-abed-03e20c4632cc","ios":"levelo://app?vid=361c4015-fea1-4d09-abed-03e20c4632cc"},"vehicle_type_id":"4","last_reported":1727867280,"current_range_meters":38800,"station_id":"ce4bgn92rcd13ifvqbvg","pricing_plan_id":"cebpf4jnsgd1na2vs0mg"},{"bike_id":"eb7b7ad8-b0fa-46a1-9c91-4f410927334e","system_id":"levelo_inurba_marseille","lat":43.28051,"lon":5.36913,"is_reserved":false,"is_disabled":false,"rental_uris":{"android":"levelo://app?vid=eb7b7ad8-b0fa-46a1-9c91-4f410927334e","ios":"levelo://app?vid=eb7b7ad8-b0fa-46a1-9c91-4f410927334e"},"vehicle_type_id":"4","last_reported":1727867280,"current_range_meters":7200,"station_id":"ce4bha12rcd13ifvqef0","pricing_plan_id":"cebpf4jnsgd1na2vs0mg"},{"bike_id":"be5658f4-5cfe-4f8b-8562-62e6ba266040","system_id":"levelo_inurba_marseille","lat":43.29374,"lon":5.3783,"is_reserved":false,"is_disabled":false,"rental_uris":{"android":"levelo://app?vid=be5658f4-5cfe-4f8b-8562-62e6ba266040","ios":"levelo://app?vid=be5658f4-5cfe-4f8b-8562-62e6ba266040"},"vehicle_type_id":"4","last_reported":1727867280,"current_range_meters":26800,"station_id":"ce4bgjh2rcd13ifvqbf0","pricing_plan_id":"cebpf4jnsgd1na2vs0mg"},{"bike_id":"e7b185a5-e3da-455f-ac78-777e38a837df","system_id":"levelo_inurba_marseille","lat":43.28672,"lon":5.38662,"is_reserved":false,"is_disabled":false,"rental_uris":{"android":"levelo://app?vid=e7b185a5-e3da-455f-ac78-777e38a837df","ios":"levelo://app?vid=e7b185a5-e3da-455f-ac78-777e38a837df"},"vehicle_type_id":"4","last_reported":1727867280,"current_range_meters":34000,"station_id":"ce4bh492rcd13ifvqdug","pricing_plan_id":"cebpf4jnsgd1na2vs0mg"},{"bike_id":"55cfb1ad-d80a-480d-bfe7-f79544ab315e","system_id":"levelo_inurba_marseille","lat":43.27064,"lon":5.40259,"is_reserved":false,"is_disabled":false,"rental_uris":{"android":"levelo://app?vid=55cfb1ad-d80a-480d-bfe7-f79544ab315e","ios":"levelo://app?vid=55cfb1ad-d80a-480d-bfe7-f79544ab315e"},"vehicle_type_id":"4","last_reported":1727867280,"current_range_meters":39200,"station_id":"ce4bhk92rcd13ifvqgc0","pricing_plan_id":"cebpf4jnsgd1na2vs0mg"},{"bike_id":"ccf05887-2f08-4883-a4a1-cddb3581e0e2","system_id":"levelo_inurba_marseille","lat":43.26567,"lon":5.39006,"is_reserved":false,"is_disabled":false,"rental_uris":{"android":"levelo://app?vid=ccf05887-2f08-4883-a4a1-cddb3581e0e2","ios":"levelo://app?vid=ccf05887-2f08-4883-a4a1-cddb3581e0e2"},"vehicle_type_id":"4","last_reported":1727867280,"current_range_meters":20400,"station_id":"ce4bhe12rcd13ifvqf30","pricing_plan_id":"cebpf4jnsgd1na2vs0mg"},{"bike_id":"228bc8cb-0269-4832-8aa8-6ceca4cfcdbe","system_id":"levelo_inurba_marseille","lat":43.29529,"lon":5.37505,"is_reserved":false,"is_disabled":false,"rental_uris":{"android":"levelo://app?vid=228bc8cb-0269-4832-8aa8-6ceca4cfcdbe","ios":"levelo://app?vid=228bc8cb-0269-4832-8aa8-6ceca4cfcdbe"},"vehicle_type_id":"4","last_reported":1727867280,"current_range_meters":38800,"station_id":"ce4bgkp2rcd13ifvqbmg","pricing_plan_id":"cebpf4jnsgd1na2vs0mg"},{"bike_id":"a4f72ba4-7661-4075-9bd4-ebcaa0168cb8","system_id":"levelo_inurba_marseille","lat":43.30535,"lon":5.36537,"is_reserved":false,"is_disabled":false,"rental_uris":{"android":"levelo://app?vid=a4f72ba4-7661-4075-9bd4-ebcaa0168cb8","ios":"levelo://app?vid=a4f72ba4-7661-4075-9bd4-ebcaa0168cb8"},"vehicle_type_id":"4","last_reported":1727867280,"current_range_meters":33600,"station_id":"ce4bgs12rcd13ifvqcag","pricing_plan_id":"cebpf4jnsgd1na2vs0mg"},{"bike_id":"db215235-46fd-4e94-b4a2-8d3ec4e5a140","system_id":"levelo_inurba_marseille","lat":43.32488,"lon":5.36553,"is_reserved":false,"is_disabled":false,"rental_uris":{"android":"levelo://app?vid=db215235-46fd-4e94-b4a2-8d3ec4e5a140","ios":"levelo://app?vid=db215235-46fd-4e94-b4a2-8d3ec4e5a140"},"vehicle_type_id":"4","last_reported":1727867280,"current_range_meters":20400,"station_id":"ce4bhs12rcd13ifvqhvg","pricing_plan_id":"cebpf4jnsgd1na2vs0mg"},{"bike_id":"55bd45b6-90c2-4bb1-8f69-d173c3c9b9f5","system_id":"levelo_inurba_marseille","lat":43.2707,"lon":5.4228,"is_reserved":false,"is_disabled":false,"rental_uris":{"android":"levelo://app?vid=55bd45b6-90c2-4bb1-8f69-d173c3c9b9f5","ios":"levelo://app?vid=55bd45b6-90c2-4bb1-8f69-d173c3c9b9f5"},"vehicle_type_id":"4","last_reported":1727867280,"current_range_meters":27200,"station_id":"ce4bhk92rcd13ifvqgb0","pricing_plan_id":"cebpf4jnsgd1na2vs0mg"},{"bike_id":"af73b995-6c55-4096-8776-a462be9b879a","system_id":"levelo_inurba_marseille","lat":43.30583,"lon":5.37111,"is_reserved":false,"is_disabled":false,"rental_uris":{"android":"levelo://app?vid=af73b995-6c55-4096-8776-a462be9b879a","ios":"levelo://app?vid=af73b995-6c55-4096-8776-a462be9b879a"},"vehicle_type_id":"4","last_reported":1727867280,"current_range_meters":36800,"station_id":"","pricing_plan_id":"cebpf4jnsgd1na2vs0mg"},{"bike_id":"975873d9-72bd-4cb1-ad3c-7391c7f0ee7b","system_id":"levelo_inurba_marseille","lat":43.23974,"lon":5.36617,"is_reserved":false,"is_disabled":false,"rental_uris":{"android":"levelo://app?vid=975873d9-72bd-4cb1-ad3c-7391c7f0ee7b","ios":"levelo://app?vid=975873d9-72bd-4cb1-ad3c-7391c7f0ee7b"},"vehicle_type_id":"4","last_reported":1727867280,"current_range_meters":15200,"station_id":"ce4bhi12rcd13ifvqfp0","pricing_plan_id":"cebpf4jnsgd1na2vs0mg"},{"bike_id":"fb92a147-62ea-4661-ad81-02c9a6ce7b45","system_id":"levelo_inurba_marseille","lat":43.3112,"lon":5.37766,"is_reserved":false,"is_disabled":false,"rental_uris":{"android":"levelo://app?vid=fb92a147-62ea-4661-ad81-02c9a6ce7b45","ios":"levelo://app?vid=fb92a147-62ea-4661-ad81-02c9a6ce7b45"},"vehicle_type_id":"4","last_reported":1727867280,"current_range_meters":38800,"station_id":"ce4bgt92rcd13ifvqcg0","pricing_plan_id":"cebpf4jnsgd1na2vs0mg"},{"bike_id":"6ad662ca-0f18-4a30-9d6d-d8a9e6ece23c","system_id":"levelo_inurba_marseille","lat":43.3122,"lon":5.3688,"is_reserved":false,"is_disabled":false,"rental_uris":{"android":"levelo://app?vid=6ad662ca-0f18-4a30-9d6d-d8a9e6ece23c","ios":"levelo://app?vid=6ad662ca-0f18-4a30-9d6d-d8a9e6ece23c"},"vehicle_type_id":"4","last_reported":1727867280,"current_range_meters":38800,"station_id":"ce4bgl92rcd13ifvqbq0","pricing_plan_id":"cebpf4jnsgd1na2vs0mg"},{"bike_id":"11f94ccf-95d9-4f97-9f1a-dbf64c836658","system_id":"levelo_inurba_marseille","lat":43.3361,"lon":5.41013,"is_reserved":false,"is_disabled":false,"rental_uris":{"android":"levelo://app?vid=11f94ccf-95d9-4f97-9f1a-dbf64c836658","ios":"levelo://app?vid=11f94ccf-95d9-4f97-9f1a-dbf64c836658"},"vehicle_type_id":"4","last_reported":1727867280,"current_range_meters":21600,"station_id":"ce4bhqh2rcd13ifvqhmg","pricing_plan_id":"cebpf4jnsgd1na2vs0mg"},{"bike_id":"dc71b5f2-729f-4b71-a034-83d1556c5621","system_id":"levelo_inurba_marseille","lat":43.23152,"lon":5.43714,"is_reserved":false,"is_disabled":false,"rental_uris":{"android":"levelo://app?vid=dc71b5f2-729f-4b71-a034-83d1556c5621","ios":"levelo://app?vid=dc71b5f2-729f-4b71-a034-83d1556c5621"},"vehicle_type_id":"4","last_reported":1727867280,"current_range_meters":3200,"station_id":"ce4bhmp2rcd13ifvqgog","pricing_plan_id":"cebpf4jnsgd1na2vs0mg"},{"bike_id":"a3b54844-7e72-468f-aaff-c8c90431b75a","system_id":"levelo_inurba_marseille","lat":43.26558,"lon":5.3728,"is_reserved":false,"is_disabled":false,"rental_uris":{"android":"levelo://app?vid=a3b54844-7e72-468f-aaff-c8c90431b75a","ios":"levelo://app?vid=a3b54844-7e72-468f-aaff-c8c90431b75a"},"vehicle_type_id":"4","last_reported":1727867280,"current_range_meters":34800,"station_id":"ce4bhg12rcd13ifvqf70","pricing_plan_id":"cebpf4jnsgd1na2vs0mg"},{"bike_id":"c9dcea15-4ad0-4ebb-943b-f82ed9122b48","system_id":"levelo_inurba_marseille","lat":43.23963,"lon":5.36637,"is_reserved":false,"is_disabled":false,"rental_uris":{"android":"levelo://app?vid=c9dcea15-4ad0-4ebb-943b-f82ed9122b48","ios":"levelo://app?vid=c9dcea15-4ad0-4ebb-943b-f82ed9122b48"},"vehicle_type_id":"4","last_reported":1727867280,"current_range_meters":21600,"station_id":"ce4bhi12rcd13ifvqfp0","pricing_plan_id":"cebpf4jnsgd1na2vs0mg"},{"bike_id":"fa4caf64-fc87-4fac-b3ea-92f6040eec1b","system_id":"levelo_inurba_marseille","lat":43.26935,"lon":5.38916,"is_reserved":false,"is_disabled":false,"rental_uris":{"android":"levelo://app?vid=fa4caf64-fc87-4fac-b3ea-92f6040eec1b","ios":"levelo://app?vid=fa4caf64-fc87-4fac-b3ea-92f6040eec1b"},"vehicle_type_id":"4","last_reported":1727867280,"current_range_meters":12000,"station_id":"ce4bhhh2rcd13ifvqfl0","pricing_plan_id":"cebpf4jnsgd1na2vs0mg"},{"bike_id":"068b66f4-7ef6-4575-9402-dc5aa1ccbbf4","system_id":"levelo_inurba_marseille","lat":43.23147,"lon":5.43711,"is_reserved":false,"is_disabled":false,"rental_uris":{"android":"levelo://app?vid=068b66f4-7ef6-4575-9402-dc5aa1ccbbf4","ios":"levelo://app?vid=068b66f4-7ef6-4575-9402-dc5aa1ccbbf4"},"vehicle_type_id":"4","last_reported":1727867280,"current_range_meters":36800,"station_id":"ce4bhmp2rcd13ifvqgog","pricing_plan_id":"cebpf4jnsgd1na2vs0mg"},{"bike_id":"8692a566-87fe-4c3a-abab-ac87e625cb80","system_id":"levelo_inurba_marseille","lat":43.29872,"lon":5.39728,"is_reserved":false,"is_disabled":false,"rental_uris":{"android":"levelo://app?vid=8692a566-87fe-4c3a-abab-ac87e625cb80","ios":"levelo://app?vid=8692a566-87fe-4c3a-abab-ac87e625cb80"},"vehicle_type_id":"4","last_reported":1727867280,"current_range_meters":16000,"station_id":"ce4bh0h2rcd13ifvqd50","pricing_plan_id":"cebpf4jnsgd1na2vs0mg"},{"bike_id":"81e8b2b8-cfba-48d8-9edd-8e07ebe8ff07","system_id":"levelo_inurba_marseille","lat":43.24997,"lon":5.38937,"is_reserved":false,"is_disabled":false,"rental_uris":{"android":"levelo://app?vid=81e8b2b8-cfba-48d8-9edd-8e07ebe8ff07","ios":"levelo://app?vid=81e8b2b8-cfba-48d8-9edd-8e07ebe8ff07"},"vehicle_type_id":"4","last_reported":1727867280,"current_range_meters":22400,"station_id":"ce4bhgp2rcd13ifvqfd0","pricing_plan_id":"cebpf4jnsgd1na2vs0mg"},