{"last_updated":1781177247,"ttl":60,"version":"2.2","data":{"bikes":[{"bike_id":"ec12d144-24c8-4071-abf6-197e520eae96","system_id":"levelo_inurba_marseille","lat":43.337444,"lon":5.374475,"is_reserved":false,"is_disabled":false,"rental_uris":{"android":"levelo://app?vid=ec12d144-24c8-4071-abf6-197e520eae96","ios":"levelo://app?vid=ec12d144-24c8-4071-abf6-197e520eae96"},"vehicle_type_id":"4","last_reported":1781177248,"current_range_meters":0,"station_id":"","pricing_plan_id":"cebpf4jnsgd1na2vs0mg"},{"bike_id":"9b7c43c4-efea-446b-8ecd-9ed8f46e9b69","system_id":"levelo_inurba_marseille","lat":43.30136,"lon":5.38789,"is_reserved":false,"is_disabled":false,"rental_uris":{"android":"levelo://app?vid=9b7c43c4-efea-446b-8ecd-9ed8f46e9b69","ios":"levelo://app?vid=9b7c43c4-efea-446b-8ecd-9ed8f46e9b69"},"vehicle_type_id":"4","last_reported":1781177248,"current_range_meters":2800,"station_id":"ce4bghh2rcd13ifvqb60","pricing_plan_id":"cebpf4jnsgd1na2vs0mg"},{"bike_id":"f4c627d4-3f37-453a-aea3-9842f9fd6b7e","system_id":"levelo_inurba_marseille","lat":43.31711,"lon":5.43706,"is_reserved":false,"is_disabled":false,"rental_uris":{"android":"levelo://app?vid=f4c627d4-3f37-453a-aea3-9842f9fd6b7e","ios":"levelo://app?vid=f4c627d4-3f37-453a-aea3-9842f9fd6b7e"},"vehicle_type_id":"4","last_reported":1781177248,"current_range_meters":2800,"station_id":"ce4bhp92rcd13ifvqhcg","pricing_plan_id":"cebpf4jnsgd1na2vs0mg"},{"bike_id":"8bc3129f-5a06-4c33-9807-ad2d49260525","system_id":"levelo_inurba_marseille","lat":43.30534,"lon":5.36748,"is_reserved":false,"is_disabled":false,"rental_uris":{"android":"levelo://app?vid=8bc3129f-5a06-4c33-9807-ad2d49260525","ios":"levelo://app?vid=8bc3129f-5a06-4c33-9807-ad2d49260525"},"vehicle_type_id":"4","last_reported":1781177248,"current_range_meters":2800,"station_id":"ce4bgrp2rcd13ifvqc9g","pricing_plan_id":"cebpf4jnsgd1na2vs0mg"},{"bike_id":"59a709bc-ef54-4188-a90c-597f97281843","system_id":"levelo_inurba_marseille","lat":43.29243,"lon":5.3845,"is_reserved":false,"is_disabled":false,"rental_uris":{"android":"levelo://app?vid=59a709bc-ef54-4188-a90c-597f97281843","ios":"levelo://app?vid=59a709bc-ef54-4188-a90c-597f97281843"},"vehicle_type_id":"4","last_reported":1781177248,"current_range_meters":2800,"station_id":"ce4bh692rcd13ifvqea0","pricing_plan_id":"cebpf4jnsgd1na2vs0mg"},{"bike_id":"8f566eb3-6191-4bc0-89ee-b4fadd3c622d","system_id":"levelo_inurba_marseille","lat":43.27073,"lon":5.42263,"is_reserved":false,"is_disabled":false,"rental_uris":{"android":"levelo://app?vid=8f566eb3-6191-4bc0-89ee-b4fadd3c622d","ios":"levelo://app?vid=8f566eb3-6191-4bc0-89ee-b4fadd3c622d"},"vehicle_type_id":"4","last_reported":1781177248,"current_range_meters":2800,"station_id":"ce4bhk92rcd13ifvqgb0","pricing_plan_id":"cebpf4jnsgd1na2vs0mg"},{"bike_id":"5f45f485-764a-4056-bec3-0e2b75f6d60f","system_id":"levelo_inurba_marseille","lat":43.30043,"lon":5.37682,"is_reserved":false,"is_disabled":false,"rental_uris":{"android":"levelo://app?vid=5f45f485-764a-4056-bec3-0e2b75f6d60f","ios":"levelo://app?vid=5f45f485-764a-4056-bec3-0e2b75f6d60f"},"vehicle_type_id":"4","last_reported":1781177248,"current_range_meters":2800,"station_id":"","pricing_plan_id":"cebpf4jnsgd1na2vs0mg"},{"bike_id":"d6c0b719-460b-4734-92d2-0af0a33abce7","system_id":"levelo_inurba_marseille","lat":43.2962,"lon":5.3773,"is_reserved":false,"is_disabled":false,"rental_uris":{"android":"levelo://app?vid=d6c0b719-460b-4734-92d2-0af0a33abce7","ios":"levelo://app?vid=d6c0b719-460b-4734-92d2-0af0a33abce7"},"vehicle_type_id":"4","last_reported":1781177248,"current_range_meters":2800,"station_id":"ce4bgi92rcd13ifvqb90","pricing_plan_id":"cebpf4jnsgd1na2vs0mg"},{"bike_id":"a5ad8929-31fd-4d69-9b11-4d873a32bdec","system_id":"levelo_inurba_marseille","lat":43.28434,"lon":5.39177,"is_reserved":false,"is_disabled":true,"rental_uris":{"android":"levelo://app?vid=a5ad8929-31fd-4d69-9b11-4d873a32bdec","ios":"levelo://app?vid=a5ad8929-31fd-4d69-9b11-4d873a32bdec"},"vehicle_type_id":"4","last_reported":1781177248,"current_range_meters":2800,"station_id":"ce4bhoh2rcd13ifvqh5g","pricing_plan_id":"cebpf4jnsgd1na2vs0mg"},{"bike_id":"45ce06fe-30a1-49bb-b8bf-eb3d1814617f","system_id":"levelo_inurba_marseille","lat":43.33029,"lon":5.39034,"is_reserved":false,"is_disabled":false,"rental_uris":{"android":"levelo://app?vid=45ce06fe-30a1-49bb-b8bf-eb3d1814617f","ios":"levelo://app?vid=45ce06fe-30a1-49bb-b8bf-eb3d1814617f"},"vehicle_type_id":"4","last_reported":1781177248,"current_range_meters":2800,"station_id":"ce4bhr92rcd13ifvqhrg","pricing_plan_id":"cebpf4jnsgd1na2vs0mg"},{"bike_id":"20b14f43-11f5-42fd-b848-f5f9fcfc2d0c","system_id":"levelo_inurba_marseille","lat":43.28346,"lon":5.38104,"is_reserved":false,"is_disabled":false,"rental_uris":{"android":"levelo://app?vid=20b14f43-11f5-42fd-b848-f5f9fcfc2d0c","ios":"levelo://app?vid=20b14f43-11f5-42fd-b848-f5f9fcfc2d0c"},"vehicle_type_id":"4","last_reported":1781177248,"current_range_meters":2800,"station_id":"ce4bh412rcd13ifvqdr0","pricing_plan_id":"cebpf4jnsgd1na2vs0mg"},{"bike_id":"8a2f8245-c309-4616-a7d1-163b5c6d8e13","system_id":"levelo_inurba_marseille","lat":43.227989,"lon":5.349203,"is_reserved":false,"is_disabled":false,"rental_uris":{"android":"levelo://app?vid=8a2f8245-c309-4616-a7d1-163b5c6d8e13","ios":"levelo://app?vid=8a2f8245-c309-4616-a7d1-163b5c6d8e13"},"vehicle_type_id":"4","last_reported":1781177248,"current_range_meters":2800,"station_id":"","pricing_plan_id":"cebpf4jnsgd1na2vs0mg"},{"bike_id":"abb78f7f-a1f1-4efa-ae79-de495c6faf89","system_id":"levelo_inurba_marseille","lat":43.29728,"lon":5.38935,"is_reserved":false,"is_disabled":false,"rental_uris":{"android":"levelo://app?vid=abb78f7f-a1f1-4efa-ae79-de495c6faf89","ios":"levelo://app?vid=abb78f7f-a1f1-4efa-ae79-de495c6faf89"},"vehicle_type_id":"4","last_reported":1781177248,"current_range_meters":2800,"station_id":"","pricing_plan_id":"cebpf4jnsgd1na2vs0mg"},{"bike_id":"1140d017-c3b9-43dd-ba73-6e5a45e2fcc8","system_id":"levelo_inurba_marseille","lat":43.31929,"lon":5.3825,"is_reserved":false,"is_disabled":false,"rental_uris":{"android":"levelo://app?vid=1140d017-c3b9-43dd-ba73-6e5a45e2fcc8","ios":"levelo://app?vid=1140d017-c3b9-43dd-ba73-6e5a45e2fcc8"},"vehicle_type_id":"4","last_reported":1781177248,"current_range_meters":2800,"station_id":"","pricing_plan_id":"cebpf4jnsgd1na2vs0mg"},{"bike_id":"83783ea4-5f99-4109-9289-7f429cce3820","system_id":"levelo_inurba_marseille","lat":43.28474,"lon":5.48395,"is_reserved":false,"is_disabled":false,"rental_uris":{"android":"levelo://app?vid=83783ea4-5f99-4109-9289-7f429cce3820","ios":"levelo://app?vid=83783ea4-5f99-4109-9289-7f429cce3820"},"vehicle_type_id":"4","last_reported":1781177248,"current_range_meters":2800,"station_id":"st_d3svhcjqgbts73a3dn0g","pricing_plan_id":"cebpf4jnsgd1na2vs0mg"},{"bike_id":"81a82297-bdd1-43ff-9c66-f58529d43fc0","system_id":"levelo_inurba_marseille","lat":43.29571,"lon":5.42315,"is_reserved":false,"is_disabled":false,"rental_uris":{"android":"levelo://app?vid=81a82297-bdd1-43ff-9c66-f58529d43fc0","ios":"levelo://app?vid=81a82297-bdd1-43ff-9c66-f58529d43fc0"},"vehicle_type_id":"4","last_reported":1781177248,"current_range_meters":2800,"station_id":"ce4bhph2rcd13ifvqhdg","pricing_plan_id":"cebpf4jnsgd1na2vs0mg"},{"bike_id":"25e44022-d7a1-4048-8b15-5cb66a3a44b1","system_id":"levelo_inurba_marseille","lat":43.31123,"lon":5.37767,"is_reserved":false,"is_disabled":false,"rental_uris":{"android":"levelo://app?vid=25e44022-d7a1-4048-8b15-5cb66a3a44b1","ios":"levelo://app?vid=25e44022-d7a1-4048-8b15-5cb66a3a44b1"},"vehicle_type_id":"4","last_reported":1781177248,"current_range_meters":2800,"station_id":"ce4bgt92rcd13ifvqcg0","pricing_plan_id":"cebpf4jnsgd1na2vs0mg"},{"bike_id":"32902832-9228-4afa-89fe-76729ec8218d","system_id":"levelo_inurba_marseille","lat":43.31439,"lon":5.37363,"is_reserved":false,"is_disabled":true,"rental_uris":{"android":"levelo://app?vid=32902832-9228-4afa-89fe-76729ec8218d","ios":"levelo://app?vid=32902832-9228-4afa-89fe-76729ec8218d"},"vehicle_type_id":"4","last_reported":1781177248,"current_range_meters":3200,"station_id":"","pricing_plan_id":"cebpf4jnsgd1na2vs0mg"},{"bike_id":"74b462b7-6069-40a5-93e5-63518e7b57f9","system_id":"levelo_inurba_marseille","lat":43.25125,"lon":5.40314,"is_reserved":false,"is_disabled":false,"rental_uris":{"android":"levelo://app?vid=74b462b7-6069-40a5-93e5-63518e7b57f9","ios":"levelo://app?vid=74b462b7-6069-40a5-93e5-63518e7b57f9"},"vehicle_type_id":"4","last_reported":1781177248,"current_range_meters":3200,"station_id":"ce4bhlh2rcd13ifvqgig","pricing_plan_id":"cebpf4jnsgd1na2vs0mg"},{"bike_id":"951ce970-b414-4ee7-9eae-b1a351dd20cf","system_id":"levelo_inurba_marseille","lat":43.28479,"lon":5.48409,"is_reserved":false,"is_disabled":false,"rental_uris":{"android":"levelo://app?vid=951ce970-b414-4ee7-9eae-b1a351dd20cf","ios":"levelo://app?vid=951ce970-b414-4ee7-9eae-b1a351dd20cf"},"vehicle_type_id":"4","last_reported":1781177248,"current_range_meters":3200,"station_id":"st_d3svhcjqgbts73a3dn0g","pricing_plan_id":"cebpf4jnsgd1na2vs0mg"},{"bike_id":"1ce92a12-47ec-401a-9340-bf1dc91c5036","system_id":"levelo_inurba_marseille","lat":43.27389,"lon":5.36255,"is_reserved":false,"is_disabled":false,"rental_uris":{"android":"levelo://app?vid=1ce92a12-47ec-401a-9340-bf1dc91c5036","ios":"levelo://app?vid=1ce92a12-47ec-401a-9340-bf1dc91c5036"},"vehicle_type_id":"4","last_reported":1781177248,"current_range_meters":3200,"station_id":"ce4bhbh2rcd13ifvqeo0","pricing_plan_id":"cebpf4jnsgd1na2vs0mg"},{"bike_id":"3e8e5996-dbc6-4c7e-aa74-2e0c8a024313","system_id":"levelo_inurba_marseille","lat":43.3318,"lon":5.37717,"is_reserved":false,"is_disabled":false,"rental_uris":{"android":"levelo://app?vid=3e8e5996-dbc6-4c7e-aa74-2e0c8a024313","ios":"levelo://app?vid=3e8e5996-dbc6-4c7e-aa74-2e0c8a024313"},"vehicle_type_id":"4","last_reported":1781177248,"current_range_meters":3200,"station_id":"st_d46cu089ee8s73dldbu0","pricing_plan_id":"cebpf4jnsgd1na2vs0mg"},{"bike_id":"f03a0a68-affc-40d0-af24-d7e3b86de4ef","system_id":"levelo_inurba_marseille","lat":43.27978,"lon":5.38831,"is_reserved":false,"is_disabled":false,"rental_uris":{"android":"levelo://app?vid=f03a0a68-affc-40d0-af24-d7e3b86de4ef","ios":"levelo://app?vid=f03a0a68-affc-40d0-af24-d7e3b86de4ef"},"vehicle_type_id":"4","last_reported":1781177248,"current_range_meters":3200,"station_id":"","pricing_plan_id":"cebpf4jnsgd1na2vs0mg"},{"bike_id":"c9b2220e-f3e4-4c7a-80f9-cc88d841a349","system_id":"levelo_inurba_marseille","lat":43.33159,"lon":5.35505,"is_reserved":false,"is_disabled":false,"rental_uris":{"android":"levelo://app?vid=c9b2220e-f3e4-4c7a-80f9-cc88d841a349","ios":"levelo://app?vid=c9b2220e-f3e4-4c7a-80f9-cc88d841a349"},"vehicle_type_id":"4","last_reported":1781177248,"current_range_meters":3200,"station_id":"","pricing_plan_id":"cebpf4jnsgd1na2vs0mg"},{"bike_id":"6d1fe721-eceb-4809-a5fc-55d60977f503","system_id":"levelo_inurba_marseille","lat":43.28627,"lon":5.35098,"is_reserved":false,"is_disabled":true,"rental_uris":{"android":"levelo://app?vid=6d1fe721-eceb-4809-a5fc-55d60977f503","ios":"levelo://app?vid=6d1fe721-eceb-4809-a5fc-55d60977f503"},"vehicle_type_id":"4","last_reported":1781177248,"current_range_meters":3200,"station_id":"ce4bhch2rcd13ifvqeug","pricing_plan_id":"cebpf4jnsgd1na2vs0mg"},{"bike_id":"aede6226-712a-495b-8fa8-096431730ed6","system_id":"levelo_inurba_marseille","lat":43.295744,"lon":5.367358,"is_reserved":false,"is_disabled":false,"rental_uris":{"android":"levelo://app?vid=aede6226-712a-495b-8fa8-096431730ed6","ios":"levelo://app?vid=aede6226-712a-495b-8fa8-096431730ed6"},"vehicle_type_id":"4","last_reported":1781177248,"current_range_meters":3200,"station_id":"ce4bgph2rcd13ifvqc2g","pricing_plan_id":"cebpf4jnsgd1na2vs0mg"},{"bike_id":"2703b7fb-a199-40c4-973b-9bbda4ce16fc","system_id":"levelo_inurba_marseille","lat":43.28131,"lon":5.40131,"is_reserved":false,"is_disabled":false,"rental_uris":{"android":"levelo://app?vid=2703b7fb-a199-40c4-973b-9bbda4ce16fc","ios":"levelo://app?vid=2703b7fb-a199-40c4-973b-9bbda4ce16fc"},"vehicle_type_id":"4","last_reported":1781177248,"current_range_meters":3200,"station_id":"","pricing_plan_id":"cebpf4jnsgd1na2vs0mg"},{"bike_id":"3e6303d3-177e-4d71-bdde-16371528b0f8","system_id":"levelo_inurba_marseille","lat":43.26216,"lon":5.3876,"is_reserved":false,"is_disabled":false,"rental_uris":{"android":"levelo://app?vid=3e6303d3-177e-4d71-bdde-16371528b0f8","ios":"levelo://app?vid=3e6303d3-177e-4d71-bdde-16371528b0f8"},"vehicle_type_id":"4","last_reported":1781177248,"current_range_meters":3200,"station_id":"st_d8gjfg747rts73coq3b0","pricing_plan_id":"cebpf4jnsgd1na2vs0mg"},{"bike_id":"0e3a7cd6-f4a2-4b11-a0fe-6f532a109655","system_id":"levelo_inurba_marseille","lat":43.28458,"lon":5.35903,"is_reserved":false,"is_disabled":false,"rental_uris":{"android":"levelo://app?vid=0e3a7cd6-f4a2-4b11-a0fe-6f532a109655","ios":"levelo://app?vid=0e3a7cd6-f4a2-4b11-a0fe-6f532a109655"},"vehicle_type_id":"4","last_reported":1781177248,"current_range_meters":3200,"station_id":"ce4bhah2rcd13ifvqei0","pricing_plan_id":"cebpf4jnsgd1na2vs0mg"},{"bike_id":"ee90cbc8-cf86-44b0-badd-4016027f9333","system_id":"levelo_inurba_marseille","lat":43.33739,"lon":5.39206,"is_reserved":false,"is_disabled":false,"rental_uris":{"android":"levelo://app?vid=ee90cbc8-cf86-44b0-badd-4016027f9333","ios":"levelo://app?vid=ee90cbc8-cf86-44b0-badd-4016027f9333"},"vehicle_type_id":"4","last_reported":1781177248,"current_range_meters":3200,"station_id":"ce4bhr92rcd13ifvqhsg","pricing_plan_id":"cebpf4jnsgd1na2vs0mg"},{"bike_id":"e3f195c1-68de-441e-ba78-12bea24338a5","system_id":"levelo_inurba_marseille","lat":43.25644,"lon":5.41865,"is_reserved":false,"is_disabled":false,"rental_uris":{"android":"levelo://app?vid=e3f195c1-68de-441e-ba78-12bea24338a5","ios":"levelo://app?vid=e3f195c1-68de-441e-ba78-12bea24338a5"},"vehicle_type_id":"4","last_reported":1781177248,"current_range_meters":3200,"station_id":"","pricing_plan_id":"cebpf4jnsgd1na2vs0mg"},{"bike_id":"a8cff10f-925f-47d3-8d2a-4913d17e9425","system_id":"levelo_inurba_marseille","lat":43.30174,"lon":5.40047,"is_reserved":false,"is_disabled":true,"rental_uris":{"android":"levelo://app?vid=a8cff10f-925f-47d3-8d2a-4913d17e9425","ios":"levelo://app?vid=a8cff10f-925f-47d3-8d2a-4913d17e9425"},"vehicle_type_id":"4","last_reported":1781177248,"current_range_meters":3600,"station_id":"","pricing_plan_id":"cebpf4jnsgd1na2vs0mg"},{"bike_id":"e80f8996-351c-4723-8d75-5faf96cf832b","system_id":"levelo_inurba_marseille","lat":43.28692,"lon":5.46669,"is_reserved":false,"is_disabled":false,"rental_uris":{"android":"levelo://app?vid=e80f8996-351c-4723-8d75-5faf96cf832b","ios":"levelo://app?vid=e80f8996-351c-4723-8d75-5faf96cf832b"},"vehicle_type_id":"4","last_reported":1781177248,"current_range_meters":3600,"station_id":"st_d6tc3vkotcvc738tfjhg","pricing_plan_id":"cebpf4jnsgd1na2vs0mg"},{"bike_id":"39ccd913-234b-4631-8894-5a79e620736a","system_id":"levelo_inurba_marseille","lat":43.29814,"lon":5.36213,"is_reserved":false,"is_disabled":false,"rental_uris":{"android":"levelo://app?vid=39ccd913-234b-4631-8894-5a79e620736a","ios":"levelo://app?vid=39ccd913-234b-4631-8894-5a79e620736a"},"vehicle_type_id":"4","last_reported":1781177248,"current_range_meters":3600,"station_id":"","pricing_plan_id":"cebpf4jnsgd1na2vs0mg"},{"bike_id":"c46384f4-53c8-4f51-8b80-c45773b69697","system_id":"levelo_inurba_marseille","lat":43.3015,"lon":5.3785,"is_reserved":false,"is_disabled":false,"rental_uris":{"android":"levelo://app?vid=c46384f4-53c8-4f51-8b80-c45773b69697","ios":"levelo://app?vid=c46384f4-53c8-4f51-8b80-c45773b69697"},"vehicle_type_id":"4","last_reported":1781177248,"current_range_meters":3600,"station_id":"","pricing_plan_id":"cebpf4jnsgd1na2vs0mg"},{"bike_id":"5ce31bd9-2c9f-4f01-96a5-6e567aeba930","system_id":"levelo_inurba_marseille","lat":43.31379,"lon":5.38491,"is_reserved":false,"is_disabled":false,"rental_uris":{"android":"levelo://app?vid=5ce31bd9-2c9f-4f01-96a5-6e567aeba930","ios":"levelo://app?vid=5ce31bd9-2c9f-4f01-96a5-6e567aeba930"},"vehicle_type_id":"4","last_reported":1781177248,"current_range_meters":3600,"station_id":"ce4bgt92rcd13ifvqcf0","pricing_plan_id":"cebpf4jnsgd1na2vs0mg"},{"bike_id":"ae92b062-c59f-4f30-85c8-29dba8395d40","system_id":"levelo_inurba_marseille","lat":43.28428,"lon":5.35006,"is_reserved":false,"is_disabled":false,"rental_uris":{"android":"levelo://app?vid=ae92b062-c59f-4f30-85c8-29dba8395d40","ios":"levelo://app?vid=ae92b062-c59f-4f30-85c8-29dba8395d40"},"vehicle_type_id":"4","last_reported":1781177248,"current_range_meters":3600,"station_id":"ce4bhbh2rcd13ifvqepg","pricing_plan_id":"cebpf4jnsgd1na2vs0mg"},{"bike_id":"bfead3df-3898-46ff-8027-03c813a765b0","system_id":"levelo_inurba_marseille","lat":43.30123,"lon":5.43126,"is_reserved":false,"is_disabled":false,"rental_uris":{"android":"levelo://app?vid=bfead3df-3898-46ff-8027-03c813a765b0","ios":"levelo://app?vid=bfead3df-3898-46ff-8027-03c813a765b0"},"vehicle_type_id":"4","last_reported":1781177248,"current_range_meters":3600,"station_id":"st_d3js3co5814s73ftftug","pricing_plan_id":"cebpf4jnsgd1na2vs0mg"},{"bike_id":"1b0eac04-f591-4a98-a859-f6b12de18cd7","system_id":"levelo_inurba_marseille","lat":43.28708,"lon":5.46693,"is_reserved":false,"is_disabled":false,"rental_uris":{"android":"levelo://app?vid=1b0eac04-f591-4a98-a859-f6b12de18cd7","ios":"levelo://app?vid=1b0eac04-f591-4a98-a859-f6b12de18cd7"},"vehicle_type_id":"4","last_reported":1781177248,"current_range_meters":3600,"station_id":"st_d6tc3vkotcvc738tfjhg","pricing_plan_id":"cebpf4jnsgd1na2vs0mg"},{"bike_id":"64c9f91d-5075-4479-b683-d48593996d86","system_id":"levelo_inurba_marseille","lat":43.29871,"lon":5.36279,"is_reserved":false,"is_disabled":true,"rental_uris":{"android":"levelo://app?vid=64c9f91d-5075-4479-b683-d48593996d86","ios":"levelo://app?vid=64c9f91d-5075-4479-b683-d48593996d86"},"vehicle_type_id":"4","last_reported":1781177248,"current_range_meters":3600,"station_id":"","pricing_plan_id":"cebpf4jnsgd1na2vs0mg"},{"bike_id":"4d735a9e-f2c8-4bb6-9521-dc1073864621","system_id":"levelo_inurba_marseille","lat":43.29271,"lon":5.42117,"is_reserved":false,"is_disabled":false,"rental_uris":{"android":"levelo://app?vid=4d735a9e-f2c8-4bb6-9521-dc1073864621","ios":"levelo://app?vid=4d735a9e-f2c8-4bb6-9521-dc1073864621"},"vehicle_type_id":"4","last_reported":1781177248,"current_range_meters":3600,"station_id":"","pricing_plan_id":"cebpf4jnsgd1na2vs0mg"},{"bike_id":"ef862df3-8bcc-4904-864b-4b00be5ffc0a","system_id":"levelo_inurba_marseille","lat":43.31363,"lon":5.38507,"is_reserved":false,"is_disabled":false,"rental_uris":{"android":"levelo://app?vid=ef862df3-8bcc-4904-864b-4b00be5ffc0a","ios":"levelo://app?vid=ef862df3-8bcc-4904-864b-4b00be5ffc0a"},"vehicle_type_id":"4","last_reported":1781177248,"current_range_meters":3600,"station_id":"ce4bgt92rcd13ifvqcf0","pricing_plan_id":"cebpf4jnsgd1na2vs0mg"},{"bike_id":"f5f5cf24-bc61-4f65-bf73-757a09621e7c","system_id":"levelo_inurba_marseille","lat":43.30531,"lon":5.3655,"is_reserved":false,"is_disabled":false,"rental_uris":{"android":"levelo://app?vid=f5f5cf24-bc61-4f65-bf73-757a09621e7c","ios":"levelo://app?vid=f5f5cf24-bc61-4f65-bf73-757a09621e7c"},"vehicle_type_id":"4","last_reported":1781177248,"current_range_meters":4000,"station_id":"ce4bgs12rcd13ifvqcag","pricing_plan_id":"cebpf4jnsgd1na2vs0mg"},{"bike_id":"2e07d43e-1d15-4f78-9c56-e234cec1a6e1","system_id":"levelo_inurba_marseille","lat":43.29597,"lon":5.38044,"is_reserved":false,"is_disabled":true,"rental_uris":{"android":"levelo://app?vid=2e07d43e-1d15-4f78-9c56-e234cec1a6e1","ios":"levelo://app?vid=2e07d43e-1d15-4f78-9c56-e234cec1a6e1"},"vehicle_type_id":"4","last_reported":1781177248,"current_range_meters":4000,"station_id":"","pricing_plan_id":"cebpf4jnsgd1na2vs0mg"},{"bike_id":"6124b231-474a-4e03-93b8-c31be0f74f91","system_id":"levelo_inurba_marseille","lat":43.27824,"lon":5.36465,"is_reserved":false,"is_disabled":false,"rental_uris":{"android":"levelo://app?vid=6124b231-474a-4e03-93b8-c31be0f74f91","ios":"levelo://app?vid=6124b231-474a-4e03-93b8-c31be0f74f91"},"vehicle_type_id":"4","last_reported":1781177248,"current_range_meters":4000,"station_id":"","pricing_plan_id":"cebpf4jnsgd1na2vs0mg"},{"bike_id":"2a8ee5a0-6852-44b0-a6e2-f4e4bf4a3fe5","system_id":"levelo_inurba_marseille","lat":43.25526,"lon":5.38908,"is_reserved":false,"is_disabled":true,"rental_uris":{"android":"levelo://app?vid=2a8ee5a0-6852-44b0-a6e2-f4e4bf4a3fe5","ios":"levelo://app?vid=2a8ee5a0-6852-44b0-a6e2-f4e4bf4a3fe5"},"vehicle_type_id":"4","last_reported":1781177248,"current_range_meters":4000,"station_id":"","pricing_plan_id":"cebpf4jnsgd1na2vs0mg"},{"bike_id":"178bc2bd-5eab-42dc-b76b-9555e44b4ebd","system_id":"levelo_inurba_marseille","lat":43.29174,"lon":5.37156,"is_reserved":false,"is_disabled":false,"rental_uris":{"android":"levelo://app?vid=178bc2bd-5eab-42dc-b76b-9555e44b4ebd","ios":"levelo://app?vid=178bc2bd-5eab-42dc-b76b-9555e44b4ebd"},"vehicle_type_id":"4","last_reported":1781177248,"current_range_meters":4000,"station_id":"ce4bha92rcd13ifvqeh0","pricing_plan_id":"cebpf4jnsgd1na2vs0mg"},{"bike_id":"5a502514-caf0-4cc4-b366-afc5435720f6","system_id":"levelo_inurba_marseille","lat":43.29796,"lon":5.38118,"is_reserved":false,"is_disabled":false,"rental_uris":{"android":"levelo://app?vid=5a502514-caf0-4cc4-b366-afc5435720f6","ios":"levelo://app?vid=5a502514-caf0-4cc4-b366-afc5435720f6"},"vehicle_type_id":"4","last_reported":1781177248,"current_range_meters":4000,"station_id":"ce4bgip2rcd13ifvqbb0","pricing_plan_id":"cebpf4jnsgd1na2vs0mg"},{"bike_id":"5563b42e-8633-43e4-a198-6fa05d91e704","system_id":"levelo_inurba_marseille","lat":43.26065,"lon":5.39389,"is_reserved":false,"is_disabled":false,"rental_uris":{"android":"levelo://app?vid=5563b42e-8633-43e4-a198-6fa05d91e704","ios":"levelo://app?vid=5563b42e-8633-43e4-a198-6fa05d91e704"},"vehicle_type_id":"4","last_reported":1781177248,"current_range_meters":4000,"station_id":"ce4bhh92rcd13ifvqfj0","pricing_plan_id":"cebpf4jnsgd1na2vs0mg"},{"bike_id":"a0b53861-d04c-461f-8009-234356175c64","system_id":"levelo_inurba_marseille","lat":43.28701,"lon":5.46687,"is_reserved":false,"is_disabled":false,"rental_uris":{"android":"levelo://app?vid=a0b53861-d04c-461f-8009-234356175c64","ios":"levelo://app?vid=a0b53861-d04c-461f-8009-234356175c64"},"vehicle_type_id":"4","last_reported":1781177248,"current_range_meters":4000,"station_id":"st_d6tc3vkotcvc738tfjhg","pricing_plan_id":"cebpf4jnsgd1na2vs0mg"},{"bike_id":"853b0d6f-b336-492c-8d19-63652c554c7e","system_id":"levelo_inurba_marseille","lat":43.2541,"lon":5.42551,"is_reserved":false,"is_disabled":false,"rental_uris":{"android":"levelo://app?vid=853b0d6f-b336-492c-8d19-63652c554c7e","ios":"levelo://app?vid=853b0d6f-b336-492c-8d19-63652c554c7e"},"vehicle_type_id":"4","last_reported":1781177248,"current_range_meters":4000,"station_id":"","pricing_plan_id":"cebpf4jnsgd1na2vs0mg"},{"bike_id":"e6ff52bc-5f7a-4d86-894d-24f42f5c3cd5","system_id":"levelo_inurba_marseille","lat":43.29221,"lon":5.36042,"is_reserved":false,"is_disabled":false,"rental_uris":{"android":"levelo://app?vid=e6ff52bc-5f7a-4d86-894d-24f42f5c3cd5","ios":"levelo://app?vid=e6ff52bc-5f7a-4d86-894d-24f42f5c3cd5"},"vehicle_type_id":"4","last_reported":1781177248,"current_range_meters":4000,"station_id":"ce4bhbh2rcd13ifvqeqg","pricing_plan_id":"cebpf4jnsgd1na2vs0mg"},{"bike_id":"e2c0a208-0dcf-49b6-acbe-9bb56c554953","system_id":"levelo_inurba_marseille","lat":43.26919,"lon":5.42518,"is_reserved":false,"is_disabled":false,"rental_uris":{"android":"levelo://app?vid=e2c0a208-0dcf-49b6-acbe-9bb56c554953","ios":"levelo://app?vid=e2c0a208-0dcf-49b6-acbe-9bb56c554953"},"vehicle_type_id":"4","last_reported":1781177248,"current_range_meters":4000,"station_id":"","pricing_plan_id":"cebpf4jnsgd1na2vs0mg"},{"bike_id":"02524151-7db8-46b4-af9b-ba50f4186017","system_id":"levelo_inurba_marseille","lat":43.26938,"lon":5.38917,"is_reserved":false,"is_disabled":false,"rental_uris":{"android":"levelo://app?vid=02524151-7db8-46b4-af9b-ba50f4186017","ios":"levelo://app?vid=02524151-7db8-46b4-af9b-ba50f4186017"},"vehicle_type_id":"4","last_reported":1781177248,"current_range_meters":4000,"station_id":"ce4bhhh2rcd13ifvqfl0","pricing_plan_id":"cebpf4jnsgd1na2vs0mg"},{"bike_id":"c50a9e43-666a-4ebb-bb15-fba6ac3b0d59","system_id":"levelo_inurba_marseille","lat":43.29323,"lon":5.36354,"is_reserved":false,"is_disabled":false,"rental_uris":{"android":"levelo://app?vid=c50a9e43-666a-4ebb-bb15-fba6ac3b0d59","ios":"levelo://app?vid=c50a9e43-666a-4ebb-bb15-fba6ac3b0d59"},"vehicle_type_id":"4","last_reported":1781177248,"current_range_meters":4000,"station_id":"","pricing_plan_id":"cebpf4jnsgd1na2vs0mg"},{"bike_id":"66834094-2585-4fc6-9d67-9a7222400c5e","system_id":"levelo_inurba_marseille","lat":43.29154,"lon":5.37774,"is_reserved":false,"is_disabled":false,"rental_uris":{"android":"levelo://app?vid=66834094-2585-4fc6-9d67-9a7222400c5e","ios":"levelo://app?vid=66834094-2585-4fc6-9d67-9a7222400c5e"},"vehicle_type_id":"4","last_reported":1781177248,"current_range_meters":4400,"station_id":"","pricing_plan_id":"cebpf4jnsgd1na2vs0mg"},{"bike_id":"c17a6309-acfb-43a9-a343-02dfeb083df5","system_id":"levelo_inurba_marseille","lat":43.33544,"lon":5.3747,"is_reserved":false,"is_disabled":false,"rental_uris":{"android":"levelo://app?vid=c17a6309-acfb-43a9-a343-02dfeb083df5","ios":"levelo://app?vid=c17a6309-acfb-43a9-a343-02dfeb083df5"},"vehicle_type_id":"4","last_reported":1781177248,"current_range_meters":4400,"station_id":"st_d46tts09ee8s73dlu43g","pricing_plan_id":"cebpf4jnsgd1na2vs0mg"},{"bike_id":"cc044a5d-6424-486c-a90d-3884464a6b29","system_id":"levelo_inurba_marseille","lat":43.3206,"lon":5.36311,"is_reserved":false,"is_disabled":false,"rental_uris":{"android":"levelo://app?vid=cc044a5d-6424-486c-a90d-3884464a6b29","ios":"levelo://app?vid=cc044a5d-6424-486c-a90d-3884464a6b29"},"vehicle_type_id":"4","last_reported":1781177248,"current_range_meters":4400,"station_id":"","pricing_plan_id":"cebpf4jnsgd1na2vs0mg"},{"bike_id":"58e68832-71a2-4e89-bd3b-97fc222e156f","system_id":"levelo_inurba_marseille","lat":43.31175,"lon":5.36876,"is_reserved":false,"is_disabled":false,"rental_uris":{"android":"levelo://app?vid=58e68832-71a2-4e89-bd3b-97fc222e156f","ios":"levelo://app?vid=58e68832-71a2-4e89-bd3b-97fc222e156f"},"vehicle_type_id":"4","last_reported":1781177248,"current_range_meters":4400,"station_id":"","pricing_plan_id":"cebpf4jnsgd1na2vs0mg"},{"bike_id":"a359d33f-688b-4843-bf0e-19ddaa6f86dc","system_id":"levelo_inurba_marseille","lat":43.31393,"lon":5.36656,"is_reserved":false,"is_disabled":false,"rental_uris":{"android":"levelo://app?vid=a359d33f-688b-4843-bf0e-19ddaa6f86dc","ios":"levelo://app?vid=a359d33f-688b-4843-bf0e-19ddaa6f86dc"},"vehicle_type_id":"4","last_reported":1781177248,"current_range_meters":4400,"station_id":"","pricing_plan_id":"cebpf4jnsgd1na2vs0mg"},{"bike_id":"85199ac3-adfa-4f77-b1db-b9f033711170","system_id":"levelo_inurba_marseille","lat":43.28269,"lon":5.35068,"is_reserved":false,"is_disabled":false,"rental_uris":{"android":"levelo://app?vid=85199ac3-adfa-4f77-b1db-b9f033711170","ios":"levelo://app?vid=85199ac3-adfa-4f77-b1db-b9f033711170"},"vehicle_type_id":"4","last_reported":1781177248,"current_range_meters":4400,"station_id":"ce4bhbp2rcd13ifvqerg","pricing_plan_id":"cebpf4jnsgd1na2vs0mg"},{"bike_id":"d4a485ca-544f-4e15-a3d5-638351c050dc","system_id":"levelo_inurba_marseille","lat":43.28722,"lon":5.404,"is_reserved":false,"is_disabled":false,"rental_uris":{"android":"levelo://app?vid=d4a485ca-544f-4e15-a3d5-638351c050dc","ios":"levelo://app?vid=d4a485ca-544f-4e15-a3d5-638351c050dc"},"vehicle_type_id":"4","last_reported":1781177248,"current_range_meters":4400,"station_id":"","pricing_plan_id":"cebpf4jnsgd1na2vs0mg"},{"bike_id":"4cb6b575-12ac-451a-9a26-4d10b77012a0","system_id":"levelo_inurba_marseille","lat":43.30952,"lon":5.39025,"is_reserved":false,"is_disabled":false,"rental_uris":{"android":"levelo://app?vid=4cb6b575-12ac-451a-9a26-4d10b77012a0","ios":"levelo://app?vid=4cb6b575-12ac-451a-9a26-4d10b77012a0"},"vehicle_type_id":"4","last_reported":1781177248,"current_range_meters":4400,"station_id":"ce4bgup2rcd13ifvqco0","pricing_plan_id":"cebpf4jnsgd1na2vs0mg"},{"bike_id":"a22bdfd4-f5ab-4ba0-bb7a-3e570045354b","system_id":"levelo_inurba_marseille","lat":43.3019,"lon":5.39121,"is_reserved":false,"is_disabled":false,"rental_uris":{"android":"levelo://app?vid=a22bdfd4-f5ab-4ba0-bb7a-3e570045354b","ios":"levelo://app?vid=a22bdfd4-f5ab-4ba0-bb7a-3e570045354b"},"vehicle_type_id":"4","last_reported":1781177248,"current_range_meters":4400,"station_id":"","pricing_plan_id":"cebpf4jnsgd1na2vs0mg"},{"bike_id":"5cf01eb2-808b-4c43-8d74-2b6c5b4a85c9","system_id":"levelo_inurba_marseille","lat":43.30332,"lon":5.40435,"is_reserved":false,"is_disabled":false,"rental_uris":{"android":"levelo://app?vid=5cf01eb2-808b-4c43-8d74-2b6c5b4a85c9","ios":"levelo://app?vid=5cf01eb2-808b-4c43-8d74-2b6c5b4a85c9"},"vehicle_type_id":"4","last_reported":1781177248,"current_range_meters":4400,"station_id":"ce4bh012rcd13ifvqd10","pricing_plan_id":"cebpf4jnsgd1na2vs0mg"},{"bike_id":"89239927-eaea-4a0b-aae5-13eca7a1cae2","system_id":"levelo_inurba_marseille","lat":43.301831,"lon":5.366026,"is_reserved":false,"is_disabled":false,"rental_uris":{"android":"levelo://app?vid=89239927-eaea-4a0b-aae5-13eca7a1cae2","ios":"levelo://app?vid=89239927-eaea-4a0b-aae5-13eca7a1cae2"},"vehicle_type_id":"4","last_reported":1781177248,"current_range_meters":4800,"station_id":"ce4bgrh2rcd13ifvqc8g","pricing_plan_id":"cebpf4jnsgd1na2vs0mg"},{"bike_id":"3a0a3c1e-d128-4138-b2e1-df846eb876c4","system_id":"levelo_inurba_marseille","lat":43.28673,"lon":5.39498,"is_reserved":false,"is_disabled":false,"rental_uris":{"android":"levelo://app?vid=3a0a3c1e-d128-4138-b2e1-df846eb876c4","ios":"levelo://app?vid=3a0a3c1e-d128-4138-b2e1-df846eb876c4"},"vehicle_type_id":"4","last_reported":1781177248,"current_range_meters":4800,"station_id":"","pricing_plan_id":"cebpf4jnsgd1na2vs0mg"},{"bike_id":"12df29cc-abfa-41e4-9d8d-6005376fb963","system_id":"levelo_inurba_marseille","lat":43.266188,"lon":5.394222,"is_reserved":false,"is_disabled":false,"rental_uris":{"android":"levelo://app?vid=12df29cc-abfa-41e4-9d8d-6005376fb963","ios":"levelo://app?vid=12df29cc-abfa-41e4-9d8d-6005376fb963"},"vehicle_type_id":"4","last_reported":1781177248,"current_range_meters":4800,"station_id":"","pricing_plan_id":"cebpf4jnsgd1na2vs0mg"},{"bike_id":"2ff017c8-2cbc-493f-b435-f6a67427a94c","system_id":"levelo_inurba_marseille","lat":43.30125,"lon":5.43118,"is_reserved":false,"is_disabled":false,"rental_uris":{"android":"levelo://app?vid=2ff017c8-2cbc-493f-b435-f6a67427a94c","ios":"levelo://app?vid=2ff017c8-2cbc-493f-b435-f6a67427a94c"},"vehicle_type_id":"4","last_reported":1781177248,"current_range_meters":4800,"station_id":"st_d3js3co5814s73ftftug","pricing_plan_id":"cebpf4jnsgd1na2vs0mg"},{"bike_id":"582c6b7b-37e6-4a03-8f89-52fb5665e43d","system_id":"levelo_inurba_marseille","lat":43.29044,"lon":5.38678,"is_reserved":false,"is_disabled":true,"rental_uris":{"android":"levelo://app?vid=582c6b7b-37e6-4a03-8f89-52fb5665e43d","ios":"levelo://app?vid=582c6b7b-37e6-4a03-8f89-52fb5665e43d"},"vehicle_type_id":"4","last_reported":1781177248,"current_range_meters":4800,"station_id":"ce4bh4p2rcd13ifvqe0g","pricing_plan_id":"cebpf4jnsgd1na2vs0mg"},{"bike_id":"89e366c3-1a4f-4118-80b3-b10f3ed79b47","system_id":"levelo_inurba_marseille","lat":43.3031,"lon":5.36892,"is_reserved":false,"is_disabled":false,"rental_uris":{"android":"levelo://app?vid=89e366c3-1a4f-4118-80b3-b10f3ed79b47","ios":"levelo://app?vid=89e366c3-1a4f-4118-80b3-b10f3ed79b47"},"vehicle_type_id":"4","last_reported":1781177248,"current_range_meters":4800,"station_id":"ce4bgqh2rcd13ifvqc5g","pricing_plan_id":"cebpf4jnsgd1na2vs0mg"},{"bike_id":"4e44ca7b-8778-42ac-987b-6a0b6df84725","system_id":"levelo_inurba_marseille","lat":43.26678,"lon":5.3826,"is_reserved":false,"is_disabled":false,"rental_uris":{"android":"levelo://app?vid=4e44ca7b-8778-42ac-987b-6a0b6df84725","ios":"levelo://app?vid=4e44ca7b-8778-42ac-987b-6a0b6df84725"},"vehicle_type_id":"4","last_reported":1781177248,"current_range_meters":4800,"station_id":"ce4bhg92rcd13ifvqf90","pricing_plan_id":"cebpf4jnsgd1na2vs0mg"},{"bike_id":"7ec031de-7c88-43ac-be18-5d9a05a570d6","system_id":"levelo_inurba_marseille","lat":43.29722,"lon":5.36579,"is_reserved":false,"is_disabled":false,"rental_uris":{"android":"levelo://app?vid=7ec031de-7c88-43ac-be18-5d9a05a570d6","ios":"levelo://app?vid=7ec031de-7c88-43ac-be18-5d9a05a570d6"},"vehicle_type_id":"4","last_reported":1781177248,"current_range_meters":4800,"station_id":"ce4bgn12rcd13ifvqbt0","pricing_plan_id":"cebpf4jnsgd1na2vs0mg"},{"bike_id":"0b542d53-e4b2-4fd5-adf4-084e17c09620","system_id":"levelo_inurba_marseille","lat":43.30121,"lon":5.43124,"is_reserved":false,"is_disabled":false,"rental_uris":{"android":"levelo://app?vid=0b542d53-e4b2-4fd5-adf4-084e17c09620","ios":"levelo://app?vid=0b542d53-e4b2-4fd5-adf4-084e17c09620"},"vehicle_type_id":"4","last_reported":1781177248,"current_range_meters":4800,"station_id":"st_d3js3co5814s73ftftug","pricing_plan_id":"cebpf4jnsgd1na2vs0mg"},{"bike_id":"627383c3-1ca4-4292-a0f0-c21bf7584678","system_id":"levelo_inurba_marseille","lat":43.28746,"lon":5.427,"is_reserved":false,"is_disabled":false,"rental_uris":{"android":"levelo://app?vid=627383c3-1ca4-4292-a0f0-c21bf7584678","ios":"levelo://app?vid=627383c3-1ca4-4292-a0f0-c21bf7584678"},"vehicle_type_id":"4","last_reported":1781177248,"current_range_meters":4800,"station_id":"","pricing_plan_id":"cebpf4jnsgd1na2vs0mg"},{"bike_id":"5816fa68-0c8b-4973-8ff2-beeeec4904fb","system_id":"levelo_inurba_marseille","lat":43.29615,"lon":5.3806,"is_reserved":false,"is_disabled":false,"rental_uris":{"android":"levelo://app?vid=5816fa68-0c8b-4973-8ff2-beeeec4904fb","ios":"levelo://app?vid=5816fa68-0c8b-4973-8ff2-beeeec4904fb"},"vehicle_type_id":"4","last_reported":1781177248,"current_range_meters":4800,"station_id":"ce4bgl12rcd13ifvqbo0","pricing_plan_id":"cebpf4jnsgd1na2vs0mg"},{"bike_id":"24f563ec-a7b7-4585-8923-b682310ac29d","system_id":"levelo_inurba_marseille","lat":43.30454,"lon":5.37906,"is_reserved":false,"is_disabled":false,"rental_uris":{"android":"levelo://app?vid=24f563ec-a7b7-4585-8923-b682310ac29d","ios":"levelo://app?vid=24f563ec-a7b7-4585-8923-b682310ac29d"},"vehicle_type_id":"4","last_reported":1781177248,"current_range_meters":4800,"station_id":"ce4bgup2rcd13ifvqcn0","pricing_plan_id":"cebpf4jnsgd1na2vs0mg"},{"bike_id":"96c48afb-bb75-4eb8-88d0-8c9660efdd5b","system_id":"levelo_inurba_marseille","lat":43.29673,"lon":5.36866,"is_reserved":false,"is_disabled":false,"rental_uris":{"android":"levelo://app?vid=96c48afb-bb75-4eb8-88d0-8c9660efdd5b","ios":"levelo://app?vid=96c48afb-bb75-4eb8-88d0-8c9660efdd5b"},"vehicle_type_id":"4","last_reported":1781177248,"current_range_meters":4800,"station_id":"","pricing_plan_id":"cebpf4jnsgd1na2vs0mg"},{"bike_id":"ee7a0ebc-1fba-4e1e-8b2e-b768638d29c7","system_id":"levelo_inurba_marseille","lat":43.2842,"lon":5.34991,"is_reserved":false,"is_disabled":false,"rental_uris":{"android":"levelo://app?vid=ee7a0ebc-1fba-4e1e-8b2e-b768638d29c7","ios":"levelo://app?vid=ee7a0ebc-1fba-4e1e-8b2e-b768638d29c7"},"vehicle_type_id":"4","last_reported":1781177248,"current_range_meters":4800,"station_id":"ce4bhbh2rcd13ifvqepg","pricing_plan_id":"cebpf4jnsgd1na2vs0mg"},{"bike_id":"d0b6f97d-392b-4355-9f32-cf4ba73fb823","system_id":"levelo_inurba_marseille","lat":43.21186,"lon":5.35081,"is_reserved":false,"is_disabled":false,"rental_uris":{"android":"levelo://app?vid=d0b6f97d-392b-4355-9f32-cf4ba73fb823","ios":"levelo://app?vid=d0b6f97d-392b-4355-9f32-cf4ba73fb823"},"vehicle_type_id":"4","last_reported":1781177248,"current_range_meters":4800,"station_id":"st_cvj6sg6p6f1abm77japg","pricing_plan_id":"cebpf4jnsgd1na2vs0mg"},{"bike_id":"58b0ba45-cf65-44b0-a8ba-31206dbf0e7d","system_id":"levelo_inurba_marseille","lat":43.31134,"lon":5.37769,"is_reserved":false,"is_disabled":false,"rental_uris":{"android":"levelo://app?vid=58b0ba45-cf65-44b0-a8ba-31206dbf0e7d","ios":"levelo://app?vid=58b0ba45-cf65-44b0-a8ba-31206dbf0e7d"},"vehicle_type_id":"4","last_reported":1781177248,"current_range_meters":4800,"station_id":"ce4bgt92rcd13ifvqcg0","pricing_plan_id":"cebpf4jnsgd1na2vs0mg"},{"bike_id":"f8671556-b7c4-4a04-86c9-422f70a6fa84","system_id":"levelo_inurba_marseille","lat":43.3353,"lon":5.42021,"is_reserved":false,"is_disabled":false,"rental_uris":{"android":"levelo://app?vid=f8671556-b7c4-4a04-86c9-422f70a6fa84","ios":"levelo://app?vid=f8671556-b7c4-4a04-86c9-422f70a6fa84"},"vehicle_type_id":"4","last_reported":1781177248,"current_range_meters":4800,"station_id":"","pricing_plan_id":"cebpf4jnsgd1na2vs0mg"},{"bike_id":"ec7b5b2e-4e34-4ad3-88e1-b9c991cf20e9","system_id":"levelo_inurba_marseille","lat":43.24386,"lon":5.37056,"is_reserved":false,"is_disabled":false,"rental_uris":{"android":"levelo://app?vid=ec7b5b2e-4e34-4ad3-88e1-b9c991cf20e9","ios":"levelo://app?vid=ec7b5b2e-4e34-4ad3-88e1-b9c991cf20e9"},"vehicle_type_id":"4","last_reported":1781177248,"current_range_meters":4800,"station_id":"ce4bhhh2rcd13ifvqfk0","pricing_plan_id":"cebpf4jnsgd1na2vs0mg"},{"bike_id":"7d0323ba-0875-48d7-afb2-455a8528a797","system_id":"levelo_inurba_marseille","lat":43.26209,"lon":5.37907,"is_reserved":false,"is_disabled":false,"rental_uris":{"android":"levelo://app?vid=7d0323ba-0875-48d7-afb2-455a8528a797","ios":"levelo://app?vid=7d0323ba-0875-48d7-afb2-455a8528a797"},"vehicle_type_id":"4","last_reported":1781177248,"current_range_meters":5600,"station_id":"ce4bhjp2rcd13ifvqg90","pricing_plan_id":"cebpf4jnsgd1na2vs0mg"},{"bike_id":"c5909df9-fa47-434f-ad67-6f8975d9373a","system_id":"levelo_inurba_marseille","lat":43.30548,"lon":5.36722,"is_reserved":false,"is_disabled":false,"rental_uris":{"android":"levelo://app?vid=c5909df9-fa47-434f-ad67-6f8975d9373a","ios":"levelo://app?vid=c5909df9-fa47-434f-ad67-6f8975d9373a"},"vehicle_type_id":"4","last_reported":1781177248,"current_range_meters":5600,"station_id":"ce4bgrp2rcd13ifvqc9g","pricing_plan_id":"cebpf4jnsgd1na2vs0mg"},{"bike_id":"6cbecfdc-f7a0-4f25-b1cc-60038b2085ca","system_id":"levelo_inurba_marseille","lat":43.29,"lon":5.38141,"is_reserved":false,"is_disabled":false,"rental_uris":{"android":"levelo://app?vid=6cbecfdc-f7a0-4f25-b1cc-60038b2085ca","ios":"levelo://app?vid=6cbecfdc-f7a0-4f25-b1cc-60038b2085ca"},"vehicle_type_id":"4","last_reported":1781177248,"current_range_meters":5600,"station_id":"ce4bh4p2rcd13ifvqe1g","pricing_plan_id":"cebpf4jnsgd1na2vs0mg"},{"bike_id":"b5d713d6-fb2c-4f85-9496-147ac99b124c","system_id":"levelo_inurba_marseille","lat":43.22928,"lon":5.35376,"is_reserved":false,"is_disabled":false,"rental_uris":{"android":"levelo://app?vid=b5d713d6-fb2c-4f85-9496-147ac99b124c","ios":"levelo://app?vid=b5d713d6-fb2c-4f85-9496-147ac99b124c"},"vehicle_type_id":"4","last_reported":1781177248,"current_range_meters":5600,"station_id":"cpo3532slgdg3j2ikp40","pricing_plan_id":"cebpf4jnsgd1na2vs0mg"},{"bike_id":"479a476a-158f-4fed-bb39-6f43ac9d4715","system_id":"levelo_inurba_marseille","lat":43.32088,"lon":5.36797,"is_reserved":false,"is_disabled":false,"rental_uris":{"android":"levelo://app?vid=479a476a-158f-4fed-bb39-6f43ac9d4715","ios":"levelo://app?vid=479a476a-158f-4fed-bb39-6f43ac9d4715"},"vehicle_type_id":"4","last_reported":1781177248,"current_range_meters":5600,"station_id":"ce4bhrh2rcd13ifvqhug","pricing_plan_id":"cebpf4jnsgd1na2vs0mg"},{"bike_id":"b8b6daec-2f79-48d9-9eae-32764683aa9c","system_id":"levelo_inurba_marseille","lat":43.27209,"lon":5.39188,"is_reserved":false,"is_disabled":false,"rental_uris":{"android":"levelo://app?vid=b8b6daec-2f79-48d9-9eae-32764683aa9c","ios":"levelo://app?vid=b8b6daec-2f79-48d9-9eae-32764683aa9c"},"vehicle_type_id":"4","last_reported":1781177248,"current_range_meters":5600,"station_id":"ce4bhhp2rcd13ifvqfm0","pricing_plan_id":"cebpf4jnsgd1na2vs0mg"},{"bike_id":"998a3d34-0187-4185-b999-6460d931de76","system_id":"levelo_inurba_marseille","lat":43.283661,"lon":5.386313,"is_reserved":false,"is_disabled":false,"rental_uris":{"android":"levelo://app?vid=998a3d34-0187-4185-b999-6460d931de76","ios":"levelo://app?vid=998a3d34-0187-4185-b999-6460d931de76"},"vehicle_type_id":"4","last_reported":1781177248,"current_range_meters":5600,"station_id":"","pricing_plan_id":"cebpf4jnsgd1na2vs0mg"},{"bike_id":"fd2f0fe2-2447-45be-8c9a-456f406e59a8","system_id":"levelo_inurba_marseille","lat":43.30316,"lon":5.36903,"is_reserved":false,"is_disabled":false,"rental_uris":{"android":"levelo://app?vid=fd2f0fe2-2447-45be-8c9a-456f406e59a8","ios":"levelo://app?vid=fd2f0fe2-2447-45be-8c9a-456f406e59a8"},"vehicle_type_id":"4","last_reported":1781177248,"current_range_meters":5600,"station_id":"ce4bgqh2rcd13ifvqc5g","pricing_plan_id":"cebpf4jnsgd1na2vs0mg"},{"bike_id":"0f8fdcf1-cac5-408f-aaa6-4db5480dfb1d","system_id":"levelo_inurba_marseille","lat":43.29985,"lon":5.36893,"is_reserved":false,"is_disabled":false,"rental_uris":{"android":"levelo://app?vid=0f8fdcf1-cac5-408f-aaa6-4db5480dfb1d","ios":"levelo://app?vid=0f8fdcf1-cac5-408f-aaa6-4db5480dfb1d"},"vehicle_type_id":"4","last_reported":1781177248,"current_range_meters":5600,"station_id":"","pricing_plan_id":"cebpf4jnsgd1na2vs0mg"},{"bike_id":"2c9008ec-eff6-41b9-bff5-3d266d108cfb","system_id":"levelo_inurba_marseille","lat":43.30444,"lon":5.41561,"is_reserved":false,"is_disabled":false,"rental_uris":{"android":"levelo://app?vid=2c9008ec-eff6-41b9-bff5-3d266d108cfb","ios":"levelo://app?vid=2c9008ec-eff6-41b9-bff5-3d266d108cfb"},"vehicle_type_id":"4","last_reported":1781177248,"current_range_meters":5600,"station_id":"","pricing_plan_id":"cebpf4jnsgd1na2vs0mg"},{"bike_id":"14b4b371-8f26-4cf1-95b4-880cc3bc4611","system_id":"levelo_inurba_marseille","lat":43.29454,"lon":5.37204,"is_reserved":false,"is_disabled":true,"rental_uris":{"android":"levelo://app?vid=14b4b371-8f26-4cf1-95b4-880cc3bc4611","ios":"levelo://app?vid=14b4b371-8f26-4cf1-95b4-880cc3bc4611"},"vehicle_type_id":"4","last_reported":1781177248,"current_range_meters":5600,"station_id":"ce4bgh92rcd13ifvqb40","pricing_plan_id":"cebpf4jnsgd1na2vs0mg"},{"bike_id":"4df93a2d-aa6a-4b31-93fb-7fa77fa8a80d","system_id":"levelo_inurba_marseille","lat":43.32186,"lon":5.44087,"is_reserved":false,"is_disabled":false,"rental_uris":{"android":"levelo://app?vid=4df93a2d-aa6a-4b31-93fb-7fa77fa8a80d","ios":"levelo://app?vid=4df93a2d-aa6a-4b31-93fb-7fa77fa8a80d"},"vehicle_type_id":"4","last_reported":1781177248,"current_range_meters":5600,"station_id":"","pricing_plan_id":"cebpf4jnsgd1na2vs0mg"},{"bike_id":"a397834c-d873-4b71-80f7-a349f1dae34a","system_id":"levelo_inurba_marseille","lat":43.28398,"lon":5.34999,"is_reserved":false,"is_disabled":false,"rental_uris":{"android":"levelo://app?vid=a397834c-d873-4b71-80f7-a349f1dae34a","ios":"levelo://app?vid=a397834c-d873-4b71-80f7-a349f1dae34a"},"vehicle_type_id":"4","last_reported":1781177248,"current_range_meters":6000,"station_id":"ce4bhbh2rcd13ifvqepg","pricing_plan_id":"cebpf4jnsgd1na2vs0mg"},{"bike_id":"42c42cf3-fcdc-4238-9dba-bbb35e0000a2","system_id":"levelo_inurba_marseille","lat":43.26372,"lon":5.41085,"is_reserved":false,"is_disabled":false,"rental_uris":{"android":"levelo://app?vid=42c42cf3-fcdc-4238-9dba-bbb35e0000a2","ios":"levelo://app?vid=42c42cf3-fcdc-4238-9dba-bbb35e0000a2"},"vehicle_type_id":"4","last_reported":1781177248,"current_range_meters":6000,"station_id":"st_d4e5ca6na9uc73bfl5fg","pricing_plan_id":"cebpf4jnsgd1na2vs0mg"},{"bike_id":"1e97b5d4-e219-4fec-ba67-d3a685d0b88d","system_id":"levelo_inurba_marseille","lat":43.29254,"lon":5.38424,"is_reserved":false,"is_disabled":false,"rental_uris":{"android":"levelo://app?vid=1e97b5d4-e219-4fec-ba67-d3a685d0b88d","ios":"levelo://app?vid=1e97b5d4-e219-4fec-ba67-d3a685d0b88d"},"vehicle_type_id":"4","last_reported":1781177248,"current_range_meters":6000,"station_id":"ce4bh692rcd13ifvqea0","pricing_plan_id":"cebpf4jnsgd1na2vs0mg"},{"bike_id":"36a52cc1-4b60-4aac-8384-5286b63a149c","system_id":"levelo_inurba_marseille","lat":43.32104,"lon":5.36776,"is_reserved":false,"is_disabled":false,"rental_uris":{"android":"levelo://app?vid=36a52cc1-4b60-4aac-8384-5286b63a149c","ios":"levelo://app?vid=36a52cc1-4b60-4aac-8384-5286b63a149c"},"vehicle_type_id":"4","last_reported":1781177248,"current_range_meters":6000,"station_id":"ce4bhrh2rcd13ifvqhug","pricing_plan_id":"cebpf4jnsgd1na2vs0mg"},{"bike_id":"51722413-2c2f-402b-9b76-375e5adca694","system_id":"levelo_inurba_marseille","lat":43.29741,"lon":5.37696,"is_reserved":false,"is_disabled":false,"rental_uris":{"android":"levelo://app?vid=51722413-2c2f-402b-9b76-375e5adca694","ios":"levelo://app?vid=51722413-2c2f-402b-9b76-375e5adca694"},"vehicle_type_id":"4","last_reported":1781177248,"current_range_meters":6000,"station_id":"ce4bgkh2rcd13ifvqbl0","pricing_plan_id":"cebpf4jnsgd1na2vs0mg"},{"bike_id":"a4b00031-ee09-4aec-8eb7-94d1603e3e96","system_id":"levelo_inurba_marseille","lat":43.32094,"lon":5.36772,"is_reserved":false,"is_disabled":false,"rental_uris":{"android":"levelo://app?vid=a4b00031-ee09-4aec-8eb7-94d1603e3e96","ios":"levelo://app?vid=a4b00031-ee09-4aec-8eb7-94d1603e3e96"},"vehicle_type_id":"4","last_reported":1781177248,"current_range_meters":6000,"station_id":"ce4bhrh2rcd13ifvqhug","pricing_plan_id":"cebpf4jnsgd1na2vs0mg"},{"bike_id":"b00c37ac-2d24-4c60-9ae8-4814b2bfa232","system_id":"levelo_inurba_marseille","lat":43.26195,"lon":5.37453,"is_reserved":false,"is_disabled":false,"rental_uris":{"android":"levelo://app?vid=b00c37ac-2d24-4c60-9ae8-4814b2bfa232","ios":"levelo://app?vid=b00c37ac-2d24-4c60-9ae8-4814b2bfa232"},"vehicle_type_id":"4","last_reported":1781177248,"current_range_meters":6000,"station_id":"ce4bhgp2rcd13ifvqfc0","pricing_plan_id":"cebpf4jnsgd1na2vs0mg"},{"bike_id":"fcda0fec-7624-4bfb-95cd-266f0269746a","system_id":"levelo_inurba_marseille","lat":43.28414,"lon":5.349754,"is_reserved":false,"is_disabled":false,"rental_uris":{"android":"levelo://app?vid=fcda0fec-7624-4bfb-95cd-266f0269746a","ios":"levelo://app?vid=fcda0fec-7624-4bfb-95cd-266f0269746a"},"vehicle_type_id":"4","last_reported":1781177248,"current_range_meters":6000,"station_id":"ce4bhbh2rcd13ifvqepg","pricing_plan_id":"cebpf4jnsgd1na2vs0mg"},{"bike_id":"1d885001-881f-4c7a-ac86-1941adfead6e","system_id":"levelo_inurba_marseille","lat":43.25511,"lon":5.377,"is_reserved":false,"is_disabled":false,"rental_uris":{"android":"levelo://app?vid=1d885001-881f-4c7a-ac86-1941adfead6e","ios":"levelo://app?vid=1d885001-881f-4c7a-ac86-1941adfead6e"},"vehicle_type_id":"4","last_reported":1781177248,"current_range_meters":6000,"station_id":"ce4bhh12rcd13ifvqff0","pricing_plan_id":"cebpf4jnsgd1na2vs0mg"},{"bike_id":"10735159-3397-4800-83f9-6dea2cbec6ca","system_id":"levelo_inurba_marseille","lat":43.33543,"lon":5.37471,"is_reserved":false,"is_disabled":false,"rental_uris":{"android":"levelo://app?vid=10735159-3397-4800-83f9-6dea2cbec6ca","ios":"levelo://app?vid=10735159-3397-4800-83f9-6dea2cbec6ca"},"vehicle_type_id":"4","last_reported":1781177248,"current_range_meters":6000,"station_id":"st_d46tts09ee8s73dlu43g","pricing_plan_id":"cebpf4jnsgd1na2vs0mg"},{"bike_id":"fadbe248-96f4-4da0-8a5e-bd3c6f824303","system_id":"levelo_inurba_marseille","lat":43.21221,"lon":5.35086,"is_reserved":false,"is_disabled":false,"rental_uris":{"android":"levelo://app?vid=fadbe248-96f4-4da0-8a5e-bd3c6f824303","ios":"levelo://app?vid=fadbe248-96f4-4da0-8a5e-bd3c6f824303"},"vehicle_type_id":"4","last_reported":1781177248,"current_range_meters":6400,"station_id":"st_cvj6sg6p6f1abm77japg","pricing_plan_id":"cebpf4jnsgd1na2vs0mg"},{"bike_id":"172575f4-60a1-49c0-aea1-545504653d27","system_id":"levelo_inurba_marseille","lat":43.31562,"lon":5.38849,"is_reserved":false,"is_disabled":false,"rental_uris":{"android":"levelo://app?vid=172575f4-60a1-49c0-aea1-545504653d27","ios":"levelo://app?vid=172575f4-60a1-49c0-aea1-545504653d27"},"vehicle_type_id":"4","last_reported":1781177248,"current_range_meters":6400,"station_id":"","pricing_plan_id":"cebpf4jnsgd1na2vs0mg"},{"bike_id":"664a5d25-7748-4981-b747-f5329c045f50","system_id":"levelo_inurba_marseille","lat":43.30464,"lon":5.37907,"is_reserved":false,"is_disabled":false,"rental_uris":{"android":"levelo://app?vid=664a5d25-7748-4981-b747-f5329c045f50","ios":"levelo://app?vid=664a5d25-7748-4981-b747-f5329c045f50"},"vehicle_type_id":"4","last_reported":1781177248,"current_range_meters":6400,"station_id":"ce4bgup2rcd13ifvqcn0","pricing_plan_id":"cebpf4jnsgd1na2vs0mg"},{"bike_id":"ab450d47-d293-44a6-8426-9362fe0e8737","system_id":"levelo_inurba_marseille","lat":43.27594,"lon":5.43377,"is_reserved":false,"is_disabled":false,"rental_uris":{"android":"levelo://app?vid=ab450d47-d293-44a6-8426-9362fe0e8737","ios":"levelo://app?vid=ab450d47-d293-44a6-8426-9362fe0e8737"},"vehicle_type_id":"4","last_reported":1781177248,"current_range_meters":6400,"station_id":"","pricing_plan_id":"cebpf4jnsgd1na2vs0mg"},{"bike_id":"b90e56c3-76e7-49da-ae74-c7deaeca993c","system_id":"levelo_inurba_marseille","lat":43.30784,"lon":5.37968,"is_reserved":false,"is_disabled":false,"rental_uris":{"android":"levelo://app?vid=b90e56c3-76e7-49da-ae74-c7deaeca993c","ios":"levelo://app?vid=b90e56c3-76e7-49da-ae74-c7deaeca993c"},"vehicle_type_id":"4","last_reported":1781177248,"current_range_meters":6400,"station_id":"","pricing_plan_id":"cebpf4jnsgd1na2vs0mg"},{"bike_id":"8d3e276a-0132-4ea7-9374-33ccc461422f","system_id":"levelo_inurba_marseille","lat":43.29923,"lon":5.37457,"is_reserved":false,"is_disabled":false,"rental_uris":{"android":"levelo://app?vid=8d3e276a-0132-4ea7-9374-33ccc461422f","ios":"levelo://app?vid=8d3e276a-0132-4ea7-9374-33ccc461422f"},"vehicle_type_id":"4","last_reported":1781177248,"current_range_meters":6400,"station_id":"ce4bgjh2rcd13ifvqbg0","pricing_plan_id":"cebpf4jnsgd1na2vs0mg"},{"bike_id":"9eb01028-1e42-4c8c-a426-05e2b4b0370e","system_id":"levelo_inurba_marseille","lat":43.26501,"lon":5.39552,"is_reserved":false,"is_disabled":true,"rental_uris":{"android":"levelo://app?vid=9eb01028-1e42-4c8c-a426-05e2b4b0370e","ios":"levelo://app?vid=9eb01028-1e42-4c8c-a426-05e2b4b0370e"},"vehicle_type_id":"4","last_reported":1781177248,"current_range_meters":6400,"station_id":"ce4bhi12rcd13ifvqfq0","pricing_plan_id":"cebpf4jnsgd1na2vs0mg"},{"bike_id":"6e6bca5d-3e80-4980-863a-5a83b7126c78","system_id":"levelo_inurba_marseille","lat":43.2985,"lon":5.36286,"is_reserved":false,"is_disabled":false,"rental_uris":{"android":"levelo://app?vid=6e6bca5d-3e80-4980-863a-5a83b7126c78","ios":"levelo://app?vid=6e6bca5d-3e80-4980-863a-5a83b7126c78"},"vehicle_type_id":"4","last_reported":1781177248,"current_range_meters":6400,"station_id":"ce4bgpp2rcd13ifvqc3g","pricing_plan_id":"cebpf4jnsgd1na2vs0mg"},{"bike_id":"95e4c85d-b6f8-43ad-884a-d6790070066b","system_id":"levelo_inurba_marseille","lat":43.31362,"lon":5.36743,"is_reserved":false,"is_disabled":false,"rental_uris":{"android":"levelo://app?vid=95e4c85d-b6f8-43ad-884a-d6790070066b","ios":"levelo://app?vid=95e4c85d-b6f8-43ad-884a-d6790070066b"},"vehicle_type_id":"4","last_reported":1781177248,"current_range_meters":6400,"station_id":"ce4bgr92rcd13ifvqc6g","pricing_plan_id":"cebpf4jnsgd1na2vs0mg"},{"bike_id":"b01d1429-d775-4212-bddf-9c70789e9cdc","system_id":"levelo_inurba_marseille","lat":43.28612,"lon":5.39907,"is_reserved":false,"is_disabled":false,"rental_uris":{"android":"levelo://app?vid=b01d1429-d775-4212-bddf-9c70789e9cdc","ios":"levelo://app?vid=b01d1429-d775-4212-bddf-9c70789e9cdc"},"vehicle_type_id":"4","last_reported":1781177248,"current_range_meters":6400,"station_id":"st_d4a7ka997mjs738ck50g","pricing_plan_id":"cebpf4jnsgd1na2vs0mg"},{"bike_id":"59e95d66-3a4e-4b10-9028-8690a007790d","system_id":"levelo_inurba_marseille","lat":43.29978,"lon":5.38485,"is_reserved":false,"is_disabled":false,"rental_uris":{"android":"levelo://app?vid=59e95d66-3a4e-4b10-9028-8690a007790d","ios":"levelo://app?vid=59e95d66-3a4e-4b10-9028-8690a007790d"},"vehicle_type_id":"4","last_reported":1781177248,"current_range_meters":6400,"station_id":"ce4bgj92rcd13ifvqbd0","pricing_plan_id":"cebpf4jnsgd1na2vs0mg"},{"bike_id":"810366c5-bb77-4ca7-981f-51c029a1c454","system_id":"levelo_inurba_marseille","lat":43.30675,"lon":5.39879,"is_reserved":false,"is_disabled":false,"rental_uris":{"android":"levelo://app?vid=810366c5-bb77-4ca7-981f-51c029a1c454","ios":"levelo://app?vid=810366c5-bb77-4ca7-981f-51c029a1c454"},"vehicle_type_id":"4","last_reported":1781177248,"current_range_meters":6400,"station_id":"","pricing_plan_id":"cebpf4jnsgd1na2vs0mg"},{"bike_id":"a1c015e9-3e11-46f0-b642-1fa3036dfa73","system_id":"levelo_inurba_marseille","lat":43.33165,"lon":5.37701,"is_reserved":false,"is_disabled":false,"rental_uris":{"android":"levelo://app?vid=a1c015e9-3e11-46f0-b642-1fa3036dfa73","ios":"levelo://app?vid=a1c015e9-3e11-46f0-b642-1fa3036dfa73"},"vehicle_type_id":"4","last_reported":1781177248,"current_range_meters":6800,"station_id":"st_d46cu089ee8s73dldbu0","pricing_plan_id":"cebpf4jnsgd1na2vs0mg"},{"bike_id":"f4604c3b-a56a-425f-8d90-3b8e1f77f859","system_id":"levelo_inurba_marseille","lat":43.3137,"lon":5.38515,"is_reserved":false,"is_disabled":false,"rental_uris":{"android":"levelo://app?vid=f4604c3b-a56a-425f-8d90-3b8e1f77f859","ios":"levelo://app?vid=f4604c3b-a56a-425f-8d90-3b8e1f77f859"},"vehicle_type_id":"4","last_reported":1781177248,"current_range_meters":6800,"station_id":"ce4bgt92rcd13ifvqcf0","pricing_plan_id":"cebpf4jnsgd1na2vs0mg"},{"bike_id":"27333929-ceaa-4e96-917c-5d4e9dba5448","system_id":"levelo_inurba_marseille","lat":43.32567,"lon":5.41471,"is_reserved":false,"is_disabled":false,"rental_uris":{"android":"levelo://app?vid=27333929-ceaa-4e96-917c-5d4e9dba5448","ios":"levelo://app?vid=27333929-ceaa-4e96-917c-5d4e9dba5448"},"vehicle_type_id":"4","last_reported":1781177248,"current_range_meters":6800,"station_id":"","pricing_plan_id":"cebpf4jnsgd1na2vs0mg"},{"bike_id":"becf7538-a49a-47b2-898c-da691a16b228","system_id":"levelo_inurba_marseille","lat":43.29039,"lon":5.35942,"is_reserved":false,"is_disabled":true,"rental_uris":{"android":"levelo://app?vid=becf7538-a49a-47b2-898c-da691a16b228","ios":"levelo://app?vid=becf7538-a49a-47b2-898c-da691a16b228"},"vehicle_type_id":"4","last_reported":1781177248,"current_range_meters":6800,"station_id":"ce4bha92rcd13ifvqeg0","pricing_plan_id":"cebpf4jnsgd1na2vs0mg"},{"bike_id":"cdaffa5f-9ecb-409f-93bc-f132f49ebaf0","system_id":"levelo_inurba_marseille","lat":43.27616,"lon":5.36112,"is_reserved":false,"is_disabled":false,"rental_uris":{"android":"levelo://app?vid=cdaffa5f-9ecb-409f-93bc-f132f49ebaf0","ios":"levelo://app?vid=cdaffa5f-9ecb-409f-93bc-f132f49ebaf0"},"vehicle_type_id":"4","last_reported":1781177248,"current_range_meters":6800,"station_id":"ce4bgj92rcd13ifvqbe0","pricing_plan_id":"cebpf4jnsgd1na2vs0mg"},{"bike_id":"7c131e63-4882-494d-814c-185065bffc7c","system_id":"levelo_inurba_marseille","lat":43.28469,"lon":5.484,"is_reserved":false,"is_disabled":false,"rental_uris":{"android":"levelo://app?vid=7c131e63-4882-494d-814c-185065bffc7c","ios":"levelo://app?vid=7c131e63-4882-494d-814c-185065bffc7c"},"vehicle_type_id":"4","last_reported":1781177248,"current_range_meters":6800,"station_id":"st_d3svhcjqgbts73a3dn0g","pricing_plan_id":"cebpf4jnsgd1na2vs0mg"},{"bike_id":"72596ebd-ea6d-4b6d-968a-acb42e5b04cf","system_id":"levelo_inurba_marseille","lat":43.2962,"lon":5.3791,"is_reserved":false,"is_disabled":false,"rental_uris":{"android":"levelo://app?vid=72596ebd-ea6d-4b6d-968a-acb42e5b04cf","ios":"levelo://app?vid=72596ebd-ea6d-4b6d-968a-acb42e5b04cf"},"vehicle_type_id":"4","last_reported":1781177248,"current_range_meters":6800,"station_id":"","pricing_plan_id":"cebpf4jnsgd1na2vs0mg"},{"bike_id":"4343f291-38b8-47e7-a883-039a0fd0f77e","system_id":"levelo_inurba_marseille","lat":43.3209,"lon":5.36811,"is_reserved":false,"is_disabled":false,"rental_uris":{"android":"levelo://app?vid=4343f291-38b8-47e7-a883-039a0fd0f77e","ios":"levelo://app?vid=4343f291-38b8-47e7-a883-039a0fd0f77e"},"vehicle_type_id":"4","last_reported":1781177248,"current_range_meters":6800,"station_id":"ce4bhrh2rcd13ifvqhug","pricing_plan_id":"cebpf4jnsgd1na2vs0mg"},{"bike_id":"0d1e873c-b33d-4059-bcba-f8d07ef97d13","system_id":"levelo_inurba_marseille","lat":43.32489,"lon":5.36569,"is_reserved":false,"is_disabled":false,"rental_uris":{"android":"levelo://app?vid=0d1e873c-b33d-4059-bcba-f8d07ef97d13","ios":"levelo://app?vid=0d1e873c-b33d-4059-bcba-f8d07ef97d13"},"vehicle_type_id":"4","last_reported":1781177248,"current_range_meters":6800,"station_id":"ce4bhs12rcd13ifvqhvg","pricing_plan_id":"cebpf4jnsgd1na2vs0mg"},{"bike_id":"74d62127-e1b5-4940-a48e-e9ea7928adf0","system_id":"levelo_inurba_marseille","lat":43.30823,"lon":5.41247,"is_reserved":false,"is_disabled":false,"rental_uris":{"android":"levelo://app?vid=74d62127-e1b5-4940-a48e-e9ea7928adf0","ios":"levelo://app?vid=74d62127-e1b5-4940-a48e-e9ea7928adf0"},"vehicle_type_id":"4","last_reported":1781177248,"current_range_meters":6800,"station_id":"","pricing_plan_id":"cebpf4jnsgd1na2vs0mg"},{"bike_id":"03a7a031-8468-4601-8184-85ebd1c11bea","system_id":"levelo_inurba_marseille","lat":43.31604,"lon":5.38391,"is_reserved":false,"is_disabled":false,"rental_uris":{"android":"levelo://app?vid=03a7a031-8468-4601-8184-85ebd1c11bea","ios":"levelo://app?vid=03a7a031-8468-4601-8184-85ebd1c11bea"},"vehicle_type_id":"4","last_reported":1781177248,"current_range_meters":7200,"station_id":"","pricing_plan_id":"cebpf4jnsgd1na2vs0mg"},{"bike_id":"bcd48adb-59a8-4980-8616-899ffa7646f6","system_id":"levelo_inurba_marseille","lat":43.28474,"lon":5.35869,"is_reserved":false,"is_disabled":false,"rental_uris":{"android":"levelo://app?vid=bcd48adb-59a8-4980-8616-899ffa7646f6","ios":"levelo://app?vid=bcd48adb-59a8-4980-8616-899ffa7646f6"},"vehicle_type_id":"4","last_reported":1781177248,"current_range_meters":7200,"station_id":"ce4bhah2rcd13ifvqei0","pricing_plan_id":"cebpf4jnsgd1na2vs0mg"},{"bike_id":"8369abbd-c3fb-412a-8d1a-49e51529efce","system_id":"levelo_inurba_marseille","lat":43.30073,"lon":5.37356,"is_reserved":false,"is_disabled":false,"rental_uris":{"android":"levelo://app?vid=8369abbd-c3fb-412a-8d1a-49e51529efce","ios":"levelo://app?vid=8369abbd-c3fb-412a-8d1a-49e51529efce"},"vehicle_type_id":"4","last_reported":1781177248,"current_range_meters":7200,"station_id":"","pricing_plan_id":"cebpf4jnsgd1na2vs0mg"},{"bike_id":"efd2eb6d-3212-4850-9146-53e46211f506","system_id":"levelo_inurba_marseille","lat":43.26028,"lon":5.37546,"is_reserved":false,"is_disabled":false,"rental_uris":{"android":"levelo://app?vid=efd2eb6d-3212-4850-9146-53e46211f506","ios":"levelo://app?vid=efd2eb6d-3212-4850-9146-53e46211f506"},"vehicle_type_id":"4","last_reported":1781177248,"current_range_meters":7200,"station_id":"ce4bhgh2rcd13ifvqfa0","pricing_plan_id":"cebpf4jnsgd1na2vs0mg"},{"bike_id":"27558e48-d593-4e9f-957e-42bd290f53f6","system_id":"levelo_inurba_marseille","lat":43.30377,"lon":5.42483,"is_reserved":false,"is_disabled":false,"rental_uris":{"android":"levelo://app?vid=27558e48-d593-4e9f-957e-42bd290f53f6","ios":"levelo://app?vid=27558e48-d593-4e9f-957e-42bd290f53f6"},"vehicle_type_id":"4","last_reported":1781177248,"current_range_meters":7200,"station_id":"ce4bhoh2rcd13ifvqh6g","pricing_plan_id":"cebpf4jnsgd1na2vs0mg"},{"bike_id":"35b048a7-e18a-45e3-af10-0f69baf1889c","system_id":"levelo_inurba_marseille","lat":43.24081,"lon":5.37769,"is_reserved":false,"is_disabled":false,"rental_uris":{"android":"levelo://app?vid=35b048a7-e18a-45e3-af10-0f69baf1889c","ios":"levelo://app?vid=35b048a7-e18a-45e3-af10-0f69baf1889c"},"vehicle_type_id":"4","last_reported":1781177248,"current_range_meters":7200,"station_id":"ce4bhnp2rcd13ifvqgvg","pricing_plan_id":"cebpf4jnsgd1na2vs0mg"},{"bike_id":"7a2582a1-9f4e-4b77-a662-c666529e13ef","system_id":"levelo_inurba_marseille","lat":43.28048,"lon":5.35023,"is_reserved":false,"is_disabled":false,"rental_uris":{"android":"levelo://app?vid=7a2582a1-9f4e-4b77-a662-c666529e13ef","ios":"levelo://app?vid=7a2582a1-9f4e-4b77-a662-c666529e13ef"},"vehicle_type_id":"4","last_reported":1781177248,"current_range_meters":7200,"station_id":"","pricing_plan_id":"cebpf4jnsgd1na2vs0mg"},{"bike_id":"0a863416-481b-47ce-a3aa-6d981f931e44","system_id":"levelo_inurba_marseille","lat":43.30866,"lon":5.37303,"is_reserved":false,"is_disabled":false,"rental_uris":{"android":"levelo://app?vid=0a863416-481b-47ce-a3aa-6d981f931e44","ios":"levelo://app?vid=0a863416-481b-47ce-a3aa-6d981f931e44"},"vehicle_type_id":"4","last_reported":1781177248,"current_range_meters":7200,"station_id":"","pricing_plan_id":"cebpf4jnsgd1na2vs0mg"},{"bike_id":"b97ef524-73a4-4118-899e-1ecef5ce3a2b","system_id":"levelo_inurba_marseille","lat":43.29566,"lon":5.37513,"is_reserved":false,"is_disabled":false,"rental_uris":{"android":"levelo://app?vid=b97ef524-73a4-4118-899e-1ecef5ce3a2b","ios":"levelo://app?vid=b97ef524-73a4-4118-899e-1ecef5ce3a2b"},"vehicle_type_id":"4","last_reported":1781177248,"current_range_meters":7200,"station_id":"ce4bgh92rcd13ifvqb50","pricing_plan_id":"cebpf4jnsgd1na2vs0mg"},{"bike_id":"82a9de7e-3360-49ac-9347-3d372e0bafa3","system_id":"levelo_inurba_marseille","lat":43.29265,"lon":5.37614,"is_reserved":false,"is_disabled":false,"rental_uris":{"android":"levelo://app?vid=82a9de7e-3360-49ac-9347-3d372e0bafa3","ios":"levelo://app?vid=82a9de7e-3360-49ac-9347-3d372e0bafa3"},"vehicle_type_id":"4","last_reported":1781177248,"current_range_meters":7200,"station_id":"ce4bgi12rcd13ifvqb80","pricing_plan_id":"cebpf4jnsgd1na2vs0mg"},{"bike_id":"2f1f9adf-3118-4f5a-bcbf-632d20f30d55","system_id":"levelo_inurba_marseille","lat":43.29176,"lon":5.37154,"is_reserved":false,"is_disabled":false,"rental_uris":{"android":"levelo://app?vid=2f1f9adf-3118-4f5a-bcbf-632d20f30d55","ios":"levelo://app?vid=2f1f9adf-3118-4f5a-bcbf-632d20f30d55"},"vehicle_type_id":"4","last_reported":1781177248,"current_range_meters":7200,"station_id":"ce4bha92rcd13ifvqeh0","pricing_plan_id":"cebpf4jnsgd1na2vs0mg"},{"bike_id":"03c4da30-e9c8-43b8-a281-50aeb9168249","system_id":"levelo_inurba_marseille","lat":43.27053,"lon":5.38308,"is_reserved":false,"is_disabled":false,"rental_uris":{"android":"levelo://app?vid=03c4da30-e9c8-43b8-a281-50aeb9168249","ios":"levelo://app?vid=03c4da30-e9c8-43b8-a281-50aeb9168249"},"vehicle_type_id":"4","last_reported":1781177248,"current_range_meters":7200,"station_id":"st_d3n2fo6cfp8s73cte1j0","pricing_plan_id":"cebpf4jnsgd1na2vs0mg"},{"bike_id":"8629a2bb-f291-438c-937f-11dc8eb60c22","system_id":"levelo_inurba_marseille","lat":43.33604,"lon":5.41016,"is_reserved":false,"is_disabled":false,"rental_uris":{"android":"levelo://app?vid=8629a2bb-f291-438c-937f-11dc8eb60c22","ios":"levelo://app?vid=8629a2bb-f291-438c-937f-11dc8eb60c22"},"vehicle_type_id":"4","last_reported":1781177248,"current_range_meters":7200,"station_id":"ce4bhqh2rcd13ifvqhmg","pricing_plan_id":"cebpf4jnsgd1na2vs0mg"},{"bike_id":"032de8e6-0ec2-42ff-875f-57dfdb7e3c3e","system_id":"levelo_inurba_marseille","lat":43.31495,"lon":5.3679,"is_reserved":false,"is_disabled":false,"rental_uris":{"android":"levelo://app?vid=032de8e6-0ec2-42ff-875f-57dfdb7e3c3e","ios":"levelo://app?vid=032de8e6-0ec2-42ff-875f-57dfdb7e3c3e"},"vehicle_type_id":"4","last_reported":1781177248,"current_range_meters":7200,"station_id":"","pricing_plan_id":"cebpf4jnsgd1na2vs0mg"},{"bike_id":"5ef8b45c-5a2e-4ef3-b317-791d97d054bf","system_id":"levelo_inurba_marseille","lat":43.27174,"lon":5.41409,"is_reserved":false,"is_disabled":false,"rental_uris":{"android":"levelo://app?vid=5ef8b45c-5a2e-4ef3-b317-791d97d054bf","ios":"levelo://app?vid=5ef8b45c-5a2e-4ef3-b317-791d97d054bf"},"vehicle_type_id":"4","last_reported":1781177248,"current_range_meters":7200,"station_id":"","pricing_plan_id":"cebpf4jnsgd1na2vs0mg"},{"bike_id":"0d9ec8c2-f4f8-46aa-9a87-53879647a3e7","system_id":"levelo_inurba_marseille","lat":43.3047,"lon":5.4156,"is_reserved":false,"is_disabled":false,"rental_uris":{"android":"levelo://app?vid=0d9ec8c2-f4f8-46aa-9a87-53879647a3e7","ios":"levelo://app?vid=0d9ec8c2-f4f8-46aa-9a87-53879647a3e7"},"vehicle_type_id":"4","last_reported":1781177248,"current_range_meters":7200,"station_id":"","pricing_plan_id":"cebpf4jnsgd1na2vs0mg"},{"bike_id":"8682f4e8-0798-4b4f-8fef-c4dc002ea1c8","system_id":"levelo_inurba_marseille","lat":43.29148,"lon":5.46112,"is_reserved":false,"is_disabled":false,"rental_uris":{"android":"levelo://app?vid=8682f4e8-0798-4b4f-8fef-c4dc002ea1c8","ios":"levelo://app?vid=8682f4e8-0798-4b4f-8fef-c4dc002ea1c8"},"vehicle_type_id":"4","last_reported":1781177248,"current_range_meters":7200,"station_id":"","pricing_plan_id":"cebpf4jnsgd1na2vs0mg"},{"bike_id":"643a5108-6712-460c-84ac-96a9e310c2a1","system_id":"levelo_inurba_marseille","lat":43.32329,"lon":5.36761,"is_reserved":false,"is_disabled":false,"rental_uris":{"android":"levelo://app?vid=643a5108-6712-460c-84ac-96a9e310c2a1","ios":"levelo://app?vid=643a5108-6712-460c-84ac-96a9e310c2a1"},"vehicle_type_id":"4","last_reported":1781177248,"current_range_meters":8000,"station_id":"ce4bhsh2rcd13ifvqi2g","pricing_plan_id":"cebpf4jnsgd1na2vs0mg"},{"bike_id":"05dbeb00-c94d-4fd8-88ff-0b9e5369bba0","system_id":"levelo_inurba_marseille","lat":43.24408,"lon":5.37112,"is_reserved":false,"is_disabled":false,"rental_uris":{"android":"levelo://app?vid=05dbeb00-c94d-4fd8-88ff-0b9e5369bba0","ios":"levelo://app?vid=05dbeb00-c94d-4fd8-88ff-0b9e5369bba0"},"vehicle_type_id":"4","last_reported":1781177248,"current_range_meters":8000,"station_id":"ce4bhhh2rcd13ifvqfk0","pricing_plan_id":"cebpf4jnsgd1na2vs0mg"},{"bike_id":"d47f8ee9-81c7-47b3-8f14-9edfc976d23d","system_id":"levelo_inurba_marseille","lat":43.30603,"lon":5.3723,"is_reserved":false,"is_disabled":false,"rental_uris":{"android":"levelo://app?vid=d47f8ee9-81c7-47b3-8f14-9edfc976d23d","ios":"levelo://app?vid=d47f8ee9-81c7-47b3-8f14-9edfc976d23d"},"vehicle_type_id":"4","last_reported":1781177248,"current_range_meters":8000,"station_id":"ce4bgqh2rcd13ifvqc4g","pricing_plan_id":"cebpf4jnsgd1na2vs0mg"},{"bike_id":"18c76cdd-8c55-4ae2-8cdd-582cfa98e23e","system_id":"levelo_inurba_marseille","lat":43.3053,"lon":5.36534,"is_reserved":false,"is_disabled":true,"rental_uris":{"android":"levelo://app?vid=18c76cdd-8c55-4ae2-8cdd-582cfa98e23e","ios":"levelo://app?vid=18c76cdd-8c55-4ae2-8cdd-582cfa98e23e"},"vehicle_type_id":"4","last_reported":1781177248,"current_range_meters":8000,"station_id":"ce4bgs12rcd13ifvqcag","pricing_plan_id":"cebpf4jnsgd1na2vs0mg"},{"bike_id":"91f57b43-fef8-4751-ade7-b776093b8207","system_id":"levelo_inurba_marseille","lat":43.24406,"lon":5.37075,"is_reserved":false,"is_disabled":false,"rental_uris":{"android":"levelo://app?vid=91f57b43-fef8-4751-ade7-b776093b8207","ios":"levelo://app?vid=91f57b43-fef8-4751-ade7-b776093b8207"},"vehicle_type_id":"4","last_reported":1781177248,"current_range_meters":8000,"station_id":"ce4bhhh2rcd13ifvqfk0","pricing_plan_id":"cebpf4jnsgd1na2vs0mg"},{"bike_id":"458184d5-3db4-4166-a3be-3b7f8f7c451a","system_id":"levelo_inurba_marseille","lat":43.278105,"lon":5.407174,"is_reserved":false,"is_disabled":false,"rental_uris":{"android":"levelo://app?vid=458184d5-3db4-4166-a3be-3b7f8f7c451a","ios":"levelo://app?vid=458184d5-3db4-4166-a3be-3b7f8f7c451a"},"vehicle_type_id":"4","last_reported":1781177248,"current_range_meters":8000,"station_id":"ce4bhnh2rcd13ifvqgtg","pricing_plan_id":"cebpf4jnsgd1na2vs0mg"},{"bike_id":"7228fead-11f4-4420-985a-f0fd937f1e1d","system_id":"levelo_inurba_marseille","lat":43.30902,"lon":5.36899,"is_reserved":false,"is_disabled":false,"rental_uris":{"android":"levelo://app?vid=7228fead-11f4-4420-985a-f0fd937f1e1d","ios":"levelo://app?vid=7228fead-11f4-4420-985a-f0fd937f1e1d"},"vehicle_type_id":"4","last_reported":1781177248,"current_range_meters":8000,"station_id":"ce4bgn92rcd13ifvqbvg","pricing_plan_id":"cebpf4jnsgd1na2vs0mg"},{"bike_id":"0c1dc458-878c-4ebd-912e-32a6863822de","system_id":"levelo_inurba_marseille","lat":43.27071,"lon":5.4228,"is_reserved":false,"is_disabled":false,"rental_uris":{"android":"levelo://app?vid=0c1dc458-878c-4ebd-912e-32a6863822de","ios":"levelo://app?vid=0c1dc458-878c-4ebd-912e-32a6863822de"},"vehicle_type_id":"4","last_reported":1781177248,"current_range_meters":8000,"station_id":"ce4bhk92rcd13ifvqgb0","pricing_plan_id":"cebpf4jnsgd1na2vs0mg"},{"bike_id":"40de0209-043c-4ed6-84c3-7ac1da5cf58d","system_id":"levelo_inurba_marseille","lat":43.32106,"lon":5.36783,"is_reserved":false,"is_disabled":false,"rental_uris":{"android":"levelo://app?vid=40de0209-043c-4ed6-84c3-7ac1da5cf58d","ios":"levelo://app?vid=40de0209-043c-4ed6-84c3-7ac1da5cf58d"},"vehicle_type_id":"4","last_reported":1781177248,"current_range_meters":8000,"station_id":"ce4bhrh2rcd13ifvqhug","pricing_plan_id":"cebpf4jnsgd1na2vs0mg"},{"bike_id":"8859d173-9f5d-4e39-86ed-34ec86a90175","system_id":"levelo_inurba_marseille","lat":43.29914,"lon":5.42786,"is_reserved":false,"is_disabled":false,"rental_uris":{"android":"levelo://app?vid=8859d173-9f5d-4e39-86ed-34ec86a90175","ios":"levelo://app?vid=8859d173-9f5d-4e39-86ed-34ec86a90175"},"vehicle_type_id":"4","last_reported":1781177248,"current_range_meters":8000,"station_id":"","pricing_plan_id":"cebpf4jnsgd1na2vs0mg"},{"bike_id":"551721cc-4abe-415c-b408-9f461dd4b762","system_id":"levelo_inurba_marseille","lat":43.24394,"lon":5.37088,"is_reserved":false,"is_disabled":false,"rental_uris":{"android":"levelo://app?vid=551721cc-4abe-415c-b408-9f461dd4b762","ios":"levelo://app?vid=551721cc-4abe-415c-b408-9f461dd4b762"},"vehicle_type_id":"4","last_reported":1781177248,"current_range_meters":8000,"station_id":"ce4bhhh2rcd13ifvqfk0","pricing_plan_id":"cebpf4jnsgd1na2vs0mg"},{"bike_id":"0879deff-8fe1-47ae-94a9-b638dcbf5c01","system_id":"levelo_inurba_marseille","lat":43.31234,"lon":5.36849,"is_reserved":false,"is_disabled":false,"rental_uris":{"android":"levelo://app?vid=0879deff-8fe1-47ae-94a9-b638dcbf5c01","ios":"levelo://app?vid=0879deff-8fe1-47ae-94a9-b638dcbf5c01"},"vehicle_type_id":"4","last_reported":1781177248,"current_range_meters":8000,"station_id":"ce4bgl92rcd13ifvqbq0","pricing_plan_id":"cebpf4jnsgd1na2vs0mg"},{"bike_id":"3c9222a1-4e9f-4e1e-85ac-7f5c27aef6de","system_id":"levelo_inurba_marseille","lat":43.30442,"lon":5.38903,"is_reserved":false,"is_disabled":true,"rental_uris":{"android":"levelo://app?vid=3c9222a1-4e9f-4e1e-85ac-7f5c27aef6de","ios":"levelo://app?vid=3c9222a1-4e9f-4e1e-85ac-7f5c27aef6de"},"vehicle_type_id":"4","last_reported":1781177248,"current_range_meters":8000,"station_id":"ce4bgk12rcd13ifvqbi0","pricing_plan_id":"cebpf4jnsgd1na2vs0mg"},{"bike_id":"f0a83dda-1edd-41cd-870a-04e8d8e83042","system_id":"levelo_inurba_marseille","lat":43.25197,"lon":5.4112,"is_reserved":false,"is_disabled":false,"rental_uris":{"android":"levelo://app?vid=f0a83dda-1edd-41cd-870a-04e8d8e83042","ios":"levelo://app?vid=f0a83dda-1edd-41cd-870a-04e8d8e83042"},"vehicle_type_id":"4","last_reported":1781177248,"current_range_meters":8000,"station_id":"","pricing_plan_id":"cebpf4jnsgd1na2vs0mg"},{"bike_id":"c8422fef-12dd-488e-9cf3-272ec40f64f6","system_id":"levelo_inurba_marseille","lat":43.31905,"lon":5.3683,"is_reserved":false,"is_disabled":false,"rental_uris":{"android":"levelo://app?vid=c8422fef-12dd-488e-9cf3-272ec40f64f6","ios":"levelo://app?vid=c8422fef-12dd-488e-9cf3-272ec40f64f6"},"vehicle_type_id":"4","last_reported":1781177248,"current_range_meters":8000,"station_id":"st_d6o2h0d0559c73evc1b0","pricing_plan_id":"cebpf4jnsgd1na2vs0mg"},{"bike_id":"b9a04b74-534d-41d2-bf2a-2027e0c57207","system_id":"levelo_inurba_marseille","lat":43.3266,"lon":5.40993,"is_reserved":false,"is_disabled":false,"rental_uris":{"android":"levelo://app?vid=b9a04b74-534d-41d2-bf2a-2027e0c57207","ios":"levelo://app?vid=b9a04b74-534d-41d2-bf2a-2027e0c57207"},"vehicle_type_id":"4","last_reported":1781177248,"current_range_meters":8000,"station_id":"ce4bhpp2rcd13ifvqhgg","pricing_plan_id":"cebpf4jnsgd1na2vs0mg"},{"bike_id":"75248494-6e46-4c4b-92d2-9db9ddbe9016","system_id":"levelo_inurba_marseille","lat":43.28477,"lon":5.4839,"is_reserved":false,"is_disabled":false,"rental_uris":{"android":"levelo://app?vid=75248494-6e46-4c4b-92d2-9db9ddbe9016","ios":"levelo://app?vid=75248494-6e46-4c4b-92d2-9db9ddbe9016"},"vehicle_type_id":"4","last_reported":1781177248,"current_range_meters":8000,"station_id":"st_d3svhcjqgbts73a3dn0g","pricing_plan_id":"cebpf4jnsgd1na2vs0mg"},{"bike_id":"b2ad6388-0d4f-4e9c-8ff3-f1ad38b97382","system_id":"levelo_inurba_marseille","lat":43.27676,"lon":5.42441,"is_reserved":false,"is_disabled":false,"rental_uris":{"android":"levelo://app?vid=b2ad6388-0d4f-4e9c-8ff3-f1ad38b97382","ios":"levelo://app?vid=b2ad6388-0d4f-4e9c-8ff3-f1ad38b97382"},"vehicle_type_id":"4","last_reported":1781177248,"current_range_meters":8400,"station_id":"","pricing_plan_id":"cebpf4jnsgd1na2vs0mg"},{"bike_id":"63bed2f8-fb5f-432e-a032-c96a3b2c4e6f","system_id":"levelo_inurba_marseille","lat":43.28635,"lon":5.38715,"is_reserved":false,"is_disabled":false,"rental_uris":{"android":"levelo://app?vid=63bed2f8-fb5f-432e-a032-c96a3b2c4e6f","ios":"levelo://app?vid=63bed2f8-fb5f-432e-a032-c96a3b2c4e6f"},"vehicle_type_id":"4","last_reported":1781177248,"current_range_meters":8400,"station_id":"ce4bh492rcd13ifvqdug","pricing_plan_id":"cebpf4jnsgd1na2vs0mg"},{"bike_id":"a374615f-bb7a-4772-a6f6-22dbd7b71939","system_id":"levelo_inurba_marseille","lat":43.30879,"lon":5.37187,"is_reserved":false,"is_disabled":true,"rental_uris":{"android":"levelo://app?vid=a374615f-bb7a-4772-a6f6-22dbd7b71939","ios":"levelo://app?vid=a374615f-bb7a-4772-a6f6-22dbd7b71939"},"vehicle_type_id":"4","last_reported":1781177248,"current_range_meters":8400,"station_id":"ce4bguh2rcd13ifvqckg","pricing_plan_id":"cebpf4jnsgd1na2vs0mg"},{"bike_id":"0480ef6d-4211-4a9c-bc09-327c3ed2b28c","system_id":"levelo_inurba_marseille","lat":43.29706,"lon":5.36609,"is_reserved":false,"is_disabled":false,"rental_uris":{"android":"levelo://app?vid=0480ef6d-4211-4a9c-bc09-327c3ed2b28c","ios":"levelo://app?vid=0480ef6d-4211-4a9c-bc09-327c3ed2b28c"},"vehicle_type_id":"4","last_reported":1781177248,"current_range_meters":8400,"station_id":"ce4bgn12rcd13ifvqbt0","pricing_plan_id":"cebpf4jnsgd1na2vs0mg"},{"bike_id":"a4519ab8-8a91-4627-a831-ddbbcc2b09e2","system_id":"levelo_inurba_marseille","lat":43.30421,"lon":5.3975,"is_reserved":false,"is_disabled":true,"rental_uris":{"android":"levelo://app?vid=a4519ab8-8a91-4627-a831-ddbbcc2b09e2","ios":"levelo://app?vid=a4519ab8-8a91-4627-a831-ddbbcc2b09e2"},"vehicle_type_id":"4","last_reported":1781177248,"current_range_meters":8400,"station_id":"ce4bh092rcd13ifvqd20","pricing_plan_id":"cebpf4jnsgd1na2vs0mg"},{"bike_id":"59d963d0-d1fe-483b-80d5-41df37ab3e9b","system_id":"levelo_inurba_marseille","lat":43.25574,"lon":5.38236,"is_reserved":false,"is_disabled":false,"rental_uris":{"android":"levelo://app?vid=59d963d0-d1fe-483b-80d5-41df37ab3e9b","ios":"levelo://app?vid=59d963d0-d1fe-483b-80d5-41df37ab3e9b"},"vehicle_type_id":"4","last_reported":1781177248,"current_range_meters":8400,"station_id":"ce4bhih2rcd13ifvqfs0","pricing_plan_id":"cebpf4jnsgd1na2vs0mg"},{"bike_id":"c43c92bc-16e7-4616-8292-b9ed941fbd42","system_id":"levelo_inurba_marseille","lat":43.22562,"lon":5.41623,"is_reserved":false,"is_disabled":false,"rental_uris":{"android":"levelo://app?vid=c43c92bc-16e7-4616-8292-b9ed941fbd42","ios":"levelo://app?vid=c43c92bc-16e7-4616-8292-b9ed941fbd42"},"vehicle_type_id":"4","last_reported":1781177248,"current_range_meters":8400,"station_id":"st_d2o4gvlbi1j2169b742g","pricing_plan_id":"cebpf4jnsgd1na2vs0mg"},{"bike_id":"79279666-343b-4b19-86c9-622131a51a1f","system_id":"levelo_inurba_marseille","lat":43.29272,"lon":5.36851,"is_reserved":false,"is_disabled":false,"rental_uris":{"android":"levelo://app?vid=79279666-343b-4b19-86c9-622131a51a1f","ios":"levelo://app?vid=79279666-343b-4b19-86c9-622131a51a1f"},"vehicle_type_id":"4","last_reported":1781177248,"current_range_meters":8400,"station_id":"ce4bhbp2rcd13ifvqesg","pricing_plan_id":"cebpf4jnsgd1na2vs0mg"},{"bike_id":"17369bee-43fb-4510-ab11-4bc54a77a2f2","system_id":"levelo_inurba_marseille","lat":43.28623,"lon":5.35098,"is_reserved":false,"is_disabled":true,"rental_uris":{"android":"levelo://app?vid=17369bee-43fb-4510-ab11-4bc54a77a2f2","ios":"levelo://app?vid=17369bee-43fb-4510-ab11-4bc54a77a2f2"},"vehicle_type_id":"4","last_reported":1781177248,"current_range_meters":8400,"station_id":"ce4bhch2rcd13ifvqeug","pricing_plan_id":"cebpf4jnsgd1na2vs0mg"},{"bike_id":"860722fe-5c5a-4186-988e-8f94a0e241b3","system_id":"levelo_inurba_marseille","lat":43.32105,"lon":5.36773,"is_reserved":false,"is_disabled":false,"rental_uris":{"android":"levelo://app?vid=860722fe-5c5a-4186-988e-8f94a0e241b3","ios":"levelo://app?vid=860722fe-5c5a-4186-988e-8f94a0e241b3"},"vehicle_type_id":"4","last_reported":1781177248,"current_range_meters":8400,"station_id":"ce4bhrh2rcd13ifvqhug","pricing_plan_id":"cebpf4jnsgd1na2vs0mg"},{"bike_id":"8b7f23fc-1e65-43c2-998e-b3ee6ddf07c7","system_id":"levelo_inurba_marseille","lat":43.30146,"lon":5.37469,"is_reserved":false,"is_disabled":false,"rental_uris":{"android":"levelo://app?vid=8b7f23fc-1e65-43c2-998e-b3ee6ddf07c7","ios":"levelo://app?vid=8b7f23fc-1e65-43c2-998e-b3ee6ddf07c7"},"vehicle_type_id":"4","last_reported":1781177248,"current_range_meters":8400,"station_id":"ce4bgs92rcd13ifvqcc0","pricing_plan_id":"cebpf4jnsgd1na2vs0mg"},{"bike_id":"c3330023-c997-4b90-8a68-a4726b0cc17b","system_id":"levelo_inurba_marseille","lat":43.31438,"lon":5.36952,"is_reserved":false,"is_disabled":false,"rental_uris":{"android":"levelo://app?vid=c3330023-c997-4b90-8a68-a4726b0cc17b","ios":"levelo://app?vid=c3330023-c997-4b90-8a68-a4726b0cc17b"},"vehicle_type_id":"4","last_reported":1781177248,"current_range_meters":8400,"station_id":"","pricing_plan_id":"cebpf4jnsgd1na2vs0mg"},{"bike_id":"f63e0e69-6a54-4e19-8d8e-f67680de3ed1","system_id":"levelo_inurba_marseille","lat":43.24648,"lon":5.43153,"is_reserved":false,"is_disabled":false,"rental_uris":{"android":"levelo://app?vid=f63e0e69-6a54-4e19-8d8e-f67680de3ed1","ios":"levelo://app?vid=f63e0e69-6a54-4e19-8d8e-f67680de3ed1"},"vehicle_type_id":"4","last_reported":1781177248,"current_range_meters":8400,"station_id":"st_d2m6c4gdas8pm72e190g","pricing_plan_id":"cebpf4jnsgd1na2vs0mg"},{"bike_id":"44db3cc5-4513-4364-9997-6be5a1a3518c","system_id":"levelo_inurba_marseille","lat":43.3092,"lon":5.36849,"is_reserved":false,"is_disabled":false,"rental_uris":{"android":"levelo://app?vid=44db3cc5-4513-4364-9997-6be5a1a3518c","ios":"levelo://app?vid=44db3cc5-4513-4364-9997-6be5a1a3518c"},"vehicle_type_id":"4","last_reported":1781177248,"current_range_meters":8400,"station_id":"ce4bgn92rcd13ifvqbvg","pricing_plan_id":"cebpf4jnsgd1na2vs0mg"},{"bike_id":"70adc49c-37fa-421a-890f-a1c6f4732667","system_id":"levelo_inurba_marseille","lat":43.24798,"lon":5.38727,"is_reserved":false,"is_disabled":true,"rental_uris":{"android":"levelo://app?vid=70adc49c-37fa-421a-890f-a1c6f4732667","ios":"levelo://app?vid=70adc49c-37fa-421a-890f-a1c6f4732667"},"vehicle_type_id":"4","last_reported":1781177248,"current_range_meters":8400,"station_id":"","pricing_plan_id":"cebpf4jnsgd1na2vs0mg"},{"bike_id":"c0b7889d-c9e1-46dc-976e-3c780a076001","system_id":"levelo_inurba_marseille","lat":43.240795,"lon":5.377538,"is_reserved":false,"is_disabled":false,"rental_uris":{"android":"levelo://app?vid=c0b7889d-c9e1-46dc-976e-3c780a076001","ios":"levelo://app?vid=c0b7889d-c9e1-46dc-976e-3c780a076001"},"vehicle_type_id":"4","last_reported":1781177248,"current_range_meters":8400,"station_id":"ce4bhnp2rcd13ifvqgvg","pricing_plan_id":"cebpf4jnsgd1na2vs0mg"},{"bike_id":"d7cdbefd-0fea-43c5-9229-35995da54aed","system_id":"levelo_inurba_marseille","lat":43.27066,"lon":5.38302,"is_reserved":false,"is_disabled":false,"rental_uris":{"android":"levelo://app?vid=d7cdbefd-0fea-43c5-9229-35995da54aed","ios":"levelo://app?vid=d7cdbefd-0fea-43c5-9229-35995da54aed"},"vehicle_type_id":"4","last_reported":1781177248,"current_range_meters":8400,"station_id":"st_d3n2fo6cfp8s73cte1j0","pricing_plan_id":"cebpf4jnsgd1na2vs0mg"},{"bike_id":"24f02d56-4cb2-4734-b396-c4353be9b86c","system_id":"levelo_inurba_marseille","lat":43.32106,"lon":5.3679,"is_reserved":false,"is_disabled":false,"rental_uris":{"android":"levelo://app?vid=24f02d56-4cb2-4734-b396-c4353be9b86c","ios":"levelo://app?vid=24f02d56-4cb2-4734-b396-c4353be9b86c"},"vehicle_type_id":"4","last_reported":1781177248,"current_range_meters":8400,"station_id":"ce4bhrh2rcd13ifvqhug","pricing_plan_id":"cebpf4jnsgd1na2vs0mg"},{"bike_id":"e9ce25b8-b480-4907-8ce1-b8aecfbb3105","system_id":"levelo_inurba_marseille","lat":43.32329,"lon":5.36749,"is_reserved":false,"is_disabled":false,"rental_uris":{"android":"levelo://app?vid=e9ce25b8-b480-4907-8ce1-b8aecfbb3105","ios":"levelo://app?vid=e9ce25b8-b480-4907-8ce1-b8aecfbb3105"},"vehicle_type_id":"4","last_reported":1781177248,"current_range_meters":8400,"station_id":"ce4bhsh2rcd13ifvqi2g","pricing_plan_id":"cebpf4jnsgd1na2vs0mg"},{"bike_id":"64783de2-8905-48cd-9937-592dac350e1f","system_id":"levelo_inurba_marseille","lat":43.279937,"lon":5.416768,"is_reserved":false,"is_disabled":false,"rental_uris":{"android":"levelo://app?vid=64783de2-8905-48cd-9937-592dac350e1f","ios":"levelo://app?vid=64783de2-8905-48cd-9937-592dac350e1f"},"vehicle_type_id":"4","last_reported":1781177248,"current_range_meters":8400,"station_id":"ce4bho12rcd13ifvqh1g","pricing_plan_id":"cebpf4jnsgd1na2vs0mg"},{"bike_id":"b2f0cd6d-a04e-417e-bf4f-3815fe206c24","system_id":"levelo_inurba_marseille","lat":43.27617,"lon":5.36109,"is_reserved":false,"is_disabled":false,"rental_uris":{"android":"levelo://app?vid=b2f0cd6d-a04e-417e-bf4f-3815fe206c24","ios":"levelo://app?vid=b2f0cd6d-a04e-417e-bf4f-3815fe206c24"},"vehicle_type_id":"4","last_reported":1781177248,"current_range_meters":8400,"station_id":"ce4bgj92rcd13ifvqbe0","pricing_plan_id":"cebpf4jnsgd1na2vs0mg"},{"bike_id":"edd7f6cf-c00d-4334-ba4f-ddda86c6a12e","system_id":"levelo_inurba_marseille","lat":43.30314,"lon":5.3762,"is_reserved":false,"is_disabled":false,"rental_uris":{"android":"levelo://app?vid=edd7f6cf-c00d-4334-ba4f-ddda86c6a12e","ios":"levelo://app?vid=edd7f6cf-c00d-4334-ba4f-ddda86c6a12e"},"vehicle_type_id":"4","last_reported":1781177248,"current_range_meters":8400,"station_id":"","pricing_plan_id":"cebpf4jnsgd1na2vs0mg"},{"bike_id":"0193df8e-e671-4439-b878-059ede893bd0","system_id":"levelo_inurba_marseille","lat":43.24682,"lon":5.38159,"is_reserved":false,"is_disabled":false,"rental_uris":{"android":"levelo://app?vid=0193df8e-e671-4439-b878-059ede893bd0","ios":"levelo://app?vid=0193df8e-e671-4439-b878-059ede893bd0"},"vehicle_type_id":"4","last_reported":1781177248,"current_range_meters":8400,"station_id":"ce4bhih2rcd13ifvqfr0","pricing_plan_id":"cebpf4jnsgd1na2vs0mg"},{"bike_id":"8b698430-0346-4585-9fa6-29ac948c79c8","system_id":"levelo_inurba_marseille","lat":43.27216,"lon":5.39198,"is_reserved":false,"is_disabled":false,"rental_uris":{"android":"levelo://app?vid=8b698430-0346-4585-9fa6-29ac948c79c8","ios":"levelo://app?vid=8b698430-0346-4585-9fa6-29ac948c79c8"},"vehicle_type_id":"4","last_reported":1781177248,"current_range_meters":8400,"station_id":"ce4bhhp2rcd13ifvqfm0","pricing_plan_id":"cebpf4jnsgd1na2vs0mg"},{"bike_id":"a2bc473d-7b8f-40ea-ac5e-ed52523ca79c","system_id":"levelo_inurba_marseille","lat":43.28407,"lon":5.3498,"is_reserved":false,"is_disabled":false,"rental_uris":{"android":"levelo://app?vid=a2bc473d-7b8f-40ea-ac5e-ed52523ca79c","ios":"levelo://app?vid=a2bc473d-7b8f-40ea-ac5e-ed52523ca79c"},"vehicle_type_id":"4","last_reported":1781177248,"current_range_meters":8400,"station_id":"ce4bhbh2rcd13ifvqepg","pricing_plan_id":"cebpf4jnsgd1na2vs0mg"},{"bike_id":"dc73c328-897b-43d1-8b5d-64ea0e70a4c7","system_id":"levelo_inurba_marseille","lat":43.25574,"lon":5.38235,"is_reserved":false,"is_disabled":false,"rental_uris":{"android":"levelo://app?vid=dc73c328-897b-43d1-8b5d-64ea0e70a4c7","ios":"levelo://app?vid=dc73c328-897b-43d1-8b5d-64ea0e70a4c7"},"vehicle_type_id":"4","last_reported":1781177248,"current_range_meters":8400,"station_id":"ce4bhih2rcd13ifvqfs0","pricing_plan_id":"cebpf4jnsgd1na2vs0mg"},{"bike_id":"2f3def19-0765-4549-ab40-b354a1904699","system_id":"levelo_inurba_marseille","lat":43.31893,"lon":5.40728,"is_reserved":false,"is_disabled":false,"rental_uris":{"android":"levelo://app?vid=2f3def19-0765-4549-ab40-b354a1904699","ios":"levelo://app?vid=2f3def19-0765-4549-ab40-b354a1904699"},"vehicle_type_id":"4","last_reported":1781177248,"current_range_meters":8400,"station_id":"ce4bhq12rcd13ifvqhig","pricing_plan_id":"cebpf4jnsgd1na2vs0mg"},{"bike_id":"3d5d6eb3-7112-4326-9349-d1dcbf01c6f4","system_id":"levelo_inurba_marseille","lat":43.28425,"lon":5.35006,"is_reserved":false,"is_disabled":false,"rental_uris":{"android":"levelo://app?vid=3d5d6eb3-7112-4326-9349-d1dcbf01c6f4","ios":"levelo://app?vid=3d5d6eb3-7112-4326-9349-d1dcbf01c6f4"},"vehicle_type_id":"4","last_reported":1781177248,"current_range_meters":8800,"station_id":"ce4bhbh2rcd13ifvqepg","pricing_plan_id":"cebpf4jnsgd1na2vs0mg"},{"bike_id":"327a3d5b-8941-4a46-9bd0-eabbebf8078d","system_id":"levelo_inurba_marseille","lat":43.2318,"lon":5.43726,"is_reserved":false,"is_disabled":false,"rental_uris":{"android":"levelo://app?vid=327a3d5b-8941-4a46-9bd0-eabbebf8078d","ios":"levelo://app?vid=327a3d5b-8941-4a46-9bd0-eabbebf8078d"},"vehicle_type_id":"4","last_reported":1781177248,"current_range_meters":8800,"station_id":"ce4bhmp2rcd13ifvqgog","pricing_plan_id":"cebpf4jnsgd1na2vs0mg"},{"bike_id":"4db29cef-f359-45b4-aa25-c9721ce8bdab","system_id":"levelo_inurba_marseille","lat":43.2594,"lon":5.40906,"is_reserved":false,"is_disabled":false,"rental_uris":{"android":"levelo://app?vid=4db29cef-f359-45b4-aa25-c9721ce8bdab","ios":"levelo://app?vid=4db29cef-f359-45b4-aa25-c9721ce8bdab"},"vehicle_type_id":"4","last_reported":1781177248,"current_range_meters":8800,"station_id":"ce4bhm92rcd13ifvqglg","pricing_plan_id":"cebpf4jnsgd1na2vs0mg"},{"bike_id":"2f478b7c-c291-4784-82e8-718780e1d080","system_id":"levelo_inurba_marseille","lat":43.2815,"lon":5.42641,"is_reserved":false,"is_disabled":false,"rental_uris":{"android":"levelo://app?vid=2f478b7c-c291-4784-82e8-718780e1d080","ios":"levelo://app?vid=2f478b7c-c291-4784-82e8-718780e1d080"},"vehicle_type_id":"4","last_reported":1781177248,"current_range_meters":8800,"station_id":"ce4bhnh2rcd13ifvqgug","pricing_plan_id":"cebpf4jnsgd1na2vs0mg"},{"bike_id":"b11c5cdf-d684-43e7-befe-66e192b40f44","system_id":"levelo_inurba_marseille","lat":43.27821,"lon":5.40709,"is_reserved":false,"is_disabled":false,"rental_uris":{"android":"levelo://app?vid=b11c5cdf-d684-43e7-befe-66e192b40f44","ios":"levelo://app?vid=b11c5cdf-d684-43e7-befe-66e192b40f44"},"vehicle_type_id":"4","last_reported":1781177248,"current_range_meters":8800,"station_id":"ce4bhnh2rcd13ifvqgtg","pricing_plan_id":"cebpf4jnsgd1na2vs0mg"},{"bike_id":"95fc44bb-8971-464c-a137-0a5549c18758","system_id":"levelo_inurba_marseille","lat":43.279601,"lon":5.38719,"is_reserved":false,"is_disabled":false,"rental_uris":{"android":"levelo://app?vid=95fc44bb-8971-464c-a137-0a5549c18758","ios":"levelo://app?vid=95fc44bb-8971-464c-a137-0a5549c18758"},"vehicle_type_id":"4","last_reported":1781177248,"current_range_meters":8800,"station_id":"ce4bhg12rcd13ifvqf80","pricing_plan_id":"cebpf4jnsgd1na2vs0mg"},{"bike_id":"4f97a18a-b87c-4800-a218-9482f04ec589","system_id":"levelo_inurba_marseille","lat":43.27678,"lon":5.38898,"is_reserved":false,"is_disabled":false,"rental_uris":{"android":"levelo://app?vid=4f97a18a-b87c-4800-a218-9482f04ec589","ios":"levelo://app?vid=4f97a18a-b87c-4800-a218-9482f04ec589"},"vehicle_type_id":"4","last_reported":1781177248,"current_range_meters":8800,"station_id":"ce4bhi12rcd13ifvqfo0","pricing_plan_id":"cebpf4jnsgd1na2vs0mg"},{"bike_id":"9620edaa-6c7e-44e2-8762-2c44e771e8bd","system_id":"levelo_inurba_marseille","lat":43.21201,"lon":5.35068,"is_reserved":false,"is_disabled":false,"rental_uris":{"android":"levelo://app?vid=9620edaa-6c7e-44e2-8762-2c44e771e8bd","ios":"levelo://app?vid=9620edaa-6c7e-44e2-8762-2c44e771e8bd"},"vehicle_type_id":"4","last_reported":1781177248,"current_range_meters":8800,"station_id":"st_cvj6sg6p6f1abm77japg","pricing_plan_id":"cebpf4jnsgd1na2vs0mg"},{"bike_id":"3df71518-9221-4ece-90aa-5900531e736d","system_id":"levelo_inurba_marseille","lat":43.26073,"lon":5.39415,"is_reserved":false,"is_disabled":false,"rental_uris":{"android":"levelo://app?vid=3df71518-9221-4ece-90aa-5900531e736d","ios":"levelo://app?vid=3df71518-9221-4ece-90aa-5900531e736d"},"vehicle_type_id":"4","last_reported":1781177248,"current_range_meters":8800,"station_id":"ce4bhh92rcd13ifvqfj0","pricing_plan_id":"cebpf4jnsgd1na2vs0mg"},{"bike_id":"4700ed76-ce75-475e-b8de-0bb4632f1a85","system_id":"levelo_inurba_marseille","lat":43.2731,"lon":5.39092,"is_reserved":false,"is_disabled":false,"rental_uris":{"android":"levelo://app?vid=4700ed76-ce75-475e-b8de-0bb4632f1a85","ios":"levelo://app?vid=4700ed76-ce75-475e-b8de-0bb4632f1a85"},"vehicle_type_id":"4","last_reported":1781177248,"current_range_meters":8800,"station_id":"ce4bhgp2rcd13ifvqfe0","pricing_plan_id":"cebpf4jnsgd1na2vs0mg"},{"bike_id":"e76b8826-608a-43d5-84ee-3eea9bc7666f","system_id":"levelo_inurba_marseille","lat":43.28439,"lon":5.39543,"is_reserved":false,"is_disabled":false,"rental_uris":{"android":"levelo://app?vid=e76b8826-608a-43d5-84ee-3eea9bc7666f","ios":"levelo://app?vid=e76b8826-608a-43d5-84ee-3eea9bc7666f"},"vehicle_type_id":"4","last_reported":1781177248,"current_range_meters":8800,"station_id":"","pricing_plan_id":"cebpf4jnsgd1na2vs0mg"},{"bike_id":"3643eb2e-b0e4-40f6-9aa2-b567c4963540","system_id":"levelo_inurba_marseille","lat":43.3209,"lon":5.36817,"is_reserved":false,"is_disabled":false,"rental_uris":{"android":"levelo://app?vid=3643eb2e-b0e4-40f6-9aa2-b567c4963540","ios":"levelo://app?vid=3643eb2e-b0e4-40f6-9aa2-b567c4963540"},"vehicle_type_id":"4","last_reported":1781177248,"current_range_meters":8800,"station_id":"ce4bhrh2rcd13ifvqhug","pricing_plan_id":"cebpf4jnsgd1na2vs0mg"},{"bike_id":"88803a07-85de-49f3-aadf-f6937f1f2954","system_id":"levelo_inurba_marseille","lat":43.32656,"lon":5.4099,"is_reserved":false,"is_disabled":false,"rental_uris":{"android":"levelo://app?vid=88803a07-85de-49f3-aadf-f6937f1f2954","ios":"levelo://app?vid=88803a07-85de-49f3-aadf-f6937f1f2954"},"vehicle_type_id":"4","last_reported":1781177248,"current_range_meters":8800,"station_id":"ce4bhpp2rcd13ifvqhgg","pricing_plan_id":"cebpf4jnsgd1na2vs0mg"},{"bike_id":"e47dfd39-5c0c-45eb-a41f-cf3fd7d5df32","system_id":"levelo_inurba_marseille","lat":43.28966,"lon":5.46158,"is_reserved":false,"is_disabled":true,"rental_uris":{"android":"levelo://app?vid=e47dfd39-5c0c-45eb-a41f-cf3fd7d5df32","ios":"levelo://app?vid=e47dfd39-5c0c-45eb-a41f-cf3fd7d5df32"},"vehicle_type_id":"4","last_reported":1781177248,"current_range_meters":8800,"station_id":"","pricing_plan_id":"cebpf4jnsgd1na2vs0mg"},{"bike_id":"d4780935-aa6f-4d3d-a059-64f928e06f05","system_id":"levelo_inurba_marseille","lat":43.33557,"lon":5.37466,"is_reserved":false,"is_disabled":false,"rental_uris":{"android":"levelo://app?vid=d4780935-aa6f-4d3d-a059-64f928e06f05","ios":"levelo://app?vid=d4780935-aa6f-4d3d-a059-64f928e06f05"},"vehicle_type_id":"4","last_reported":1781177248,"current_range_meters":8800,"station_id":"st_d46tts09ee8s73dlu43g","pricing_plan_id":"cebpf4jnsgd1na2vs0mg"},{"bike_id":"b6d507f5-c915-4915-8d1e-3c84726370da","system_id":"levelo_inurba_marseille","lat":43.32099,"lon":5.36861,"is_reserved":false,"is_disabled":false,"rental_uris":{"android":"levelo://app?vid=b6d507f5-c915-4915-8d1e-3c84726370da","ios":"levelo://app?vid=b6d507f5-c915-4915-8d1e-3c84726370da"},"vehicle_type_id":"4","last_reported":1781177248,"current_range_meters":8800,"station_id":"","pricing_plan_id":"cebpf4jnsgd1na2vs0mg"},{"bike_id":"d505d5a2-f230-4c62-8bb4-09c6f29fd74d","system_id":"levelo_inurba_marseille","lat":43.28276,"lon":5.35058,"is_reserved":false,"is_disabled":true,"rental_uris":{"android":"levelo://app?vid=d505d5a2-f230-4c62-8bb4-09c6f29fd74d","ios":"levelo://app?vid=d505d5a2-f230-4c62-8bb4-09c6f29fd74d"},"vehicle_type_id":"4","last_reported":1781177248,"current_range_meters":8800,"station_id":"ce4bhbp2rcd13ifvqerg","pricing_plan_id":"cebpf4jnsgd1na2vs0mg"},{"bike_id":"c628b38f-8381-4d15-b694-9332d68f07f9","system_id":"levelo_inurba_marseille","lat":43.29045,"lon":5.38668,"is_reserved":false,"is_disabled":false,"rental_uris":{"android":"levelo://app?vid=c628b38f-8381-4d15-b694-9332d68f07f9","ios":"levelo://app?vid=c628b38f-8381-4d15-b694-9332d68f07f9"},"vehicle_type_id":"4","last_reported":1781177248,"current_range_meters":8800,"station_id":"ce4bh4p2rcd13ifvqe0g","pricing_plan_id":"cebpf4jnsgd1na2vs0mg"},{"bike_id":"552d24b2-ca2f-4944-9b71-82d87508bd66","system_id":"levelo_inurba_marseille","lat":43.28673,"lon":5.38297,"is_reserved":false,"is_disabled":false,"rental_uris":{"android":"levelo://app?vid=552d24b2-ca2f-4944-9b71-82d87508bd66","ios":"levelo://app?vid=552d24b2-ca2f-4944-9b71-82d87508bd66"},"vehicle_type_id":"4","last_reported":1781177248,"current_range_meters":8800,"station_id":"","pricing_plan_id":"cebpf4jnsgd1na2vs0mg"},{"bike_id":"cc70e410-d70f-416c-a9c7-b5ecaf245ffe","system_id":"levelo_inurba_marseille","lat":43.23147,"lon":5.40527,"is_reserved":false,"is_disabled":false,"rental_uris":{"android":"levelo://app?vid=cc70e410-d70f-416c-a9c7-b5ecaf245ffe","ios":"levelo://app?vid=cc70e410-d70f-416c-a9c7-b5ecaf245ffe"},"vehicle_type_id":"4","last_reported":1781177248,"current_range_meters":8800,"station_id":"","pricing_plan_id":"cebpf4jnsgd1na2vs0mg"},{"bike_id":"90f8f679-21ba-45f4-87f3-79468aeeabc5","system_id":"levelo_inurba_marseille","lat":43.31915,"lon":5.36821,"is_reserved":false,"is_disabled":false,"rental_uris":{"android":"levelo://app?vid=90f8f679-21ba-45f4-87f3-79468aeeabc5","ios":"levelo://app?vid=90f8f679-21ba-45f4-87f3-79468aeeabc5"},"vehicle_type_id":"4","last_reported":1781177248,"current_range_meters":8800,"station_id":"st_d6o2h0d0559c73evc1b0","pricing_plan_id":"cebpf4jnsgd1na2vs0mg"},{"bike_id":"1f230340-dba2-4bd0-b3d4-e044d6414df6","system_id":"levelo_inurba_marseille","lat":43.26949,"lon":5.40255,"is_reserved":false,"is_disabled":false,"rental_uris":{"android":"levelo://app?vid=1f230340-dba2-4bd0-b3d4-e044d6414df6","ios":"levelo://app?vid=1f230340-dba2-4bd0-b3d4-e044d6414df6"},"vehicle_type_id":"4","last_reported":1781177248,"current_range_meters":8800,"station_id":"cjm6bp8fraef2m0cb0m0","pricing_plan_id":"cebpf4jnsgd1na2vs0mg"},{"bike_id":"f165abb2-7744-4ffb-b278-55e94862d529","system_id":"levelo_inurba_marseille","lat":43.25561,"lon":5.39168,"is_reserved":false,"is_disabled":false,"rental_uris":{"android":"levelo://app?vid=f165abb2-7744-4ffb-b278-55e94862d529","ios":"levelo://app?vid=f165abb2-7744-4ffb-b278-55e94862d529"},"vehicle_type_id":"4","last_reported":1781177248,"current_range_meters":8800,"station_id":"","pricing_plan_id":"cebpf4jnsgd1na2vs0mg"},{"bike_id":"2507d607-3822-4c87-a669-ab9b0690fc01","system_id":"levelo_inurba_marseille","lat":43.28619,"lon":5.3513,"is_reserved":false,"is_disabled":false,"rental_uris":{"android":"levelo://app?vid=2507d607-3822-4c87-a669-ab9b0690fc01","ios":"levelo://app?vid=2507d607-3822-4c87-a669-ab9b0690fc01"},"vehicle_type_id":"4","last_reported":1781177248,"current_range_meters":8800,"station_id":"ce4bhch2rcd13ifvqeug","pricing_plan_id":"cebpf4jnsgd1na2vs0mg"},{"bike_id":"7bdc6674-eec7-4f30-81d9-b4626d00c586","system_id":"levelo_inurba_marseille","lat":43.2753,"lon":5.38384,"is_reserved":false,"is_disabled":false,"rental_uris":{"android":"levelo://app?vid=7bdc6674-eec7-4f30-81d9-b4626d00c586","ios":"levelo://app?vid=7bdc6674-eec7-4f30-81d9-b4626d00c586"},"vehicle_type_id":"4","last_reported":1781177248,"current_range_meters":8800,"station_id":"","pricing_plan_id":"cebpf4jnsgd1na2vs0mg"},{"bike_id":"60210465-87aa-4993-adce-44c433a76140","system_id":"levelo_inurba_marseille","lat":43.27316,"lon":5.36292,"is_reserved":false,"is_disabled":false,"rental_uris":{"android":"levelo://app?vid=60210465-87aa-4993-adce-44c433a76140","ios":"levelo://app?vid=60210465-87aa-4993-adce-44c433a76140"},"vehicle_type_id":"4","last_reported":1781177248,"current_range_meters":8800,"station_id":"","pricing_plan_id":"cebpf4jnsgd1na2vs0mg"},{"bike_id":"bf0c3d53-c0a1-4a43-92eb-a3179bed460e","system_id":"levelo_inurba_marseille","lat":43.30577,"lon":5.36696,"is_reserved":false,"is_disabled":false,"rental_uris":{"android":"levelo://app?vid=bf0c3d53-c0a1-4a43-92eb-a3179bed460e","ios":"levelo://app?vid=bf0c3d53-c0a1-4a43-92eb-a3179bed460e"},"vehicle_type_id":"4","last_reported":1781177248,"current_range_meters":8800,"station_id":"","pricing_plan_id":"cebpf4jnsgd1na2vs0mg"},{"bike_id":"1c9f0913-3ae6-4f66-b9bd-079c517715b4","system_id":"levelo_inurba_marseille","lat":43.28388,"lon":5.37832,"is_reserved":false,"is_disabled":false,"rental_uris":{"android":"levelo://app?vid=1c9f0913-3ae6-4f66-b9bd-079c517715b4","ios":"levelo://app?vid=1c9f0913-3ae6-4f66-b9bd-079c517715b4"},"vehicle_type_id":"4","last_reported":1781177248,"current_range_meters":8800,"station_id":"","pricing_plan_id":"cebpf4jnsgd1na2vs0mg"},{"bike_id":"3a44773b-a64a-45f6-9197-56969bf49878","system_id":"levelo_inurba_marseille","lat":43.29715,"lon":5.37041,"is_reserved":false,"is_disabled":false,"rental_uris":{"android":"levelo://app?vid=3a44773b-a64a-45f6-9197-56969bf49878","ios":"levelo://app?vid=3a44773b-a64a-45f6-9197-56969bf49878"},"vehicle_type_id":"4","last_reported":1781177248,"current_range_meters":8800,"station_id":"","pricing_plan_id":"cebpf4jnsgd1na2vs0mg"},{"bike_id":"4906f9f8-877b-4067-ac27-a563c0674259","system_id":"levelo_inurba_marseille","lat":43.30124,"lon":5.40247,"is_reserved":false,"is_disabled":false,"rental_uris":{"android":"levelo://app?vid=4906f9f8-877b-4067-ac27-a563c0674259","ios":"levelo://app?vid=4906f9f8-877b-4067-ac27-a563c0674259"},"vehicle_type_id":"4","last_reported":1781177248,"current_range_meters":8800,"station_id":"","pricing_plan_id":"cebpf4jnsgd1na2vs0mg"},{"bike_id":"81e3b708-545b-4215-881f-78f102c424b1","system_id":"levelo_inurba_marseille","lat":43.29378,"lon":5.37859,"is_reserved":false,"is_disabled":false,"rental_uris":{"android":"levelo://app?vid=81e3b708-545b-4215-881f-78f102c424b1","ios":"levelo://app?vid=81e3b708-545b-4215-881f-78f102c424b1"},"vehicle_type_id":"4","last_reported":1781177248,"current_range_meters":8800,"station_id":"ce4bgjh2rcd13ifvqbf0","pricing_plan_id":"cebpf4jnsgd1na2vs0mg"},{"bike_id":"aaa66412-2aa3-4106-bf51-3d316dbc10b4","system_id":"levelo_inurba_marseille","lat":43.22571,"lon":5.41635,"is_reserved":false,"is_disabled":false,"rental_uris":{"android":"levelo://app?vid=aaa66412-2aa3-4106-bf51-3d316dbc10b4","ios":"levelo://app?vid=aaa66412-2aa3-4106-bf51-3d316dbc10b4"},"vehicle_type_id":"4","last_reported":1781177248,"current_range_meters":9200,"station_id":"st_d2o4gvlbi1j2169b742g","pricing_plan_id":"cebpf4jnsgd1na2vs0mg"},{"bike_id":"4374472c-1ec9-4ed3-95a8-e8a508222873","system_id":"levelo_inurba_marseille","lat":43.2844,"lon":5.38311,"is_reserved":false,"is_disabled":false,"rental_uris":{"android":"levelo://app?vid=4374472c-1ec9-4ed3-95a8-e8a508222873","ios":"levelo://app?vid=4374472c-1ec9-4ed3-95a8-e8a508222873"},"vehicle_type_id":"4","last_reported":1781177248,"current_range_meters":9200,"station_id":"","pricing_plan_id":"cebpf4jnsgd1na2vs0mg"},{"bike_id":"9f2b64f4-9997-40ab-9348-c7e1c14cd959","system_id":"levelo_inurba_marseille","lat":43.283547,"lon":5.38106,"is_reserved":false,"is_disabled":false,"rental_uris":{"android":"levelo://app?vid=9f2b64f4-9997-40ab-9348-c7e1c14cd959","ios":"levelo://app?vid=9f2b64f4-9997-40ab-9348-c7e1c14cd959"},"vehicle_type_id":"4","last_reported":1781177248,"current_range_meters":9200,"station_id":"ce4bh412rcd13ifvqdr0","pricing_plan_id":"cebpf4jnsgd1na2vs0mg"},