{"last_updated":1731953613,"ttl":60,"version":"2.2","data":{"bikes":[{"bike_id":"418c5d2b-0cb9-4d88-847f-78e0b5162bf9","system_id":"levelo_inurba_marseille","lat":43.33025,"lon":5.39037,"is_reserved":false,"is_disabled":false,"rental_uris":{"android":"levelo://app?vid=418c5d2b-0cb9-4d88-847f-78e0b5162bf9","ios":"levelo://app?vid=418c5d2b-0cb9-4d88-847f-78e0b5162bf9"},"vehicle_type_id":"4","last_reported":1731953613,"current_range_meters":14400,"station_id":"ce4bhr92rcd13ifvqhrg","pricing_plan_id":"cebpf4jnsgd1na2vs0mg"},{"bike_id":"242af303-dcad-4dca-b6fb-c96bb4f34e93","system_id":"levelo_inurba_marseille","lat":43.30801,"lon":5.38154,"is_reserved":false,"is_disabled":false,"rental_uris":{"android":"levelo://app?vid=242af303-dcad-4dca-b6fb-c96bb4f34e93","ios":"levelo://app?vid=242af303-dcad-4dca-b6fb-c96bb4f34e93"},"vehicle_type_id":"4","last_reported":1731953613,"current_range_meters":36800,"station_id":"ce4bgt12rcd13ifvqce0","pricing_plan_id":"cebpf4jnsgd1na2vs0mg"},{"bike_id":"9f498509-9055-4d65-ad81-7665fbc86188","system_id":"levelo_inurba_marseille","lat":43.27914,"lon":5.39579,"is_reserved":false,"is_disabled":false,"rental_uris":{"android":"levelo://app?vid=9f498509-9055-4d65-ad81-7665fbc86188","ios":"levelo://app?vid=9f498509-9055-4d65-ad81-7665fbc86188"},"vehicle_type_id":"4","last_reported":1731953613,"current_range_meters":30000,"station_id":"ce4bhf92rcd13ifvqf40","pricing_plan_id":"cebpf4jnsgd1na2vs0mg"},{"bike_id":"d9662575-f3e4-4030-8357-61afc8834334","system_id":"levelo_inurba_marseille","lat":43.2794,"lon":5.41042,"is_reserved":false,"is_disabled":false,"rental_uris":{"android":"levelo://app?vid=d9662575-f3e4-4030-8357-61afc8834334","ios":"levelo://app?vid=d9662575-f3e4-4030-8357-61afc8834334"},"vehicle_type_id":"4","last_reported":1731953613,"current_range_meters":33200,"station_id":"ce4bhnp2rcd13ifvqh0g","pricing_plan_id":"cebpf4jnsgd1na2vs0mg"},{"bike_id":"2266e436-e549-49a3-a4f3-b11fe232c8ac","system_id":"levelo_inurba_marseille","lat":43.29842,"lon":5.36276,"is_reserved":false,"is_disabled":false,"rental_uris":{"android":"levelo://app?vid=2266e436-e549-49a3-a4f3-b11fe232c8ac","ios":"levelo://app?vid=2266e436-e549-49a3-a4f3-b11fe232c8ac"},"vehicle_type_id":"4","last_reported":1731953613,"current_range_meters":32000,"station_id":"ce4bgpp2rcd13ifvqc3g","pricing_plan_id":"cebpf4jnsgd1na2vs0mg"},{"bike_id":"b453c5bd-b833-4be9-aa51-f60ba198d8ab","system_id":"levelo_inurba_marseille","lat":43.28702,"lon":5.39973,"is_reserved":false,"is_disabled":false,"rental_uris":{"android":"levelo://app?vid=b453c5bd-b833-4be9-aa51-f60ba198d8ab","ios":"levelo://app?vid=b453c5bd-b833-4be9-aa51-f60ba198d8ab"},"vehicle_type_id":"4","last_reported":1731953613,"current_range_meters":38800,"station_id":"ce4bho92rcd13ifvqh3g","pricing_plan_id":"cebpf4jnsgd1na2vs0mg"},{"bike_id":"2cc90260-2263-4273-945c-cdeb3424d85d","system_id":"levelo_inurba_marseille","lat":43.29038,"lon":5.35907,"is_reserved":false,"is_disabled":false,"rental_uris":{"android":"levelo://app?vid=2cc90260-2263-4273-945c-cdeb3424d85d","ios":"levelo://app?vid=2cc90260-2263-4273-945c-cdeb3424d85d"},"vehicle_type_id":"4","last_reported":1731953613,"current_range_meters":16400,"station_id":"ce4bha92rcd13ifvqeg0","pricing_plan_id":"cebpf4jnsgd1na2vs0mg"},{"bike_id":"ee8b0697-df46-4de8-b7de-734c3a73285b","system_id":"levelo_inurba_marseille","lat":43.27812,"lon":5.40712,"is_reserved":false,"is_disabled":false,"rental_uris":{"android":"levelo://app?vid=ee8b0697-df46-4de8-b7de-734c3a73285b","ios":"levelo://app?vid=ee8b0697-df46-4de8-b7de-734c3a73285b"},"vehicle_type_id":"4","last_reported":1731953613,"current_range_meters":34000,"station_id":"ce4bhnh2rcd13ifvqgtg","pricing_plan_id":"cebpf4jnsgd1na2vs0mg"},{"bike_id":"0bc2b4da-31a7-4cb4-95e9-3aa3825f7da9","system_id":"levelo_inurba_marseille","lat":43.279924,"lon":5.400092,"is_reserved":false,"is_disabled":false,"rental_uris":{"android":"levelo://app?vid=0bc2b4da-31a7-4cb4-95e9-3aa3825f7da9","ios":"levelo://app?vid=0bc2b4da-31a7-4cb4-95e9-3aa3825f7da9"},"vehicle_type_id":"4","last_reported":1731953613,"current_range_meters":15200,"station_id":"ce4bho92rcd13ifvqh4g","pricing_plan_id":"cebpf4jnsgd1na2vs0mg"},{"bike_id":"0ea44848-01bd-4ed5-98b4-d4fbd5a0a025","system_id":"levelo_inurba_marseille","lat":43.29523,"lon":5.39041,"is_reserved":false,"is_disabled":false,"rental_uris":{"android":"levelo://app?vid=0ea44848-01bd-4ed5-98b4-d4fbd5a0a025","ios":"levelo://app?vid=0ea44848-01bd-4ed5-98b4-d4fbd5a0a025"},"vehicle_type_id":"4","last_reported":1731953613,"current_range_meters":38000,"station_id":"ce4bh3p2rcd13ifvqdp0","pricing_plan_id":"cebpf4jnsgd1na2vs0mg"},{"bike_id":"17c03dc7-c3dc-4592-834a-2c7ea489596a","system_id":"levelo_inurba_marseille","lat":43.32368,"lon":5.38894,"is_reserved":false,"is_disabled":false,"rental_uris":{"android":"levelo://app?vid=17c03dc7-c3dc-4592-834a-2c7ea489596a","ios":"levelo://app?vid=17c03dc7-c3dc-4592-834a-2c7ea489596a"},"vehicle_type_id":"4","last_reported":1731953613,"current_range_meters":38800,"station_id":"ce4bhqp2rcd13ifvqhog","pricing_plan_id":"cebpf4jnsgd1na2vs0mg"},{"bike_id":"e4a21289-fd7d-4a16-96e5-93faccc1204a","system_id":"levelo_inurba_marseille","lat":43.29323,"lon":5.41151,"is_reserved":false,"is_disabled":false,"rental_uris":{"android":"levelo://app?vid=e4a21289-fd7d-4a16-96e5-93faccc1204a","ios":"levelo://app?vid=e4a21289-fd7d-4a16-96e5-93faccc1204a"},"vehicle_type_id":"4","last_reported":1731953613,"current_range_meters":32400,"station_id":"","pricing_plan_id":"cebpf4jnsgd1na2vs0mg"},{"bike_id":"69b9fb52-b1e8-402f-9b6f-d88522e081d9","system_id":"levelo_inurba_marseille","lat":43.27999,"lon":5.40024,"is_reserved":false,"is_disabled":false,"rental_uris":{"android":"levelo://app?vid=69b9fb52-b1e8-402f-9b6f-d88522e081d9","ios":"levelo://app?vid=69b9fb52-b1e8-402f-9b6f-d88522e081d9"},"vehicle_type_id":"4","last_reported":1731953613,"current_range_meters":24400,"station_id":"ce4bho92rcd13ifvqh4g","pricing_plan_id":"cebpf4jnsgd1na2vs0mg"},{"bike_id":"6c926eef-89ef-4421-9c04-3c9899f3173b","system_id":"levelo_inurba_marseille","lat":43.29895,"lon":5.43652,"is_reserved":false,"is_disabled":true,"rental_uris":{"android":"levelo://app?vid=6c926eef-89ef-4421-9c04-3c9899f3173b","ios":"levelo://app?vid=6c926eef-89ef-4421-9c04-3c9899f3173b"},"vehicle_type_id":"4","last_reported":1731953613,"current_range_meters":0,"station_id":"ce4bhpp2rcd13ifvqhfg","pricing_plan_id":"cebpf4jnsgd1na2vs0mg"},{"bike_id":"68659cf0-4fd2-4892-b1f5-2895655bc320","system_id":"levelo_inurba_marseille","lat":43.29438,"lon":5.39746,"is_reserved":false,"is_disabled":false,"rental_uris":{"android":"levelo://app?vid=68659cf0-4fd2-4892-b1f5-2895655bc320","ios":"levelo://app?vid=68659cf0-4fd2-4892-b1f5-2895655bc320"},"vehicle_type_id":"4","last_reported":1731953613,"current_range_meters":26000,"station_id":"ce4bh3h2rcd13ifvqdo0","pricing_plan_id":"cebpf4jnsgd1na2vs0mg"},{"bike_id":"81108a94-b9fd-4847-be3f-917addbb08ef","system_id":"levelo_inurba_marseille","lat":43.26555,"lon":5.37297,"is_reserved":false,"is_disabled":true,"rental_uris":{"android":"levelo://app?vid=81108a94-b9fd-4847-be3f-917addbb08ef","ios":"levelo://app?vid=81108a94-b9fd-4847-be3f-917addbb08ef"},"vehicle_type_id":"4","last_reported":1731953613,"current_range_meters":0,"station_id":"ce4bhg12rcd13ifvqf70","pricing_plan_id":"cebpf4jnsgd1na2vs0mg"},{"bike_id":"e08875d1-5eda-43a9-a5b5-ee3ebd16c83c","system_id":"levelo_inurba_marseille","lat":43.25006,"lon":5.38921,"is_reserved":false,"is_disabled":true,"rental_uris":{"android":"levelo://app?vid=e08875d1-5eda-43a9-a5b5-ee3ebd16c83c","ios":"levelo://app?vid=e08875d1-5eda-43a9-a5b5-ee3ebd16c83c"},"vehicle_type_id":"4","last_reported":1731953613,"current_range_meters":2000,"station_id":"ce4bhgp2rcd13ifvqfd0","pricing_plan_id":"cebpf4jnsgd1na2vs0mg"},{"bike_id":"4f6563aa-5149-4f5f-892a-b193097b17a7","system_id":"levelo_inurba_marseille","lat":43.317123,"lon":5.377377,"is_reserved":false,"is_disabled":false,"rental_uris":{"android":"levelo://app?vid=4f6563aa-5149-4f5f-892a-b193097b17a7","ios":"levelo://app?vid=4f6563aa-5149-4f5f-892a-b193097b17a7"},"vehicle_type_id":"4","last_reported":1731953613,"current_range_meters":10000,"station_id":"ce4bgth2rcd13ifvqch0","pricing_plan_id":"cebpf4jnsgd1na2vs0mg"},{"bike_id":"226e83bf-1a60-405a-af72-b50b167433a5","system_id":"levelo_inurba_marseille","lat":43.29577,"lon":5.39962,"is_reserved":false,"is_disabled":false,"rental_uris":{"android":"levelo://app?vid=226e83bf-1a60-405a-af72-b50b167433a5","ios":"levelo://app?vid=226e83bf-1a60-405a-af72-b50b167433a5"},"vehicle_type_id":"4","last_reported":1731953613,"current_range_meters":35600,"station_id":"ce4bh312rcd13ifvqdj0","pricing_plan_id":"cebpf4jnsgd1na2vs0mg"},{"bike_id":"4e682c21-86be-4d76-a64b-638a60816da7","system_id":"levelo_inurba_marseille","lat":43.27809,"lon":5.40707,"is_reserved":false,"is_disabled":false,"rental_uris":{"android":"levelo://app?vid=4e682c21-86be-4d76-a64b-638a60816da7","ios":"levelo://app?vid=4e682c21-86be-4d76-a64b-638a60816da7"},"vehicle_type_id":"4","last_reported":1731953613,"current_range_meters":22000,"station_id":"ce4bhnh2rcd13ifvqgtg","pricing_plan_id":"cebpf4jnsgd1na2vs0mg"},{"bike_id":"8dfde800-caf2-48c9-98e1-8c960fca5fc7","system_id":"levelo_inurba_marseille","lat":43.29875,"lon":5.38898,"is_reserved":false,"is_disabled":false,"rental_uris":{"android":"levelo://app?vid=8dfde800-caf2-48c9-98e1-8c960fca5fc7","ios":"levelo://app?vid=8dfde800-caf2-48c9-98e1-8c960fca5fc7"},"vehicle_type_id":"4","last_reported":1731953613,"current_range_meters":28000,"station_id":"ce4bh392rcd13ifvqdl0","pricing_plan_id":"cebpf4jnsgd1na2vs0mg"},{"bike_id":"a87aaa7e-78b9-4322-bb83-e9fce6fb3cba","system_id":"levelo_inurba_marseille","lat":43.29849,"lon":5.36277,"is_reserved":false,"is_disabled":false,"rental_uris":{"android":"levelo://app?vid=a87aaa7e-78b9-4322-bb83-e9fce6fb3cba","ios":"levelo://app?vid=a87aaa7e-78b9-4322-bb83-e9fce6fb3cba"},"vehicle_type_id":"4","last_reported":1731953613,"current_range_meters":14800,"station_id":"ce4bgpp2rcd13ifvqc3g","pricing_plan_id":"cebpf4jnsgd1na2vs0mg"},{"bike_id":"d930277f-ae59-4a27-9409-f96eb995b54c","system_id":"levelo_inurba_marseille","lat":43.29514,"lon":5.39036,"is_reserved":false,"is_disabled":false,"rental_uris":{"android":"levelo://app?vid=d930277f-ae59-4a27-9409-f96eb995b54c","ios":"levelo://app?vid=d930277f-ae59-4a27-9409-f96eb995b54c"},"vehicle_type_id":"4","last_reported":1731953613,"current_range_meters":30800,"station_id":"ce4bh3p2rcd13ifvqdp0","pricing_plan_id":"cebpf4jnsgd1na2vs0mg"},{"bike_id":"ced0b29c-f4ce-41ad-a8a9-c0a7b3edb1dd","system_id":"levelo_inurba_marseille","lat":43.27811,"lon":5.40705,"is_reserved":false,"is_disabled":true,"rental_uris":{"android":"levelo://app?vid=ced0b29c-f4ce-41ad-a8a9-c0a7b3edb1dd","ios":"levelo://app?vid=ced0b29c-f4ce-41ad-a8a9-c0a7b3edb1dd"},"vehicle_type_id":"4","last_reported":1731953613,"current_range_meters":0,"station_id":"ce4bhnh2rcd13ifvqgtg","pricing_plan_id":"cebpf4jnsgd1na2vs0mg"},{"bike_id":"cff4f2fa-368d-4854-9a7b-4d3844633c25","system_id":"levelo_inurba_marseille","lat":43.33609,"lon":5.41029,"is_reserved":false,"is_disabled":true,"rental_uris":{"android":"levelo://app?vid=cff4f2fa-368d-4854-9a7b-4d3844633c25","ios":"levelo://app?vid=cff4f2fa-368d-4854-9a7b-4d3844633c25"},"vehicle_type_id":"4","last_reported":1731953613,"current_range_meters":0,"station_id":"ce4bhqh2rcd13ifvqhmg","pricing_plan_id":"cebpf4jnsgd1na2vs0mg"},{"bike_id":"43fc3a21-f3df-43fc-8276-7a68f99281c3","system_id":"levelo_inurba_marseille","lat":43.25123,"lon":5.40314,"is_reserved":false,"is_disabled":true,"rental_uris":{"android":"levelo://app?vid=43fc3a21-f3df-43fc-8276-7a68f99281c3","ios":"levelo://app?vid=43fc3a21-f3df-43fc-8276-7a68f99281c3"},"vehicle_type_id":"4","last_reported":1731953613,"current_range_meters":1200,"station_id":"ce4bhlh2rcd13ifvqgig","pricing_plan_id":"cebpf4jnsgd1na2vs0mg"},{"bike_id":"6ba2d3f3-c655-4e14-8211-bd7d1cb3d06a","system_id":"levelo_inurba_marseille","lat":43.29869,"lon":5.39738,"is_reserved":false,"is_disabled":false,"rental_uris":{"android":"levelo://app?vid=6ba2d3f3-c655-4e14-8211-bd7d1cb3d06a","ios":"levelo://app?vid=6ba2d3f3-c655-4e14-8211-bd7d1cb3d06a"},"vehicle_type_id":"4","last_reported":1731953613,"current_range_meters":38800,"station_id":"ce4bh0h2rcd13ifvqd50","pricing_plan_id":"cebpf4jnsgd1na2vs0mg"},{"bike_id":"7e9ce606-04ed-4ba1-95b9-30c4f0269397","system_id":"levelo_inurba_marseille","lat":43.28411,"lon":5.3751,"is_reserved":false,"is_disabled":false,"rental_uris":{"android":"levelo://app?vid=7e9ce606-04ed-4ba1-95b9-30c4f0269397","ios":"levelo://app?vid=7e9ce606-04ed-4ba1-95b9-30c4f0269397"},"vehicle_type_id":"4","last_reported":1731953613,"current_range_meters":20800,"station_id":"ce4bh412rcd13ifvqds0","pricing_plan_id":"cebpf4jnsgd1na2vs0mg"},{"bike_id":"bc122eef-c627-4c48-898c-81234e04e2bd","system_id":"levelo_inurba_marseille","lat":43.30606,"lon":5.39328,"is_reserved":false,"is_disabled":true,"rental_uris":{"android":"levelo://app?vid=bc122eef-c627-4c48-898c-81234e04e2bd","ios":"levelo://app?vid=bc122eef-c627-4c48-898c-81234e04e2bd"},"vehicle_type_id":"4","last_reported":1731953613,"current_range_meters":8800,"station_id":"ce4bh0p2rcd13ifvqd80","pricing_plan_id":"cebpf4jnsgd1na2vs0mg"},{"bike_id":"56c4e209-27f1-4b9b-916c-ad011ba60920","system_id":"levelo_inurba_marseille","lat":43.33024,"lon":5.39041,"is_reserved":false,"is_disabled":false,"rental_uris":{"android":"levelo://app?vid=56c4e209-27f1-4b9b-916c-ad011ba60920","ios":"levelo://app?vid=56c4e209-27f1-4b9b-916c-ad011ba60920"},"vehicle_type_id":"4","last_reported":1731953613,"current_range_meters":26800,"station_id":"ce4bhr92rcd13ifvqhrg","pricing_plan_id":"cebpf4jnsgd1na2vs0mg"},{"bike_id":"9c003458-5bcb-4587-ba82-142e30067a2f","system_id":"levelo_inurba_marseille","lat":43.33027,"lon":5.39037,"is_reserved":false,"is_disabled":true,"rental_uris":{"android":"levelo://app?vid=9c003458-5bcb-4587-ba82-142e30067a2f","ios":"levelo://app?vid=9c003458-5bcb-4587-ba82-142e30067a2f"},"vehicle_type_id":"4","last_reported":1731953613,"current_range_meters":0,"station_id":"ce4bhr92rcd13ifvqhrg","pricing_plan_id":"cebpf4jnsgd1na2vs0mg"},{"bike_id":"e138b0e1-0592-4057-bb8b-cf36d0939c91","system_id":"levelo_inurba_marseille","lat":43.2799,"lon":5.40043,"is_reserved":false,"is_disabled":false,"rental_uris":{"android":"levelo://app?vid=e138b0e1-0592-4057-bb8b-cf36d0939c91","ios":"levelo://app?vid=e138b0e1-0592-4057-bb8b-cf36d0939c91"},"vehicle_type_id":"4","last_reported":1731953613,"current_range_meters":39200,"station_id":"ce4bho92rcd13ifvqh4g","pricing_plan_id":"cebpf4jnsgd1na2vs0mg"},{"bike_id":"1341a828-b981-4198-a789-8a5791ca7539","system_id":"levelo_inurba_marseille","lat":43.25006,"lon":5.3892,"is_reserved":false,"is_disabled":true,"rental_uris":{"android":"levelo://app?vid=1341a828-b981-4198-a789-8a5791ca7539","ios":"levelo://app?vid=1341a828-b981-4198-a789-8a5791ca7539"},"vehicle_type_id":"4","last_reported":1731953613,"current_range_meters":0,"station_id":"ce4bhgp2rcd13ifvqfd0","pricing_plan_id":"cebpf4jnsgd1na2vs0mg"},{"bike_id":"835e5ef0-6aa8-42be-8d5b-1c99e029a196","system_id":"levelo_inurba_marseille","lat":43.25501,"lon":5.37652,"is_reserved":false,"is_disabled":false,"rental_uris":{"android":"levelo://app?vid=835e5ef0-6aa8-42be-8d5b-1c99e029a196","ios":"levelo://app?vid=835e5ef0-6aa8-42be-8d5b-1c99e029a196"},"vehicle_type_id":"4","last_reported":1731953613,"current_range_meters":8000,"station_id":"ce4bhh12rcd13ifvqff0","pricing_plan_id":"cebpf4jnsgd1na2vs0mg"},{"bike_id":"73e893d7-288d-4212-84f4-e9e28b81fc1a","system_id":"levelo_inurba_marseille","lat":43.23967,"lon":5.36631,"is_reserved":false,"is_disabled":false,"rental_uris":{"android":"levelo://app?vid=73e893d7-288d-4212-84f4-e9e28b81fc1a","ios":"levelo://app?vid=73e893d7-288d-4212-84f4-e9e28b81fc1a"},"vehicle_type_id":"4","last_reported":1731953613,"current_range_meters":22000,"station_id":"ce4bhi12rcd13ifvqfp0","pricing_plan_id":"cebpf4jnsgd1na2vs0mg"},{"bike_id":"5f9a24f2-7fa6-4065-ba39-d9ef9fd7d02d","system_id":"levelo_inurba_marseille","lat":43.30785,"lon":5.37656,"is_reserved":false,"is_disabled":false,"rental_uris":{"android":"levelo://app?vid=5f9a24f2-7fa6-4065-ba39-d9ef9fd7d02d","ios":"levelo://app?vid=5f9a24f2-7fa6-4065-ba39-d9ef9fd7d02d"},"vehicle_type_id":"4","last_reported":1731953613,"current_range_meters":25600,"station_id":"ce4bgv92rcd13ifvqcq0","pricing_plan_id":"cebpf4jnsgd1na2vs0mg"},{"bike_id":"ef31495f-6a34-4d74-a72b-91bbac7371df","system_id":"levelo_inurba_marseille","lat":43.2592,"lon":5.40823,"is_reserved":false,"is_disabled":true,"rental_uris":{"android":"levelo://app?vid=ef31495f-6a34-4d74-a72b-91bbac7371df","ios":"levelo://app?vid=ef31495f-6a34-4d74-a72b-91bbac7371df"},"vehicle_type_id":"4","last_reported":1731953613,"current_range_meters":24000,"station_id":"","pricing_plan_id":"cebpf4jnsgd1na2vs0mg"},{"bike_id":"d10c90fd-3c70-4bb6-bcaa-6d62b6ce4770","system_id":"levelo_inurba_marseille","lat":43.26066,"lon":5.39394,"is_reserved":false,"is_disabled":true,"rental_uris":{"android":"levelo://app?vid=d10c90fd-3c70-4bb6-bcaa-6d62b6ce4770","ios":"levelo://app?vid=d10c90fd-3c70-4bb6-bcaa-6d62b6ce4770"},"vehicle_type_id":"4","last_reported":1731953613,"current_range_meters":10800,"station_id":"ce4bhh92rcd13ifvqfj0","pricing_plan_id":"cebpf4jnsgd1na2vs0mg"},{"bike_id":"5917a06d-1a89-42ee-9c96-70b3e49f2520","system_id":"levelo_inurba_marseille","lat":43.31691,"lon":5.40471,"is_reserved":false,"is_disabled":true,"rental_uris":{"android":"levelo://app?vid=5917a06d-1a89-42ee-9c96-70b3e49f2520","ios":"levelo://app?vid=5917a06d-1a89-42ee-9c96-70b3e49f2520"},"vehicle_type_id":"4","last_reported":1731953613,"current_range_meters":18000,"station_id":"ce4bh012rcd13ifvqd00","pricing_plan_id":"cebpf4jnsgd1na2vs0mg"},{"bike_id":"dbf60536-a536-4a38-8bbd-8d36414f5350","system_id":"levelo_inurba_marseille","lat":43.28852,"lon":5.35849,"is_reserved":false,"is_disabled":false,"rental_uris":{"android":"levelo://app?vid=dbf60536-a536-4a38-8bbd-8d36414f5350","ios":"levelo://app?vid=dbf60536-a536-4a38-8bbd-8d36414f5350"},"vehicle_type_id":"4","last_reported":1731953613,"current_range_meters":38400,"station_id":"ce4bhb12rcd13ifvqem0","pricing_plan_id":"cebpf4jnsgd1na2vs0mg"},{"bike_id":"68a80399-13af-40c0-8819-67450628413e","system_id":"levelo_inurba_marseille","lat":43.29261,"lon":5.40914,"is_reserved":false,"is_disabled":true,"rental_uris":{"android":"levelo://app?vid=68a80399-13af-40c0-8819-67450628413e","ios":"levelo://app?vid=68a80399-13af-40c0-8819-67450628413e"},"vehicle_type_id":"4","last_reported":1731953613,"current_range_meters":800,"station_id":"ce4bh192rcd13ifvqdc0","pricing_plan_id":"cebpf4jnsgd1na2vs0mg"},{"bike_id":"6a65d129-fed7-4f23-af45-5be3fab91600","system_id":"levelo_inurba_marseille","lat":43.30149,"lon":5.3742,"is_reserved":false,"is_disabled":false,"rental_uris":{"android":"levelo://app?vid=6a65d129-fed7-4f23-af45-5be3fab91600","ios":"levelo://app?vid=6a65d129-fed7-4f23-af45-5be3fab91600"},"vehicle_type_id":"4","last_reported":1731953613,"current_range_meters":11600,"station_id":"ce4bgs92rcd13ifvqcc0","pricing_plan_id":"cebpf4jnsgd1na2vs0mg"},{"bike_id":"02c7140d-eb0a-4832-a8c4-16edc8f79941","system_id":"levelo_inurba_marseille","lat":43.23975,"lon":5.36633,"is_reserved":false,"is_disabled":false,"rental_uris":{"android":"levelo://app?vid=02c7140d-eb0a-4832-a8c4-16edc8f79941","ios":"levelo://app?vid=02c7140d-eb0a-4832-a8c4-16edc8f79941"},"vehicle_type_id":"4","last_reported":1731953613,"current_range_meters":24400,"station_id":"ce4bhi12rcd13ifvqfp0","pricing_plan_id":"cebpf4jnsgd1na2vs0mg"},{"bike_id":"0534ce24-46b6-4220-851d-cebdfec71164","system_id":"levelo_inurba_marseille","lat":43.23185,"lon":5.39978,"is_reserved":false,"is_disabled":true,"rental_uris":{"android":"levelo://app?vid=0534ce24-46b6-4220-851d-cebdfec71164","ios":"levelo://app?vid=0534ce24-46b6-4220-851d-cebdfec71164"},"vehicle_type_id":"4","last_reported":1731953613,"current_range_meters":0,"station_id":"ce4bhn12rcd13ifvqgqg","pricing_plan_id":"cebpf4jnsgd1na2vs0mg"},{"bike_id":"5627b8c3-244b-4371-bcce-8ca71c0e3130","system_id":"levelo_inurba_marseille","lat":43.30429,"lon":5.39741,"is_reserved":false,"is_disabled":false,"rental_uris":{"android":"levelo://app?vid=5627b8c3-244b-4371-bcce-8ca71c0e3130","ios":"levelo://app?vid=5627b8c3-244b-4371-bcce-8ca71c0e3130"},"vehicle_type_id":"4","last_reported":1731953613,"current_range_meters":36800,"station_id":"ce4bh092rcd13ifvqd20","pricing_plan_id":"cebpf4jnsgd1na2vs0mg"},{"bike_id":"3f095bc8-9af8-4b0b-a298-157d8e949f36","system_id":"levelo_inurba_marseille","lat":43.27661,"lon":5.38901,"is_reserved":false,"is_disabled":true,"rental_uris":{"android":"levelo://app?vid=3f095bc8-9af8-4b0b-a298-157d8e949f36","ios":"levelo://app?vid=3f095bc8-9af8-4b0b-a298-157d8e949f36"},"vehicle_type_id":"4","last_reported":1731953613,"current_range_meters":10000,"station_id":"ce4bhi12rcd13ifvqfo0","pricing_plan_id":"cebpf4jnsgd1na2vs0mg"},{"bike_id":"7c407d42-b656-4801-b91f-c3365028215c","system_id":"levelo_inurba_marseille","lat":43.26212,"lon":5.37444,"is_reserved":false,"is_disabled":true,"rental_uris":{"android":"levelo://app?vid=7c407d42-b656-4801-b91f-c3365028215c","ios":"levelo://app?vid=7c407d42-b656-4801-b91f-c3365028215c"},"vehicle_type_id":"4","last_reported":1731953613,"current_range_meters":400,"station_id":"ce4bhgp2rcd13ifvqfc0","pricing_plan_id":"cebpf4jnsgd1na2vs0mg"},{"bike_id":"a835af4a-10cd-43be-8c5e-027a035c9118","system_id":"levelo_inurba_marseille","lat":43.28662,"lon":5.36354,"is_reserved":false,"is_disabled":false,"rental_uris":{"android":"levelo://app?vid=a835af4a-10cd-43be-8c5e-027a035c9118","ios":"levelo://app?vid=a835af4a-10cd-43be-8c5e-027a035c9118"},"vehicle_type_id":"4","last_reported":1731953613,"current_range_meters":38000,"station_id":"ce4bhah2rcd13ifvqej0","pricing_plan_id":"cebpf4jnsgd1na2vs0mg"},{"bike_id":"9501b9cf-980a-4ceb-b163-6f18f173a491","system_id":"levelo_inurba_marseille","lat":43.31713,"lon":5.43703,"is_reserved":false,"is_disabled":false,"rental_uris":{"android":"levelo://app?vid=9501b9cf-980a-4ceb-b163-6f18f173a491","ios":"levelo://app?vid=9501b9cf-980a-4ceb-b163-6f18f173a491"},"vehicle_type_id":"4","last_reported":1731953613,"current_range_meters":36400,"station_id":"ce4bhp92rcd13ifvqhcg","pricing_plan_id":"cebpf4jnsgd1na2vs0mg"},{"bike_id":"d674a550-723f-4e20-a0c2-89aa344c2ade","system_id":"levelo_inurba_marseille","lat":43.28196,"lon":5.44372,"is_reserved":false,"is_disabled":false,"rental_uris":{"android":"levelo://app?vid=d674a550-723f-4e20-a0c2-89aa344c2ade","ios":"levelo://app?vid=d674a550-723f-4e20-a0c2-89aa344c2ade"},"vehicle_type_id":"4","last_reported":1731953613,"current_range_meters":7200,"station_id":"","pricing_plan_id":"cebpf4jnsgd1na2vs0mg"},{"bike_id":"4b62e46f-8115-4acf-96a4-5b0a25a74551","system_id":"levelo_inurba_marseille","lat":43.29874,"lon":5.38911,"is_reserved":false,"is_disabled":false,"rental_uris":{"android":"levelo://app?vid=4b62e46f-8115-4acf-96a4-5b0a25a74551","ios":"levelo://app?vid=4b62e46f-8115-4acf-96a4-5b0a25a74551"},"vehicle_type_id":"4","last_reported":1731953613,"current_range_meters":38400,"station_id":"ce4bh392rcd13ifvqdl0","pricing_plan_id":"cebpf4jnsgd1na2vs0mg"},{"bike_id":"f26f9ff4-6d82-459d-bc98-b8addb7fa0b2","system_id":"levelo_inurba_marseille","lat":43.28944,"lon":5.36631,"is_reserved":false,"is_disabled":true,"rental_uris":{"android":"levelo://app?vid=f26f9ff4-6d82-459d-bc98-b8addb7fa0b2","ios":"levelo://app?vid=f26f9ff4-6d82-459d-bc98-b8addb7fa0b2"},"vehicle_type_id":"4","last_reported":1731953613,"current_range_meters":0,"station_id":"ce4bhap2rcd13ifvqek0","pricing_plan_id":"cebpf4jnsgd1na2vs0mg"},{"bike_id":"a3d59dac-726a-4b7f-9529-f9ab99fbf506","system_id":"levelo_inurba_marseille","lat":43.29258,"lon":5.40897,"is_reserved":false,"is_disabled":true,"rental_uris":{"android":"levelo://app?vid=a3d59dac-726a-4b7f-9529-f9ab99fbf506","ios":"levelo://app?vid=a3d59dac-726a-4b7f-9529-f9ab99fbf506"},"vehicle_type_id":"4","last_reported":1731953613,"current_range_meters":0,"station_id":"ce4bh192rcd13ifvqdc0","pricing_plan_id":"cebpf4jnsgd1na2vs0mg"},{"bike_id":"850ac7a3-c014-4950-ad6a-9d2db82428c5","system_id":"levelo_inurba_marseille","lat":43.29036,"lon":5.39964,"is_reserved":false,"is_disabled":false,"rental_uris":{"android":"levelo://app?vid=850ac7a3-c014-4950-ad6a-9d2db82428c5","ios":"levelo://app?vid=850ac7a3-c014-4950-ad6a-9d2db82428c5"},"vehicle_type_id":"4","last_reported":1731953613,"current_range_meters":18800,"station_id":"ce4bh392rcd13ifvqdm0","pricing_plan_id":"cebpf4jnsgd1na2vs0mg"},{"bike_id":"f1f50780-48cb-44fa-9dee-6831b7cf5f41","system_id":"levelo_inurba_marseille","lat":43.29517,"lon":5.39036,"is_reserved":false,"is_disabled":false,"rental_uris":{"android":"levelo://app?vid=f1f50780-48cb-44fa-9dee-6831b7cf5f41","ios":"levelo://app?vid=f1f50780-48cb-44fa-9dee-6831b7cf5f41"},"vehicle_type_id":"4","last_reported":1731953613,"current_range_meters":38800,"station_id":"ce4bh3p2rcd13ifvqdp0","pricing_plan_id":"cebpf4jnsgd1na2vs0mg"},{"bike_id":"5873cbbb-60e4-463a-a62f-14bc6adde5e8","system_id":"levelo_inurba_marseille","lat":43.28059,"lon":5.36944,"is_reserved":false,"is_disabled":false,"rental_uris":{"android":"levelo://app?vid=5873cbbb-60e4-463a-a62f-14bc6adde5e8","ios":"levelo://app?vid=5873cbbb-60e4-463a-a62f-14bc6adde5e8"},"vehicle_type_id":"4","last_reported":1731953613,"current_range_meters":8000,"station_id":"ce4bha12rcd13ifvqef0","pricing_plan_id":"cebpf4jnsgd1na2vs0mg"},{"bike_id":"a74ebd93-bc18-4c3e-aace-af4ac37176f1","system_id":"levelo_inurba_marseille","lat":43.32359,"lon":5.38879,"is_reserved":false,"is_disabled":false,"rental_uris":{"android":"levelo://app?vid=a74ebd93-bc18-4c3e-aace-af4ac37176f1","ios":"levelo://app?vid=a74ebd93-bc18-4c3e-aace-af4ac37176f1"},"vehicle_type_id":"4","last_reported":1731953613,"current_range_meters":32000,"station_id":"ce4bhqp2rcd13ifvqhog","pricing_plan_id":"cebpf4jnsgd1na2vs0mg"},{"bike_id":"d07e1f90-f37b-427a-8dc4-c0c0954b1d4d","system_id":"levelo_inurba_marseille","lat":43.27814,"lon":5.40717,"is_reserved":false,"is_disabled":true,"rental_uris":{"android":"levelo://app?vid=d07e1f90-f37b-427a-8dc4-c0c0954b1d4d","ios":"levelo://app?vid=d07e1f90-f37b-427a-8dc4-c0c0954b1d4d"},"vehicle_type_id":"4","last_reported":1731953613,"current_range_meters":0,"station_id":"ce4bhnh2rcd13ifvqgtg","pricing_plan_id":"cebpf4jnsgd1na2vs0mg"},{"bike_id":"9b5ac55b-2d79-4b30-b64a-b562b82127c4","system_id":"levelo_inurba_marseille","lat":43.29626,"lon":5.40594,"is_reserved":false,"is_disabled":false,"rental_uris":{"android":"levelo://app?vid=9b5ac55b-2d79-4b30-b64a-b562b82127c4","ios":"levelo://app?vid=9b5ac55b-2d79-4b30-b64a-b562b82127c4"},"vehicle_type_id":"4","last_reported":1731953613,"current_range_meters":9600,"station_id":"ce4bh0h2rcd13ifvqd60","pricing_plan_id":"cebpf4jnsgd1na2vs0mg"},{"bike_id":"cc89ee78-e650-4bab-ac56-27866afcd24c","system_id":"levelo_inurba_marseille","lat":43.26574,"lon":5.38995,"is_reserved":false,"is_disabled":false,"rental_uris":{"android":"levelo://app?vid=cc89ee78-e650-4bab-ac56-27866afcd24c","ios":"levelo://app?vid=cc89ee78-e650-4bab-ac56-27866afcd24c"},"vehicle_type_id":"4","last_reported":1731953613,"current_range_meters":9600,"station_id":"ce4bhe12rcd13ifvqf30","pricing_plan_id":"cebpf4jnsgd1na2vs0mg"},{"bike_id":"03e86a75-4872-4548-9575-ac8738d7d8d3","system_id":"levelo_inurba_marseille","lat":43.29448,"lon":5.39745,"is_reserved":false,"is_disabled":false,"rental_uris":{"android":"levelo://app?vid=03e86a75-4872-4548-9575-ac8738d7d8d3","ios":"levelo://app?vid=03e86a75-4872-4548-9575-ac8738d7d8d3"},"vehicle_type_id":"4","last_reported":1731953613,"current_range_meters":29600,"station_id":"ce4bh3h2rcd13ifvqdo0","pricing_plan_id":"cebpf4jnsgd1na2vs0mg"},{"bike_id":"d1041330-15be-4fe1-91a9-2998443ce887","system_id":"levelo_inurba_marseille","lat":43.29908,"lon":5.37533,"is_reserved":false,"is_disabled":false,"rental_uris":{"android":"levelo://app?vid=d1041330-15be-4fe1-91a9-2998443ce887","ios":"levelo://app?vid=d1041330-15be-4fe1-91a9-2998443ce887"},"vehicle_type_id":"4","last_reported":1731953613,"current_range_meters":28400,"station_id":"ce4bgjh2rcd13ifvqbg0","pricing_plan_id":"cebpf4jnsgd1na2vs0mg"},{"bike_id":"899d9483-0dc1-4be9-a3f2-dd55ed3436c0","system_id":"levelo_inurba_marseille","lat":43.279196,"lon":5.395819,"is_reserved":false,"is_disabled":false,"rental_uris":{"android":"levelo://app?vid=899d9483-0dc1-4be9-a3f2-dd55ed3436c0","ios":"levelo://app?vid=899d9483-0dc1-4be9-a3f2-dd55ed3436c0"},"vehicle_type_id":"4","last_reported":1731953613,"current_range_meters":30000,"station_id":"ce4bhf92rcd13ifvqf40","pricing_plan_id":"cebpf4jnsgd1na2vs0mg"},{"bike_id":"60d0a274-ebc6-483f-996f-f439d40e632b","system_id":"levelo_inurba_marseille","lat":43.26408,"lon":5.37779,"is_reserved":false,"is_disabled":false,"rental_uris":{"android":"levelo://app?vid=60d0a274-ebc6-483f-996f-f439d40e632b","ios":"levelo://app?vid=60d0a274-ebc6-483f-996f-f439d40e632b"},"vehicle_type_id":"4","last_reported":1731953613,"current_range_meters":17600,"station_id":"","pricing_plan_id":"cebpf4jnsgd1na2vs0mg"},{"bike_id":"5203ab47-a9f6-48ae-bdd3-3c5a5ab6ee25","system_id":"levelo_inurba_marseille","lat":43.29978,"lon":5.38492,"is_reserved":false,"is_disabled":true,"rental_uris":{"android":"levelo://app?vid=5203ab47-a9f6-48ae-bdd3-3c5a5ab6ee25","ios":"levelo://app?vid=5203ab47-a9f6-48ae-bdd3-3c5a5ab6ee25"},"vehicle_type_id":"4","last_reported":1731953613,"current_range_meters":38400,"station_id":"ce4bgj92rcd13ifvqbd0","pricing_plan_id":"cebpf4jnsgd1na2vs0mg"},{"bike_id":"7780bfcf-dbb0-49aa-995a-b6314a12fa54","system_id":"levelo_inurba_marseille","lat":43.28475,"lon":5.38422,"is_reserved":false,"is_disabled":false,"rental_uris":{"android":"levelo://app?vid=7780bfcf-dbb0-49aa-995a-b6314a12fa54","ios":"levelo://app?vid=7780bfcf-dbb0-49aa-995a-b6314a12fa54"},"vehicle_type_id":"4","last_reported":1731953613,"current_range_meters":22400,"station_id":"ce4bh512rcd13ifvqe3g","pricing_plan_id":"cebpf4jnsgd1na2vs0mg"},{"bike_id":"adccf194-4075-4684-abf1-d263f6c90eb9","system_id":"levelo_inurba_marseille","lat":43.28925,"lon":5.38378,"is_reserved":false,"is_disabled":false,"rental_uris":{"android":"levelo://app?vid=adccf194-4075-4684-abf1-d263f6c90eb9","ios":"levelo://app?vid=adccf194-4075-4684-abf1-d263f6c90eb9"},"vehicle_type_id":"4","last_reported":1731953613,"current_range_meters":30000,"station_id":"ce4bh612rcd13ifvqe6g","pricing_plan_id":"cebpf4jnsgd1na2vs0mg"},{"bike_id":"3f09bf1f-cf83-4bce-af10-30423644680e","system_id":"levelo_inurba_marseille","lat":43.29707,"lon":5.37703,"is_reserved":false,"is_disabled":false,"rental_uris":{"android":"levelo://app?vid=3f09bf1f-cf83-4bce-af10-30423644680e","ios":"levelo://app?vid=3f09bf1f-cf83-4bce-af10-30423644680e"},"vehicle_type_id":"4","last_reported":1731953613,"current_range_meters":25600,"station_id":"ce4bgkh2rcd13ifvqbl0","pricing_plan_id":"cebpf4jnsgd1na2vs0mg"},{"bike_id":"e1906d1d-b824-4752-94a5-d6caacdb024a","system_id":"levelo_inurba_marseille","lat":43.29788,"lon":5.38115,"is_reserved":false,"is_disabled":true,"rental_uris":{"android":"levelo://app?vid=e1906d1d-b824-4752-94a5-d6caacdb024a","ios":"levelo://app?vid=e1906d1d-b824-4752-94a5-d6caacdb024a"},"vehicle_type_id":"4","last_reported":1731953613,"current_range_meters":0,"station_id":"ce4bgip2rcd13ifvqbb0","pricing_plan_id":"cebpf4jnsgd1na2vs0mg"},{"bike_id":"65770c6f-ca54-4db3-952b-30a87f1b404f","system_id":"levelo_inurba_marseille","lat":43.30811,"lon":5.38142,"is_reserved":false,"is_disabled":true,"rental_uris":{"android":"levelo://app?vid=65770c6f-ca54-4db3-952b-30a87f1b404f","ios":"levelo://app?vid=65770c6f-ca54-4db3-952b-30a87f1b404f"},"vehicle_type_id":"4","last_reported":1731953613,"current_range_meters":800,"station_id":"ce4bgt12rcd13ifvqce0","pricing_plan_id":"cebpf4jnsgd1na2vs0mg"},{"bike_id":"9d2c2513-0c89-4f02-98b9-a9b8e8f9ff12","system_id":"levelo_inurba_marseille","lat":43.27947,"lon":5.41053,"is_reserved":false,"is_disabled":false,"rental_uris":{"android":"levelo://app?vid=9d2c2513-0c89-4f02-98b9-a9b8e8f9ff12","ios":"levelo://app?vid=9d2c2513-0c89-4f02-98b9-a9b8e8f9ff12"},"vehicle_type_id":"4","last_reported":1731953613,"current_range_meters":8800,"station_id":"ce4bhnp2rcd13ifvqh0g","pricing_plan_id":"cebpf4jnsgd1na2vs0mg"},{"bike_id":"56edd46b-d236-45f1-ba2f-1f7d8acc3af2","system_id":"levelo_inurba_marseille","lat":43.337444,"lon":5.374475,"is_reserved":false,"is_disabled":false,"rental_uris":{"android":"levelo://app?vid=56edd46b-d236-45f1-ba2f-1f7d8acc3af2","ios":"levelo://app?vid=56edd46b-d236-45f1-ba2f-1f7d8acc3af2"},"vehicle_type_id":"4","last_reported":1731953613,"current_range_meters":38000,"station_id":"","pricing_plan_id":"cebpf4jnsgd1na2vs0mg"},{"bike_id":"b08c4a31-6839-47ab-b94c-4c97e69f9ac4","system_id":"levelo_inurba_marseille","lat":43.29529,"lon":5.38545,"is_reserved":false,"is_disabled":false,"rental_uris":{"android":"levelo://app?vid=b08c4a31-6839-47ab-b94c-4c97e69f9ac4","ios":"levelo://app?vid=b08c4a31-6839-47ab-b94c-4c97e69f9ac4"},"vehicle_type_id":"4","last_reported":1731953613,"current_range_meters":24800,"station_id":"ce4bgih2rcd13ifvqba0","pricing_plan_id":"cebpf4jnsgd1na2vs0mg"},{"bike_id":"e50796fb-dacb-48fc-9bce-fef14a9f4c74","system_id":"levelo_inurba_marseille","lat":43.2926,"lon":5.40915,"is_reserved":false,"is_disabled":false,"rental_uris":{"android":"levelo://app?vid=e50796fb-dacb-48fc-9bce-fef14a9f4c74","ios":"levelo://app?vid=e50796fb-dacb-48fc-9bce-fef14a9f4c74"},"vehicle_type_id":"4","last_reported":1731953613,"current_range_meters":30000,"station_id":"ce4bh192rcd13ifvqdc0","pricing_plan_id":"cebpf4jnsgd1na2vs0mg"},{"bike_id":"a040ebb8-c777-4a6f-8829-82256764da29","system_id":"levelo_inurba_marseille","lat":43.28078,"lon":5.3966,"is_reserved":false,"is_disabled":false,"rental_uris":{"android":"levelo://app?vid=a040ebb8-c777-4a6f-8829-82256764da29","ios":"levelo://app?vid=a040ebb8-c777-4a6f-8829-82256764da29"},"vehicle_type_id":"4","last_reported":1731953613,"current_range_meters":37600,"station_id":"ce4bho12rcd13ifvqh2g","pricing_plan_id":"cebpf4jnsgd1na2vs0mg"},{"bike_id":"c8b4e4f4-188f-4ddb-9934-f4c256f8e1ab","system_id":"levelo_inurba_marseille","lat":43.29438,"lon":5.39743,"is_reserved":false,"is_disabled":false,"rental_uris":{"android":"levelo://app?vid=c8b4e4f4-188f-4ddb-9934-f4c256f8e1ab","ios":"levelo://app?vid=c8b4e4f4-188f-4ddb-9934-f4c256f8e1ab"},"vehicle_type_id":"4","last_reported":1731953613,"current_range_meters":2000,"station_id":"ce4bh3h2rcd13ifvqdo0","pricing_plan_id":"cebpf4jnsgd1na2vs0mg"},{"bike_id":"cd3ead8f-e453-49dc-8a7f-902dde01b246","system_id":"levelo_inurba_marseille","lat":43.28866,"lon":5.35843,"is_reserved":false,"is_disabled":false,"rental_uris":{"android":"levelo://app?vid=cd3ead8f-e453-49dc-8a7f-902dde01b246","ios":"levelo://app?vid=cd3ead8f-e453-49dc-8a7f-902dde01b246"},"vehicle_type_id":"4","last_reported":1731953613,"current_range_meters":27200,"station_id":"ce4bhb12rcd13ifvqem0","pricing_plan_id":"cebpf4jnsgd1na2vs0mg"},{"bike_id":"4d79c65f-bb86-4ff1-a04b-b886cdbf652c","system_id":"levelo_inurba_marseille","lat":43.29843,"lon":5.36281,"is_reserved":false,"is_disabled":false,"rental_uris":{"android":"levelo://app?vid=4d79c65f-bb86-4ff1-a04b-b886cdbf652c","ios":"levelo://app?vid=4d79c65f-bb86-4ff1-a04b-b886cdbf652c"},"vehicle_type_id":"4","last_reported":1731953613,"current_range_meters":38800,"station_id":"ce4bgpp2rcd13ifvqc3g","pricing_plan_id":"cebpf4jnsgd1na2vs0mg"},{"bike_id":"00529f43-43e7-4e19-a8cd-d03bb48e3fe1","system_id":"levelo_inurba_marseille","lat":43.26933,"lon":5.38921,"is_reserved":false,"is_disabled":false,"rental_uris":{"android":"levelo://app?vid=00529f43-43e7-4e19-a8cd-d03bb48e3fe1","ios":"levelo://app?vid=00529f43-43e7-4e19-a8cd-d03bb48e3fe1"},"vehicle_type_id":"4","last_reported":1731953613,"current_range_meters":25200,"station_id":"ce4bhhh2rcd13ifvqfl0","pricing_plan_id":"cebpf4jnsgd1na2vs0mg"},{"bike_id":"466cc262-7358-4083-9e23-47328789012d","system_id":"levelo_inurba_marseille","lat":43.25087,"lon":5.39523,"is_reserved":false,"is_disabled":false,"rental_uris":{"android":"levelo://app?vid=466cc262-7358-4083-9e23-47328789012d","ios":"levelo://app?vid=466cc262-7358-4083-9e23-47328789012d"},"vehicle_type_id":"4","last_reported":1731953613,"current_range_meters":27600,"station_id":"ce4bhm12rcd13ifvqgkg","pricing_plan_id":"cebpf4jnsgd1na2vs0mg"},{"bike_id":"6164adfd-0ad7-4ad1-8156-19ffd0b1b72d","system_id":"levelo_inurba_marseille","lat":43.29369,"lon":5.37857,"is_reserved":false,"is_disabled":false,"rental_uris":{"android":"levelo://app?vid=6164adfd-0ad7-4ad1-8156-19ffd0b1b72d","ios":"levelo://app?vid=6164adfd-0ad7-4ad1-8156-19ffd0b1b72d"},"vehicle_type_id":"4","last_reported":1731953613,"current_range_meters":6000,"station_id":"ce4bgjh2rcd13ifvqbf0","pricing_plan_id":"cebpf4jnsgd1na2vs0mg"},{"bike_id":"0d7af902-24c3-4243-9364-c86169df6372","system_id":"levelo_inurba_marseille","lat":43.30545,"lon":5.36525,"is_reserved":false,"is_disabled":true,"rental_uris":{"android":"levelo://app?vid=0d7af902-24c3-4243-9364-c86169df6372","ios":"levelo://app?vid=0d7af902-24c3-4243-9364-c86169df6372"},"vehicle_type_id":"4","last_reported":1731953613,"current_range_meters":1600,"station_id":"ce4bgs12rcd13ifvqcag","pricing_plan_id":"cebpf4jnsgd1na2vs0mg"},{"bike_id":"082e9fcf-e027-46cb-9584-d83a0d34771a","system_id":"levelo_inurba_marseille","lat":43.29513,"lon":5.3905,"is_reserved":false,"is_disabled":false,"rental_uris":{"android":"levelo://app?vid=082e9fcf-e027-46cb-9584-d83a0d34771a","ios":"levelo://app?vid=082e9fcf-e027-46cb-9584-d83a0d34771a"},"vehicle_type_id":"4","last_reported":1731953613,"current_range_meters":26000,"station_id":"ce4bh3p2rcd13ifvqdp0","pricing_plan_id":"cebpf4jnsgd1na2vs0mg"},{"bike_id":"fe5617eb-8518-43d2-ac90-070659930eec","system_id":"levelo_inurba_marseille","lat":43.29959,"lon":5.41317,"is_reserved":false,"is_disabled":false,"rental_uris":{"android":"levelo://app?vid=fe5617eb-8518-43d2-ac90-070659930eec","ios":"levelo://app?vid=fe5617eb-8518-43d2-ac90-070659930eec"},"vehicle_type_id":"4","last_reported":1731953613,"current_range_meters":32400,"station_id":"ce4bhp12rcd13ifvqh9g","pricing_plan_id":"cebpf4jnsgd1na2vs0mg"},{"bike_id":"6324dd74-7fcd-4a24-a3aa-abf0dd520ecf","system_id":"levelo_inurba_marseille","lat":43.30425,"lon":5.38879,"is_reserved":false,"is_disabled":false,"rental_uris":{"android":"levelo://app?vid=6324dd74-7fcd-4a24-a3aa-abf0dd520ecf","ios":"levelo://app?vid=6324dd74-7fcd-4a24-a3aa-abf0dd520ecf"},"vehicle_type_id":"4","last_reported":1731953613,"current_range_meters":24000,"station_id":"ce4bgk12rcd13ifvqbi0","pricing_plan_id":"cebpf4jnsgd1na2vs0mg"},{"bike_id":"dff9c07f-352a-4989-b94c-5b504a6c2256","system_id":"levelo_inurba_marseille","lat":43.29531,"lon":5.38538,"is_reserved":false,"is_disabled":false,"rental_uris":{"android":"levelo://app?vid=dff9c07f-352a-4989-b94c-5b504a6c2256","ios":"levelo://app?vid=dff9c07f-352a-4989-b94c-5b504a6c2256"},"vehicle_type_id":"4","last_reported":1731953613,"current_range_meters":20800,"station_id":"ce4bgih2rcd13ifvqba0","pricing_plan_id":"cebpf4jnsgd1na2vs0mg"},{"bike_id":"6926ec5b-1b68-4cbc-bdf4-743c4d1528c6","system_id":"levelo_inurba_marseille","lat":43.24392,"lon":5.37069,"is_reserved":false,"is_disabled":true,"rental_uris":{"android":"levelo://app?vid=6926ec5b-1b68-4cbc-bdf4-743c4d1528c6","ios":"levelo://app?vid=6926ec5b-1b68-4cbc-bdf4-743c4d1528c6"},"vehicle_type_id":"4","last_reported":1731953613,"current_range_meters":0,"station_id":"ce4bhhh2rcd13ifvqfk0","pricing_plan_id":"cebpf4jnsgd1na2vs0mg"},{"bike_id":"647e671d-7a38-4f90-9942-2979b6599a3f","system_id":"levelo_inurba_marseille","lat":43.29623,"lon":5.37151,"is_reserved":false,"is_disabled":false,"rental_uris":{"android":"levelo://app?vid=647e671d-7a38-4f90-9942-2979b6599a3f","ios":"levelo://app?vid=647e671d-7a38-4f90-9942-2979b6599a3f"},"vehicle_type_id":"4","last_reported":1731953613,"current_range_meters":36400,"station_id":"ce4bgnh2rcd13ifvqc0g","pricing_plan_id":"cebpf4jnsgd1na2vs0mg"},{"bike_id":"1f8e31eb-4609-4ceb-8188-fd61d64a2da3","system_id":"levelo_inurba_marseille","lat":43.284504,"lon":5.358856,"is_reserved":false,"is_disabled":false,"rental_uris":{"android":"levelo://app?vid=1f8e31eb-4609-4ceb-8188-fd61d64a2da3","ios":"levelo://app?vid=1f8e31eb-4609-4ceb-8188-fd61d64a2da3"},"vehicle_type_id":"4","last_reported":1731953613,"current_range_meters":37600,"station_id":"ce4bhah2rcd13ifvqei0","pricing_plan_id":"cebpf4jnsgd1na2vs0mg"},{"bike_id":"d6e54eb8-b569-4670-b12b-fc7e345ccec9","system_id":"levelo_inurba_marseille","lat":43.29721,"lon":5.37687,"is_reserved":false,"is_disabled":true,"rental_uris":{"android":"levelo://app?vid=d6e54eb8-b569-4670-b12b-fc7e345ccec9","ios":"levelo://app?vid=d6e54eb8-b569-4670-b12b-fc7e345ccec9"},"vehicle_type_id":"4","last_reported":1731953613,"current_range_meters":38800,"station_id":"ce4bgkh2rcd13ifvqbl0","pricing_plan_id":"cebpf4jnsgd1na2vs0mg"},{"bike_id":"ed49d297-52c1-438f-8530-c430fabd0d5c","system_id":"levelo_inurba_marseille","lat":43.25497,"lon":5.37655,"is_reserved":false,"is_disabled":true,"rental_uris":{"android":"levelo://app?vid=ed49d297-52c1-438f-8530-c430fabd0d5c","ios":"levelo://app?vid=ed49d297-52c1-438f-8530-c430fabd0d5c"},"vehicle_type_id":"4","last_reported":1731953613,"current_range_meters":0,"station_id":"ce4bhh12rcd13ifvqff0","pricing_plan_id":"cebpf4jnsgd1na2vs0mg"},{"bike_id":"ecc7bf03-e1fe-42e8-aeba-a91048f856b4","system_id":"levelo_inurba_marseille","lat":43.31256,"lon":5.40159,"is_reserved":false,"is_disabled":false,"rental_uris":{"android":"levelo://app?vid=ecc7bf03-e1fe-42e8-aeba-a91048f856b4","ios":"levelo://app?vid=ecc7bf03-e1fe-42e8-aeba-a91048f856b4"},"vehicle_type_id":"4","last_reported":1731953613,"current_range_meters":28400,"station_id":"ce4bh092rcd13ifvqd30","pricing_plan_id":"cebpf4jnsgd1na2vs0mg"},{"bike_id":"259149ad-c421-466a-ad0c-fd16e04ce6fa","system_id":"levelo_inurba_marseille","lat":43.28452,"lon":5.3588,"is_reserved":false,"is_disabled":false,"rental_uris":{"android":"levelo://app?vid=259149ad-c421-466a-ad0c-fd16e04ce6fa","ios":"levelo://app?vid=259149ad-c421-466a-ad0c-fd16e04ce6fa"},"vehicle_type_id":"4","last_reported":1731953613,"current_range_meters":28400,"station_id":"ce4bhah2rcd13ifvqei0","pricing_plan_id":"cebpf4jnsgd1na2vs0mg"},{"bike_id":"d9a233cc-3acd-4580-9bff-c0faf2ddcaf0","system_id":"levelo_inurba_marseille","lat":43.26999,"lon":5.39955,"is_reserved":false,"is_disabled":false,"rental_uris":{"android":"levelo://app?vid=d9a233cc-3acd-4580-9bff-c0faf2ddcaf0","ios":"levelo://app?vid=d9a233cc-3acd-4580-9bff-c0faf2ddcaf0"},"vehicle_type_id":"4","last_reported":1731953613,"current_range_meters":25200,"station_id":"","pricing_plan_id":"cebpf4jnsgd1na2vs0mg"},{"bike_id":"cc94800f-8f00-4fa2-8321-7ffb60c60a1c","system_id":"levelo_inurba_marseille","lat":43.2846,"lon":5.35884,"is_reserved":false,"is_disabled":false,"rental_uris":{"android":"levelo://app?vid=cc94800f-8f00-4fa2-8321-7ffb60c60a1c","ios":"levelo://app?vid=cc94800f-8f00-4fa2-8321-7ffb60c60a1c"},"vehicle_type_id":"4","last_reported":1731953613,"current_range_meters":27200,"station_id":"ce4bhah2rcd13ifvqei0","pricing_plan_id":"cebpf4jnsgd1na2vs0mg"},{"bike_id":"801dea25-03bf-4f11-a8a7-9c85139f31aa","system_id":"levelo_inurba_marseille","lat":43.25086,"lon":5.39526,"is_reserved":false,"is_disabled":false,"rental_uris":{"android":"levelo://app?vid=801dea25-03bf-4f11-a8a7-9c85139f31aa","ios":"levelo://app?vid=801dea25-03bf-4f11-a8a7-9c85139f31aa"},"vehicle_type_id":"4","last_reported":1731953613,"current_range_meters":31200,"station_id":"ce4bhm12rcd13ifvqgkg","pricing_plan_id":"cebpf4jnsgd1na2vs0mg"},{"bike_id":"97176ff4-ec8f-438c-9d14-82a540ad63a3","system_id":"levelo_inurba_marseille","lat":43.29877,"lon":5.38922,"is_reserved":false,"is_disabled":false,"rental_uris":{"android":"levelo://app?vid=97176ff4-ec8f-438c-9d14-82a540ad63a3","ios":"levelo://app?vid=97176ff4-ec8f-438c-9d14-82a540ad63a3"},"vehicle_type_id":"4","last_reported":1731953613,"current_range_meters":2800,"station_id":"ce4bh392rcd13ifvqdl0","pricing_plan_id":"cebpf4jnsgd1na2vs0mg"},{"bike_id":"0b733133-03c9-4766-961e-92b775b50bbc","system_id":"levelo_inurba_marseille","lat":43.28191,"lon":5.44261,"is_reserved":false,"is_disabled":true,"rental_uris":{"android":"levelo://app?vid=0b733133-03c9-4766-961e-92b775b50bbc","ios":"levelo://app?vid=0b733133-03c9-4766-961e-92b775b50bbc"},"vehicle_type_id":"4","last_reported":1731953613,"current_range_meters":1200,"station_id":"","pricing_plan_id":"cebpf4jnsgd1na2vs0mg"},{"bike_id":"74eb70e9-b94e-49a5-9a48-368b4be133db","system_id":"levelo_inurba_marseille","lat":43.30799,"lon":5.43516,"is_reserved":false,"is_disabled":false,"rental_uris":{"android":"levelo://app?vid=74eb70e9-b94e-49a5-9a48-368b4be133db","ios":"levelo://app?vid=74eb70e9-b94e-49a5-9a48-368b4be133db"},"vehicle_type_id":"4","last_reported":1731953613,"current_range_meters":33200,"station_id":"ce4bhph2rcd13ifvqheg","pricing_plan_id":"cebpf4jnsgd1na2vs0mg"},{"bike_id":"4cba050b-d851-4ee5-8ce0-ea7f25d9c27b","system_id":"levelo_inurba_marseille","lat":43.27492,"lon":5.42451,"is_reserved":false,"is_disabled":true,"rental_uris":{"android":"levelo://app?vid=4cba050b-d851-4ee5-8ce0-ea7f25d9c27b","ios":"levelo://app?vid=4cba050b-d851-4ee5-8ce0-ea7f25d9c27b"},"vehicle_type_id":"4","last_reported":1731953613,"current_range_meters":30000,"station_id":"ce4bhn92rcd13ifvqgrg","pricing_plan_id":"cebpf4jnsgd1na2vs0mg"},{"bike_id":"9db7024c-b22d-4087-a30c-ba8f27a72aca","system_id":"levelo_inurba_marseille","lat":43.28102,"lon":5.37842,"is_reserved":false,"is_disabled":false,"rental_uris":{"android":"levelo://app?vid=9db7024c-b22d-4087-a30c-ba8f27a72aca","ios":"levelo://app?vid=9db7024c-b22d-4087-a30c-ba8f27a72aca"},"vehicle_type_id":"4","last_reported":1731953613,"current_range_meters":27600,"station_id":"ce4bha12rcd13ifvqee0","pricing_plan_id":"cebpf4jnsgd1na2vs0mg"},{"bike_id":"f2a10bb1-e606-4afa-9869-4389d536ff2d","system_id":"levelo_inurba_marseille","lat":43.28467,"lon":5.38416,"is_reserved":false,"is_disabled":false,"rental_uris":{"android":"levelo://app?vid=f2a10bb1-e606-4afa-9869-4389d536ff2d","ios":"levelo://app?vid=f2a10bb1-e606-4afa-9869-4389d536ff2d"},"vehicle_type_id":"4","last_reported":1731953613,"current_range_meters":4800,"station_id":"ce4bh512rcd13ifvqe3g","pricing_plan_id":"cebpf4jnsgd1na2vs0mg"},{"bike_id":"7fdb167d-6137-4050-9ec1-b84fe9675b11","system_id":"levelo_inurba_marseille","lat":43.27364,"lon":5.36251,"is_reserved":false,"is_disabled":false,"rental_uris":{"android":"levelo://app?vid=7fdb167d-6137-4050-9ec1-b84fe9675b11","ios":"levelo://app?vid=7fdb167d-6137-4050-9ec1-b84fe9675b11"},"vehicle_type_id":"4","last_reported":1731953613,"current_range_meters":36000,"station_id":"ce4bhbh2rcd13ifvqeo0","pricing_plan_id":"cebpf4jnsgd1na2vs0mg"},{"bike_id":"50ed3c89-163b-4d14-b771-3626666eac0c","system_id":"levelo_inurba_marseille","lat":43.29041,"lon":5.39948,"is_reserved":false,"is_disabled":false,"rental_uris":{"android":"levelo://app?vid=50ed3c89-163b-4d14-b771-3626666eac0c","ios":"levelo://app?vid=50ed3c89-163b-4d14-b771-3626666eac0c"},"vehicle_type_id":"4","last_reported":1731953613,"current_range_meters":27200,"station_id":"ce4bh392rcd13ifvqdm0","pricing_plan_id":"cebpf4jnsgd1na2vs0mg"},{"bike_id":"6284b971-9da4-4527-a535-5652c4d41383","system_id":"levelo_inurba_marseille","lat":43.31083,"lon":5.42429,"is_reserved":false,"is_disabled":false,"rental_uris":{"android":"levelo://app?vid=6284b971-9da4-4527-a535-5652c4d41383","ios":"levelo://app?vid=6284b971-9da4-4527-a535-5652c4d41383"},"vehicle_type_id":"4","last_reported":1731953613,"current_range_meters":16800,"station_id":"ce4bhp92rcd13ifvqhag","pricing_plan_id":"cebpf4jnsgd1na2vs0mg"},{"bike_id":"5f00c621-a72b-4c24-8a74-35075ad82af0","system_id":"levelo_inurba_marseille","lat":43.28001,"lon":5.4001,"is_reserved":false,"is_disabled":true,"rental_uris":{"android":"levelo://app?vid=5f00c621-a72b-4c24-8a74-35075ad82af0","ios":"levelo://app?vid=5f00c621-a72b-4c24-8a74-35075ad82af0"},"vehicle_type_id":"4","last_reported":1731953613,"current_range_meters":400,"station_id":"ce4bho92rcd13ifvqh4g","pricing_plan_id":"cebpf4jnsgd1na2vs0mg"},{"bike_id":"dbf35d58-fb2d-41ca-95db-7015a78e42f3","system_id":"levelo_inurba_marseille","lat":43.29848,"lon":5.36277,"is_reserved":false,"is_disabled":false,"rental_uris":{"android":"levelo://app?vid=dbf35d58-fb2d-41ca-95db-7015a78e42f3","ios":"levelo://app?vid=dbf35d58-fb2d-41ca-95db-7015a78e42f3"},"vehicle_type_id":"4","last_reported":1731953613,"current_range_meters":38800,"station_id":"ce4bgpp2rcd13ifvqc3g","pricing_plan_id":"cebpf4jnsgd1na2vs0mg"},{"bike_id":"6799c54c-4cd6-4d25-a1cb-a4067a584a72","system_id":"levelo_inurba_marseille","lat":43.33728,"lon":5.39192,"is_reserved":false,"is_disabled":false,"rental_uris":{"android":"levelo://app?vid=6799c54c-4cd6-4d25-a1cb-a4067a584a72","ios":"levelo://app?vid=6799c54c-4cd6-4d25-a1cb-a4067a584a72"},"vehicle_type_id":"4","last_reported":1731953613,"current_range_meters":18000,"station_id":"ce4bhr92rcd13ifvqhsg","pricing_plan_id":"cebpf4jnsgd1na2vs0mg"},{"bike_id":"9fb0acf0-02ee-43e1-8a36-3f564bbba08b","system_id":"levelo_inurba_marseille","lat":43.32368,"lon":5.38884,"is_reserved":false,"is_disabled":false,"rental_uris":{"android":"levelo://app?vid=9fb0acf0-02ee-43e1-8a36-3f564bbba08b","ios":"levelo://app?vid=9fb0acf0-02ee-43e1-8a36-3f564bbba08b"},"vehicle_type_id":"4","last_reported":1731953613,"current_range_meters":20800,"station_id":"ce4bhqp2rcd13ifvqhog","pricing_plan_id":"cebpf4jnsgd1na2vs0mg"},{"bike_id":"f2417f2a-1275-46c4-ae56-4401475e5960","system_id":"levelo_inurba_marseille","lat":43.30269,"lon":5.40092,"is_reserved":false,"is_disabled":false,"rental_uris":{"android":"levelo://app?vid=f2417f2a-1275-46c4-ae56-4401475e5960","ios":"levelo://app?vid=f2417f2a-1275-46c4-ae56-4401475e5960"},"vehicle_type_id":"4","last_reported":1731953613,"current_range_meters":16800,"station_id":"ce4bgvh2rcd13ifvqcs0","pricing_plan_id":"cebpf4jnsgd1na2vs0mg"},{"bike_id":"4192f9c4-782e-4076-b7ac-46485c56bee4","system_id":"levelo_inurba_marseille","lat":43.30435,"lon":5.41271,"is_reserved":false,"is_disabled":false,"rental_uris":{"android":"levelo://app?vid=4192f9c4-782e-4076-b7ac-46485c56bee4","ios":"levelo://app?vid=4192f9c4-782e-4076-b7ac-46485c56bee4"},"vehicle_type_id":"4","last_reported":1731953613,"current_range_meters":24800,"station_id":"ce4bhop2rcd13ifvqh8g","pricing_plan_id":"cebpf4jnsgd1na2vs0mg"},{"bike_id":"9f1dfffb-1213-4f6e-84d3-a2f0789a9ef3","system_id":"levelo_inurba_marseille","lat":43.27622,"lon":5.35874,"is_reserved":false,"is_disabled":true,"rental_uris":{"android":"levelo://app?vid=9f1dfffb-1213-4f6e-84d3-a2f0789a9ef3","ios":"levelo://app?vid=9f1dfffb-1213-4f6e-84d3-a2f0789a9ef3"},"vehicle_type_id":"4","last_reported":1731953613,"current_range_meters":0,"station_id":"","pricing_plan_id":"cebpf4jnsgd1na2vs0mg"},{"bike_id":"66d5d423-f09c-4bbe-9ba3-6f8990757364","system_id":"levelo_inurba_marseille","lat":43.29308,"lon":5.37175,"is_reserved":false,"is_disabled":false,"rental_uris":{"android":"levelo://app?vid=66d5d423-f09c-4bbe-9ba3-6f8990757364","ios":"levelo://app?vid=66d5d423-f09c-4bbe-9ba3-6f8990757364"},"vehicle_type_id":"4","last_reported":1731953613,"current_range_meters":11600,"station_id":"ce4bgh92rcd13ifvqb40","pricing_plan_id":"cebpf4jnsgd1na2vs0mg"},{"bike_id":"954054ad-77ac-46c3-a1b5-c8fc266a522b","system_id":"levelo_inurba_marseille","lat":43.31725,"lon":5.42403,"is_reserved":false,"is_disabled":false,"rental_uris":{"android":"levelo://app?vid=954054ad-77ac-46c3-a1b5-c8fc266a522b","ios":"levelo://app?vid=954054ad-77ac-46c3-a1b5-c8fc266a522b"},"vehicle_type_id":"4","last_reported":1731953613,"current_range_meters":18800,"station_id":"ce4bhp92rcd13ifvqhbg","pricing_plan_id":"cebpf4jnsgd1na2vs0mg"},{"bike_id":"f13e0168-a456-4aef-a828-a63e7cfccfa9","system_id":"levelo_inurba_marseille","lat":43.29533,"lon":5.38552,"is_reserved":false,"is_disabled":false,"rental_uris":{"android":"levelo://app?vid=f13e0168-a456-4aef-a828-a63e7cfccfa9","ios":"levelo://app?vid=f13e0168-a456-4aef-a828-a63e7cfccfa9"},"vehicle_type_id":"4","last_reported":1731953613,"current_range_meters":33600,"station_id":"ce4bgih2rcd13ifvqba0","pricing_plan_id":"cebpf4jnsgd1na2vs0mg"},{"bike_id":"96a7c93d-f36a-4997-80fb-df7d91730b79","system_id":"levelo_inurba_marseille","lat":43.26567,"lon":5.39005,"is_reserved":false,"is_disabled":false,"rental_uris":{"android":"levelo://app?vid=96a7c93d-f36a-4997-80fb-df7d91730b79","ios":"levelo://app?vid=96a7c93d-f36a-4997-80fb-df7d91730b79"},"vehicle_type_id":"4","last_reported":1731953613,"current_range_meters":3600,"station_id":"ce4bhe12rcd13ifvqf30","pricing_plan_id":"cebpf4jnsgd1na2vs0mg"},{"bike_id":"56f1155b-ab82-45d0-99e2-e4dd099a7e5f","system_id":"levelo_inurba_marseille","lat":43.29849,"lon":5.36287,"is_reserved":false,"is_disabled":false,"rental_uris":{"android":"levelo://app?vid=56f1155b-ab82-45d0-99e2-e4dd099a7e5f","ios":"levelo://app?vid=56f1155b-ab82-45d0-99e2-e4dd099a7e5f"},"vehicle_type_id":"4","last_reported":1731953613,"current_range_meters":25600,"station_id":"ce4bgpp2rcd13ifvqc3g","pricing_plan_id":"cebpf4jnsgd1na2vs0mg"},{"bike_id":"2d983866-913c-4390-ae48-1873d10c9730","system_id":"levelo_inurba_marseille","lat":43.24808,"lon":5.37461,"is_reserved":false,"is_disabled":true,"rental_uris":{"android":"levelo://app?vid=2d983866-913c-4390-ae48-1873d10c9730","ios":"levelo://app?vid=2d983866-913c-4390-ae48-1873d10c9730"},"vehicle_type_id":"4","last_reported":1731953613,"current_range_meters":22800,"station_id":"ce4bhgh2rcd13ifvqfb0","pricing_plan_id":"cebpf4jnsgd1na2vs0mg"},{"bike_id":"74c3b1bb-86ea-43b3-8930-0fcd58d1e7e0","system_id":"levelo_inurba_marseille","lat":43.29786,"lon":5.38103,"is_reserved":false,"is_disabled":false,"rental_uris":{"android":"levelo://app?vid=74c3b1bb-86ea-43b3-8930-0fcd58d1e7e0","ios":"levelo://app?vid=74c3b1bb-86ea-43b3-8930-0fcd58d1e7e0"},"vehicle_type_id":"4","last_reported":1731953613,"current_range_meters":37600,"station_id":"ce4bgip2rcd13ifvqbb0","pricing_plan_id":"cebpf4jnsgd1na2vs0mg"},{"bike_id":"36265474-5c6b-4353-8512-aedca82811a2","system_id":"levelo_inurba_marseille","lat":43.29585,"lon":5.37581,"is_reserved":false,"is_disabled":true,"rental_uris":{"android":"levelo://app?vid=36265474-5c6b-4353-8512-aedca82811a2","ios":"levelo://app?vid=36265474-5c6b-4353-8512-aedca82811a2"},"vehicle_type_id":"4","last_reported":1731953613,"current_range_meters":800,"station_id":"ce4bgh92rcd13ifvqb50","pricing_plan_id":"cebpf4jnsgd1na2vs0mg"},{"bike_id":"37d60d93-8316-4ddc-b2ac-057e596bc0b2","system_id":"levelo_inurba_marseille","lat":43.27998,"lon":5.40007,"is_reserved":false,"is_disabled":false,"rental_uris":{"android":"levelo://app?vid=37d60d93-8316-4ddc-b2ac-057e596bc0b2","ios":"levelo://app?vid=37d60d93-8316-4ddc-b2ac-057e596bc0b2"},"vehicle_type_id":"4","last_reported":1731953613,"current_range_meters":30000,"station_id":"ce4bho92rcd13ifvqh4g","pricing_plan_id":"cebpf4jnsgd1na2vs0mg"},{"bike_id":"3cc7321c-251d-4887-a30f-a1cda85a8c9f","system_id":"levelo_inurba_marseille","lat":43.28455,"lon":5.35889,"is_reserved":false,"is_disabled":false,"rental_uris":{"android":"levelo://app?vid=3cc7321c-251d-4887-a30f-a1cda85a8c9f","ios":"levelo://app?vid=3cc7321c-251d-4887-a30f-a1cda85a8c9f"},"vehicle_type_id":"4","last_reported":1731953613,"current_range_meters":20000,"station_id":"ce4bhah2rcd13ifvqei0","pricing_plan_id":"cebpf4jnsgd1na2vs0mg"},{"bike_id":"a9853979-8e8b-4ac5-bfea-e7c77f46338b","system_id":"levelo_inurba_marseille","lat":43.30893,"lon":5.37182,"is_reserved":false,"is_disabled":false,"rental_uris":{"android":"levelo://app?vid=a9853979-8e8b-4ac5-bfea-e7c77f46338b","ios":"levelo://app?vid=a9853979-8e8b-4ac5-bfea-e7c77f46338b"},"vehicle_type_id":"4","last_reported":1731953613,"current_range_meters":39200,"station_id":"ce4bguh2rcd13ifvqckg","pricing_plan_id":"cebpf4jnsgd1na2vs0mg"},{"bike_id":"e264033a-f915-4b27-a08a-2f42cfcf052a","system_id":"levelo_inurba_marseille","lat":43.337444,"lon":5.374475,"is_reserved":false,"is_disabled":false,"rental_uris":{"android":"levelo://app?vid=e264033a-f915-4b27-a08a-2f42cfcf052a","ios":"levelo://app?vid=e264033a-f915-4b27-a08a-2f42cfcf052a"},"vehicle_type_id":"4","last_reported":1731953613,"current_range_meters":36400,"station_id":"","pricing_plan_id":"cebpf4jnsgd1na2vs0mg"},{"bike_id":"affc6a42-c87f-4640-9297-4a4ea6bc3ad3","system_id":"levelo_inurba_marseille","lat":43.29561,"lon":5.42277,"is_reserved":false,"is_disabled":false,"rental_uris":{"android":"levelo://app?vid=affc6a42-c87f-4640-9297-4a4ea6bc3ad3","ios":"levelo://app?vid=affc6a42-c87f-4640-9297-4a4ea6bc3ad3"},"vehicle_type_id":"4","last_reported":1731953613,"current_range_meters":6800,"station_id":"ce4bhph2rcd13ifvqhdg","pricing_plan_id":"cebpf4jnsgd1na2vs0mg"},{"bike_id":"167bfcb2-34bc-4fde-9708-323115ef71c3","system_id":"levelo_inurba_marseille","lat":43.28023,"lon":5.38682,"is_reserved":false,"is_disabled":false,"rental_uris":{"android":"levelo://app?vid=167bfcb2-34bc-4fde-9708-323115ef71c3","ios":"levelo://app?vid=167bfcb2-34bc-4fde-9708-323115ef71c3"},"vehicle_type_id":"4","last_reported":1731953613,"current_range_meters":28000,"station_id":"ce4bhq92rcd13ifvqhjg","pricing_plan_id":"cebpf4jnsgd1na2vs0mg"},{"bike_id":"df900be8-2c12-453f-bc2b-7090adc12272","system_id":"levelo_inurba_marseille","lat":43.301333,"lon":5.387767,"is_reserved":false,"is_disabled":true,"rental_uris":{"android":"levelo://app?vid=df900be8-2c12-453f-bc2b-7090adc12272","ios":"levelo://app?vid=df900be8-2c12-453f-bc2b-7090adc12272"},"vehicle_type_id":"4","last_reported":1731953613,"current_range_meters":25200,"station_id":"ce4bghh2rcd13ifvqb60","pricing_plan_id":"cebpf4jnsgd1na2vs0mg"},{"bike_id":"123862ba-68e2-48f6-a477-31ab9dae8bd5","system_id":"levelo_inurba_marseille","lat":43.337444,"lon":5.374475,"is_reserved":false,"is_disabled":true,"rental_uris":{"android":"levelo://app?vid=123862ba-68e2-48f6-a477-31ab9dae8bd5","ios":"levelo://app?vid=123862ba-68e2-48f6-a477-31ab9dae8bd5"},"vehicle_type_id":"4","last_reported":1731953613,"current_range_meters":19600,"station_id":"","pricing_plan_id":"cebpf4jnsgd1na2vs0mg"},{"bike_id":"25ddf417-8230-4dbc-b38a-2b2cb1ba9d73","system_id":"levelo_inurba_marseille","lat":43.30291,"lon":5.377,"is_reserved":false,"is_disabled":true,"rental_uris":{"android":"levelo://app?vid=25ddf417-8230-4dbc-b38a-2b2cb1ba9d73","ios":"levelo://app?vid=25ddf417-8230-4dbc-b38a-2b2cb1ba9d73"},"vehicle_type_id":"4","last_reported":1731953613,"current_range_meters":16400,"station_id":"ce4bguh2rcd13ifvqcj0","pricing_plan_id":"cebpf4jnsgd1na2vs0mg"},{"bike_id":"203aeef1-141c-4fdd-8aad-facad2087071","system_id":"levelo_inurba_marseille","lat":43.33792,"lon":5.37427,"is_reserved":false,"is_disabled":false,"rental_uris":{"android":"levelo://app?vid=203aeef1-141c-4fdd-8aad-facad2087071","ios":"levelo://app?vid=203aeef1-141c-4fdd-8aad-facad2087071"},"vehicle_type_id":"4","last_reported":1731953613,"current_range_meters":25200,"station_id":"","pricing_plan_id":"cebpf4jnsgd1na2vs0mg"},{"bike_id":"a18e743f-f904-45c8-9217-5413d7928a28","system_id":"levelo_inurba_marseille","lat":43.30426,"lon":5.38884,"is_reserved":false,"is_disabled":false,"rental_uris":{"android":"levelo://app?vid=a18e743f-f904-45c8-9217-5413d7928a28","ios":"levelo://app?vid=a18e743f-f904-45c8-9217-5413d7928a28"},"vehicle_type_id":"4","last_reported":1731953613,"current_range_meters":29600,"station_id":"ce4bgk12rcd13ifvqbi0","pricing_plan_id":"cebpf4jnsgd1na2vs0mg"},{"bike_id":"015475d9-9369-4060-8bef-8b2a0db4bfee","system_id":"levelo_inurba_marseille","lat":43.29795,"lon":5.39354,"is_reserved":false,"is_disabled":false,"rental_uris":{"android":"levelo://app?vid=015475d9-9369-4060-8bef-8b2a0db4bfee","ios":"levelo://app?vid=015475d9-9369-4060-8bef-8b2a0db4bfee"},"vehicle_type_id":"4","last_reported":1731953613,"current_range_meters":37600,"station_id":"chh1huq6cuj3fo74tm60","pricing_plan_id":"cebpf4jnsgd1na2vs0mg"},{"bike_id":"3acd0d3d-b34a-4b41-9927-c78d9d75cd07","system_id":"levelo_inurba_marseille","lat":43.28698,"lon":5.37371,"is_reserved":false,"is_disabled":true,"rental_uris":{"android":"levelo://app?vid=3acd0d3d-b34a-4b41-9927-c78d9d75cd07","ios":"levelo://app?vid=3acd0d3d-b34a-4b41-9927-c78d9d75cd07"},"vehicle_type_id":"4","last_reported":1731953613,"current_range_meters":1600,"station_id":"ce4bh3p2rcd13ifvqdq0","pricing_plan_id":"cebpf4jnsgd1na2vs0mg"},{"bike_id":"03bc2a32-6f00-495a-b74a-8573255c65c1","system_id":"levelo_inurba_marseille","lat":43.29579,"lon":5.36739,"is_reserved":false,"is_disabled":false,"rental_uris":{"android":"levelo://app?vid=03bc2a32-6f00-495a-b74a-8573255c65c1","ios":"levelo://app?vid=03bc2a32-6f00-495a-b74a-8573255c65c1"},"vehicle_type_id":"4","last_reported":1731953613,"current_range_meters":37600,"station_id":"ce4bgph2rcd13ifvqc2g","pricing_plan_id":"cebpf4jnsgd1na2vs0mg"},{"bike_id":"4c971bf0-e8f6-40f1-acbb-816854ab0ab0","system_id":"levelo_inurba_marseille","lat":43.28276,"lon":5.35063,"is_reserved":false,"is_disabled":false,"rental_uris":{"android":"levelo://app?vid=4c971bf0-e8f6-40f1-acbb-816854ab0ab0","ios":"levelo://app?vid=4c971bf0-e8f6-40f1-acbb-816854ab0ab0"},"vehicle_type_id":"4","last_reported":1731953613,"current_range_meters":10000,"station_id":"ce4bhbp2rcd13ifvqerg","pricing_plan_id":"cebpf4jnsgd1na2vs0mg"},{"bike_id":"9548ea0f-e4d6-428d-9135-3667883f19d2","system_id":"levelo_inurba_marseille","lat":43.302704,"lon":5.400705,"is_reserved":false,"is_disabled":false,"rental_uris":{"android":"levelo://app?vid=9548ea0f-e4d6-428d-9135-3667883f19d2","ios":"levelo://app?vid=9548ea0f-e4d6-428d-9135-3667883f19d2"},"vehicle_type_id":"4","last_reported":1731953613,"current_range_meters":26800,"station_id":"ce4bgvh2rcd13ifvqcs0","pricing_plan_id":"cebpf4jnsgd1na2vs0mg"},{"bike_id":"0814e5b2-afc4-4274-a5e1-ccb784183380","system_id":"levelo_inurba_marseille","lat":43.29519,"lon":5.39037,"is_reserved":false,"is_disabled":false,"rental_uris":{"android":"levelo://app?vid=0814e5b2-afc4-4274-a5e1-ccb784183380","ios":"levelo://app?vid=0814e5b2-afc4-4274-a5e1-ccb784183380"},"vehicle_type_id":"4","last_reported":1731953613,"current_range_meters":28800,"station_id":"ce4bh3p2rcd13ifvqdp0","pricing_plan_id":"cebpf4jnsgd1na2vs0mg"},{"bike_id":"c882d9aa-c49a-4f1d-8e9e-e5ccf6b8787d","system_id":"levelo_inurba_marseille","lat":43.29843,"lon":5.36269,"is_reserved":false,"is_disabled":false,"rental_uris":{"android":"levelo://app?vid=c882d9aa-c49a-4f1d-8e9e-e5ccf6b8787d","ios":"levelo://app?vid=c882d9aa-c49a-4f1d-8e9e-e5ccf6b8787d"},"vehicle_type_id":"4","last_reported":1731953613,"current_range_meters":39200,"station_id":"ce4bgpp2rcd13ifvqc3g","pricing_plan_id":"cebpf4jnsgd1na2vs0mg"},{"bike_id":"e4a5532d-23c6-44a1-8a40-ea77917bd499","system_id":"levelo_inurba_marseille","lat":43.30133,"lon":5.39866,"is_reserved":false,"is_disabled":false,"rental_uris":{"android":"levelo://app?vid=e4a5532d-23c6-44a1-8a40-ea77917bd499","ios":"levelo://app?vid=e4a5532d-23c6-44a1-8a40-ea77917bd499"},"vehicle_type_id":"4","last_reported":1731953613,"current_range_meters":32400,"station_id":"ce4bh0h2rcd13ifvqd40","pricing_plan_id":"cebpf4jnsgd1na2vs0mg"},{"bike_id":"32632687-0825-459e-a44d-4dd690ea82dd","system_id":"levelo_inurba_marseille","lat":43.28449,"lon":5.39193,"is_reserved":false,"is_disabled":false,"rental_uris":{"android":"levelo://app?vid=32632687-0825-459e-a44d-4dd690ea82dd","ios":"levelo://app?vid=32632687-0825-459e-a44d-4dd690ea82dd"},"vehicle_type_id":"4","last_reported":1731953613,"current_range_meters":10800,"station_id":"ce4bhoh2rcd13ifvqh5g","pricing_plan_id":"cebpf4jnsgd1na2vs0mg"},{"bike_id":"406b27d8-6247-424a-ac46-51ed04c17f48","system_id":"levelo_inurba_marseille","lat":43.3054,"lon":5.36527,"is_reserved":false,"is_disabled":false,"rental_uris":{"android":"levelo://app?vid=406b27d8-6247-424a-ac46-51ed04c17f48","ios":"levelo://app?vid=406b27d8-6247-424a-ac46-51ed04c17f48"},"vehicle_type_id":"4","last_reported":1731953613,"current_range_meters":38800,"station_id":"ce4bgs12rcd13ifvqcag","pricing_plan_id":"cebpf4jnsgd1na2vs0mg"},{"bike_id":"54c3d008-9b23-449d-a09a-a7a7affe242f","system_id":"levelo_inurba_marseille","lat":43.31997,"lon":5.38153,"is_reserved":false,"is_disabled":false,"rental_uris":{"android":"levelo://app?vid=54c3d008-9b23-449d-a09a-a7a7affe242f","ios":"levelo://app?vid=54c3d008-9b23-449d-a09a-a7a7affe242f"},"vehicle_type_id":"4","last_reported":1731953613,"current_range_meters":19600,"station_id":"ce4bhr12rcd13ifvqhpg","pricing_plan_id":"cebpf4jnsgd1na2vs0mg"},{"bike_id":"746c26b3-b945-4191-b394-93c5195805c3","system_id":"levelo_inurba_marseille","lat":43.27945,"lon":5.41041,"is_reserved":false,"is_disabled":false,"rental_uris":{"android":"levelo://app?vid=746c26b3-b945-4191-b394-93c5195805c3","ios":"levelo://app?vid=746c26b3-b945-4191-b394-93c5195805c3"},"vehicle_type_id":"4","last_reported":1731953613,"current_range_meters":14400,"station_id":"ce4bhnp2rcd13ifvqh0g","pricing_plan_id":"cebpf4jnsgd1na2vs0mg"},{"bike_id":"75420037-a1a0-44de-85e1-44ce9ad329ea","system_id":"levelo_inurba_marseille","lat":43.28461,"lon":5.35888,"is_reserved":false,"is_disabled":false,"rental_uris":{"android":"levelo://app?vid=75420037-a1a0-44de-85e1-44ce9ad329ea","ios":"levelo://app?vid=75420037-a1a0-44de-85e1-44ce9ad329ea"},"vehicle_type_id":"4","last_reported":1731953613,"current_range_meters":36800,"station_id":"ce4bhah2rcd13ifvqei0","pricing_plan_id":"cebpf4jnsgd1na2vs0mg"},{"bike_id":"5ed0dcf0-c2ca-47d5-8497-b51c5d83f101","system_id":"levelo_inurba_marseille","lat":43.26686,"lon":5.38276,"is_reserved":false,"is_disabled":true,"rental_uris":{"android":"levelo://app?vid=5ed0dcf0-c2ca-47d5-8497-b51c5d83f101","ios":"levelo://app?vid=5ed0dcf0-c2ca-47d5-8497-b51c5d83f101"},"vehicle_type_id":"4","last_reported":1731953613,"current_range_meters":38800,"station_id":"ce4bhg92rcd13ifvqf90","pricing_plan_id":"cebpf4jnsgd1na2vs0mg"},{"bike_id":"18fded32-019c-421b-8db7-c4613bc1d599","system_id":"levelo_inurba_marseille","lat":43.25576,"lon":5.38236,"is_reserved":false,"is_disabled":false,"rental_uris":{"android":"levelo://app?vid=18fded32-019c-421b-8db7-c4613bc1d599","ios":"levelo://app?vid=18fded32-019c-421b-8db7-c4613bc1d599"},"vehicle_type_id":"4","last_reported":1731953613,"current_range_meters":23200,"station_id":"ce4bhih2rcd13ifvqfs0","pricing_plan_id":"cebpf4jnsgd1na2vs0mg"},{"bike_id":"7d471f91-b0b7-49b1-916d-a9b857737a16","system_id":"levelo_inurba_marseille","lat":43.29419,"lon":5.3861,"is_reserved":false,"is_disabled":false,"rental_uris":{"android":"levelo://app?vid=7d471f91-b0b7-49b1-916d-a9b857737a16","ios":"levelo://app?vid=7d471f91-b0b7-49b1-916d-a9b857737a16"},"vehicle_type_id":"4","last_reported":1731953613,"current_range_meters":36800,"station_id":"ce4bh2h2rcd13ifvqdh0","pricing_plan_id":"cebpf4jnsgd1na2vs0mg"},{"bike_id":"48f92302-634c-462c-8f87-74559add9590","system_id":"levelo_inurba_marseille","lat":43.27818,"lon":5.4071,"is_reserved":false,"is_disabled":false,"rental_uris":{"android":"levelo://app?vid=48f92302-634c-462c-8f87-74559add9590","ios":"levelo://app?vid=48f92302-634c-462c-8f87-74559add9590"},"vehicle_type_id":"4","last_reported":1731953613,"current_range_meters":19600,"station_id":"ce4bhnh2rcd13ifvqgtg","pricing_plan_id":"cebpf4jnsgd1na2vs0mg"},{"bike_id":"129aabad-c987-475e-90f3-2bfaf3bf8a5a","system_id":"levelo_inurba_marseille","lat":43.30885,"lon":5.39645,"is_reserved":false,"is_disabled":false,"rental_uris":{"android":"levelo://app?vid=129aabad-c987-475e-90f3-2bfaf3bf8a5a","ios":"levelo://app?vid=129aabad-c987-475e-90f3-2bfaf3bf8a5a"},"vehicle_type_id":"4","last_reported":1731953613,"current_range_meters":24800,"station_id":"ce4bh012rcd13ifvqcv0","pricing_plan_id":"cebpf4jnsgd1na2vs0mg"},{"bike_id":"b0cd6f3e-5c75-446d-9d35-d83fa07896a1","system_id":"levelo_inurba_marseille","lat":43.28155,"lon":5.4264,"is_reserved":false,"is_disabled":false,"rental_uris":{"android":"levelo://app?vid=b0cd6f3e-5c75-446d-9d35-d83fa07896a1","ios":"levelo://app?vid=b0cd6f3e-5c75-446d-9d35-d83fa07896a1"},"vehicle_type_id":"4","last_reported":1731953613,"current_range_meters":9600,"station_id":"ce4bhnh2rcd13ifvqgug","pricing_plan_id":"cebpf4jnsgd1na2vs0mg"},{"bike_id":"d71d52cc-5480-44f6-a5bc-db25330a60f3","system_id":"levelo_inurba_marseille","lat":43.29633,"lon":5.40598,"is_reserved":false,"is_disabled":false,"rental_uris":{"android":"levelo://app?vid=d71d52cc-5480-44f6-a5bc-db25330a60f3","ios":"levelo://app?vid=d71d52cc-5480-44f6-a5bc-db25330a60f3"},"vehicle_type_id":"4","last_reported":1731953613,"current_range_meters":38000,"station_id":"ce4bh0h2rcd13ifvqd60","pricing_plan_id":"cebpf4jnsgd1na2vs0mg"},{"bike_id":"3ef2ce35-26a0-4225-b091-56e01ba48b42","system_id":"levelo_inurba_marseille","lat":43.28727,"lon":5.39979,"is_reserved":false,"is_disabled":false,"rental_uris":{"android":"levelo://app?vid=3ef2ce35-26a0-4225-b091-56e01ba48b42","ios":"levelo://app?vid=3ef2ce35-26a0-4225-b091-56e01ba48b42"},"vehicle_type_id":"4","last_reported":1731953613,"current_range_meters":10000,"station_id":"ce4bho92rcd13ifvqh3g","pricing_plan_id":"cebpf4jnsgd1na2vs0mg"},{"bike_id":"628384db-a629-44bc-856e-9d5ee504cce9","system_id":"levelo_inurba_marseille","lat":43.24997,"lon":5.3893,"is_reserved":false,"is_disabled":true,"rental_uris":{"android":"levelo://app?vid=628384db-a629-44bc-856e-9d5ee504cce9","ios":"levelo://app?vid=628384db-a629-44bc-856e-9d5ee504cce9"},"vehicle_type_id":"4","last_reported":1731953613,"current_range_meters":38800,"station_id":"ce4bhgp2rcd13ifvqfd0","pricing_plan_id":"cebpf4jnsgd1na2vs0mg"},{"bike_id":"2c98f310-de06-47e1-8a5f-d38938934c83","system_id":"levelo_inurba_marseille","lat":43.23185,"lon":5.39995,"is_reserved":false,"is_disabled":true,"rental_uris":{"android":"levelo://app?vid=2c98f310-de06-47e1-8a5f-d38938934c83","ios":"levelo://app?vid=2c98f310-de06-47e1-8a5f-d38938934c83"},"vehicle_type_id":"4","last_reported":1731953613,"current_range_meters":0,"station_id":"ce4bhn12rcd13ifvqgqg","pricing_plan_id":"cebpf4jnsgd1na2vs0mg"},{"bike_id":"23135125-383a-4861-98de-64bbe8a2d094","system_id":"levelo_inurba_marseille","lat":43.30925,"lon":5.40144,"is_reserved":false,"is_disabled":false,"rental_uris":{"android":"levelo://app?vid=23135125-383a-4861-98de-64bbe8a2d094","ios":"levelo://app?vid=23135125-383a-4861-98de-64bbe8a2d094"},"vehicle_type_id":"4","last_reported":1731953613,"current_range_meters":13600,"station_id":"ce4bgvp2rcd13ifvqct0","pricing_plan_id":"cebpf4jnsgd1na2vs0mg"},{"bike_id":"3f32c9d6-8aed-4b6d-92f4-88b3106e6e04","system_id":"levelo_inurba_marseille","lat":43.2587,"lon":5.39903,"is_reserved":false,"is_disabled":true,"rental_uris":{"android":"levelo://app?vid=3f32c9d6-8aed-4b6d-92f4-88b3106e6e04","ios":"levelo://app?vid=3f32c9d6-8aed-4b6d-92f4-88b3106e6e04"},"vehicle_type_id":"4","last_reported":1731953613,"current_range_meters":12000,"station_id":"ce4bhl92rcd13ifvqghg","pricing_plan_id":"cebpf4jnsgd1na2vs0mg"},{"bike_id":"59282a02-6b4b-4617-b658-ff49c6291b10","system_id":"levelo_inurba_marseille","lat":43.28457,"lon":5.35886,"is_reserved":false,"is_disabled":false,"rental_uris":{"android":"levelo://app?vid=59282a02-6b4b-4617-b658-ff49c6291b10","ios":"levelo://app?vid=59282a02-6b4b-4617-b658-ff49c6291b10"},"vehicle_type_id":"4","last_reported":1731953613,"current_range_meters":15200,"station_id":"ce4bhah2rcd13ifvqei0","pricing_plan_id":"cebpf4jnsgd1na2vs0mg"},{"bike_id":"b3eaf1d6-7555-41a5-bcba-77796c19961d","system_id":"levelo_inurba_marseille","lat":43.29845,"lon":5.36266,"is_reserved":false,"is_disabled":false,"rental_uris":{"android":"levelo://app?vid=b3eaf1d6-7555-41a5-bcba-77796c19961d","ios":"levelo://app?vid=b3eaf1d6-7555-41a5-bcba-77796c19961d"},"vehicle_type_id":"4","last_reported":1731953613,"current_range_meters":37600,"station_id":"ce4bgpp2rcd13ifvqc3g","pricing_plan_id":"cebpf4jnsgd1na2vs0mg"},{"bike_id":"7c5ea3a8-a728-4c0b-a06a-05abd113adfd","system_id":"levelo_inurba_marseille","lat":43.2581,"lon":5.39412,"is_reserved":false,"is_disabled":true,"rental_uris":{"android":"levelo://app?vid=7c5ea3a8-a728-4c0b-a06a-05abd113adfd","ios":"levelo://app?vid=7c5ea3a8-a728-4c0b-a06a-05abd113adfd"},"vehicle_type_id":"4","last_reported":1731953613,"current_range_meters":0,"station_id":"ce4bhip2rcd13ifvqft0","pricing_plan_id":"cebpf4jnsgd1na2vs0mg"},{"bike_id":"ec1da42a-08a9-4172-9ca1-b14bbafffe30","system_id":"levelo_inurba_marseille","lat":43.29232,"lon":5.38359,"is_reserved":false,"is_disabled":false,"rental_uris":{"android":"levelo://app?vid=ec1da42a-08a9-4172-9ca1-b14bbafffe30","ios":"levelo://app?vid=ec1da42a-08a9-4172-9ca1-b14bbafffe30"},"vehicle_type_id":"4","last_reported":1731953613,"current_range_meters":17600,"station_id":"ce4bh692rcd13ifvqea0","pricing_plan_id":"cebpf4jnsgd1na2vs0mg"},{"bike_id":"49e7624e-103a-42f5-a246-ce17656f0975","system_id":"levelo_inurba_marseille","lat":43.25221,"lon":5.39121,"is_reserved":false,"is_disabled":false,"rental_uris":{"android":"levelo://app?vid=49e7624e-103a-42f5-a246-ce17656f0975","ios":"levelo://app?vid=49e7624e-103a-42f5-a246-ce17656f0975"},"vehicle_type_id":"4","last_reported":1731953613,"current_range_meters":25200,"station_id":"ce4bhgh2rcd13ifvqfa0","pricing_plan_id":"cebpf4jnsgd1na2vs0mg"},{"bike_id":"bec12e29-1589-4be2-adcb-48da2dc577d6","system_id":"levelo_inurba_marseille","lat":43.30779,"lon":5.37654,"is_reserved":false,"is_disabled":false,"rental_uris":{"android":"levelo://app?vid=bec12e29-1589-4be2-adcb-48da2dc577d6","ios":"levelo://app?vid=bec12e29-1589-4be2-adcb-48da2dc577d6"},"vehicle_type_id":"4","last_reported":1731953613,"current_range_meters":37600,"station_id":"ce4bgv92rcd13ifvqcq0","pricing_plan_id":"cebpf4jnsgd1na2vs0mg"},{"bike_id":"4de41581-3b4d-48da-b235-99669862c70a","system_id":"levelo_inurba_marseille","lat":43.2961,"lon":5.37711,"is_reserved":false,"is_disabled":true,"rental_uris":{"android":"levelo://app?vid=4de41581-3b4d-48da-b235-99669862c70a","ios":"levelo://app?vid=4de41581-3b4d-48da-b235-99669862c70a"},"vehicle_type_id":"4","last_reported":1731953613,"current_range_meters":36400,"station_id":"ce4bgi92rcd13ifvqb90","pricing_plan_id":"cebpf4jnsgd1na2vs0mg"},{"bike_id":"fc6da6f6-874e-4644-b2cd-37be39cc2ec0","system_id":"levelo_inurba_marseille","lat":43.30303,"lon":5.36876,"is_reserved":false,"is_disabled":false,"rental_uris":{"android":"levelo://app?vid=fc6da6f6-874e-4644-b2cd-37be39cc2ec0","ios":"levelo://app?vid=fc6da6f6-874e-4644-b2cd-37be39cc2ec0"},"vehicle_type_id":"4","last_reported":1731953613,"current_range_meters":36800,"station_id":"ce4bgqh2rcd13ifvqc5g","pricing_plan_id":"cebpf4jnsgd1na2vs0mg"},{"bike_id":"b0222684-7565-40dc-91a5-328b5ec85c70","system_id":"levelo_inurba_marseille","lat":43.28076,"lon":5.39657,"is_reserved":false,"is_disabled":false,"rental_uris":{"android":"levelo://app?vid=b0222684-7565-40dc-91a5-328b5ec85c70","ios":"levelo://app?vid=b0222684-7565-40dc-91a5-328b5ec85c70"},"vehicle_type_id":"4","last_reported":1731953613,"current_range_meters":38000,"station_id":"ce4bho12rcd13ifvqh2g","pricing_plan_id":"cebpf4jnsgd1na2vs0mg"},{"bike_id":"b4653614-7808-4e41-a56f-2a7af1335033","system_id":"levelo_inurba_marseille","lat":43.29532,"lon":5.3855,"is_reserved":false,"is_disabled":false,"rental_uris":{"android":"levelo://app?vid=b4653614-7808-4e41-a56f-2a7af1335033","ios":"levelo://app?vid=b4653614-7808-4e41-a56f-2a7af1335033"},"vehicle_type_id":"4","last_reported":1731953613,"current_range_meters":37600,"station_id":"ce4bgih2rcd13ifvqba0","pricing_plan_id":"cebpf4jnsgd1na2vs0mg"},{"bike_id":"8f13971b-a583-44aa-b360-7a01cb5399e2","system_id":"levelo_inurba_marseille","lat":43.28028,"lon":5.38727,"is_reserved":false,"is_disabled":false,"rental_uris":{"android":"levelo://app?vid=8f13971b-a583-44aa-b360-7a01cb5399e2","ios":"levelo://app?vid=8f13971b-a583-44aa-b360-7a01cb5399e2"},"vehicle_type_id":"4","last_reported":1731953613,"current_range_meters":25200,"station_id":"ce4bhg12rcd13ifvqf80","pricing_plan_id":"cebpf4jnsgd1na2vs0mg"},{"bike_id":"4b56944d-0d7c-4545-b8f7-0e389ecfd229","system_id":"levelo_inurba_marseille","lat":43.30794,"lon":5.38147,"is_reserved":false,"is_disabled":false,"rental_uris":{"android":"levelo://app?vid=4b56944d-0d7c-4545-b8f7-0e389ecfd229","ios":"levelo://app?vid=4b56944d-0d7c-4545-b8f7-0e389ecfd229"},"vehicle_type_id":"4","last_reported":1731953613,"current_range_meters":17200,"station_id":"ce4bgt12rcd13ifvqce0","pricing_plan_id":"cebpf4jnsgd1na2vs0mg"},{"bike_id":"2b230e21-05b5-46a3-b9c5-f6223e5aaf4f","system_id":"levelo_inurba_marseille","lat":43.31712,"lon":5.43706,"is_reserved":false,"is_disabled":false,"rental_uris":{"android":"levelo://app?vid=2b230e21-05b5-46a3-b9c5-f6223e5aaf4f","ios":"levelo://app?vid=2b230e21-05b5-46a3-b9c5-f6223e5aaf4f"},"vehicle_type_id":"4","last_reported":1731953613,"current_range_meters":32800,"station_id":"ce4bhp92rcd13ifvqhcg","pricing_plan_id":"cebpf4jnsgd1na2vs0mg"},{"bike_id":"c8fcdbf1-dbe9-4c84-9b76-eea1485c0702","system_id":"levelo_inurba_marseille","lat":43.30002,"lon":5.40877,"is_reserved":false,"is_disabled":false,"rental_uris":{"android":"levelo://app?vid=c8fcdbf1-dbe9-4c84-9b76-eea1485c0702","ios":"levelo://app?vid=c8fcdbf1-dbe9-4c84-9b76-eea1485c0702"},"vehicle_type_id":"4","last_reported":1731953613,"current_range_meters":12000,"station_id":"ce4bh0h2rcd13ifvqd60","pricing_plan_id":"cebpf4jnsgd1na2vs0mg"},{"bike_id":"7962607a-48b5-46bb-960b-6d010ea93e9a","system_id":"levelo_inurba_marseille","lat":43.29563,"lon":5.39951,"is_reserved":false,"is_disabled":false,"rental_uris":{"android":"levelo://app?vid=7962607a-48b5-46bb-960b-6d010ea93e9a","ios":"levelo://app?vid=7962607a-48b5-46bb-960b-6d010ea93e9a"},"vehicle_type_id":"4","last_reported":1731953613,"current_range_meters":36800,"station_id":"ce4bh312rcd13ifvqdj0","pricing_plan_id":"cebpf4jnsgd1na2vs0mg"},{"bike_id":"4ff195aa-0e94-4780-a4e9-74e0f4125314","system_id":"levelo_inurba_marseille","lat":43.29787,"lon":5.3936,"is_reserved":false,"is_disabled":true,"rental_uris":{"android":"levelo://app?vid=4ff195aa-0e94-4780-a4e9-74e0f4125314","ios":"levelo://app?vid=4ff195aa-0e94-4780-a4e9-74e0f4125314"},"vehicle_type_id":"4","last_reported":1731953613,"current_range_meters":38000,"station_id":"chh1huq6cuj3fo74tm60","pricing_plan_id":"cebpf4jnsgd1na2vs0mg"},{"bike_id":"9453ad43-aec4-4268-b1c6-f19a541c34e3","system_id":"levelo_inurba_marseille","lat":43.2885,"lon":5.39327,"is_reserved":false,"is_disabled":false,"rental_uris":{"android":"levelo://app?vid=9453ad43-aec4-4268-b1c6-f19a541c34e3","ios":"levelo://app?vid=9453ad43-aec4-4268-b1c6-f19a541c34e3"},"vehicle_type_id":"4","last_reported":1731953613,"current_range_meters":17200,"station_id":"ce4bh2p2rcd13ifvqdi0","pricing_plan_id":"cebpf4jnsgd1na2vs0mg"},{"bike_id":"84add0bd-cb10-4dcb-82e1-3da91d21fda0","system_id":"levelo_inurba_marseille","lat":43.29899,"lon":5.43667,"is_reserved":false,"is_disabled":false,"rental_uris":{"android":"levelo://app?vid=84add0bd-cb10-4dcb-82e1-3da91d21fda0","ios":"levelo://app?vid=84add0bd-cb10-4dcb-82e1-3da91d21fda0"},"vehicle_type_id":"4","last_reported":1731953613,"current_range_meters":6400,"station_id":"ce4bhpp2rcd13ifvqhfg","pricing_plan_id":"cebpf4jnsgd1na2vs0mg"},{"bike_id":"026b8c68-bd26-4b3a-92e6-b0fa8d046556","system_id":"levelo_inurba_marseille","lat":43.26568,"lon":5.39025,"is_reserved":false,"is_disabled":true,"rental_uris":{"android":"levelo://app?vid=026b8c68-bd26-4b3a-92e6-b0fa8d046556","ios":"levelo://app?vid=026b8c68-bd26-4b3a-92e6-b0fa8d046556"},"vehicle_type_id":"4","last_reported":1731953613,"current_range_meters":1200,"station_id":"ce4bhe12rcd13ifvqf30","pricing_plan_id":"cebpf4jnsgd1na2vs0mg"},{"bike_id":"6fcf8485-44b2-4e7f-a1ac-a973f48cb9a9","system_id":"levelo_inurba_marseille","lat":43.32289,"lon":5.38272,"is_reserved":false,"is_disabled":false,"rental_uris":{"android":"levelo://app?vid=6fcf8485-44b2-4e7f-a1ac-a973f48cb9a9","ios":"levelo://app?vid=6fcf8485-44b2-4e7f-a1ac-a973f48cb9a9"},"vehicle_type_id":"4","last_reported":1731953613,"current_range_meters":25200,"station_id":"ce4bhr12rcd13ifvqhqg","pricing_plan_id":"cebpf4jnsgd1na2vs0mg"},{"bike_id":"fd5a885f-4eb1-48e5-94fa-dbf89a02078d","system_id":"levelo_inurba_marseille","lat":43.29444,"lon":5.39754,"is_reserved":false,"is_disabled":false,"rental_uris":{"android":"levelo://app?vid=fd5a885f-4eb1-48e5-94fa-dbf89a02078d","ios":"levelo://app?vid=fd5a885f-4eb1-48e5-94fa-dbf89a02078d"},"vehicle_type_id":"4","last_reported":1731953613,"current_range_meters":27200,"station_id":"ce4bh3h2rcd13ifvqdo0","pricing_plan_id":"cebpf4jnsgd1na2vs0mg"},{"bike_id":"1c62f8c4-9326-4d1d-8576-5c03786ffc9f","system_id":"levelo_inurba_marseille","lat":43.30136,"lon":5.39864,"is_reserved":false,"is_disabled":false,"rental_uris":{"android":"levelo://app?vid=1c62f8c4-9326-4d1d-8576-5c03786ffc9f","ios":"levelo://app?vid=1c62f8c4-9326-4d1d-8576-5c03786ffc9f"},"vehicle_type_id":"4","last_reported":1731953613,"current_range_meters":17600,"station_id":"ce4bh0h2rcd13ifvqd40","pricing_plan_id":"cebpf4jnsgd1na2vs0mg"},{"bike_id":"58f1d607-38ef-4f9a-a488-47fad88b9c0f","system_id":"levelo_inurba_marseille","lat":43.27174,"lon":5.40996,"is_reserved":false,"is_disabled":true,"rental_uris":{"android":"levelo://app?vid=58f1d607-38ef-4f9a-a488-47fad88b9c0f","ios":"levelo://app?vid=58f1d607-38ef-4f9a-a488-47fad88b9c0f"},"vehicle_type_id":"4","last_reported":1731953613,"current_range_meters":0,"station_id":"ce4bhl12rcd13ifvqgf0","pricing_plan_id":"cebpf4jnsgd1na2vs0mg"},{"bike_id":"d482b473-8011-43d1-9203-ef428f8af553","system_id":"levelo_inurba_marseille","lat":43.29553,"lon":5.42283,"is_reserved":false,"is_disabled":false,"rental_uris":{"android":"levelo://app?vid=d482b473-8011-43d1-9203-ef428f8af553","ios":"levelo://app?vid=d482b473-8011-43d1-9203-ef428f8af553"},"vehicle_type_id":"4","last_reported":1731953613,"current_range_meters":18000,"station_id":"ce4bhph2rcd13ifvqhdg","pricing_plan_id":"cebpf4jnsgd1na2vs0mg"},{"bike_id":"9c46abb9-8841-458c-82bf-2d8483c92946","system_id":"levelo_inurba_marseille","lat":43.29798,"lon":5.39341,"is_reserved":false,"is_disabled":false,"rental_uris":{"android":"levelo://app?vid=9c46abb9-8841-458c-82bf-2d8483c92946","ios":"levelo://app?vid=9c46abb9-8841-458c-82bf-2d8483c92946"},"vehicle_type_id":"4","last_reported":1731953613,"current_range_meters":36800,"station_id":"chh1huq6cuj3fo74tm60","pricing_plan_id":"cebpf4jnsgd1na2vs0mg"},{"bike_id":"cde5eb04-35f5-4971-aec4-8004f9b2dcd9","system_id":"levelo_inurba_marseille","lat":43.28274,"lon":5.35072,"is_reserved":false,"is_disabled":true,"rental_uris":{"android":"levelo://app?vid=cde5eb04-35f5-4971-aec4-8004f9b2dcd9","ios":"levelo://app?vid=cde5eb04-35f5-4971-aec4-8004f9b2dcd9"},"vehicle_type_id":"4","last_reported":1731953613,"current_range_meters":36400,"station_id":"ce4bhbp2rcd13ifvqerg","pricing_plan_id":"cebpf4jnsgd1na2vs0mg"},{"bike_id":"d9aaa99c-543f-4857-a768-c5d47f66986e","system_id":"levelo_inurba_marseille","lat":43.23178,"lon":5.39982,"is_reserved":false,"is_disabled":false,"rental_uris":{"android":"levelo://app?vid=d9aaa99c-543f-4857-a768-c5d47f66986e","ios":"levelo://app?vid=d9aaa99c-543f-4857-a768-c5d47f66986e"},"vehicle_type_id":"4","last_reported":1731953613,"current_range_meters":29600,"station_id":"ce4bhn12rcd13ifvqgqg","pricing_plan_id":"cebpf4jnsgd1na2vs0mg"},{"bike_id":"9149b744-3ab9-4c51-83ea-c9bdd28789c0","system_id":"levelo_inurba_marseille","lat":43.29559,"lon":5.42288,"is_reserved":false,"is_disabled":true,"rental_uris":{"android":"levelo://app?vid=9149b744-3ab9-4c51-83ea-c9bdd28789c0","ios":"levelo://app?vid=9149b744-3ab9-4c51-83ea-c9bdd28789c0"},"vehicle_type_id":"4","last_reported":1731953613,"current_range_meters":0,"station_id":"ce4bhph2rcd13ifvqhdg","pricing_plan_id":"cebpf4jnsgd1na2vs0mg"},{"bike_id":"c2733315-eae6-452e-a1ab-9550f9ad7c89","system_id":"levelo_inurba_marseille","lat":43.31226,"lon":5.36843,"is_reserved":false,"is_disabled":false,"rental_uris":{"android":"levelo://app?vid=c2733315-eae6-452e-a1ab-9550f9ad7c89","ios":"levelo://app?vid=c2733315-eae6-452e-a1ab-9550f9ad7c89"},"vehicle_type_id":"4","last_reported":1731953613,"current_range_meters":24400,"station_id":"ce4bgl92rcd13ifvqbq0","pricing_plan_id":"cebpf4jnsgd1na2vs0mg"},{"bike_id":"5facb990-bb40-4c9f-a4aa-1ed9dcedde66","system_id":"levelo_inurba_marseille","lat":43.33022,"lon":5.39037,"is_reserved":false,"is_disabled":false,"rental_uris":{"android":"levelo://app?vid=5facb990-bb40-4c9f-a4aa-1ed9dcedde66","ios":"levelo://app?vid=5facb990-bb40-4c9f-a4aa-1ed9dcedde66"},"vehicle_type_id":"4","last_reported":1731953613,"current_range_meters":25200,"station_id":"ce4bhr92rcd13ifvqhrg","pricing_plan_id":"cebpf4jnsgd1na2vs0mg"},{"bike_id":"1a9b2b7f-bafc-4bc5-bab2-74e5a12548ab","system_id":"levelo_inurba_marseille","lat":43.31409,"lon":5.3818,"is_reserved":false,"is_disabled":false,"rental_uris":{"android":"levelo://app?vid=1a9b2b7f-bafc-4bc5-bab2-74e5a12548ab","ios":"levelo://app?vid=1a9b2b7f-bafc-4bc5-bab2-74e5a12548ab"},"vehicle_type_id":"4","last_reported":1731953613,"current_range_meters":38400,"station_id":"","pricing_plan_id":"cebpf4jnsgd1na2vs0mg"},{"bike_id":"0e2bbe61-8f31-47ba-b582-6a82d0b052e0","system_id":"levelo_inurba_marseille","lat":43.29036,"lon":5.38352,"is_reserved":false,"is_disabled":false,"rental_uris":{"android":"levelo://app?vid=0e2bbe61-8f31-47ba-b582-6a82d0b052e0","ios":"levelo://app?vid=0e2bbe61-8f31-47ba-b582-6a82d0b052e0"},"vehicle_type_id":"4","last_reported":1731953613,"current_range_meters":33200,"station_id":"ce4bgip2rcd13ifvqbb0","pricing_plan_id":"cebpf4jnsgd1na2vs0mg"},{"bike_id":"bff402ee-970d-46d4-8d25-a5216fd3bac3","system_id":"levelo_inurba_marseille","lat":43.25004,"lon":5.38919,"is_reserved":false,"is_disabled":true,"rental_uris":{"android":"levelo://app?vid=bff402ee-970d-46d4-8d25-a5216fd3bac3","ios":"levelo://app?vid=bff402ee-970d-46d4-8d25-a5216fd3bac3"},"vehicle_type_id":"4","last_reported":1731953613,"current_range_meters":8400,"station_id":"ce4bhgp2rcd13ifvqfd0","pricing_plan_id":"cebpf4jnsgd1na2vs0mg"},{"bike_id":"c3bc0f64-f384-48a7-9517-04f95522a7e3","system_id":"levelo_inurba_marseille","lat":43.318242,"lon":5.37611,"is_reserved":false,"is_disabled":false,"rental_uris":{"android":"levelo://app?vid=c3bc0f64-f384-48a7-9517-04f95522a7e3","ios":"levelo://app?vid=c3bc0f64-f384-48a7-9517-04f95522a7e3"},"vehicle_type_id":"4","last_reported":1731953613,"current_range_meters":19200,"station_id":"","pricing_plan_id":"cebpf4jnsgd1na2vs0mg"},{"bike_id":"c3adda95-8823-44a7-ab6f-ce72306eabe1","system_id":"levelo_inurba_marseille","lat":43.27423,"lon":5.39413,"is_reserved":false,"is_disabled":true,"rental_uris":{"android":"levelo://app?vid=c3adda95-8823-44a7-ab6f-ce72306eabe1","ios":"levelo://app?vid=c3adda95-8823-44a7-ab6f-ce72306eabe1"},"vehicle_type_id":"4","last_reported":1731953613,"current_range_meters":38800,"station_id":"ce4bhdp2rcd13ifvqf20","pricing_plan_id":"cebpf4jnsgd1na2vs0mg"},{"bike_id":"0a2e4fb8-7c8d-4eb2-b6fb-af8c2b7f3d40","system_id":"levelo_inurba_marseille","lat":43.30557,"lon":5.36698,"is_reserved":false,"is_disabled":true,"rental_uris":{"android":"levelo://app?vid=0a2e4fb8-7c8d-4eb2-b6fb-af8c2b7f3d40","ios":"levelo://app?vid=0a2e4fb8-7c8d-4eb2-b6fb-af8c2b7f3d40"},"vehicle_type_id":"4","last_reported":1731953613,"current_range_meters":1200,"station_id":"ce4bgrp2rcd13ifvqc9g","pricing_plan_id":"cebpf4jnsgd1na2vs0mg"},{"bike_id":"516f73ff-0cad-406c-bce7-59fcdfc34992","system_id":"levelo_inurba_marseille","lat":43.23188,"lon":5.39995,"is_reserved":false,"is_disabled":false,"rental_uris":{"android":"levelo://app?vid=516f73ff-0cad-406c-bce7-59fcdfc34992","ios":"levelo://app?vid=516f73ff-0cad-406c-bce7-59fcdfc34992"},"vehicle_type_id":"4","last_reported":1731953613,"current_range_meters":10800,"station_id":"ce4bhn12rcd13ifvqgqg","pricing_plan_id":"cebpf4jnsgd1na2vs0mg"},{"bike_id":"06fcad9e-8f01-404d-8e82-25e1d4926537","system_id":"levelo_inurba_marseille","lat":43.29845,"lon":5.36274,"is_reserved":false,"is_disabled":false,"rental_uris":{"android":"levelo://app?vid=06fcad9e-8f01-404d-8e82-25e1d4926537","ios":"levelo://app?vid=06fcad9e-8f01-404d-8e82-25e1d4926537"},"vehicle_type_id":"4","last_reported":1731953613,"current_range_meters":21600,"station_id":"ce4bgpp2rcd13ifvqc3g","pricing_plan_id":"cebpf4jnsgd1na2vs0mg"},{"bike_id":"e1d19d2e-2dc3-48a9-9e47-d2fc54ab151d","system_id":"levelo_inurba_marseille","lat":43.23971,"lon":5.36626,"is_reserved":false,"is_disabled":false,"rental_uris":{"android":"levelo://app?vid=e1d19d2e-2dc3-48a9-9e47-d2fc54ab151d","ios":"levelo://app?vid=e1d19d2e-2dc3-48a9-9e47-d2fc54ab151d"},"vehicle_type_id":"4","last_reported":1731953613,"current_range_meters":38000,"station_id":"ce4bhi12rcd13ifvqfp0","pricing_plan_id":"cebpf4jnsgd1na2vs0mg"},{"bike_id":"f2a1fab3-91ef-46a0-a363-ad4513fe1346","system_id":"levelo_inurba_marseille","lat":43.30134,"lon":5.39859,"is_reserved":false,"is_disabled":false,"rental_uris":{"android":"levelo://app?vid=f2a1fab3-91ef-46a0-a363-ad4513fe1346","ios":"levelo://app?vid=f2a1fab3-91ef-46a0-a363-ad4513fe1346"},"vehicle_type_id":"4","last_reported":1731953613,"current_range_meters":20000,"station_id":"ce4bh0h2rcd13ifvqd40","pricing_plan_id":"cebpf4jnsgd1na2vs0mg"},{"bike_id":"638f8d00-ceb3-4062-9f5f-ca647d7df496","system_id":"levelo_inurba_marseille","lat":43.27428,"lon":5.39415,"is_reserved":false,"is_disabled":true,"rental_uris":{"android":"levelo://app?vid=638f8d00-ceb3-4062-9f5f-ca647d7df496","ios":"levelo://app?vid=638f8d00-ceb3-4062-9f5f-ca647d7df496"},"vehicle_type_id":"4","last_reported":1731953613,"current_range_meters":32000,"station_id":"ce4bhdp2rcd13ifvqf20","pricing_plan_id":"cebpf4jnsgd1na2vs0mg"},{"bike_id":"1c9d5a2a-a677-45cf-ae90-9c944e700562","system_id":"levelo_inurba_marseille","lat":43.24168,"lon":5.36395,"is_reserved":false,"is_disabled":false,"rental_uris":{"android":"levelo://app?vid=1c9d5a2a-a677-45cf-ae90-9c944e700562","ios":"levelo://app?vid=1c9d5a2a-a677-45cf-ae90-9c944e700562"},"vehicle_type_id":"4","last_reported":1731953613,"current_range_meters":16800,"station_id":"cpo36qri1sfpv3e86is0","pricing_plan_id":"cebpf4jnsgd1na2vs0mg"},{"bike_id":"4a4eab77-725b-412c-9743-c096390a45fd","system_id":"levelo_inurba_marseille","lat":43.2805,"lon":5.3696,"is_reserved":false,"is_disabled":false,"rental_uris":{"android":"levelo://app?vid=4a4eab77-725b-412c-9743-c096390a45fd","ios":"levelo://app?vid=4a4eab77-725b-412c-9743-c096390a45fd"},"vehicle_type_id":"4","last_reported":1731953613,"current_range_meters":38800,"station_id":"ce4bha12rcd13ifvqef0","pricing_plan_id":"cebpf4jnsgd1na2vs0mg"},{"bike_id":"09a8ec7e-77a2-4058-b799-c972e0f13cd7","system_id":"levelo_inurba_marseille","lat":43.27178,"lon":5.40993,"is_reserved":false,"is_disabled":false,"rental_uris":{"android":"levelo://app?vid=09a8ec7e-77a2-4058-b799-c972e0f13cd7","ios":"levelo://app?vid=09a8ec7e-77a2-4058-b799-c972e0f13cd7"},"vehicle_type_id":"4","last_reported":1731953613,"current_range_meters":26000,"station_id":"ce4bhl12rcd13ifvqgf0","pricing_plan_id":"cebpf4jnsgd1na2vs0mg"},{"bike_id":"f644b4fa-98a0-46e4-a37c-f692601dc455","system_id":"levelo_inurba_marseille","lat":43.25862,"lon":5.39904,"is_reserved":false,"is_disabled":true,"rental_uris":{"android":"levelo://app?vid=f644b4fa-98a0-46e4-a37c-f692601dc455","ios":"levelo://app?vid=f644b4fa-98a0-46e4-a37c-f692601dc455"},"vehicle_type_id":"4","last_reported":1731953613,"current_range_meters":0,"station_id":"ce4bhl92rcd13ifvqghg","pricing_plan_id":"cebpf4jnsgd1na2vs0mg"},{"bike_id":"5b6bc891-12ea-456b-be38-303af3a6bc51","system_id":"levelo_inurba_marseille","lat":43.27992,"lon":5.40014,"is_reserved":false,"is_disabled":false,"rental_uris":{"android":"levelo://app?vid=5b6bc891-12ea-456b-be38-303af3a6bc51","ios":"levelo://app?vid=5b6bc891-12ea-456b-be38-303af3a6bc51"},"vehicle_type_id":"4","last_reported":1731953613,"current_range_meters":38800,"station_id":"ce4bho92rcd13ifvqh4g","pricing_plan_id":"cebpf4jnsgd1na2vs0mg"},{"bike_id":"3f2e793f-445d-48e7-aed6-2086ced939b2","system_id":"levelo_inurba_marseille","lat":43.26498,"lon":5.39542,"is_reserved":false,"is_disabled":true,"rental_uris":{"android":"levelo://app?vid=3f2e793f-445d-48e7-aed6-2086ced939b2","ios":"levelo://app?vid=3f2e793f-445d-48e7-aed6-2086ced939b2"},"vehicle_type_id":"4","last_reported":1731953613,"current_range_meters":0,"station_id":"ce4bhi12rcd13ifvqfq0","pricing_plan_id":"cebpf4jnsgd1na2vs0mg"},{"bike_id":"3d25d818-80cf-415a-996a-afc2d01ce97b","system_id":"levelo_inurba_marseille","lat":43.27789,"lon":5.40736,"is_reserved":false,"is_disabled":false,"rental_uris":{"android":"levelo://app?vid=3d25d818-80cf-415a-996a-afc2d01ce97b","ios":"levelo://app?vid=3d25d818-80cf-415a-996a-afc2d01ce97b"},"vehicle_type_id":"4","last_reported":1731953613,"current_range_meters":20400,"station_id":"ce4bhnh2rcd13ifvqgtg","pricing_plan_id":"cebpf4jnsgd1na2vs0mg"},{"bike_id":"64ed23a0-3533-4dca-8fb9-650aaf2586c1","system_id":"levelo_inurba_marseille","lat":43.31724,"lon":5.42393,"is_reserved":false,"is_disabled":false,"rental_uris":{"android":"levelo://app?vid=64ed23a0-3533-4dca-8fb9-650aaf2586c1","ios":"levelo://app?vid=64ed23a0-3533-4dca-8fb9-650aaf2586c1"},"vehicle_type_id":"4","last_reported":1731953613,"current_range_meters":10800,"station_id":"ce4bhp92rcd13ifvqhbg","pricing_plan_id":"cebpf4jnsgd1na2vs0mg"},{"bike_id":"6de483d4-b43d-4a26-b4b3-7c443078dad4","system_id":"levelo_inurba_marseille","lat":43.298789,"lon":5.389042,"is_reserved":false,"is_disabled":false,"rental_uris":{"android":"levelo://app?vid=6de483d4-b43d-4a26-b4b3-7c443078dad4","ios":"levelo://app?vid=6de483d4-b43d-4a26-b4b3-7c443078dad4"},"vehicle_type_id":"4","last_reported":1731953613,"current_range_meters":19600,"station_id":"ce4bh392rcd13ifvqdl0","pricing_plan_id":"cebpf4jnsgd1na2vs0mg"},{"bike_id":"5fbaf450-90c7-416c-a9b6-8e3b3003c75c","system_id":"levelo_inurba_marseille","lat":43.32483,"lon":5.36574,"is_reserved":false,"is_disabled":false,"rental_uris":{"android":"levelo://app?vid=5fbaf450-90c7-416c-a9b6-8e3b3003c75c","ios":"levelo://app?vid=5fbaf450-90c7-416c-a9b6-8e3b3003c75c"},"vehicle_type_id":"4","last_reported":1731953613,"current_range_meters":38800,"station_id":"ce4bhs12rcd13ifvqhvg","pricing_plan_id":"cebpf4jnsgd1na2vs0mg"},{"bike_id":"2f672a3e-037f-48fa-a067-881af3085117","system_id":"levelo_inurba_marseille","lat":43.30416,"lon":5.41289,"is_reserved":false,"is_disabled":false,"rental_uris":{"android":"levelo://app?vid=2f672a3e-037f-48fa-a067-881af3085117","ios":"levelo://app?vid=2f672a3e-037f-48fa-a067-881af3085117"},"vehicle_type_id":"4","last_reported":1731953613,"current_range_meters":17600,"station_id":"ce4bhop2rcd13ifvqh8g","pricing_plan_id":"cebpf4jnsgd1na2vs0mg"},{"bike_id":"8f9ff61b-d56a-4542-bf57-217372f154b2","system_id":"levelo_inurba_marseille","lat":43.31848,"lon":5.37561,"is_reserved":false,"is_disabled":false,"rental_uris":{"android":"levelo://app?vid=8f9ff61b-d56a-4542-bf57-217372f154b2","ios":"levelo://app?vid=8f9ff61b-d56a-4542-bf57-217372f154b2"},"vehicle_type_id":"4","last_reported":1731953613,"current_range_meters":24800,"station_id":"","pricing_plan_id":"cebpf4jnsgd1na2vs0mg"},{"bike_id":"c6fd4328-45c7-4faa-8495-b2b265c4a26a","system_id":"levelo_inurba_marseille","lat":43.30123,"lon":5.39851,"is_reserved":false,"is_disabled":false,"rental_uris":{"android":"levelo://app?vid=c6fd4328-45c7-4faa-8495-b2b265c4a26a","ios":"levelo://app?vid=c6fd4328-45c7-4faa-8495-b2b265c4a26a"},"vehicle_type_id":"4","last_reported":1731953613,"current_range_meters":4000,"station_id":"ce4bh0h2rcd13ifvqd40","pricing_plan_id":"cebpf4jnsgd1na2vs0mg"},{"bike_id":"64dbb36f-f0c2-4718-a476-4d9e6c73a06a","system_id":"levelo_inurba_marseille","lat":43.28457,"lon":5.35878,"is_reserved":false,"is_disabled":false,"rental_uris":{"android":"levelo://app?vid=64dbb36f-f0c2-4718-a476-4d9e6c73a06a","ios":"levelo://app?vid=64dbb36f-f0c2-4718-a476-4d9e6c73a06a"},"vehicle_type_id":"4","last_reported":1731953613,"current_range_meters":27200,"station_id":"ce4bhah2rcd13ifvqei0","pricing_plan_id":"cebpf4jnsgd1na2vs0mg"},{"bike_id":"8cd963a6-11bb-4010-ab6c-d38ffb5e8a33","system_id":"levelo_inurba_marseille","lat":43.28937,"lon":5.36389,"is_reserved":false,"is_disabled":false,"rental_uris":{"android":"levelo://app?vid=8cd963a6-11bb-4010-ab6c-d38ffb5e8a33","ios":"levelo://app?vid=8cd963a6-11bb-4010-ab6c-d38ffb5e8a33"},"vehicle_type_id":"4","last_reported":1731953613,"current_range_meters":37600,"station_id":"ce4bhc92rcd13ifvqetg","pricing_plan_id":"cebpf4jnsgd1na2vs0mg"},{"bike_id":"0823ce1e-3a8d-4721-be3f-8a0bc45c837b","system_id":"levelo_inurba_marseille","lat":43.26191,"lon":5.3745,"is_reserved":false,"is_disabled":false,"rental_uris":{"android":"levelo://app?vid=0823ce1e-3a8d-4721-be3f-8a0bc45c837b","ios":"levelo://app?vid=0823ce1e-3a8d-4721-be3f-8a0bc45c837b"},"vehicle_type_id":"4","last_reported":1731953613,"current_range_meters":34800,"station_id":"ce4bhgp2rcd13ifvqfc0","pricing_plan_id":"cebpf4jnsgd1na2vs0mg"},{"bike_id":"0837b417-6298-4a4d-997f-bd298ccdaa0e","system_id":"levelo_inurba_marseille","lat":43.32663,"lon":5.40986,"is_reserved":false,"is_disabled":true,"rental_uris":{"android":"levelo://app?vid=0837b417-6298-4a4d-997f-bd298ccdaa0e","ios":"levelo://app?vid=0837b417-6298-4a4d-997f-bd298ccdaa0e"},"vehicle_type_id":"4","last_reported":1731953613,"current_range_meters":34000,"station_id":"ce4bhpp2rcd13ifvqhgg","pricing_plan_id":"cebpf4jnsgd1na2vs0mg"},{"bike_id":"051d3024-a8af-4901-9ff5-5576e535e84b","system_id":"levelo_inurba_marseille","lat":43.29575,"lon":5.39959,"is_reserved":false,"is_disabled":true,"rental_uris":{"android":"levelo://app?vid=051d3024-a8af-4901-9ff5-5576e535e84b","ios":"levelo://app?vid=051d3024-a8af-4901-9ff5-5576e535e84b"},"vehicle_type_id":"4","last_reported":1731953613,"current_range_meters":0,"station_id":"ce4bh312rcd13ifvqdj0","pricing_plan_id":"cebpf4jnsgd1na2vs0mg"},{"bike_id":"5c38be46-6f0f-4983-b3bf-9cb4afc66e4e","system_id":"levelo_inurba_marseille","lat":43.26056,"lon":5.39399,"is_reserved":false,"is_disabled":true,"rental_uris":{"android":"levelo://app?vid=5c38be46-6f0f-4983-b3bf-9cb4afc66e4e","ios":"levelo://app?vid=5c38be46-6f0f-4983-b3bf-9cb4afc66e4e"},"vehicle_type_id":"4","last_reported":1731953613,"current_range_meters":800,"station_id":"ce4bhh92rcd13ifvqfj0","pricing_plan_id":"cebpf4jnsgd1na2vs0mg"},{"bike_id":"75227a65-6bed-4843-9e4b-aeedcc672218","system_id":"levelo_inurba_marseille","lat":43.27679,"lon":5.38875,"is_reserved":false,"is_disabled":false,"rental_uris":{"android":"levelo://app?vid=75227a65-6bed-4843-9e4b-aeedcc672218","ios":"levelo://app?vid=75227a65-6bed-4843-9e4b-aeedcc672218"},"vehicle_type_id":"4","last_reported":1731953613,"current_range_meters":38800,"station_id":"ce4bhi12rcd13ifvqfo0","pricing_plan_id":"cebpf4jnsgd1na2vs0mg"},{"bike_id":"121f8c61-7b63-45b5-9f2b-ef4e82809c10","system_id":"levelo_inurba_marseille","lat":43.337444,"lon":5.374475,"is_reserved":false,"is_disabled":false,"rental_uris":{"android":"levelo://app?vid=121f8c61-7b63-45b5-9f2b-ef4e82809c10","ios":"levelo://app?vid=121f8c61-7b63-45b5-9f2b-ef4e82809c10"},"vehicle_type_id":"4","last_reported":1731953613,"current_range_meters":28800,"station_id":"","pricing_plan_id":"cebpf4jnsgd1na2vs0mg"},{"bike_id":"6d6ef005-cb93-46e0-840d-7a918f81e7ff","system_id":"levelo_inurba_marseille","lat":43.29531,"lon":5.39038,"is_reserved":false,"is_disabled":false,"rental_uris":{"android":"levelo://app?vid=6d6ef005-cb93-46e0-840d-7a918f81e7ff","ios":"levelo://app?vid=6d6ef005-cb93-46e0-840d-7a918f81e7ff"},"vehicle_type_id":"4","last_reported":1731953613,"current_range_meters":38800,"station_id":"ce4bh3p2rcd13ifvqdp0","pricing_plan_id":"cebpf4jnsgd1na2vs0mg"},{"bike_id":"e03a06b6-df6d-487f-8834-4cdb03f56f47","system_id":"levelo_inurba_marseille","lat":43.28116,"lon":5.44087,"is_reserved":false,"is_disabled":true,"rental_uris":{"android":"levelo://app?vid=e03a06b6-df6d-487f-8834-4cdb03f56f47","ios":"levelo://app?vid=e03a06b6-df6d-487f-8834-4cdb03f56f47"},