{"last_updated":1725037739,"ttl":30,"version":"2.2","data":{"bikes":[{"bike_id":"d8e13c8a-48d8-4cef-811f-f5a04d7d8a26","system_id":"levelo_inurba_marseille","lat":43.312239,"lon":5.368562,"is_reserved":false,"is_disabled":false,"rental_uris":{"android":"levelo://app?vid=d8e13c8a-48d8-4cef-811f-f5a04d7d8a26","ios":"levelo://app?vid=d8e13c8a-48d8-4cef-811f-f5a04d7d8a26"},"vehicle_type_id":"4","last_reported":1725037739,"current_range_meters":27600,"station_id":"ce4bgl92rcd13ifvqbq0","pricing_plan_id":"cebpf4jnsgd1na2vs0mg"},{"bike_id":"0bf1d3a3-a6e7-4da7-b6d7-bcc9224a7dd4","system_id":"levelo_inurba_marseille","lat":43.312239,"lon":5.368562,"is_reserved":false,"is_disabled":false,"rental_uris":{"android":"levelo://app?vid=0bf1d3a3-a6e7-4da7-b6d7-bcc9224a7dd4","ios":"levelo://app?vid=0bf1d3a3-a6e7-4da7-b6d7-bcc9224a7dd4"},"vehicle_type_id":"4","last_reported":1725037739,"current_range_meters":20800,"station_id":"ce4bgl92rcd13ifvqbq0","pricing_plan_id":"cebpf4jnsgd1na2vs0mg"},{"bike_id":"adc1bc57-bb98-48bf-a631-d52ed29c77df","system_id":"levelo_inurba_marseille","lat":43.314811,"lon":5.373103,"is_reserved":false,"is_disabled":false,"rental_uris":{"android":"levelo://app?vid=adc1bc57-bb98-48bf-a631-d52ed29c77df","ios":"levelo://app?vid=adc1bc57-bb98-48bf-a631-d52ed29c77df"},"vehicle_type_id":"4","last_reported":1725037739,"current_range_meters":21200,"station_id":"ce4bgt12rcd13ifvqcd0","pricing_plan_id":"cebpf4jnsgd1na2vs0mg"},{"bike_id":"992a5919-d7cf-4173-9b52-22ac7656518d","system_id":"levelo_inurba_marseille","lat":43.305989,"lon":5.37225,"is_reserved":false,"is_disabled":false,"rental_uris":{"android":"levelo://app?vid=992a5919-d7cf-4173-9b52-22ac7656518d","ios":"levelo://app?vid=992a5919-d7cf-4173-9b52-22ac7656518d"},"vehicle_type_id":"4","last_reported":1725037739,"current_range_meters":0,"station_id":"ce4bgqh2rcd13ifvqc4g","pricing_plan_id":"cebpf4jnsgd1na2vs0mg"},{"bike_id":"9b6a80d7-785b-435b-98a1-584317cdf9a3","system_id":"levelo_inurba_marseille","lat":43.3079,"lon":5.37638,"is_reserved":false,"is_disabled":false,"rental_uris":{"android":"levelo://app?vid=9b6a80d7-785b-435b-98a1-584317cdf9a3","ios":"levelo://app?vid=9b6a80d7-785b-435b-98a1-584317cdf9a3"},"vehicle_type_id":"4","last_reported":1725037739,"current_range_meters":16000,"station_id":"ce4bgv92rcd13ifvqcq0","pricing_plan_id":"cebpf4jnsgd1na2vs0mg"},{"bike_id":"074b6f93-784c-408b-8123-782bd891a425","system_id":"levelo_inurba_marseille","lat":43.317067,"lon":5.377296,"is_reserved":false,"is_disabled":false,"rental_uris":{"android":"levelo://app?vid=074b6f93-784c-408b-8123-782bd891a425","ios":"levelo://app?vid=074b6f93-784c-408b-8123-782bd891a425"},"vehicle_type_id":"4","last_reported":1725037739,"current_range_meters":29600,"station_id":"ce4bgth2rcd13ifvqch0","pricing_plan_id":"cebpf4jnsgd1na2vs0mg"},{"bike_id":"116326d3-99b0-42d9-9e17-f6e02b0df00e","system_id":"levelo_inurba_marseille","lat":43.303046,"lon":5.368981,"is_reserved":false,"is_disabled":false,"rental_uris":{"android":"levelo://app?vid=116326d3-99b0-42d9-9e17-f6e02b0df00e","ios":"levelo://app?vid=116326d3-99b0-42d9-9e17-f6e02b0df00e"},"vehicle_type_id":"4","last_reported":1725037739,"current_range_meters":0,"station_id":"ce4bgqh2rcd13ifvqc5g","pricing_plan_id":"cebpf4jnsgd1na2vs0mg"},{"bike_id":"203da9f9-a92e-497d-a731-80e1a529d20f","system_id":"levelo_inurba_marseille","lat":43.30304,"lon":5.368987,"is_reserved":false,"is_disabled":false,"rental_uris":{"android":"levelo://app?vid=203da9f9-a92e-497d-a731-80e1a529d20f","ios":"levelo://app?vid=203da9f9-a92e-497d-a731-80e1a529d20f"},"vehicle_type_id":"4","last_reported":1725037739,"current_range_meters":0,"station_id":"ce4bgqh2rcd13ifvqc5g","pricing_plan_id":"cebpf4jnsgd1na2vs0mg"},{"bike_id":"d90d8d67-b003-4c76-994c-5d7041e20d8c","system_id":"levelo_inurba_marseille","lat":43.315289,"lon":5.380349,"is_reserved":false,"is_disabled":false,"rental_uris":{"android":"levelo://app?vid=d90d8d67-b003-4c76-994c-5d7041e20d8c","ios":"levelo://app?vid=d90d8d67-b003-4c76-994c-5d7041e20d8c"},"vehicle_type_id":"4","last_reported":1725037739,"current_range_meters":7600,"station_id":"ce4bhsp2rcd13ifvqi50","pricing_plan_id":"cebpf4jnsgd1na2vs0mg"},{"bike_id":"4d6b8e84-eb4f-4fba-8cf8-964d61b3a8f2","system_id":"levelo_inurba_marseille","lat":43.301939,"lon":5.366286,"is_reserved":false,"is_disabled":false,"rental_uris":{"android":"levelo://app?vid=4d6b8e84-eb4f-4fba-8cf8-964d61b3a8f2","ios":"levelo://app?vid=4d6b8e84-eb4f-4fba-8cf8-964d61b3a8f2"},"vehicle_type_id":"4","last_reported":1725037739,"current_range_meters":29200,"station_id":"ce4bgrh2rcd13ifvqc8g","pricing_plan_id":"cebpf4jnsgd1na2vs0mg"},{"bike_id":"d6cb750c-9aeb-47ca-a7a6-5e766bc49781","system_id":"levelo_inurba_marseille","lat":43.30189,"lon":5.36596,"is_reserved":false,"is_disabled":false,"rental_uris":{"android":"levelo://app?vid=d6cb750c-9aeb-47ca-a7a6-5e766bc49781","ios":"levelo://app?vid=d6cb750c-9aeb-47ca-a7a6-5e766bc49781"},"vehicle_type_id":"4","last_reported":1725037739,"current_range_meters":28000,"station_id":"ce4bgrh2rcd13ifvqc8g","pricing_plan_id":"cebpf4jnsgd1na2vs0mg"},{"bike_id":"07615764-9c96-40b0-8171-95c22dfb0fad","system_id":"levelo_inurba_marseille","lat":43.30179,"lon":5.36598,"is_reserved":false,"is_disabled":false,"rental_uris":{"android":"levelo://app?vid=07615764-9c96-40b0-8171-95c22dfb0fad","ios":"levelo://app?vid=07615764-9c96-40b0-8171-95c22dfb0fad"},"vehicle_type_id":"4","last_reported":1725037739,"current_range_meters":29200,"station_id":"ce4bgrh2rcd13ifvqc8g","pricing_plan_id":"cebpf4jnsgd1na2vs0mg"},{"bike_id":"abf3838f-608a-4c7b-ab46-056edef04bb7","system_id":"levelo_inurba_marseille","lat":43.308012,"lon":5.381511,"is_reserved":false,"is_disabled":false,"rental_uris":{"android":"levelo://app?vid=abf3838f-608a-4c7b-ab46-056edef04bb7","ios":"levelo://app?vid=abf3838f-608a-4c7b-ab46-056edef04bb7"},"vehicle_type_id":"4","last_reported":1725037739,"current_range_meters":0,"station_id":"ce4bgt12rcd13ifvqce0","pricing_plan_id":"cebpf4jnsgd1na2vs0mg"},{"bike_id":"d41c5442-8b12-44e9-8614-296ee11c60c7","system_id":"levelo_inurba_marseille","lat":43.308012,"lon":5.381511,"is_reserved":false,"is_disabled":false,"rental_uris":{"android":"levelo://app?vid=d41c5442-8b12-44e9-8614-296ee11c60c7","ios":"levelo://app?vid=d41c5442-8b12-44e9-8614-296ee11c60c7"},"vehicle_type_id":"4","last_reported":1725037739,"current_range_meters":4000,"station_id":"ce4bgt12rcd13ifvqce0","pricing_plan_id":"cebpf4jnsgd1na2vs0mg"},{"bike_id":"305280a0-1734-41ef-a3b9-1528ea4d6151","system_id":"levelo_inurba_marseille","lat":43.308012,"lon":5.381511,"is_reserved":false,"is_disabled":false,"rental_uris":{"android":"levelo://app?vid=305280a0-1734-41ef-a3b9-1528ea4d6151","ios":"levelo://app?vid=305280a0-1734-41ef-a3b9-1528ea4d6151"},"vehicle_type_id":"4","last_reported":1725037739,"current_range_meters":2800,"station_id":"ce4bgt12rcd13ifvqce0","pricing_plan_id":"cebpf4jnsgd1na2vs0mg"},{"bike_id":"2dac1db6-c661-432a-9a32-febadf78b9a3","system_id":"levelo_inurba_marseille","lat":43.304606,"lon":5.379026,"is_reserved":false,"is_disabled":false,"rental_uris":{"android":"levelo://app?vid=2dac1db6-c661-432a-9a32-febadf78b9a3","ios":"levelo://app?vid=2dac1db6-c661-432a-9a32-febadf78b9a3"},"vehicle_type_id":"4","last_reported":1725037739,"current_range_meters":0,"station_id":"ce4bgup2rcd13ifvqcn0","pricing_plan_id":"cebpf4jnsgd1na2vs0mg"},{"bike_id":"dc2b64dc-8ff1-495e-bf30-7afc9fa0d314","system_id":"levelo_inurba_marseille","lat":43.304606,"lon":5.379026,"is_reserved":false,"is_disabled":false,"rental_uris":{"android":"levelo://app?vid=dc2b64dc-8ff1-495e-bf30-7afc9fa0d314","ios":"levelo://app?vid=dc2b64dc-8ff1-495e-bf30-7afc9fa0d314"},"vehicle_type_id":"4","last_reported":1725037739,"current_range_meters":10800,"station_id":"ce4bgup2rcd13ifvqcn0","pricing_plan_id":"cebpf4jnsgd1na2vs0mg"},{"bike_id":"4b41e810-9b44-4100-8d90-d15cb8bfa2a1","system_id":"levelo_inurba_marseille","lat":43.30458,"lon":5.37905,"is_reserved":false,"is_disabled":false,"rental_uris":{"android":"levelo://app?vid=4b41e810-9b44-4100-8d90-d15cb8bfa2a1","ios":"levelo://app?vid=4b41e810-9b44-4100-8d90-d15cb8bfa2a1"},"vehicle_type_id":"4","last_reported":1725037739,"current_range_meters":2000,"station_id":"ce4bgup2rcd13ifvqcn0","pricing_plan_id":"cebpf4jnsgd1na2vs0mg"},{"bike_id":"315bc1a1-a474-42f3-b625-90100685ffbd","system_id":"levelo_inurba_marseille","lat":43.32482,"lon":5.36556,"is_reserved":false,"is_disabled":false,"rental_uris":{"android":"levelo://app?vid=315bc1a1-a474-42f3-b625-90100685ffbd","ios":"levelo://app?vid=315bc1a1-a474-42f3-b625-90100685ffbd"},"vehicle_type_id":"4","last_reported":1725037739,"current_range_meters":15200,"station_id":"ce4bhs12rcd13ifvqhvg","pricing_plan_id":"cebpf4jnsgd1na2vs0mg"},{"bike_id":"42015620-f845-4c8a-8f04-ecec86547495","system_id":"levelo_inurba_marseille","lat":43.302784,"lon":5.377158,"is_reserved":false,"is_disabled":false,"rental_uris":{"android":"levelo://app?vid=42015620-f845-4c8a-8f04-ecec86547495","ios":"levelo://app?vid=42015620-f845-4c8a-8f04-ecec86547495"},"vehicle_type_id":"4","last_reported":1725037739,"current_range_meters":28000,"station_id":"ce4bguh2rcd13ifvqcj0","pricing_plan_id":"cebpf4jnsgd1na2vs0mg"},{"bike_id":"fd85556f-543e-4379-8a1e-0ed6c22ebb0c","system_id":"levelo_inurba_marseille","lat":43.302784,"lon":5.377158,"is_reserved":false,"is_disabled":false,"rental_uris":{"android":"levelo://app?vid=fd85556f-543e-4379-8a1e-0ed6c22ebb0c","ios":"levelo://app?vid=fd85556f-543e-4379-8a1e-0ed6c22ebb0c"},"vehicle_type_id":"4","last_reported":1725037739,"current_range_meters":8800,"station_id":"ce4bguh2rcd13ifvqcj0","pricing_plan_id":"cebpf4jnsgd1na2vs0mg"},{"bike_id":"edcf68ad-b341-46d3-bf85-1a5a87dc637c","system_id":"levelo_inurba_marseille","lat":43.310804,"lon":5.38359,"is_reserved":false,"is_disabled":false,"rental_uris":{"android":"levelo://app?vid=edcf68ad-b341-46d3-bf85-1a5a87dc637c","ios":"levelo://app?vid=edcf68ad-b341-46d3-bf85-1a5a87dc637c"},"vehicle_type_id":"4","last_reported":1725037739,"current_range_meters":10000,"station_id":"ce4bgv92rcd13ifvqcr0","pricing_plan_id":"cebpf4jnsgd1na2vs0mg"},{"bike_id":"ebc2458d-520a-4a8b-a119-ac7c99e9684e","system_id":"levelo_inurba_marseille","lat":43.302784,"lon":5.377158,"is_reserved":false,"is_disabled":false,"rental_uris":{"android":"levelo://app?vid=ebc2458d-520a-4a8b-a119-ac7c99e9684e","ios":"levelo://app?vid=ebc2458d-520a-4a8b-a119-ac7c99e9684e"},"vehicle_type_id":"4","last_reported":1725037739,"current_range_meters":3600,"station_id":"ce4bguh2rcd13ifvqcj0","pricing_plan_id":"cebpf4jnsgd1na2vs0mg"},{"bike_id":"409282a6-48d8-465b-8064-a7141a01c9eb","system_id":"levelo_inurba_marseille","lat":43.301429,"lon":5.37413,"is_reserved":false,"is_disabled":false,"rental_uris":{"android":"levelo://app?vid=409282a6-48d8-465b-8064-a7141a01c9eb","ios":"levelo://app?vid=409282a6-48d8-465b-8064-a7141a01c9eb"},"vehicle_type_id":"4","last_reported":1725037739,"current_range_meters":15200,"station_id":"ce4bgs92rcd13ifvqcc0","pricing_plan_id":"cebpf4jnsgd1na2vs0mg"},{"bike_id":"6207c27f-7267-4f69-97f7-714a80cfa293","system_id":"levelo_inurba_marseille","lat":43.31984,"lon":5.38146,"is_reserved":false,"is_disabled":false,"rental_uris":{"android":"levelo://app?vid=6207c27f-7267-4f69-97f7-714a80cfa293","ios":"levelo://app?vid=6207c27f-7267-4f69-97f7-714a80cfa293"},"vehicle_type_id":"4","last_reported":1725037739,"current_range_meters":0,"station_id":"","pricing_plan_id":"cebpf4jnsgd1na2vs0mg"},{"bike_id":"54f25726-066a-4f5f-afbf-8ed7cb1c83f0","system_id":"levelo_inurba_marseille","lat":43.319935,"lon":5.381699,"is_reserved":false,"is_disabled":false,"rental_uris":{"android":"levelo://app?vid=54f25726-066a-4f5f-afbf-8ed7cb1c83f0","ios":"levelo://app?vid=54f25726-066a-4f5f-afbf-8ed7cb1c83f0"},"vehicle_type_id":"4","last_reported":1725037739,"current_range_meters":12800,"station_id":"ce4bhr12rcd13ifvqhpg","pricing_plan_id":"cebpf4jnsgd1na2vs0mg"},{"bike_id":"fd055988-529d-4832-8f1d-5f02d87ca806","system_id":"levelo_inurba_marseille","lat":43.32002,"lon":5.38164,"is_reserved":false,"is_disabled":false,"rental_uris":{"android":"levelo://app?vid=fd055988-529d-4832-8f1d-5f02d87ca806","ios":"levelo://app?vid=fd055988-529d-4832-8f1d-5f02d87ca806"},"vehicle_type_id":"4","last_reported":1725037739,"current_range_meters":13600,"station_id":"ce4bhr12rcd13ifvqhpg","pricing_plan_id":"cebpf4jnsgd1na2vs0mg"},{"bike_id":"8383a689-6acd-4dcd-b52f-f9a0a720bdd4","system_id":"levelo_inurba_marseille","lat":43.313571,"lon":5.384829,"is_reserved":false,"is_disabled":false,"rental_uris":{"android":"levelo://app?vid=8383a689-6acd-4dcd-b52f-f9a0a720bdd4","ios":"levelo://app?vid=8383a689-6acd-4dcd-b52f-f9a0a720bdd4"},"vehicle_type_id":"4","last_reported":1725037739,"current_range_meters":1200,"station_id":"ce4bgt92rcd13ifvqcf0","pricing_plan_id":"cebpf4jnsgd1na2vs0mg"},{"bike_id":"3940a836-1374-449e-aae7-70611504e292","system_id":"levelo_inurba_marseille","lat":43.29986,"lon":5.3718,"is_reserved":false,"is_disabled":false,"rental_uris":{"android":"levelo://app?vid=3940a836-1374-449e-aae7-70611504e292","ios":"levelo://app?vid=3940a836-1374-449e-aae7-70611504e292"},"vehicle_type_id":"4","last_reported":1725037739,"current_range_meters":0,"station_id":"ce4bgr92rcd13ifvqc7g","pricing_plan_id":"cebpf4jnsgd1na2vs0mg"},{"bike_id":"fc63ada3-9d91-422a-ae81-c743f7e89c1d","system_id":"levelo_inurba_marseille","lat":43.299222,"lon":5.365554,"is_reserved":false,"is_disabled":false,"rental_uris":{"android":"levelo://app?vid=fc63ada3-9d91-422a-ae81-c743f7e89c1d","ios":"levelo://app?vid=fc63ada3-9d91-422a-ae81-c743f7e89c1d"},"vehicle_type_id":"4","last_reported":1725037739,"current_range_meters":17600,"station_id":"ce4bgm92rcd13ifvqbr0","pricing_plan_id":"cebpf4jnsgd1na2vs0mg"},{"bike_id":"ddca04cd-c574-474e-ad7a-a99454cd9736","system_id":"levelo_inurba_marseille","lat":43.29997,"lon":5.37589,"is_reserved":false,"is_disabled":false,"rental_uris":{"android":"levelo://app?vid=ddca04cd-c574-474e-ad7a-a99454cd9736","ios":"levelo://app?vid=ddca04cd-c574-474e-ad7a-a99454cd9736"},"vehicle_type_id":"4","last_reported":1725037739,"current_range_meters":15200,"station_id":"","pricing_plan_id":"cebpf4jnsgd1na2vs0mg"},{"bike_id":"9c2d4af0-0ca6-4d55-a178-c7e4564859df","system_id":"levelo_inurba_marseille","lat":43.298433,"lon":5.362774,"is_reserved":false,"is_disabled":false,"rental_uris":{"android":"levelo://app?vid=9c2d4af0-0ca6-4d55-a178-c7e4564859df","ios":"levelo://app?vid=9c2d4af0-0ca6-4d55-a178-c7e4564859df"},"vehicle_type_id":"4","last_reported":1725037739,"current_range_meters":4000,"station_id":"ce4bgpp2rcd13ifvqc3g","pricing_plan_id":"cebpf4jnsgd1na2vs0mg"},{"bike_id":"759c35ad-bc14-4d33-a73c-6dd016bba711","system_id":"levelo_inurba_marseille","lat":43.305364,"lon":5.384119,"is_reserved":false,"is_disabled":false,"rental_uris":{"android":"levelo://app?vid=759c35ad-bc14-4d33-a73c-6dd016bba711","ios":"levelo://app?vid=759c35ad-bc14-4d33-a73c-6dd016bba711"},"vehicle_type_id":"4","last_reported":1725037739,"current_range_meters":9600,"station_id":"ce4bgg92rcd13ifvqb30","pricing_plan_id":"cebpf4jnsgd1na2vs0mg"},{"bike_id":"8c13c5e6-fdc7-474b-85a0-7c9380933d57","system_id":"levelo_inurba_marseille","lat":43.313571,"lon":5.384829,"is_reserved":false,"is_disabled":false,"rental_uris":{"android":"levelo://app?vid=8c13c5e6-fdc7-474b-85a0-7c9380933d57","ios":"levelo://app?vid=8c13c5e6-fdc7-474b-85a0-7c9380933d57"},"vehicle_type_id":"4","last_reported":1725037739,"current_range_meters":16800,"station_id":"ce4bgt92rcd13ifvqcf0","pricing_plan_id":"cebpf4jnsgd1na2vs0mg"},{"bike_id":"c1e522b0-789e-4afd-8a31-64bc16347500","system_id":"levelo_inurba_marseille","lat":43.299243,"lon":5.374807,"is_reserved":false,"is_disabled":false,"rental_uris":{"android":"levelo://app?vid=c1e522b0-789e-4afd-8a31-64bc16347500","ios":"levelo://app?vid=c1e522b0-789e-4afd-8a31-64bc16347500"},"vehicle_type_id":"4","last_reported":1725037739,"current_range_meters":12400,"station_id":"ce4bgjh2rcd13ifvqbg0","pricing_plan_id":"cebpf4jnsgd1na2vs0mg"},{"bike_id":"290db282-1a4f-4729-8e60-226d080cda0d","system_id":"levelo_inurba_marseille","lat":43.299243,"lon":5.374807,"is_reserved":false,"is_disabled":false,"rental_uris":{"android":"levelo://app?vid=290db282-1a4f-4729-8e60-226d080cda0d","ios":"levelo://app?vid=290db282-1a4f-4729-8e60-226d080cda0d"},"vehicle_type_id":"4","last_reported":1725037739,"current_range_meters":19200,"station_id":"ce4bgjh2rcd13ifvqbg0","pricing_plan_id":"cebpf4jnsgd1na2vs0mg"},{"bike_id":"71695c61-a471-4f1d-b218-cd0d7402bcc5","system_id":"levelo_inurba_marseille","lat":43.299243,"lon":5.37481,"is_reserved":false,"is_disabled":false,"rental_uris":{"android":"levelo://app?vid=71695c61-a471-4f1d-b218-cd0d7402bcc5","ios":"levelo://app?vid=71695c61-a471-4f1d-b218-cd0d7402bcc5"},"vehicle_type_id":"4","last_reported":1725037739,"current_range_meters":10000,"station_id":"ce4bgjh2rcd13ifvqbg0","pricing_plan_id":"cebpf4jnsgd1na2vs0mg"},{"bike_id":"72da0c51-2762-4253-bb50-7fca033552a3","system_id":"levelo_inurba_marseille","lat":43.299243,"lon":5.37481,"is_reserved":false,"is_disabled":false,"rental_uris":{"android":"levelo://app?vid=72da0c51-2762-4253-bb50-7fca033552a3","ios":"levelo://app?vid=72da0c51-2762-4253-bb50-7fca033552a3"},"vehicle_type_id":"4","last_reported":1725037739,"current_range_meters":14800,"station_id":"ce4bgjh2rcd13ifvqbg0","pricing_plan_id":"cebpf4jnsgd1na2vs0mg"},{"bike_id":"a29305bf-d8fb-4b8d-a6ac-4dbdf6cec617","system_id":"levelo_inurba_marseille","lat":43.299243,"lon":5.37481,"is_reserved":false,"is_disabled":false,"rental_uris":{"android":"levelo://app?vid=a29305bf-d8fb-4b8d-a6ac-4dbdf6cec617","ios":"levelo://app?vid=a29305bf-d8fb-4b8d-a6ac-4dbdf6cec617"},"vehicle_type_id":"4","last_reported":1725037739,"current_range_meters":1200,"station_id":"ce4bgjh2rcd13ifvqbg0","pricing_plan_id":"cebpf4jnsgd1na2vs0mg"},{"bike_id":"1a7d42c0-4b1b-4092-a1bd-a408f298d6e4","system_id":"levelo_inurba_marseille","lat":43.301417,"lon":5.3809,"is_reserved":false,"is_disabled":false,"rental_uris":{"android":"levelo://app?vid=1a7d42c0-4b1b-4092-a1bd-a408f298d6e4","ios":"levelo://app?vid=1a7d42c0-4b1b-4092-a1bd-a408f298d6e4"},"vehicle_type_id":"4","last_reported":1725037739,"current_range_meters":6000,"station_id":"ce4bgjp2rcd13ifvqbh0","pricing_plan_id":"cebpf4jnsgd1na2vs0mg"},{"bike_id":"cb73b66e-dfa6-4f93-80b9-a70c2f549e78","system_id":"levelo_inurba_marseille","lat":43.322917,"lon":5.382433,"is_reserved":false,"is_disabled":false,"rental_uris":{"android":"levelo://app?vid=cb73b66e-dfa6-4f93-80b9-a70c2f549e78","ios":"levelo://app?vid=cb73b66e-dfa6-4f93-80b9-a70c2f549e78"},"vehicle_type_id":"4","last_reported":1725037739,"current_range_meters":23600,"station_id":"ce4bhr12rcd13ifvqhqg","pricing_plan_id":"cebpf4jnsgd1na2vs0mg"},{"bike_id":"1a7a1539-a8a4-46be-9a17-2c31df071044","system_id":"levelo_inurba_marseille","lat":43.322872,"lon":5.382756,"is_reserved":false,"is_disabled":false,"rental_uris":{"android":"levelo://app?vid=1a7a1539-a8a4-46be-9a17-2c31df071044","ios":"levelo://app?vid=1a7a1539-a8a4-46be-9a17-2c31df071044"},"vehicle_type_id":"4","last_reported":1725037739,"current_range_meters":26000,"station_id":"ce4bhr12rcd13ifvqhqg","pricing_plan_id":"cebpf4jnsgd1na2vs0mg"},{"bike_id":"e4e931bb-0e96-4d51-b128-d34334c25756","system_id":"levelo_inurba_marseille","lat":43.322872,"lon":5.382756,"is_reserved":false,"is_disabled":false,"rental_uris":{"android":"levelo://app?vid=e4e931bb-0e96-4d51-b128-d34334c25756","ios":"levelo://app?vid=e4e931bb-0e96-4d51-b128-d34334c25756"},"vehicle_type_id":"4","last_reported":1725037739,"current_range_meters":12400,"station_id":"ce4bhr12rcd13ifvqhqg","pricing_plan_id":"cebpf4jnsgd1na2vs0mg"},{"bike_id":"e8795946-437f-4989-8fba-f79d5edd8eed","system_id":"levelo_inurba_marseille","lat":43.322872,"lon":5.382756,"is_reserved":false,"is_disabled":false,"rental_uris":{"android":"levelo://app?vid=e8795946-437f-4989-8fba-f79d5edd8eed","ios":"levelo://app?vid=e8795946-437f-4989-8fba-f79d5edd8eed"},"vehicle_type_id":"4","last_reported":1725037739,"current_range_meters":16000,"station_id":"ce4bhr12rcd13ifvqhqg","pricing_plan_id":"cebpf4jnsgd1na2vs0mg"},{"bike_id":"bd50c2cd-61f4-4844-91f2-be91e6379ab3","system_id":"levelo_inurba_marseille","lat":43.322872,"lon":5.382756,"is_reserved":false,"is_disabled":false,"rental_uris":{"android":"levelo://app?vid=bd50c2cd-61f4-4844-91f2-be91e6379ab3","ios":"levelo://app?vid=bd50c2cd-61f4-4844-91f2-be91e6379ab3"},"vehicle_type_id":"4","last_reported":1725037739,"current_range_meters":2000,"station_id":"ce4bhr12rcd13ifvqhqg","pricing_plan_id":"cebpf4jnsgd1na2vs0mg"},{"bike_id":"80f79607-950d-4368-bad6-c2365837a4d3","system_id":"levelo_inurba_marseille","lat":43.3229,"lon":5.38272,"is_reserved":false,"is_disabled":false,"rental_uris":{"android":"levelo://app?vid=80f79607-950d-4368-bad6-c2365837a4d3","ios":"levelo://app?vid=80f79607-950d-4368-bad6-c2365837a4d3"},"vehicle_type_id":"4","last_reported":1725037739,"current_range_meters":0,"station_id":"ce4bhr12rcd13ifvqhqg","pricing_plan_id":"cebpf4jnsgd1na2vs0mg"},{"bike_id":"c043eead-cae0-4dd3-a355-dfe09c049ec9","system_id":"levelo_inurba_marseille","lat":43.297163,"lon":5.365866,"is_reserved":false,"is_disabled":false,"rental_uris":{"android":"levelo://app?vid=c043eead-cae0-4dd3-a355-dfe09c049ec9","ios":"levelo://app?vid=c043eead-cae0-4dd3-a355-dfe09c049ec9"},"vehicle_type_id":"4","last_reported":1725037739,"current_range_meters":29600,"station_id":"ce4bgn12rcd13ifvqbt0","pricing_plan_id":"cebpf4jnsgd1na2vs0mg"},{"bike_id":"5f0e73b2-d1b0-4341-9825-94a0496f2c48","system_id":"levelo_inurba_marseille","lat":43.297163,"lon":5.365866,"is_reserved":false,"is_disabled":false,"rental_uris":{"android":"levelo://app?vid=5f0e73b2-d1b0-4341-9825-94a0496f2c48","ios":"levelo://app?vid=5f0e73b2-d1b0-4341-9825-94a0496f2c48"},"vehicle_type_id":"4","last_reported":1725037739,"current_range_meters":30400,"station_id":"ce4bgn12rcd13ifvqbt0","pricing_plan_id":"cebpf4jnsgd1na2vs0mg"},{"bike_id":"f80cfea7-0989-463e-af6c-8edcb451d63a","system_id":"levelo_inurba_marseille","lat":43.29629,"lon":5.367481,"is_reserved":false,"is_disabled":false,"rental_uris":{"android":"levelo://app?vid=f80cfea7-0989-463e-af6c-8edcb451d63a","ios":"levelo://app?vid=f80cfea7-0989-463e-af6c-8edcb451d63a"},"vehicle_type_id":"4","last_reported":1725037739,"current_range_meters":14800,"station_id":"","pricing_plan_id":"cebpf4jnsgd1na2vs0mg"},{"bike_id":"c8ea7346-a9de-4ebe-9e25-4d0c3cd531af","system_id":"levelo_inurba_marseille","lat":43.29622,"lon":5.37154,"is_reserved":false,"is_disabled":false,"rental_uris":{"android":"levelo://app?vid=c8ea7346-a9de-4ebe-9e25-4d0c3cd531af","ios":"levelo://app?vid=c8ea7346-a9de-4ebe-9e25-4d0c3cd531af"},"vehicle_type_id":"4","last_reported":1725037739,"current_range_meters":2000,"station_id":"ce4bgnh2rcd13ifvqc0g","pricing_plan_id":"cebpf4jnsgd1na2vs0mg"},{"bike_id":"ee642e67-9795-4908-8ed6-69943181c7b8","system_id":"levelo_inurba_marseille","lat":43.29573,"lon":5.367355,"is_reserved":false,"is_disabled":false,"rental_uris":{"android":"levelo://app?vid=ee642e67-9795-4908-8ed6-69943181c7b8","ios":"levelo://app?vid=ee642e67-9795-4908-8ed6-69943181c7b8"},"vehicle_type_id":"4","last_reported":1725037739,"current_range_meters":0,"station_id":"ce4bgph2rcd13ifvqc2g","pricing_plan_id":"cebpf4jnsgd1na2vs0mg"},{"bike_id":"2d391218-36a9-415b-a044-ac033016b29b","system_id":"levelo_inurba_marseille","lat":43.29908,"lon":5.38135,"is_reserved":false,"is_disabled":false,"rental_uris":{"android":"levelo://app?vid=2d391218-36a9-415b-a044-ac033016b29b","ios":"levelo://app?vid=2d391218-36a9-415b-a044-ac033016b29b"},"vehicle_type_id":"4","last_reported":1725037739,"current_range_meters":12000,"station_id":"ce4bgj12rcd13ifvqbc0","pricing_plan_id":"cebpf4jnsgd1na2vs0mg"},{"bike_id":"bb2197af-6258-4548-bfa6-61e2583f8c8b","system_id":"levelo_inurba_marseille","lat":43.309589,"lon":5.390258,"is_reserved":false,"is_disabled":false,"rental_uris":{"android":"levelo://app?vid=bb2197af-6258-4548-bfa6-61e2583f8c8b","ios":"levelo://app?vid=bb2197af-6258-4548-bfa6-61e2583f8c8b"},"vehicle_type_id":"4","last_reported":1725037739,"current_range_meters":11600,"station_id":"ce4bgup2rcd13ifvqco0","pricing_plan_id":"cebpf4jnsgd1na2vs0mg"},{"bike_id":"038159ab-c33c-4480-8d18-7ef2004eac75","system_id":"levelo_inurba_marseille","lat":43.309589,"lon":5.390258,"is_reserved":false,"is_disabled":false,"rental_uris":{"android":"levelo://app?vid=038159ab-c33c-4480-8d18-7ef2004eac75","ios":"levelo://app?vid=038159ab-c33c-4480-8d18-7ef2004eac75"},"vehicle_type_id":"4","last_reported":1725037739,"current_range_meters":16400,"station_id":"ce4bgup2rcd13ifvqco0","pricing_plan_id":"cebpf4jnsgd1na2vs0mg"},{"bike_id":"ad43ca1b-6496-492a-9dd8-6dd67c551272","system_id":"levelo_inurba_marseille","lat":43.309537,"lon":5.390253,"is_reserved":false,"is_disabled":false,"rental_uris":{"android":"levelo://app?vid=ad43ca1b-6496-492a-9dd8-6dd67c551272","ios":"levelo://app?vid=ad43ca1b-6496-492a-9dd8-6dd67c551272"},"vehicle_type_id":"4","last_reported":1725037739,"current_range_meters":27600,"station_id":"ce4bgup2rcd13ifvqco0","pricing_plan_id":"cebpf4jnsgd1na2vs0mg"},{"bike_id":"74984e22-0963-4234-940d-be1a26ed5e22","system_id":"levelo_inurba_marseille","lat":43.30957,"lon":5.39028,"is_reserved":false,"is_disabled":false,"rental_uris":{"android":"levelo://app?vid=74984e22-0963-4234-940d-be1a26ed5e22","ios":"levelo://app?vid=74984e22-0963-4234-940d-be1a26ed5e22"},"vehicle_type_id":"4","last_reported":1725037739,"current_range_meters":15200,"station_id":"ce4bgup2rcd13ifvqco0","pricing_plan_id":"cebpf4jnsgd1na2vs0mg"},{"bike_id":"6c8eeba7-4a14-4115-a0a7-9a2437c62588","system_id":"levelo_inurba_marseille","lat":43.309589,"lon":5.390258,"is_reserved":false,"is_disabled":false,"rental_uris":{"android":"levelo://app?vid=6c8eeba7-4a14-4115-a0a7-9a2437c62588","ios":"levelo://app?vid=6c8eeba7-4a14-4115-a0a7-9a2437c62588"},"vehicle_type_id":"4","last_reported":1725037739,"current_range_meters":6400,"station_id":"ce4bgup2rcd13ifvqco0","pricing_plan_id":"cebpf4jnsgd1na2vs0mg"},{"bike_id":"b714e736-3cc6-461d-b8d3-071e1a4f6a89","system_id":"levelo_inurba_marseille","lat":43.30946,"lon":5.39027,"is_reserved":false,"is_disabled":false,"rental_uris":{"android":"levelo://app?vid=b714e736-3cc6-461d-b8d3-071e1a4f6a89","ios":"levelo://app?vid=b714e736-3cc6-461d-b8d3-071e1a4f6a89"},"vehicle_type_id":"4","last_reported":1725037739,"current_range_meters":6400,"station_id":"ce4bgup2rcd13ifvqco0","pricing_plan_id":"cebpf4jnsgd1na2vs0mg"},{"bike_id":"bc282c50-24a3-459b-8414-0ca889fcd40f","system_id":"levelo_inurba_marseille","lat":43.309589,"lon":5.390258,"is_reserved":false,"is_disabled":false,"rental_uris":{"android":"levelo://app?vid=bc282c50-24a3-459b-8414-0ca889fcd40f","ios":"levelo://app?vid=bc282c50-24a3-459b-8414-0ca889fcd40f"},"vehicle_type_id":"4","last_reported":1725037739,"current_range_meters":30400,"station_id":"ce4bgup2rcd13ifvqco0","pricing_plan_id":"cebpf4jnsgd1na2vs0mg"},{"bike_id":"472a0ebc-3e5c-421e-bbb4-7dfa793c12f2","system_id":"levelo_inurba_marseille","lat":43.309589,"lon":5.390258,"is_reserved":false,"is_disabled":false,"rental_uris":{"android":"levelo://app?vid=472a0ebc-3e5c-421e-bbb4-7dfa793c12f2","ios":"levelo://app?vid=472a0ebc-3e5c-421e-bbb4-7dfa793c12f2"},"vehicle_type_id":"4","last_reported":1725037739,"current_range_meters":7200,"station_id":"ce4bgup2rcd13ifvqco0","pricing_plan_id":"cebpf4jnsgd1na2vs0mg"},{"bike_id":"0a233a40-4eff-4aad-a925-d3a15f4be492","system_id":"levelo_inurba_marseille","lat":43.309589,"lon":5.390258,"is_reserved":false,"is_disabled":false,"rental_uris":{"android":"levelo://app?vid=0a233a40-4eff-4aad-a925-d3a15f4be492","ios":"levelo://app?vid=0a233a40-4eff-4aad-a925-d3a15f4be492"},"vehicle_type_id":"4","last_reported":1725037739,"current_range_meters":11200,"station_id":"ce4bgup2rcd13ifvqco0","pricing_plan_id":"cebpf4jnsgd1na2vs0mg"},{"bike_id":"30428259-555e-470f-be3f-0b4e1229a9c4","system_id":"levelo_inurba_marseille","lat":43.309589,"lon":5.390258,"is_reserved":false,"is_disabled":false,"rental_uris":{"android":"levelo://app?vid=30428259-555e-470f-be3f-0b4e1229a9c4","ios":"levelo://app?vid=30428259-555e-470f-be3f-0b4e1229a9c4"},"vehicle_type_id":"4","last_reported":1725037739,"current_range_meters":14800,"station_id":"ce4bgup2rcd13ifvqco0","pricing_plan_id":"cebpf4jnsgd1na2vs0mg"},{"bike_id":"14399461-dee1-41f3-99e9-0eba9bc68bbf","system_id":"levelo_inurba_marseille","lat":43.30952,"lon":5.39033,"is_reserved":false,"is_disabled":false,"rental_uris":{"android":"levelo://app?vid=14399461-dee1-41f3-99e9-0eba9bc68bbf","ios":"levelo://app?vid=14399461-dee1-41f3-99e9-0eba9bc68bbf"},"vehicle_type_id":"4","last_reported":1725037739,"current_range_meters":28000,"station_id":"ce4bgup2rcd13ifvqco0","pricing_plan_id":"cebpf4jnsgd1na2vs0mg"},{"bike_id":"1ce25cf8-3827-41ca-98da-ee19fb0f21b9","system_id":"levelo_inurba_marseille","lat":43.309589,"lon":5.390258,"is_reserved":false,"is_disabled":false,"rental_uris":{"android":"levelo://app?vid=1ce25cf8-3827-41ca-98da-ee19fb0f21b9","ios":"levelo://app?vid=1ce25cf8-3827-41ca-98da-ee19fb0f21b9"},"vehicle_type_id":"4","last_reported":1725037739,"current_range_meters":13200,"station_id":"ce4bgup2rcd13ifvqco0","pricing_plan_id":"cebpf4jnsgd1na2vs0mg"},{"bike_id":"351ba214-71f0-4aaf-aa09-8b2706983648","system_id":"levelo_inurba_marseille","lat":43.30955,"lon":5.39037,"is_reserved":false,"is_disabled":false,"rental_uris":{"android":"levelo://app?vid=351ba214-71f0-4aaf-aa09-8b2706983648","ios":"levelo://app?vid=351ba214-71f0-4aaf-aa09-8b2706983648"},"vehicle_type_id":"4","last_reported":1725037739,"current_range_meters":3200,"station_id":"ce4bgup2rcd13ifvqco0","pricing_plan_id":"cebpf4jnsgd1na2vs0mg"},{"bike_id":"0f8c4a56-8319-4f02-88d3-e75defc91d29","system_id":"levelo_inurba_marseille","lat":43.3095,"lon":5.39036,"is_reserved":false,"is_disabled":false,"rental_uris":{"android":"levelo://app?vid=0f8c4a56-8319-4f02-88d3-e75defc91d29","ios":"levelo://app?vid=0f8c4a56-8319-4f02-88d3-e75defc91d29"},"vehicle_type_id":"4","last_reported":1725037739,"current_range_meters":19600,"station_id":"ce4bgup2rcd13ifvqco0","pricing_plan_id":"cebpf4jnsgd1na2vs0mg"},{"bike_id":"91c92604-f50a-42d1-a702-9047e0dec646","system_id":"levelo_inurba_marseille","lat":43.30956,"lon":5.39041,"is_reserved":false,"is_disabled":false,"rental_uris":{"android":"levelo://app?vid=91c92604-f50a-42d1-a702-9047e0dec646","ios":"levelo://app?vid=91c92604-f50a-42d1-a702-9047e0dec646"},"vehicle_type_id":"4","last_reported":1725037739,"current_range_meters":18800,"station_id":"ce4bgup2rcd13ifvqco0","pricing_plan_id":"cebpf4jnsgd1na2vs0mg"},{"bike_id":"9d5c0982-9707-4643-ab46-42c8a140ce21","system_id":"levelo_inurba_marseille","lat":43.309589,"lon":5.390258,"is_reserved":false,"is_disabled":false,"rental_uris":{"android":"levelo://app?vid=9d5c0982-9707-4643-ab46-42c8a140ce21","ios":"levelo://app?vid=9d5c0982-9707-4643-ab46-42c8a140ce21"},"vehicle_type_id":"4","last_reported":1725037739,"current_range_meters":18000,"station_id":"ce4bgup2rcd13ifvqco0","pricing_plan_id":"cebpf4jnsgd1na2vs0mg"},{"bike_id":"f8f8d60e-6312-4d18-b045-29eb3d14d05d","system_id":"levelo_inurba_marseille","lat":43.309589,"lon":5.390258,"is_reserved":false,"is_disabled":false,"rental_uris":{"android":"levelo://app?vid=f8f8d60e-6312-4d18-b045-29eb3d14d05d","ios":"levelo://app?vid=f8f8d60e-6312-4d18-b045-29eb3d14d05d"},"vehicle_type_id":"4","last_reported":1725037739,"current_range_meters":3600,"station_id":"ce4bgup2rcd13ifvqco0","pricing_plan_id":"cebpf4jnsgd1na2vs0mg"},{"bike_id":"ad945acc-8a7a-4d10-adcd-5b3bd9ad4d5e","system_id":"levelo_inurba_marseille","lat":43.30948,"lon":5.39045,"is_reserved":false,"is_disabled":false,"rental_uris":{"android":"levelo://app?vid=ad945acc-8a7a-4d10-adcd-5b3bd9ad4d5e","ios":"levelo://app?vid=ad945acc-8a7a-4d10-adcd-5b3bd9ad4d5e"},"vehicle_type_id":"4","last_reported":1725037739,"current_range_meters":4000,"station_id":"ce4bgup2rcd13ifvqco0","pricing_plan_id":"cebpf4jnsgd1na2vs0mg"},{"bike_id":"5a39bd97-927b-4461-bc7f-7bd6993e409a","system_id":"levelo_inurba_marseille","lat":43.29577,"lon":5.37509,"is_reserved":false,"is_disabled":false,"rental_uris":{"android":"levelo://app?vid=5a39bd97-927b-4461-bc7f-7bd6993e409a","ios":"levelo://app?vid=5a39bd97-927b-4461-bc7f-7bd6993e409a"},"vehicle_type_id":"4","last_reported":1725037739,"current_range_meters":10000,"station_id":"ce4bgh92rcd13ifvqb50","pricing_plan_id":"cebpf4jnsgd1na2vs0mg"},{"bike_id":"8a8887de-5c7d-4b1c-91b2-78e9c920b48d","system_id":"levelo_inurba_marseille","lat":43.295748,"lon":5.37522,"is_reserved":false,"is_disabled":false,"rental_uris":{"android":"levelo://app?vid=8a8887de-5c7d-4b1c-91b2-78e9c920b48d","ios":"levelo://app?vid=8a8887de-5c7d-4b1c-91b2-78e9c920b48d"},"vehicle_type_id":"4","last_reported":1725037739,"current_range_meters":29200,"station_id":"ce4bgh92rcd13ifvqb50","pricing_plan_id":"cebpf4jnsgd1na2vs0mg"},{"bike_id":"e1d28adb-41a5-4a48-be1c-1f235d958ba7","system_id":"levelo_inurba_marseille","lat":43.296277,"lon":5.377108,"is_reserved":false,"is_disabled":false,"rental_uris":{"android":"levelo://app?vid=e1d28adb-41a5-4a48-be1c-1f235d958ba7","ios":"levelo://app?vid=e1d28adb-41a5-4a48-be1c-1f235d958ba7"},"vehicle_type_id":"4","last_reported":1725037739,"current_range_meters":0,"station_id":"ce4bgi92rcd13ifvqb90","pricing_plan_id":"cebpf4jnsgd1na2vs0mg"},{"bike_id":"62868ab2-e562-4ca4-9f6e-e511d0dbe554","system_id":"levelo_inurba_marseille","lat":43.304278,"lon":5.388868,"is_reserved":false,"is_disabled":false,"rental_uris":{"android":"levelo://app?vid=62868ab2-e562-4ca4-9f6e-e511d0dbe554","ios":"levelo://app?vid=62868ab2-e562-4ca4-9f6e-e511d0dbe554"},"vehicle_type_id":"4","last_reported":1725037739,"current_range_meters":16400,"station_id":"ce4bgk12rcd13ifvqbi0","pricing_plan_id":"cebpf4jnsgd1na2vs0mg"},{"bike_id":"d8f7857b-72f7-4244-95c5-3e4d315f5263","system_id":"levelo_inurba_marseille","lat":43.29893,"lon":5.38311,"is_reserved":false,"is_disabled":false,"rental_uris":{"android":"levelo://app?vid=d8f7857b-72f7-4244-95c5-3e4d315f5263","ios":"levelo://app?vid=d8f7857b-72f7-4244-95c5-3e4d315f5263"},"vehicle_type_id":"4","last_reported":1725037739,"current_range_meters":2400,"station_id":"","pricing_plan_id":"cebpf4jnsgd1na2vs0mg"},{"bike_id":"3c3b8e0f-c91a-40d0-aa61-45e47d9e6b59","system_id":"levelo_inurba_marseille","lat":43.29615,"lon":5.37706,"is_reserved":false,"is_disabled":false,"rental_uris":{"android":"levelo://app?vid=3c3b8e0f-c91a-40d0-aa61-45e47d9e6b59","ios":"levelo://app?vid=3c3b8e0f-c91a-40d0-aa61-45e47d9e6b59"},"vehicle_type_id":"4","last_reported":1725037739,"current_range_meters":0,"station_id":"ce4bgi92rcd13ifvqb90","pricing_plan_id":"cebpf4jnsgd1na2vs0mg"},{"bike_id":"cffb933b-1552-4c8b-9a96-a8bd2233370e","system_id":"levelo_inurba_marseille","lat":43.299707,"lon":5.384859,"is_reserved":false,"is_disabled":false,"rental_uris":{"android":"levelo://app?vid=cffb933b-1552-4c8b-9a96-a8bd2233370e","ios":"levelo://app?vid=cffb933b-1552-4c8b-9a96-a8bd2233370e"},"vehicle_type_id":"4","last_reported":1725037739,"current_range_meters":19600,"station_id":"ce4bgj92rcd13ifvqbd0","pricing_plan_id":"cebpf4jnsgd1na2vs0mg"},{"bike_id":"a55ba8eb-c53f-43a7-8be7-29fd52932ce2","system_id":"levelo_inurba_marseille","lat":43.295279,"lon":5.375048,"is_reserved":false,"is_disabled":false,"rental_uris":{"android":"levelo://app?vid=a55ba8eb-c53f-43a7-8be7-29fd52932ce2","ios":"levelo://app?vid=a55ba8eb-c53f-43a7-8be7-29fd52932ce2"},"vehicle_type_id":"4","last_reported":1725037739,"current_range_meters":10800,"station_id":"ce4bgkp2rcd13ifvqbmg","pricing_plan_id":"cebpf4jnsgd1na2vs0mg"},{"bike_id":"b3851887-ba09-49db-9652-c2abdb2c4003","system_id":"levelo_inurba_marseille","lat":43.301396,"lon":5.387812,"is_reserved":false,"is_disabled":false,"rental_uris":{"android":"levelo://app?vid=b3851887-ba09-49db-9652-c2abdb2c4003","ios":"levelo://app?vid=b3851887-ba09-49db-9652-c2abdb2c4003"},"vehicle_type_id":"4","last_reported":1725037739,"current_range_meters":0,"station_id":"ce4bghh2rcd13ifvqb60","pricing_plan_id":"cebpf4jnsgd1na2vs0mg"},{"bike_id":"9c06a70a-cb43-4bc2-a4d7-04ba9ca867d4","system_id":"levelo_inurba_marseille","lat":43.301396,"lon":5.387812,"is_reserved":false,"is_disabled":false,"rental_uris":{"android":"levelo://app?vid=9c06a70a-cb43-4bc2-a4d7-04ba9ca867d4","ios":"levelo://app?vid=9c06a70a-cb43-4bc2-a4d7-04ba9ca867d4"},"vehicle_type_id":"4","last_reported":1725037739,"current_range_meters":0,"station_id":"ce4bghh2rcd13ifvqb60","pricing_plan_id":"cebpf4jnsgd1na2vs0mg"},{"bike_id":"5f65083e-3e3e-4e95-b1e1-166a50bfe7db","system_id":"levelo_inurba_marseille","lat":43.31461,"lon":5.39289,"is_reserved":false,"is_disabled":false,"rental_uris":{"android":"levelo://app?vid=5f65083e-3e3e-4e95-b1e1-166a50bfe7db","ios":"levelo://app?vid=5f65083e-3e3e-4e95-b1e1-166a50bfe7db"},"vehicle_type_id":"4","last_reported":1725037739,"current_range_meters":25600,"station_id":"","pricing_plan_id":"cebpf4jnsgd1na2vs0mg"},{"bike_id":"e6eb2357-cc83-4936-a78d-8e2ad22924a9","system_id":"levelo_inurba_marseille","lat":43.301396,"lon":5.387812,"is_reserved":false,"is_disabled":false,"rental_uris":{"android":"levelo://app?vid=e6eb2357-cc83-4936-a78d-8e2ad22924a9","ios":"levelo://app?vid=e6eb2357-cc83-4936-a78d-8e2ad22924a9"},"vehicle_type_id":"4","last_reported":1725037739,"current_range_meters":29600,"station_id":"ce4bghh2rcd13ifvqb60","pricing_plan_id":"cebpf4jnsgd1na2vs0mg"},{"bike_id":"ceddfc2a-6372-4fb5-ba7b-9615caa62723","system_id":"levelo_inurba_marseille","lat":43.29467,"lon":5.37569,"is_reserved":false,"is_disabled":false,"rental_uris":{"android":"levelo://app?vid=ceddfc2a-6372-4fb5-ba7b-9615caa62723","ios":"levelo://app?vid=ceddfc2a-6372-4fb5-ba7b-9615caa62723"},"vehicle_type_id":"4","last_reported":1725037739,"current_range_meters":6400,"station_id":"","pricing_plan_id":"cebpf4jnsgd1na2vs0mg"},{"bike_id":"c3cf4b8d-a4ee-4f22-b805-fc4029876dcd","system_id":"levelo_inurba_marseille","lat":43.31163,"lon":5.39328,"is_reserved":false,"is_disabled":false,"rental_uris":{"android":"levelo://app?vid=c3cf4b8d-a4ee-4f22-b805-fc4029876dcd","ios":"levelo://app?vid=c3cf4b8d-a4ee-4f22-b805-fc4029876dcd"},"vehicle_type_id":"4","last_reported":1725037739,"current_range_meters":3200,"station_id":"","pricing_plan_id":"cebpf4jnsgd1na2vs0mg"},{"bike_id":"4e5b0058-fcd4-4fe5-a0ef-2eb93b534d6e","system_id":"levelo_inurba_marseille","lat":43.32367,"lon":5.388836,"is_reserved":false,"is_disabled":false,"rental_uris":{"android":"levelo://app?vid=4e5b0058-fcd4-4fe5-a0ef-2eb93b534d6e","ios":"levelo://app?vid=4e5b0058-fcd4-4fe5-a0ef-2eb93b534d6e"},"vehicle_type_id":"4","last_reported":1725037739,"current_range_meters":22800,"station_id":"ce4bhqp2rcd13ifvqhog","pricing_plan_id":"cebpf4jnsgd1na2vs0mg"},{"bike_id":"1fb28c2b-d612-4bd7-9bc6-b8b61594c2ac","system_id":"levelo_inurba_marseille","lat":43.30609,"lon":5.39205,"is_reserved":false,"is_disabled":false,"rental_uris":{"android":"levelo://app?vid=1fb28c2b-d612-4bd7-9bc6-b8b61594c2ac","ios":"levelo://app?vid=1fb28c2b-d612-4bd7-9bc6-b8b61594c2ac"},"vehicle_type_id":"4","last_reported":1725037739,"current_range_meters":4400,"station_id":"","pricing_plan_id":"cebpf4jnsgd1na2vs0mg"},{"bike_id":"f21b735c-cc31-454d-af6b-a44dc41d43eb","system_id":"levelo_inurba_marseille","lat":43.296463,"lon":5.381607,"is_reserved":false,"is_disabled":false,"rental_uris":{"android":"levelo://app?vid=f21b735c-cc31-454d-af6b-a44dc41d43eb","ios":"levelo://app?vid=f21b735c-cc31-454d-af6b-a44dc41d43eb"},"vehicle_type_id":"4","last_reported":1725037739,"current_range_meters":0,"station_id":"","pricing_plan_id":"cebpf4jnsgd1na2vs0mg"},{"bike_id":"593c9e1b-07b1-4c60-8993-6b149f4fa4a7","system_id":"levelo_inurba_marseille","lat":43.311205,"lon":5.393654,"is_reserved":false,"is_disabled":false,"rental_uris":{"android":"levelo://app?vid=593c9e1b-07b1-4c60-8993-6b149f4fa4a7","ios":"levelo://app?vid=593c9e1b-07b1-4c60-8993-6b149f4fa4a7"},"vehicle_type_id":"4","last_reported":1725037739,"current_range_meters":1200,"station_id":"","pricing_plan_id":"cebpf4jnsgd1na2vs0mg"},{"bike_id":"4ab5e112-d452-41b2-a66a-9b989fe8c7e5","system_id":"levelo_inurba_marseille","lat":43.31429,"lon":5.39374,"is_reserved":false,"is_disabled":false,"rental_uris":{"android":"levelo://app?vid=4ab5e112-d452-41b2-a66a-9b989fe8c7e5","ios":"levelo://app?vid=4ab5e112-d452-41b2-a66a-9b989fe8c7e5"},"vehicle_type_id":"4","last_reported":1725037739,"current_range_meters":24000,"station_id":"","pricing_plan_id":"cebpf4jnsgd1na2vs0mg"},{"bike_id":"bb12af85-5850-4356-b2dd-7dd035916b69","system_id":"levelo_inurba_marseille","lat":43.296,"lon":5.38101,"is_reserved":false,"is_disabled":false,"rental_uris":{"android":"levelo://app?vid=bb12af85-5850-4356-b2dd-7dd035916b69","ios":"levelo://app?vid=bb12af85-5850-4356-b2dd-7dd035916b69"},"vehicle_type_id":"4","last_reported":1725037739,"current_range_meters":14400,"station_id":"ce4bgl12rcd13ifvqbo0","pricing_plan_id":"cebpf4jnsgd1na2vs0mg"},{"bike_id":"6e68fe10-0e44-4061-b9a8-1dbdd2a2438c","system_id":"levelo_inurba_marseille","lat":43.29279,"lon":5.36847,"is_reserved":false,"is_disabled":false,"rental_uris":{"android":"levelo://app?vid=6e68fe10-0e44-4061-b9a8-1dbdd2a2438c","ios":"levelo://app?vid=6e68fe10-0e44-4061-b9a8-1dbdd2a2438c"},"vehicle_type_id":"4","last_reported":1725037739,"current_range_meters":0,"station_id":"ce4bhbp2rcd13ifvqesg","pricing_plan_id":"cebpf4jnsgd1na2vs0mg"},{"bike_id":"32172f9c-542a-4c53-9b48-002069b5a4df","system_id":"levelo_inurba_marseille","lat":43.293259,"lon":5.371586,"is_reserved":false,"is_disabled":false,"rental_uris":{"android":"levelo://app?vid=32172f9c-542a-4c53-9b48-002069b5a4df","ios":"levelo://app?vid=32172f9c-542a-4c53-9b48-002069b5a4df"},"vehicle_type_id":"4","last_reported":1725037739,"current_range_meters":7200,"station_id":"ce4bgh92rcd13ifvqb40","pricing_plan_id":"cebpf4jnsgd1na2vs0mg"},{"bike_id":"e99d1492-816f-4a13-aeb3-f44965f3c562","system_id":"levelo_inurba_marseille","lat":43.293249,"lon":5.371578,"is_reserved":false,"is_disabled":false,"rental_uris":{"android":"levelo://app?vid=e99d1492-816f-4a13-aeb3-f44965f3c562","ios":"levelo://app?vid=e99d1492-816f-4a13-aeb3-f44965f3c562"},"vehicle_type_id":"4","last_reported":1725037739,"current_range_meters":31200,"station_id":"ce4bgh92rcd13ifvqb40","pricing_plan_id":"cebpf4jnsgd1na2vs0mg"},{"bike_id":"a72fea7a-2529-4428-b316-8fff2c42a5e2","system_id":"levelo_inurba_marseille","lat":43.29272,"lon":5.36845,"is_reserved":false,"is_disabled":false,"rental_uris":{"android":"levelo://app?vid=a72fea7a-2529-4428-b316-8fff2c42a5e2","ios":"levelo://app?vid=a72fea7a-2529-4428-b316-8fff2c42a5e2"},"vehicle_type_id":"4","last_reported":1725037739,"current_range_meters":0,"station_id":"ce4bhbp2rcd13ifvqesg","pricing_plan_id":"cebpf4jnsgd1na2vs0mg"},{"bike_id":"66c2b257-13c6-48af-9382-f3c254f9dbbe","system_id":"levelo_inurba_marseille","lat":43.293009,"lon":5.374584,"is_reserved":false,"is_disabled":false,"rental_uris":{"android":"levelo://app?vid=66c2b257-13c6-48af-9382-f3c254f9dbbe","ios":"levelo://app?vid=66c2b257-13c6-48af-9382-f3c254f9dbbe"},"vehicle_type_id":"4","last_reported":1725037739,"current_range_meters":0,"station_id":"ce4bgi12rcd13ifvqb70","pricing_plan_id":"cebpf4jnsgd1na2vs0mg"},{"bike_id":"c111ff8b-ef1e-4700-97a9-9e45f5a1f544","system_id":"levelo_inurba_marseille","lat":43.303002,"lon":5.392142,"is_reserved":false,"is_disabled":false,"rental_uris":{"android":"levelo://app?vid=c111ff8b-ef1e-4700-97a9-9e45f5a1f544","ios":"levelo://app?vid=c111ff8b-ef1e-4700-97a9-9e45f5a1f544"},"vehicle_type_id":"4","last_reported":1725037739,"current_range_meters":0,"station_id":"ce4bgkh2rcd13ifvqbk0","pricing_plan_id":"cebpf4jnsgd1na2vs0mg"},{"bike_id":"6a232d02-280f-4272-920d-0773e2c02db0","system_id":"levelo_inurba_marseille","lat":43.29374,"lon":5.37846,"is_reserved":false,"is_disabled":false,"rental_uris":{"android":"levelo://app?vid=6a232d02-280f-4272-920d-0773e2c02db0","ios":"levelo://app?vid=6a232d02-280f-4272-920d-0773e2c02db0"},"vehicle_type_id":"4","last_reported":1725037739,"current_range_meters":16000,"station_id":"ce4bgjh2rcd13ifvqbf0","pricing_plan_id":"cebpf4jnsgd1na2vs0mg"},{"bike_id":"1407c85d-dfe4-4742-87de-e6ac83e728e3","system_id":"levelo_inurba_marseille","lat":43.2936,"lon":5.37835,"is_reserved":false,"is_disabled":false,"rental_uris":{"android":"levelo://app?vid=1407c85d-dfe4-4742-87de-e6ac83e728e3","ios":"levelo://app?vid=1407c85d-dfe4-4742-87de-e6ac83e728e3"},"vehicle_type_id":"4","last_reported":1725037739,"current_range_meters":12400,"station_id":"ce4bgjh2rcd13ifvqbf0","pricing_plan_id":"cebpf4jnsgd1na2vs0mg"},{"bike_id":"637e39ec-383b-413e-b0cf-cbe3507f3586","system_id":"levelo_inurba_marseille","lat":43.29231,"lon":5.36058,"is_reserved":false,"is_disabled":false,"rental_uris":{"android":"levelo://app?vid=637e39ec-383b-413e-b0cf-cbe3507f3586","ios":"levelo://app?vid=637e39ec-383b-413e-b0cf-cbe3507f3586"},"vehicle_type_id":"4","last_reported":1725037739,"current_range_meters":10800,"station_id":"ce4bhbh2rcd13ifvqeqg","pricing_plan_id":"cebpf4jnsgd1na2vs0mg"},{"bike_id":"1c0e57c7-1319-4525-960e-f4f83c21b49e","system_id":"levelo_inurba_marseille","lat":43.292285,"lon":5.36068,"is_reserved":false,"is_disabled":false,"rental_uris":{"android":"levelo://app?vid=1c0e57c7-1319-4525-960e-f4f83c21b49e","ios":"levelo://app?vid=1c0e57c7-1319-4525-960e-f4f83c21b49e"},"vehicle_type_id":"4","last_reported":1725037739,"current_range_meters":0,"station_id":"ce4bhbh2rcd13ifvqeqg","pricing_plan_id":"cebpf4jnsgd1na2vs0mg"},{"bike_id":"5d6498a5-326e-461d-b8ed-3052aacdc5d2","system_id":"levelo_inurba_marseille","lat":43.29228,"lon":5.36053,"is_reserved":false,"is_disabled":false,"rental_uris":{"android":"levelo://app?vid=5d6498a5-326e-461d-b8ed-3052aacdc5d2","ios":"levelo://app?vid=5d6498a5-326e-461d-b8ed-3052aacdc5d2"},"vehicle_type_id":"4","last_reported":1725037739,"current_range_meters":1200,"station_id":"ce4bhbh2rcd13ifvqeqg","pricing_plan_id":"cebpf4jnsgd1na2vs0mg"},{"bike_id":"309cd3e5-fedb-47cb-9112-6c4ff1ea61fa","system_id":"levelo_inurba_marseille","lat":43.292311,"lon":5.360731,"is_reserved":false,"is_disabled":false,"rental_uris":{"android":"levelo://app?vid=309cd3e5-fedb-47cb-9112-6c4ff1ea61fa","ios":"levelo://app?vid=309cd3e5-fedb-47cb-9112-6c4ff1ea61fa"},"vehicle_type_id":"4","last_reported":1725037739,"current_range_meters":10400,"station_id":"ce4bhbh2rcd13ifvqeqg","pricing_plan_id":"cebpf4jnsgd1na2vs0mg"},{"bike_id":"c9bd3d4f-d72d-4ff3-b538-88dc8d8a51db","system_id":"levelo_inurba_marseille","lat":43.292311,"lon":5.360731,"is_reserved":false,"is_disabled":false,"rental_uris":{"android":"levelo://app?vid=c9bd3d4f-d72d-4ff3-b538-88dc8d8a51db","ios":"levelo://app?vid=c9bd3d4f-d72d-4ff3-b538-88dc8d8a51db"},"vehicle_type_id":"4","last_reported":1725037739,"current_range_meters":0,"station_id":"ce4bhbh2rcd13ifvqeqg","pricing_plan_id":"cebpf4jnsgd1na2vs0mg"},{"bike_id":"d0d409ce-8bc3-4594-a6f4-ac85e37ffc23","system_id":"levelo_inurba_marseille","lat":43.284214,"lon":5.349706,"is_reserved":false,"is_disabled":false,"rental_uris":{"android":"levelo://app?vid=d0d409ce-8bc3-4594-a6f4-ac85e37ffc23","ios":"levelo://app?vid=d0d409ce-8bc3-4594-a6f4-ac85e37ffc23"},"vehicle_type_id":"4","last_reported":1725037739,"current_range_meters":13600,"station_id":"ce4bhbh2rcd13ifvqepg","pricing_plan_id":"cebpf4jnsgd1na2vs0mg"},{"bike_id":"c156ce6a-d944-4c42-8f99-ce22400d2b7e","system_id":"levelo_inurba_marseille","lat":43.291671,"lon":5.371575,"is_reserved":false,"is_disabled":false,"rental_uris":{"android":"levelo://app?vid=c156ce6a-d944-4c42-8f99-ce22400d2b7e","ios":"levelo://app?vid=c156ce6a-d944-4c42-8f99-ce22400d2b7e"},"vehicle_type_id":"4","last_reported":1725037739,"current_range_meters":23600,"station_id":"ce4bha92rcd13ifvqeh0","pricing_plan_id":"cebpf4jnsgd1na2vs0mg"},{"bike_id":"dc74c73d-2d79-4c79-812f-cd260bf44d17","system_id":"levelo_inurba_marseille","lat":43.298764,"lon":5.388973,"is_reserved":false,"is_disabled":false,"rental_uris":{"android":"levelo://app?vid=dc74c73d-2d79-4c79-812f-cd260bf44d17","ios":"levelo://app?vid=dc74c73d-2d79-4c79-812f-cd260bf44d17"},"vehicle_type_id":"4","last_reported":1725037739,"current_range_meters":24400,"station_id":"ce4bh392rcd13ifvqdl0","pricing_plan_id":"cebpf4jnsgd1na2vs0mg"},{"bike_id":"6bf96c87-66f2-4025-b498-973232607f3f","system_id":"levelo_inurba_marseille","lat":43.292005,"lon":5.357875,"is_reserved":false,"is_disabled":false,"rental_uris":{"android":"levelo://app?vid=6bf96c87-66f2-4025-b498-973232607f3f","ios":"levelo://app?vid=6bf96c87-66f2-4025-b498-973232607f3f"},"vehicle_type_id":"4","last_reported":1725037739,"current_range_meters":23200,"station_id":"ce4bhb12rcd13ifvqel0","pricing_plan_id":"cebpf4jnsgd1na2vs0mg"},{"bike_id":"2aa9f855-0e47-404a-82d4-0d6f5f5c9593","system_id":"levelo_inurba_marseille","lat":43.292005,"lon":5.357875,"is_reserved":false,"is_disabled":false,"rental_uris":{"android":"levelo://app?vid=2aa9f855-0e47-404a-82d4-0d6f5f5c9593","ios":"levelo://app?vid=2aa9f855-0e47-404a-82d4-0d6f5f5c9593"},"vehicle_type_id":"4","last_reported":1725037739,"current_range_meters":2400,"station_id":"ce4bhb12rcd13ifvqel0","pricing_plan_id":"cebpf4jnsgd1na2vs0mg"},{"bike_id":"356a3af9-8be4-402e-bfa2-5de63cb55808","system_id":"levelo_inurba_marseille","lat":43.31332,"lon":5.39693,"is_reserved":false,"is_disabled":false,"rental_uris":{"android":"levelo://app?vid=356a3af9-8be4-402e-bfa2-5de63cb55808","ios":"levelo://app?vid=356a3af9-8be4-402e-bfa2-5de63cb55808"},"vehicle_type_id":"4","last_reported":1725037739,"current_range_meters":18800,"station_id":"ce4bgvp2rcd13ifvqcu0","pricing_plan_id":"cebpf4jnsgd1na2vs0mg"},{"bike_id":"4951ad4e-ae21-49b1-8ae8-6678e1cd95ba","system_id":"levelo_inurba_marseille","lat":43.309047,"lon":5.396551,"is_reserved":false,"is_disabled":false,"rental_uris":{"android":"levelo://app?vid=4951ad4e-ae21-49b1-8ae8-6678e1cd95ba","ios":"levelo://app?vid=4951ad4e-ae21-49b1-8ae8-6678e1cd95ba"},"vehicle_type_id":"4","last_reported":1725037739,"current_range_meters":15200,"station_id":"ce4bh012rcd13ifvqcv0","pricing_plan_id":"cebpf4jnsgd1na2vs0mg"},{"bike_id":"f3cdb4f8-b210-471b-94e4-ccc225fdbaaa","system_id":"levelo_inurba_marseille","lat":43.309038,"lon":5.396546,"is_reserved":false,"is_disabled":false,"rental_uris":{"android":"levelo://app?vid=f3cdb4f8-b210-471b-94e4-ccc225fdbaaa","ios":"levelo://app?vid=f3cdb4f8-b210-471b-94e4-ccc225fdbaaa"},"vehicle_type_id":"4","last_reported":1725037739,"current_range_meters":10000,"station_id":"ce4bh012rcd13ifvqcv0","pricing_plan_id":"cebpf4jnsgd1na2vs0mg"},{"bike_id":"06c1ce23-be5a-417b-849f-55b10490d544","system_id":"levelo_inurba_marseille","lat":43.309038,"lon":5.396546,"is_reserved":false,"is_disabled":false,"rental_uris":{"android":"levelo://app?vid=06c1ce23-be5a-417b-849f-55b10490d544","ios":"levelo://app?vid=06c1ce23-be5a-417b-849f-55b10490d544"},"vehicle_type_id":"4","last_reported":1725037739,"current_range_meters":4400,"station_id":"ce4bh012rcd13ifvqcv0","pricing_plan_id":"cebpf4jnsgd1na2vs0mg"},{"bike_id":"447b7d6d-019b-4d37-8495-e243fe116e46","system_id":"levelo_inurba_marseille","lat":43.309038,"lon":5.396546,"is_reserved":false,"is_disabled":false,"rental_uris":{"android":"levelo://app?vid=447b7d6d-019b-4d37-8495-e243fe116e46","ios":"levelo://app?vid=447b7d6d-019b-4d37-8495-e243fe116e46"},"vehicle_type_id":"4","last_reported":1725037739,"current_range_meters":12400,"station_id":"ce4bh012rcd13ifvqcv0","pricing_plan_id":"cebpf4jnsgd1na2vs0mg"},{"bike_id":"7dac92e7-8c5f-403d-bcd8-bad1f13ce57d","system_id":"levelo_inurba_marseille","lat":43.29529,"lon":5.385581,"is_reserved":false,"is_disabled":false,"rental_uris":{"android":"levelo://app?vid=7dac92e7-8c5f-403d-bcd8-bad1f13ce57d","ios":"levelo://app?vid=7dac92e7-8c5f-403d-bcd8-bad1f13ce57d"},"vehicle_type_id":"4","last_reported":1725037739,"current_range_meters":31200,"station_id":"ce4bgih2rcd13ifvqba0","pricing_plan_id":"cebpf4jnsgd1na2vs0mg"},{"bike_id":"7d839945-0af0-4816-8dd0-ea6ed35af0c2","system_id":"levelo_inurba_marseille","lat":43.29536,"lon":5.38534,"is_reserved":false,"is_disabled":false,"rental_uris":{"android":"levelo://app?vid=7d839945-0af0-4816-8dd0-ea6ed35af0c2","ios":"levelo://app?vid=7d839945-0af0-4816-8dd0-ea6ed35af0c2"},"vehicle_type_id":"4","last_reported":1725037739,"current_range_meters":0,"station_id":"ce4bgih2rcd13ifvqba0","pricing_plan_id":"cebpf4jnsgd1na2vs0mg"},{"bike_id":"ab114ad9-395e-46df-827b-212027c9700f","system_id":"levelo_inurba_marseille","lat":43.29529,"lon":5.385581,"is_reserved":false,"is_disabled":false,"rental_uris":{"android":"levelo://app?vid=ab114ad9-395e-46df-827b-212027c9700f","ios":"levelo://app?vid=ab114ad9-395e-46df-827b-212027c9700f"},"vehicle_type_id":"4","last_reported":1725037739,"current_range_meters":6800,"station_id":"ce4bgih2rcd13ifvqba0","pricing_plan_id":"cebpf4jnsgd1na2vs0mg"},{"bike_id":"cd144863-742f-4592-a062-1faacc628172","system_id":"levelo_inurba_marseille","lat":43.29529,"lon":5.385581,"is_reserved":false,"is_disabled":false,"rental_uris":{"android":"levelo://app?vid=cd144863-742f-4592-a062-1faacc628172","ios":"levelo://app?vid=cd144863-742f-4592-a062-1faacc628172"},"vehicle_type_id":"4","last_reported":1725037739,"current_range_meters":3600,"station_id":"ce4bgih2rcd13ifvqba0","pricing_plan_id":"cebpf4jnsgd1na2vs0mg"},{"bike_id":"8a84380f-1f40-4e92-8602-8f5709a3d06d","system_id":"levelo_inurba_marseille","lat":43.29529,"lon":5.385581,"is_reserved":false,"is_disabled":false,"rental_uris":{"android":"levelo://app?vid=8a84380f-1f40-4e92-8602-8f5709a3d06d","ios":"levelo://app?vid=8a84380f-1f40-4e92-8602-8f5709a3d06d"},"vehicle_type_id":"4","last_reported":1725037739,"current_range_meters":8800,"station_id":"ce4bgih2rcd13ifvqba0","pricing_plan_id":"cebpf4jnsgd1na2vs0mg"},{"bike_id":"0ccb85e9-8ecf-44e6-9df3-67da2e9823be","system_id":"levelo_inurba_marseille","lat":43.29529,"lon":5.385581,"is_reserved":false,"is_disabled":false,"rental_uris":{"android":"levelo://app?vid=0ccb85e9-8ecf-44e6-9df3-67da2e9823be","ios":"levelo://app?vid=0ccb85e9-8ecf-44e6-9df3-67da2e9823be"},"vehicle_type_id":"4","last_reported":1725037739,"current_range_meters":23200,"station_id":"ce4bgih2rcd13ifvqba0","pricing_plan_id":"cebpf4jnsgd1na2vs0mg"},{"bike_id":"96ed75a2-41c5-41ee-b5a9-8f582c55fce4","system_id":"levelo_inurba_marseille","lat":43.29529,"lon":5.385581,"is_reserved":false,"is_disabled":false,"rental_uris":{"android":"levelo://app?vid=96ed75a2-41c5-41ee-b5a9-8f582c55fce4","ios":"levelo://app?vid=96ed75a2-41c5-41ee-b5a9-8f582c55fce4"},"vehicle_type_id":"4","last_reported":1725037739,"current_range_meters":26400,"station_id":"ce4bgih2rcd13ifvqba0","pricing_plan_id":"cebpf4jnsgd1na2vs0mg"},{"bike_id":"0ea1dc2b-1d23-4d90-b755-980ffc74415e","system_id":"levelo_inurba_marseille","lat":43.290779,"lon":5.371482,"is_reserved":false,"is_disabled":false,"rental_uris":{"android":"levelo://app?vid=0ea1dc2b-1d23-4d90-b755-980ffc74415e","ios":"levelo://app?vid=0ea1dc2b-1d23-4d90-b755-980ffc74415e"},"vehicle_type_id":"4","last_reported":1725037739,"current_range_meters":24000,"station_id":"ce4bh5p2rcd13ifvqe4g","pricing_plan_id":"cebpf4jnsgd1na2vs0mg"},{"bike_id":"3657faed-4957-4eb7-ac04-8f0b970b2eb7","system_id":"levelo_inurba_marseille","lat":43.290779,"lon":5.371482,"is_reserved":false,"is_disabled":false,"rental_uris":{"android":"levelo://app?vid=3657faed-4957-4eb7-ac04-8f0b970b2eb7","ios":"levelo://app?vid=3657faed-4957-4eb7-ac04-8f0b970b2eb7"},"vehicle_type_id":"4","last_reported":1725037739,"current_range_meters":0,"station_id":"ce4bh5p2rcd13ifvqe4g","pricing_plan_id":"cebpf4jnsgd1na2vs0mg"},{"bike_id":"6e61cbbc-976d-4219-b2c9-1438768e9120","system_id":"levelo_inurba_marseille","lat":43.290631,"lon":5.359244,"is_reserved":false,"is_disabled":false,"rental_uris":{"android":"levelo://app?vid=6e61cbbc-976d-4219-b2c9-1438768e9120","ios":"levelo://app?vid=6e61cbbc-976d-4219-b2c9-1438768e9120"},"vehicle_type_id":"4","last_reported":1725037739,"current_range_meters":16000,"station_id":"ce4bha92rcd13ifvqeg0","pricing_plan_id":"cebpf4jnsgd1na2vs0mg"},{"bike_id":"e6bd5a88-abcb-43a1-ac70-d20c0d35169c","system_id":"levelo_inurba_marseille","lat":43.294153,"lon":5.386305,"is_reserved":false,"is_disabled":false,"rental_uris":{"android":"levelo://app?vid=e6bd5a88-abcb-43a1-ac70-d20c0d35169c","ios":"levelo://app?vid=e6bd5a88-abcb-43a1-ac70-d20c0d35169c"},"vehicle_type_id":"4","last_reported":1725037739,"current_range_meters":0,"station_id":"ce4bh2h2rcd13ifvqdh0","pricing_plan_id":"cebpf4jnsgd1na2vs0mg"},{"bike_id":"5f0c3906-6721-457c-8c79-ba6fcb353b48","system_id":"levelo_inurba_marseille","lat":43.294153,"lon":5.386305,"is_reserved":false,"is_disabled":false,"rental_uris":{"android":"levelo://app?vid=5f0c3906-6721-457c-8c79-ba6fcb353b48","ios":"levelo://app?vid=5f0c3906-6721-457c-8c79-ba6fcb353b48"},"vehicle_type_id":"4","last_reported":1725037739,"current_range_meters":21600,"station_id":"ce4bh2h2rcd13ifvqdh0","pricing_plan_id":"cebpf4jnsgd1na2vs0mg"},{"bike_id":"d5a5a081-ad1f-42b4-930f-282bc43b1fc0","system_id":"levelo_inurba_marseille","lat":43.294153,"lon":5.386305,"is_reserved":false,"is_disabled":false,"rental_uris":{"android":"levelo://app?vid=d5a5a081-ad1f-42b4-930f-282bc43b1fc0","ios":"levelo://app?vid=d5a5a081-ad1f-42b4-930f-282bc43b1fc0"},"vehicle_type_id":"4","last_reported":1725037739,"current_range_meters":12800,"station_id":"ce4bh2h2rcd13ifvqdh0","pricing_plan_id":"cebpf4jnsgd1na2vs0mg"},{"bike_id":"23e77825-ab28-4587-8c0e-e8b47528e584","system_id":"levelo_inurba_marseille","lat":43.290327,"lon":5.375711,"is_reserved":false,"is_disabled":false,"rental_uris":{"android":"levelo://app?vid=23e77825-ab28-4587-8c0e-e8b47528e584","ios":"levelo://app?vid=23e77825-ab28-4587-8c0e-e8b47528e584"},"vehicle_type_id":"4","last_reported":1725037739,"current_range_meters":26400,"station_id":"ce4bh692rcd13ifvqe90","pricing_plan_id":"cebpf4jnsgd1na2vs0mg"},{"bike_id":"63bf1b7e-17b0-4433-82e8-f2e9a5bd79ce","system_id":"levelo_inurba_marseille","lat":43.290327,"lon":5.375711,"is_reserved":false,"is_disabled":false,"rental_uris":{"android":"levelo://app?vid=63bf1b7e-17b0-4433-82e8-f2e9a5bd79ce","ios":"levelo://app?vid=63bf1b7e-17b0-4433-82e8-f2e9a5bd79ce"},"vehicle_type_id":"4","last_reported":1725037739,"current_range_meters":800,"station_id":"ce4bh692rcd13ifvqe90","pricing_plan_id":"cebpf4jnsgd1na2vs0mg"},{"bike_id":"e6501ea7-3a4a-48c5-aa28-8e43ccae2e9d","system_id":"levelo_inurba_marseille","lat":43.294162,"lon":5.386292,"is_reserved":false,"is_disabled":false,"rental_uris":{"android":"levelo://app?vid=e6501ea7-3a4a-48c5-aa28-8e43ccae2e9d","ios":"levelo://app?vid=e6501ea7-3a4a-48c5-aa28-8e43ccae2e9d"},"vehicle_type_id":"4","last_reported":1725037739,"current_range_meters":10800,"station_id":"ce4bh2h2rcd13ifvqdh0","pricing_plan_id":"cebpf4jnsgd1na2vs0mg"},{"bike_id":"9134aecf-71c0-489b-a318-97e8a6f97a8f","system_id":"levelo_inurba_marseille","lat":43.289184,"lon":5.366408,"is_reserved":false,"is_disabled":false,"rental_uris":{"android":"levelo://app?vid=9134aecf-71c0-489b-a318-97e8a6f97a8f","ios":"levelo://app?vid=9134aecf-71c0-489b-a318-97e8a6f97a8f"},"vehicle_type_id":"4","last_reported":1725037739,"current_range_meters":9600,"station_id":"ce4bhap2rcd13ifvqek0","pricing_plan_id":"cebpf4jnsgd1na2vs0mg"},{"bike_id":"4280de4c-fe0f-492a-b801-e72f0025ee99","system_id":"levelo_inurba_marseille","lat":43.289184,"lon":5.366408,"is_reserved":false,"is_disabled":false,"rental_uris":{"android":"levelo://app?vid=4280de4c-fe0f-492a-b801-e72f0025ee99","ios":"levelo://app?vid=4280de4c-fe0f-492a-b801-e72f0025ee99"},"vehicle_type_id":"4","last_reported":1725037739,"current_range_meters":0,"station_id":"ce4bhap2rcd13ifvqek0","pricing_plan_id":"cebpf4jnsgd1na2vs0mg"},{"bike_id":"f9088f40-eddc-4a49-99d3-7c7138590e1d","system_id":"levelo_inurba_marseille","lat":43.289468,"lon":5.363719,"is_reserved":false,"is_disabled":false,"rental_uris":{"android":"levelo://app?vid=f9088f40-eddc-4a49-99d3-7c7138590e1d","ios":"levelo://app?vid=f9088f40-eddc-4a49-99d3-7c7138590e1d"},"vehicle_type_id":"4","last_reported":1725037739,"current_range_meters":30800,"station_id":"ce4bhc92rcd13ifvqetg","pricing_plan_id":"cebpf4jnsgd1na2vs0mg"},{"bike_id":"817a5c9e-69d6-4a54-b3cf-6bfe97fd9f47","system_id":"levelo_inurba_marseille","lat":43.292644,"lon":5.384257,"is_reserved":false,"is_disabled":false,"rental_uris":{"android":"levelo://app?vid=817a5c9e-69d6-4a54-b3cf-6bfe97fd9f47","ios":"levelo://app?vid=817a5c9e-69d6-4a54-b3cf-6bfe97fd9f47"},"vehicle_type_id":"4","last_reported":1725037739,"current_range_meters":14400,"station_id":"ce4bh692rcd13ifvqea0","pricing_plan_id":"cebpf4jnsgd1na2vs0mg"},{"bike_id":"41005443-7efd-4305-96d1-1645e2052b58","system_id":"levelo_inurba_marseille","lat":43.292642,"lon":5.384254,"is_reserved":false,"is_disabled":false,"rental_uris":{"android":"levelo://app?vid=41005443-7efd-4305-96d1-1645e2052b58","ios":"levelo://app?vid=41005443-7efd-4305-96d1-1645e2052b58"},"vehicle_type_id":"4","last_reported":1725037739,"current_range_meters":400,"station_id":"ce4bh692rcd13ifvqea0","pricing_plan_id":"cebpf4jnsgd1na2vs0mg"},{"bike_id":"7cdbb98a-c1fd-46a4-8564-ebdad4fd0b4e","system_id":"levelo_inurba_marseille","lat":43.29271,"lon":5.38437,"is_reserved":false,"is_disabled":false,"rental_uris":{"android":"levelo://app?vid=7cdbb98a-c1fd-46a4-8564-ebdad4fd0b4e","ios":"levelo://app?vid=7cdbb98a-c1fd-46a4-8564-ebdad4fd0b4e"},"vehicle_type_id":"4","last_reported":1725037739,"current_range_meters":0,"station_id":"ce4bh692rcd13ifvqea0","pricing_plan_id":"cebpf4jnsgd1na2vs0mg"},{"bike_id":"fea5e67d-f0f6-4829-85a1-8070227d8e28","system_id":"levelo_inurba_marseille","lat":43.292642,"lon":5.384254,"is_reserved":false,"is_disabled":false,"rental_uris":{"android":"levelo://app?vid=fea5e67d-f0f6-4829-85a1-8070227d8e28","ios":"levelo://app?vid=fea5e67d-f0f6-4829-85a1-8070227d8e28"},"vehicle_type_id":"4","last_reported":1725037739,"current_range_meters":0,"station_id":"ce4bh692rcd13ifvqea0","pricing_plan_id":"cebpf4jnsgd1na2vs0mg"},{"bike_id":"f2a16a8e-3929-4f2e-a7a0-08a81ca699d7","system_id":"levelo_inurba_marseille","lat":43.292644,"lon":5.384257,"is_reserved":false,"is_disabled":false,"rental_uris":{"android":"levelo://app?vid=f2a16a8e-3929-4f2e-a7a0-08a81ca699d7","ios":"levelo://app?vid=f2a16a8e-3929-4f2e-a7a0-08a81ca699d7"},"vehicle_type_id":"4","last_reported":1725037739,"current_range_meters":400,"station_id":"ce4bh692rcd13ifvqea0","pricing_plan_id":"cebpf4jnsgd1na2vs0mg"},{"bike_id":"bbffea32-57b0-43f8-88e4-347e8c662827","system_id":"levelo_inurba_marseille","lat":43.292644,"lon":5.384257,"is_reserved":false,"is_disabled":false,"rental_uris":{"android":"levelo://app?vid=bbffea32-57b0-43f8-88e4-347e8c662827","ios":"levelo://app?vid=bbffea32-57b0-43f8-88e4-347e8c662827"},"vehicle_type_id":"4","last_reported":1725037739,"current_range_meters":8800,"station_id":"ce4bh692rcd13ifvqea0","pricing_plan_id":"cebpf4jnsgd1na2vs0mg"},{"bike_id":"943dd01e-e697-4fa5-a57d-5e516be06b38","system_id":"levelo_inurba_marseille","lat":43.292642,"lon":5.384254,"is_reserved":false,"is_disabled":false,"rental_uris":{"android":"levelo://app?vid=943dd01e-e697-4fa5-a57d-5e516be06b38","ios":"levelo://app?vid=943dd01e-e697-4fa5-a57d-5e516be06b38"},"vehicle_type_id":"4","last_reported":1725037739,"current_range_meters":11600,"station_id":"ce4bh692rcd13ifvqea0","pricing_plan_id":"cebpf4jnsgd1na2vs0mg"},{"bike_id":"5aa0d719-c5de-4514-acf5-7ed9308ab321","system_id":"levelo_inurba_marseille","lat":43.292644,"lon":5.384257,"is_reserved":false,"is_disabled":false,"rental_uris":{"android":"levelo://app?vid=5aa0d719-c5de-4514-acf5-7ed9308ab321","ios":"levelo://app?vid=5aa0d719-c5de-4514-acf5-7ed9308ab321"},"vehicle_type_id":"4","last_reported":1725037739,"current_range_meters":0,"station_id":"ce4bh692rcd13ifvqea0","pricing_plan_id":"cebpf4jnsgd1na2vs0mg"},{"bike_id":"555acba1-17b7-4198-b29d-3f4261506de7","system_id":"levelo_inurba_marseille","lat":43.29005,"lon":5.35615,"is_reserved":false,"is_disabled":false,"rental_uris":{"android":"levelo://app?vid=555acba1-17b7-4198-b29d-3f4261506de7","ios":"levelo://app?vid=555acba1-17b7-4198-b29d-3f4261506de7"},"vehicle_type_id":"4","last_reported":1725037739,"current_range_meters":31200,"station_id":"ce4bhb92rcd13ifvqen0","pricing_plan_id":"cebpf4jnsgd1na2vs0mg"},{"bike_id":"e9401401-b396-4aeb-b8b7-c3638075daed","system_id":"levelo_inurba_marseille","lat":43.290103,"lon":5.356114,"is_reserved":false,"is_disabled":false,"rental_uris":{"android":"levelo://app?vid=e9401401-b396-4aeb-b8b7-c3638075daed","ios":"levelo://app?vid=e9401401-b396-4aeb-b8b7-c3638075daed"},"vehicle_type_id":"4","last_reported":1725037739,"current_range_meters":0,"station_id":"ce4bhb92rcd13ifvqen0","pricing_plan_id":"cebpf4jnsgd1na2vs0mg"},{"bike_id":"72bc7f22-149c-4b80-b350-cf44ebe03d9d","system_id":"levelo_inurba_marseille","lat":43.297807,"lon":5.393533,"is_reserved":false,"is_disabled":false,"rental_uris":{"android":"levelo://app?vid=72bc7f22-149c-4b80-b350-cf44ebe03d9d","ios":"levelo://app?vid=72bc7f22-149c-4b80-b350-cf44ebe03d9d"},"vehicle_type_id":"4","last_reported":1725037739,"current_range_meters":400,"station_id":"chh1huq6cuj3fo74tm60","pricing_plan_id":"cebpf4jnsgd1na2vs0mg"},{"bike_id":"ecd7d629-ffb5-4a56-a118-aac65f7bd961","system_id":"levelo_inurba_marseille","lat":43.289743,"lon":5.378304,"is_reserved":false,"is_disabled":false,"rental_uris":{"android":"levelo://app?vid=ecd7d629-ffb5-4a56-a118-aac65f7bd961","ios":"levelo://app?vid=ecd7d629-ffb5-4a56-a118-aac65f7bd961"},"vehicle_type_id":"4","last_reported":1725037739,"current_range_meters":3600,"station_id":"ce4bh9p2rcd13ifvqed0","pricing_plan_id":"cebpf4jnsgd1na2vs0mg"},{"bike_id":"c044ba39-c102-486e-a9d5-9211b5465dca","system_id":"levelo_inurba_marseille","lat":43.295169,"lon":5.390426,"is_reserved":false,"is_disabled":false,"rental_uris":{"android":"levelo://app?vid=c044ba39-c102-486e-a9d5-9211b5465dca","ios":"levelo://app?vid=c044ba39-c102-486e-a9d5-9211b5465dca"},"vehicle_type_id":"4","last_reported":1725037739,"current_range_meters":1600,"station_id":"ce4bh3p2rcd13ifvqdp0","pricing_plan_id":"cebpf4jnsgd1na2vs0mg"},{"bike_id":"72f32263-e8c6-4ae7-b0fe-37edcab0ac6e","system_id":"levelo_inurba_marseille","lat":43.330442,"lon":5.389148,"is_reserved":false,"is_disabled":false,"rental_uris":{"android":"levelo://app?vid=72f32263-e8c6-4ae7-b0fe-37edcab0ac6e","ios":"levelo://app?vid=72f32263-e8c6-4ae7-b0fe-37edcab0ac6e"},"vehicle_type_id":"4","last_reported":1725037739,"current_range_meters":12400,"station_id":"ce4bhr92rcd13ifvqhrg","pricing_plan_id":"cebpf4jnsgd1na2vs0mg"},{"bike_id":"b3fcc9c1-d41d-40be-b470-e7ea40f100c7","system_id":"levelo_inurba_marseille","lat":43.33024,"lon":5.39043,"is_reserved":false,"is_disabled":false,"rental_uris":{"android":"levelo://app?vid=b3fcc9c1-d41d-40be-b470-e7ea40f100c7","ios":"levelo://app?vid=b3fcc9c1-d41d-40be-b470-e7ea40f100c7"},"vehicle_type_id":"4","last_reported":1725037739,"current_range_meters":11600,"station_id":"ce4bhr92rcd13ifvqhrg","pricing_plan_id":"cebpf4jnsgd1na2vs0mg"},{"bike_id":"45209c04-95ba-42ef-bf49-767bead22c92","system_id":"levelo_inurba_marseille","lat":43.288607,"lon":5.372616,"is_reserved":false,"is_disabled":false,"rental_uris":{"android":"levelo://app?vid=45209c04-95ba-42ef-bf49-767bead22c92","ios":"levelo://app?vid=45209c04-95ba-42ef-bf49-767bead22c92"},"vehicle_type_id":"4","last_reported":1725037739,"current_range_meters":2800,"station_id":"","pricing_plan_id":"cebpf4jnsgd1na2vs0mg"},{"bike_id":"f55220ef-8421-40c6-a747-816ee2ac7675","system_id":"levelo_inurba_marseille","lat":43.30642,"lon":5.401031,"is_reserved":false,"is_disabled":false,"rental_uris":{"android":"levelo://app?vid=f55220ef-8421-40c6-a747-816ee2ac7675","ios":"levelo://app?vid=f55220ef-8421-40c6-a747-816ee2ac7675"},"vehicle_type_id":"4","last_reported":1725037739,"current_range_meters":1600,"station_id":"ce4bh112rcd13ifvqda0","pricing_plan_id":"cebpf4jnsgd1na2vs0mg"},{"bike_id":"9a74e704-45f6-4d30-99ca-eb683099d82d","system_id":"levelo_inurba_marseille","lat":43.2901,"lon":5.381269,"is_reserved":false,"is_disabled":false,"rental_uris":{"android":"levelo://app?vid=9a74e704-45f6-4d30-99ca-eb683099d82d","ios":"levelo://app?vid=9a74e704-45f6-4d30-99ca-eb683099d82d"},"vehicle_type_id":"4","last_reported":1725037739,"current_range_meters":30400,"station_id":"ce4bh4p2rcd13ifvqe1g","pricing_plan_id":"cebpf4jnsgd1na2vs0mg"},{"bike_id":"d7464cbb-da4b-468c-a38b-23f19c0c0944","system_id":"levelo_inurba_marseille","lat":43.28856,"lon":5.35819,"is_reserved":false,"is_disabled":false,"rental_uris":{"android":"levelo://app?vid=d7464cbb-da4b-468c-a38b-23f19c0c0944","ios":"levelo://app?vid=d7464cbb-da4b-468c-a38b-23f19c0c0944"},"vehicle_type_id":"4","last_reported":1725037739,"current_range_meters":4000,"station_id":"ce4bhb12rcd13ifvqem0","pricing_plan_id":"cebpf4jnsgd1na2vs0mg"},{"bike_id":"db30fbb7-55e0-4335-9913-6456193b2744","system_id":"levelo_inurba_marseille","lat":43.288491,"lon":5.358395,"is_reserved":false,"is_disabled":false,"rental_uris":{"android":"levelo://app?vid=db30fbb7-55e0-4335-9913-6456193b2744","ios":"levelo://app?vid=db30fbb7-55e0-4335-9913-6456193b2744"},"vehicle_type_id":"4","last_reported":1725037739,"current_range_meters":31200,"station_id":"ce4bhb12rcd13ifvqem0","pricing_plan_id":"cebpf4jnsgd1na2vs0mg"},{"bike_id":"cafc7e8f-29ff-4a1a-aff8-1744c60b0e54","system_id":"levelo_inurba_marseille","lat":43.312609,"lon":5.401662,"is_reserved":false,"is_disabled":false,"rental_uris":{"android":"levelo://app?vid=cafc7e8f-29ff-4a1a-aff8-1744c60b0e54","ios":"levelo://app?vid=cafc7e8f-29ff-4a1a-aff8-1744c60b0e54"},"vehicle_type_id":"4","last_reported":1725037739,"current_range_meters":0,"station_id":"ce4bh092rcd13ifvqd30","pricing_plan_id":"cebpf4jnsgd1na2vs0mg"},{"bike_id":"93b95feb-19ba-49b2-8632-1cf73297d167","system_id":"levelo_inurba_marseille","lat":43.309371,"lon":5.401449,"is_reserved":false,"is_disabled":false,"rental_uris":{"android":"levelo://app?vid=93b95feb-19ba-49b2-8632-1cf73297d167","ios":"levelo://app?vid=93b95feb-19ba-49b2-8632-1cf73297d167"},"vehicle_type_id":"4","last_reported":1725037739,"current_range_meters":2400,"station_id":"ce4bgvp2rcd13ifvqct0","pricing_plan_id":"cebpf4jnsgd1na2vs0mg"},{"bike_id":"ae304c49-6212-4723-8491-fff8280bf2ef","system_id":"levelo_inurba_marseille","lat":43.309371,"lon":5.401449,"is_reserved":false,"is_disabled":false,"rental_uris":{"android":"levelo://app?vid=ae304c49-6212-4723-8491-fff8280bf2ef","ios":"levelo://app?vid=ae304c49-6212-4723-8491-fff8280bf2ef"},"vehicle_type_id":"4","last_reported":1725037739,"current_range_meters":0,"station_id":"ce4bgvp2rcd13ifvqct0","pricing_plan_id":"cebpf4jnsgd1na2vs0mg"},{"bike_id":"3d9054a8-21cf-4c86-aef2-3f813526ec3b","system_id":"levelo_inurba_marseille","lat":43.309371,"lon":5.401449,"is_reserved":false,"is_disabled":false,"rental_uris":{"android":"levelo://app?vid=3d9054a8-21cf-4c86-aef2-3f813526ec3b","ios":"levelo://app?vid=3d9054a8-21cf-4c86-aef2-3f813526ec3b"},"vehicle_type_id":"4","last_reported":1725037739,"current_range_meters":10000,"station_id":"ce4bgvp2rcd13ifvqct0","pricing_plan_id":"cebpf4jnsgd1na2vs0mg"},{"bike_id":"3341b4f5-b56e-47eb-bd65-54dcb2892165","system_id":"levelo_inurba_marseille","lat":43.309371,"lon":5.401449,"is_reserved":false,"is_disabled":false,"rental_uris":{"android":"levelo://app?vid=3341b4f5-b56e-47eb-bd65-54dcb2892165","ios":"levelo://app?vid=3341b4f5-b56e-47eb-bd65-54dcb2892165"},"vehicle_type_id":"4","last_reported":1725037739,"current_range_meters":800,"station_id":"ce4bgvp2rcd13ifvqct0","pricing_plan_id":"cebpf4jnsgd1na2vs0mg"},{"bike_id":"6dc2b96c-1632-41fe-8621-b22de7204566","system_id":"levelo_inurba_marseille","lat":43.309371,"lon":5.401449,"is_reserved":false,"is_disabled":false,"rental_uris":{"android":"levelo://app?vid=6dc2b96c-1632-41fe-8621-b22de7204566","ios":"levelo://app?vid=6dc2b96c-1632-41fe-8621-b22de7204566"},"vehicle_type_id":"4","last_reported":1725037739,"current_range_meters":22800,"station_id":"ce4bgvp2rcd13ifvqct0","pricing_plan_id":"cebpf4jnsgd1na2vs0mg"},{"bike_id":"40b14f62-1032-41aa-99cc-4ce627a28f5a","system_id":"levelo_inurba_marseille","lat":43.33757,"lon":5.37485,"is_reserved":false,"is_disabled":false,"rental_uris":{"android":"levelo://app?vid=40b14f62-1032-41aa-99cc-4ce627a28f5a","ios":"levelo://app?vid=40b14f62-1032-41aa-99cc-4ce627a28f5a"},"vehicle_type_id":"4","last_reported":1725037739,"current_range_meters":6800,"station_id":"","pricing_plan_id":"cebpf4jnsgd1na2vs0mg"},{"bike_id":"1e8f011e-d4a1-401d-a0ca-296787f25da0","system_id":"levelo_inurba_marseille","lat":43.33769,"lon":5.37446,"is_reserved":false,"is_disabled":false,"rental_uris":{"android":"levelo://app?vid=1e8f011e-d4a1-401d-a0ca-296787f25da0","ios":"levelo://app?vid=1e8f011e-d4a1-401d-a0ca-296787f25da0"},"vehicle_type_id":"4","last_reported":1725037739,"current_range_meters":13200,"station_id":"","pricing_plan_id":"cebpf4jnsgd1na2vs0mg"},{"bike_id":"ff284143-3778-4258-8be2-8e08bb88fe2d","system_id":"levelo_inurba_marseille","lat":43.301117,"lon":5.398795,"is_reserved":false,"is_disabled":false,"rental_uris":{"android":"levelo://app?vid=ff284143-3778-4258-8be2-8e08bb88fe2d","ios":"levelo://app?vid=ff284143-3778-4258-8be2-8e08bb88fe2d"},"vehicle_type_id":"4","last_reported":1725037739,"current_range_meters":27600,"station_id":"ce4bh0h2rcd13ifvqd40","pricing_plan_id":"cebpf4jnsgd1na2vs0mg"},{"bike_id":"06a69fff-11cd-421d-b90b-23a4c4510c8d","system_id":"levelo_inurba_marseille","lat":43.28727,"lon":5.36078,"is_reserved":false,"is_disabled":false,"rental_uris":{"android":"levelo://app?vid=06a69fff-11cd-421d-b90b-23a4c4510c8d","ios":"levelo://app?vid=06a69fff-11cd-421d-b90b-23a4c4510c8d"},"vehicle_type_id":"4","last_reported":1725037739,"current_range_meters":5600,"station_id":"cki0cbj6b192h4jlfktg","pricing_plan_id":"cebpf4jnsgd1na2vs0mg"},{"bike_id":"d78eda01-a4b2-4a3f-adcc-b5cc22ab20c6","system_id":"levelo_inurba_marseille","lat":43.301117,"lon":5.398795,"is_reserved":false,"is_disabled":false,"rental_uris":{"android":"levelo://app?vid=d78eda01-a4b2-4a3f-adcc-b5cc22ab20c6","ios":"levelo://app?vid=d78eda01-a4b2-4a3f-adcc-b5cc22ab20c6"},"vehicle_type_id":"4","last_reported":1725037739,"current_range_meters":17200,"station_id":"ce4bh0h2rcd13ifvqd40","pricing_plan_id":"cebpf4jnsgd1na2vs0mg"},{"bike_id":"1e4ffd91-ae0b-4913-9bdc-14bf97b49033","system_id":"levelo_inurba_marseille","lat":43.28726,"lon":5.36093,"is_reserved":false,"is_disabled":false,"rental_uris":{"android":"levelo://app?vid=1e4ffd91-ae0b-4913-9bdc-14bf97b49033","ios":"levelo://app?vid=1e4ffd91-ae0b-4913-9bdc-14bf97b49033"},"vehicle_type_id":"4","last_reported":1725037739,"current_range_meters":0,"station_id":"cki0cbj6b192h4jlfktg","pricing_plan_id":"cebpf4jnsgd1na2vs0mg"},{"bike_id":"fd2ffee0-8781-4aa1-8a35-f8ad54f15305","system_id":"levelo_inurba_marseille","lat":43.286749,"lon":5.362553,"is_reserved":false,"is_disabled":false,"rental_uris":{"android":"levelo://app?vid=fd2ffee0-8781-4aa1-8a35-f8ad54f15305","ios":"levelo://app?vid=fd2ffee0-8781-4aa1-8a35-f8ad54f15305"},"vehicle_type_id":"4","last_reported":1725037739,"current_range_meters":0,"station_id":"","pricing_plan_id":"cebpf4jnsgd1na2vs0mg"},{"bike_id":"ee07a83e-7269-48b1-bebe-f43b4434146d","system_id":"levelo_inurba_marseille","lat":43.286593,"lon":5.363346,"is_reserved":false,"is_disabled":false,"rental_uris":{"android":"levelo://app?vid=ee07a83e-7269-48b1-bebe-f43b4434146d","ios":"levelo://app?vid=ee07a83e-7269-48b1-bebe-f43b4434146d"},"vehicle_type_id":"4","last_reported":1725037739,"current_range_meters":400,"station_id":"ce4bhah2rcd13ifvqej0","pricing_plan_id":"cebpf4jnsgd1na2vs0mg"},{"bike_id":"e2282c17-1a37-4d12-8367-105d970fb064","system_id":"levelo_inurba_marseille","lat":43.286961,"lon":5.373785,"is_reserved":false,"is_disabled":false,"rental_uris":{"android":"levelo://app?vid=e2282c17-1a37-4d12-8367-105d970fb064","ios":"levelo://app?vid=e2282c17-1a37-4d12-8367-105d970fb064"},"vehicle_type_id":"4","last_reported":1725037739,"current_range_meters":0,"station_id":"ce4bh3p2rcd13ifvqdq0","pricing_plan_id":"cebpf4jnsgd1na2vs0mg"},{"bike_id":"12e8c5ee-2638-43ac-bbec-a03faa583e49","system_id":"levelo_inurba_marseille","lat":43.286961,"lon":5.373785,"is_reserved":false,"is_disabled":false,"rental_uris":{"android":"levelo://app?vid=12e8c5ee-2638-43ac-bbec-a03faa583e49","ios":"levelo://app?vid=12e8c5ee-2638-43ac-bbec-a03faa583e49"},"vehicle_type_id":"4","last_reported":1725037739,"current_range_meters":6800,"station_id":"ce4bh3p2rcd13ifvqdq0","pricing_plan_id":"cebpf4jnsgd1na2vs0mg"},{"bike_id":"3ecc6b50-5701-4444-95ff-a2cd9ec2e327","system_id":"levelo_inurba_marseille","lat":43.289307,"lon":5.38406,"is_reserved":false,"is_disabled":false,"rental_uris":{"android":"levelo://app?vid=3ecc6b50-5701-4444-95ff-a2cd9ec2e327","ios":"levelo://app?vid=3ecc6b50-5701-4444-95ff-a2cd9ec2e327"},"vehicle_type_id":"4","last_reported":1725037739,"current_range_meters":12000,"station_id":"ce4bh612rcd13ifvqe6g","pricing_plan_id":"cebpf4jnsgd1na2vs0mg"},{"bike_id":"44934563-8642-4e4a-a2c9-8a943dce8ee3","system_id":"levelo_inurba_marseille","lat":43.290345,"lon":5.38646,"is_reserved":false,"is_disabled":false,"rental_uris":{"android":"levelo://app?vid=44934563-8642-4e4a-a2c9-8a943dce8ee3","ios":"levelo://app?vid=44934563-8642-4e4a-a2c9-8a943dce8ee3"},"vehicle_type_id":"4","last_reported":1725037739,"current_range_meters":12800,"station_id":"ce4bh4p2rcd13ifvqe0g","pricing_plan_id":"cebpf4jnsgd1na2vs0mg"},{"bike_id":"38726e61-770c-4485-8a8c-e65df10c0233","system_id":"levelo_inurba_marseille","lat":43.289307,"lon":5.38406,"is_reserved":false,"is_disabled":false,"rental_uris":{"android":"levelo://app?vid=38726e61-770c-4485-8a8c-e65df10c0233","ios":"levelo://app?vid=38726e61-770c-4485-8a8c-e65df10c0233"},"vehicle_type_id":"4","last_reported":1725037739,"current_range_meters":6000,"station_id":"ce4bh612rcd13ifvqe6g","pricing_plan_id":"cebpf4jnsgd1na2vs0mg"},{"bike_id":"8946cadb-6e71-43dd-922c-d803f6bb73a4","system_id":"levelo_inurba_marseille","lat":43.290336,"lon":5.386425,"is_reserved":false,"is_disabled":false,"rental_uris":{"android":"levelo://app?vid=8946cadb-6e71-43dd-922c-d803f6bb73a4","ios":"levelo://app?vid=8946cadb-6e71-43dd-922c-d803f6bb73a4"},"vehicle_type_id":"4","last_reported":1725037739,"current_range_meters":24400,"station_id":"ce4bh4p2rcd13ifvqe0g","pricing_plan_id":"cebpf4jnsgd1na2vs0mg"},{"bike_id":"faba53da-2d6a-49c4-97ef-5193a2083afd","system_id":"levelo_inurba_marseille","lat":43.302759,"lon":5.400793,"is_reserved":false,"is_disabled":false,"rental_uris":{"android":"levelo://app?vid=faba53da-2d6a-49c4-97ef-5193a2083afd","ios":"levelo://app?vid=faba53da-2d6a-49c4-97ef-5193a2083afd"},"vehicle_type_id":"4","last_reported":1725037739,"current_range_meters":0,"station_id":"ce4bgvh2rcd13ifvqcs0","pricing_plan_id":"cebpf4jnsgd1na2vs0mg"},{"bike_id":"cc5f1901-10b2-434c-b0bb-fece36f2a07a","system_id":"levelo_inurba_marseille","lat":43.302759,"lon":5.400793,"is_reserved":false,"is_disabled":false,"rental_uris":{"android":"levelo://app?vid=cc5f1901-10b2-434c-b0bb-fece36f2a07a","ios":"levelo://app?vid=cc5f1901-10b2-434c-b0bb-fece36f2a07a"},"vehicle_type_id":"4","last_reported":1725037739,"current_range_meters":21200,"station_id":"ce4bgvh2rcd13ifvqcs0","pricing_plan_id":"cebpf4jnsgd1na2vs0mg"},{"bike_id":"a54e1ece-db66-4a67-907e-3e0aa0dcd44e","system_id":"levelo_inurba_marseille","lat":43.3031,"lon":5.40117,"is_reserved":false,"is_disabled":false,"rental_uris":{"android":"levelo://app?vid=a54e1ece-db66-4a67-907e-3e0aa0dcd44e","ios":"levelo://app?vid=a54e1ece-db66-4a67-907e-3e0aa0dcd44e"},"vehicle_type_id":"4","last_reported":1725037739,"current_range_meters":8800,"station_id":"ce4bgvh2rcd13ifvqcs0","pricing_plan_id":"cebpf4jnsgd1na2vs0mg"},{"bike_id":"e8a7038c-9f7f-4381-8586-45bc56ea9cbf","system_id":"levelo_inurba_marseille","lat":43.286039,"lon":5.370679,"is_reserved":false,"is_disabled":false,"rental_uris":{"android":"levelo://app?vid=e8a7038c-9f7f-4381-8586-45bc56ea9cbf","ios":"levelo://app?vid=e8a7038c-9f7f-4381-8586-45bc56ea9cbf"},"vehicle_type_id":"4","last_reported":1725037739,"current_range_meters":2400,"station_id":"ce4bht12rcd13ifvqi60","pricing_plan_id":"cebpf4jnsgd1na2vs0mg"},{"bike_id":"136b5110-cc9a-4bbf-8ac9-f260c3fc0700","system_id":"levelo_inurba_marseille","lat":43.287184,"lon":5.37937,"is_reserved":false,"is_disabled":false,"rental_uris":{"android":"levelo://app?vid=136b5110-cc9a-4bbf-8ac9-f260c3fc0700","ios":"levelo://app?vid=136b5110-cc9a-4bbf-8ac9-f260c3fc0700"},"vehicle_type_id":"4","last_reported":1725037739,"current_range_meters":0,"station_id":"ce4bh9p2rcd13ifvqec0","pricing_plan_id":"cebpf4jnsgd1na2vs0mg"},{"bike_id":"d785da2b-6149-4df5-8f39-506fd06a5d87","system_id":"levelo_inurba_marseille","lat":43.28715,"lon":5.37936,"is_reserved":false,"is_disabled":false,"rental_uris":{"android":"levelo://app?vid=d785da2b-6149-4df5-8f39-506fd06a5d87","ios":"levelo://app?vid=d785da2b-6149-4df5-8f39-506fd06a5d87"},"vehicle_type_id":"4","last_reported":1725037739,"current_range_meters":0,"station_id":"ce4bh9p2rcd13ifvqec0","pricing_plan_id":"cebpf4jnsgd1na2vs0mg"},{"bike_id":"1bb211d8-1e78-4f2e-bbd6-02bc9ce14459","system_id":"levelo_inurba_marseille","lat":43.28712,"lon":5.37939,"is_reserved":false,"is_disabled":false,"rental_uris":{"android":"levelo://app?vid=1bb211d8-1e78-4f2e-bbd6-02bc9ce14459","ios":"levelo://app?vid=1bb211d8-1e78-4f2e-bbd6-02bc9ce14459"},"vehicle_type_id":"4","last_reported":1725037739,"current_range_meters":400,"station_id":"ce4bh9p2rcd13ifvqec0","pricing_plan_id":"cebpf4jnsgd1na2vs0mg"},{"bike_id":"29b16561-ac25-4504-bf8e-5ea6616a1f79","system_id":"levelo_inurba_marseille","lat":43.287913,"lon":5.382628,"is_reserved":false,"is_disabled":false,"rental_uris":{"android":"levelo://app?vid=29b16561-ac25-4504-bf8e-5ea6616a1f79","ios":"levelo://app?vid=29b16561-ac25-4504-bf8e-5ea6616a1f79"},"vehicle_type_id":"4","last_reported":1725037739,"current_range_meters":24000,"station_id":"","pricing_plan_id":"cebpf4jnsgd1na2vs0mg"},{"bike_id":"2755ae42-3f2e-4779-919b-2f23cac191c9","system_id":"levelo_inurba_marseille","lat":43.31702,"lon":5.40458,"is_reserved":false,"is_disabled":false,"rental_uris":{"android":"levelo://app?vid=2755ae42-3f2e-4779-919b-2f23cac191c9","ios":"levelo://app?vid=2755ae42-3f2e-4779-919b-2f23cac191c9"},"vehicle_type_id":"4","last_reported":1725037739,"current_range_meters":1600,"station_id":"ce4bh012rcd13ifvqd00","pricing_plan_id":"cebpf4jnsgd1na2vs0mg"},{"bike_id":"1d8d0f22-cdb2-42df-8ff2-629da276daac","system_id":"levelo_inurba_marseille","lat":43.317601,"lon":5.405759,"is_reserved":false,"is_disabled":false,"rental_uris":{"android":"levelo://app?vid=1d8d0f22-cdb2-42df-8ff2-629da276daac","ios":"levelo://app?vid=1d8d0f22-cdb2-42df-8ff2-629da276daac"},"vehicle_type_id":"4","last_reported":1725037739,"current_range_meters":9200,"station_id":"","pricing_plan_id":"cebpf4jnsgd1na2vs0mg"},{"bike_id":"4c647605-91d6-4394-9682-5680a19e1832","system_id":"levelo_inurba_marseille","lat":43.284534,"lon":5.358662,"is_reserved":false,"is_disabled":false,"rental_uris":{"android":"levelo://app?vid=4c647605-91d6-4394-9682-5680a19e1832","ios":"levelo://app?vid=4c647605-91d6-4394-9682-5680a19e1832"},"vehicle_type_id":"4","last_reported":1725037739,"current_range_meters":24400,"station_id":"ce4bhah2rcd13ifvqei0","pricing_plan_id":"cebpf4jnsgd1na2vs0mg"},{"bike_id":"cb538cea-7f56-443f-8853-6be9e319116a","system_id":"levelo_inurba_marseille","lat":43.284534,"lon":5.358662,"is_reserved":false,"is_disabled":false,"rental_uris":{"android":"levelo://app?vid=cb538cea-7f56-443f-8853-6be9e319116a","ios":"levelo://app?vid=cb538cea-7f56-443f-8853-6be9e319116a"},"vehicle_type_id":"4","last_reported":1725037739,"current_range_meters":24000,"station_id":"ce4bhah2rcd13ifvqei0","pricing_plan_id":"cebpf4jnsgd1na2vs0mg"},{"bike_id":"8d278c05-5716-429c-add2-cbf1458025d5","system_id":"levelo_inurba_marseille","lat":43.294314,"lon":5.397498,"is_reserved":false,"is_disabled":false,"rental_uris":{"android":"levelo://app?vid=8d278c05-5716-429c-add2-cbf1458025d5","ios":"levelo://app?vid=8d278c05-5716-429c-add2-cbf1458025d5"},"vehicle_type_id":"4","last_reported":1725037739,"current_range_meters":12800,"station_id":"ce4bh3h2rcd13ifvqdo0","pricing_plan_id":"cebpf4jnsgd1na2vs0mg"},{"bike_id":"dfb1e88b-012f-47df-9ab1-8c626aa7166a","system_id":"levelo_inurba_marseille","lat":43.28623,"lon":5.35102,"is_reserved":false,"is_disabled":false,"rental_uris":{"android":"levelo://app?vid=dfb1e88b-012f-47df-9ab1-8c626aa7166a","ios":"levelo://app?vid=dfb1e88b-012f-47df-9ab1-8c626aa7166a"},"vehicle_type_id":"4","last_reported":1725037739,"current_range_meters":24800,"station_id":"ce4bhch2rcd13ifvqeug","pricing_plan_id":"cebpf4jnsgd1na2vs0mg"},{"bike_id":"b3212dba-383a-405b-8c18-50ddccb172d0","system_id":"levelo_inurba_marseille","lat":43.285856,"lon":5.350771,"is_reserved":false,"is_disabled":false,"rental_uris":{"android":"levelo://app?vid=b3212dba-383a-405b-8c18-50ddccb172d0","ios":"levelo://app?vid=b3212dba-383a-405b-8c18-50ddccb172d0"},"vehicle_type_id":"4","last_reported":1725037739,"current_range_meters":25600,"station_id":"ce4bhch2rcd13ifvqeug","pricing_plan_id":"cebpf4jnsgd1na2vs0mg"},{"bike_id":"99e121cb-a560-4871-a6a7-d99d9cffff30","system_id":"levelo_inurba_marseille","lat":43.28621,"lon":5.35102,"is_reserved":false,"is_disabled":false,"rental_uris":{"android":"levelo://app?vid=99e121cb-a560-4871-a6a7-d99d9cffff30","ios":"levelo://app?vid=99e121cb-a560-4871-a6a7-d99d9cffff30"},"vehicle_type_id":"4","last_reported":1725037739,"current_range_meters":31200,"station_id":"ce4bhch2rcd13ifvqeug","pricing_plan_id":"cebpf4jnsgd1na2vs0mg"},{"bike_id":"c137cf9d-cd7d-4eb8-87a6-ddc179f4ba3d","system_id":"levelo_inurba_marseille","lat":43.2862,"lon":5.35104,"is_reserved":false,"is_disabled":false,"rental_uris":{"android":"levelo://app?vid=c137cf9d-cd7d-4eb8-87a6-ddc179f4ba3d","ios":"levelo://app?vid=c137cf9d-cd7d-4eb8-87a6-ddc179f4ba3d"},"vehicle_type_id":"4","last_reported":1725037739,"current_range_meters":0,"station_id":"ce4bhch2rcd13ifvqeug","pricing_plan_id":"cebpf4jnsgd1na2vs0mg"},{"bike_id":"fe4309e1-bdd9-4a07-ba89-4c7916e6a873","system_id":"levelo_inurba_marseille","lat":43.286191,"lon":5.351051,"is_reserved":false,"is_disabled":false,"rental_uris":{"android":"levelo://app?vid=fe4309e1-bdd9-4a07-ba89-4c7916e6a873","ios":"levelo://app?vid=fe4309e1-bdd9-4a07-ba89-4c7916e6a873"},"vehicle_type_id":"4","last_reported":1725037739,"current_range_meters":31200,"station_id":"","pricing_plan_id":"cebpf4jnsgd1na2vs0mg"},{"bike_id":"47c23068-5580-4eb6-a5fd-57c7963cdeda","system_id":"levelo_inurba_marseille","lat":43.286193,"lon":5.351038,"is_reserved":false,"is_disabled":false,"rental_uris":{"android":"levelo://app?vid=47c23068-5580-4eb6-a5fd-57c7963cdeda","ios":"levelo://app?vid=47c23068-5580-4eb6-a5fd-57c7963cdeda"},"vehicle_type_id":"4","last_reported":1725037739,"current_range_meters":31200,"station_id":"ce4bhch2rcd13ifvqeug","pricing_plan_id":"cebpf4jnsgd1na2vs0mg"},{"bike_id":"28a1c854-489f-4f26-b0ad-0bc7586e309b","system_id":"levelo_inurba_marseille","lat":43.28617,"lon":5.35106,"is_reserved":false,"is_disabled":false,"rental_uris":{"android":"levelo://app?vid=28a1c854-489f-4f26-b0ad-0bc7586e309b","ios":"levelo://app?vid=28a1c854-489f-4f26-b0ad-0bc7586e309b"},"vehicle_type_id":"4","last_reported":1725037739,"current_range_meters":16400,"station_id":"ce4bhch2rcd13ifvqeug","pricing_plan_id":"cebpf4jnsgd1na2vs0mg"},{"bike_id":"41dd85ab-0135-4483-9d3f-4005cf0d0ae7","system_id":"levelo_inurba_marseille","lat":43.28616,"lon":5.35107,"is_reserved":false,"is_disabled":false,"rental_uris":{"android":"levelo://app?vid=41dd85ab-0135-4483-9d3f-4005cf0d0ae7","ios":"levelo://app?vid=41dd85ab-0135-4483-9d3f-4005cf0d0ae7"},"vehicle_type_id":"4","last_reported":1725037739,"current_range_meters":28800,"station_id":"ce4bhch2rcd13ifvqeug","pricing_plan_id":"cebpf4jnsgd1na2vs0mg"},{"bike_id":"393d0f65-9517-4723-87c2-05daea577835","system_id":"levelo_inurba_marseille","lat":43.28617,"lon":5.35099,"is_reserved":false,"is_disabled":false,"rental_uris":{"android":"levelo://app?vid=393d0f65-9517-4723-87c2-05daea577835","ios":"levelo://app?vid=393d0f65-9517-4723-87c2-05daea577835"},"vehicle_type_id":"4","last_reported":1725037739,"current_range_meters":17600,"station_id":"ce4bhch2rcd13ifvqeug","pricing_plan_id":"cebpf4jnsgd1na2vs0mg"},{"bike_id":"2ae8a1dd-8d50-4533-933b-1fd63d056c91","system_id":"levelo_inurba_marseille","lat":43.28617,"lon":5.35099,"is_reserved":false,"is_disabled":false,"rental_uris":{"android":"levelo://app?vid=2ae8a1dd-8d50-4533-933b-1fd63d056c91","ios":"levelo://app?vid=2ae8a1dd-8d50-4533-933b-1fd63d056c91"},"vehicle_type_id":"4","last_reported":1725037739,"current_range_meters":400,"station_id":"ce4bhch2rcd13ifvqeug","pricing_plan_id":"cebpf4jnsgd1na2vs0mg"},{"bike_id":"2d381e6f-d434-4700-ab6c-eeef480582e0","system_id":"levelo_inurba_marseille","lat":43.28615,"lon":5.35098,"is_reserved":false,"is_disabled":false,"rental_uris":{"android":"levelo://app?vid=2d381e6f-d434-4700-ab6c-eeef480582e0","ios":"levelo://app?vid=2d381e6f-d434-4700-ab6c-eeef480582e0"},"vehicle_type_id":"4","last_reported":1725037739,"current_range_meters":0,"station_id":"ce4bhch2rcd13ifvqeug","pricing_plan_id":"cebpf4jnsgd1na2vs0mg"},{"bike_id":"c38ecb6f-69d3-498a-a2f9-f23a0edc01c0","system_id":"levelo_inurba_marseille","lat":43.28615,"lon":5.35097,"is_reserved":false,"is_disabled":false,"rental_uris":{"android":"levelo://app?vid=c38ecb6f-69d3-498a-a2f9-f23a0edc01c0","ios":"levelo://app?vid=c38ecb6f-69d3-498a-a2f9-f23a0edc01c0"},"vehicle_type_id":"4","last_reported":1725037739,"current_range_meters":28000,"station_id":"ce4bhch2rcd13ifvqeug","pricing_plan_id":"cebpf4jnsgd1na2vs0mg"},{"bike_id":"e2273c48-bbec-4675-bb7d-b650ffce71ce","system_id":"levelo_inurba_marseille","lat":43.28612,"lon":5.35103,"is_reserved":false,"is_disabled":false,"rental_uris":{"android":"levelo://app?vid=e2273c48-bbec-4675-bb7d-b650ffce71ce","ios":"levelo://app?vid=e2273c48-bbec-4675-bb7d-b650ffce71ce"},"vehicle_type_id":"4","last_reported":1725037739,"current_range_meters":7200,"station_id":"ce4bhch2rcd13ifvqeug","pricing_plan_id":"cebpf4jnsgd1na2vs0mg"},{"bike_id":"37c5acf0-6f22-4274-86fb-5ea68a88e053","system_id":"levelo_inurba_marseille","lat":43.285848,"lon":5.350787,"is_reserved":false,"is_disabled":false,"rental_uris":{"android":"levelo://app?vid=37c5acf0-6f22-4274-86fb-5ea68a88e053","ios":"levelo://app?vid=37c5acf0-6f22-4274-86fb-5ea68a88e053"},"vehicle_type_id":"4","last_reported":1725037739,"current_range_meters":12800,"station_id":"ce4bhch2rcd13ifvqeug","pricing_plan_id":"cebpf4jnsgd1na2vs0mg"},{"bike_id":"11e5d81f-e5b8-4b6a-9d0c-c2fe222bd455","system_id":"levelo_inurba_marseille","lat":43.28422,"lon":5.37509,"is_reserved":false,"is_disabled":false,"rental_uris":{"android":"levelo://app?vid=11e5d81f-e5b8-4b6a-9d0c-c2fe222bd455","ios":"levelo://app?vid=11e5d81f-e5b8-4b6a-9d0c-c2fe222bd455"},"vehicle_type_id":"4","last_reported":1725037739,"current_range_meters":0,"station_id":"ce4bh412rcd13ifvqds0","pricing_plan_id":"cebpf4jnsgd1na2vs0mg"},{"bike_id":"2b96999b-bb50-486e-8293-8d00f914c52a","system_id":"levelo_inurba_marseille","lat":43.2842,"lon":5.37522,"is_reserved":false,"is_disabled":false,"rental_uris":{"android":"levelo://app?vid=2b96999b-bb50-486e-8293-8d00f914c52a","ios":"levelo://app?vid=2b96999b-bb50-486e-8293-8d00f914c52a"},"vehicle_type_id":"4","last_reported":1725037739,"current_range_meters":11600,"station_id":"ce4bh412rcd13ifvqds0","pricing_plan_id":"cebpf4jnsgd1na2vs0mg"},{"bike_id":"31e52648-f4f4-41b8-89ee-f9562ff06911","system_id":"levelo_inurba_marseille","lat":43.28419,"lon":5.37519,"is_reserved":false,"is_disabled":false,"rental_uris":{"android":"levelo://app?vid=31e52648-f4f4-41b8-89ee-f9562ff06911","ios":"levelo://app?vid=31e52648-f4f4-41b8-89ee-f9562ff06911"},"vehicle_type_id":"4","last_reported":1725037739,"current_range_meters":13200,"station_id":"ce4bh412rcd13ifvqds0","pricing_plan_id":"cebpf4jnsgd1na2vs0mg"},{"bike_id":"ad09dbc7-c816-4846-9afa-a8828e2b87a9","system_id":"levelo_inurba_marseille","lat":43.283998,"lon":5.375062,"is_reserved":false,"is_disabled":false,"rental_uris":{"android":"levelo://app?vid=ad09dbc7-c816-4846-9afa-a8828e2b87a9","ios":"levelo://app?vid=ad09dbc7-c816-4846-9afa-a8828e2b87a9"},"vehicle_type_id":"4","last_reported":1725037739,"current_range_meters":400,"station_id":"ce4bh412rcd13ifvqds0","pricing_plan_id":"cebpf4jnsgd1na2vs0mg"},{"bike_id":"976d4ba4-8f28-4176-99a1-8cb22b2e6a17","system_id":"levelo_inurba_marseille","lat":43.283998,"lon":5.375062,"is_reserved":false,"is_disabled":false,"rental_uris":{"android":"levelo://app?vid=976d4ba4-8f28-4176-99a1-8cb22b2e6a17","ios":"levelo://app?vid=976d4ba4-8f28-4176-99a1-8cb22b2e6a17"},"vehicle_type_id":"4","last_reported":1725037739,"current_range_meters":2000,"station_id":"ce4bh412rcd13ifvqds0","pricing_plan_id":"cebpf4jnsgd1na2vs0mg"},{"bike_id":"39bd0151-2aa4-4a55-95bd-5066572c1714","system_id":"levelo_inurba_marseille","lat":43.28404,"lon":5.37522,"is_reserved":false,"is_disabled":false,"rental_uris":{"android":"levelo://app?vid=39bd0151-2aa4-4a55-95bd-5066572c1714","ios":"levelo://app?vid=39bd0151-2aa4-4a55-95bd-5066572c1714"},"vehicle_type_id":"4","last_reported":1725037739,"current_range_meters":26400,"station_id":"ce4bh412rcd13ifvqds0","pricing_plan_id":"cebpf4jnsgd1na2vs0mg"},{"bike_id":"4c5c9227-bdc6-4f18-922e-05339e5c5ad8","system_id":"levelo_inurba_marseille","lat":43.28402,"lon":5.3751,"is_reserved":false,"is_disabled":false,"rental_uris":{"android":"levelo://app?vid=4c5c9227-bdc6-4f18-922e-05339e5c5ad8","ios":"levelo://app?vid=4c5c9227-bdc6-4f18-922e-05339e5c5ad8"},"vehicle_type_id":"4","last_reported":1725037739,"current_range_meters":4800,"station_id":"ce4bh412rcd13ifvqds0","pricing_plan_id":"cebpf4jnsgd1na2vs0mg"},{"bike_id":"712bd222-3081-4a84-b850-9cfbe0687747","system_id":"levelo_inurba_marseille","lat":43.32668,"lon":5.40308,"is_reserved":false,"is_disabled":false,"rental_uris":{"android":"levelo://app?vid=712bd222-3081-4a84-b850-9cfbe0687747","ios":"levelo://app?vid=712bd222-3081-4a84-b850-9cfbe0687747"},"vehicle_type_id":"4","last_reported":1725037739,"current_range_meters":5200,"station_id":"ce4rr2p2rcd13i802rgg","pricing_plan_id":"cebpf4jnsgd1na2vs0mg"},{"bike_id":"2fbbebce-0225-4dd7-8fc5-d6f23037561c","system_id":"levelo_inurba_marseille","lat":43.319179,"lon":5.407725,"is_reserved":false,"is_disabled":false,"rental_uris":{"android":"levelo://app?vid=2fbbebce-0225-4dd7-8fc5-d6f23037561c","ios":"levelo://app?vid=2fbbebce-0225-4dd7-8fc5-d6f23037561c"},"vehicle_type_id":"4","last_reported":1725037739,"current_range_meters":17200,"station_id":"ce4bhq12rcd13ifvqhig","pricing_plan_id":"cebpf4jnsgd1na2vs0mg"},{"bike_id":"57bb8869-7794-479b-b825-02334420727f","system_id":"levelo_inurba_marseille","lat":43.319179,"lon":5.407725,"is_reserved":false,"is_disabled":false,"rental_uris":{"android":"levelo://app?vid=57bb8869-7794-479b-b825-02334420727f","ios":"levelo://app?vid=57bb8869-7794-479b-b825-02334420727f"},"vehicle_type_id":"4","last_reported":1725037739,"current_range_meters":29600,"station_id":"ce4bhq12rcd13ifvqhig","pricing_plan_id":"cebpf4jnsgd1na2vs0mg"},{"bike_id":"78c51e46-6dd6-434f-b20d-d71bb1d52e50","system_id":"levelo_inurba_marseille","lat":43.319179,"lon":5.407725,"is_reserved":false,"is_disabled":false,"rental_uris":{"android":"levelo://app?vid=78c51e46-6dd6-434f-b20d-d71bb1d52e50","ios":"levelo://app?vid=78c51e46-6dd6-434f-b20d-d71bb1d52e50"},"vehicle_type_id":"4","last_reported":1725037739,"current_range_meters":7600,"station_id":"ce4bhq12rcd13ifvqhig","pricing_plan_id":"cebpf4jnsgd1na2vs0mg"},{"bike_id":"d6cac55c-6e4e-4573-bd11-a60f7b67b5ba","system_id":"levelo_inurba_marseille","lat":43.337212,"lon":5.391928,"is_reserved":false,"is_disabled":false,"rental_uris":{"android":"levelo://app?vid=d6cac55c-6e4e-4573-bd11-a60f7b67b5ba","ios":"levelo://app?vid=d6cac55c-6e4e-4573-bd11-a60f7b67b5ba"},"vehicle_type_id":"4","last_reported":1725037739,"current_range_meters":17600,"station_id":"ce4bhr92rcd13ifvqhsg","pricing_plan_id":"cebpf4jnsgd1na2vs0mg"},{"bike_id":"bc0b3cc4-16a1-4582-90cf-5668620a51a0","system_id":"levelo_inurba_marseille","lat":43.284793,"lon":5.384113,"is_reserved":false,"is_disabled":false,"rental_uris":{"android":"levelo://app?vid=bc0b3cc4-16a1-4582-90cf-5668620a51a0","ios":"levelo://app?vid=bc0b3cc4-16a1-4582-90cf-5668620a51a0"},"vehicle_type_id":"4","last_reported":1725037739,"current_range_meters":3600,"station_id":"ce4bh512rcd13ifvqe3g","pricing_plan_id":"cebpf4jnsgd1na2vs0mg"},{"bike_id":"5df1be93-b69e-4f5c-a601-84248e113033","system_id":"levelo_inurba_marseille","lat":43.288497,"lon":5.393089,"is_reserved":false,"is_disabled":false,"rental_uris":{"android":"levelo://app?vid=5df1be93-b69e-4f5c-a601-84248e113033","ios":"levelo://app?vid=5df1be93-b69e-4f5c-a601-84248e113033"},"vehicle_type_id":"4","last_reported":1725037739,"current_range_meters":2400,"station_id":"ce4bh2p2rcd13ifvqdi0","pricing_plan_id":"cebpf4jnsgd1na2vs0mg"},{"bike_id":"dcd98386-9635-408f-adc3-51366f13ee60","system_id":"levelo_inurba_marseille","lat":43.284214,"lon":5.349706,"is_reserved":false,"is_disabled":false,"rental_uris":{"android":"levelo://app?vid=dcd98386-9635-408f-adc3-51366f13ee60","ios":"levelo://app?vid=dcd98386-9635-408f-adc3-51366f13ee60"},"vehicle_type_id":"4","last_reported":1725037739,"current_range_meters":31200,"station_id":"ce4bhbh2rcd13ifvqepg","pricing_plan_id":"cebpf4jnsgd1na2vs0mg"},{"bike_id":"c03ac536-7935-4ea7-a9b8-4ed4a8c8a964","system_id":"levelo_inurba_marseille","lat":43.28428,"lon":5.34989,"is_reserved":false,"is_disabled":false,"rental_uris":{"android":"levelo://app?vid=c03ac536-7935-4ea7-a9b8-4ed4a8c8a964","ios":"levelo://app?vid=c03ac536-7935-4ea7-a9b8-4ed4a8c8a964"},"vehicle_type_id":"4","last_reported":1725037739,"current_range_meters":13200,"station_id":"ce4bhbh2rcd13ifvqepg","pricing_plan_id":"cebpf4jnsgd1na2vs0mg"},{"bike_id":"6cc90288-e88c-4bff-b85b-0c62b6dd8b57","system_id":"levelo_inurba_marseille","lat":43.284214,"lon":5.349706,"is_reserved":false,"is_disabled":false,"rental_uris":{"android":"levelo://app?vid=6cc90288-e88c-4bff-b85b-0c62b6dd8b57","ios":"levelo://app?vid=6cc90288-e88c-4bff-b85b-0c62b6dd8b57"},"vehicle_type_id":"4","last_reported":1725037739,"current_range_meters":16000,"station_id":"ce4bhbh2rcd13ifvqepg","pricing_plan_id":"cebpf4jnsgd1na2vs0mg"},{"bike_id":"13bfacbc-765f-472c-83f2-80f49b6de425","system_id":"levelo_inurba_marseille","lat":43.28427,"lon":5.34979,"is_reserved":false,"is_disabled":false,"rental_uris":{"android":"levelo://app?vid=13bfacbc-765f-472c-83f2-80f49b6de425","ios":"levelo://app?vid=13bfacbc-765f-472c-83f2-80f49b6de425"},"vehicle_type_id":"4","last_reported":1725037739,"current_range_meters":15600,"station_id":"ce4bhbh2rcd13ifvqepg","pricing_plan_id":"cebpf4jnsgd1na2vs0mg"},{"bike_id":"33e7b818-72d1-4ee5-a323-d75456ee54dd","system_id":"levelo_inurba_marseille","lat":43.28423,"lon":5.34983,"is_reserved":false,"is_disabled":false,"rental_uris":{"android":"levelo://app?vid=33e7b818-72d1-4ee5-a323-d75456ee54dd","ios":"levelo://app?vid=33e7b818-72d1-4ee5-a323-d75456ee54dd"},"vehicle_type_id":"4","last_reported":1725037739,"current_range_meters":18000,"station_id":"ce4bhbh2rcd13ifvqepg","pricing_plan_id":"cebpf4jnsgd1na2vs0mg"},{"bike_id":"83b70010-5ca6-4137-bc5b-29e54831dc2c","system_id":"levelo_inurba_marseille","lat":43.284198,"lon":5.349832,"is_reserved":false,"is_disabled":false,"rental_uris":{"android":"levelo://app?vid=83b70010-5ca6-4137-bc5b-29e54831dc2c","ios":"levelo://app?vid=83b70010-5ca6-4137-bc5b-29e54831dc2c"},"vehicle_type_id":"4","last_reported":1725037739,"current_range_meters":30400,"station_id":"ce4bhbh2rcd13ifvqepg","pricing_plan_id":"cebpf4jnsgd1na2vs0mg"},