{"last_updated":1737328044,"ttl":60,"version":"2.2","data":{"bikes":[{"bike_id":"297b268e-7a67-4f26-982f-a8d39a02dbe7","system_id":"levelo_inurba_marseille","lat":43.29366,"lon":5.37834,"is_reserved":false,"is_disabled":false,"rental_uris":{"android":"levelo://app?vid=297b268e-7a67-4f26-982f-a8d39a02dbe7","ios":"levelo://app?vid=297b268e-7a67-4f26-982f-a8d39a02dbe7"},"vehicle_type_id":"4","last_reported":1737328045,"current_range_meters":38000,"station_id":"ce4bgjh2rcd13ifvqbf0","pricing_plan_id":"cebpf4jnsgd1na2vs0mg"},{"bike_id":"8bface02-8741-4157-a2ca-4b8723bc93d9","system_id":"levelo_inurba_marseille","lat":43.31279,"lon":5.40167,"is_reserved":false,"is_disabled":false,"rental_uris":{"android":"levelo://app?vid=8bface02-8741-4157-a2ca-4b8723bc93d9","ios":"levelo://app?vid=8bface02-8741-4157-a2ca-4b8723bc93d9"},"vehicle_type_id":"4","last_reported":1737328045,"current_range_meters":38800,"station_id":"ce4bh092rcd13ifvqd30","pricing_plan_id":"cebpf4jnsgd1na2vs0mg"},{"bike_id":"17a6427c-4d22-4e4d-b3c0-28a1908aff44","system_id":"levelo_inurba_marseille","lat":43.2481,"lon":5.37455,"is_reserved":false,"is_disabled":false,"rental_uris":{"android":"levelo://app?vid=17a6427c-4d22-4e4d-b3c0-28a1908aff44","ios":"levelo://app?vid=17a6427c-4d22-4e4d-b3c0-28a1908aff44"},"vehicle_type_id":"4","last_reported":1737328045,"current_range_meters":39200,"station_id":"ce4bhgh2rcd13ifvqfb0","pricing_plan_id":"cebpf4jnsgd1na2vs0mg"},{"bike_id":"d383b76c-b1c5-4112-bf95-e420a42ff72e","system_id":"levelo_inurba_marseille","lat":43.24832,"lon":5.37438,"is_reserved":false,"is_disabled":false,"rental_uris":{"android":"levelo://app?vid=d383b76c-b1c5-4112-bf95-e420a42ff72e","ios":"levelo://app?vid=d383b76c-b1c5-4112-bf95-e420a42ff72e"},"vehicle_type_id":"4","last_reported":1737328045,"current_range_meters":35200,"station_id":"ce4bhgh2rcd13ifvqfb0","pricing_plan_id":"cebpf4jnsgd1na2vs0mg"},{"bike_id":"e841df29-8d21-48cf-a019-18bc26b21d64","system_id":"levelo_inurba_marseille","lat":43.27378,"lon":5.36258,"is_reserved":false,"is_disabled":false,"rental_uris":{"android":"levelo://app?vid=e841df29-8d21-48cf-a019-18bc26b21d64","ios":"levelo://app?vid=e841df29-8d21-48cf-a019-18bc26b21d64"},"vehicle_type_id":"4","last_reported":1737328045,"current_range_meters":38800,"station_id":"ce4bhbh2rcd13ifvqeo0","pricing_plan_id":"cebpf4jnsgd1na2vs0mg"},{"bike_id":"016891d3-d48d-43ea-9d8d-aacd30510a50","system_id":"levelo_inurba_marseille","lat":43.2306,"lon":5.3549,"is_reserved":false,"is_disabled":false,"rental_uris":{"android":"levelo://app?vid=016891d3-d48d-43ea-9d8d-aacd30510a50","ios":"levelo://app?vid=016891d3-d48d-43ea-9d8d-aacd30510a50"},"vehicle_type_id":"4","last_reported":1737328045,"current_range_meters":22400,"station_id":"cpo3342slgdg3j2ifvpg","pricing_plan_id":"cebpf4jnsgd1na2vs0mg"},{"bike_id":"fa45cee9-f964-4ae4-b5e8-98187e4255e3","system_id":"levelo_inurba_marseille","lat":43.25113,"lon":5.40315,"is_reserved":false,"is_disabled":false,"rental_uris":{"android":"levelo://app?vid=fa45cee9-f964-4ae4-b5e8-98187e4255e3","ios":"levelo://app?vid=fa45cee9-f964-4ae4-b5e8-98187e4255e3"},"vehicle_type_id":"4","last_reported":1737328045,"current_range_meters":28800,"station_id":"ce4bhlh2rcd13ifvqgig","pricing_plan_id":"cebpf4jnsgd1na2vs0mg"},{"bike_id":"a5cfd84d-4cae-4412-b199-dcb982d64799","system_id":"levelo_inurba_marseille","lat":43.28444,"lon":5.3918,"is_reserved":false,"is_disabled":true,"rental_uris":{"android":"levelo://app?vid=a5cfd84d-4cae-4412-b199-dcb982d64799","ios":"levelo://app?vid=a5cfd84d-4cae-4412-b199-dcb982d64799"},"vehicle_type_id":"4","last_reported":1737328045,"current_range_meters":0,"station_id":"ce4bhoh2rcd13ifvqh5g","pricing_plan_id":"cebpf4jnsgd1na2vs0mg"},{"bike_id":"d957c2d8-61d0-4944-ac88-d531bf9a6e72","system_id":"levelo_inurba_marseille","lat":43.25715,"lon":5.41108,"is_reserved":false,"is_disabled":false,"rental_uris":{"android":"levelo://app?vid=d957c2d8-61d0-4944-ac88-d531bf9a6e72","ios":"levelo://app?vid=d957c2d8-61d0-4944-ac88-d531bf9a6e72"},"vehicle_type_id":"4","last_reported":1737328045,"current_range_meters":18800,"station_id":"ce4bhkp2rcd13ifvqgd0","pricing_plan_id":"cebpf4jnsgd1na2vs0mg"},{"bike_id":"2b085248-87cc-4c64-b31b-d47cccf2b2a5","system_id":"levelo_inurba_marseille","lat":43.29974,"lon":5.3718,"is_reserved":false,"is_disabled":false,"rental_uris":{"android":"levelo://app?vid=2b085248-87cc-4c64-b31b-d47cccf2b2a5","ios":"levelo://app?vid=2b085248-87cc-4c64-b31b-d47cccf2b2a5"},"vehicle_type_id":"4","last_reported":1737328045,"current_range_meters":38800,"station_id":"ce4bgr92rcd13ifvqc7g","pricing_plan_id":"cebpf4jnsgd1na2vs0mg"},{"bike_id":"2e2b650f-aa34-4bd8-850e-0a9184608d24","system_id":"levelo_inurba_marseille","lat":43.26834,"lon":5.39455,"is_reserved":false,"is_disabled":false,"rental_uris":{"android":"levelo://app?vid=2e2b650f-aa34-4bd8-850e-0a9184608d24","ios":"levelo://app?vid=2e2b650f-aa34-4bd8-850e-0a9184608d24"},"vehicle_type_id":"4","last_reported":1737328045,"current_range_meters":6000,"station_id":"","pricing_plan_id":"cebpf4jnsgd1na2vs0mg"},{"bike_id":"c981f361-a508-4553-8bc2-435b4c98d6fb","system_id":"levelo_inurba_marseille","lat":43.31493,"lon":5.3731,"is_reserved":false,"is_disabled":false,"rental_uris":{"android":"levelo://app?vid=c981f361-a508-4553-8bc2-435b4c98d6fb","ios":"levelo://app?vid=c981f361-a508-4553-8bc2-435b4c98d6fb"},"vehicle_type_id":"4","last_reported":1737328045,"current_range_meters":14800,"station_id":"ce4bgt12rcd13ifvqcd0","pricing_plan_id":"cebpf4jnsgd1na2vs0mg"},{"bike_id":"0df77782-f917-4e8b-8812-f4679a4fa790","system_id":"levelo_inurba_marseille","lat":43.28724,"lon":5.36091,"is_reserved":false,"is_disabled":false,"rental_uris":{"android":"levelo://app?vid=0df77782-f917-4e8b-8812-f4679a4fa790","ios":"levelo://app?vid=0df77782-f917-4e8b-8812-f4679a4fa790"},"vehicle_type_id":"4","last_reported":1737328045,"current_range_meters":39200,"station_id":"cki0cbj6b192h4jlfktg","pricing_plan_id":"cebpf4jnsgd1na2vs0mg"},{"bike_id":"e3d5a69f-7604-4ab5-bfce-dc9cf0dd7b56","system_id":"levelo_inurba_marseille","lat":43.2958,"lon":5.39967,"is_reserved":false,"is_disabled":true,"rental_uris":{"android":"levelo://app?vid=e3d5a69f-7604-4ab5-bfce-dc9cf0dd7b56","ios":"levelo://app?vid=e3d5a69f-7604-4ab5-bfce-dc9cf0dd7b56"},"vehicle_type_id":"4","last_reported":1737328045,"current_range_meters":27200,"station_id":"ce4bh312rcd13ifvqdj0","pricing_plan_id":"cebpf4jnsgd1na2vs0mg"},{"bike_id":"68c0c5f2-bee4-40b1-9998-b3418933408c","system_id":"levelo_inurba_marseille","lat":43.28462,"lon":5.35886,"is_reserved":false,"is_disabled":false,"rental_uris":{"android":"levelo://app?vid=68c0c5f2-bee4-40b1-9998-b3418933408c","ios":"levelo://app?vid=68c0c5f2-bee4-40b1-9998-b3418933408c"},"vehicle_type_id":"4","last_reported":1737328045,"current_range_meters":27600,"station_id":"ce4bhah2rcd13ifvqei0","pricing_plan_id":"cebpf4jnsgd1na2vs0mg"},{"bike_id":"4379514a-276f-4575-9ef7-555d59752766","system_id":"levelo_inurba_marseille","lat":43.25119,"lon":5.40314,"is_reserved":false,"is_disabled":false,"rental_uris":{"android":"levelo://app?vid=4379514a-276f-4575-9ef7-555d59752766","ios":"levelo://app?vid=4379514a-276f-4575-9ef7-555d59752766"},"vehicle_type_id":"4","last_reported":1737328045,"current_range_meters":27600,"station_id":"ce4bhlh2rcd13ifvqgig","pricing_plan_id":"cebpf4jnsgd1na2vs0mg"},{"bike_id":"a15481fc-8117-47fa-8058-02c79ff5be87","system_id":"levelo_inurba_marseille","lat":43.25111,"lon":5.40324,"is_reserved":false,"is_disabled":false,"rental_uris":{"android":"levelo://app?vid=a15481fc-8117-47fa-8058-02c79ff5be87","ios":"levelo://app?vid=a15481fc-8117-47fa-8058-02c79ff5be87"},"vehicle_type_id":"4","last_reported":1737328045,"current_range_meters":26000,"station_id":"ce4bhlh2rcd13ifvqgig","pricing_plan_id":"cebpf4jnsgd1na2vs0mg"},{"bike_id":"c1c294be-9888-484f-b942-cb45ed177ba0","system_id":"levelo_inurba_marseille","lat":43.31497,"lon":5.43052,"is_reserved":false,"is_disabled":false,"rental_uris":{"android":"levelo://app?vid=c1c294be-9888-484f-b942-cb45ed177ba0","ios":"levelo://app?vid=c1c294be-9888-484f-b942-cb45ed177ba0"},"vehicle_type_id":"4","last_reported":1737328045,"current_range_meters":38000,"station_id":"ce4bhp92rcd13ifvqhbg","pricing_plan_id":"cebpf4jnsgd1na2vs0mg"},{"bike_id":"d2aa8e32-b4c5-4653-8a6a-29935caa4cae","system_id":"levelo_inurba_marseille","lat":43.26391,"lon":5.39613,"is_reserved":false,"is_disabled":false,"rental_uris":{"android":"levelo://app?vid=d2aa8e32-b4c5-4653-8a6a-29935caa4cae","ios":"levelo://app?vid=d2aa8e32-b4c5-4653-8a6a-29935caa4cae"},"vehicle_type_id":"4","last_reported":1737328045,"current_range_meters":36000,"station_id":"ce4bhlh2rcd13ifvqgig","pricing_plan_id":"cebpf4jnsgd1na2vs0mg"},{"bike_id":"4b24249e-47dd-4ea7-827a-9177faab6540","system_id":"levelo_inurba_marseille","lat":43.31718,"lon":5.42404,"is_reserved":false,"is_disabled":false,"rental_uris":{"android":"levelo://app?vid=4b24249e-47dd-4ea7-827a-9177faab6540","ios":"levelo://app?vid=4b24249e-47dd-4ea7-827a-9177faab6540"},"vehicle_type_id":"4","last_reported":1737328045,"current_range_meters":38000,"station_id":"ce4bhp92rcd13ifvqhbg","pricing_plan_id":"cebpf4jnsgd1na2vs0mg"},{"bike_id":"70ddcb28-c292-4ddb-98ed-4f607976808f","system_id":"levelo_inurba_marseille","lat":43.3064,"lon":5.40077,"is_reserved":false,"is_disabled":false,"rental_uris":{"android":"levelo://app?vid=70ddcb28-c292-4ddb-98ed-4f607976808f","ios":"levelo://app?vid=70ddcb28-c292-4ddb-98ed-4f607976808f"},"vehicle_type_id":"4","last_reported":1737328045,"current_range_meters":35600,"station_id":"ce4bh112rcd13ifvqda0","pricing_plan_id":"cebpf4jnsgd1na2vs0mg"},{"bike_id":"763ed4fc-16fd-47a0-aedf-62c028daa66f","system_id":"levelo_inurba_marseille","lat":43.36404,"lon":5.35577,"is_reserved":false,"is_disabled":false,"rental_uris":{"android":"levelo://app?vid=763ed4fc-16fd-47a0-aedf-62c028daa66f","ios":"levelo://app?vid=763ed4fc-16fd-47a0-aedf-62c028daa66f"},"vehicle_type_id":"4","last_reported":1737328045,"current_range_meters":11200,"station_id":"","pricing_plan_id":"cebpf4jnsgd1na2vs0mg"},{"bike_id":"6e9057cc-573c-43fb-b123-4b6f5de144ad","system_id":"levelo_inurba_marseille","lat":43.306039,"lon":5.372282,"is_reserved":false,"is_disabled":false,"rental_uris":{"android":"levelo://app?vid=6e9057cc-573c-43fb-b123-4b6f5de144ad","ios":"levelo://app?vid=6e9057cc-573c-43fb-b123-4b6f5de144ad"},"vehicle_type_id":"4","last_reported":1737328045,"current_range_meters":19600,"station_id":"","pricing_plan_id":"cebpf4jnsgd1na2vs0mg"},{"bike_id":"56855a2d-6aa0-43be-9bd4-39897b793621","system_id":"levelo_inurba_marseille","lat":43.23189,"lon":5.3556,"is_reserved":false,"is_disabled":false,"rental_uris":{"android":"levelo://app?vid=56855a2d-6aa0-43be-9bd4-39897b793621","ios":"levelo://app?vid=56855a2d-6aa0-43be-9bd4-39897b793621"},"vehicle_type_id":"4","last_reported":1737328045,"current_range_meters":6400,"station_id":"ce4bhu92rcd13ifvqi70","pricing_plan_id":"cebpf4jnsgd1na2vs0mg"},{"bike_id":"dd3e648d-0c8b-4027-a5f5-caba6b440753","system_id":"levelo_inurba_marseille","lat":43.23177,"lon":5.39992,"is_reserved":false,"is_disabled":false,"rental_uris":{"android":"levelo://app?vid=dd3e648d-0c8b-4027-a5f5-caba6b440753","ios":"levelo://app?vid=dd3e648d-0c8b-4027-a5f5-caba6b440753"},"vehicle_type_id":"4","last_reported":1737328045,"current_range_meters":38800,"station_id":"ce4bhn12rcd13ifvqgqg","pricing_plan_id":"cebpf4jnsgd1na2vs0mg"},{"bike_id":"9670fec8-d482-4754-899a-f18d6b72c3bf","system_id":"levelo_inurba_marseille","lat":43.3124,"lon":5.3685,"is_reserved":false,"is_disabled":false,"rental_uris":{"android":"levelo://app?vid=9670fec8-d482-4754-899a-f18d6b72c3bf","ios":"levelo://app?vid=9670fec8-d482-4754-899a-f18d6b72c3bf"},"vehicle_type_id":"4","last_reported":1737328045,"current_range_meters":24800,"station_id":"ce4bgl92rcd13ifvqbq0","pricing_plan_id":"cebpf4jnsgd1na2vs0mg"},{"bike_id":"7d0d7cb7-baf6-47c1-968d-e07d9324534d","system_id":"levelo_inurba_marseille","lat":43.30124,"lon":5.39857,"is_reserved":false,"is_disabled":false,"rental_uris":{"android":"levelo://app?vid=7d0d7cb7-baf6-47c1-968d-e07d9324534d","ios":"levelo://app?vid=7d0d7cb7-baf6-47c1-968d-e07d9324534d"},"vehicle_type_id":"4","last_reported":1737328045,"current_range_meters":38000,"station_id":"ce4bh0h2rcd13ifvqd40","pricing_plan_id":"cebpf4jnsgd1na2vs0mg"},{"bike_id":"f3c94274-f861-4c89-8bb1-1ebe1a531935","system_id":"levelo_inurba_marseille","lat":43.25001,"lon":5.38916,"is_reserved":false,"is_disabled":false,"rental_uris":{"android":"levelo://app?vid=f3c94274-f861-4c89-8bb1-1ebe1a531935","ios":"levelo://app?vid=f3c94274-f861-4c89-8bb1-1ebe1a531935"},"vehicle_type_id":"4","last_reported":1737328045,"current_range_meters":36400,"station_id":"ce4bhgp2rcd13ifvqfd0","pricing_plan_id":"cebpf4jnsgd1na2vs0mg"},{"bike_id":"adb118d6-cabd-484d-ac59-2e04d54bc02a","system_id":"levelo_inurba_marseille","lat":43.25727,"lon":5.41099,"is_reserved":false,"is_disabled":false,"rental_uris":{"android":"levelo://app?vid=adb118d6-cabd-484d-ac59-2e04d54bc02a","ios":"levelo://app?vid=adb118d6-cabd-484d-ac59-2e04d54bc02a"},"vehicle_type_id":"4","last_reported":1737328045,"current_range_meters":30800,"station_id":"ce4bhkp2rcd13ifvqgd0","pricing_plan_id":"cebpf4jnsgd1na2vs0mg"},{"bike_id":"ea820ade-d81d-428e-82b9-7f165f7e8e75","system_id":"levelo_inurba_marseille","lat":43.32363,"lon":5.36766,"is_reserved":false,"is_disabled":false,"rental_uris":{"android":"levelo://app?vid=ea820ade-d81d-428e-82b9-7f165f7e8e75","ios":"levelo://app?vid=ea820ade-d81d-428e-82b9-7f165f7e8e75"},"vehicle_type_id":"4","last_reported":1737328045,"current_range_meters":14000,"station_id":"ce4bhsh2rcd13ifvqi2g","pricing_plan_id":"cebpf4jnsgd1na2vs0mg"},{"bike_id":"c29020e0-83ef-4b06-ac4f-c4422257f84a","system_id":"levelo_inurba_marseille","lat":43.36388,"lon":5.35604,"is_reserved":false,"is_disabled":false,"rental_uris":{"android":"levelo://app?vid=c29020e0-83ef-4b06-ac4f-c4422257f84a","ios":"levelo://app?vid=c29020e0-83ef-4b06-ac4f-c4422257f84a"},"vehicle_type_id":"4","last_reported":1737328045,"current_range_meters":16800,"station_id":"","pricing_plan_id":"cebpf4jnsgd1na2vs0mg"},{"bike_id":"9a9f5094-96b5-4ffb-92ab-bc926b485321","system_id":"levelo_inurba_marseille","lat":43.23186,"lon":5.39978,"is_reserved":false,"is_disabled":false,"rental_uris":{"android":"levelo://app?vid=9a9f5094-96b5-4ffb-92ab-bc926b485321","ios":"levelo://app?vid=9a9f5094-96b5-4ffb-92ab-bc926b485321"},"vehicle_type_id":"4","last_reported":1737328045,"current_range_meters":36800,"station_id":"ce4bhn12rcd13ifvqgqg","pricing_plan_id":"cebpf4jnsgd1na2vs0mg"},{"bike_id":"59c9ffe5-1cb3-45ed-b650-582ed780df57","system_id":"levelo_inurba_marseille","lat":43.24073,"lon":5.37762,"is_reserved":false,"is_disabled":false,"rental_uris":{"android":"levelo://app?vid=59c9ffe5-1cb3-45ed-b650-582ed780df57","ios":"levelo://app?vid=59c9ffe5-1cb3-45ed-b650-582ed780df57"},"vehicle_type_id":"4","last_reported":1737328045,"current_range_meters":37600,"station_id":"ce4bhnp2rcd13ifvqgvg","pricing_plan_id":"cebpf4jnsgd1na2vs0mg"},{"bike_id":"61660d2a-110c-4fbd-9903-44dcd0164780","system_id":"levelo_inurba_marseille","lat":43.28951,"lon":5.364,"is_reserved":false,"is_disabled":false,"rental_uris":{"android":"levelo://app?vid=61660d2a-110c-4fbd-9903-44dcd0164780","ios":"levelo://app?vid=61660d2a-110c-4fbd-9903-44dcd0164780"},"vehicle_type_id":"4","last_reported":1737328045,"current_range_meters":20000,"station_id":"ce4bhc92rcd13ifvqetg","pricing_plan_id":"cebpf4jnsgd1na2vs0mg"},{"bike_id":"6bf5bd29-3e54-437a-9020-86384919dc04","system_id":"levelo_inurba_marseille","lat":43.322933,"lon":5.382651,"is_reserved":false,"is_disabled":false,"rental_uris":{"android":"levelo://app?vid=6bf5bd29-3e54-437a-9020-86384919dc04","ios":"levelo://app?vid=6bf5bd29-3e54-437a-9020-86384919dc04"},"vehicle_type_id":"4","last_reported":1737328045,"current_range_meters":38800,"station_id":"ce4bhr12rcd13ifvqhqg","pricing_plan_id":"cebpf4jnsgd1na2vs0mg"},{"bike_id":"8038c4d5-2330-4f5f-9158-cd82e016484a","system_id":"levelo_inurba_marseille","lat":43.28425,"lon":5.3499,"is_reserved":false,"is_disabled":false,"rental_uris":{"android":"levelo://app?vid=8038c4d5-2330-4f5f-9158-cd82e016484a","ios":"levelo://app?vid=8038c4d5-2330-4f5f-9158-cd82e016484a"},"vehicle_type_id":"4","last_reported":1737328045,"current_range_meters":30400,"station_id":"ce4bhbh2rcd13ifvqepg","pricing_plan_id":"cebpf4jnsgd1na2vs0mg"},{"bike_id":"b672b566-ae6e-4181-a2cb-0155be334a04","system_id":"levelo_inurba_marseille","lat":43.28901,"lon":5.36765,"is_reserved":false,"is_disabled":true,"rental_uris":{"android":"levelo://app?vid=b672b566-ae6e-4181-a2cb-0155be334a04","ios":"levelo://app?vid=b672b566-ae6e-4181-a2cb-0155be334a04"},"vehicle_type_id":"4","last_reported":1737328045,"current_range_meters":31200,"station_id":"ce4bhap2rcd13ifvqek0","pricing_plan_id":"cebpf4jnsgd1na2vs0mg"},{"bike_id":"559e5f02-fc98-44a9-80d4-4641162500a5","system_id":"levelo_inurba_marseille","lat":43.29309,"lon":5.3746,"is_reserved":false,"is_disabled":false,"rental_uris":{"android":"levelo://app?vid=559e5f02-fc98-44a9-80d4-4641162500a5","ios":"levelo://app?vid=559e5f02-fc98-44a9-80d4-4641162500a5"},"vehicle_type_id":"4","last_reported":1737328045,"current_range_meters":32400,"station_id":"ce4bgi12rcd13ifvqb70","pricing_plan_id":"cebpf4jnsgd1na2vs0mg"},{"bike_id":"afd87945-5130-41b4-9768-2adad5020e92","system_id":"levelo_inurba_marseille","lat":43.2846,"lon":5.35881,"is_reserved":false,"is_disabled":false,"rental_uris":{"android":"levelo://app?vid=afd87945-5130-41b4-9768-2adad5020e92","ios":"levelo://app?vid=afd87945-5130-41b4-9768-2adad5020e92"},"vehicle_type_id":"4","last_reported":1737328045,"current_range_meters":24400,"station_id":"ce4bhah2rcd13ifvqei0","pricing_plan_id":"cebpf4jnsgd1na2vs0mg"},{"bike_id":"04e7f6b2-1170-476d-8eb7-54bc6ab7d23c","system_id":"levelo_inurba_marseille","lat":43.243931,"lon":5.370468,"is_reserved":false,"is_disabled":false,"rental_uris":{"android":"levelo://app?vid=04e7f6b2-1170-476d-8eb7-54bc6ab7d23c","ios":"levelo://app?vid=04e7f6b2-1170-476d-8eb7-54bc6ab7d23c"},"vehicle_type_id":"4","last_reported":1737328045,"current_range_meters":36800,"station_id":"ce4bhhh2rcd13ifvqfk0","pricing_plan_id":"cebpf4jnsgd1na2vs0mg"},{"bike_id":"b3326c87-3c59-459d-b028-b3abfafa68f3","system_id":"levelo_inurba_marseille","lat":43.29875,"lon":5.39738,"is_reserved":false,"is_disabled":false,"rental_uris":{"android":"levelo://app?vid=b3326c87-3c59-459d-b028-b3abfafa68f3","ios":"levelo://app?vid=b3326c87-3c59-459d-b028-b3abfafa68f3"},"vehicle_type_id":"4","last_reported":1737328045,"current_range_meters":18000,"station_id":"ce4bh0h2rcd13ifvqd50","pricing_plan_id":"cebpf4jnsgd1na2vs0mg"},{"bike_id":"d0b8eeae-3310-4017-9614-bbc32ac645e9","system_id":"levelo_inurba_marseille","lat":43.28699,"lon":5.37401,"is_reserved":false,"is_disabled":false,"rental_uris":{"android":"levelo://app?vid=d0b8eeae-3310-4017-9614-bbc32ac645e9","ios":"levelo://app?vid=d0b8eeae-3310-4017-9614-bbc32ac645e9"},"vehicle_type_id":"4","last_reported":1737328045,"current_range_meters":22800,"station_id":"ce4bh3p2rcd13ifvqdq0","pricing_plan_id":"cebpf4jnsgd1na2vs0mg"},{"bike_id":"6c2c807e-a3fb-4456-a97d-28ed8ddd6391","system_id":"levelo_inurba_marseille","lat":43.30103,"lon":5.3907,"is_reserved":false,"is_disabled":false,"rental_uris":{"android":"levelo://app?vid=6c2c807e-a3fb-4456-a97d-28ed8ddd6391","ios":"levelo://app?vid=6c2c807e-a3fb-4456-a97d-28ed8ddd6391"},"vehicle_type_id":"4","last_reported":1737328045,"current_range_meters":39200,"station_id":"ce4bh192rcd13ifvqdb0","pricing_plan_id":"cebpf4jnsgd1na2vs0mg"},{"bike_id":"c8fe6bd0-5be5-4ede-8e98-69d8c19fd7cf","system_id":"levelo_inurba_marseille","lat":43.2315,"lon":5.43712,"is_reserved":false,"is_disabled":false,"rental_uris":{"android":"levelo://app?vid=c8fe6bd0-5be5-4ede-8e98-69d8c19fd7cf","ios":"levelo://app?vid=c8fe6bd0-5be5-4ede-8e98-69d8c19fd7cf"},"vehicle_type_id":"4","last_reported":1737328045,"current_range_meters":32000,"station_id":"ce4bhmp2rcd13ifvqgog","pricing_plan_id":"cebpf4jnsgd1na2vs0mg"},{"bike_id":"a1268425-e1b2-45b1-8fbc-9391b8140126","system_id":"levelo_inurba_marseille","lat":43.24391,"lon":5.37051,"is_reserved":false,"is_disabled":false,"rental_uris":{"android":"levelo://app?vid=a1268425-e1b2-45b1-8fbc-9391b8140126","ios":"levelo://app?vid=a1268425-e1b2-45b1-8fbc-9391b8140126"},"vehicle_type_id":"4","last_reported":1737328045,"current_range_meters":27600,"station_id":"ce4bhhh2rcd13ifvqfk0","pricing_plan_id":"cebpf4jnsgd1na2vs0mg"},{"bike_id":"fca27b2d-3c16-437a-81b5-2241700ca0ec","system_id":"levelo_inurba_marseille","lat":43.26231,"lon":5.40442,"is_reserved":false,"is_disabled":false,"rental_uris":{"android":"levelo://app?vid=fca27b2d-3c16-437a-81b5-2241700ca0ec","ios":"levelo://app?vid=fca27b2d-3c16-437a-81b5-2241700ca0ec"},"vehicle_type_id":"4","last_reported":1737328045,"current_range_meters":33600,"station_id":"","pricing_plan_id":"cebpf4jnsgd1na2vs0mg"},{"bike_id":"d6dda788-2ee0-45e5-a6fd-f8b98f248df1","system_id":"levelo_inurba_marseille","lat":43.23149,"lon":5.43715,"is_reserved":false,"is_disabled":false,"rental_uris":{"android":"levelo://app?vid=d6dda788-2ee0-45e5-a6fd-f8b98f248df1","ios":"levelo://app?vid=d6dda788-2ee0-45e5-a6fd-f8b98f248df1"},"vehicle_type_id":"4","last_reported":1737328045,"current_range_meters":28800,"station_id":"ce4bhmp2rcd13ifvqgog","pricing_plan_id":"cebpf4jnsgd1na2vs0mg"},{"bike_id":"ec7e801f-93e2-42d4-b442-daf467f8a6bc","system_id":"levelo_inurba_marseille","lat":43.30804,"lon":5.38155,"is_reserved":false,"is_disabled":false,"rental_uris":{"android":"levelo://app?vid=ec7e801f-93e2-42d4-b442-daf467f8a6bc","ios":"levelo://app?vid=ec7e801f-93e2-42d4-b442-daf467f8a6bc"},"vehicle_type_id":"4","last_reported":1737328045,"current_range_meters":18800,"station_id":"ce4bgt12rcd13ifvqce0","pricing_plan_id":"cebpf4jnsgd1na2vs0mg"},{"bike_id":"6de4fd20-e8d6-42f3-a5ff-cc34d118275e","system_id":"levelo_inurba_marseille","lat":43.30454,"lon":5.38909,"is_reserved":false,"is_disabled":false,"rental_uris":{"android":"levelo://app?vid=6de4fd20-e8d6-42f3-a5ff-cc34d118275e","ios":"levelo://app?vid=6de4fd20-e8d6-42f3-a5ff-cc34d118275e"},"vehicle_type_id":"4","last_reported":1737328045,"current_range_meters":24800,"station_id":"ce4bgk12rcd13ifvqbi0","pricing_plan_id":"cebpf4jnsgd1na2vs0mg"},{"bike_id":"529c5357-3139-4edd-85ea-52fbb21f95f1","system_id":"levelo_inurba_marseille","lat":43.29189,"lon":5.39334,"is_reserved":false,"is_disabled":false,"rental_uris":{"android":"levelo://app?vid=529c5357-3139-4edd-85ea-52fbb21f95f1","ios":"levelo://app?vid=529c5357-3139-4edd-85ea-52fbb21f95f1"},"vehicle_type_id":"4","last_reported":1737328045,"current_range_meters":38800,"station_id":"ce4bh192rcd13ifvqdd0","pricing_plan_id":"cebpf4jnsgd1na2vs0mg"},{"bike_id":"81112329-1dad-4775-ba9b-1357b51686d0","system_id":"levelo_inurba_marseille","lat":43.31324,"lon":5.37337,"is_reserved":false,"is_disabled":false,"rental_uris":{"android":"levelo://app?vid=81112329-1dad-4775-ba9b-1357b51686d0","ios":"levelo://app?vid=81112329-1dad-4775-ba9b-1357b51686d0"},"vehicle_type_id":"4","last_reported":1737328045,"current_range_meters":35600,"station_id":"","pricing_plan_id":"cebpf4jnsgd1na2vs0mg"},{"bike_id":"a5980b8c-03f5-415b-9e39-3ae241b9c1c6","system_id":"levelo_inurba_marseille","lat":43.30901,"lon":5.39631,"is_reserved":false,"is_disabled":false,"rental_uris":{"android":"levelo://app?vid=a5980b8c-03f5-415b-9e39-3ae241b9c1c6","ios":"levelo://app?vid=a5980b8c-03f5-415b-9e39-3ae241b9c1c6"},"vehicle_type_id":"4","last_reported":1737328045,"current_range_meters":30800,"station_id":"ce4bh012rcd13ifvqcv0","pricing_plan_id":"cebpf4jnsgd1na2vs0mg"},{"bike_id":"aa58a370-3dfc-419f-ac67-60fe6fa0a1a7","system_id":"levelo_inurba_marseille","lat":43.2468,"lon":5.38178,"is_reserved":false,"is_disabled":false,"rental_uris":{"android":"levelo://app?vid=aa58a370-3dfc-419f-ac67-60fe6fa0a1a7","ios":"levelo://app?vid=aa58a370-3dfc-419f-ac67-60fe6fa0a1a7"},"vehicle_type_id":"4","last_reported":1737328045,"current_range_meters":8800,"station_id":"ce4bhih2rcd13ifvqfr0","pricing_plan_id":"cebpf4jnsgd1na2vs0mg"},{"bike_id":"bdd38d2b-adb4-44c3-b80a-c393381aa23c","system_id":"levelo_inurba_marseille","lat":43.31122,"lon":5.37758,"is_reserved":false,"is_disabled":false,"rental_uris":{"android":"levelo://app?vid=bdd38d2b-adb4-44c3-b80a-c393381aa23c","ios":"levelo://app?vid=bdd38d2b-adb4-44c3-b80a-c393381aa23c"},"vehicle_type_id":"4","last_reported":1737328045,"current_range_meters":31200,"station_id":"ce4bgt92rcd13ifvqcg0","pricing_plan_id":"cebpf4jnsgd1na2vs0mg"},{"bike_id":"8faa58a5-25a4-4f60-9597-7886f361addd","system_id":"levelo_inurba_marseille","lat":43.24837,"lon":5.40177,"is_reserved":false,"is_disabled":false,"rental_uris":{"android":"levelo://app?vid=8faa58a5-25a4-4f60-9597-7886f361addd","ios":"levelo://app?vid=8faa58a5-25a4-4f60-9597-7886f361addd"},"vehicle_type_id":"4","last_reported":1737328045,"current_range_meters":28000,"station_id":"","pricing_plan_id":"cebpf4jnsgd1na2vs0mg"},{"bike_id":"25a1483f-1859-4f2a-a274-9eb2c53ccd4c","system_id":"levelo_inurba_marseille","lat":43.27495,"lon":5.4245,"is_reserved":false,"is_disabled":false,"rental_uris":{"android":"levelo://app?vid=25a1483f-1859-4f2a-a274-9eb2c53ccd4c","ios":"levelo://app?vid=25a1483f-1859-4f2a-a274-9eb2c53ccd4c"},"vehicle_type_id":"4","last_reported":1737328045,"current_range_meters":26000,"station_id":"ce4bhn92rcd13ifvqgrg","pricing_plan_id":"cebpf4jnsgd1na2vs0mg"},{"bike_id":"afa3b07f-a639-42dd-abf5-28cc00708042","system_id":"levelo_inurba_marseille","lat":43.29191,"lon":5.39334,"is_reserved":false,"is_disabled":false,"rental_uris":{"android":"levelo://app?vid=afa3b07f-a639-42dd-abf5-28cc00708042","ios":"levelo://app?vid=afa3b07f-a639-42dd-abf5-28cc00708042"},"vehicle_type_id":"4","last_reported":1737328045,"current_range_meters":25200,"station_id":"ce4bh192rcd13ifvqdd0","pricing_plan_id":"cebpf4jnsgd1na2vs0mg"},{"bike_id":"3860f79b-6390-4baa-9962-103869425bc6","system_id":"levelo_inurba_marseille","lat":43.29904,"lon":5.43671,"is_reserved":false,"is_disabled":false,"rental_uris":{"android":"levelo://app?vid=3860f79b-6390-4baa-9962-103869425bc6","ios":"levelo://app?vid=3860f79b-6390-4baa-9962-103869425bc6"},"vehicle_type_id":"4","last_reported":1737328045,"current_range_meters":20400,"station_id":"ce4bhpp2rcd13ifvqhfg","pricing_plan_id":"cebpf4jnsgd1na2vs0mg"},{"bike_id":"168460d7-c206-43d9-a198-e43a6cb51b01","system_id":"levelo_inurba_marseille","lat":43.33016,"lon":5.39058,"is_reserved":false,"is_disabled":false,"rental_uris":{"android":"levelo://app?vid=168460d7-c206-43d9-a198-e43a6cb51b01","ios":"levelo://app?vid=168460d7-c206-43d9-a198-e43a6cb51b01"},"vehicle_type_id":"4","last_reported":1737328045,"current_range_meters":39200,"station_id":"ce4bhr92rcd13ifvqhrg","pricing_plan_id":"cebpf4jnsgd1na2vs0mg"},{"bike_id":"64436c97-1ac3-47b1-8f21-ad5aef347e83","system_id":"levelo_inurba_marseille","lat":43.27622,"lon":5.36164,"is_reserved":false,"is_disabled":false,"rental_uris":{"android":"levelo://app?vid=64436c97-1ac3-47b1-8f21-ad5aef347e83","ios":"levelo://app?vid=64436c97-1ac3-47b1-8f21-ad5aef347e83"},"vehicle_type_id":"4","last_reported":1737328045,"current_range_meters":39200,"station_id":"ce4bgj92rcd13ifvqbe0","pricing_plan_id":"cebpf4jnsgd1na2vs0mg"},{"bike_id":"4be05dc4-95ab-483a-85eb-9bdea3592913","system_id":"levelo_inurba_marseille","lat":43.25722,"lon":5.41123,"is_reserved":false,"is_disabled":false,"rental_uris":{"android":"levelo://app?vid=4be05dc4-95ab-483a-85eb-9bdea3592913","ios":"levelo://app?vid=4be05dc4-95ab-483a-85eb-9bdea3592913"},"vehicle_type_id":"4","last_reported":1737328045,"current_range_meters":37600,"station_id":"ce4bhkp2rcd13ifvqgd0","pricing_plan_id":"cebpf4jnsgd1na2vs0mg"},{"bike_id":"10b8da58-1f12-44b0-8c4c-eff01d48a146","system_id":"levelo_inurba_marseille","lat":43.30656,"lon":5.40081,"is_reserved":false,"is_disabled":true,"rental_uris":{"android":"levelo://app?vid=10b8da58-1f12-44b0-8c4c-eff01d48a146","ios":"levelo://app?vid=10b8da58-1f12-44b0-8c4c-eff01d48a146"},"vehicle_type_id":"4","last_reported":1737328045,"current_range_meters":26800,"station_id":"ce4bh112rcd13ifvqda0","pricing_plan_id":"cebpf4jnsgd1na2vs0mg"},{"bike_id":"24baf28c-3eb5-4d44-8125-5adf32b99371","system_id":"levelo_inurba_marseille","lat":43.30243,"lon":5.40059,"is_reserved":false,"is_disabled":false,"rental_uris":{"android":"levelo://app?vid=24baf28c-3eb5-4d44-8125-5adf32b99371","ios":"levelo://app?vid=24baf28c-3eb5-4d44-8125-5adf32b99371"},"vehicle_type_id":"4","last_reported":1737328045,"current_range_meters":39200,"station_id":"ce4bgvh2rcd13ifvqcs0","pricing_plan_id":"cebpf4jnsgd1na2vs0mg"},{"bike_id":"ca8aa51d-4833-4c77-8009-59b7c07323a3","system_id":"levelo_inurba_marseille","lat":43.32355,"lon":5.36768,"is_reserved":false,"is_disabled":false,"rental_uris":{"android":"levelo://app?vid=ca8aa51d-4833-4c77-8009-59b7c07323a3","ios":"levelo://app?vid=ca8aa51d-4833-4c77-8009-59b7c07323a3"},"vehicle_type_id":"4","last_reported":1737328045,"current_range_meters":34800,"station_id":"ce4bhsh2rcd13ifvqi2g","pricing_plan_id":"cebpf4jnsgd1na2vs0mg"},{"bike_id":"ad706739-0435-4fb3-ac63-fcde3e832697","system_id":"levelo_inurba_marseille","lat":43.25176,"lon":5.40378,"is_reserved":false,"is_disabled":false,"rental_uris":{"android":"levelo://app?vid=ad706739-0435-4fb3-ac63-fcde3e832697","ios":"levelo://app?vid=ad706739-0435-4fb3-ac63-fcde3e832697"},"vehicle_type_id":"4","last_reported":1737328045,"current_range_meters":38000,"station_id":"ce4bhlh2rcd13ifvqgig","pricing_plan_id":"cebpf4jnsgd1na2vs0mg"},{"bike_id":"0160328a-576b-4192-950d-048bae5efb70","system_id":"levelo_inurba_marseille","lat":43.31163,"lon":5.38713,"is_reserved":false,"is_disabled":false,"rental_uris":{"android":"levelo://app?vid=0160328a-576b-4192-950d-048bae5efb70","ios":"levelo://app?vid=0160328a-576b-4192-950d-048bae5efb70"},"vehicle_type_id":"4","last_reported":1737328045,"current_range_meters":37600,"station_id":"ce4bgv12rcd13ifvqcp0","pricing_plan_id":"cebpf4jnsgd1na2vs0mg"},{"bike_id":"8695a0fd-db32-4a51-943a-0ea5ab57168f","system_id":"levelo_inurba_marseille","lat":43.30425,"lon":5.3888,"is_reserved":false,"is_disabled":false,"rental_uris":{"android":"levelo://app?vid=8695a0fd-db32-4a51-943a-0ea5ab57168f","ios":"levelo://app?vid=8695a0fd-db32-4a51-943a-0ea5ab57168f"},"vehicle_type_id":"4","last_reported":1737328045,"current_range_meters":20000,"station_id":"ce4bgk12rcd13ifvqbi0","pricing_plan_id":"cebpf4jnsgd1na2vs0mg"},{"bike_id":"ce0ee56d-180c-40a7-8ee4-1ff6fa737784","system_id":"levelo_inurba_marseille","lat":43.29894,"lon":5.43659,"is_reserved":false,"is_disabled":false,"rental_uris":{"android":"levelo://app?vid=ce0ee56d-180c-40a7-8ee4-1ff6fa737784","ios":"levelo://app?vid=ce0ee56d-180c-40a7-8ee4-1ff6fa737784"},"vehicle_type_id":"4","last_reported":1737328045,"current_range_meters":38800,"station_id":"ce4bhpp2rcd13ifvqhfg","pricing_plan_id":"cebpf4jnsgd1na2vs0mg"},{"bike_id":"49edd341-1744-445c-b1f6-ec80c4f617c5","system_id":"levelo_inurba_marseille","lat":43.270746,"lon":5.422803,"is_reserved":false,"is_disabled":false,"rental_uris":{"android":"levelo://app?vid=49edd341-1744-445c-b1f6-ec80c4f617c5","ios":"levelo://app?vid=49edd341-1744-445c-b1f6-ec80c4f617c5"},"vehicle_type_id":"4","last_reported":1737328045,"current_range_meters":39200,"station_id":"ce4bhk92rcd13ifvqgb0","pricing_plan_id":"cebpf4jnsgd1na2vs0mg"},{"bike_id":"51379e9f-1ebd-43ee-bd84-6927ab606473","system_id":"levelo_inurba_marseille","lat":43.24147,"lon":5.36427,"is_reserved":false,"is_disabled":false,"rental_uris":{"android":"levelo://app?vid=51379e9f-1ebd-43ee-bd84-6927ab606473","ios":"levelo://app?vid=51379e9f-1ebd-43ee-bd84-6927ab606473"},"vehicle_type_id":"4","last_reported":1737328045,"current_range_meters":24800,"station_id":"cpo36qri1sfpv3e86is0","pricing_plan_id":"cebpf4jnsgd1na2vs0mg"},{"bike_id":"57d9fa47-e597-4ea4-913f-9b45079bd718","system_id":"levelo_inurba_marseille","lat":43.32999,"lon":5.38981,"is_reserved":false,"is_disabled":false,"rental_uris":{"android":"levelo://app?vid=57d9fa47-e597-4ea4-913f-9b45079bd718","ios":"levelo://app?vid=57d9fa47-e597-4ea4-913f-9b45079bd718"},"vehicle_type_id":"4","last_reported":1737328045,"current_range_meters":39200,"station_id":"ce4bhr92rcd13ifvqhrg","pricing_plan_id":"cebpf4jnsgd1na2vs0mg"},{"bike_id":"fd3d30e7-fb0b-477b-97c3-b5d677a37ec5","system_id":"levelo_inurba_marseille","lat":43.28467,"lon":5.35897,"is_reserved":false,"is_disabled":false,"rental_uris":{"android":"levelo://app?vid=fd3d30e7-fb0b-477b-97c3-b5d677a37ec5","ios":"levelo://app?vid=fd3d30e7-fb0b-477b-97c3-b5d677a37ec5"},"vehicle_type_id":"4","last_reported":1737328045,"current_range_meters":39200,"station_id":"ce4bhah2rcd13ifvqei0","pricing_plan_id":"cebpf4jnsgd1na2vs0mg"},{"bike_id":"4ec76aa8-1e80-4051-b2ea-1baaf50a61e8","system_id":"levelo_inurba_marseille","lat":43.24131,"lon":5.3809,"is_reserved":false,"is_disabled":false,"rental_uris":{"android":"levelo://app?vid=4ec76aa8-1e80-4051-b2ea-1baaf50a61e8","ios":"levelo://app?vid=4ec76aa8-1e80-4051-b2ea-1baaf50a61e8"},"vehicle_type_id":"4","last_reported":1737328045,"current_range_meters":16400,"station_id":"","pricing_plan_id":"cebpf4jnsgd1na2vs0mg"},{"bike_id":"d7b57092-5089-4c4a-819e-bef9772d11d8","system_id":"levelo_inurba_marseille","lat":43.31806,"lon":5.37802,"is_reserved":false,"is_disabled":false,"rental_uris":{"android":"levelo://app?vid=d7b57092-5089-4c4a-819e-bef9772d11d8","ios":"levelo://app?vid=d7b57092-5089-4c4a-819e-bef9772d11d8"},"vehicle_type_id":"4","last_reported":1737328045,"current_range_meters":30400,"station_id":"","pricing_plan_id":"cebpf4jnsgd1na2vs0mg"},{"bike_id":"bd00f222-ce0c-4f81-a68c-0edabc3e5f6b","system_id":"levelo_inurba_marseille","lat":43.25077,"lon":5.39506,"is_reserved":false,"is_disabled":false,"rental_uris":{"android":"levelo://app?vid=bd00f222-ce0c-4f81-a68c-0edabc3e5f6b","ios":"levelo://app?vid=bd00f222-ce0c-4f81-a68c-0edabc3e5f6b"},"vehicle_type_id":"4","last_reported":1737328045,"current_range_meters":35600,"station_id":"ce4bhm12rcd13ifvqgkg","pricing_plan_id":"cebpf4jnsgd1na2vs0mg"},{"bike_id":"3ac6c6ca-517c-4f2a-92ec-f2e5844d9e4a","system_id":"levelo_inurba_marseille","lat":43.3091,"lon":5.36854,"is_reserved":false,"is_disabled":false,"rental_uris":{"android":"levelo://app?vid=3ac6c6ca-517c-4f2a-92ec-f2e5844d9e4a","ios":"levelo://app?vid=3ac6c6ca-517c-4f2a-92ec-f2e5844d9e4a"},"vehicle_type_id":"4","last_reported":1737328045,"current_range_meters":38000,"station_id":"ce4bgn92rcd13ifvqbvg","pricing_plan_id":"cebpf4jnsgd1na2vs0mg"},{"bike_id":"d0f2b943-d8c5-429f-a18c-966b92672436","system_id":"levelo_inurba_marseille","lat":43.30214,"lon":5.39466,"is_reserved":false,"is_disabled":false,"rental_uris":{"android":"levelo://app?vid=d0f2b943-d8c5-429f-a18c-966b92672436","ios":"levelo://app?vid=d0f2b943-d8c5-429f-a18c-966b92672436"},"vehicle_type_id":"4","last_reported":1737328045,"current_range_meters":24400,"station_id":"ce4bh0p2rcd13ifvqd70","pricing_plan_id":"cebpf4jnsgd1na2vs0mg"},{"bike_id":"057659c3-5447-469f-b467-781a1da9f0d6","system_id":"levelo_inurba_marseille","lat":43.30597,"lon":5.3722,"is_reserved":false,"is_disabled":false,"rental_uris":{"android":"levelo://app?vid=057659c3-5447-469f-b467-781a1da9f0d6","ios":"levelo://app?vid=057659c3-5447-469f-b467-781a1da9f0d6"},"vehicle_type_id":"4","last_reported":1737328045,"current_range_meters":33600,"station_id":"ce4bgqh2rcd13ifvqc4g","pricing_plan_id":"cebpf4jnsgd1na2vs0mg"},{"bike_id":"4104cbba-088f-4383-b2a0-261d17699731","system_id":"levelo_inurba_marseille","lat":43.23964,"lon":5.36639,"is_reserved":false,"is_disabled":false,"rental_uris":{"android":"levelo://app?vid=4104cbba-088f-4383-b2a0-261d17699731","ios":"levelo://app?vid=4104cbba-088f-4383-b2a0-261d17699731"},"vehicle_type_id":"4","last_reported":1737328045,"current_range_meters":35600,"station_id":"ce4bhi12rcd13ifvqfp0","pricing_plan_id":"cebpf4jnsgd1na2vs0mg"},{"bike_id":"7be810f6-d21f-44ca-8f08-d9a4a9e1b082","system_id":"levelo_inurba_marseille","lat":43.32361,"lon":5.36752,"is_reserved":false,"is_disabled":false,"rental_uris":{"android":"levelo://app?vid=7be810f6-d21f-44ca-8f08-d9a4a9e1b082","ios":"levelo://app?vid=7be810f6-d21f-44ca-8f08-d9a4a9e1b082"},"vehicle_type_id":"4","last_reported":1737328045,"current_range_meters":12800,"station_id":"ce4bhsh2rcd13ifvqi2g","pricing_plan_id":"cebpf4jnsgd1na2vs0mg"},{"bike_id":"dc0653db-bd28-4730-b2d3-60718110beda","system_id":"levelo_inurba_marseille","lat":43.30594,"lon":5.39351,"is_reserved":false,"is_disabled":false,"rental_uris":{"android":"levelo://app?vid=dc0653db-bd28-4730-b2d3-60718110beda","ios":"levelo://app?vid=dc0653db-bd28-4730-b2d3-60718110beda"},"vehicle_type_id":"4","last_reported":1737328045,"current_range_meters":35600,"station_id":"ce4bh0p2rcd13ifvqd80","pricing_plan_id":"cebpf4jnsgd1na2vs0mg"},{"bike_id":"c4be54e6-2df1-4353-a951-75fd950649e9","system_id":"levelo_inurba_marseille","lat":43.3248,"lon":5.36568,"is_reserved":false,"is_disabled":false,"rental_uris":{"android":"levelo://app?vid=c4be54e6-2df1-4353-a951-75fd950649e9","ios":"levelo://app?vid=c4be54e6-2df1-4353-a951-75fd950649e9"},"vehicle_type_id":"4","last_reported":1737328045,"current_range_meters":23200,"station_id":"ce4bhs12rcd13ifvqhvg","pricing_plan_id":"cebpf4jnsgd1na2vs0mg"},{"bike_id":"4eab8b95-e725-4774-9c70-d2be6401d290","system_id":"levelo_inurba_marseille","lat":43.32448,"lon":5.36569,"is_reserved":false,"is_disabled":false,"rental_uris":{"android":"levelo://app?vid=4eab8b95-e725-4774-9c70-d2be6401d290","ios":"levelo://app?vid=4eab8b95-e725-4774-9c70-d2be6401d290"},"vehicle_type_id":"4","last_reported":1737328045,"current_range_meters":35600,"station_id":"ce4bhs12rcd13ifvqhvg","pricing_plan_id":"cebpf4jnsgd1na2vs0mg"},{"bike_id":"28ef1c1e-dd89-43e8-817b-9b489831397b","system_id":"levelo_inurba_marseille","lat":43.27123,"lon":5.39621,"is_reserved":false,"is_disabled":true,"rental_uris":{"android":"levelo://app?vid=28ef1c1e-dd89-43e8-817b-9b489831397b","ios":"levelo://app?vid=28ef1c1e-dd89-43e8-817b-9b489831397b"},"vehicle_type_id":"4","last_reported":1737328045,"current_range_meters":0,"station_id":"","pricing_plan_id":"cebpf4jnsgd1na2vs0mg"},{"bike_id":"a090d58d-a1fb-4921-bd15-f1d1e2db9ea4","system_id":"levelo_inurba_marseille","lat":43.24185,"lon":5.39744,"is_reserved":false,"is_disabled":false,"rental_uris":{"android":"levelo://app?vid=a090d58d-a1fb-4921-bd15-f1d1e2db9ea4","ios":"levelo://app?vid=a090d58d-a1fb-4921-bd15-f1d1e2db9ea4"},"vehicle_type_id":"4","last_reported":1737328045,"current_range_meters":28400,"station_id":"ce4bhn12rcd13ifvqgpg","pricing_plan_id":"cebpf4jnsgd1na2vs0mg"},{"bike_id":"7d444872-3fb0-4536-9005-7a5b415b9ac8","system_id":"levelo_inurba_marseille","lat":43.245483,"lon":5.395269,"is_reserved":false,"is_disabled":false,"rental_uris":{"android":"levelo://app?vid=7d444872-3fb0-4536-9005-7a5b415b9ac8","ios":"levelo://app?vid=7d444872-3fb0-4536-9005-7a5b415b9ac8"},"vehicle_type_id":"4","last_reported":1737328045,"current_range_meters":33600,"station_id":"ce4bhlp2rcd13ifvqgjg","pricing_plan_id":"cebpf4jnsgd1na2vs0mg"},{"bike_id":"fd4d57d3-e476-4095-a9ce-e96d6483545c","system_id":"levelo_inurba_marseille","lat":43.28403,"lon":5.37518,"is_reserved":false,"is_disabled":false,"rental_uris":{"android":"levelo://app?vid=fd4d57d3-e476-4095-a9ce-e96d6483545c","ios":"levelo://app?vid=fd4d57d3-e476-4095-a9ce-e96d6483545c"},"vehicle_type_id":"4","last_reported":1737328045,"current_range_meters":28400,"station_id":"ce4bh412rcd13ifvqds0","pricing_plan_id":"cebpf4jnsgd1na2vs0mg"},{"bike_id":"bbd6e56f-1a5f-4813-a7fd-d882eb94346c","system_id":"levelo_inurba_marseille","lat":43.31713,"lon":5.43707,"is_reserved":false,"is_disabled":false,"rental_uris":{"android":"levelo://app?vid=bbd6e56f-1a5f-4813-a7fd-d882eb94346c","ios":"levelo://app?vid=bbd6e56f-1a5f-4813-a7fd-d882eb94346c"},"vehicle_type_id":"4","last_reported":1737328045,"current_range_meters":22400,"station_id":"ce4bhp92rcd13ifvqhcg","pricing_plan_id":"cebpf4jnsgd1na2vs0mg"},{"bike_id":"357eaeda-fef2-41f2-9ad0-621ae2cc5c09","system_id":"levelo_inurba_marseille","lat":43.33753,"lon":5.37518,"is_reserved":false,"is_disabled":false,"rental_uris":{"android":"levelo://app?vid=357eaeda-fef2-41f2-9ad0-621ae2cc5c09","ios":"levelo://app?vid=357eaeda-fef2-41f2-9ad0-621ae2cc5c09"},"vehicle_type_id":"4","last_reported":1737328045,"current_range_meters":30800,"station_id":"","pricing_plan_id":"cebpf4jnsgd1na2vs0mg"},{"bike_id":"9591e31e-6673-4bff-8f50-6b7e82a6b9d7","system_id":"levelo_inurba_marseille","lat":43.24074,"lon":5.3774,"is_reserved":false,"is_disabled":false,"rental_uris":{"android":"levelo://app?vid=9591e31e-6673-4bff-8f50-6b7e82a6b9d7","ios":"levelo://app?vid=9591e31e-6673-4bff-8f50-6b7e82a6b9d7"},"vehicle_type_id":"4","last_reported":1737328045,"current_range_meters":38800,"station_id":"ce4bhnp2rcd13ifvqgvg","pricing_plan_id":"cebpf4jnsgd1na2vs0mg"},{"bike_id":"ce27e413-df3d-41a0-b3b9-f2bea8802047","system_id":"levelo_inurba_marseille","lat":43.28698,"lon":5.37401,"is_reserved":false,"is_disabled":false,"rental_uris":{"android":"levelo://app?vid=ce27e413-df3d-41a0-b3b9-f2bea8802047","ios":"levelo://app?vid=ce27e413-df3d-41a0-b3b9-f2bea8802047"},"vehicle_type_id":"4","last_reported":1737328045,"current_range_meters":30000,"station_id":"ce4bh3p2rcd13ifvqdq0","pricing_plan_id":"cebpf4jnsgd1na2vs0mg"},{"bike_id":"4ca0c0a8-ebec-4495-a31b-51805b75ee6d","system_id":"levelo_inurba_marseille","lat":43.24647,"lon":5.38896,"is_reserved":false,"is_disabled":false,"rental_uris":{"android":"levelo://app?vid=4ca0c0a8-ebec-4495-a31b-51805b75ee6d","ios":"levelo://app?vid=4ca0c0a8-ebec-4495-a31b-51805b75ee6d"},"vehicle_type_id":"4","last_reported":1737328045,"current_range_meters":38800,"station_id":"ce4bhg12rcd13ifvqf60","pricing_plan_id":"cebpf4jnsgd1na2vs0mg"},{"bike_id":"59573d05-8b25-4d08-928a-2e522ea4e7a5","system_id":"levelo_inurba_marseille","lat":43.31177,"lon":5.38728,"is_reserved":false,"is_disabled":true,"rental_uris":{"android":"levelo://app?vid=59573d05-8b25-4d08-928a-2e522ea4e7a5","ios":"levelo://app?vid=59573d05-8b25-4d08-928a-2e522ea4e7a5"},"vehicle_type_id":"4","last_reported":1737328045,"current_range_meters":38800,"station_id":"ce4bgv12rcd13ifvqcp0","pricing_plan_id":"cebpf4jnsgd1na2vs0mg"},{"bike_id":"d714004e-0a5d-46dc-8f45-dcd4ee7c47a7","system_id":"levelo_inurba_marseille","lat":43.29527,"lon":5.37493,"is_reserved":false,"is_disabled":true,"rental_uris":{"android":"levelo://app?vid=d714004e-0a5d-46dc-8f45-dcd4ee7c47a7","ios":"levelo://app?vid=d714004e-0a5d-46dc-8f45-dcd4ee7c47a7"},"vehicle_type_id":"4","last_reported":1737328045,"current_range_meters":12400,"station_id":"ce4bgkp2rcd13ifvqbmg","pricing_plan_id":"cebpf4jnsgd1na2vs0mg"},{"bike_id":"5948b5bc-5162-41a9-9cba-009c7579d969","system_id":"levelo_inurba_marseille","lat":43.29785,"lon":5.37089,"is_reserved":false,"is_disabled":false,"rental_uris":{"android":"levelo://app?vid=5948b5bc-5162-41a9-9cba-009c7579d969","ios":"levelo://app?vid=5948b5bc-5162-41a9-9cba-009c7579d969"},"vehicle_type_id":"4","last_reported":1737328045,"current_range_meters":38000,"station_id":"ce4bgop2rcd13ifvqc1g","pricing_plan_id":"cebpf4jnsgd1na2vs0mg"},{"bike_id":"406cf7e1-dd3a-472a-896f-d09b14680f3c","system_id":"levelo_inurba_marseille","lat":43.26062,"lon":5.3935,"is_reserved":false,"is_disabled":false,"rental_uris":{"android":"levelo://app?vid=406cf7e1-dd3a-472a-896f-d09b14680f3c","ios":"levelo://app?vid=406cf7e1-dd3a-472a-896f-d09b14680f3c"},"vehicle_type_id":"4","last_reported":1737328045,"current_range_meters":24400,"station_id":"ce4bhh92rcd13ifvqfj0","pricing_plan_id":"cebpf4jnsgd1na2vs0mg"},{"bike_id":"9b645af7-101a-4e0b-bf0c-20f9f16d5bf5","system_id":"levelo_inurba_marseille","lat":43.31073,"lon":5.3836,"is_reserved":false,"is_disabled":false,"rental_uris":{"android":"levelo://app?vid=9b645af7-101a-4e0b-bf0c-20f9f16d5bf5","ios":"levelo://app?vid=9b645af7-101a-4e0b-bf0c-20f9f16d5bf5"},"vehicle_type_id":"4","last_reported":1737328045,"current_range_meters":36800,"station_id":"ce4bgv92rcd13ifvqcr0","pricing_plan_id":"cebpf4jnsgd1na2vs0mg"},{"bike_id":"01a07bd9-36a1-4c19-a88b-7c9e3a6ee490","system_id":"levelo_inurba_marseille","lat":43.25074,"lon":5.39514,"is_reserved":false,"is_disabled":false,"rental_uris":{"android":"levelo://app?vid=01a07bd9-36a1-4c19-a88b-7c9e3a6ee490","ios":"levelo://app?vid=01a07bd9-36a1-4c19-a88b-7c9e3a6ee490"},"vehicle_type_id":"4","last_reported":1737328045,"current_range_meters":31200,"station_id":"ce4bhm12rcd13ifvqgkg","pricing_plan_id":"cebpf4jnsgd1na2vs0mg"},{"bike_id":"9b0fa802-8be4-4b35-bfd1-0d3dcc5574fc","system_id":"levelo_inurba_marseille","lat":43.29869,"lon":5.38893,"is_reserved":false,"is_disabled":false,"rental_uris":{"android":"levelo://app?vid=9b0fa802-8be4-4b35-bfd1-0d3dcc5574fc","ios":"levelo://app?vid=9b0fa802-8be4-4b35-bfd1-0d3dcc5574fc"},"vehicle_type_id":"4","last_reported":1737328045,"current_range_meters":20000,"station_id":"ce4bh392rcd13ifvqdl0","pricing_plan_id":"cebpf4jnsgd1na2vs0mg"},{"bike_id":"3a226b53-772d-4831-aae6-679204abc709","system_id":"levelo_inurba_marseille","lat":43.25864,"lon":5.39896,"is_reserved":false,"is_disabled":false,"rental_uris":{"android":"levelo://app?vid=3a226b53-772d-4831-aae6-679204abc709","ios":"levelo://app?vid=3a226b53-772d-4831-aae6-679204abc709"},"vehicle_type_id":"4","last_reported":1737328045,"current_range_meters":38800,"station_id":"ce4bhl92rcd13ifvqghg","pricing_plan_id":"cebpf4jnsgd1na2vs0mg"},{"bike_id":"d751e749-afcd-4240-9c1e-54752c62ac8f","system_id":"levelo_inurba_marseille","lat":43.274932,"lon":5.424576,"is_reserved":false,"is_disabled":true,"rental_uris":{"android":"levelo://app?vid=d751e749-afcd-4240-9c1e-54752c62ac8f","ios":"levelo://app?vid=d751e749-afcd-4240-9c1e-54752c62ac8f"},"vehicle_type_id":"4","last_reported":1737328045,"current_range_meters":38000,"station_id":"ce4bhn92rcd13ifvqgrg","pricing_plan_id":"cebpf4jnsgd1na2vs0mg"},{"bike_id":"bc5500c8-ca8b-496e-a692-f431b9f16255","system_id":"levelo_inurba_marseille","lat":43.28837,"lon":5.39316,"is_reserved":false,"is_disabled":false,"rental_uris":{"android":"levelo://app?vid=bc5500c8-ca8b-496e-a692-f431b9f16255","ios":"levelo://app?vid=bc5500c8-ca8b-496e-a692-f431b9f16255"},"vehicle_type_id":"4","last_reported":1737328045,"current_range_meters":32800,"station_id":"ce4bh2p2rcd13ifvqdi0","pricing_plan_id":"cebpf4jnsgd1na2vs0mg"},{"bike_id":"1a531580-4efd-49f3-925f-81e7e3768874","system_id":"levelo_inurba_marseille","lat":43.25725,"lon":5.41112,"is_reserved":false,"is_disabled":false,"rental_uris":{"android":"levelo://app?vid=1a531580-4efd-49f3-925f-81e7e3768874","ios":"levelo://app?vid=1a531580-4efd-49f3-925f-81e7e3768874"},"vehicle_type_id":"4","last_reported":1737328045,"current_range_meters":38000,"station_id":"ce4bhkp2rcd13ifvqgd0","pricing_plan_id":"cebpf4jnsgd1na2vs0mg"},{"bike_id":"524072f1-ace1-43cc-8007-f91dc732b1f7","system_id":"levelo_inurba_marseille","lat":43.25084,"lon":5.39513,"is_reserved":false,"is_disabled":false,"rental_uris":{"android":"levelo://app?vid=524072f1-ace1-43cc-8007-f91dc732b1f7","ios":"levelo://app?vid=524072f1-ace1-43cc-8007-f91dc732b1f7"},"vehicle_type_id":"4","last_reported":1737328045,"current_range_meters":29600,"station_id":"ce4bhm12rcd13ifvqgkg","pricing_plan_id":"cebpf4jnsgd1na2vs0mg"},{"bike_id":"c42268c0-a5e0-42b8-b874-93ef21576df8","system_id":"levelo_inurba_marseille","lat":43.28154,"lon":5.42644,"is_reserved":false,"is_disabled":false,"rental_uris":{"android":"levelo://app?vid=c42268c0-a5e0-42b8-b874-93ef21576df8","ios":"levelo://app?vid=c42268c0-a5e0-42b8-b874-93ef21576df8"},"vehicle_type_id":"4","last_reported":1737328045,"current_range_meters":26000,"station_id":"ce4bhnh2rcd13ifvqgug","pricing_plan_id":"cebpf4jnsgd1na2vs0mg"},{"bike_id":"77192f79-2b12-4ff4-874e-f5cab7df388a","system_id":"levelo_inurba_marseille","lat":43.28422,"lon":5.34983,"is_reserved":false,"is_disabled":false,"rental_uris":{"android":"levelo://app?vid=77192f79-2b12-4ff4-874e-f5cab7df388a","ios":"levelo://app?vid=77192f79-2b12-4ff4-874e-f5cab7df388a"},"vehicle_type_id":"4","last_reported":1737328045,"current_range_meters":35200,"station_id":"ce4bhbh2rcd13ifvqepg","pricing_plan_id":"cebpf4jnsgd1na2vs0mg"},{"bike_id":"0f2743d1-4d5e-4f5d-80a9-2ff55d9ea33b","system_id":"levelo_inurba_marseille","lat":43.240756,"lon":5.377454,"is_reserved":false,"is_disabled":false,"rental_uris":{"android":"levelo://app?vid=0f2743d1-4d5e-4f5d-80a9-2ff55d9ea33b","ios":"levelo://app?vid=0f2743d1-4d5e-4f5d-80a9-2ff55d9ea33b"},"vehicle_type_id":"4","last_reported":1737328045,"current_range_meters":36000,"station_id":"ce4bhnp2rcd13ifvqgvg","pricing_plan_id":"cebpf4jnsgd1na2vs0mg"},{"bike_id":"392d5c13-52e3-4447-bb35-77b670143dc4","system_id":"levelo_inurba_marseille","lat":43.23947,"lon":5.36636,"is_reserved":false,"is_disabled":false,"rental_uris":{"android":"levelo://app?vid=392d5c13-52e3-4447-bb35-77b670143dc4","ios":"levelo://app?vid=392d5c13-52e3-4447-bb35-77b670143dc4"},"vehicle_type_id":"4","last_reported":1737328045,"current_range_meters":30800,"station_id":"ce4bhi12rcd13ifvqfp0","pricing_plan_id":"cebpf4jnsgd1na2vs0mg"},{"bike_id":"97dc7bbb-af7c-432f-aee1-cb76edac8ebd","system_id":"levelo_inurba_marseille","lat":43.23182,"lon":5.39982,"is_reserved":false,"is_disabled":false,"rental_uris":{"android":"levelo://app?vid=97dc7bbb-af7c-432f-aee1-cb76edac8ebd","ios":"levelo://app?vid=97dc7bbb-af7c-432f-aee1-cb76edac8ebd"},"vehicle_type_id":"4","last_reported":1737328045,"current_range_meters":38800,"station_id":"ce4bhn12rcd13ifvqgqg","pricing_plan_id":"cebpf4jnsgd1na2vs0mg"},{"bike_id":"4291632b-b89c-4c47-8e03-1ac2c74e4815","system_id":"levelo_inurba_marseille","lat":43.2417,"lon":5.39735,"is_reserved":false,"is_disabled":false,"rental_uris":{"android":"levelo://app?vid=4291632b-b89c-4c47-8e03-1ac2c74e4815","ios":"levelo://app?vid=4291632b-b89c-4c47-8e03-1ac2c74e4815"},"vehicle_type_id":"4","last_reported":1737328045,"current_range_meters":36800,"station_id":"ce4bhn12rcd13ifvqgpg","pricing_plan_id":"cebpf4jnsgd1na2vs0mg"},{"bike_id":"ee73fa00-f9a6-49b4-893a-68a7f4e3a906","system_id":"levelo_inurba_marseille","lat":43.24677,"lon":5.38168,"is_reserved":false,"is_disabled":false,"rental_uris":{"android":"levelo://app?vid=ee73fa00-f9a6-49b4-893a-68a7f4e3a906","ios":"levelo://app?vid=ee73fa00-f9a6-49b4-893a-68a7f4e3a906"},"vehicle_type_id":"4","last_reported":1737328045,"current_range_meters":18800,"station_id":"ce4bhih2rcd13ifvqfr0","pricing_plan_id":"cebpf4jnsgd1na2vs0mg"},{"bike_id":"92107073-e558-49e0-80fa-a695a1e7387b","system_id":"levelo_inurba_marseille","lat":43.23188,"lon":5.39983,"is_reserved":false,"is_disabled":false,"rental_uris":{"android":"levelo://app?vid=92107073-e558-49e0-80fa-a695a1e7387b","ios":"levelo://app?vid=92107073-e558-49e0-80fa-a695a1e7387b"},"vehicle_type_id":"4","last_reported":1737328045,"current_range_meters":25200,"station_id":"ce4bhn12rcd13ifvqgqg","pricing_plan_id":"cebpf4jnsgd1na2vs0mg"},{"bike_id":"2c2f029b-75ba-4beb-9e9a-38c9bd9c6b19","system_id":"levelo_inurba_marseille","lat":43.29663,"lon":5.37156,"is_reserved":false,"is_disabled":false,"rental_uris":{"android":"levelo://app?vid=2c2f029b-75ba-4beb-9e9a-38c9bd9c6b19","ios":"levelo://app?vid=2c2f029b-75ba-4beb-9e9a-38c9bd9c6b19"},"vehicle_type_id":"4","last_reported":1737328045,"current_range_meters":27200,"station_id":"ce4bgnh2rcd13ifvqc0g","pricing_plan_id":"cebpf4jnsgd1na2vs0mg"},{"bike_id":"6afc6047-5f81-4177-8f50-e35ed8b1d031","system_id":"levelo_inurba_marseille","lat":43.29787,"lon":5.39343,"is_reserved":false,"is_disabled":false,"rental_uris":{"android":"levelo://app?vid=6afc6047-5f81-4177-8f50-e35ed8b1d031","ios":"levelo://app?vid=6afc6047-5f81-4177-8f50-e35ed8b1d031"},"vehicle_type_id":"4","last_reported":1737328045,"current_range_meters":16000,"station_id":"chh1huq6cuj3fo74tm60","pricing_plan_id":"cebpf4jnsgd1na2vs0mg"},{"bike_id":"900ad26d-3b21-49f7-89ce-2c50eb20d154","system_id":"levelo_inurba_marseille","lat":43.3027,"lon":5.37725,"is_reserved":false,"is_disabled":false,"rental_uris":{"android":"levelo://app?vid=900ad26d-3b21-49f7-89ce-2c50eb20d154","ios":"levelo://app?vid=900ad26d-3b21-49f7-89ce-2c50eb20d154"},"vehicle_type_id":"4","last_reported":1737328045,"current_range_meters":30400,"station_id":"ce4bguh2rcd13ifvqcj0","pricing_plan_id":"cebpf4jnsgd1na2vs0mg"},{"bike_id":"62444397-c396-4d27-94d0-9a36c839a478","system_id":"levelo_inurba_marseille","lat":43.28941,"lon":5.36393,"is_reserved":false,"is_disabled":false,"rental_uris":{"android":"levelo://app?vid=62444397-c396-4d27-94d0-9a36c839a478","ios":"levelo://app?vid=62444397-c396-4d27-94d0-9a36c839a478"},"vehicle_type_id":"4","last_reported":1737328045,"current_range_meters":26800,"station_id":"ce4bhc92rcd13ifvqetg","pricing_plan_id":"cebpf4jnsgd1na2vs0mg"},{"bike_id":"ae35f466-b8b0-4efa-b0d2-93817680916e","system_id":"levelo_inurba_marseille","lat":43.26562,"lon":5.37298,"is_reserved":false,"is_disabled":false,"rental_uris":{"android":"levelo://app?vid=ae35f466-b8b0-4efa-b0d2-93817680916e","ios":"levelo://app?vid=ae35f466-b8b0-4efa-b0d2-93817680916e"},"vehicle_type_id":"4","last_reported":1737328045,"current_range_meters":31200,"station_id":"ce4bhg12rcd13ifvqf70","pricing_plan_id":"cebpf4jnsgd1na2vs0mg"},{"bike_id":"0897e627-1690-4b1c-984d-29cb463c9770","system_id":"levelo_inurba_marseille","lat":43.31889,"lon":5.40743,"is_reserved":false,"is_disabled":true,"rental_uris":{"android":"levelo://app?vid=0897e627-1690-4b1c-984d-29cb463c9770","ios":"levelo://app?vid=0897e627-1690-4b1c-984d-29cb463c9770"},"vehicle_type_id":"4","last_reported":1737328045,"current_range_meters":0,"station_id":"ce4bhq12rcd13ifvqhig","pricing_plan_id":"cebpf4jnsgd1na2vs0mg"},{"bike_id":"80bcc3e7-77de-44a5-8965-f19acb6d7452","system_id":"levelo_inurba_marseille","lat":43.33008,"lon":5.39016,"is_reserved":false,"is_disabled":false,"rental_uris":{"android":"levelo://app?vid=80bcc3e7-77de-44a5-8965-f19acb6d7452","ios":"levelo://app?vid=80bcc3e7-77de-44a5-8965-f19acb6d7452"},"vehicle_type_id":"4","last_reported":1737328045,"current_range_meters":38800,"station_id":"ce4bhr92rcd13ifvqhrg","pricing_plan_id":"cebpf4jnsgd1na2vs0mg"},{"bike_id":"6ede542a-c740-4949-bff4-58afb59a776e","system_id":"levelo_inurba_marseille","lat":43.31176,"lon":5.38716,"is_reserved":false,"is_disabled":false,"rental_uris":{"android":"levelo://app?vid=6ede542a-c740-4949-bff4-58afb59a776e","ios":"levelo://app?vid=6ede542a-c740-4949-bff4-58afb59a776e"},"vehicle_type_id":"4","last_reported":1737328045,"current_range_meters":20000,"station_id":"ce4bgv12rcd13ifvqcp0","pricing_plan_id":"cebpf4jnsgd1na2vs0mg"},{"bike_id":"f4a4a406-b0a5-42fc-9236-32e93ac6f6b2","system_id":"levelo_inurba_marseille","lat":43.23157,"lon":5.43698,"is_reserved":false,"is_disabled":true,"rental_uris":{"android":"levelo://app?vid=f4a4a406-b0a5-42fc-9236-32e93ac6f6b2","ios":"levelo://app?vid=f4a4a406-b0a5-42fc-9236-32e93ac6f6b2"},"vehicle_type_id":"4","last_reported":1737328045,"current_range_meters":24400,"station_id":"ce4bhmp2rcd13ifvqgog","pricing_plan_id":"cebpf4jnsgd1na2vs0mg"},{"bike_id":"210ffe2d-27bf-471a-a897-ba0eb55d9e2b","system_id":"levelo_inurba_marseille","lat":43.27081,"lon":5.42315,"is_reserved":false,"is_disabled":false,"rental_uris":{"android":"levelo://app?vid=210ffe2d-27bf-471a-a897-ba0eb55d9e2b","ios":"levelo://app?vid=210ffe2d-27bf-471a-a897-ba0eb55d9e2b"},"vehicle_type_id":"4","last_reported":1737328045,"current_range_meters":32800,"station_id":"ce4bhk92rcd13ifvqgb0","pricing_plan_id":"cebpf4jnsgd1na2vs0mg"},{"bike_id":"2875cbdf-8a1e-4a01-a5e1-398d8ab89110","system_id":"levelo_inurba_marseille","lat":43.29632,"lon":5.40596,"is_reserved":false,"is_disabled":false,"rental_uris":{"android":"levelo://app?vid=2875cbdf-8a1e-4a01-a5e1-398d8ab89110","ios":"levelo://app?vid=2875cbdf-8a1e-4a01-a5e1-398d8ab89110"},"vehicle_type_id":"4","last_reported":1737328045,"current_range_meters":32800,"station_id":"ce4bh0h2rcd13ifvqd60","pricing_plan_id":"cebpf4jnsgd1na2vs0mg"},{"bike_id":"e16bfad3-6e5c-42b6-90cd-e77c51d0ba6a","system_id":"levelo_inurba_marseille","lat":43.29912,"lon":5.38142,"is_reserved":false,"is_disabled":true,"rental_uris":{"android":"levelo://app?vid=e16bfad3-6e5c-42b6-90cd-e77c51d0ba6a","ios":"levelo://app?vid=e16bfad3-6e5c-42b6-90cd-e77c51d0ba6a"},"vehicle_type_id":"4","last_reported":1737328045,"current_range_meters":17200,"station_id":"ce4bgj12rcd13ifvqbc0","pricing_plan_id":"cebpf4jnsgd1na2vs0mg"},{"bike_id":"ed68907f-255c-459d-8b28-ef9a664d0ec1","system_id":"levelo_inurba_marseille","lat":43.27938,"lon":5.4105,"is_reserved":false,"is_disabled":false,"rental_uris":{"android":"levelo://app?vid=ed68907f-255c-459d-8b28-ef9a664d0ec1","ios":"levelo://app?vid=ed68907f-255c-459d-8b28-ef9a664d0ec1"},"vehicle_type_id":"4","last_reported":1737328045,"current_range_meters":35200,"station_id":"ce4bhnp2rcd13ifvqh0g","pricing_plan_id":"cebpf4jnsgd1na2vs0mg"},{"bike_id":"dcd222ef-bb9b-415a-819d-b50eb1e422d0","system_id":"levelo_inurba_marseille","lat":43.31487,"lon":5.37283,"is_reserved":false,"is_disabled":false,"rental_uris":{"android":"levelo://app?vid=dcd222ef-bb9b-415a-819d-b50eb1e422d0","ios":"levelo://app?vid=dcd222ef-bb9b-415a-819d-b50eb1e422d0"},"vehicle_type_id":"4","last_reported":1737328045,"current_range_meters":38800,"station_id":"ce4bgt12rcd13ifvqcd0","pricing_plan_id":"cebpf4jnsgd1na2vs0mg"},{"bike_id":"d90088bf-08e4-481f-8a3a-207373e035b4","system_id":"levelo_inurba_marseille","lat":43.30815,"lon":5.38873,"is_reserved":false,"is_disabled":false,"rental_uris":{"android":"levelo://app?vid=d90088bf-08e4-481f-8a3a-207373e035b4","ios":"levelo://app?vid=d90088bf-08e4-481f-8a3a-207373e035b4"},"vehicle_type_id":"4","last_reported":1737328045,"current_range_meters":36800,"station_id":"","pricing_plan_id":"cebpf4jnsgd1na2vs0mg"},{"bike_id":"8ebd3ffe-c0e4-4418-bd18-539994b1d92e","system_id":"levelo_inurba_marseille","lat":43.25717,"lon":5.41112,"is_reserved":false,"is_disabled":false,"rental_uris":{"android":"levelo://app?vid=8ebd3ffe-c0e4-4418-bd18-539994b1d92e","ios":"levelo://app?vid=8ebd3ffe-c0e4-4418-bd18-539994b1d92e"},"vehicle_type_id":"4","last_reported":1737328045,"current_range_meters":27600,"station_id":"ce4bhkp2rcd13ifvqgd0","pricing_plan_id":"cebpf4jnsgd1na2vs0mg"},{"bike_id":"50343fe7-b049-4115-b6cd-1d192f0464f8","system_id":"levelo_inurba_marseille","lat":43.258189,"lon":5.394309,"is_reserved":false,"is_disabled":false,"rental_uris":{"android":"levelo://app?vid=50343fe7-b049-4115-b6cd-1d192f0464f8","ios":"levelo://app?vid=50343fe7-b049-4115-b6cd-1d192f0464f8"},"vehicle_type_id":"4","last_reported":1737328045,"current_range_meters":39200,"station_id":"ce4bhip2rcd13ifvqft0","pricing_plan_id":"cebpf4jnsgd1na2vs0mg"},{"bike_id":"4020bfae-adf8-4aaa-b34a-4a80ee7bb186","system_id":"levelo_inurba_marseille","lat":43.26201,"lon":5.37937,"is_reserved":false,"is_disabled":false,"rental_uris":{"android":"levelo://app?vid=4020bfae-adf8-4aaa-b34a-4a80ee7bb186","ios":"levelo://app?vid=4020bfae-adf8-4aaa-b34a-4a80ee7bb186"},"vehicle_type_id":"4","last_reported":1737328045,"current_range_meters":36000,"station_id":"ce4bhjp2rcd13ifvqg90","pricing_plan_id":"cebpf4jnsgd1na2vs0mg"},{"bike_id":"af458128-3a15-449d-adc5-fecdf8732629","system_id":"levelo_inurba_marseille","lat":43.28347,"lon":5.38097,"is_reserved":false,"is_disabled":false,"rental_uris":{"android":"levelo://app?vid=af458128-3a15-449d-adc5-fecdf8732629","ios":"levelo://app?vid=af458128-3a15-449d-adc5-fecdf8732629"},"vehicle_type_id":"4","last_reported":1737328045,"current_range_meters":18800,"station_id":"ce4bh412rcd13ifvqdr0","pricing_plan_id":"cebpf4jnsgd1na2vs0mg"},{"bike_id":"7d1dfcaa-e144-4dbe-a631-78dc31806da8","system_id":"levelo_inurba_marseille","lat":43.31718,"lon":5.40464,"is_reserved":false,"is_disabled":false,"rental_uris":{"android":"levelo://app?vid=7d1dfcaa-e144-4dbe-a631-78dc31806da8","ios":"levelo://app?vid=7d1dfcaa-e144-4dbe-a631-78dc31806da8"},"vehicle_type_id":"4","last_reported":1737328045,"current_range_meters":24800,"station_id":"ce4bh012rcd13ifvqd00","pricing_plan_id":"cebpf4jnsgd1na2vs0mg"},{"bike_id":"43ab6a6e-18b0-45a2-bdfd-26946078537a","system_id":"levelo_inurba_marseille","lat":43.25025,"lon":5.38921,"is_reserved":false,"is_disabled":false,"rental_uris":{"android":"levelo://app?vid=43ab6a6e-18b0-45a2-bdfd-26946078537a","ios":"levelo://app?vid=43ab6a6e-18b0-45a2-bdfd-26946078537a"},"vehicle_type_id":"4","last_reported":1737328045,"current_range_meters":38800,"station_id":"ce4bhgp2rcd13ifvqfd0","pricing_plan_id":"cebpf4jnsgd1na2vs0mg"},{"bike_id":"d4683e01-0f6f-47b0-860d-868ed8c055a6","system_id":"levelo_inurba_marseille","lat":43.3042,"lon":5.41277,"is_reserved":false,"is_disabled":false,"rental_uris":{"android":"levelo://app?vid=d4683e01-0f6f-47b0-860d-868ed8c055a6","ios":"levelo://app?vid=d4683e01-0f6f-47b0-860d-868ed8c055a6"},"vehicle_type_id":"4","last_reported":1737328045,"current_range_meters":38800,"station_id":"ce4bhop2rcd13ifvqh8g","pricing_plan_id":"cebpf4jnsgd1na2vs0mg"},{"bike_id":"e5af71f0-2851-418d-8b43-f20b72c10635","system_id":"levelo_inurba_marseille","lat":43.28219,"lon":5.40309,"is_reserved":false,"is_disabled":false,"rental_uris":{"android":"levelo://app?vid=e5af71f0-2851-418d-8b43-f20b72c10635","ios":"levelo://app?vid=e5af71f0-2851-418d-8b43-f20b72c10635"},"vehicle_type_id":"4","last_reported":1737328045,"current_range_meters":36800,"station_id":"","pricing_plan_id":"cebpf4jnsgd1na2vs0mg"},{"bike_id":"496d7e07-282f-4f0e-999f-a97951537466","system_id":"levelo_inurba_marseille","lat":43.26589,"lon":5.37218,"is_reserved":false,"is_disabled":false,"rental_uris":{"android":"levelo://app?vid=496d7e07-282f-4f0e-999f-a97951537466","ios":"levelo://app?vid=496d7e07-282f-4f0e-999f-a97951537466"},"vehicle_type_id":"4","last_reported":1737328045,"current_range_meters":19200,"station_id":"ce4bhg12rcd13ifvqf70","pricing_plan_id":"cebpf4jnsgd1na2vs0mg"},{"bike_id":"c22d8086-5c46-4377-92fe-a6cf2889a746","system_id":"levelo_inurba_marseille","lat":43.29542,"lon":5.3854,"is_reserved":false,"is_disabled":false,"rental_uris":{"android":"levelo://app?vid=c22d8086-5c46-4377-92fe-a6cf2889a746","ios":"levelo://app?vid=c22d8086-5c46-4377-92fe-a6cf2889a746"},"vehicle_type_id":"4","last_reported":1737328045,"current_range_meters":38800,"station_id":"ce4bgih2rcd13ifvqba0","pricing_plan_id":"cebpf4jnsgd1na2vs0mg"},{"bike_id":"427adfa9-113c-4817-9db8-65205ccf4edf","system_id":"levelo_inurba_marseille","lat":43.31739,"lon":5.40426,"is_reserved":false,"is_disabled":false,"rental_uris":{"android":"levelo://app?vid=427adfa9-113c-4817-9db8-65205ccf4edf","ios":"levelo://app?vid=427adfa9-113c-4817-9db8-65205ccf4edf"},"vehicle_type_id":"4","last_reported":1737328045,"current_range_meters":39200,"station_id":"ce4bh012rcd13ifvqd00","pricing_plan_id":"cebpf4jnsgd1na2vs0mg"},{"bike_id":"a9e53682-22a7-43ee-b393-cfde71bc94b7","system_id":"levelo_inurba_marseille","lat":43.24804,"lon":5.37452,"is_reserved":false,"is_disabled":false,"rental_uris":{"android":"levelo://app?vid=a9e53682-22a7-43ee-b393-cfde71bc94b7","ios":"levelo://app?vid=a9e53682-22a7-43ee-b393-cfde71bc94b7"},"vehicle_type_id":"4","last_reported":1737328045,"current_range_meters":28000,"station_id":"ce4bhgh2rcd13ifvqfb0","pricing_plan_id":"cebpf4jnsgd1na2vs0mg"},{"bike_id":"3ac33cda-7ec1-4d7b-904c-5cacae44cb9d","system_id":"levelo_inurba_marseille","lat":43.28686,"lon":5.38666,"is_reserved":false,"is_disabled":false,"rental_uris":{"android":"levelo://app?vid=3ac33cda-7ec1-4d7b-904c-5cacae44cb9d","ios":"levelo://app?vid=3ac33cda-7ec1-4d7b-904c-5cacae44cb9d"},"vehicle_type_id":"4","last_reported":1737328045,"current_range_meters":39200,"station_id":"ce4bh492rcd13ifvqdug","pricing_plan_id":"cebpf4jnsgd1na2vs0mg"},{"bike_id":"a26d9dc4-e9a5-4b10-8f43-09c6bb5b32c0","system_id":"levelo_inurba_marseille","lat":43.28715,"lon":5.37958,"is_reserved":false,"is_disabled":false,"rental_uris":{"android":"levelo://app?vid=a26d9dc4-e9a5-4b10-8f43-09c6bb5b32c0","ios":"levelo://app?vid=a26d9dc4-e9a5-4b10-8f43-09c6bb5b32c0"},"vehicle_type_id":"4","last_reported":1737328045,"current_range_meters":6800,"station_id":"ce4bh9p2rcd13ifvqec0","pricing_plan_id":"cebpf4jnsgd1na2vs0mg"},{"bike_id":"56b8e9bc-f750-4815-bc98-9098414d16db","system_id":"levelo_inurba_marseille","lat":43.23199,"lon":5.35546,"is_reserved":false,"is_disabled":true,"rental_uris":{"android":"levelo://app?vid=56b8e9bc-f750-4815-bc98-9098414d16db","ios":"levelo://app?vid=56b8e9bc-f750-4815-bc98-9098414d16db"},"vehicle_type_id":"4","last_reported":1737328045,"current_range_meters":0,"station_id":"ce4bhu92rcd13ifvqi70","pricing_plan_id":"cebpf4jnsgd1na2vs0mg"},{"bike_id":"0e91b70c-1e42-4d65-a90a-72cbd40954b0","system_id":"levelo_inurba_marseille","lat":43.32368,"lon":5.36772,"is_reserved":false,"is_disabled":false,"rental_uris":{"android":"levelo://app?vid=0e91b70c-1e42-4d65-a90a-72cbd40954b0","ios":"levelo://app?vid=0e91b70c-1e42-4d65-a90a-72cbd40954b0"},"vehicle_type_id":"4","last_reported":1737328045,"current_range_meters":38800,"station_id":"ce4bhsh2rcd13ifvqi2g","pricing_plan_id":"cebpf4jnsgd1na2vs0mg"},{"bike_id":"fcff8b6e-6484-4e4c-8d98-9ab325ed2e27","system_id":"levelo_inurba_marseille","lat":43.32484,"lon":5.36563,"is_reserved":false,"is_disabled":false,"rental_uris":{"android":"levelo://app?vid=fcff8b6e-6484-4e4c-8d98-9ab325ed2e27","ios":"levelo://app?vid=fcff8b6e-6484-4e4c-8d98-9ab325ed2e27"},"vehicle_type_id":"4","last_reported":1737328045,"current_range_meters":37600,"station_id":"ce4bhs12rcd13ifvqhvg","pricing_plan_id":"cebpf4jnsgd1na2vs0mg"},{"bike_id":"7f6908f7-cfcb-4080-a4c3-d5b221bf885b","system_id":"levelo_inurba_marseille","lat":43.32049,"lon":5.41604,"is_reserved":false,"is_disabled":true,"rental_uris":{"android":"levelo://app?vid=7f6908f7-cfcb-4080-a4c3-d5b221bf885b","ios":"levelo://app?vid=7f6908f7-cfcb-4080-a4c3-d5b221bf885b"},"vehicle_type_id":"4","last_reported":1737328045,"current_range_meters":0,"station_id":"ce4bhq92rcd13ifvqhkg","pricing_plan_id":"cebpf4jnsgd1na2vs0mg"},{"bike_id":"8630f542-d0a3-4404-9fd9-b4efaafdbdc1","system_id":"levelo_inurba_marseille","lat":43.28569,"lon":5.39498,"is_reserved":false,"is_disabled":false,"rental_uris":{"android":"levelo://app?vid=8630f542-d0a3-4404-9fd9-b4efaafdbdc1","ios":"levelo://app?vid=8630f542-d0a3-4404-9fd9-b4efaafdbdc1"},"vehicle_type_id":"4","last_reported":1737328045,"current_range_meters":38800,"station_id":"ce4bh292rcd13ifvqdg0","pricing_plan_id":"cebpf4jnsgd1na2vs0mg"},{"bike_id":"bdba7b53-e862-45bf-8c9e-57e9f9bc90fe","system_id":"levelo_inurba_marseille","lat":43.2957,"lon":5.39957,"is_reserved":false,"is_disabled":false,"rental_uris":{"android":"levelo://app?vid=bdba7b53-e862-45bf-8c9e-57e9f9bc90fe","ios":"levelo://app?vid=bdba7b53-e862-45bf-8c9e-57e9f9bc90fe"},"vehicle_type_id":"4","last_reported":1737328045,"current_range_meters":31200,"station_id":"ce4bh312rcd13ifvqdj0","pricing_plan_id":"cebpf4jnsgd1na2vs0mg"},{"bike_id":"02f25583-5bae-4143-b3b2-7b8d3f3e60d9","system_id":"levelo_inurba_marseille","lat":43.2848,"lon":5.38441,"is_reserved":false,"is_disabled":true,"rental_uris":{"android":"levelo://app?vid=02f25583-5bae-4143-b3b2-7b8d3f3e60d9","ios":"levelo://app?vid=02f25583-5bae-4143-b3b2-7b8d3f3e60d9"},"vehicle_type_id":"4","last_reported":1737328045,"current_range_meters":33600,"station_id":"ce4bh512rcd13ifvqe3g","pricing_plan_id":"cebpf4jnsgd1na2vs0mg"},{"bike_id":"eeb2f082-f78f-43fa-a144-a550973194f8","system_id":"levelo_inurba_marseille","lat":43.27888,"lon":5.38003,"is_reserved":false,"is_disabled":false,"rental_uris":{"android":"levelo://app?vid=eeb2f082-f78f-43fa-a144-a550973194f8","ios":"levelo://app?vid=eeb2f082-f78f-43fa-a144-a550973194f8"},"vehicle_type_id":"4","last_reported":1737328045,"current_range_meters":33200,"station_id":"ce4bhf92rcd13ifvqf50","pricing_plan_id":"cebpf4jnsgd1na2vs0mg"},{"bike_id":"0966a8a8-2d5b-449d-8d62-52bfeeb2bcde","system_id":"levelo_inurba_marseille","lat":43.297406,"lon":5.376901,"is_reserved":false,"is_disabled":true,"rental_uris":{"android":"levelo://app?vid=0966a8a8-2d5b-449d-8d62-52bfeeb2bcde","ios":"levelo://app?vid=0966a8a8-2d5b-449d-8d62-52bfeeb2bcde"},"vehicle_type_id":"4","last_reported":1737328045,"current_range_meters":36400,"station_id":"ce4bgkh2rcd13ifvqbl0","pricing_plan_id":"cebpf4jnsgd1na2vs0mg"},{"bike_id":"22465212-93af-4e0b-b803-6ee82bba56d5","system_id":"levelo_inurba_marseille","lat":43.33759,"lon":5.3748,"is_reserved":false,"is_disabled":false,"rental_uris":{"android":"levelo://app?vid=22465212-93af-4e0b-b803-6ee82bba56d5","ios":"levelo://app?vid=22465212-93af-4e0b-b803-6ee82bba56d5"},"vehicle_type_id":"4","last_reported":1737328045,"current_range_meters":26800,"station_id":"","pricing_plan_id":"cebpf4jnsgd1na2vs0mg"},{"bike_id":"d6d1604c-c524-40c9-b4a5-227697805b64","system_id":"levelo_inurba_marseille","lat":43.298888,"lon":5.397395,"is_reserved":false,"is_disabled":true,"rental_uris":{"android":"levelo://app?vid=d6d1604c-c524-40c9-b4a5-227697805b64","ios":"levelo://app?vid=d6d1604c-c524-40c9-b4a5-227697805b64"},"vehicle_type_id":"4","last_reported":1737328045,"current_range_meters":800,"station_id":"ce4bh0h2rcd13ifvqd50","pricing_plan_id":"cebpf4jnsgd1na2vs0mg"},{"bike_id":"867be5f4-977e-4702-858e-b796a2663ec3","system_id":"levelo_inurba_marseille","lat":43.28945,"lon":5.36385,"is_reserved":false,"is_disabled":false,"rental_uris":{"android":"levelo://app?vid=867be5f4-977e-4702-858e-b796a2663ec3","ios":"levelo://app?vid=867be5f4-977e-4702-858e-b796a2663ec3"},"vehicle_type_id":"4","last_reported":1737328045,"current_range_meters":18000,"station_id":"ce4bhc92rcd13ifvqetg","pricing_plan_id":"cebpf4jnsgd1na2vs0mg"},{"bike_id":"19fb1931-f075-402c-a076-088e72accb76","system_id":"levelo_inurba_marseille","lat":43.24823,"lon":5.37455,"is_reserved":false,"is_disabled":false,"rental_uris":{"android":"levelo://app?vid=19fb1931-f075-402c-a076-088e72accb76","ios":"levelo://app?vid=19fb1931-f075-402c-a076-088e72accb76"},"vehicle_type_id":"4","last_reported":1737328045,"current_range_meters":9200,"station_id":"ce4bhgh2rcd13ifvqfb0","pricing_plan_id":"cebpf4jnsgd1na2vs0mg"},{"bike_id":"5e2ed0b4-6212-477c-91dc-b88670debb7b","system_id":"levelo_inurba_marseille","lat":43.31764,"lon":5.3901,"is_reserved":false,"is_disabled":false,"rental_uris":{"android":"levelo://app?vid=5e2ed0b4-6212-477c-91dc-b88670debb7b","ios":"levelo://app?vid=5e2ed0b4-6212-477c-91dc-b88670debb7b"},"vehicle_type_id":"4","last_reported":1737328045,"current_range_meters":38800,"station_id":"ce4bhqp2rcd13ifvqhng","pricing_plan_id":"cebpf4jnsgd1na2vs0mg"},{"bike_id":"f50183e4-71ca-412a-b3a0-01a0e393ecef","system_id":"levelo_inurba_marseille","lat":43.28153,"lon":5.42653,"is_reserved":false,"is_disabled":false,"rental_uris":{"android":"levelo://app?vid=f50183e4-71ca-412a-b3a0-01a0e393ecef","ios":"levelo://app?vid=f50183e4-71ca-412a-b3a0-01a0e393ecef"},"vehicle_type_id":"4","last_reported":1737328045,"current_range_meters":28000,"station_id":"ce4bhnh2rcd13ifvqgug","pricing_plan_id":"cebpf4jnsgd1na2vs0mg"},{"bike_id":"dfe486c9-2a48-41c2-bfe3-68d04becb36f","system_id":"levelo_inurba_marseille","lat":43.28948,"lon":5.39624,"is_reserved":false,"is_disabled":false,"rental_uris":{"android":"levelo://app?vid=dfe486c9-2a48-41c2-bfe3-68d04becb36f","ios":"levelo://app?vid=dfe486c9-2a48-41c2-bfe3-68d04becb36f"},"vehicle_type_id":"4","last_reported":1737328045,"current_range_meters":39200,"station_id":"ce4bh3h2rcd13ifvqdn0","pricing_plan_id":"cebpf4jnsgd1na2vs0mg"},{"bike_id":"4dffe839-6099-4b57-8c0b-3916f11046fc","system_id":"levelo_inurba_marseille","lat":43.30284,"lon":5.3691,"is_reserved":false,"is_disabled":false,"rental_uris":{"android":"levelo://app?vid=4dffe839-6099-4b57-8c0b-3916f11046fc","ios":"levelo://app?vid=4dffe839-6099-4b57-8c0b-3916f11046fc"},"vehicle_type_id":"4","last_reported":1737328045,"current_range_meters":34800,"station_id":"ce4bgqh2rcd13ifvqc5g","pricing_plan_id":"cebpf4jnsgd1na2vs0mg"},{"bike_id":"16a7176a-24c9-4d21-8155-eb4f5f1f837c","system_id":"levelo_inurba_marseille","lat":43.24656,"lon":5.38163,"is_reserved":false,"is_disabled":false,"rental_uris":{"android":"levelo://app?vid=16a7176a-24c9-4d21-8155-eb4f5f1f837c","ios":"levelo://app?vid=16a7176a-24c9-4d21-8155-eb4f5f1f837c"},"vehicle_type_id":"4","last_reported":1737328045,"current_range_meters":37600,"station_id":"ce4bhih2rcd13ifvqfr0","pricing_plan_id":"cebpf4jnsgd1na2vs0mg"},{"bike_id":"598f7c2a-7e85-4067-90c6-b3bc2d305999","system_id":"levelo_inurba_marseille","lat":43.30208,"lon":5.39473,"is_reserved":false,"is_disabled":false,"rental_uris":{"android":"levelo://app?vid=598f7c2a-7e85-4067-90c6-b3bc2d305999","ios":"levelo://app?vid=598f7c2a-7e85-4067-90c6-b3bc2d305999"},"vehicle_type_id":"4","last_reported":1737328045,"current_range_meters":38800,"station_id":"ce4bh0p2rcd13ifvqd70","pricing_plan_id":"cebpf4jnsgd1na2vs0mg"},{"bike_id":"2f533fc2-4fae-4a44-9be4-f09670c03179","system_id":"levelo_inurba_marseille","lat":43.29863,"lon":5.39733,"is_reserved":false,"is_disabled":false,"rental_uris":{"android":"levelo://app?vid=2f533fc2-4fae-4a44-9be4-f09670c03179","ios":"levelo://app?vid=2f533fc2-4fae-4a44-9be4-f09670c03179"},"vehicle_type_id":"4","last_reported":1737328045,"current_range_meters":3600,"station_id":"ce4bh0h2rcd13ifvqd50","pricing_plan_id":"cebpf4jnsgd1na2vs0mg"},{"bike_id":"b6266ca1-f670-469e-913b-183d4fe31096","system_id":"levelo_inurba_marseille","lat":43.23178,"lon":5.39985,"is_reserved":false,"is_disabled":false,"rental_uris":{"android":"levelo://app?vid=b6266ca1-f670-469e-913b-183d4fe31096","ios":"levelo://app?vid=b6266ca1-f670-469e-913b-183d4fe31096"},"vehicle_type_id":"4","last_reported":1737328045,"current_range_meters":38000,"station_id":"ce4bhn12rcd13ifvqgqg","pricing_plan_id":"cebpf4jnsgd1na2vs0mg"},{"bike_id":"45b46742-a62d-4855-9ae3-d6f0621cbfdc","system_id":"levelo_inurba_marseille","lat":43.25842,"lon":5.39408,"is_reserved":false,"is_disabled":true,"rental_uris":{"android":"levelo://app?vid=45b46742-a62d-4855-9ae3-d6f0621cbfdc","ios":"levelo://app?vid=45b46742-a62d-4855-9ae3-d6f0621cbfdc"},"vehicle_type_id":"4","last_reported":1737328045,"current_range_meters":38400,"station_id":"ce4bhip2rcd13ifvqft0","pricing_plan_id":"cebpf4jnsgd1na2vs0mg"},{"bike_id":"f04ef4a1-6cc3-4e98-9736-cf47ded0c8aa","system_id":"levelo_inurba_marseille","lat":43.32343,"lon":5.40616,"is_reserved":false,"is_disabled":false,"rental_uris":{"android":"levelo://app?vid=f04ef4a1-6cc3-4e98-9736-cf47ded0c8aa","ios":"levelo://app?vid=f04ef4a1-6cc3-4e98-9736-cf47ded0c8aa"},"vehicle_type_id":"4","last_reported":1737328045,"current_range_meters":19600,"station_id":"ce4bhq92rcd13ifvqhjg","pricing_plan_id":"cebpf4jnsgd1na2vs0mg"},{"bike_id":"12d313aa-68bf-4753-a0fb-a5e8c7c367a2","system_id":"levelo_inurba_marseille","lat":43.31501,"lon":5.37276,"is_reserved":false,"is_disabled":false,"rental_uris":{"android":"levelo://app?vid=12d313aa-68bf-4753-a0fb-a5e8c7c367a2","ios":"levelo://app?vid=12d313aa-68bf-4753-a0fb-a5e8c7c367a2"},"vehicle_type_id":"4","last_reported":1737328045,"current_range_meters":32400,"station_id":"ce4bgt12rcd13ifvqcd0","pricing_plan_id":"cebpf4jnsgd1na2vs0mg"},{"bike_id":"69bfca03-9ee6-49c7-b9a2-27fcb6fcb79c","system_id":"levelo_inurba_marseille","lat":43.29315,"lon":5.40916,"is_reserved":false,"is_disabled":false,"rental_uris":{"android":"levelo://app?vid=69bfca03-9ee6-49c7-b9a2-27fcb6fcb79c","ios":"levelo://app?vid=69bfca03-9ee6-49c7-b9a2-27fcb6fcb79c"},"vehicle_type_id":"4","last_reported":1737328045,"current_range_meters":39200,"station_id":"ce4bh192rcd13ifvqdc0","pricing_plan_id":"cebpf4jnsgd1na2vs0mg"},{"bike_id":"4edb4155-9425-4edc-b0b4-ac393bd38450","system_id":"levelo_inurba_marseille","lat":43.2465,"lon":5.38901,"is_reserved":false,"is_disabled":false,"rental_uris":{"android":"levelo://app?vid=4edb4155-9425-4edc-b0b4-ac393bd38450","ios":"levelo://app?vid=4edb4155-9425-4edc-b0b4-ac393bd38450"},"vehicle_type_id":"4","last_reported":1737328045,"current_range_meters":25200,"station_id":"ce4bhg12rcd13ifvqf60","pricing_plan_id":"cebpf4jnsgd1na2vs0mg"},{"bike_id":"5cfdac06-df86-4b65-9cd1-00ce26117465","system_id":"levelo_inurba_marseille","lat":43.30608,"lon":5.3722,"is_reserved":false,"is_disabled":false,"rental_uris":{"android":"levelo://app?vid=5cfdac06-df86-4b65-9cd1-00ce26117465","ios":"levelo://app?vid=5cfdac06-df86-4b65-9cd1-00ce26117465"},"vehicle_type_id":"4","last_reported":1737328045,"current_range_meters":39200,"station_id":"ce4bgqh2rcd13ifvqc4g","pricing_plan_id":"cebpf4jnsgd1na2vs0mg"},{"bike_id":"92fa69bb-8d79-4a4e-8892-87ec90c4fac1","system_id":"levelo_inurba_marseille","lat":43.31498,"lon":5.38938,"is_reserved":false,"is_disabled":false,"rental_uris":{"android":"levelo://app?vid=92fa69bb-8d79-4a4e-8892-87ec90c4fac1","ios":"levelo://app?vid=92fa69bb-8d79-4a4e-8892-87ec90c4fac1"},"vehicle_type_id":"4","last_reported":1737328045,"current_range_meters":20400,"station_id":"","pricing_plan_id":"cebpf4jnsgd1na2vs0mg"},{"bike_id":"8d47a9a4-9c05-4560-b68c-f83603f5dd47","system_id":"levelo_inurba_marseille","lat":43.29573,"lon":5.40815,"is_reserved":false,"is_disabled":false,"rental_uris":{"android":"levelo://app?vid=8d47a9a4-9c05-4560-b68c-f83603f5dd47","ios":"levelo://app?vid=8d47a9a4-9c05-4560-b68c-f83603f5dd47"},"vehicle_type_id":"4","last_reported":1737328045,"current_range_meters":31200,"station_id":"ce4bh0h2rcd13ifvqd60","pricing_plan_id":"cebpf4jnsgd1na2vs0mg"},{"bike_id":"f2390374-e060-4fe1-bcfa-cb2711193e58","system_id":"levelo_inurba_marseille","lat":43.25111,"lon":5.39503,"is_reserved":false,"is_disabled":false,"rental_uris":{"android":"levelo://app?vid=f2390374-e060-4fe1-bcfa-cb2711193e58","ios":"levelo://app?vid=f2390374-e060-4fe1-bcfa-cb2711193e58"},"vehicle_type_id":"4","last_reported":1737328045,"current_range_meters":37600,"station_id":"ce4bhm12rcd13ifvqgkg","pricing_plan_id":"cebpf4jnsgd1na2vs0mg"},{"bike_id":"f6eb4c2f-f488-49be-8b74-65ffb05f3c0f","system_id":"levelo_inurba_marseille","lat":43.28724,"lon":5.37886,"is_reserved":false,"is_disabled":false,"rental_uris":{"android":"levelo://app?vid=f6eb4c2f-f488-49be-8b74-65ffb05f3c0f","ios":"levelo://app?vid=f6eb4c2f-f488-49be-8b74-65ffb05f3c0f"},"vehicle_type_id":"4","last_reported":1737328045,"current_range_meters":38800,"station_id":"ce4bh9p2rcd13ifvqec0","pricing_plan_id":"cebpf4jnsgd1na2vs0mg"},{"bike_id":"d03c5b6c-cea6-495f-9a1b-1addf2bed4ec","system_id":"levelo_inurba_marseille","lat":43.28566,"lon":5.395,"is_reserved":false,"is_disabled":false,"rental_uris":{"android":"levelo://app?vid=d03c5b6c-cea6-495f-9a1b-1addf2bed4ec","ios":"levelo://app?vid=d03c5b6c-cea6-495f-9a1b-1addf2bed4ec"},"vehicle_type_id":"4","last_reported":1737328045,"current_range_meters":38400,"station_id":"ce4bh292rcd13ifvqdg0","pricing_plan_id":"cebpf4jnsgd1na2vs0mg"},{"bike_id":"591b3bd2-5685-4ec2-843e-e45d69c9aabd","system_id":"levelo_inurba_marseille","lat":43.25782,"lon":5.40258,"is_reserved":false,"is_disabled":false,"rental_uris":{"android":"levelo://app?vid=591b3bd2-5685-4ec2-843e-e45d69c9aabd","ios":"levelo://app?vid=591b3bd2-5685-4ec2-843e-e45d69c9aabd"},"vehicle_type_id":"4","last_reported":1737328045,"current_range_meters":39200,"station_id":"ce4bhh92rcd13ifvqfj0","pricing_plan_id":"cebpf4jnsgd1na2vs0mg"},{"bike_id":"1aa8eecf-96db-4dff-a694-3573ca799e03","system_id":"levelo_inurba_marseille","lat":43.28353,"lon":5.38118,"is_reserved":false,"is_disabled":false,"rental_uris":{"android":"levelo://app?vid=1aa8eecf-96db-4dff-a694-3573ca799e03","ios":"levelo://app?vid=1aa8eecf-96db-4dff-a694-3573ca799e03"},"vehicle_type_id":"4","last_reported":1737328045,"current_range_meters":26800,"station_id":"ce4bh412rcd13ifvqdr0","pricing_plan_id":"cebpf4jnsgd1na2vs0mg"},{"bike_id":"948a0d36-7930-4c83-89da-81f27ad60806","system_id":"levelo_inurba_marseille","lat":43.28831,"lon":5.39315,"is_reserved":false,"is_disabled":true,"rental_uris":{"android":"levelo://app?vid=948a0d36-7930-4c83-89da-81f27ad60806","ios":"levelo://app?vid=948a0d36-7930-4c83-89da-81f27ad60806"},"vehicle_type_id":"4","last_reported":1737328045,"current_range_meters":6400,"station_id":"ce4bh2p2rcd13ifvqdi0","pricing_plan_id":"cebpf4jnsgd1na2vs0mg"},{"bike_id":"f64999f5-996d-4197-afe6-61b2936cb9bb","system_id":"levelo_inurba_marseille","lat":43.29108,"lon":5.40386,"is_reserved":false,"is_disabled":false,"rental_uris":{"android":"levelo://app?vid=f64999f5-996d-4197-afe6-61b2936cb9bb","ios":"levelo://app?vid=f64999f5-996d-4197-afe6-61b2936cb9bb"},"vehicle_type_id":"4","last_reported":1737328045,"current_range_meters":38800,"station_id":"","pricing_plan_id":"cebpf4jnsgd1na2vs0mg"},{"bike_id":"28bb39bd-fc2a-44a0-a83d-e9876a88bfef","system_id":"levelo_inurba_marseille","lat":43.29519,"lon":5.39044,"is_reserved":false,"is_disabled":false,"rental_uris":{"android":"levelo://app?vid=28bb39bd-fc2a-44a0-a83d-e9876a88bfef","ios":"levelo://app?vid=28bb39bd-fc2a-44a0-a83d-e9876a88bfef"},"vehicle_type_id":"4","last_reported":1737328045,"current_range_meters":38400,"station_id":"ce4bh3p2rcd13ifvqdp0","pricing_plan_id":"cebpf4jnsgd1na2vs0mg"},{"bike_id":"0aa4a416-5ca3-4c2e-b222-394c6f697f31","system_id":"levelo_inurba_marseille","lat":43.31371,"lon":5.36678,"is_reserved":false,"is_disabled":false,"rental_uris":{"android":"levelo://app?vid=0aa4a416-5ca3-4c2e-b222-394c6f697f31","ios":"levelo://app?vid=0aa4a416-5ca3-4c2e-b222-394c6f697f31"},"vehicle_type_id":"4","last_reported":1737328045,"current_range_meters":38800,"station_id":"ce4bgr92rcd13ifvqc6g","pricing_plan_id":"cebpf4jnsgd1na2vs0mg"},{"bike_id":"1453cc98-4024-4b32-9818-686d153e11e6","system_id":"levelo_inurba_marseille","lat":43.28041,"lon":5.36953,"is_reserved":false,"is_disabled":false,"rental_uris":{"android":"levelo://app?vid=1453cc98-4024-4b32-9818-686d153e11e6","ios":"levelo://app?vid=1453cc98-4024-4b32-9818-686d153e11e6"},"vehicle_type_id":"4","last_reported":1737328045,"current_range_meters":38000,"station_id":"ce4bha12rcd13ifvqef0","pricing_plan_id":"cebpf4jnsgd1na2vs0mg"},{"bike_id":"f3165922-afae-42d2-be0e-96fab877f821","system_id":"levelo_inurba_marseille","lat":43.2656,"lon":5.37279,"is_reserved":false,"is_disabled":false,"rental_uris":{"android":"levelo://app?vid=f3165922-afae-42d2-be0e-96fab877f821","ios":"levelo://app?vid=f3165922-afae-42d2-be0e-96fab877f821"},"vehicle_type_id":"4","last_reported":1737328045,"current_range_meters":24000,"station_id":"ce4bhg12rcd13ifvqf70","pricing_plan_id":"cebpf4jnsgd1na2vs0mg"},{"bike_id":"ac3f8308-d8f9-4013-b563-9f4a11898c86","system_id":"levelo_inurba_marseille","lat":43.29699,"lon":5.366,"is_reserved":false,"is_disabled":false,"rental_uris":{"android":"levelo://app?vid=ac3f8308-d8f9-4013-b563-9f4a11898c86","ios":"levelo://app?vid=ac3f8308-d8f9-4013-b563-9f4a11898c86"},"vehicle_type_id":"4","last_reported":1737328045,"current_range_meters":35600,"station_id":"ce4bgn12rcd13ifvqbt0","pricing_plan_id":"cebpf4jnsgd1na2vs0mg"},{"bike_id":"a95248e8-7ba2-479e-9b5c-9fb4d8e98c2b","system_id":"levelo_inurba_marseille","lat":43.28101,"lon":5.421871,"is_reserved":false,"is_disabled":true,"rental_uris":{"android":"levelo://app?vid=a95248e8-7ba2-479e-9b5c-9fb4d8e98c2b","ios":"levelo://app?vid=a95248e8-7ba2-479e-9b5c-9fb4d8e98c2b"},"vehicle_type_id":"4","last_reported":1737328045,"current_range_meters":0,"station_id":"","pricing_plan_id":"cebpf4jnsgd1na2vs0mg"},{"bike_id":"246f2aa1-d855-40ee-b8e2-0e541013d632","system_id":"levelo_inurba_marseille","lat":43.278138,"lon":5.40721,"is_reserved":false,"is_disabled":true,"rental_uris":{"android":"levelo://app?vid=246f2aa1-d855-40ee-b8e2-0e541013d632","ios":"levelo://app?vid=246f2aa1-d855-40ee-b8e2-0e541013d632"},"vehicle_type_id":"4","last_reported":1737328045,"current_range_meters":0,"station_id":"ce4bhnh2rcd13ifvqgtg","pricing_plan_id":"cebpf4jnsgd1na2vs0mg"},{"bike_id":"1296c22a-fd06-464a-9422-375c040fd819","system_id":"levelo_inurba_marseille","lat":43.31491,"lon":5.37305,"is_reserved":false,"is_disabled":false,"rental_uris":{"android":"levelo://app?vid=1296c22a-fd06-464a-9422-375c040fd819","ios":"levelo://app?vid=1296c22a-fd06-464a-9422-375c040fd819"},"vehicle_type_id":"4","last_reported":1737328045,"current_range_meters":39200,"station_id":"ce4bgt12rcd13ifvqcd0","pricing_plan_id":"cebpf4jnsgd1na2vs0mg"},{"bike_id":"490838b6-f744-4b79-ac77-a247533aa296","system_id":"levelo_inurba_marseille","lat":43.31692,"lon":5.4048,"is_reserved":false,"is_disabled":false,"rental_uris":{"android":"levelo://app?vid=490838b6-f744-4b79-ac77-a247533aa296","ios":"levelo://app?vid=490838b6-f744-4b79-ac77-a247533aa296"},"vehicle_type_id":"4","last_reported":1737328045,"current_range_meters":38800,"station_id":"ce4bh012rcd13ifvqd00","pricing_plan_id":"cebpf4jnsgd1na2vs0mg"},{"bike_id":"c406e2bd-23ff-4e1f-a222-e3b1c1d85894","system_id":"levelo_inurba_marseille","lat":43.31698,"lon":5.37779,"is_reserved":false,"is_disabled":false,"rental_uris":{"android":"levelo://app?vid=c406e2bd-23ff-4e1f-a222-e3b1c1d85894","ios":"levelo://app?vid=c406e2bd-23ff-4e1f-a222-e3b1c1d85894"},"vehicle_type_id":"4","last_reported":1737328045,"current_range_meters":36000,"station_id":"ce4bgth2rcd13ifvqch0","pricing_plan_id":"cebpf4jnsgd1na2vs0mg"},{"bike_id":"88ce3a2b-343a-48fa-9bfd-c30ff1dbe4e5","system_id":"levelo_inurba_marseille","lat":43.25087,"lon":5.39526,"is_reserved":false,"is_disabled":false,"rental_uris":{"android":"levelo://app?vid=88ce3a2b-343a-48fa-9bfd-c30ff1dbe4e5","ios":"levelo://app?vid=88ce3a2b-343a-48fa-9bfd-c30ff1dbe4e5"},"vehicle_type_id":"4","last_reported":1737328045,"current_range_meters":12000,"station_id":"ce4bhm12rcd13ifvqgkg","pricing_plan_id":"cebpf4jnsgd1na2vs0mg"},{"bike_id":"47498706-46bc-43f6-b5ab-5cb37c042b81","system_id":"levelo_inurba_marseille","lat":43.32052,"lon":5.41552,"is_reserved":false,"is_disabled":false,"rental_uris":{"android":"levelo://app?vid=47498706-46bc-43f6-b5ab-5cb37c042b81","ios":"levelo://app?vid=47498706-46bc-43f6-b5ab-5cb37c042b81"},"vehicle_type_id":"4","last_reported":1737328045,"current_range_meters":33600,"station_id":"ce4bhq92rcd13ifvqhkg","pricing_plan_id":"cebpf4jnsgd1na2vs0mg"},{"bike_id":"5957b55c-bbf3-4d79-a9fa-182e34bda710","system_id":"levelo_inurba_marseille","lat":43.26676,"lon":5.40277,"is_reserved":false,"is_disabled":false,"rental_uris":{"android":"levelo://app?vid=5957b55c-bbf3-4d79-a9fa-182e34bda710","ios":"levelo://app?vid=5957b55c-bbf3-4d79-a9fa-182e34bda710"},"vehicle_type_id":"4","last_reported":1737328045,"current_range_meters":12800,"station_id":"","pricing_plan_id":"cebpf4jnsgd1na2vs0mg"},{"bike_id":"ee58e8f6-8ee8-4aba-ab92-f42ca46dacd3","system_id":"levelo_inurba_marseille","lat":43.27809,"lon":5.40707,"is_reserved":false,"is_disabled":false,"rental_uris":{"android":"levelo://app?vid=ee58e8f6-8ee8-4aba-ab92-f42ca46dacd3","ios":"levelo://app?vid=ee58e8f6-8ee8-4aba-ab92-f42ca46dacd3"},"vehicle_type_id":"4","last_reported":1737328045,"current_range_meters":38000,"station_id":"ce4bhnh2rcd13ifvqgtg","pricing_plan_id":"cebpf4jnsgd1na2vs0mg"},{"bike_id":"2189f33e-4cfd-4f76-9d91-913095d551c4","system_id":"levelo_inurba_marseille","lat":43.30354,"lon":5.39095,"is_reserved":false,"is_disabled":true,"rental_uris":{"android":"levelo://app?vid=2189f33e-4cfd-4f76-9d91-913095d551c4","ios":"levelo://app?vid=2189f33e-4cfd-4f76-9d91-913095d551c4"},"vehicle_type_id":"4","last_reported":1737328045,"current_range_meters":0,"station_id":"","pricing_plan_id":"cebpf4jnsgd1na2vs0mg"},{"bike_id":"14cf24f1-48ed-4cc8-adad-733e85c2037c","system_id":"levelo_inurba_marseille","lat":43.2885,"lon":5.39323,"is_reserved":false,"is_disabled":false,"rental_uris":{"android":"levelo://app?vid=14cf24f1-48ed-4cc8-adad-733e85c2037c","ios":"levelo://app?vid=14cf24f1-48ed-4cc8-adad-733e85c2037c"},"vehicle_type_id":"4","last_reported":1737328045,"current_range_meters":20000,"station_id":"ce4bh2p2rcd13ifvqdi0","pricing_plan_id":"cebpf4jnsgd1na2vs0mg"},{"bike_id":"20ef9b62-d698-4f47-b65d-e26cd9307540","system_id":"levelo_inurba_marseille","lat":43.30246,"lon":5.40003,"is_reserved":false,"is_disabled":false,"rental_uris":{"android":"levelo://app?vid=20ef9b62-d698-4f47-b65d-e26cd9307540","ios":"levelo://app?vid=20ef9b62-d698-4f47-b65d-e26cd9307540"},"vehicle_type_id":"4","last_reported":1737328045,"current_range_meters":39200,"station_id":"ce4bgvh2rcd13ifvqcs0","pricing_plan_id":"cebpf4jnsgd1na2vs0mg"},{"bike_id":"668f9767-c78d-438a-96bb-c0760f782967","system_id":"levelo_inurba_marseille","lat":43.26195,"lon":5.37917,"is_reserved":false,"is_disabled":false,"rental_uris":{"android":"levelo://app?vid=668f9767-c78d-438a-96bb-c0760f782967","ios":"levelo://app?vid=668f9767-c78d-438a-96bb-c0760f782967"},"vehicle_type_id":"4","last_reported":1737328045,"current_range_meters":35200,"station_id":"ce4bhjp2rcd13ifvqg90","pricing_plan_id":"cebpf4jnsgd1na2vs0mg"},{"bike_id":"43ced1e6-8482-4f2f-9ba1-9ca79b71ddfa","system_id":"levelo_inurba_marseille","lat":43.30129,"lon":5.39858,"is_reserved":false,"is_disabled":false,"rental_uris":{"android":"levelo://app?vid=43ced1e6-8482-4f2f-9ba1-9ca79b71ddfa","ios":"levelo://app?vid=43ced1e6-8482-4f2f-9ba1-9ca79b71ddfa"},"vehicle_type_id":"4","last_reported":1737328045,"current_range_meters":38800,"station_id":"ce4bh0h2rcd13ifvqd40","pricing_plan_id":"cebpf4jnsgd1na2vs0mg"},{"bike_id":"a32f8922-6942-48e0-b7e4-53d9b1d9ff52","system_id":"levelo_inurba_marseille","lat":43.32055,"lon":5.41536,"is_reserved":false,"is_disabled":false,"rental_uris":{"android":"levelo://app?vid=a32f8922-6942-48e0-b7e4-53d9b1d9ff52","ios":"levelo://app?vid=a32f8922-6942-48e0-b7e4-53d9b1d9ff52"},"vehicle_type_id":"4","last_reported":1737328045,"current_range_meters":39200,"station_id":"ce4bhq92rcd13ifvqhkg","pricing_plan_id":"cebpf4jnsgd1na2vs0mg"},{"bike_id":"baa89f2c-b7e3-4704-afb2-68a3a77a5c34","system_id":"levelo_inurba_marseille","lat":43.31344,"lon":5.37596,"is_reserved":false,"is_disabled":false,"rental_uris":{"android":"levelo://app?vid=baa89f2c-b7e3-4704-afb2-68a3a77a5c34","ios":"levelo://app?vid=baa89f2c-b7e3-4704-afb2-68a3a77a5c34"},"vehicle_type_id":"4","last_reported":1737328045,"current_range_meters":8800,"station_id":"","pricing_plan_id":"cebpf4jnsgd1na2vs0mg"},{"bike_id":"e60bcc88-5ab6-40c5-af7a-e995b02098bd","system_id":"levelo_inurba_marseille","lat":43.24085,"lon":5.37756,"is_reserved":false,"is_disabled":false,"rental_uris":{"android":"levelo://app?vid=e60bcc88-5ab6-40c5-af7a-e995b02098bd","ios":"levelo://app?vid=e60bcc88-5ab6-40c5-af7a-e995b02098bd"},"vehicle_type_id":"4","last_reported":1737328045,"current_range_meters":37600,"station_id":"ce4bhnp2rcd13ifvqgvg","pricing_plan_id":"cebpf4jnsgd1na2vs0mg"},{"bike_id":"ef486e9a-ed3e-409a-8929-2de2bf47be56","system_id":"levelo_inurba_marseille","lat":43.28723,"lon":5.360814,"is_reserved":false,"is_disabled":false,"rental_uris":{"android":"levelo://app?vid=ef486e9a-ed3e-409a-8929-2de2bf47be56","ios":"levelo://app?vid=ef486e9a-ed3e-409a-8929-2de2bf47be56"},"vehicle_type_id":"4","last_reported":1737328045,"current_range_meters":38800,"station_id":"cki0cbj6b192h4jlfktg","pricing_plan_id":"cebpf4jnsgd1na2vs0mg"},{"bike_id":"0d5bf58b-8962-4322-87c4-754920ec04ac","system_id":"levelo_inurba_marseille","lat":43.31193,"lon":5.38706,"is_reserved":false,"is_disabled":true,"rental_uris":{"android":"levelo://app?vid=0d5bf58b-8962-4322-87c4-754920ec04ac","ios":"levelo://app?vid=0d5bf58b-8962-4322-87c4-754920ec04ac"},"vehicle_type_id":"4","last_reported":1737328045,"current_range_meters":29600,"station_id":"ce4bgv12rcd13ifvqcp0","pricing_plan_id":"cebpf4jnsgd1na2vs0mg"},{"bike_id":"c92cbb9f-5a8c-4f30-b00a-221ba31b944d","system_id":"levelo_inurba_marseille","lat":43.2843,"lon":5.34989,"is_reserved":false,"is_disabled":true,"rental_uris":{"android":"levelo://app?vid=c92cbb9f-5a8c-4f30-b00a-221ba31b944d","ios":"levelo://app?vid=c92cbb9f-5a8c-4f30-b00a-221ba31b944d"},"vehicle_type_id":"4","last_reported":1737328045,"current_range_meters":29600,"station_id":"ce4bhbh2rcd13ifvqepg","pricing_plan_id":"cebpf4jnsgd1na2vs0mg"},{"bike_id":"0959c4c1-584b-411b-b7bb-e592fadb6799","system_id":"levelo_inurba_marseille","lat":43.29196,"lon":5.39331,"is_reserved":false,"is_disabled":false,"rental_uris":{"android":"levelo://app?vid=0959c4c1-584b-411b-b7bb-e592fadb6799","ios":"levelo://app?vid=0959c4c1-584b-411b-b7bb-e592fadb6799"},"vehicle_type_id":"4","last_reported":1737328045,"current_range_meters":38800,"station_id":"ce4bh192rcd13ifvqdd0","pricing_plan_id":"cebpf4jnsgd1na2vs0mg"},{"bike_id":"3a751442-3b29-432a-b184-48f3a7974b3c","system_id":"levelo_inurba_marseille","lat":43.29259,"lon":5.40899,"is_reserved":false,"is_disabled":false,"rental_uris":{"android":"levelo://app?vid=3a751442-3b29-432a-b184-48f3a7974b3c","ios":"levelo://app?vid=3a751442-3b29-432a-b184-48f3a7974b3c"},"vehicle_type_id":"4","last_reported":1737328045,"current_range_meters":16800,"station_id":"ce4bh192rcd13ifvqdc0","pricing_plan_id":"cebpf4jnsgd1na2vs0mg"},{"bike_id":"c60718c5-17db-4c24-a963-5724256277a7","system_id":"levelo_inurba_marseille","lat":43.28744,"lon":5.40013,"is_reserved":false,"is_disabled":false,"rental_uris":{"android":"levelo://app?vid=c60718c5-17db-4c24-a963-5724256277a7","ios":"levelo://app?vid=c60718c5-17db-4c24-a963-5724256277a7"},"vehicle_type_id":"4","last_reported":1737328045,"current_range_meters":28400,"station_id":"ce4bho92rcd13ifvqh3g","pricing_plan_id":"cebpf4jnsgd1na2vs0mg"},{"bike_id":"fe90f7a6-3920-456a-9451-50d213b7000f","system_id":"levelo_inurba_marseille","lat":43.284697,"lon":5.384346,"is_reserved":false,"is_disabled":true,"rental_uris":{"android":"levelo://app?vid=fe90f7a6-3920-456a-9451-50d213b7000f","ios":"levelo://app?vid=fe90f7a6-3920-456a-9451-50d213b7000f"},"vehicle_type_id":"4","last_reported":1737328045,"current_range_meters":30000,"station_id":"ce4bh512rcd13ifvqe3g","pricing_plan_id":"cebpf4jnsgd1na2vs0mg"},{"bike_id":"67fe5a2e-d8fb-4c79-a771-ee3875d3a660","system_id":"levelo_inurba_marseille","lat":43.33751,"lon":5.39182,"is_reserved":false,"is_disabled":false,"rental_uris":{"android":"levelo://app?vid=67fe5a2e-d8fb-4c79-a771-ee3875d3a660","ios":"levelo://app?vid=67fe5a2e-d8fb-4c79-a771-ee3875d3a660"},"vehicle_type_id":"4","last_reported":1737328045,"current_range_meters":38800,"station_id":"ce4bhr92rcd13ifvqhsg","pricing_plan_id":"cebpf4jnsgd1na2vs0mg"},{"bike_id":"a5e54fff-92da-48a5-b188-02794fc4460d","system_id":"levelo_inurba_marseille","lat":43.31283,"lon":5.4018,"is_reserved":false,"is_disabled":false,"rental_uris":{"android":"levelo://app?vid=a5e54fff-92da-48a5-b188-02794fc4460d","ios":"levelo://app?vid=a5e54fff-92da-48a5-b188-02794fc4460d"},"vehicle_type_id":"4","last_reported":1737328045,"current_range_meters":39200,"station_id":"ce4bh092rcd13ifvqd30","pricing_plan_id":"cebpf4jnsgd1na2vs0mg"},{"bike_id":"c325b89d-7c1c-484e-8736-db36d00deba2","system_id":"levelo_inurba_marseille","lat":43.28828,"lon":5.39313,"is_reserved":false,"is_disabled":false,"rental_uris":{"android":"levelo://app?vid=c325b89d-7c1c-484e-8736-db36d00deba2","ios":"levelo://app?vid=c325b89d-7c1c-484e-8736-db36d00deba2"},"vehicle_type_id":"4","last_reported":1737328045,"current_range_meters":39200,"station_id":"ce4bh2p2rcd13ifvqdi0","pricing_plan_id":"cebpf4jnsgd1na2vs0mg"},{"bike_id":"aeeb7245-8a7c-4b79-b9ac-efca69f7818a","system_id":"levelo_inurba_marseille","lat":43.321111,"lon":5.367943,"is_reserved":false,"is_disabled":false,"rental_uris":{"android":"levelo://app?vid=aeeb7245-8a7c-4b79-b9ac-efca69f7818a","ios":"levelo://app?vid=aeeb7245-8a7c-4b79-b9ac-efca69f7818a"},"vehicle_type_id":"4","last_reported":1737328045,"current_range_meters":18000,"station_id":"ce4bhrh2rcd13ifvqhug","pricing_plan_id":"cebpf4jnsgd1na2vs0mg"},{"bike_id":"78ace97a-e302-4ded-a1e2-7c549a356ef4","system_id":"levelo_inurba_marseille","lat":43.25112,"lon":5.40352,"is_reserved":false,"is_disabled":false,"rental_uris":{"android":"levelo://app?vid=78ace97a-e302-4ded-a1e2-7c549a356ef4","ios":"levelo://app?vid=78ace97a-e302-4ded-a1e2-7c549a356ef4"},"vehicle_type_id":"4","last_reported":1737328045,"current_range_meters":38800,"station_id":"ce4bhlh2rcd13ifvqgig","pricing_plan_id":"cebpf4jnsgd1na2vs0mg"},{"bike_id":"d7ebea74-ea94-4f72-85c3-775497bc315c","system_id":"levelo_inurba_marseille","lat":43.32288,"lon":5.38269,"is_reserved":false,"is_disabled":false,"rental_uris":{"android":"levelo://app?vid=d7ebea74-ea94-4f72-85c3-775497bc315c","ios":"levelo://app?vid=d7ebea74-ea94-4f72-85c3-775497bc315c"},"vehicle_type_id":"4","last_reported":1737328045,"current_range_meters":38800,"station_id":"ce4bhr12rcd13ifvqhqg","pricing_plan_id":"cebpf4jnsgd1na2vs0mg"},{"bike_id":"7b52e969-7498-42fb-aafb-034e09ca2f2a","system_id":"levelo_inurba_marseille","lat":43.30851,"lon":5.43573,"is_reserved":false,"is_disabled":false,"rental_uris":{"android":"levelo://app?vid=7b52e969-7498-42fb-aafb-034e09ca2f2a","ios":"levelo://app?vid=7b52e969-7498-42fb-aafb-034e09ca2f2a"},"vehicle_type_id":"4","last_reported":1737328045,"current_range_meters":28400,"station_id":"","pricing_plan_id":"cebpf4jnsgd1na2vs0mg"},{"bike_id":"88d594e1-1976-44d8-847e-b3661f65e82d","system_id":"levelo_inurba_marseille","lat":43.30596,"lon":5.39352,"is_reserved":false,"is_disabled":false,"rental_uris":{"android":"levelo://app?vid=88d594e1-1976-44d8-847e-b3661f65e82d","ios":"levelo://app?vid=88d594e1-1976-44d8-847e-b3661f65e82d"},"vehicle_type_id":"4","last_reported":1737328045,"current_range_meters":38800,"station_id":"ce4bh0p2rcd13ifvqd80","pricing_plan_id":"cebpf4jnsgd1na2vs0mg"},{"bike_id":"9eb335b9-be9e-4d87-ab11-b7aad1d486a4","system_id":"levelo_inurba_marseille","lat":43.23153,"lon":5.43716,"is_reserved":false,"is_disabled":false,"rental_uris":{"android":"levelo://app?vid=9eb335b9-be9e-4d87-ab11-b7aad1d486a4","ios":"levelo://app?vid=9eb335b9-be9e-4d87-ab11-b7aad1d486a4"},"vehicle_type_id":"4","last_reported":1737328045,"current_range_meters":38800,"station_id":"ce4bhmp2rcd13ifvqgog","pricing_plan_id":"cebpf4jnsgd1na2vs0mg"},{"bike_id":"af7a856b-270b-4bf7-8c2f-4b76a38948fa","system_id":"levelo_inurba_marseille","lat":43.23191,"lon":5.39997,"is_reserved":false,"is_disabled":false,"rental_uris":{"android":"levelo://app?vid=af7a856b-270b-4bf7-8c2f-4b76a38948fa","ios":"levelo://app?vid=af7a856b-270b-4bf7-8c2f-4b76a38948fa"},"vehicle_type_id":"4","last_reported":1737328045,"current_range_meters":39200,"station_id":"ce4bhn12rcd13ifvqgqg","pricing_plan_id":"cebpf4jnsgd1na2vs0mg"},{"bike_id":"cc18b466-f8d2-42fa-ae1e-36285823043c","system_id":"levelo_inurba_marseille","lat":43.31334,"lon":5.39689,"is_reserved":false,"is_disabled":false,"rental_uris":{"android":"levelo://app?vid=cc18b466-f8d2-42fa-ae1e-36285823043c","ios":"levelo://app?vid=cc18b466-f8d2-42fa-ae1e-36285823043c"},"vehicle_type_id":"4","last_reported":1737328045,"current_range_meters":34800,"station_id":"ce4bgvp2rcd13ifvqcu0","pricing_plan_id":"cebpf4jnsgd1na2vs0mg"},{"bike_id":"c152fc79-1cd4-48b6-9683-75e37b136f35","system_id":"levelo_inurba_marseille","lat":43.25015,"lon":5.38943,"is_reserved":false,"is_disabled":false,"rental_uris":{"android":"levelo://app?vid=c152fc79-1cd4-48b6-9683-75e37b136f35","ios":"levelo://app?vid=c152fc79-1cd4-48b6-9683-75e37b136f35"},"vehicle_type_id":"4","last_reported":1737328045,"current_range_meters":38800,"station_id":"ce4bhgp2rcd13ifvqfd0","pricing_plan_id":"cebpf4jnsgd1na2vs0mg"},{"bike_id":"63a0c470-0e3d-4f46-a361-302d7a67e5d2","system_id":"levelo_inurba_marseille","lat":43.24329,"lon":5.37815,"is_reserved":false,"is_disabled":true,"rental_uris":{"android":"levelo://app?vid=63a0c470-0e3d-4f46-a361-302d7a67e5d2","ios":"levelo://app?vid=63a0c470-0e3d-4f46-a361-302d7a67e5d2"},"vehicle_type_id":"4","last_reported":1737328045,"current_range_meters":37600,"station_id":"","pricing_plan_id":"cebpf4jnsgd1na2vs0mg"},{"bike_id":"d5a4b84a-471f-4edb-a016-4dd0af7e2137","system_id":"levelo_inurba_marseille","lat":43.25873,"lon":5.39913,"is_reserved":false,"is_disabled":false,"rental_uris":{"android":"levelo://app?vid=d5a4b84a-471f-4edb-a016-4dd0af7e2137","ios":"levelo://app?vid=d5a4b84a-471f-4edb-a016-4dd0af7e2137"},