{"last_updated":1751886566,"ttl":60,"version":"2.2","data":{"bikes":[{"bike_id":"3da29fb8-fc97-44c6-b9ac-31dd456b2fd4","system_id":"levelo_inurba_marseille","lat":43.33771,"lon":5.37424,"is_reserved":false,"is_disabled":true,"rental_uris":{"android":"levelo://app?vid=3da29fb8-fc97-44c6-b9ac-31dd456b2fd4","ios":"levelo://app?vid=3da29fb8-fc97-44c6-b9ac-31dd456b2fd4"},"vehicle_type_id":"4","last_reported":1751886566,"current_range_meters":0,"station_id":"","pricing_plan_id":"cebpf4jnsgd1na2vs0mg"},{"bike_id":"01861ad8-a8d7-4be6-816e-651927c87584","system_id":"levelo_inurba_marseille","lat":43.33751,"lon":5.37456,"is_reserved":false,"is_disabled":true,"rental_uris":{"android":"levelo://app?vid=01861ad8-a8d7-4be6-816e-651927c87584","ios":"levelo://app?vid=01861ad8-a8d7-4be6-816e-651927c87584"},"vehicle_type_id":"4","last_reported":1751886566,"current_range_meters":0,"station_id":"","pricing_plan_id":"cebpf4jnsgd1na2vs0mg"},{"bike_id":"c1af52b7-f892-4de0-adb4-fb0c70d1c4e6","system_id":"levelo_inurba_marseille","lat":43.32252,"lon":5.44022,"is_reserved":false,"is_disabled":true,"rental_uris":{"android":"levelo://app?vid=c1af52b7-f892-4de0-adb4-fb0c70d1c4e6","ios":"levelo://app?vid=c1af52b7-f892-4de0-adb4-fb0c70d1c4e6"},"vehicle_type_id":"4","last_reported":1751886566,"current_range_meters":0,"station_id":"","pricing_plan_id":"cebpf4jnsgd1na2vs0mg"},{"bike_id":"95c194a9-5cae-4867-bc56-f8781828dc70","system_id":"levelo_inurba_marseille","lat":43.337444,"lon":5.374475,"is_reserved":false,"is_disabled":true,"rental_uris":{"android":"levelo://app?vid=95c194a9-5cae-4867-bc56-f8781828dc70","ios":"levelo://app?vid=95c194a9-5cae-4867-bc56-f8781828dc70"},"vehicle_type_id":"4","last_reported":1751886566,"current_range_meters":0,"station_id":"","pricing_plan_id":"cebpf4jnsgd1na2vs0mg"},{"bike_id":"5e4fccb6-1c76-4083-a352-a6af734b928a","system_id":"levelo_inurba_marseille","lat":43.32236,"lon":5.44004,"is_reserved":false,"is_disabled":true,"rental_uris":{"android":"levelo://app?vid=5e4fccb6-1c76-4083-a352-a6af734b928a","ios":"levelo://app?vid=5e4fccb6-1c76-4083-a352-a6af734b928a"},"vehicle_type_id":"4","last_reported":1751886566,"current_range_meters":0,"station_id":"","pricing_plan_id":"cebpf4jnsgd1na2vs0mg"},{"bike_id":"573a928a-27e4-4c41-92dd-ed057948734b","system_id":"levelo_inurba_marseille","lat":43.31927,"lon":5.37383,"is_reserved":false,"is_disabled":true,"rental_uris":{"android":"levelo://app?vid=573a928a-27e4-4c41-92dd-ed057948734b","ios":"levelo://app?vid=573a928a-27e4-4c41-92dd-ed057948734b"},"vehicle_type_id":"4","last_reported":1751886566,"current_range_meters":0,"station_id":"","pricing_plan_id":"cebpf4jnsgd1na2vs0mg"},{"bike_id":"318b73ce-fb81-4f93-8d0a-043102cd8f2d","system_id":"levelo_inurba_marseille","lat":43.311425,"lon":5.369341,"is_reserved":false,"is_disabled":true,"rental_uris":{"android":"levelo://app?vid=318b73ce-fb81-4f93-8d0a-043102cd8f2d","ios":"levelo://app?vid=318b73ce-fb81-4f93-8d0a-043102cd8f2d"},"vehicle_type_id":"4","last_reported":1751886566,"current_range_meters":0,"station_id":"","pricing_plan_id":"cebpf4jnsgd1na2vs0mg"},{"bike_id":"b4fad069-4146-4f1d-82cc-40dad4b202fc","system_id":"levelo_inurba_marseille","lat":43.31072,"lon":5.38339,"is_reserved":false,"is_disabled":true,"rental_uris":{"android":"levelo://app?vid=b4fad069-4146-4f1d-82cc-40dad4b202fc","ios":"levelo://app?vid=b4fad069-4146-4f1d-82cc-40dad4b202fc"},"vehicle_type_id":"4","last_reported":1751886566,"current_range_meters":0,"station_id":"ce4bgv92rcd13ifvqcr0","pricing_plan_id":"cebpf4jnsgd1na2vs0mg"},{"bike_id":"6ce5b399-9a00-477e-a029-78bb9d846257","system_id":"levelo_inurba_marseille","lat":43.23155,"lon":5.43681,"is_reserved":false,"is_disabled":true,"rental_uris":{"android":"levelo://app?vid=6ce5b399-9a00-477e-a029-78bb9d846257","ios":"levelo://app?vid=6ce5b399-9a00-477e-a029-78bb9d846257"},"vehicle_type_id":"4","last_reported":1751886566,"current_range_meters":0,"station_id":"ce4bhmp2rcd13ifvqgog","pricing_plan_id":"cebpf4jnsgd1na2vs0mg"},{"bike_id":"0255ca70-42ec-4842-b60b-043dcf8b21cf","system_id":"levelo_inurba_marseille","lat":43.23176,"lon":5.43738,"is_reserved":false,"is_disabled":true,"rental_uris":{"android":"levelo://app?vid=0255ca70-42ec-4842-b60b-043dcf8b21cf","ios":"levelo://app?vid=0255ca70-42ec-4842-b60b-043dcf8b21cf"},"vehicle_type_id":"4","last_reported":1751886566,"current_range_meters":0,"station_id":"ce4bhmp2rcd13ifvqgog","pricing_plan_id":"cebpf4jnsgd1na2vs0mg"},{"bike_id":"5b709ab3-27eb-44be-9159-c5f1579e09cd","system_id":"levelo_inurba_marseille","lat":43.31885,"lon":5.40758,"is_reserved":false,"is_disabled":true,"rental_uris":{"android":"levelo://app?vid=5b709ab3-27eb-44be-9159-c5f1579e09cd","ios":"levelo://app?vid=5b709ab3-27eb-44be-9159-c5f1579e09cd"},"vehicle_type_id":"4","last_reported":1751886566,"current_range_meters":0,"station_id":"ce4bhq12rcd13ifvqhig","pricing_plan_id":"cebpf4jnsgd1na2vs0mg"},{"bike_id":"b4b7eb6f-5d24-4d35-87d8-f90bab30d04c","system_id":"levelo_inurba_marseille","lat":43.32299,"lon":5.38294,"is_reserved":false,"is_disabled":true,"rental_uris":{"android":"levelo://app?vid=b4b7eb6f-5d24-4d35-87d8-f90bab30d04c","ios":"levelo://app?vid=b4b7eb6f-5d24-4d35-87d8-f90bab30d04c"},"vehicle_type_id":"4","last_reported":1751886566,"current_range_meters":0,"station_id":"ce4bhr12rcd13ifvqhqg","pricing_plan_id":"cebpf4jnsgd1na2vs0mg"},{"bike_id":"3d508917-55ee-42b6-894b-89c2a444dc06","system_id":"levelo_inurba_marseille","lat":43.22505,"lon":5.34776,"is_reserved":false,"is_disabled":true,"rental_uris":{"android":"levelo://app?vid=3d508917-55ee-42b6-894b-89c2a444dc06","ios":"levelo://app?vid=3d508917-55ee-42b6-894b-89c2a444dc06"},"vehicle_type_id":"4","last_reported":1751886566,"current_range_meters":0,"station_id":"st_cvj5dfep6f1abm77gieg","pricing_plan_id":"cebpf4jnsgd1na2vs0mg"},{"bike_id":"34982e0d-3864-470b-a989-cf9eb1bc1f10","system_id":"levelo_inurba_marseille","lat":43.225105,"lon":5.347893,"is_reserved":false,"is_disabled":true,"rental_uris":{"android":"levelo://app?vid=34982e0d-3864-470b-a989-cf9eb1bc1f10","ios":"levelo://app?vid=34982e0d-3864-470b-a989-cf9eb1bc1f10"},"vehicle_type_id":"4","last_reported":1751886566,"current_range_meters":0,"station_id":"st_cvj5dfep6f1abm77gieg","pricing_plan_id":"cebpf4jnsgd1na2vs0mg"},{"bike_id":"e86ba8c9-208d-482c-a826-4c100938472a","system_id":"levelo_inurba_marseille","lat":43.2119,"lon":5.3507,"is_reserved":false,"is_disabled":true,"rental_uris":{"android":"levelo://app?vid=e86ba8c9-208d-482c-a826-4c100938472a","ios":"levelo://app?vid=e86ba8c9-208d-482c-a826-4c100938472a"},"vehicle_type_id":"4","last_reported":1751886566,"current_range_meters":0,"station_id":"st_cvj6sg6p6f1abm77japg","pricing_plan_id":"cebpf4jnsgd1na2vs0mg"},{"bike_id":"4f6702f7-c169-44ef-aeca-b04d2f72f546","system_id":"levelo_inurba_marseille","lat":43.27378,"lon":5.36256,"is_reserved":false,"is_disabled":true,"rental_uris":{"android":"levelo://app?vid=4f6702f7-c169-44ef-aeca-b04d2f72f546","ios":"levelo://app?vid=4f6702f7-c169-44ef-aeca-b04d2f72f546"},"vehicle_type_id":"4","last_reported":1751886566,"current_range_meters":400,"station_id":"ce4bhbh2rcd13ifvqeo0","pricing_plan_id":"cebpf4jnsgd1na2vs0mg"},{"bike_id":"3dabc229-f8bd-4f2e-b7f3-e21da316733b","system_id":"levelo_inurba_marseille","lat":43.30788,"lon":5.37645,"is_reserved":false,"is_disabled":true,"rental_uris":{"android":"levelo://app?vid=3dabc229-f8bd-4f2e-b7f3-e21da316733b","ios":"levelo://app?vid=3dabc229-f8bd-4f2e-b7f3-e21da316733b"},"vehicle_type_id":"4","last_reported":1751886566,"current_range_meters":800,"station_id":"ce4bgv92rcd13ifvqcq0","pricing_plan_id":"cebpf4jnsgd1na2vs0mg"},{"bike_id":"c4e4041c-63bc-43fe-b739-3d47768cb1dc","system_id":"levelo_inurba_marseille","lat":43.30542,"lon":5.36713,"is_reserved":false,"is_disabled":true,"rental_uris":{"android":"levelo://app?vid=c4e4041c-63bc-43fe-b739-3d47768cb1dc","ios":"levelo://app?vid=c4e4041c-63bc-43fe-b739-3d47768cb1dc"},"vehicle_type_id":"4","last_reported":1751886566,"current_range_meters":1200,"station_id":"ce4bgrp2rcd13ifvqc9g","pricing_plan_id":"cebpf4jnsgd1na2vs0mg"},{"bike_id":"f0a19a9e-f150-4c1e-bcc6-db3195370cac","system_id":"levelo_inurba_marseille","lat":43.32673,"lon":5.4314,"is_reserved":false,"is_disabled":true,"rental_uris":{"android":"levelo://app?vid=f0a19a9e-f150-4c1e-bcc6-db3195370cac","ios":"levelo://app?vid=f0a19a9e-f150-4c1e-bcc6-db3195370cac"},"vehicle_type_id":"4","last_reported":1751886566,"current_range_meters":1600,"station_id":"","pricing_plan_id":"cebpf4jnsgd1na2vs0mg"},{"bike_id":"edf28200-64c8-42a5-92a8-e534ac42b38e","system_id":"levelo_inurba_marseille","lat":43.28618,"lon":5.35095,"is_reserved":false,"is_disabled":true,"rental_uris":{"android":"levelo://app?vid=edf28200-64c8-42a5-92a8-e534ac42b38e","ios":"levelo://app?vid=edf28200-64c8-42a5-92a8-e534ac42b38e"},"vehicle_type_id":"4","last_reported":1751886566,"current_range_meters":1600,"station_id":"ce4bhch2rcd13ifvqeug","pricing_plan_id":"cebpf4jnsgd1na2vs0mg"},{"bike_id":"1d1c9a0b-1e95-440b-bca0-1fad3455460c","system_id":"levelo_inurba_marseille","lat":43.29896,"lon":5.43669,"is_reserved":false,"is_disabled":true,"rental_uris":{"android":"levelo://app?vid=1d1c9a0b-1e95-440b-bca0-1fad3455460c","ios":"levelo://app?vid=1d1c9a0b-1e95-440b-bca0-1fad3455460c"},"vehicle_type_id":"4","last_reported":1751886566,"current_range_meters":1600,"station_id":"ce4bhpp2rcd13ifvqhfg","pricing_plan_id":"cebpf4jnsgd1na2vs0mg"},{"bike_id":"3e7c4519-0f41-46d0-b704-73375e8ad2f7","system_id":"levelo_inurba_marseille","lat":43.28847,"lon":5.3931,"is_reserved":false,"is_disabled":false,"rental_uris":{"android":"levelo://app?vid=3e7c4519-0f41-46d0-b704-73375e8ad2f7","ios":"levelo://app?vid=3e7c4519-0f41-46d0-b704-73375e8ad2f7"},"vehicle_type_id":"4","last_reported":1751886566,"current_range_meters":2000,"station_id":"ce4bh2p2rcd13ifvqdi0","pricing_plan_id":"cebpf4jnsgd1na2vs0mg"},{"bike_id":"e795e4c1-ad3f-47a0-a455-5bf19dec8a94","system_id":"levelo_inurba_marseille","lat":43.231689,"lon":5.436986,"is_reserved":false,"is_disabled":false,"rental_uris":{"android":"levelo://app?vid=e795e4c1-ad3f-47a0-a455-5bf19dec8a94","ios":"levelo://app?vid=e795e4c1-ad3f-47a0-a455-5bf19dec8a94"},"vehicle_type_id":"4","last_reported":1751886566,"current_range_meters":3600,"station_id":"ce4bhmp2rcd13ifvqgog","pricing_plan_id":"cebpf4jnsgd1na2vs0mg"},{"bike_id":"db328b99-8325-4c35-a3c5-045fa697b407","system_id":"levelo_inurba_marseille","lat":43.25143,"lon":5.40377,"is_reserved":false,"is_disabled":true,"rental_uris":{"android":"levelo://app?vid=db328b99-8325-4c35-a3c5-045fa697b407","ios":"levelo://app?vid=db328b99-8325-4c35-a3c5-045fa697b407"},"vehicle_type_id":"4","last_reported":1751886566,"current_range_meters":4000,"station_id":"ce4bhlh2rcd13ifvqgig","pricing_plan_id":"cebpf4jnsgd1na2vs0mg"},{"bike_id":"8eb283fe-44c7-4bb1-836e-cde6c55f1adf","system_id":"levelo_inurba_marseille","lat":43.31802,"lon":5.36847,"is_reserved":false,"is_disabled":false,"rental_uris":{"android":"levelo://app?vid=8eb283fe-44c7-4bb1-836e-cde6c55f1adf","ios":"levelo://app?vid=8eb283fe-44c7-4bb1-836e-cde6c55f1adf"},"vehicle_type_id":"4","last_reported":1751886566,"current_range_meters":4400,"station_id":"","pricing_plan_id":"cebpf4jnsgd1na2vs0mg"},{"bike_id":"9770f207-cc96-4ab7-8417-22f8b86019ca","system_id":"levelo_inurba_marseille","lat":43.34946,"lon":5.34924,"is_reserved":false,"is_disabled":false,"rental_uris":{"android":"levelo://app?vid=9770f207-cc96-4ab7-8417-22f8b86019ca","ios":"levelo://app?vid=9770f207-cc96-4ab7-8417-22f8b86019ca"},"vehicle_type_id":"4","last_reported":1751886566,"current_range_meters":4400,"station_id":"","pricing_plan_id":"cebpf4jnsgd1na2vs0mg"},{"bike_id":"bdfeeb2e-d827-4107-a815-3383f42458b1","system_id":"levelo_inurba_marseille","lat":43.28484,"lon":5.3842,"is_reserved":false,"is_disabled":false,"rental_uris":{"android":"levelo://app?vid=bdfeeb2e-d827-4107-a815-3383f42458b1","ios":"levelo://app?vid=bdfeeb2e-d827-4107-a815-3383f42458b1"},"vehicle_type_id":"4","last_reported":1751886566,"current_range_meters":4800,"station_id":"ce4bh512rcd13ifvqe3g","pricing_plan_id":"cebpf4jnsgd1na2vs0mg"},{"bike_id":"62e1c28f-7013-452d-90fd-90323ce8e2d0","system_id":"levelo_inurba_marseille","lat":43.29259,"lon":5.40912,"is_reserved":false,"is_disabled":false,"rental_uris":{"android":"levelo://app?vid=62e1c28f-7013-452d-90fd-90323ce8e2d0","ios":"levelo://app?vid=62e1c28f-7013-452d-90fd-90323ce8e2d0"},"vehicle_type_id":"4","last_reported":1751886566,"current_range_meters":5600,"station_id":"ce4bh192rcd13ifvqdc0","pricing_plan_id":"cebpf4jnsgd1na2vs0mg"},{"bike_id":"05685912-acd5-41d4-bcf0-c35be17e731d","system_id":"levelo_inurba_marseille","lat":43.27676,"lon":5.38894,"is_reserved":false,"is_disabled":false,"rental_uris":{"android":"levelo://app?vid=05685912-acd5-41d4-bcf0-c35be17e731d","ios":"levelo://app?vid=05685912-acd5-41d4-bcf0-c35be17e731d"},"vehicle_type_id":"4","last_reported":1751886566,"current_range_meters":5600,"station_id":"ce4bhi12rcd13ifvqfo0","pricing_plan_id":"cebpf4jnsgd1na2vs0mg"},{"bike_id":"9f609dca-516b-434f-8cac-7083d69d3b50","system_id":"levelo_inurba_marseille","lat":43.2927,"lon":5.3684,"is_reserved":false,"is_disabled":false,"rental_uris":{"android":"levelo://app?vid=9f609dca-516b-434f-8cac-7083d69d3b50","ios":"levelo://app?vid=9f609dca-516b-434f-8cac-7083d69d3b50"},"vehicle_type_id":"4","last_reported":1751886566,"current_range_meters":6000,"station_id":"ce4bhbp2rcd13ifvqesg","pricing_plan_id":"cebpf4jnsgd1na2vs0mg"},{"bike_id":"86c92dc1-b4da-49d9-acb8-ba390f939865","system_id":"levelo_inurba_marseille","lat":43.3303,"lon":5.39271,"is_reserved":false,"is_disabled":false,"rental_uris":{"android":"levelo://app?vid=86c92dc1-b4da-49d9-acb8-ba390f939865","ios":"levelo://app?vid=86c92dc1-b4da-49d9-acb8-ba390f939865"},"vehicle_type_id":"4","last_reported":1751886566,"current_range_meters":6400,"station_id":"","pricing_plan_id":"cebpf4jnsgd1na2vs0mg"},{"bike_id":"3d533cb4-f2f0-487e-8fbe-83a1f9bbe13b","system_id":"levelo_inurba_marseille","lat":43.32047,"lon":5.41545,"is_reserved":false,"is_disabled":false,"rental_uris":{"android":"levelo://app?vid=3d533cb4-f2f0-487e-8fbe-83a1f9bbe13b","ios":"levelo://app?vid=3d533cb4-f2f0-487e-8fbe-83a1f9bbe13b"},"vehicle_type_id":"4","last_reported":1751886566,"current_range_meters":6400,"station_id":"ce4bhq92rcd13ifvqhkg","pricing_plan_id":"cebpf4jnsgd1na2vs0mg"},{"bike_id":"adf1d38d-1f03-40cf-9b57-0a8f15f62b2d","system_id":"levelo_inurba_marseille","lat":43.329348,"lon":5.364005,"is_reserved":false,"is_disabled":false,"rental_uris":{"android":"levelo://app?vid=adf1d38d-1f03-40cf-9b57-0a8f15f62b2d","ios":"levelo://app?vid=adf1d38d-1f03-40cf-9b57-0a8f15f62b2d"},"vehicle_type_id":"4","last_reported":1751886566,"current_range_meters":6800,"station_id":"","pricing_plan_id":"cebpf4jnsgd1na2vs0mg"},{"bike_id":"fa3d71d7-e8dc-4ea7-8a74-955854ccc081","system_id":"levelo_inurba_marseille","lat":43.30538,"lon":5.36573,"is_reserved":false,"is_disabled":false,"rental_uris":{"android":"levelo://app?vid=fa3d71d7-e8dc-4ea7-8a74-955854ccc081","ios":"levelo://app?vid=fa3d71d7-e8dc-4ea7-8a74-955854ccc081"},"vehicle_type_id":"4","last_reported":1751886566,"current_range_meters":6800,"station_id":"ce4bgs12rcd13ifvqcag","pricing_plan_id":"cebpf4jnsgd1na2vs0mg"},{"bike_id":"d1084a5e-6474-4ac2-8806-73c168524df9","system_id":"levelo_inurba_marseille","lat":43.23967,"lon":5.36632,"is_reserved":false,"is_disabled":false,"rental_uris":{"android":"levelo://app?vid=d1084a5e-6474-4ac2-8806-73c168524df9","ios":"levelo://app?vid=d1084a5e-6474-4ac2-8806-73c168524df9"},"vehicle_type_id":"4","last_reported":1751886566,"current_range_meters":6800,"station_id":"ce4bhi12rcd13ifvqfp0","pricing_plan_id":"cebpf4jnsgd1na2vs0mg"},{"bike_id":"79aa9203-d48f-4598-9901-24d7b0b1656c","system_id":"levelo_inurba_marseille","lat":43.27075,"lon":5.42269,"is_reserved":false,"is_disabled":false,"rental_uris":{"android":"levelo://app?vid=79aa9203-d48f-4598-9901-24d7b0b1656c","ios":"levelo://app?vid=79aa9203-d48f-4598-9901-24d7b0b1656c"},"vehicle_type_id":"4","last_reported":1751886566,"current_range_meters":6800,"station_id":"ce4bhk92rcd13ifvqgb0","pricing_plan_id":"cebpf4jnsgd1na2vs0mg"},{"bike_id":"29fe37c5-98bc-46ce-928a-81c69e9cc375","system_id":"levelo_inurba_marseille","lat":43.320531,"lon":5.415389,"is_reserved":false,"is_disabled":false,"rental_uris":{"android":"levelo://app?vid=29fe37c5-98bc-46ce-928a-81c69e9cc375","ios":"levelo://app?vid=29fe37c5-98bc-46ce-928a-81c69e9cc375"},"vehicle_type_id":"4","last_reported":1751886566,"current_range_meters":6800,"station_id":"ce4bhq92rcd13ifvqhkg","pricing_plan_id":"cebpf4jnsgd1na2vs0mg"},{"bike_id":"f1dc716c-5b51-4d24-838a-447cadd6f41f","system_id":"levelo_inurba_marseille","lat":43.292291,"lon":5.360511,"is_reserved":false,"is_disabled":false,"rental_uris":{"android":"levelo://app?vid=f1dc716c-5b51-4d24-838a-447cadd6f41f","ios":"levelo://app?vid=f1dc716c-5b51-4d24-838a-447cadd6f41f"},"vehicle_type_id":"4","last_reported":1751886566,"current_range_meters":7200,"station_id":"","pricing_plan_id":"cebpf4jnsgd1na2vs0mg"},{"bike_id":"268baf60-9c7a-419c-8df6-646409f735b6","system_id":"levelo_inurba_marseille","lat":43.314838,"lon":5.372994,"is_reserved":false,"is_disabled":false,"rental_uris":{"android":"levelo://app?vid=268baf60-9c7a-419c-8df6-646409f735b6","ios":"levelo://app?vid=268baf60-9c7a-419c-8df6-646409f735b6"},"vehicle_type_id":"4","last_reported":1751886566,"current_range_meters":7200,"station_id":"ce4bgt12rcd13ifvqcd0","pricing_plan_id":"cebpf4jnsgd1na2vs0mg"},{"bike_id":"ed290504-6948-4f69-8584-2e2b0286febf","system_id":"levelo_inurba_marseille","lat":43.211909,"lon":5.350724,"is_reserved":false,"is_disabled":false,"rental_uris":{"android":"levelo://app?vid=ed290504-6948-4f69-8584-2e2b0286febf","ios":"levelo://app?vid=ed290504-6948-4f69-8584-2e2b0286febf"},"vehicle_type_id":"4","last_reported":1751886566,"current_range_meters":7200,"station_id":"st_cvj6sg6p6f1abm77japg","pricing_plan_id":"cebpf4jnsgd1na2vs0mg"},{"bike_id":"fe44924c-dcf0-4048-a1ad-9e680cc9c00c","system_id":"levelo_inurba_marseille","lat":43.26029,"lon":5.4174,"is_reserved":false,"is_disabled":false,"rental_uris":{"android":"levelo://app?vid=fe44924c-dcf0-4048-a1ad-9e680cc9c00c","ios":"levelo://app?vid=fe44924c-dcf0-4048-a1ad-9e680cc9c00c"},"vehicle_type_id":"4","last_reported":1751886566,"current_range_meters":8800,"station_id":"","pricing_plan_id":"cebpf4jnsgd1na2vs0mg"},{"bike_id":"7a02764d-8ae1-42a2-ac95-dffcc9769dff","system_id":"levelo_inurba_marseille","lat":43.28263,"lon":5.3506,"is_reserved":false,"is_disabled":false,"rental_uris":{"android":"levelo://app?vid=7a02764d-8ae1-42a2-ac95-dffcc9769dff","ios":"levelo://app?vid=7a02764d-8ae1-42a2-ac95-dffcc9769dff"},"vehicle_type_id":"4","last_reported":1751886566,"current_range_meters":8800,"station_id":"ce4bhbp2rcd13ifvqerg","pricing_plan_id":"cebpf4jnsgd1na2vs0mg"},{"bike_id":"fd586474-0a0c-4ada-8c0d-c3f0262ebb11","system_id":"levelo_inurba_marseille","lat":43.28001,"lon":5.40011,"is_reserved":false,"is_disabled":false,"rental_uris":{"android":"levelo://app?vid=fd586474-0a0c-4ada-8c0d-c3f0262ebb11","ios":"levelo://app?vid=fd586474-0a0c-4ada-8c0d-c3f0262ebb11"},"vehicle_type_id":"4","last_reported":1751886566,"current_range_meters":8800,"station_id":"ce4bho92rcd13ifvqh4g","pricing_plan_id":"cebpf4jnsgd1na2vs0mg"},{"bike_id":"60f3d515-a9ba-4358-ba10-5994fece7a0d","system_id":"levelo_inurba_marseille","lat":43.32101,"lon":5.36834,"is_reserved":false,"is_disabled":false,"rental_uris":{"android":"levelo://app?vid=60f3d515-a9ba-4358-ba10-5994fece7a0d","ios":"levelo://app?vid=60f3d515-a9ba-4358-ba10-5994fece7a0d"},"vehicle_type_id":"4","last_reported":1751886566,"current_range_meters":9200,"station_id":"ce4bhrh2rcd13ifvqhug","pricing_plan_id":"cebpf4jnsgd1na2vs0mg"},{"bike_id":"d6c5e041-56d5-44d3-8767-93bb0abd1776","system_id":"levelo_inurba_marseille","lat":43.21753,"lon":5.34598,"is_reserved":false,"is_disabled":false,"rental_uris":{"android":"levelo://app?vid=d6c5e041-56d5-44d3-8767-93bb0abd1776","ios":"levelo://app?vid=d6c5e041-56d5-44d3-8767-93bb0abd1776"},"vehicle_type_id":"4","last_reported":1751886566,"current_range_meters":9200,"station_id":"st_cvj6r9ubvosntc0bgbag","pricing_plan_id":"cebpf4jnsgd1na2vs0mg"},{"bike_id":"3fd7951e-7e67-4568-8552-086bd0052874","system_id":"levelo_inurba_marseille","lat":43.217512,"lon":5.345908,"is_reserved":false,"is_disabled":false,"rental_uris":{"android":"levelo://app?vid=3fd7951e-7e67-4568-8552-086bd0052874","ios":"levelo://app?vid=3fd7951e-7e67-4568-8552-086bd0052874"},"vehicle_type_id":"4","last_reported":1751886566,"current_range_meters":9200,"station_id":"st_cvj6r9ubvosntc0bgbag","pricing_plan_id":"cebpf4jnsgd1na2vs0mg"},{"bike_id":"0b2ccd0f-688e-4ec3-aac3-f69227ec388f","system_id":"levelo_inurba_marseille","lat":43.32118,"lon":5.36845,"is_reserved":false,"is_disabled":false,"rental_uris":{"android":"levelo://app?vid=0b2ccd0f-688e-4ec3-aac3-f69227ec388f","ios":"levelo://app?vid=0b2ccd0f-688e-4ec3-aac3-f69227ec388f"},"vehicle_type_id":"4","last_reported":1751886566,"current_range_meters":9600,"station_id":"","pricing_plan_id":"cebpf4jnsgd1na2vs0mg"},{"bike_id":"653697c4-c439-4a6d-869a-0ee928b604f9","system_id":"levelo_inurba_marseille","lat":43.260294,"lon":5.417591,"is_reserved":false,"is_disabled":false,"rental_uris":{"android":"levelo://app?vid=653697c4-c439-4a6d-869a-0ee928b604f9","ios":"levelo://app?vid=653697c4-c439-4a6d-869a-0ee928b604f9"},"vehicle_type_id":"4","last_reported":1751886566,"current_range_meters":9600,"station_id":"","pricing_plan_id":"cebpf4jnsgd1na2vs0mg"},{"bike_id":"30b6a18d-f957-4908-bbe0-1e332dda8539","system_id":"levelo_inurba_marseille","lat":43.29945,"lon":5.36529,"is_reserved":false,"is_disabled":false,"rental_uris":{"android":"levelo://app?vid=30b6a18d-f957-4908-bbe0-1e332dda8539","ios":"levelo://app?vid=30b6a18d-f957-4908-bbe0-1e332dda8539"},"vehicle_type_id":"4","last_reported":1751886566,"current_range_meters":9600,"station_id":"ce4bgm92rcd13ifvqbr0","pricing_plan_id":"cebpf4jnsgd1na2vs0mg"},{"bike_id":"d2932cab-a0e5-4976-865c-f1360eef58ce","system_id":"levelo_inurba_marseille","lat":43.29009,"lon":5.3561,"is_reserved":false,"is_disabled":false,"rental_uris":{"android":"levelo://app?vid=d2932cab-a0e5-4976-865c-f1360eef58ce","ios":"levelo://app?vid=d2932cab-a0e5-4976-865c-f1360eef58ce"},"vehicle_type_id":"4","last_reported":1751886566,"current_range_meters":9600,"station_id":"ce4bhb92rcd13ifvqen0","pricing_plan_id":"cebpf4jnsgd1na2vs0mg"},{"bike_id":"5d87f50f-3797-4db7-8413-49b641c9d5b8","system_id":"levelo_inurba_marseille","lat":43.30954,"lon":5.39051,"is_reserved":false,"is_disabled":false,"rental_uris":{"android":"levelo://app?vid=5d87f50f-3797-4db7-8413-49b641c9d5b8","ios":"levelo://app?vid=5d87f50f-3797-4db7-8413-49b641c9d5b8"},"vehicle_type_id":"4","last_reported":1751886566,"current_range_meters":10000,"station_id":"ce4bgup2rcd13ifvqco0","pricing_plan_id":"cebpf4jnsgd1na2vs0mg"},{"bike_id":"f709a840-f82a-44d6-b7b6-b9b893b58502","system_id":"levelo_inurba_marseille","lat":43.26055,"lon":5.37566,"is_reserved":false,"is_disabled":false,"rental_uris":{"android":"levelo://app?vid=f709a840-f82a-44d6-b7b6-b9b893b58502","ios":"levelo://app?vid=f709a840-f82a-44d6-b7b6-b9b893b58502"},"vehicle_type_id":"4","last_reported":1751886566,"current_range_meters":10000,"station_id":"ce4bhgh2rcd13ifvqfa0","pricing_plan_id":"cebpf4jnsgd1na2vs0mg"},{"bike_id":"e113175a-26c2-4709-bd2e-8b90ec8dd3ee","system_id":"levelo_inurba_marseille","lat":43.27493,"lon":5.42468,"is_reserved":false,"is_disabled":false,"rental_uris":{"android":"levelo://app?vid=e113175a-26c2-4709-bd2e-8b90ec8dd3ee","ios":"levelo://app?vid=e113175a-26c2-4709-bd2e-8b90ec8dd3ee"},"vehicle_type_id":"4","last_reported":1751886566,"current_range_meters":10000,"station_id":"ce4bhn92rcd13ifvqgrg","pricing_plan_id":"cebpf4jnsgd1na2vs0mg"},{"bike_id":"06ec5e73-7c37-4d7d-9933-e904369ec74e","system_id":"levelo_inurba_marseille","lat":43.32357,"lon":5.36755,"is_reserved":false,"is_disabled":false,"rental_uris":{"android":"levelo://app?vid=06ec5e73-7c37-4d7d-9933-e904369ec74e","ios":"levelo://app?vid=06ec5e73-7c37-4d7d-9933-e904369ec74e"},"vehicle_type_id":"4","last_reported":1751886566,"current_range_meters":10000,"station_id":"ce4bhsh2rcd13ifvqi2g","pricing_plan_id":"cebpf4jnsgd1na2vs0mg"},{"bike_id":"7b527f00-f6ea-4963-b59d-8da04a2feedb","system_id":"levelo_inurba_marseille","lat":43.320856,"lon":5.401145,"is_reserved":false,"is_disabled":false,"rental_uris":{"android":"levelo://app?vid=7b527f00-f6ea-4963-b59d-8da04a2feedb","ios":"levelo://app?vid=7b527f00-f6ea-4963-b59d-8da04a2feedb"},"vehicle_type_id":"4","last_reported":1751886566,"current_range_meters":10800,"station_id":"","pricing_plan_id":"cebpf4jnsgd1na2vs0mg"},{"bike_id":"88ea42cb-cf0f-4e4a-8442-732645bc4ba5","system_id":"levelo_inurba_marseille","lat":43.31097,"lon":5.36682,"is_reserved":false,"is_disabled":false,"rental_uris":{"android":"levelo://app?vid=88ea42cb-cf0f-4e4a-8442-732645bc4ba5","ios":"levelo://app?vid=88ea42cb-cf0f-4e4a-8442-732645bc4ba5"},"vehicle_type_id":"4","last_reported":1751886566,"current_range_meters":10800,"station_id":"","pricing_plan_id":"cebpf4jnsgd1na2vs0mg"},{"bike_id":"da919a31-3cb4-4d60-a2ca-15a19f7d3bf6","system_id":"levelo_inurba_marseille","lat":43.28264,"lon":5.35067,"is_reserved":false,"is_disabled":false,"rental_uris":{"android":"levelo://app?vid=da919a31-3cb4-4d60-a2ca-15a19f7d3bf6","ios":"levelo://app?vid=da919a31-3cb4-4d60-a2ca-15a19f7d3bf6"},"vehicle_type_id":"4","last_reported":1751886566,"current_range_meters":10800,"station_id":"ce4bhbp2rcd13ifvqerg","pricing_plan_id":"cebpf4jnsgd1na2vs0mg"},{"bike_id":"afec862a-443d-4cf9-892d-c4f5dcd0f583","system_id":"levelo_inurba_marseille","lat":43.26231,"lon":5.404386,"is_reserved":false,"is_disabled":false,"rental_uris":{"android":"levelo://app?vid=afec862a-443d-4cf9-892d-c4f5dcd0f583","ios":"levelo://app?vid=afec862a-443d-4cf9-892d-c4f5dcd0f583"},"vehicle_type_id":"4","last_reported":1751886566,"current_range_meters":11200,"station_id":"ce4bhmh2rcd13ifvqgmg","pricing_plan_id":"cebpf4jnsgd1na2vs0mg"},{"bike_id":"80955d0f-8669-4c02-b90f-c6fe20790c37","system_id":"levelo_inurba_marseille","lat":43.23178,"lon":5.35058,"is_reserved":false,"is_disabled":false,"rental_uris":{"android":"levelo://app?vid=80955d0f-8669-4c02-b90f-c6fe20790c37","ios":"levelo://app?vid=80955d0f-8669-4c02-b90f-c6fe20790c37"},"vehicle_type_id":"4","last_reported":1751886566,"current_range_meters":11600,"station_id":"","pricing_plan_id":"cebpf4jnsgd1na2vs0mg"},{"bike_id":"826abff9-4230-4a85-87d6-ad811f7a7592","system_id":"levelo_inurba_marseille","lat":43.30149,"lon":5.38094,"is_reserved":false,"is_disabled":false,"rental_uris":{"android":"levelo://app?vid=826abff9-4230-4a85-87d6-ad811f7a7592","ios":"levelo://app?vid=826abff9-4230-4a85-87d6-ad811f7a7592"},"vehicle_type_id":"4","last_reported":1751886566,"current_range_meters":11600,"station_id":"ce4bgjp2rcd13ifvqbh0","pricing_plan_id":"cebpf4jnsgd1na2vs0mg"},{"bike_id":"0268f794-8c36-4b52-ac0e-789381c1adf0","system_id":"levelo_inurba_marseille","lat":43.30148,"lon":5.38095,"is_reserved":false,"is_disabled":false,"rental_uris":{"android":"levelo://app?vid=0268f794-8c36-4b52-ac0e-789381c1adf0","ios":"levelo://app?vid=0268f794-8c36-4b52-ac0e-789381c1adf0"},"vehicle_type_id":"4","last_reported":1751886566,"current_range_meters":11600,"station_id":"ce4bgjp2rcd13ifvqbh0","pricing_plan_id":"cebpf4jnsgd1na2vs0mg"},{"bike_id":"bb71d76b-8f82-41d5-aac7-d1fe9423c315","system_id":"levelo_inurba_marseille","lat":43.284162,"lon":5.34995,"is_reserved":false,"is_disabled":false,"rental_uris":{"android":"levelo://app?vid=bb71d76b-8f82-41d5-aac7-d1fe9423c315","ios":"levelo://app?vid=bb71d76b-8f82-41d5-aac7-d1fe9423c315"},"vehicle_type_id":"4","last_reported":1751886566,"current_range_meters":11600,"station_id":"ce4bhbh2rcd13ifvqepg","pricing_plan_id":"cebpf4jnsgd1na2vs0mg"},{"bike_id":"3b22f952-d0bc-4c00-8fd3-7e27b88aea23","system_id":"levelo_inurba_marseille","lat":43.29659,"lon":5.36245,"is_reserved":false,"is_disabled":false,"rental_uris":{"android":"levelo://app?vid=3b22f952-d0bc-4c00-8fd3-7e27b88aea23","ios":"levelo://app?vid=3b22f952-d0bc-4c00-8fd3-7e27b88aea23"},"vehicle_type_id":"4","last_reported":1751886566,"current_range_meters":12000,"station_id":"","pricing_plan_id":"cebpf4jnsgd1na2vs0mg"},{"bike_id":"eb01e0a5-8689-4b59-89bd-5d60dbabbc6b","system_id":"levelo_inurba_marseille","lat":43.3133,"lon":5.39686,"is_reserved":false,"is_disabled":false,"rental_uris":{"android":"levelo://app?vid=eb01e0a5-8689-4b59-89bd-5d60dbabbc6b","ios":"levelo://app?vid=eb01e0a5-8689-4b59-89bd-5d60dbabbc6b"},"vehicle_type_id":"4","last_reported":1751886566,"current_range_meters":12000,"station_id":"ce4bgvp2rcd13ifvqcu0","pricing_plan_id":"cebpf4jnsgd1na2vs0mg"},{"bike_id":"fbb6eb26-f5ee-4d8b-a185-17f748b796b4","system_id":"levelo_inurba_marseille","lat":43.322912,"lon":5.440109,"is_reserved":false,"is_disabled":false,"rental_uris":{"android":"levelo://app?vid=fbb6eb26-f5ee-4d8b-a185-17f748b796b4","ios":"levelo://app?vid=fbb6eb26-f5ee-4d8b-a185-17f748b796b4"},"vehicle_type_id":"4","last_reported":1751886566,"current_range_meters":12400,"station_id":"","pricing_plan_id":"cebpf4jnsgd1na2vs0mg"},{"bike_id":"b1bc1b79-f8f6-4cc1-8f69-9443922907e4","system_id":"levelo_inurba_marseille","lat":43.29779,"lon":5.37097,"is_reserved":false,"is_disabled":false,"rental_uris":{"android":"levelo://app?vid=b1bc1b79-f8f6-4cc1-8f69-9443922907e4","ios":"levelo://app?vid=b1bc1b79-f8f6-4cc1-8f69-9443922907e4"},"vehicle_type_id":"4","last_reported":1751886566,"current_range_meters":12400,"station_id":"ce4bgop2rcd13ifvqc1g","pricing_plan_id":"cebpf4jnsgd1na2vs0mg"},{"bike_id":"b3854816-e1e5-498c-9947-e1b4099c5e05","system_id":"levelo_inurba_marseille","lat":43.29011,"lon":5.36942,"is_reserved":false,"is_disabled":false,"rental_uris":{"android":"levelo://app?vid=b3854816-e1e5-498c-9947-e1b4099c5e05","ios":"levelo://app?vid=b3854816-e1e5-498c-9947-e1b4099c5e05"},"vehicle_type_id":"4","last_reported":1751886566,"current_range_meters":12800,"station_id":"","pricing_plan_id":"cebpf4jnsgd1na2vs0mg"},{"bike_id":"37f2becd-23f9-4f13-a711-38b8024eeec7","system_id":"levelo_inurba_marseille","lat":43.33768,"lon":5.37516,"is_reserved":false,"is_disabled":false,"rental_uris":{"android":"levelo://app?vid=37f2becd-23f9-4f13-a711-38b8024eeec7","ios":"levelo://app?vid=37f2becd-23f9-4f13-a711-38b8024eeec7"},"vehicle_type_id":"4","last_reported":1751886566,"current_range_meters":12800,"station_id":"","pricing_plan_id":"cebpf4jnsgd1na2vs0mg"},{"bike_id":"d95295cc-5df6-4450-94d9-eeb2bcaa47c5","system_id":"levelo_inurba_marseille","lat":43.299355,"lon":5.365557,"is_reserved":false,"is_disabled":false,"rental_uris":{"android":"levelo://app?vid=d95295cc-5df6-4450-94d9-eeb2bcaa47c5","ios":"levelo://app?vid=d95295cc-5df6-4450-94d9-eeb2bcaa47c5"},"vehicle_type_id":"4","last_reported":1751886566,"current_range_meters":12800,"station_id":"","pricing_plan_id":"cebpf4jnsgd1na2vs0mg"},{"bike_id":"c613f998-d029-49ec-b4ba-619048f8135f","system_id":"levelo_inurba_marseille","lat":43.30164,"lon":5.38076,"is_reserved":false,"is_disabled":false,"rental_uris":{"android":"levelo://app?vid=c613f998-d029-49ec-b4ba-619048f8135f","ios":"levelo://app?vid=c613f998-d029-49ec-b4ba-619048f8135f"},"vehicle_type_id":"4","last_reported":1751886566,"current_range_meters":12800,"station_id":"ce4bgjp2rcd13ifvqbh0","pricing_plan_id":"cebpf4jnsgd1na2vs0mg"},{"bike_id":"96f67ff5-ee19-4786-a17f-a1492fb5c524","system_id":"levelo_inurba_marseille","lat":43.29007,"lon":5.35618,"is_reserved":false,"is_disabled":false,"rental_uris":{"android":"levelo://app?vid=96f67ff5-ee19-4786-a17f-a1492fb5c524","ios":"levelo://app?vid=96f67ff5-ee19-4786-a17f-a1492fb5c524"},"vehicle_type_id":"4","last_reported":1751886566,"current_range_meters":12800,"station_id":"ce4bhb92rcd13ifvqen0","pricing_plan_id":"cebpf4jnsgd1na2vs0mg"},{"bike_id":"a9ca63d7-d637-4221-bc9c-4f138946f420","system_id":"levelo_inurba_marseille","lat":43.2826,"lon":5.3506,"is_reserved":false,"is_disabled":false,"rental_uris":{"android":"levelo://app?vid=a9ca63d7-d637-4221-bc9c-4f138946f420","ios":"levelo://app?vid=a9ca63d7-d637-4221-bc9c-4f138946f420"},"vehicle_type_id":"4","last_reported":1751886566,"current_range_meters":12800,"station_id":"ce4bhbp2rcd13ifvqerg","pricing_plan_id":"cebpf4jnsgd1na2vs0mg"},{"bike_id":"ccc29df5-1113-42b5-b8de-771b9f206409","system_id":"levelo_inurba_marseille","lat":43.26261,"lon":5.374111,"is_reserved":false,"is_disabled":false,"rental_uris":{"android":"levelo://app?vid=ccc29df5-1113-42b5-b8de-771b9f206409","ios":"levelo://app?vid=ccc29df5-1113-42b5-b8de-771b9f206409"},"vehicle_type_id":"4","last_reported":1751886566,"current_range_meters":13600,"station_id":"","pricing_plan_id":"cebpf4jnsgd1na2vs0mg"},{"bike_id":"ac882886-b35e-4961-9293-3db50de918aa","system_id":"levelo_inurba_marseille","lat":43.30536,"lon":5.36546,"is_reserved":false,"is_disabled":false,"rental_uris":{"android":"levelo://app?vid=ac882886-b35e-4961-9293-3db50de918aa","ios":"levelo://app?vid=ac882886-b35e-4961-9293-3db50de918aa"},"vehicle_type_id":"4","last_reported":1751886566,"current_range_meters":13600,"station_id":"ce4bgs12rcd13ifvqcag","pricing_plan_id":"cebpf4jnsgd1na2vs0mg"},{"bike_id":"abcdfac5-fe00-4da2-b177-13430b577d14","system_id":"levelo_inurba_marseille","lat":43.30545,"lon":5.36549,"is_reserved":false,"is_disabled":false,"rental_uris":{"android":"levelo://app?vid=abcdfac5-fe00-4da2-b177-13430b577d14","ios":"levelo://app?vid=abcdfac5-fe00-4da2-b177-13430b577d14"},"vehicle_type_id":"4","last_reported":1751886566,"current_range_meters":13600,"station_id":"ce4bgs12rcd13ifvqcag","pricing_plan_id":"cebpf4jnsgd1na2vs0mg"},{"bike_id":"a31d7b1d-f875-4f27-b8f6-640a4ac62493","system_id":"levelo_inurba_marseille","lat":43.33741,"lon":5.39185,"is_reserved":false,"is_disabled":false,"rental_uris":{"android":"levelo://app?vid=a31d7b1d-f875-4f27-b8f6-640a4ac62493","ios":"levelo://app?vid=a31d7b1d-f875-4f27-b8f6-640a4ac62493"},"vehicle_type_id":"4","last_reported":1751886566,"current_range_meters":13600,"station_id":"ce4bhr92rcd13ifvqhsg","pricing_plan_id":"cebpf4jnsgd1na2vs0mg"},{"bike_id":"68830159-bef7-4ee3-bb41-c14226f7a470","system_id":"levelo_inurba_marseille","lat":43.30543,"lon":5.36563,"is_reserved":false,"is_disabled":false,"rental_uris":{"android":"levelo://app?vid=68830159-bef7-4ee3-bb41-c14226f7a470","ios":"levelo://app?vid=68830159-bef7-4ee3-bb41-c14226f7a470"},"vehicle_type_id":"4","last_reported":1751886566,"current_range_meters":14000,"station_id":"ce4bgs12rcd13ifvqcag","pricing_plan_id":"cebpf4jnsgd1na2vs0mg"},{"bike_id":"a99af27e-76cf-434e-81a1-6b5b8af9450b","system_id":"levelo_inurba_marseille","lat":43.28261,"lon":5.35062,"is_reserved":false,"is_disabled":false,"rental_uris":{"android":"levelo://app?vid=a99af27e-76cf-434e-81a1-6b5b8af9450b","ios":"levelo://app?vid=a99af27e-76cf-434e-81a1-6b5b8af9450b"},"vehicle_type_id":"4","last_reported":1751886566,"current_range_meters":14000,"station_id":"ce4bhbp2rcd13ifvqerg","pricing_plan_id":"cebpf4jnsgd1na2vs0mg"},{"bike_id":"29102da4-02a2-4f9c-99ed-89cdef887179","system_id":"levelo_inurba_marseille","lat":43.22488,"lon":5.3478,"is_reserved":false,"is_disabled":false,"rental_uris":{"android":"levelo://app?vid=29102da4-02a2-4f9c-99ed-89cdef887179","ios":"levelo://app?vid=29102da4-02a2-4f9c-99ed-89cdef887179"},"vehicle_type_id":"4","last_reported":1751886566,"current_range_meters":14000,"station_id":"st_cvj5dfep6f1abm77gieg","pricing_plan_id":"cebpf4jnsgd1na2vs0mg"},{"bike_id":"78c65a7f-d308-40b5-accc-8e6897ac9f8a","system_id":"levelo_inurba_marseille","lat":43.30105,"lon":5.37826,"is_reserved":false,"is_disabled":false,"rental_uris":{"android":"levelo://app?vid=78c65a7f-d308-40b5-accc-8e6897ac9f8a","ios":"levelo://app?vid=78c65a7f-d308-40b5-accc-8e6897ac9f8a"},"vehicle_type_id":"4","last_reported":1751886566,"current_range_meters":14400,"station_id":"","pricing_plan_id":"cebpf4jnsgd1na2vs0mg"},{"bike_id":"5a9693e6-ca2f-4c04-b4a1-04215c7b0d6a","system_id":"levelo_inurba_marseille","lat":43.30547,"lon":5.36734,"is_reserved":false,"is_disabled":false,"rental_uris":{"android":"levelo://app?vid=5a9693e6-ca2f-4c04-b4a1-04215c7b0d6a","ios":"levelo://app?vid=5a9693e6-ca2f-4c04-b4a1-04215c7b0d6a"},"vehicle_type_id":"4","last_reported":1751886566,"current_range_meters":14400,"station_id":"ce4bgrp2rcd13ifvqc9g","pricing_plan_id":"cebpf4jnsgd1na2vs0mg"},{"bike_id":"da447a45-b1be-4b38-8954-869acfffb926","system_id":"levelo_inurba_marseille","lat":43.273743,"lon":5.362446,"is_reserved":false,"is_disabled":false,"rental_uris":{"android":"levelo://app?vid=da447a45-b1be-4b38-8954-869acfffb926","ios":"levelo://app?vid=da447a45-b1be-4b38-8954-869acfffb926"},"vehicle_type_id":"4","last_reported":1751886566,"current_range_meters":14400,"station_id":"ce4bhbh2rcd13ifvqeo0","pricing_plan_id":"cebpf4jnsgd1na2vs0mg"},{"bike_id":"f6500593-b2d9-4663-b28a-45d79f4b901e","system_id":"levelo_inurba_marseille","lat":43.27423,"lon":5.39413,"is_reserved":false,"is_disabled":false,"rental_uris":{"android":"levelo://app?vid=f6500593-b2d9-4663-b28a-45d79f4b901e","ios":"levelo://app?vid=f6500593-b2d9-4663-b28a-45d79f4b901e"},"vehicle_type_id":"4","last_reported":1751886566,"current_range_meters":14400,"station_id":"ce4bhdp2rcd13ifvqf20","pricing_plan_id":"cebpf4jnsgd1na2vs0mg"},{"bike_id":"7dbe417d-3766-498f-a382-f42f6a2dde3a","system_id":"levelo_inurba_marseille","lat":43.27049,"lon":5.40276,"is_reserved":false,"is_disabled":false,"rental_uris":{"android":"levelo://app?vid=7dbe417d-3766-498f-a382-f42f6a2dde3a","ios":"levelo://app?vid=7dbe417d-3766-498f-a382-f42f6a2dde3a"},"vehicle_type_id":"4","last_reported":1751886566,"current_range_meters":14400,"station_id":"ce4bhk92rcd13ifvqgc0","pricing_plan_id":"cebpf4jnsgd1na2vs0mg"},{"bike_id":"53e9b7ad-625a-486c-a022-46e5911f21a5","system_id":"levelo_inurba_marseille","lat":43.25906,"lon":5.4091,"is_reserved":false,"is_disabled":false,"rental_uris":{"android":"levelo://app?vid=53e9b7ad-625a-486c-a022-46e5911f21a5","ios":"levelo://app?vid=53e9b7ad-625a-486c-a022-46e5911f21a5"},"vehicle_type_id":"4","last_reported":1751886566,"current_range_meters":14400,"station_id":"ce4bhm92rcd13ifvqglg","pricing_plan_id":"cebpf4jnsgd1na2vs0mg"},{"bike_id":"cb8de415-46e9-4b4e-8258-2c1154abe0e7","system_id":"levelo_inurba_marseille","lat":43.28144,"lon":5.42632,"is_reserved":false,"is_disabled":false,"rental_uris":{"android":"levelo://app?vid=cb8de415-46e9-4b4e-8258-2c1154abe0e7","ios":"levelo://app?vid=cb8de415-46e9-4b4e-8258-2c1154abe0e7"},"vehicle_type_id":"4","last_reported":1751886566,"current_range_meters":14400,"station_id":"ce4bhnh2rcd13ifvqgug","pricing_plan_id":"cebpf4jnsgd1na2vs0mg"},{"bike_id":"9def8b07-8521-4023-8fea-449215b8264b","system_id":"levelo_inurba_marseille","lat":43.24398,"lon":5.37062,"is_reserved":false,"is_disabled":false,"rental_uris":{"android":"levelo://app?vid=9def8b07-8521-4023-8fea-449215b8264b","ios":"levelo://app?vid=9def8b07-8521-4023-8fea-449215b8264b"},"vehicle_type_id":"4","last_reported":1751886566,"current_range_meters":14800,"station_id":"ce4bhhh2rcd13ifvqfk0","pricing_plan_id":"cebpf4jnsgd1na2vs0mg"},{"bike_id":"d4155d54-2ad2-4bc4-8a4b-0cd4400da382","system_id":"levelo_inurba_marseille","lat":43.32661,"lon":5.40994,"is_reserved":false,"is_disabled":false,"rental_uris":{"android":"levelo://app?vid=d4155d54-2ad2-4bc4-8a4b-0cd4400da382","ios":"levelo://app?vid=d4155d54-2ad2-4bc4-8a4b-0cd4400da382"},"vehicle_type_id":"4","last_reported":1751886566,"current_range_meters":14800,"station_id":"ce4bhpp2rcd13ifvqhgg","pricing_plan_id":"cebpf4jnsgd1na2vs0mg"},{"bike_id":"cae49035-9185-4058-84f0-a02784882ed3","system_id":"levelo_inurba_marseille","lat":43.31992,"lon":5.36752,"is_reserved":false,"is_disabled":false,"rental_uris":{"android":"levelo://app?vid=cae49035-9185-4058-84f0-a02784882ed3","ios":"levelo://app?vid=cae49035-9185-4058-84f0-a02784882ed3"},"vehicle_type_id":"4","last_reported":1751886566,"current_range_meters":14800,"station_id":"ce4bhrh2rcd13ifvqhug","pricing_plan_id":"cebpf4jnsgd1na2vs0mg"},{"bike_id":"949188bf-6148-425e-828f-98a1d9650134","system_id":"levelo_inurba_marseille","lat":43.32472,"lon":5.36566,"is_reserved":false,"is_disabled":false,"rental_uris":{"android":"levelo://app?vid=949188bf-6148-425e-828f-98a1d9650134","ios":"levelo://app?vid=949188bf-6148-425e-828f-98a1d9650134"},"vehicle_type_id":"4","last_reported":1751886566,"current_range_meters":14800,"station_id":"ce4bhs12rcd13ifvqhvg","pricing_plan_id":"cebpf4jnsgd1na2vs0mg"},{"bike_id":"42c00974-8a0b-46d0-978e-19402a23667f","system_id":"levelo_inurba_marseille","lat":43.28723,"lon":5.36096,"is_reserved":false,"is_disabled":false,"rental_uris":{"android":"levelo://app?vid=42c00974-8a0b-46d0-978e-19402a23667f","ios":"levelo://app?vid=42c00974-8a0b-46d0-978e-19402a23667f"},"vehicle_type_id":"4","last_reported":1751886566,"current_range_meters":14800,"station_id":"cki0cbj6b192h4jlfktg","pricing_plan_id":"cebpf4jnsgd1na2vs0mg"},{"bike_id":"1d9672de-ba6b-4a80-b4c0-a8691a3ddc4d","system_id":"levelo_inurba_marseille","lat":43.291985,"lon":5.360051,"is_reserved":false,"is_disabled":false,"rental_uris":{"android":"levelo://app?vid=1d9672de-ba6b-4a80-b4c0-a8691a3ddc4d","ios":"levelo://app?vid=1d9672de-ba6b-4a80-b4c0-a8691a3ddc4d"},"vehicle_type_id":"4","last_reported":1751886566,"current_range_meters":15200,"station_id":"ce4bgkp2rcd13ifvqbmg","pricing_plan_id":"cebpf4jnsgd1na2vs0mg"},{"bike_id":"1aa41dca-ce92-4a8f-8a57-3325d38b7970","system_id":"levelo_inurba_marseille","lat":43.30543,"lon":5.36563,"is_reserved":false,"is_disabled":false,"rental_uris":{"android":"levelo://app?vid=1aa41dca-ce92-4a8f-8a57-3325d38b7970","ios":"levelo://app?vid=1aa41dca-ce92-4a8f-8a57-3325d38b7970"},"vehicle_type_id":"4","last_reported":1751886566,"current_range_meters":15200,"station_id":"ce4bgs12rcd13ifvqcag","pricing_plan_id":"cebpf4jnsgd1na2vs0mg"},{"bike_id":"d98c90e3-780b-4cff-b445-8772f1436a89","system_id":"levelo_inurba_marseille","lat":43.32366,"lon":5.38881,"is_reserved":false,"is_disabled":false,"rental_uris":{"android":"levelo://app?vid=d98c90e3-780b-4cff-b445-8772f1436a89","ios":"levelo://app?vid=d98c90e3-780b-4cff-b445-8772f1436a89"},"vehicle_type_id":"4","last_reported":1751886566,"current_range_meters":15200,"station_id":"ce4bhqp2rcd13ifvqhog","pricing_plan_id":"cebpf4jnsgd1na2vs0mg"},{"bike_id":"23089fe3-9bc4-45ed-b7b3-22a8bcbb2474","system_id":"levelo_inurba_marseille","lat":43.33281,"lon":5.43023,"is_reserved":false,"is_disabled":false,"rental_uris":{"android":"levelo://app?vid=23089fe3-9bc4-45ed-b7b3-22a8bcbb2474","ios":"levelo://app?vid=23089fe3-9bc4-45ed-b7b3-22a8bcbb2474"},"vehicle_type_id":"4","last_reported":1751886566,"current_range_meters":16000,"station_id":"","pricing_plan_id":"cebpf4jnsgd1na2vs0mg"},{"bike_id":"2ddd6815-6193-4bc9-bd9f-34f36bc7c904","system_id":"levelo_inurba_marseille","lat":43.28413,"lon":5.3499,"is_reserved":false,"is_disabled":false,"rental_uris":{"android":"levelo://app?vid=2ddd6815-6193-4bc9-bd9f-34f36bc7c904","ios":"levelo://app?vid=2ddd6815-6193-4bc9-bd9f-34f36bc7c904"},"vehicle_type_id":"4","last_reported":1751886566,"current_range_meters":16000,"station_id":"ce4bhbh2rcd13ifvqepg","pricing_plan_id":"cebpf4jnsgd1na2vs0mg"},{"bike_id":"762784bc-76e0-4220-961c-3afad064fde2","system_id":"levelo_inurba_marseille","lat":43.32114,"lon":5.36812,"is_reserved":false,"is_disabled":false,"rental_uris":{"android":"levelo://app?vid=762784bc-76e0-4220-961c-3afad064fde2","ios":"levelo://app?vid=762784bc-76e0-4220-961c-3afad064fde2"},"vehicle_type_id":"4","last_reported":1751886566,"current_range_meters":16000,"station_id":"ce4bhrh2rcd13ifvqhug","pricing_plan_id":"cebpf4jnsgd1na2vs0mg"},{"bike_id":"cd921873-e060-4800-a6eb-05ae1b62a4cb","system_id":"levelo_inurba_marseille","lat":43.31237,"lon":5.36861,"is_reserved":false,"is_disabled":false,"rental_uris":{"android":"levelo://app?vid=cd921873-e060-4800-a6eb-05ae1b62a4cb","ios":"levelo://app?vid=cd921873-e060-4800-a6eb-05ae1b62a4cb"},"vehicle_type_id":"4","last_reported":1751886566,"current_range_meters":16400,"station_id":"ce4bgl92rcd13ifvqbq0","pricing_plan_id":"cebpf4jnsgd1na2vs0mg"},{"bike_id":"c775bd2e-9bc6-4175-b133-8f754ee622e5","system_id":"levelo_inurba_marseille","lat":43.30544,"lon":5.36712,"is_reserved":false,"is_disabled":false,"rental_uris":{"android":"levelo://app?vid=c775bd2e-9bc6-4175-b133-8f754ee622e5","ios":"levelo://app?vid=c775bd2e-9bc6-4175-b133-8f754ee622e5"},"vehicle_type_id":"4","last_reported":1751886566,"current_range_meters":16400,"station_id":"ce4bgrp2rcd13ifvqc9g","pricing_plan_id":"cebpf4jnsgd1na2vs0mg"},{"bike_id":"1ef9a910-71e2-441c-889e-742df90df080","system_id":"levelo_inurba_marseille","lat":43.28488,"lon":5.38414,"is_reserved":false,"is_disabled":false,"rental_uris":{"android":"levelo://app?vid=1ef9a910-71e2-441c-889e-742df90df080","ios":"levelo://app?vid=1ef9a910-71e2-441c-889e-742df90df080"},"vehicle_type_id":"4","last_reported":1751886566,"current_range_meters":16400,"station_id":"ce4bh512rcd13ifvqe3g","pricing_plan_id":"cebpf4jnsgd1na2vs0mg"},{"bike_id":"e79346c8-86fc-4daa-86ef-e1e68b65043e","system_id":"levelo_inurba_marseille","lat":43.24096,"lon":5.37774,"is_reserved":false,"is_disabled":false,"rental_uris":{"android":"levelo://app?vid=e79346c8-86fc-4daa-86ef-e1e68b65043e","ios":"levelo://app?vid=e79346c8-86fc-4daa-86ef-e1e68b65043e"},"vehicle_type_id":"4","last_reported":1751886566,"current_range_meters":16400,"station_id":"ce4bhnp2rcd13ifvqgvg","pricing_plan_id":"cebpf4jnsgd1na2vs0mg"},{"bike_id":"88448def-5dd0-4785-bf46-b6c2e5cfe176","system_id":"levelo_inurba_marseille","lat":43.22545,"lon":5.3477,"is_reserved":false,"is_disabled":false,"rental_uris":{"android":"levelo://app?vid=88448def-5dd0-4785-bf46-b6c2e5cfe176","ios":"levelo://app?vid=88448def-5dd0-4785-bf46-b6c2e5cfe176"},"vehicle_type_id":"4","last_reported":1751886566,"current_range_meters":16800,"station_id":"","pricing_plan_id":"cebpf4jnsgd1na2vs0mg"},{"bike_id":"a3841906-20ea-41e9-9d0c-935aebb04192","system_id":"levelo_inurba_marseille","lat":43.30508,"lon":5.37321,"is_reserved":false,"is_disabled":false,"rental_uris":{"android":"levelo://app?vid=a3841906-20ea-41e9-9d0c-935aebb04192","ios":"levelo://app?vid=a3841906-20ea-41e9-9d0c-935aebb04192"},"vehicle_type_id":"4","last_reported":1751886566,"current_range_meters":16800,"station_id":"","pricing_plan_id":"cebpf4jnsgd1na2vs0mg"},{"bike_id":"e2e985c6-8e38-4faa-92b5-aca5535aea32","system_id":"levelo_inurba_marseille","lat":43.29704,"lon":5.377,"is_reserved":false,"is_disabled":false,"rental_uris":{"android":"levelo://app?vid=e2e985c6-8e38-4faa-92b5-aca5535aea32","ios":"levelo://app?vid=e2e985c6-8e38-4faa-92b5-aca5535aea32"},"vehicle_type_id":"4","last_reported":1751886566,"current_range_meters":16800,"station_id":"ce4bgkh2rcd13ifvqbl0","pricing_plan_id":"cebpf4jnsgd1na2vs0mg"},{"bike_id":"29d88fd0-23bb-4976-a988-9f9ebcf08c46","system_id":"levelo_inurba_marseille","lat":43.23971,"lon":5.36642,"is_reserved":false,"is_disabled":false,"rental_uris":{"android":"levelo://app?vid=29d88fd0-23bb-4976-a988-9f9ebcf08c46","ios":"levelo://app?vid=29d88fd0-23bb-4976-a988-9f9ebcf08c46"},"vehicle_type_id":"4","last_reported":1751886566,"current_range_meters":16800,"station_id":"ce4bhi12rcd13ifvqfp0","pricing_plan_id":"cebpf4jnsgd1na2vs0mg"},{"bike_id":"9e08be27-1cf0-4f33-8cfd-3ef9c07ffd78","system_id":"levelo_inurba_marseille","lat":43.3199,"lon":5.3815,"is_reserved":false,"is_disabled":false,"rental_uris":{"android":"levelo://app?vid=9e08be27-1cf0-4f33-8cfd-3ef9c07ffd78","ios":"levelo://app?vid=9e08be27-1cf0-4f33-8cfd-3ef9c07ffd78"},"vehicle_type_id":"4","last_reported":1751886566,"current_range_meters":16800,"station_id":"ce4bhr12rcd13ifvqhpg","pricing_plan_id":"cebpf4jnsgd1na2vs0mg"},{"bike_id":"212827c2-5775-418b-81c4-ee6678099c2b","system_id":"levelo_inurba_marseille","lat":43.21744,"lon":5.34612,"is_reserved":false,"is_disabled":false,"rental_uris":{"android":"levelo://app?vid=212827c2-5775-418b-81c4-ee6678099c2b","ios":"levelo://app?vid=212827c2-5775-418b-81c4-ee6678099c2b"},"vehicle_type_id":"4","last_reported":1751886566,"current_range_meters":16800,"station_id":"st_cvj6r9ubvosntc0bgbag","pricing_plan_id":"cebpf4jnsgd1na2vs0mg"},{"bike_id":"7063a9f5-0ca6-44ed-827f-97e7042d4ccd","system_id":"levelo_inurba_marseille","lat":43.29848,"lon":5.36279,"is_reserved":false,"is_disabled":false,"rental_uris":{"android":"levelo://app?vid=7063a9f5-0ca6-44ed-827f-97e7042d4ccd","ios":"levelo://app?vid=7063a9f5-0ca6-44ed-827f-97e7042d4ccd"},"vehicle_type_id":"4","last_reported":1751886566,"current_range_meters":17200,"station_id":"ce4bgpp2rcd13ifvqc3g","pricing_plan_id":"cebpf4jnsgd1na2vs0mg"},{"bike_id":"1f529d5e-891d-4c69-8150-4d1e4e9c984e","system_id":"levelo_inurba_marseille","lat":43.30313,"lon":5.36925,"is_reserved":false,"is_disabled":false,"rental_uris":{"android":"levelo://app?vid=1f529d5e-891d-4c69-8150-4d1e4e9c984e","ios":"levelo://app?vid=1f529d5e-891d-4c69-8150-4d1e4e9c984e"},"vehicle_type_id":"4","last_reported":1751886566,"current_range_meters":17200,"station_id":"ce4bgqh2rcd13ifvqc5g","pricing_plan_id":"cebpf4jnsgd1na2vs0mg"},{"bike_id":"c3313b75-db55-4c20-9cb1-f709ddd93938","system_id":"levelo_inurba_marseille","lat":43.28416,"lon":5.37504,"is_reserved":false,"is_disabled":false,"rental_uris":{"android":"levelo://app?vid=c3313b75-db55-4c20-9cb1-f709ddd93938","ios":"levelo://app?vid=c3313b75-db55-4c20-9cb1-f709ddd93938"},"vehicle_type_id":"4","last_reported":1751886566,"current_range_meters":17200,"station_id":"ce4bh412rcd13ifvqds0","pricing_plan_id":"cebpf4jnsgd1na2vs0mg"},{"bike_id":"6724b3bb-481b-4829-a8e8-71b2cb5369d9","system_id":"levelo_inurba_marseille","lat":43.25955,"lon":5.40918,"is_reserved":false,"is_disabled":false,"rental_uris":{"android":"levelo://app?vid=6724b3bb-481b-4829-a8e8-71b2cb5369d9","ios":"levelo://app?vid=6724b3bb-481b-4829-a8e8-71b2cb5369d9"},"vehicle_type_id":"4","last_reported":1751886566,"current_range_meters":17200,"station_id":"ce4bhm92rcd13ifvqglg","pricing_plan_id":"cebpf4jnsgd1na2vs0mg"},{"bike_id":"2090512e-543d-4a55-b888-2423e2f84234","system_id":"levelo_inurba_marseille","lat":43.24095,"lon":5.37725,"is_reserved":false,"is_disabled":false,"rental_uris":{"android":"levelo://app?vid=2090512e-543d-4a55-b888-2423e2f84234","ios":"levelo://app?vid=2090512e-543d-4a55-b888-2423e2f84234"},"vehicle_type_id":"4","last_reported":1751886566,"current_range_meters":17200,"station_id":"ce4bhnp2rcd13ifvqgvg","pricing_plan_id":"cebpf4jnsgd1na2vs0mg"},{"bike_id":"a7c39d59-40bd-4f7b-a228-ff2080b9cf69","system_id":"levelo_inurba_marseille","lat":43.2694,"lon":5.40275,"is_reserved":false,"is_disabled":false,"rental_uris":{"android":"levelo://app?vid=a7c39d59-40bd-4f7b-a228-ff2080b9cf69","ios":"levelo://app?vid=a7c39d59-40bd-4f7b-a228-ff2080b9cf69"},"vehicle_type_id":"4","last_reported":1751886566,"current_range_meters":17200,"station_id":"cjm6bp8fraef2m0cb0m0","pricing_plan_id":"cebpf4jnsgd1na2vs0mg"},{"bike_id":"9bfc7d3d-4e60-4f8a-9c32-ef3d0e77ec5b","system_id":"levelo_inurba_marseille","lat":43.21188,"lon":5.35084,"is_reserved":false,"is_disabled":false,"rental_uris":{"android":"levelo://app?vid=9bfc7d3d-4e60-4f8a-9c32-ef3d0e77ec5b","ios":"levelo://app?vid=9bfc7d3d-4e60-4f8a-9c32-ef3d0e77ec5b"},"vehicle_type_id":"4","last_reported":1751886566,"current_range_meters":17200,"station_id":"st_cvj6sg6p6f1abm77japg","pricing_plan_id":"cebpf4jnsgd1na2vs0mg"},{"bike_id":"2a769ea3-7515-421a-884e-2a6a16a1f9a4","system_id":"levelo_inurba_marseille","lat":43.30524,"lon":5.36568,"is_reserved":false,"is_disabled":false,"rental_uris":{"android":"levelo://app?vid=2a769ea3-7515-421a-884e-2a6a16a1f9a4","ios":"levelo://app?vid=2a769ea3-7515-421a-884e-2a6a16a1f9a4"},"vehicle_type_id":"4","last_reported":1751886566,"current_range_meters":17600,"station_id":"ce4bgs12rcd13ifvqcag","pricing_plan_id":"cebpf4jnsgd1na2vs0mg"},{"bike_id":"7df8690c-d637-4bb8-80c6-364b04a5407b","system_id":"levelo_inurba_marseille","lat":43.29228,"lon":5.36069,"is_reserved":false,"is_disabled":false,"rental_uris":{"android":"levelo://app?vid=7df8690c-d637-4bb8-80c6-364b04a5407b","ios":"levelo://app?vid=7df8690c-d637-4bb8-80c6-364b04a5407b"},"vehicle_type_id":"4","last_reported":1751886566,"current_range_meters":17600,"station_id":"ce4bhbh2rcd13ifvqeqg","pricing_plan_id":"cebpf4jnsgd1na2vs0mg"},{"bike_id":"942a983a-7094-47d3-97b7-ba4ab853d965","system_id":"levelo_inurba_marseille","lat":43.27074,"lon":5.42276,"is_reserved":false,"is_disabled":false,"rental_uris":{"android":"levelo://app?vid=942a983a-7094-47d3-97b7-ba4ab853d965","ios":"levelo://app?vid=942a983a-7094-47d3-97b7-ba4ab853d965"},"vehicle_type_id":"4","last_reported":1751886566,"current_range_meters":17600,"station_id":"ce4bhk92rcd13ifvqgb0","pricing_plan_id":"cebpf4jnsgd1na2vs0mg"},{"bike_id":"b0d55032-6351-4ef8-a430-58335ed08aaf","system_id":"levelo_inurba_marseille","lat":43.26191,"lon":5.40388,"is_reserved":false,"is_disabled":false,"rental_uris":{"android":"levelo://app?vid=b0d55032-6351-4ef8-a430-58335ed08aaf","ios":"levelo://app?vid=b0d55032-6351-4ef8-a430-58335ed08aaf"},"vehicle_type_id":"4","last_reported":1751886566,"current_range_meters":17600,"station_id":"ce4bhmh2rcd13ifvqgmg","pricing_plan_id":"cebpf4jnsgd1na2vs0mg"},{"bike_id":"bfe453db-34da-4bd2-ae58-d3abf612c241","system_id":"levelo_inurba_marseille","lat":43.2623,"lon":5.4046,"is_reserved":false,"is_disabled":false,"rental_uris":{"android":"levelo://app?vid=bfe453db-34da-4bd2-ae58-d3abf612c241","ios":"levelo://app?vid=bfe453db-34da-4bd2-ae58-d3abf612c241"},"vehicle_type_id":"4","last_reported":1751886566,"current_range_meters":17600,"station_id":"ce4bhmh2rcd13ifvqgmg","pricing_plan_id":"cebpf4jnsgd1na2vs0mg"},{"bike_id":"3a70a519-85ce-4ce0-a7c7-16ca614eb830","system_id":"levelo_inurba_marseille","lat":43.317236,"lon":5.390062,"is_reserved":false,"is_disabled":false,"rental_uris":{"android":"levelo://app?vid=3a70a519-85ce-4ce0-a7c7-16ca614eb830","ios":"levelo://app?vid=3a70a519-85ce-4ce0-a7c7-16ca614eb830"},"vehicle_type_id":"4","last_reported":1751886566,"current_range_meters":17600,"station_id":"ce4bhqp2rcd13ifvqhng","pricing_plan_id":"cebpf4jnsgd1na2vs0mg"},{"bike_id":"43d0a216-171e-45fe-88be-8650fec68cf8","system_id":"levelo_inurba_marseille","lat":43.212,"lon":5.35078,"is_reserved":false,"is_disabled":false,"rental_uris":{"android":"levelo://app?vid=43d0a216-171e-45fe-88be-8650fec68cf8","ios":"levelo://app?vid=43d0a216-171e-45fe-88be-8650fec68cf8"},"vehicle_type_id":"4","last_reported":1751886566,"current_range_meters":17600,"station_id":"st_cvj6sg6p6f1abm77japg","pricing_plan_id":"cebpf4jnsgd1na2vs0mg"},{"bike_id":"71704c4f-7c18-4f03-81bf-8dec9b91ab79","system_id":"levelo_inurba_marseille","lat":43.23152,"lon":5.43726,"is_reserved":false,"is_disabled":false,"rental_uris":{"android":"levelo://app?vid=71704c4f-7c18-4f03-81bf-8dec9b91ab79","ios":"levelo://app?vid=71704c4f-7c18-4f03-81bf-8dec9b91ab79"},"vehicle_type_id":"4","last_reported":1751886566,"current_range_meters":18000,"station_id":"ce4bhmp2rcd13ifvqgog","pricing_plan_id":"cebpf4jnsgd1na2vs0mg"},{"bike_id":"dbe5eca0-4d7f-4963-bc58-32b2280b837d","system_id":"levelo_inurba_marseille","lat":43.24179,"lon":5.39735,"is_reserved":false,"is_disabled":false,"rental_uris":{"android":"levelo://app?vid=dbe5eca0-4d7f-4963-bc58-32b2280b837d","ios":"levelo://app?vid=dbe5eca0-4d7f-4963-bc58-32b2280b837d"},"vehicle_type_id":"4","last_reported":1751886566,"current_range_meters":18000,"station_id":"ce4bhn12rcd13ifvqgpg","pricing_plan_id":"cebpf4jnsgd1na2vs0mg"},{"bike_id":"c5c0441e-12e1-4acb-90bf-00ad4768237b","system_id":"levelo_inurba_marseille","lat":43.24073,"lon":5.37759,"is_reserved":false,"is_disabled":false,"rental_uris":{"android":"levelo://app?vid=c5c0441e-12e1-4acb-90bf-00ad4768237b","ios":"levelo://app?vid=c5c0441e-12e1-4acb-90bf-00ad4768237b"},"vehicle_type_id":"4","last_reported":1751886566,"current_range_meters":18000,"station_id":"ce4bhnp2rcd13ifvqgvg","pricing_plan_id":"cebpf4jnsgd1na2vs0mg"},{"bike_id":"37c27b8f-d1c9-4647-acb5-6d7a736bf86d","system_id":"levelo_inurba_marseille","lat":43.32049,"lon":5.41541,"is_reserved":false,"is_disabled":false,"rental_uris":{"android":"levelo://app?vid=37c27b8f-d1c9-4647-acb5-6d7a736bf86d","ios":"levelo://app?vid=37c27b8f-d1c9-4647-acb5-6d7a736bf86d"},"vehicle_type_id":"4","last_reported":1751886566,"current_range_meters":18000,"station_id":"ce4bhq92rcd13ifvqhkg","pricing_plan_id":"cebpf4jnsgd1na2vs0mg"},{"bike_id":"89aed59f-866e-4768-b8b5-54548cd7d320","system_id":"levelo_inurba_marseille","lat":43.22511,"lon":5.34785,"is_reserved":false,"is_disabled":false,"rental_uris":{"android":"levelo://app?vid=89aed59f-866e-4768-b8b5-54548cd7d320","ios":"levelo://app?vid=89aed59f-866e-4768-b8b5-54548cd7d320"},"vehicle_type_id":"4","last_reported":1751886566,"current_range_meters":18000,"station_id":"st_cvj5dfep6f1abm77gieg","pricing_plan_id":"cebpf4jnsgd1na2vs0mg"},{"bike_id":"6a3a3e65-1839-43d5-b574-3a73e4e32dac","system_id":"levelo_inurba_marseille","lat":43.32321,"lon":5.3887,"is_reserved":false,"is_disabled":false,"rental_uris":{"android":"levelo://app?vid=6a3a3e65-1839-43d5-b574-3a73e4e32dac","ios":"levelo://app?vid=6a3a3e65-1839-43d5-b574-3a73e4e32dac"},"vehicle_type_id":"4","last_reported":1751886566,"current_range_meters":18800,"station_id":"","pricing_plan_id":"cebpf4jnsgd1na2vs0mg"},{"bike_id":"888522e3-39b6-4ff3-ad74-ff6c6f771157","system_id":"levelo_inurba_marseille","lat":43.29498,"lon":5.402586,"is_reserved":false,"is_disabled":false,"rental_uris":{"android":"levelo://app?vid=888522e3-39b6-4ff3-ad74-ff6c6f771157","ios":"levelo://app?vid=888522e3-39b6-4ff3-ad74-ff6c6f771157"},"vehicle_type_id":"4","last_reported":1751886566,"current_range_meters":18800,"station_id":"","pricing_plan_id":"cebpf4jnsgd1na2vs0mg"},{"bike_id":"c8810e8f-2a78-4a6d-8cb6-3d76e1b529a8","system_id":"levelo_inurba_marseille","lat":43.30548,"lon":5.367,"is_reserved":false,"is_disabled":false,"rental_uris":{"android":"levelo://app?vid=c8810e8f-2a78-4a6d-8cb6-3d76e1b529a8","ios":"levelo://app?vid=c8810e8f-2a78-4a6d-8cb6-3d76e1b529a8"},"vehicle_type_id":"4","last_reported":1751886566,"current_range_meters":18800,"station_id":"ce4bgrp2rcd13ifvqc9g","pricing_plan_id":"cebpf4jnsgd1na2vs0mg"},{"bike_id":"1d51a18c-8d5d-4e91-b60e-6298a0ccf6f8","system_id":"levelo_inurba_marseille","lat":43.28037,"lon":5.36951,"is_reserved":false,"is_disabled":false,"rental_uris":{"android":"levelo://app?vid=1d51a18c-8d5d-4e91-b60e-6298a0ccf6f8","ios":"levelo://app?vid=1d51a18c-8d5d-4e91-b60e-6298a0ccf6f8"},"vehicle_type_id":"4","last_reported":1751886566,"current_range_meters":18800,"station_id":"ce4bha12rcd13ifvqef0","pricing_plan_id":"cebpf4jnsgd1na2vs0mg"},{"bike_id":"d5ef770d-9759-47e3-b3a5-7d2785ef76db","system_id":"levelo_inurba_marseille","lat":43.32929,"lon":5.39031,"is_reserved":false,"is_disabled":false,"rental_uris":{"android":"levelo://app?vid=d5ef770d-9759-47e3-b3a5-7d2785ef76db","ios":"levelo://app?vid=d5ef770d-9759-47e3-b3a5-7d2785ef76db"},"vehicle_type_id":"4","last_reported":1751886566,"current_range_meters":19200,"station_id":"","pricing_plan_id":"cebpf4jnsgd1na2vs0mg"},{"bike_id":"afd2c671-b274-4716-95f7-9abfdfc6dc55","system_id":"levelo_inurba_marseille","lat":43.314,"lon":5.37543,"is_reserved":false,"is_disabled":false,"rental_uris":{"android":"levelo://app?vid=afd2c671-b274-4716-95f7-9abfdfc6dc55","ios":"levelo://app?vid=afd2c671-b274-4716-95f7-9abfdfc6dc55"},"vehicle_type_id":"4","last_reported":1751886566,"current_range_meters":19200,"station_id":"","pricing_plan_id":"cebpf4jnsgd1na2vs0mg"},{"bike_id":"0df513a5-66af-4575-9c13-0844e112b6d9","system_id":"levelo_inurba_marseille","lat":43.30147,"lon":5.38107,"is_reserved":false,"is_disabled":false,"rental_uris":{"android":"levelo://app?vid=0df513a5-66af-4575-9c13-0844e112b6d9","ios":"levelo://app?vid=0df513a5-66af-4575-9c13-0844e112b6d9"},"vehicle_type_id":"4","last_reported":1751886566,"current_range_meters":19200,"station_id":"ce4bgjp2rcd13ifvqbh0","pricing_plan_id":"cebpf4jnsgd1na2vs0mg"},{"bike_id":"d3bb9a98-0b37-4311-b759-99f6d4b08932","system_id":"levelo_inurba_marseille","lat":43.29063,"lon":5.37146,"is_reserved":false,"is_disabled":false,"rental_uris":{"android":"levelo://app?vid=d3bb9a98-0b37-4311-b759-99f6d4b08932","ios":"levelo://app?vid=d3bb9a98-0b37-4311-b759-99f6d4b08932"},"vehicle_type_id":"4","last_reported":1751886566,"current_range_meters":19200,"station_id":"ce4bh5p2rcd13ifvqe4g","pricing_plan_id":"cebpf4jnsgd1na2vs0mg"},{"bike_id":"1021c581-2093-4278-8ecd-e3cfe4497d15","system_id":"levelo_inurba_marseille","lat":43.28273,"lon":5.35077,"is_reserved":false,"is_disabled":false,"rental_uris":{"android":"levelo://app?vid=1021c581-2093-4278-8ecd-e3cfe4497d15","ios":"levelo://app?vid=1021c581-2093-4278-8ecd-e3cfe4497d15"},"vehicle_type_id":"4","last_reported":1751886566,"current_range_meters":19200,"station_id":"ce4bhbp2rcd13ifvqerg","pricing_plan_id":"cebpf4jnsgd1na2vs0mg"},{"bike_id":"135eb05c-d7fa-4180-be69-a1ce7aa654ff","system_id":"levelo_inurba_marseille","lat":43.27052,"lon":5.40269,"is_reserved":false,"is_disabled":false,"rental_uris":{"android":"levelo://app?vid=135eb05c-d7fa-4180-be69-a1ce7aa654ff","ios":"levelo://app?vid=135eb05c-d7fa-4180-be69-a1ce7aa654ff"},"vehicle_type_id":"4","last_reported":1751886566,"current_range_meters":19200,"station_id":"ce4bhk92rcd13ifvqgc0","pricing_plan_id":"cebpf4jnsgd1na2vs0mg"},{"bike_id":"17305cf0-7079-45f0-9183-900c08dd7439","system_id":"levelo_inurba_marseille","lat":43.21746,"lon":5.34602,"is_reserved":false,"is_disabled":false,"rental_uris":{"android":"levelo://app?vid=17305cf0-7079-45f0-9183-900c08dd7439","ios":"levelo://app?vid=17305cf0-7079-45f0-9183-900c08dd7439"},"vehicle_type_id":"4","last_reported":1751886566,"current_range_meters":19200,"station_id":"st_cvj6r9ubvosntc0bgbag","pricing_plan_id":"cebpf4jnsgd1na2vs0mg"},{"bike_id":"51890362-46b0-4ee7-9f02-afbf036d064e","system_id":"levelo_inurba_marseille","lat":43.212107,"lon":5.350724,"is_reserved":false,"is_disabled":false,"rental_uris":{"android":"levelo://app?vid=51890362-46b0-4ee7-9f02-afbf036d064e","ios":"levelo://app?vid=51890362-46b0-4ee7-9f02-afbf036d064e"},"vehicle_type_id":"4","last_reported":1751886566,"current_range_meters":19200,"station_id":"st_cvj6sg6p6f1abm77japg","pricing_plan_id":"cebpf4jnsgd1na2vs0mg"},{"bike_id":"084f14d4-0bc9-446c-902e-a4f3b90135fe","system_id":"levelo_inurba_marseille","lat":43.32437,"lon":5.42869,"is_reserved":false,"is_disabled":false,"rental_uris":{"android":"levelo://app?vid=084f14d4-0bc9-446c-902e-a4f3b90135fe","ios":"levelo://app?vid=084f14d4-0bc9-446c-902e-a4f3b90135fe"},"vehicle_type_id":"4","last_reported":1751886566,"current_range_meters":19600,"station_id":"","pricing_plan_id":"cebpf4jnsgd1na2vs0mg"},{"bike_id":"3c35c1cb-c3a7-4f8d-81dc-c78b3d7ef6f7","system_id":"levelo_inurba_marseille","lat":43.31489,"lon":5.3732,"is_reserved":false,"is_disabled":false,"rental_uris":{"android":"levelo://app?vid=3c35c1cb-c3a7-4f8d-81dc-c78b3d7ef6f7","ios":"levelo://app?vid=3c35c1cb-c3a7-4f8d-81dc-c78b3d7ef6f7"},"vehicle_type_id":"4","last_reported":1751886566,"current_range_meters":19600,"station_id":"ce4bgt12rcd13ifvqcd0","pricing_plan_id":"cebpf4jnsgd1na2vs0mg"},{"bike_id":"f62e34d4-e3e8-4074-adde-6aee01504ed5","system_id":"levelo_inurba_marseille","lat":43.28274,"lon":5.35071,"is_reserved":false,"is_disabled":false,"rental_uris":{"android":"levelo://app?vid=f62e34d4-e3e8-4074-adde-6aee01504ed5","ios":"levelo://app?vid=f62e34d4-e3e8-4074-adde-6aee01504ed5"},"vehicle_type_id":"4","last_reported":1751886566,"current_range_meters":19600,"station_id":"ce4bhbp2rcd13ifvqerg","pricing_plan_id":"cebpf4jnsgd1na2vs0mg"},{"bike_id":"24a59807-47dd-4284-bf22-c43de7642fb5","system_id":"levelo_inurba_marseille","lat":43.28626,"lon":5.35089,"is_reserved":false,"is_disabled":false,"rental_uris":{"android":"levelo://app?vid=24a59807-47dd-4284-bf22-c43de7642fb5","ios":"levelo://app?vid=24a59807-47dd-4284-bf22-c43de7642fb5"},"vehicle_type_id":"4","last_reported":1751886566,"current_range_meters":19600,"station_id":"ce4bhch2rcd13ifvqeug","pricing_plan_id":"cebpf4jnsgd1na2vs0mg"},{"bike_id":"87c2d236-4978-4760-be77-27d7f5a212e4","system_id":"levelo_inurba_marseille","lat":43.29644,"lon":5.36205,"is_reserved":false,"is_disabled":false,"rental_uris":{"android":"levelo://app?vid=87c2d236-4978-4760-be77-27d7f5a212e4","ios":"levelo://app?vid=87c2d236-4978-4760-be77-27d7f5a212e4"},"vehicle_type_id":"4","last_reported":1751886566,"current_range_meters":20000,"station_id":"","pricing_plan_id":"cebpf4jnsgd1na2vs0mg"},{"bike_id":"ff99d5d7-bfa1-448a-a4e8-b750e7acaf05","system_id":"levelo_inurba_marseille","lat":43.30146,"lon":5.38061,"is_reserved":false,"is_disabled":false,"rental_uris":{"android":"levelo://app?vid=ff99d5d7-bfa1-448a-a4e8-b750e7acaf05","ios":"levelo://app?vid=ff99d5d7-bfa1-448a-a4e8-b750e7acaf05"},"vehicle_type_id":"4","last_reported":1751886566,"current_range_meters":20000,"station_id":"ce4bgjp2rcd13ifvqbh0","pricing_plan_id":"cebpf4jnsgd1na2vs0mg"},{"bike_id":"74d1dd5c-9f07-4c49-948a-3ae0ce476859","system_id":"levelo_inurba_marseille","lat":43.30542,"lon":5.36713,"is_reserved":false,"is_disabled":false,"rental_uris":{"android":"levelo://app?vid=74d1dd5c-9f07-4c49-948a-3ae0ce476859","ios":"levelo://app?vid=74d1dd5c-9f07-4c49-948a-3ae0ce476859"},"vehicle_type_id":"4","last_reported":1751886566,"current_range_meters":20000,"station_id":"ce4bgrp2rcd13ifvqc9g","pricing_plan_id":"cebpf4jnsgd1na2vs0mg"},{"bike_id":"fbee8eaf-7c05-42e0-bcf9-78b03aa5b0cb","system_id":"levelo_inurba_marseille","lat":43.269287,"lon":5.389153,"is_reserved":false,"is_disabled":false,"rental_uris":{"android":"levelo://app?vid=fbee8eaf-7c05-42e0-bcf9-78b03aa5b0cb","ios":"levelo://app?vid=fbee8eaf-7c05-42e0-bcf9-78b03aa5b0cb"},"vehicle_type_id":"4","last_reported":1751886566,"current_range_meters":20000,"station_id":"ce4bhhh2rcd13ifvqfl0","pricing_plan_id":"cebpf4jnsgd1na2vs0mg"},{"bike_id":"54a02f23-552c-4ab6-92e9-c5073b92cfd1","system_id":"levelo_inurba_marseille","lat":43.24073,"lon":5.37763,"is_reserved":false,"is_disabled":false,"rental_uris":{"android":"levelo://app?vid=54a02f23-552c-4ab6-92e9-c5073b92cfd1","ios":"levelo://app?vid=54a02f23-552c-4ab6-92e9-c5073b92cfd1"},"vehicle_type_id":"4","last_reported":1751886566,"current_range_meters":20000,"station_id":"ce4bhnp2rcd13ifvqgvg","pricing_plan_id":"cebpf4jnsgd1na2vs0mg"},{"bike_id":"36f20304-1fed-4ef5-8835-3192521bc2a7","system_id":"levelo_inurba_marseille","lat":43.299457,"lon":5.365383,"is_reserved":false,"is_disabled":false,"rental_uris":{"android":"levelo://app?vid=36f20304-1fed-4ef5-8835-3192521bc2a7","ios":"levelo://app?vid=36f20304-1fed-4ef5-8835-3192521bc2a7"},"vehicle_type_id":"4","last_reported":1751886566,"current_range_meters":20400,"station_id":"ce4bgm92rcd13ifvqbr0","pricing_plan_id":"cebpf4jnsgd1na2vs0mg"},{"bike_id":"456e743e-f870-42f8-b778-b134dff76361","system_id":"levelo_inurba_marseille","lat":43.30283,"lon":5.36875,"is_reserved":false,"is_disabled":false,"rental_uris":{"android":"levelo://app?vid=456e743e-f870-42f8-b778-b134dff76361","ios":"levelo://app?vid=456e743e-f870-42f8-b778-b134dff76361"},"vehicle_type_id":"4","last_reported":1751886566,"current_range_meters":20400,"station_id":"ce4bgqh2rcd13ifvqc5g","pricing_plan_id":"cebpf4jnsgd1na2vs0mg"},{"bike_id":"3c1d6ea0-78b4-4d55-b488-e032e0629a31","system_id":"levelo_inurba_marseille","lat":43.27372,"lon":5.36252,"is_reserved":false,"is_disabled":false,"rental_uris":{"android":"levelo://app?vid=3c1d6ea0-78b4-4d55-b488-e032e0629a31","ios":"levelo://app?vid=3c1d6ea0-78b4-4d55-b488-e032e0629a31"},"vehicle_type_id":"4","last_reported":1751886566,"current_range_meters":20400,"station_id":"ce4bhbh2rcd13ifvqeo0","pricing_plan_id":"cebpf4jnsgd1na2vs0mg"},{"bike_id":"5b33c4a4-5802-46d3-9e87-1c2e42887469","system_id":"levelo_inurba_marseille","lat":43.28164,"lon":5.42652,"is_reserved":false,"is_disabled":false,"rental_uris":{"android":"levelo://app?vid=5b33c4a4-5802-46d3-9e87-1c2e42887469","ios":"levelo://app?vid=5b33c4a4-5802-46d3-9e87-1c2e42887469"},"vehicle_type_id":"4","last_reported":1751886566,"current_range_meters":20400,"station_id":"ce4bhnh2rcd13ifvqgug","pricing_plan_id":"cebpf4jnsgd1na2vs0mg"},{"bike_id":"8b735b5d-e576-4f89-bcea-2d063effe603","system_id":"levelo_inurba_marseille","lat":43.32474,"lon":5.36563,"is_reserved":false,"is_disabled":false,"rental_uris":{"android":"levelo://app?vid=8b735b5d-e576-4f89-bcea-2d063effe603","ios":"levelo://app?vid=8b735b5d-e576-4f89-bcea-2d063effe603"},"vehicle_type_id":"4","last_reported":1751886566,"current_range_meters":20400,"station_id":"ce4bhs12rcd13ifvqhvg","pricing_plan_id":"cebpf4jnsgd1na2vs0mg"},{"bike_id":"eee11ad8-fb01-4e1a-97f5-9b869342d505","system_id":"levelo_inurba_marseille","lat":43.22484,"lon":5.34765,"is_reserved":false,"is_disabled":false,"rental_uris":{"android":"levelo://app?vid=eee11ad8-fb01-4e1a-97f5-9b869342d505","ios":"levelo://app?vid=eee11ad8-fb01-4e1a-97f5-9b869342d505"},"vehicle_type_id":"4","last_reported":1751886566,"current_range_meters":20400,"station_id":"st_cvj5dfep6f1abm77gieg","pricing_plan_id":"cebpf4jnsgd1na2vs0mg"},{"bike_id":"a7c9f70f-9a0d-416c-b8fd-c3c4e2af0fcb","system_id":"levelo_inurba_marseille","lat":43.21749,"lon":5.34618,"is_reserved":false,"is_disabled":false,"rental_uris":{"android":"levelo://app?vid=a7c9f70f-9a0d-416c-b8fd-c3c4e2af0fcb","ios":"levelo://app?vid=a7c9f70f-9a0d-416c-b8fd-c3c4e2af0fcb"},"vehicle_type_id":"4","last_reported":1751886566,"current_range_meters":20400,"station_id":"st_cvj6r9ubvosntc0bgbag","pricing_plan_id":"cebpf4jnsgd1na2vs0mg"},{"bike_id":"419c209a-bbdc-4198-88b6-3abb67b0f343","system_id":"levelo_inurba_marseille","lat":43.29848,"lon":5.36285,"is_reserved":false,"is_disabled":false,"rental_uris":{"android":"levelo://app?vid=419c209a-bbdc-4198-88b6-3abb67b0f343","ios":"levelo://app?vid=419c209a-bbdc-4198-88b6-3abb67b0f343"},"vehicle_type_id":"4","last_reported":1751886566,"current_range_meters":20800,"station_id":"ce4bgpp2rcd13ifvqc3g","pricing_plan_id":"cebpf4jnsgd1na2vs0mg"},{"bike_id":"3478f5cd-fe39-4d06-a84a-c05a35987077","system_id":"levelo_inurba_marseille","lat":43.29272,"lon":5.38425,"is_reserved":false,"is_disabled":false,"rental_uris":{"android":"levelo://app?vid=3478f5cd-fe39-4d06-a84a-c05a35987077","ios":"levelo://app?vid=3478f5cd-fe39-4d06-a84a-c05a35987077"},"vehicle_type_id":"4","last_reported":1751886566,"current_range_meters":20800,"station_id":"ce4bh692rcd13ifvqea0","pricing_plan_id":"cebpf4jnsgd1na2vs0mg"},{"bike_id":"e59e19b7-a7e9-420d-80ef-2f5d3c7b61ef","system_id":"levelo_inurba_marseille","lat":43.27078,"lon":5.42293,"is_reserved":false,"is_disabled":false,"rental_uris":{"android":"levelo://app?vid=e59e19b7-a7e9-420d-80ef-2f5d3c7b61ef","ios":"levelo://app?vid=e59e19b7-a7e9-420d-80ef-2f5d3c7b61ef"},"vehicle_type_id":"4","last_reported":1751886566,"current_range_meters":20800,"station_id":"ce4bhk92rcd13ifvqgb0","pricing_plan_id":"cebpf4jnsgd1na2vs0mg"},{"bike_id":"9a406bd6-0250-4f68-8a7b-084d98f0ef43","system_id":"levelo_inurba_marseille","lat":43.28156,"lon":5.42643,"is_reserved":false,"is_disabled":false,"rental_uris":{"android":"levelo://app?vid=9a406bd6-0250-4f68-8a7b-084d98f0ef43","ios":"levelo://app?vid=9a406bd6-0250-4f68-8a7b-084d98f0ef43"},"vehicle_type_id":"4","last_reported":1751886566,"current_range_meters":20800,"station_id":"ce4bhnh2rcd13ifvqgug","pricing_plan_id":"cebpf4jnsgd1na2vs0mg"},{"bike_id":"2695c39e-6304-4770-aa91-558309af57af","system_id":"levelo_inurba_marseille","lat":43.27981,"lon":5.40016,"is_reserved":false,"is_disabled":false,"rental_uris":{"android":"levelo://app?vid=2695c39e-6304-4770-aa91-558309af57af","ios":"levelo://app?vid=2695c39e-6304-4770-aa91-558309af57af"},"vehicle_type_id":"4","last_reported":1751886566,"current_range_meters":21600,"station_id":"ce4bho92rcd13ifvqh4g","pricing_plan_id":"cebpf4jnsgd1na2vs0mg"},{"bike_id":"35d41f41-e942-42c5-97f1-40ccdd96f7a4","system_id":"levelo_inurba_marseille","lat":43.21194,"lon":5.35068,"is_reserved":false,"is_disabled":false,"rental_uris":{"android":"levelo://app?vid=35d41f41-e942-42c5-97f1-40ccdd96f7a4","ios":"levelo://app?vid=35d41f41-e942-42c5-97f1-40ccdd96f7a4"},"vehicle_type_id":"4","last_reported":1751886566,"current_range_meters":21600,"station_id":"st_cvj6sg6p6f1abm77japg","pricing_plan_id":"cebpf4jnsgd1na2vs0mg"},{"bike_id":"54519e08-7a50-4db3-a362-e65d286b25bd","system_id":"levelo_inurba_marseille","lat":43.311859,"lon":5.387032,"is_reserved":false,"is_disabled":false,"rental_uris":{"android":"levelo://app?vid=54519e08-7a50-4db3-a362-e65d286b25bd","ios":"levelo://app?vid=54519e08-7a50-4db3-a362-e65d286b25bd"},"vehicle_type_id":"4","last_reported":1751886566,"current_range_meters":22000,"station_id":"ce4bgv12rcd13ifvqcp0","pricing_plan_id":"cebpf4jnsgd1na2vs0mg"},{"bike_id":"d3a31f3c-8f82-43b8-a003-05248fd7b5b4","system_id":"levelo_inurba_marseille","lat":43.28988,"lon":5.37818,"is_reserved":false,"is_disabled":false,"rental_uris":{"android":"levelo://app?vid=d3a31f3c-8f82-43b8-a003-05248fd7b5b4","ios":"levelo://app?vid=d3a31f3c-8f82-43b8-a003-05248fd7b5b4"},"vehicle_type_id":"4","last_reported":1751886566,"current_range_meters":22000,"station_id":"ce4bh9p2rcd13ifvqed0","pricing_plan_id":"cebpf4jnsgd1na2vs0mg"},{"bike_id":"b287377f-3d0b-47ac-86fe-9e0dfc1563de","system_id":"levelo_inurba_marseille","lat":43.22509,"lon":5.34764,"is_reserved":false,"is_disabled":false,"rental_uris":{"android":"levelo://app?vid=b287377f-3d0b-47ac-86fe-9e0dfc1563de","ios":"levelo://app?vid=b287377f-3d0b-47ac-86fe-9e0dfc1563de"},"vehicle_type_id":"4","last_reported":1751886566,"current_range_meters":22000,"station_id":"st_cvj5dfep6f1abm77gieg","pricing_plan_id":"cebpf4jnsgd1na2vs0mg"},{"bike_id":"246f107b-f548-45a4-bb82-6844a8cf0a4f","system_id":"levelo_inurba_marseille","lat":43.26956,"lon":5.38636,"is_reserved":false,"is_disabled":false,"rental_uris":{"android":"levelo://app?vid=246f107b-f548-45a4-bb82-6844a8cf0a4f","ios":"levelo://app?vid=246f107b-f548-45a4-bb82-6844a8cf0a4f"},"vehicle_type_id":"4","last_reported":1751886566,"current_range_meters":22400,"station_id":"ce4bhh92rcd13ifvqfh0","pricing_plan_id":"cebpf4jnsgd1na2vs0mg"},{"bike_id":"ea7df389-5dc0-4c58-88fe-80a5af035925","system_id":"levelo_inurba_marseille","lat":43.298506,"lon":5.364344,"is_reserved":false,"is_disabled":false,"rental_uris":{"android":"levelo://app?vid=ea7df389-5dc0-4c58-88fe-80a5af035925","ios":"levelo://app?vid=ea7df389-5dc0-4c58-88fe-80a5af035925"},"vehicle_type_id":"4","last_reported":1751886566,"current_range_meters":22800,"station_id":"","pricing_plan_id":"cebpf4jnsgd1na2vs0mg"},{"bike_id":"2ae806a4-2c8f-4aac-a0c5-53d9295920a7","system_id":"levelo_inurba_marseille","lat":43.3015,"lon":5.38079,"is_reserved":false,"is_disabled":false,"rental_uris":{"android":"levelo://app?vid=2ae806a4-2c8f-4aac-a0c5-53d9295920a7","ios":"levelo://app?vid=2ae806a4-2c8f-4aac-a0c5-53d9295920a7"},"vehicle_type_id":"4","last_reported":1751886566,"current_range_meters":22800,"station_id":"ce4bgjp2rcd13ifvqbh0","pricing_plan_id":"cebpf4jnsgd1na2vs0mg"},{"bike_id":"7632abff-d444-4de1-857a-1423fa8ed415","system_id":"levelo_inurba_marseille","lat":43.29519,"lon":5.37515,"is_reserved":false,"is_disabled":false,"rental_uris":{"android":"levelo://app?vid=7632abff-d444-4de1-857a-1423fa8ed415","ios":"levelo://app?vid=7632abff-d444-4de1-857a-1423fa8ed415"},"vehicle_type_id":"4","last_reported":1751886566,"current_range_meters":22800,"station_id":"ce4bgkp2rcd13ifvqbmg","pricing_plan_id":"cebpf4jnsgd1na2vs0mg"},{"bike_id":"95b19666-ba52-4177-94b4-148ea077b7b5","system_id":"levelo_inurba_marseille","lat":43.3095,"lon":5.39039,"is_reserved":false,"is_disabled":false,"rental_uris":{"android":"levelo://app?vid=95b19666-ba52-4177-94b4-148ea077b7b5","ios":"levelo://app?vid=95b19666-ba52-4177-94b4-148ea077b7b5"},"vehicle_type_id":"4","last_reported":1751886566,"current_range_meters":22800,"station_id":"ce4bgup2rcd13ifvqco0","pricing_plan_id":"cebpf4jnsgd1na2vs0mg"},{"bike_id":"682da61f-1e8d-4290-8b2c-917f1a1beaf9","system_id":"levelo_inurba_marseille","lat":43.29264,"lon":5.38439,"is_reserved":false,"is_disabled":false,"rental_uris":{"android":"levelo://app?vid=682da61f-1e8d-4290-8b2c-917f1a1beaf9","ios":"levelo://app?vid=682da61f-1e8d-4290-8b2c-917f1a1beaf9"},"vehicle_type_id":"4","last_reported":1751886566,"current_range_meters":22800,"station_id":"ce4bh692rcd13ifvqea0","pricing_plan_id":"cebpf4jnsgd1na2vs0mg"},{"bike_id":"861fc1bf-322a-4624-8052-53122972d908","system_id":"levelo_inurba_marseille","lat":43.292761,"lon":5.384583,"is_reserved":false,"is_disabled":false,"rental_uris":{"android":"levelo://app?vid=861fc1bf-322a-4624-8052-53122972d908","ios":"levelo://app?vid=861fc1bf-322a-4624-8052-53122972d908"},"vehicle_type_id":"4","last_reported":1751886566,"current_range_meters":22800,"station_id":"ce4bh692rcd13ifvqea0","pricing_plan_id":"cebpf4jnsgd1na2vs0mg"},{"bike_id":"5954242e-213a-4d1d-8214-658f7e91af54","system_id":"levelo_inurba_marseille","lat":43.29217,"lon":5.36069,"is_reserved":false,"is_disabled":false,"rental_uris":{"android":"levelo://app?vid=5954242e-213a-4d1d-8214-658f7e91af54","ios":"levelo://app?vid=5954242e-213a-4d1d-8214-658f7e91af54"},"vehicle_type_id":"4","last_reported":1751886566,"current_range_meters":22800,"station_id":"ce4bhbh2rcd13ifvqeqg","pricing_plan_id":"cebpf4jnsgd1na2vs0mg"},{"bike_id":"42aa09a8-ac53-4e56-afd3-6a071c961439","system_id":"levelo_inurba_marseille","lat":43.26558,"lon":5.37284,"is_reserved":false,"is_disabled":false,"rental_uris":{"android":"levelo://app?vid=42aa09a8-ac53-4e56-afd3-6a071c961439","ios":"levelo://app?vid=42aa09a8-ac53-4e56-afd3-6a071c961439"},"vehicle_type_id":"4","last_reported":1751886566,"current_range_meters":22800,"station_id":"ce4bhg12rcd13ifvqf70","pricing_plan_id":"cebpf4jnsgd1na2vs0mg"},{"bike_id":"f5c16f07-bc6f-4121-91a7-5ad90eec4f34","system_id":"levelo_inurba_marseille","lat":43.31207,"lon":5.37323,"is_reserved":false,"is_disabled":false,"rental_uris":{"android":"levelo://app?vid=f5c16f07-bc6f-4121-91a7-5ad90eec4f34","ios":"levelo://app?vid=f5c16f07-bc6f-4121-91a7-5ad90eec4f34"},"vehicle_type_id":"4","last_reported":1751886566,"current_range_meters":23200,"station_id":"","pricing_plan_id":"cebpf4jnsgd1na2vs0mg"},{"bike_id":"a35a9428-447a-4cb0-b68f-05c1f1a66b2f","system_id":"levelo_inurba_marseille","lat":43.29703,"lon":5.36603,"is_reserved":false,"is_disabled":false,"rental_uris":{"android":"levelo://app?vid=a35a9428-447a-4cb0-b68f-05c1f1a66b2f","ios":"levelo://app?vid=a35a9428-447a-4cb0-b68f-05c1f1a66b2f"},"vehicle_type_id":"4","last_reported":1751886566,"current_range_meters":23200,"station_id":"ce4bgn12rcd13ifvqbt0","pricing_plan_id":"cebpf4jnsgd1na2vs0mg"},{"bike_id":"03deea56-e3e0-48e6-81b5-ca12d9fb8cac","system_id":"levelo_inurba_marseille","lat":43.29841,"lon":5.36286,"is_reserved":false,"is_disabled":false,"rental_uris":{"android":"levelo://app?vid=03deea56-e3e0-48e6-81b5-ca12d9fb8cac","ios":"levelo://app?vid=03deea56-e3e0-48e6-81b5-ca12d9fb8cac"},"vehicle_type_id":"4","last_reported":1751886566,"current_range_meters":23200,"station_id":"ce4bgpp2rcd13ifvqc3g","pricing_plan_id":"cebpf4jnsgd1na2vs0mg"},{"bike_id":"e4793d5e-b4cd-4c12-b9d4-446cb97752b9","system_id":"levelo_inurba_marseille","lat":43.292745,"lon":5.39054,"is_reserved":false,"is_disabled":false,"rental_uris":{"android":"levelo://app?vid=e4793d5e-b4cd-4c12-b9d4-446cb97752b9","ios":"levelo://app?vid=e4793d5e-b4cd-4c12-b9d4-446cb97752b9"},"vehicle_type_id":"4","last_reported":1751886566,"current_range_meters":24000,"station_id":"","pricing_plan_id":"cebpf4jnsgd1na2vs0mg"},{"bike_id":"7d189fb6-c2de-46be-aa41-a048bc00b4f1","system_id":"levelo_inurba_marseille","lat":43.29664,"lon":5.37349,"is_reserved":false,"is_disabled":false,"rental_uris":{"android":"levelo://app?vid=7d189fb6-c2de-46be-aa41-a048bc00b4f1","ios":"levelo://app?vid=7d189fb6-c2de-46be-aa41-a048bc00b4f1"},"vehicle_type_id":"4","last_reported":1751886566,"current_range_meters":24000,"station_id":"","pricing_plan_id":"cebpf4jnsgd1na2vs0mg"},{"bike_id":"c2b72fe0-bae6-4c7b-ad48-9e771b203dc8","system_id":"levelo_inurba_marseille","lat":43.31361,"lon":5.384781,"is_reserved":false,"is_disabled":false,"rental_uris":{"android":"levelo://app?vid=c2b72fe0-bae6-4c7b-ad48-9e771b203dc8","ios":"levelo://app?vid=c2b72fe0-bae6-4c7b-ad48-9e771b203dc8"},"vehicle_type_id":"4","last_reported":1751886566,"current_range_meters":24000,"station_id":"ce4bgt92rcd13ifvqcf0","pricing_plan_id":"cebpf4jnsgd1na2vs0mg"},{"bike_id":"6c77587d-a674-4d19-aab3-b527715047d2","system_id":"levelo_inurba_marseille","lat":43.29892,"lon":5.389,"is_reserved":false,"is_disabled":false,"rental_uris":{"android":"levelo://app?vid=6c77587d-a674-4d19-aab3-b527715047d2","ios":"levelo://app?vid=6c77587d-a674-4d19-aab3-b527715047d2"},"vehicle_type_id":"4","last_reported":1751886566,"current_range_meters":24000,"station_id":"ce4bh392rcd13ifvqdl0","pricing_plan_id":"cebpf4jnsgd1na2vs0mg"},{"bike_id":"c1c0b185-e75b-4089-bb70-a0eeb182fa7c","system_id":"levelo_inurba_marseille","lat":43.28268,"lon":5.35066,"is_reserved":false,"is_disabled":false,"rental_uris":{"android":"levelo://app?vid=c1c0b185-e75b-4089-bb70-a0eeb182fa7c","ios":"levelo://app?vid=c1c0b185-e75b-4089-bb70-a0eeb182fa7c"},"vehicle_type_id":"4","last_reported":1751886566,"current_range_meters":24000,"station_id":"ce4bhbp2rcd13ifvqerg","pricing_plan_id":"cebpf4jnsgd1na2vs0mg"},{"bike_id":"56eb3fdf-ea87-4fcf-85df-3680fa66363e","system_id":"levelo_inurba_marseille","lat":43.22506,"lon":5.34785,"is_reserved":false,"is_disabled":false,"rental_uris":{"android":"levelo://app?vid=56eb3fdf-ea87-4fcf-85df-3680fa66363e","ios":"levelo://app?vid=56eb3fdf-ea87-4fcf-85df-3680fa66363e"},"vehicle_type_id":"4","last_reported":1751886566,"current_range_meters":24000,"station_id":"st_cvj5dfep6f1abm77gieg","pricing_plan_id":"cebpf4jnsgd1na2vs0mg"},{"bike_id":"d6d0ea9c-a8ce-4c5c-8cc1-bbb995dc1da8","system_id":"levelo_inurba_marseille","lat":43.21728,"lon":5.34644,"is_reserved":false,"is_disabled":false,"rental_uris":{"android":"levelo://app?vid=d6d0ea9c-a8ce-4c5c-8cc1-bbb995dc1da8","ios":"levelo://app?vid=d6d0ea9c-a8ce-4c5c-8cc1-bbb995dc1da8"},"vehicle_type_id":"4","last_reported":1751886566,"current_range_meters":24000,"station_id":"st_cvj6r9ubvosntc0bgbag","pricing_plan_id":"cebpf4jnsgd1na2vs0mg"},{"bike_id":"bbca0986-aa7a-4363-940e-5dd8032bf40e","system_id":"levelo_inurba_marseille","lat":43.21744,"lon":5.34608,"is_reserved":false,"is_disabled":false,"rental_uris":{"android":"levelo://app?vid=bbca0986-aa7a-4363-940e-5dd8032bf40e","ios":"levelo://app?vid=bbca0986-aa7a-4363-940e-5dd8032bf40e"},"vehicle_type_id":"4","last_reported":1751886566,"current_range_meters":24000,"station_id":"st_cvj6r9ubvosntc0bgbag","pricing_plan_id":"cebpf4jnsgd1na2vs0mg"},{"bike_id":"dd424475-1b09-4cb5-b79b-f20728299dd6","system_id":"levelo_inurba_marseille","lat":43.21206,"lon":5.35078,"is_reserved":false,"is_disabled":false,"rental_uris":{"android":"levelo://app?vid=dd424475-1b09-4cb5-b79b-f20728299dd6","ios":"levelo://app?vid=dd424475-1b09-4cb5-b79b-f20728299dd6"},"vehicle_type_id":"4","last_reported":1751886566,"current_range_meters":24000,"station_id":"st_cvj6sg6p6f1abm77japg","pricing_plan_id":"cebpf4jnsgd1na2vs0mg"},{"bike_id":"d0f90c24-dd03-411b-9731-55305f76b7c8","system_id":"levelo_inurba_marseille","lat":43.211943,"lon":5.350739,"is_reserved":false,"is_disabled":false,"rental_uris":{"android":"levelo://app?vid=d0f90c24-dd03-411b-9731-55305f76b7c8","ios":"levelo://app?vid=d0f90c24-dd03-411b-9731-55305f76b7c8"},"vehicle_type_id":"4","last_reported":1751886566,"current_range_meters":24000,"station_id":"st_cvj6sg6p6f1abm77japg","pricing_plan_id":"cebpf4jnsgd1na2vs0mg"},{"bike_id":"06feb6af-5eb5-49ba-8d41-8d2f4dbe1ee1","system_id":"levelo_inurba_marseille","lat":43.2994,"lon":5.36562,"is_reserved":false,"is_disabled":false,"rental_uris":{"android":"levelo://app?vid=06feb6af-5eb5-49ba-8d41-8d2f4dbe1ee1","ios":"levelo://app?vid=06feb6af-5eb5-49ba-8d41-8d2f4dbe1ee1"},"vehicle_type_id":"4","last_reported":1751886566,"current_range_meters":24400,"station_id":"","pricing_plan_id":"cebpf4jnsgd1na2vs0mg"},{"bike_id":"6e4b7be2-3c34-4270-9459-8e2e34aae67e","system_id":"levelo_inurba_marseille","lat":43.3016,"lon":5.38074,"is_reserved":false,"is_disabled":false,"rental_uris":{"android":"levelo://app?vid=6e4b7be2-3c34-4270-9459-8e2e34aae67e","ios":"levelo://app?vid=6e4b7be2-3c34-4270-9459-8e2e34aae67e"},"vehicle_type_id":"4","last_reported":1751886566,"current_range_meters":24400,"station_id":"ce4bgjp2rcd13ifvqbh0","pricing_plan_id":"cebpf4jnsgd1na2vs0mg"},{"bike_id":"b7ba2b0e-d61d-4055-8648-b84b8a5698ee","system_id":"levelo_inurba_marseille","lat":43.29036,"lon":5.38643,"is_reserved":false,"is_disabled":false,"rental_uris":{"android":"levelo://app?vid=b7ba2b0e-d61d-4055-8648-b84b8a5698ee","ios":"levelo://app?vid=b7ba2b0e-d61d-4055-8648-b84b8a5698ee"},"vehicle_type_id":"4","last_reported":1751886566,"current_range_meters":24400,"station_id":"ce4bh4p2rcd13ifvqe0g","pricing_plan_id":"cebpf4jnsgd1na2vs0mg"},{"bike_id":"54dcb761-bdfc-4753-89da-06215e7da3fb","system_id":"levelo_inurba_marseille","lat":43.29009,"lon":5.35607,"is_reserved":false,"is_disabled":false,"rental_uris":{"android":"levelo://app?vid=54dcb761-bdfc-4753-89da-06215e7da3fb","ios":"levelo://app?vid=54dcb761-bdfc-4753-89da-06215e7da3fb"},"vehicle_type_id":"4","last_reported":1751886566,"current_range_meters":24400,"station_id":"ce4bhb92rcd13ifvqen0","pricing_plan_id":"cebpf4jnsgd1na2vs0mg"},{"bike_id":"9ced161e-3397-4ef7-87bd-1b22305f26da","system_id":"levelo_inurba_marseille","lat":43.28614,"lon":5.35089,"is_reserved":false,"is_disabled":false,"rental_uris":{"android":"levelo://app?vid=9ced161e-3397-4ef7-87bd-1b22305f26da","ios":"levelo://app?vid=9ced161e-3397-4ef7-87bd-1b22305f26da"},"vehicle_type_id":"4","last_reported":1751886566,"current_range_meters":24400,"station_id":"ce4bhch2rcd13ifvqeug","pricing_plan_id":"cebpf4jnsgd1na2vs0mg"},{"bike_id":"7fa02854-1685-483e-a23a-22dcb9c78823","system_id":"levelo_inurba_marseille","lat":43.26584,"lon":5.39033,"is_reserved":false,"is_disabled":false,"rental_uris":{"android":"levelo://app?vid=7fa02854-1685-483e-a23a-22dcb9c78823","ios":"levelo://app?vid=7fa02854-1685-483e-a23a-22dcb9c78823"},"vehicle_type_id":"4","last_reported":1751886566,"current_range_meters":24400,"station_id":"ce4bhe12rcd13ifvqf30","pricing_plan_id":"cebpf4jnsgd1na2vs0mg"},{"bike_id":"39ae33c7-725c-4a96-bf73-a2991db701cf","system_id":"levelo_inurba_marseille","lat":43.241808,"lon":5.397203,"is_reserved":false,"is_disabled":false,"rental_uris":{"android":"levelo://app?vid=39ae33c7-725c-4a96-bf73-a2991db701cf","ios":"levelo://app?vid=39ae33c7-725c-4a96-bf73-a2991db701cf"},"vehicle_type_id":"4","last_reported":1751886566,"current_range_meters":24400,"station_id":"ce4bhn12rcd13ifvqgpg","pricing_plan_id":"cebpf4jnsgd1na2vs0mg"},{"bike_id":"9bf4eb31-6f7d-4a20-aa3a-34c5a68461d3","system_id":"levelo_inurba_marseille","lat":43.33718,"lon":5.39179,"is_reserved":false,"is_disabled":false,"rental_uris":{"android":"levelo://app?vid=9bf4eb31-6f7d-4a20-aa3a-34c5a68461d3","ios":"levelo://app?vid=9bf4eb31-6f7d-4a20-aa3a-34c5a68461d3"},"vehicle_type_id":"4","last_reported":1751886566,"current_range_meters":24400,"station_id":"ce4bhr92rcd13ifvqhsg","pricing_plan_id":"cebpf4jnsgd1na2vs0mg"},{"bike_id":"1e91cee9-7d4a-458c-9805-68ef6c30eb40","system_id":"levelo_inurba_marseille","lat":43.21745,"lon":5.34611,"is_reserved":false,"is_disabled":false,"rental_uris":{"android":"levelo://app?vid=1e91cee9-7d4a-458c-9805-68ef6c30eb40","ios":"levelo://app?vid=1e91cee9-7d4a-458c-9805-68ef6c30eb40"},"vehicle_type_id":"4","last_reported":1751886566,"current_range_meters":24400,"station_id":"st_cvj6r9ubvosntc0bgbag","pricing_plan_id":"cebpf4jnsgd1na2vs0mg"},{"bike_id":"b6d9b946-f66a-4c6f-96e5-5d23e176360c","system_id":"levelo_inurba_marseille","lat":43.31284,"lon":5.38205,"is_reserved":false,"is_disabled":false,"rental_uris":{"android":"levelo://app?vid=b6d9b946-f66a-4c6f-96e5-5d23e176360c","ios":"levelo://app?vid=b6d9b946-f66a-4c6f-96e5-5d23e176360c"},"vehicle_type_id":"4","last_reported":1751886566,"current_range_meters":24800,"station_id":"","pricing_plan_id":"cebpf4jnsgd1na2vs0mg"},{"bike_id":"c026958a-2c62-4268-9db7-7205b4cc9322","system_id":"levelo_inurba_marseille","lat":43.212786,"lon":5.349967,"is_reserved":false,"is_disabled":false,"rental_uris":{"android":"levelo://app?vid=c026958a-2c62-4268-9db7-7205b4cc9322","ios":"levelo://app?vid=c026958a-2c62-4268-9db7-7205b4cc9322"},"vehicle_type_id":"4","last_reported":1751886566,"current_range_meters":24800,"station_id":"","pricing_plan_id":"cebpf4jnsgd1na2vs0mg"},{"bike_id":"b2caa530-bb19-4cc6-a6bd-61e3e1d7432e","system_id":"levelo_inurba_marseille","lat":43.33763,"lon":5.37461,"is_reserved":false,"is_disabled":false,"rental_uris":{"android":"levelo://app?vid=b2caa530-bb19-4cc6-a6bd-61e3e1d7432e","ios":"levelo://app?vid=b2caa530-bb19-4cc6-a6bd-61e3e1d7432e"},"vehicle_type_id":"4","last_reported":1751886566,"current_range_meters":24800,"station_id":"","pricing_plan_id":"cebpf4jnsgd1na2vs0mg"},{"bike_id":"e9113c95-4fac-4662-9ee6-ac3fd476439d","system_id":"levelo_inurba_marseille","lat":43.31532,"lon":5.37289,"is_reserved":false,"is_disabled":false,"rental_uris":{"android":"levelo://app?vid=e9113c95-4fac-4662-9ee6-ac3fd476439d","ios":"levelo://app?vid=e9113c95-4fac-4662-9ee6-ac3fd476439d"},"vehicle_type_id":"4","last_reported":1751886566,"current_range_meters":24800,"station_id":"","pricing_plan_id":"cebpf4jnsgd1na2vs0mg"},{"bike_id":"df574868-231d-4f6b-b5a1-69fa93b58da3","system_id":"levelo_inurba_marseille","lat":43.29869,"lon":5.36288,"is_reserved":false,"is_disabled":false,"rental_uris":{"android":"levelo://app?vid=df574868-231d-4f6b-b5a1-69fa93b58da3","ios":"levelo://app?vid=df574868-231d-4f6b-b5a1-69fa93b58da3"},"vehicle_type_id":"4","last_reported":1751886566,"current_range_meters":24800,"station_id":"ce4bgpp2rcd13ifvqc3g","pricing_plan_id":"cebpf4jnsgd1na2vs0mg"},{"bike_id":"294e769e-16f1-4fb7-992c-b7b823f97168","system_id":"levelo_inurba_marseille","lat":43.30314,"lon":5.36903,"is_reserved":false,"is_disabled":false,"rental_uris":{"android":"levelo://app?vid=294e769e-16f1-4fb7-992c-b7b823f97168","ios":"levelo://app?vid=294e769e-16f1-4fb7-992c-b7b823f97168"},"vehicle_type_id":"4","last_reported":1751886566,"current_range_meters":24800,"station_id":"ce4bgqh2rcd13ifvqc5g","pricing_plan_id":"cebpf4jnsgd1na2vs0mg"},{"bike_id":"6a50911a-1cb5-49fc-8d5d-a2e4f97d8bed","system_id":"levelo_inurba_marseille","lat":43.30302,"lon":5.3686,"is_reserved":false,"is_disabled":false,"rental_uris":{"android":"levelo://app?vid=6a50911a-1cb5-49fc-8d5d-a2e4f97d8bed","ios":"levelo://app?vid=6a50911a-1cb5-49fc-8d5d-a2e4f97d8bed"},"vehicle_type_id":"4","last_reported":1751886566,"current_range_meters":24800,"station_id":"ce4bgqh2rcd13ifvqc5g","pricing_plan_id":"cebpf4jnsgd1na2vs0mg"},{"bike_id":"72e27085-cc72-45ca-871d-ef5e1c80038a","system_id":"levelo_inurba_marseille","lat":43.30557,"lon":5.3672,"is_reserved":false,"is_disabled":false,"rental_uris":{"android":"levelo://app?vid=72e27085-cc72-45ca-871d-ef5e1c80038a","ios":"levelo://app?vid=72e27085-cc72-45ca-871d-ef5e1c80038a"},"vehicle_type_id":"4","last_reported":1751886566,"current_range_meters":24800,"station_id":"ce4bgrp2rcd13ifvqc9g","pricing_plan_id":"cebpf4jnsgd1na2vs0mg"},{"bike_id":"bf5be690-bbba-4ea0-9aa8-729a76f50d2a","system_id":"levelo_inurba_marseille","lat":43.30563,"lon":5.36506,"is_reserved":false,"is_disabled":false,"rental_uris":{"android":"levelo://app?vid=bf5be690-bbba-4ea0-9aa8-729a76f50d2a","ios":"levelo://app?vid=bf5be690-bbba-4ea0-9aa8-729a76f50d2a"},"vehicle_type_id":"4","last_reported":1751886566,"current_range_meters":24800,"station_id":"ce4bgs12rcd13ifvqcag","pricing_plan_id":"cebpf4jnsgd1na2vs0mg"},{"bike_id":"53ddbac2-d904-4cd8-a7a5-6d1ad2a37392","system_id":"levelo_inurba_marseille","lat":43.28346,"lon":5.38092,"is_reserved":false,"is_disabled":false,"rental_uris":{"android":"levelo://app?vid=53ddbac2-d904-4cd8-a7a5-6d1ad2a37392","ios":"levelo://app?vid=53ddbac2-d904-4cd8-a7a5-6d1ad2a37392"},"vehicle_type_id":"4","last_reported":1751886566,"current_range_meters":24800,"station_id":"ce4bh412rcd13ifvqdr0","pricing_plan_id":"cebpf4jnsgd1na2vs0mg"},{"bike_id":"d5af73d3-a18f-4822-a057-d75052b3af78","system_id":"levelo_inurba_marseille","lat":43.28263,"lon":5.35066,"is_reserved":false,"is_disabled":false,"rental_uris":{"android":"levelo://app?vid=d5af73d3-a18f-4822-a057-d75052b3af78","ios":"levelo://app?vid=d5af73d3-a18f-4822-a057-d75052b3af78"},"vehicle_type_id":"4","last_reported":1751886566,"current_range_meters":24800,"station_id":"ce4bhbp2rcd13ifvqerg","pricing_plan_id":"cebpf4jnsgd1na2vs0mg"},{"bike_id":"3c98c4b7-23a1-474a-9a19-feec919edf15","system_id":"levelo_inurba_marseille","lat":43.24175,"lon":5.39739,"is_reserved":false,"is_disabled":false,"rental_uris":{"android":"levelo://app?vid=3c98c4b7-23a1-474a-9a19-feec919edf15","ios":"levelo://app?vid=3c98c4b7-23a1-474a-9a19-feec919edf15"},"vehicle_type_id":"4","last_reported":1751886566,"current_range_meters":24800,"station_id":"ce4bhn12rcd13ifvqgpg","pricing_plan_id":"cebpf4jnsgd1na2vs0mg"},{"bike_id":"235f0fba-bd35-4463-9122-a23444ebc2b0","system_id":"levelo_inurba_marseille","lat":43.28157,"lon":5.42655,"is_reserved":false,"is_disabled":false,"rental_uris":{"android":"levelo://app?vid=235f0fba-bd35-4463-9122-a23444ebc2b0","ios":"levelo://app?vid=235f0fba-bd35-4463-9122-a23444ebc2b0"},"vehicle_type_id":"4","last_reported":1751886566,"current_range_meters":24800,"station_id":"ce4bhnh2rcd13ifvqgug","pricing_plan_id":"cebpf4jnsgd1na2vs0mg"},{"bike_id":"9053def9-9c7d-445b-bef8-571dd53973df","system_id":"levelo_inurba_marseille","lat":43.2872,"lon":5.37935,"is_reserved":false,"is_disabled":false,"rental_uris":{"android":"levelo://app?vid=9053def9-9c7d-445b-bef8-571dd53973df","ios":"levelo://app?vid=9053def9-9c7d-445b-bef8-571dd53973df"},"vehicle_type_id":"4","last_reported":1751886566,"current_range_meters":25200,"station_id":"ce4bh9p2rcd13ifvqec0","pricing_plan_id":"cebpf4jnsgd1na2vs0mg"},{"bike_id":"4ab3703d-4ca0-4e03-83bf-ba8535e52631","system_id":"levelo_inurba_marseille","lat":43.28263,"lon":5.35057,"is_reserved":false,"is_disabled":false,"rental_uris":{"android":"levelo://app?vid=4ab3703d-4ca0-4e03-83bf-ba8535e52631","ios":"levelo://app?vid=4ab3703d-4ca0-4e03-83bf-ba8535e52631"},"vehicle_type_id":"4","last_reported":1751886566,"current_range_meters":25200,"station_id":"ce4bhbp2rcd13ifvqerg","pricing_plan_id":"cebpf4jnsgd1na2vs0mg"},{"bike_id":"53f5533d-bd1f-4ff5-9d14-9d6718cba0db","system_id":"levelo_inurba_marseille","lat":43.26222,"lon":5.404595,"is_reserved":false,"is_disabled":false,"rental_uris":{"android":"levelo://app?vid=53f5533d-bd1f-4ff5-9d14-9d6718cba0db","ios":"levelo://app?vid=53f5533d-bd1f-4ff5-9d14-9d6718cba0db"},"vehicle_type_id":"4","last_reported":1751886566,"current_range_meters":25200,"station_id":"ce4bhmh2rcd13ifvqgmg","pricing_plan_id":"cebpf4jnsgd1na2vs0mg"},{"bike_id":"c934260a-b3f6-4abf-88a5-9e80ed642ad6","system_id":"levelo_inurba_marseille","lat":43.29095,"lon":5.38136,"is_reserved":false,"is_disabled":false,"rental_uris":{"android":"levelo://app?vid=c934260a-b3f6-4abf-88a5-9e80ed642ad6","ios":"levelo://app?vid=c934260a-b3f6-4abf-88a5-9e80ed642ad6"},"vehicle_type_id":"4","last_reported":1751886566,"current_range_meters":25600,"station_id":"","pricing_plan_id":"cebpf4jnsgd1na2vs0mg"},{"bike_id":"320f2a33-deaa-4e0a-a3d5-c39ce8ad680a","system_id":"levelo_inurba_marseille","lat":43.31558,"lon":5.37452,"is_reserved":false,"is_disabled":false,"rental_uris":{"android":"levelo://app?vid=320f2a33-deaa-4e0a-a3d5-c39ce8ad680a","ios":"levelo://app?vid=320f2a33-deaa-4e0a-a3d5-c39ce8ad680a"},"vehicle_type_id":"4","last_reported":1751886566,"current_range_meters":25600,"station_id":"","pricing_plan_id":"cebpf4jnsgd1na2vs0mg"},{"bike_id":"fd2095ad-cce6-410f-b9a7-c1db2c6b3d52","system_id":"levelo_inurba_marseille","lat":43.27631,"lon":5.36555,"is_reserved":false,"is_disabled":false,"rental_uris":{"android":"levelo://app?vid=fd2095ad-cce6-410f-b9a7-c1db2c6b3d52","ios":"levelo://app?vid=fd2095ad-cce6-410f-b9a7-c1db2c6b3d52"},"vehicle_type_id":"4","last_reported":1751886566,"current_range_meters":25600,"station_id":"","pricing_plan_id":"cebpf4jnsgd1na2vs0mg"},{"bike_id":"d4f8798e-4c32-423a-b171-273cf06ef07b","system_id":"levelo_inurba_marseille","lat":43.28414,"lon":5.34987,"is_reserved":false,"is_disabled":false,"rental_uris":{"android":"levelo://app?vid=d4f8798e-4c32-423a-b171-273cf06ef07b","ios":"levelo://app?vid=d4f8798e-4c32-423a-b171-273cf06ef07b"},"vehicle_type_id":"4","last_reported":1751886566,"current_range_meters":25600,"station_id":"ce4bhbh2rcd13ifvqepg","pricing_plan_id":"cebpf4jnsgd1na2vs0mg"},{"bike_id":"ad432de7-9523-40ba-9b6a-2a3423d37d7c","system_id":"levelo_inurba_marseille","lat":43.2864,"lon":5.35095,"is_reserved":false,"is_disabled":false,"rental_uris":{"android":"levelo://app?vid=ad432de7-9523-40ba-9b6a-2a3423d37d7c","ios":"levelo://app?vid=ad432de7-9523-40ba-9b6a-2a3423d37d7c"},"vehicle_type_id":"4","last_reported":1751886566,"current_range_meters":25600,"station_id":"ce4bhch2rcd13ifvqeug","pricing_plan_id":"cebpf4jnsgd1na2vs0mg"},{"bike_id":"b28aa0a0-791c-4a08-9a16-c7bf6ea0ed5a","system_id":"levelo_inurba_marseille","lat":43.22508,"lon":5.34777,"is_reserved":false,"is_disabled":false,"rental_uris":{"android":"levelo://app?vid=b28aa0a0-791c-4a08-9a16-c7bf6ea0ed5a","ios":"levelo://app?vid=b28aa0a0-791c-4a08-9a16-c7bf6ea0ed5a"},"vehicle_type_id":"4","last_reported":1751886566,"current_range_meters":25600,"station_id":"st_cvj5dfep6f1abm77gieg","pricing_plan_id":"cebpf4jnsgd1na2vs0mg"},{"bike_id":"999f2a33-af15-4ca0-853a-d2550f2d6574","system_id":"levelo_inurba_marseille","lat":43.2344,"lon":5.3597,"is_reserved":false,"is_disabled":false,"rental_uris":{"android":"levelo://app?vid=999f2a33-af15-4ca0-853a-d2550f2d6574","ios":"levelo://app?vid=999f2a33-af15-4ca0-853a-d2550f2d6574"},"vehicle_type_id":"4","last_reported":1751886566,"current_range_meters":26000,"station_id":"","pricing_plan_id":"cebpf4jnsgd1na2vs0mg"},{"bike_id":"833df87b-f6a7-4739-aa29-e360bfaf706e","system_id":"levelo_inurba_marseille","lat":43.2623,"lon":5.37445,"is_reserved":false,"is_disabled":false,"rental_uris":{"android":"levelo://app?vid=833df87b-f6a7-4739-aa29-e360bfaf706e","ios":"levelo://app?vid=833df87b-f6a7-4739-aa29-e360bfaf706e"},"vehicle_type_id":"4","last_reported":1751886566,"current_range_meters":26000,"station_id":"","pricing_plan_id":"cebpf4jnsgd1na2vs0mg"},{"bike_id":"8614d28a-c982-461e-bc6c-12bc95e55f68","system_id":"levelo_inurba_marseille","lat":43.29559,"lon":5.37489,"is_reserved":false,"is_disabled":false,"rental_uris":{"android":"levelo://app?vid=8614d28a-c982-461e-bc6c-12bc95e55f68","ios":"levelo://app?vid=8614d28a-c982-461e-bc6c-12bc95e55f68"},"vehicle_type_id":"4","last_reported":1751886566,"current_range_meters":26000,"station_id":"ce4bgh92rcd13ifvqb50","pricing_plan_id":"cebpf4jnsgd1na2vs0mg"},{"bike_id":"6ff0c8f4-0915-4b05-9498-ea368ab96e06","system_id":"levelo_inurba_marseille","lat":43.29607,"lon":5.38094,"is_reserved":false,"is_disabled":false,"rental_uris":{"android":"levelo://app?vid=6ff0c8f4-0915-4b05-9498-ea368ab96e06","ios":"levelo://app?vid=6ff0c8f4-0915-4b05-9498-ea368ab96e06"},"vehicle_type_id":"4","last_reported":1751886566,"current_range_meters":26000,"station_id":"ce4bgl12rcd13ifvqbo0","pricing_plan_id":"cebpf4jnsgd1na2vs0mg"},{"bike_id":"b8ce1e57-321a-41d1-adbc-46a8f7d75e41","system_id":"levelo_inurba_marseille","lat":43.2993,"lon":5.36516,"is_reserved":false,"is_disabled":false,"rental_uris":{"android":"levelo://app?vid=b8ce1e57-321a-41d1-adbc-46a8f7d75e41","ios":"levelo://app?vid=b8ce1e57-321a-41d1-adbc-46a8f7d75e41"},