{"last_updated":1732633816,"ttl":60,"version":"2.2","data":{"bikes":[{"bike_id":"11b959ac-cb26-437f-a3ed-963242e662a6","system_id":"levelo_inurba_marseille","lat":43.31325,"lon":5.39691,"is_reserved":false,"is_disabled":false,"rental_uris":{"android":"levelo://app?vid=11b959ac-cb26-437f-a3ed-963242e662a6","ios":"levelo://app?vid=11b959ac-cb26-437f-a3ed-963242e662a6"},"vehicle_type_id":"4","last_reported":1732633817,"current_range_meters":28800,"station_id":"ce4bgvp2rcd13ifvqcu0","pricing_plan_id":"cebpf4jnsgd1na2vs0mg"},{"bike_id":"d9c28aa4-81a4-4d13-8fc9-100bb4e3d7e2","system_id":"levelo_inurba_marseille","lat":43.27397,"lon":5.38957,"is_reserved":false,"is_disabled":true,"rental_uris":{"android":"levelo://app?vid=d9c28aa4-81a4-4d13-8fc9-100bb4e3d7e2","ios":"levelo://app?vid=d9c28aa4-81a4-4d13-8fc9-100bb4e3d7e2"},"vehicle_type_id":"4","last_reported":1732633817,"current_range_meters":0,"station_id":"","pricing_plan_id":"cebpf4jnsgd1na2vs0mg"},{"bike_id":"5ebafbd3-6d1c-424c-8a78-f7ec0a85e090","system_id":"levelo_inurba_marseille","lat":43.27367,"lon":5.36264,"is_reserved":false,"is_disabled":false,"rental_uris":{"android":"levelo://app?vid=5ebafbd3-6d1c-424c-8a78-f7ec0a85e090","ios":"levelo://app?vid=5ebafbd3-6d1c-424c-8a78-f7ec0a85e090"},"vehicle_type_id":"4","last_reported":1732633817,"current_range_meters":2800,"station_id":"ce4bhbh2rcd13ifvqeo0","pricing_plan_id":"cebpf4jnsgd1na2vs0mg"},{"bike_id":"b856c8b4-412d-4c25-bdd4-e6b29aed04cb","system_id":"levelo_inurba_marseille","lat":43.22934,"lon":5.35385,"is_reserved":false,"is_disabled":false,"rental_uris":{"android":"levelo://app?vid=b856c8b4-412d-4c25-bdd4-e6b29aed04cb","ios":"levelo://app?vid=b856c8b4-412d-4c25-bdd4-e6b29aed04cb"},"vehicle_type_id":"4","last_reported":1732633817,"current_range_meters":38800,"station_id":"cpo3532slgdg3j2ikp40","pricing_plan_id":"cebpf4jnsgd1na2vs0mg"},{"bike_id":"1fe4b7e5-6b12-4636-b8e1-ac7657a96b7d","system_id":"levelo_inurba_marseille","lat":43.33024,"lon":5.39035,"is_reserved":false,"is_disabled":false,"rental_uris":{"android":"levelo://app?vid=1fe4b7e5-6b12-4636-b8e1-ac7657a96b7d","ios":"levelo://app?vid=1fe4b7e5-6b12-4636-b8e1-ac7657a96b7d"},"vehicle_type_id":"4","last_reported":1732633817,"current_range_meters":6400,"station_id":"ce4bhr92rcd13ifvqhrg","pricing_plan_id":"cebpf4jnsgd1na2vs0mg"},{"bike_id":"f0347ef3-0bf2-4904-8134-c34ce91c6bae","system_id":"levelo_inurba_marseille","lat":43.30563,"lon":5.36709,"is_reserved":false,"is_disabled":true,"rental_uris":{"android":"levelo://app?vid=f0347ef3-0bf2-4904-8134-c34ce91c6bae","ios":"levelo://app?vid=f0347ef3-0bf2-4904-8134-c34ce91c6bae"},"vehicle_type_id":"4","last_reported":1732633817,"current_range_meters":13600,"station_id":"","pricing_plan_id":"cebpf4jnsgd1na2vs0mg"},{"bike_id":"79812e34-28a5-47ee-9985-72490f3804f7","system_id":"levelo_inurba_marseille","lat":43.338,"lon":5.37416,"is_reserved":false,"is_disabled":false,"rental_uris":{"android":"levelo://app?vid=79812e34-28a5-47ee-9985-72490f3804f7","ios":"levelo://app?vid=79812e34-28a5-47ee-9985-72490f3804f7"},"vehicle_type_id":"4","last_reported":1732633817,"current_range_meters":38400,"station_id":"","pricing_plan_id":"cebpf4jnsgd1na2vs0mg"},{"bike_id":"dfe00fdd-1cd6-4701-9fde-b3d2dac543ba","system_id":"levelo_inurba_marseille","lat":43.27562,"lon":5.38459,"is_reserved":false,"is_disabled":false,"rental_uris":{"android":"levelo://app?vid=dfe00fdd-1cd6-4701-9fde-b3d2dac543ba","ios":"levelo://app?vid=dfe00fdd-1cd6-4701-9fde-b3d2dac543ba"},"vehicle_type_id":"4","last_reported":1732633817,"current_range_meters":33600,"station_id":"ce4bhh92rcd13ifvqfi0","pricing_plan_id":"cebpf4jnsgd1na2vs0mg"},{"bike_id":"7111b8c2-4574-438c-98d6-138c15c66b32","system_id":"levelo_inurba_marseille","lat":43.31759,"lon":5.39018,"is_reserved":false,"is_disabled":false,"rental_uris":{"android":"levelo://app?vid=7111b8c2-4574-438c-98d6-138c15c66b32","ios":"levelo://app?vid=7111b8c2-4574-438c-98d6-138c15c66b32"},"vehicle_type_id":"4","last_reported":1732633817,"current_range_meters":19200,"station_id":"ce4bhqp2rcd13ifvqhng","pricing_plan_id":"cebpf4jnsgd1na2vs0mg"},{"bike_id":"d5b7fbf6-5806-413b-9e51-84bddeff9271","system_id":"levelo_inurba_marseille","lat":43.26522,"lon":5.3953,"is_reserved":false,"is_disabled":true,"rental_uris":{"android":"levelo://app?vid=d5b7fbf6-5806-413b-9e51-84bddeff9271","ios":"levelo://app?vid=d5b7fbf6-5806-413b-9e51-84bddeff9271"},"vehicle_type_id":"4","last_reported":1732633817,"current_range_meters":400,"station_id":"ce4bhi12rcd13ifvqfq0","pricing_plan_id":"cebpf4jnsgd1na2vs0mg"},{"bike_id":"b9863f39-5c31-4a01-ac4a-a74488f0ee16","system_id":"levelo_inurba_marseille","lat":43.27375,"lon":5.3626,"is_reserved":false,"is_disabled":false,"rental_uris":{"android":"levelo://app?vid=b9863f39-5c31-4a01-ac4a-a74488f0ee16","ios":"levelo://app?vid=b9863f39-5c31-4a01-ac4a-a74488f0ee16"},"vehicle_type_id":"4","last_reported":1732633817,"current_range_meters":38800,"station_id":"ce4bhbh2rcd13ifvqeo0","pricing_plan_id":"cebpf4jnsgd1na2vs0mg"},{"bike_id":"37ee09df-8673-47a3-96b4-c2ef618884e5","system_id":"levelo_inurba_marseille","lat":43.337444,"lon":5.374475,"is_reserved":false,"is_disabled":false,"rental_uris":{"android":"levelo://app?vid=37ee09df-8673-47a3-96b4-c2ef618884e5","ios":"levelo://app?vid=37ee09df-8673-47a3-96b4-c2ef618884e5"},"vehicle_type_id":"4","last_reported":1732633817,"current_range_meters":35600,"station_id":"","pricing_plan_id":"cebpf4jnsgd1na2vs0mg"},{"bike_id":"a547b4c2-0eb9-448c-a7bd-792333a0f9ff","system_id":"levelo_inurba_marseille","lat":43.2649,"lon":5.39548,"is_reserved":false,"is_disabled":false,"rental_uris":{"android":"levelo://app?vid=a547b4c2-0eb9-448c-a7bd-792333a0f9ff","ios":"levelo://app?vid=a547b4c2-0eb9-448c-a7bd-792333a0f9ff"},"vehicle_type_id":"4","last_reported":1732633817,"current_range_meters":3600,"station_id":"ce4bhi12rcd13ifvqfq0","pricing_plan_id":"cebpf4jnsgd1na2vs0mg"},{"bike_id":"f04824cb-3df1-426e-9df0-6ea22b35ffb7","system_id":"levelo_inurba_marseille","lat":43.23182,"lon":5.39989,"is_reserved":false,"is_disabled":false,"rental_uris":{"android":"levelo://app?vid=f04824cb-3df1-426e-9df0-6ea22b35ffb7","ios":"levelo://app?vid=f04824cb-3df1-426e-9df0-6ea22b35ffb7"},"vehicle_type_id":"4","last_reported":1732633817,"current_range_meters":38400,"station_id":"ce4bhn12rcd13ifvqgqg","pricing_plan_id":"cebpf4jnsgd1na2vs0mg"},{"bike_id":"117a2e50-51a9-48b6-ab8e-6d947c0452b8","system_id":"levelo_inurba_marseille","lat":43.27071,"lon":5.42278,"is_reserved":false,"is_disabled":false,"rental_uris":{"android":"levelo://app?vid=117a2e50-51a9-48b6-ab8e-6d947c0452b8","ios":"levelo://app?vid=117a2e50-51a9-48b6-ab8e-6d947c0452b8"},"vehicle_type_id":"4","last_reported":1732633817,"current_range_meters":38800,"station_id":"ce4bhk92rcd13ifvqgb0","pricing_plan_id":"cebpf4jnsgd1na2vs0mg"},{"bike_id":"c8909931-b677-45da-9d93-24a1dcacf8b2","system_id":"levelo_inurba_marseille","lat":43.2721,"lon":5.39184,"is_reserved":false,"is_disabled":false,"rental_uris":{"android":"levelo://app?vid=c8909931-b677-45da-9d93-24a1dcacf8b2","ios":"levelo://app?vid=c8909931-b677-45da-9d93-24a1dcacf8b2"},"vehicle_type_id":"4","last_reported":1732633817,"current_range_meters":12000,"station_id":"ce4bhhp2rcd13ifvqfm0","pricing_plan_id":"cebpf4jnsgd1na2vs0mg"},{"bike_id":"f7165f07-e923-4579-b202-89b3912a60e2","system_id":"levelo_inurba_marseille","lat":43.25867,"lon":5.39903,"is_reserved":false,"is_disabled":true,"rental_uris":{"android":"levelo://app?vid=f7165f07-e923-4579-b202-89b3912a60e2","ios":"levelo://app?vid=f7165f07-e923-4579-b202-89b3912a60e2"},"vehicle_type_id":"4","last_reported":1732633817,"current_range_meters":1200,"station_id":"ce4bhl92rcd13ifvqghg","pricing_plan_id":"cebpf4jnsgd1na2vs0mg"},{"bike_id":"77a0f258-6e09-4cad-ad5a-23a54f93936c","system_id":"levelo_inurba_marseille","lat":43.2695,"lon":5.3864,"is_reserved":false,"is_disabled":false,"rental_uris":{"android":"levelo://app?vid=77a0f258-6e09-4cad-ad5a-23a54f93936c","ios":"levelo://app?vid=77a0f258-6e09-4cad-ad5a-23a54f93936c"},"vehicle_type_id":"4","last_reported":1732633817,"current_range_meters":36800,"station_id":"ce4bhh92rcd13ifvqfh0","pricing_plan_id":"cebpf4jnsgd1na2vs0mg"},{"bike_id":"4c7a58df-9482-4e48-913a-bee78becd678","system_id":"levelo_inurba_marseille","lat":43.24387,"lon":5.37058,"is_reserved":false,"is_disabled":false,"rental_uris":{"android":"levelo://app?vid=4c7a58df-9482-4e48-913a-bee78becd678","ios":"levelo://app?vid=4c7a58df-9482-4e48-913a-bee78becd678"},"vehicle_type_id":"4","last_reported":1732633817,"current_range_meters":38000,"station_id":"ce4bhhh2rcd13ifvqfk0","pricing_plan_id":"cebpf4jnsgd1na2vs0mg"},{"bike_id":"f98cf346-2f95-41c1-a190-288b7ed6e557","system_id":"levelo_inurba_marseille","lat":43.24082,"lon":5.37749,"is_reserved":false,"is_disabled":true,"rental_uris":{"android":"levelo://app?vid=f98cf346-2f95-41c1-a190-288b7ed6e557","ios":"levelo://app?vid=f98cf346-2f95-41c1-a190-288b7ed6e557"},"vehicle_type_id":"4","last_reported":1732633817,"current_range_meters":0,"station_id":"ce4bhnp2rcd13ifvqgvg","pricing_plan_id":"cebpf4jnsgd1na2vs0mg"},{"bike_id":"494a7f9f-d683-431b-8ab2-182876a66db2","system_id":"levelo_inurba_marseille","lat":43.30531,"lon":5.36722,"is_reserved":false,"is_disabled":false,"rental_uris":{"android":"levelo://app?vid=494a7f9f-d683-431b-8ab2-182876a66db2","ios":"levelo://app?vid=494a7f9f-d683-431b-8ab2-182876a66db2"},"vehicle_type_id":"4","last_reported":1732633817,"current_range_meters":17600,"station_id":"ce4bgrp2rcd13ifvqc9g","pricing_plan_id":"cebpf4jnsgd1na2vs0mg"},{"bike_id":"7a657835-792f-42c8-8f33-4d7d97a5bd87","system_id":"levelo_inurba_marseille","lat":43.24547,"lon":5.39526,"is_reserved":false,"is_disabled":false,"rental_uris":{"android":"levelo://app?vid=7a657835-792f-42c8-8f33-4d7d97a5bd87","ios":"levelo://app?vid=7a657835-792f-42c8-8f33-4d7d97a5bd87"},"vehicle_type_id":"4","last_reported":1732633817,"current_range_meters":35600,"station_id":"ce4bhlp2rcd13ifvqgjg","pricing_plan_id":"cebpf4jnsgd1na2vs0mg"},{"bike_id":"b2452fc4-c7eb-4983-9ffa-db8679b09520","system_id":"levelo_inurba_marseille","lat":43.29271,"lon":5.36854,"is_reserved":false,"is_disabled":false,"rental_uris":{"android":"levelo://app?vid=b2452fc4-c7eb-4983-9ffa-db8679b09520","ios":"levelo://app?vid=b2452fc4-c7eb-4983-9ffa-db8679b09520"},"vehicle_type_id":"4","last_reported":1732633817,"current_range_meters":36800,"station_id":"ce4bhbp2rcd13ifvqesg","pricing_plan_id":"cebpf4jnsgd1na2vs0mg"},{"bike_id":"c786c98b-eaa0-441b-a1ac-2d8460ebebfb","system_id":"levelo_inurba_marseille","lat":43.298,"lon":5.40409,"is_reserved":false,"is_disabled":false,"rental_uris":{"android":"levelo://app?vid=c786c98b-eaa0-441b-a1ac-2d8460ebebfb","ios":"levelo://app?vid=c786c98b-eaa0-441b-a1ac-2d8460ebebfb"},"vehicle_type_id":"4","last_reported":1732633817,"current_range_meters":23200,"station_id":"ce4bh112rcd13ifvqd90","pricing_plan_id":"cebpf4jnsgd1na2vs0mg"},{"bike_id":"09b89554-b737-4b6e-a9e8-cc238dd55c23","system_id":"levelo_inurba_marseille","lat":43.29025,"lon":5.38142,"is_reserved":false,"is_disabled":true,"rental_uris":{"android":"levelo://app?vid=09b89554-b737-4b6e-a9e8-cc238dd55c23","ios":"levelo://app?vid=09b89554-b737-4b6e-a9e8-cc238dd55c23"},"vehicle_type_id":"4","last_reported":1732633817,"current_range_meters":38800,"station_id":"ce4bh4p2rcd13ifvqe1g","pricing_plan_id":"cebpf4jnsgd1na2vs0mg"},{"bike_id":"63ac84f1-e8a8-49ce-a993-576a59bbfe52","system_id":"levelo_inurba_marseille","lat":43.2848,"lon":5.37818,"is_reserved":false,"is_disabled":false,"rental_uris":{"android":"levelo://app?vid=63ac84f1-e8a8-49ce-a993-576a59bbfe52","ios":"levelo://app?vid=63ac84f1-e8a8-49ce-a993-576a59bbfe52"},"vehicle_type_id":"4","last_reported":1732633817,"current_range_meters":35600,"station_id":"ce4bhi12rcd13ifvqfo0","pricing_plan_id":"cebpf4jnsgd1na2vs0mg"},{"bike_id":"188712ad-b78f-41b0-9341-ff62a7a9c9e5","system_id":"levelo_inurba_marseille","lat":43.28706,"lon":5.37939,"is_reserved":false,"is_disabled":false,"rental_uris":{"android":"levelo://app?vid=188712ad-b78f-41b0-9341-ff62a7a9c9e5","ios":"levelo://app?vid=188712ad-b78f-41b0-9341-ff62a7a9c9e5"},"vehicle_type_id":"4","last_reported":1732633817,"current_range_meters":31200,"station_id":"ce4bh9p2rcd13ifvqec0","pricing_plan_id":"cebpf4jnsgd1na2vs0mg"},{"bike_id":"86f5e370-9aa6-4c53-99e4-598f62c57590","system_id":"levelo_inurba_marseille","lat":43.27821,"lon":5.40704,"is_reserved":false,"is_disabled":true,"rental_uris":{"android":"levelo://app?vid=86f5e370-9aa6-4c53-99e4-598f62c57590","ios":"levelo://app?vid=86f5e370-9aa6-4c53-99e4-598f62c57590"},"vehicle_type_id":"4","last_reported":1732633817,"current_range_meters":0,"station_id":"ce4bhnh2rcd13ifvqgtg","pricing_plan_id":"cebpf4jnsgd1na2vs0mg"},{"bike_id":"39a1d912-465d-42da-b46b-d5e2d8f188c7","system_id":"levelo_inurba_marseille","lat":43.24065,"lon":5.37761,"is_reserved":false,"is_disabled":false,"rental_uris":{"android":"levelo://app?vid=39a1d912-465d-42da-b46b-d5e2d8f188c7","ios":"levelo://app?vid=39a1d912-465d-42da-b46b-d5e2d8f188c7"},"vehicle_type_id":"4","last_reported":1732633817,"current_range_meters":29600,"station_id":"ce4bhnp2rcd13ifvqgvg","pricing_plan_id":"cebpf4jnsgd1na2vs0mg"},{"bike_id":"d7b4e41b-5ea8-4d2c-9fe2-df65bc6478d3","system_id":"levelo_inurba_marseille","lat":43.24809,"lon":5.37461,"is_reserved":false,"is_disabled":false,"rental_uris":{"android":"levelo://app?vid=d7b4e41b-5ea8-4d2c-9fe2-df65bc6478d3","ios":"levelo://app?vid=d7b4e41b-5ea8-4d2c-9fe2-df65bc6478d3"},"vehicle_type_id":"4","last_reported":1732633817,"current_range_meters":20400,"station_id":"ce4bhgh2rcd13ifvqfb0","pricing_plan_id":"cebpf4jnsgd1na2vs0mg"},{"bike_id":"0f6ca53a-01e5-4fbb-a675-8980cc409575","system_id":"levelo_inurba_marseille","lat":43.29421,"lon":5.38629,"is_reserved":false,"is_disabled":true,"rental_uris":{"android":"levelo://app?vid=0f6ca53a-01e5-4fbb-a675-8980cc409575","ios":"levelo://app?vid=0f6ca53a-01e5-4fbb-a675-8980cc409575"},"vehicle_type_id":"4","last_reported":1732633817,"current_range_meters":0,"station_id":"ce4bh2h2rcd13ifvqdh0","pricing_plan_id":"cebpf4jnsgd1na2vs0mg"},{"bike_id":"7fd0aefa-e7fc-4ea5-a14b-20074163830a","system_id":"levelo_inurba_marseille","lat":43.25114,"lon":5.40329,"is_reserved":false,"is_disabled":false,"rental_uris":{"android":"levelo://app?vid=7fd0aefa-e7fc-4ea5-a14b-20074163830a","ios":"levelo://app?vid=7fd0aefa-e7fc-4ea5-a14b-20074163830a"},"vehicle_type_id":"4","last_reported":1732633817,"current_range_meters":12400,"station_id":"ce4bhlh2rcd13ifvqgig","pricing_plan_id":"cebpf4jnsgd1na2vs0mg"},{"bike_id":"15c54105-f0c0-476c-bf53-72ec08d16db8","system_id":"levelo_inurba_marseille","lat":43.25084,"lon":5.39518,"is_reserved":false,"is_disabled":false,"rental_uris":{"android":"levelo://app?vid=15c54105-f0c0-476c-bf53-72ec08d16db8","ios":"levelo://app?vid=15c54105-f0c0-476c-bf53-72ec08d16db8"},"vehicle_type_id":"4","last_reported":1732633817,"current_range_meters":22800,"station_id":"ce4bhm12rcd13ifvqgkg","pricing_plan_id":"cebpf4jnsgd1na2vs0mg"},{"bike_id":"b3c4a11f-ace5-41ce-aaf6-d4806435b41a","system_id":"levelo_inurba_marseille","lat":43.29279,"lon":5.36849,"is_reserved":false,"is_disabled":false,"rental_uris":{"android":"levelo://app?vid=b3c4a11f-ace5-41ce-aaf6-d4806435b41a","ios":"levelo://app?vid=b3c4a11f-ace5-41ce-aaf6-d4806435b41a"},"vehicle_type_id":"4","last_reported":1732633817,"current_range_meters":38400,"station_id":"ce4bhbp2rcd13ifvqesg","pricing_plan_id":"cebpf4jnsgd1na2vs0mg"},{"bike_id":"caf4734a-4cec-4f34-a39a-93be4dc22192","system_id":"levelo_inurba_marseille","lat":43.29221,"lon":5.37895,"is_reserved":false,"is_disabled":false,"rental_uris":{"android":"levelo://app?vid=caf4734a-4cec-4f34-a39a-93be4dc22192","ios":"levelo://app?vid=caf4734a-4cec-4f34-a39a-93be4dc22192"},"vehicle_type_id":"4","last_reported":1732633817,"current_range_meters":6400,"station_id":"","pricing_plan_id":"cebpf4jnsgd1na2vs0mg"},{"bike_id":"70f7b618-b185-422f-a1c1-4fe112d68b2b","system_id":"levelo_inurba_marseille","lat":43.26682,"lon":5.38276,"is_reserved":false,"is_disabled":false,"rental_uris":{"android":"levelo://app?vid=70f7b618-b185-422f-a1c1-4fe112d68b2b","ios":"levelo://app?vid=70f7b618-b185-422f-a1c1-4fe112d68b2b"},"vehicle_type_id":"4","last_reported":1732633817,"current_range_meters":33200,"station_id":"ce4bhg92rcd13ifvqf90","pricing_plan_id":"cebpf4jnsgd1na2vs0mg"},{"bike_id":"db356ff7-3ec3-4fec-8efc-b1296554fab8","system_id":"levelo_inurba_marseille","lat":43.27207,"lon":5.39185,"is_reserved":false,"is_disabled":false,"rental_uris":{"android":"levelo://app?vid=db356ff7-3ec3-4fec-8efc-b1296554fab8","ios":"levelo://app?vid=db356ff7-3ec3-4fec-8efc-b1296554fab8"},"vehicle_type_id":"4","last_reported":1732633817,"current_range_meters":38800,"station_id":"ce4bhhp2rcd13ifvqfm0","pricing_plan_id":"cebpf4jnsgd1na2vs0mg"},{"bike_id":"0a2d70bc-b761-4725-9e3d-6717bfcaa6cc","system_id":"levelo_inurba_marseille","lat":43.337444,"lon":5.374475,"is_reserved":false,"is_disabled":false,"rental_uris":{"android":"levelo://app?vid=0a2d70bc-b761-4725-9e3d-6717bfcaa6cc","ios":"levelo://app?vid=0a2d70bc-b761-4725-9e3d-6717bfcaa6cc"},"vehicle_type_id":"4","last_reported":1732633817,"current_range_meters":37600,"station_id":"","pricing_plan_id":"cebpf4jnsgd1na2vs0mg"},{"bike_id":"34fd0331-430c-4270-921f-5e6643124213","system_id":"levelo_inurba_marseille","lat":43.30305,"lon":5.36913,"is_reserved":false,"is_disabled":false,"rental_uris":{"android":"levelo://app?vid=34fd0331-430c-4270-921f-5e6643124213","ios":"levelo://app?vid=34fd0331-430c-4270-921f-5e6643124213"},"vehicle_type_id":"4","last_reported":1732633817,"current_range_meters":19200,"station_id":"ce4bgqh2rcd13ifvqc5g","pricing_plan_id":"cebpf4jnsgd1na2vs0mg"},{"bike_id":"c29462b2-6f03-4354-a0a3-f395b21c5128","system_id":"levelo_inurba_marseille","lat":43.27488,"lon":5.42465,"is_reserved":false,"is_disabled":true,"rental_uris":{"android":"levelo://app?vid=c29462b2-6f03-4354-a0a3-f395b21c5128","ios":"levelo://app?vid=c29462b2-6f03-4354-a0a3-f395b21c5128"},"vehicle_type_id":"4","last_reported":1732633817,"current_range_meters":0,"station_id":"ce4bhn92rcd13ifvqgrg","pricing_plan_id":"cebpf4jnsgd1na2vs0mg"},{"bike_id":"820f12a0-cf28-488c-8a74-3f1b9d2e4db5","system_id":"levelo_inurba_marseille","lat":43.23056,"lon":5.35491,"is_reserved":false,"is_disabled":false,"rental_uris":{"android":"levelo://app?vid=820f12a0-cf28-488c-8a74-3f1b9d2e4db5","ios":"levelo://app?vid=820f12a0-cf28-488c-8a74-3f1b9d2e4db5"},"vehicle_type_id":"4","last_reported":1732633817,"current_range_meters":24000,"station_id":"cpo3342slgdg3j2ifvpg","pricing_plan_id":"cebpf4jnsgd1na2vs0mg"},{"bike_id":"e1d63dd7-af57-40db-b964-6575f0f33485","system_id":"levelo_inurba_marseille","lat":43.28573,"lon":5.3951,"is_reserved":false,"is_disabled":false,"rental_uris":{"android":"levelo://app?vid=e1d63dd7-af57-40db-b964-6575f0f33485","ios":"levelo://app?vid=e1d63dd7-af57-40db-b964-6575f0f33485"},"vehicle_type_id":"4","last_reported":1732633817,"current_range_meters":25600,"station_id":"ce4bh292rcd13ifvqdg0","pricing_plan_id":"cebpf4jnsgd1na2vs0mg"},{"bike_id":"39196ea7-2380-456b-8822-1afa5bd6fe0d","system_id":"levelo_inurba_marseille","lat":43.2981,"lon":5.38098,"is_reserved":false,"is_disabled":false,"rental_uris":{"android":"levelo://app?vid=39196ea7-2380-456b-8822-1afa5bd6fe0d","ios":"levelo://app?vid=39196ea7-2380-456b-8822-1afa5bd6fe0d"},"vehicle_type_id":"4","last_reported":1732633817,"current_range_meters":14000,"station_id":"ce4bgip2rcd13ifvqbb0","pricing_plan_id":"cebpf4jnsgd1na2vs0mg"},{"bike_id":"c7433198-9df1-438e-b1a9-add5bac98e27","system_id":"levelo_inurba_marseille","lat":43.2837,"lon":5.38622,"is_reserved":false,"is_disabled":true,"rental_uris":{"android":"levelo://app?vid=c7433198-9df1-438e-b1a9-add5bac98e27","ios":"levelo://app?vid=c7433198-9df1-438e-b1a9-add5bac98e27"},"vehicle_type_id":"4","last_reported":1732633817,"current_range_meters":0,"station_id":"ce4bh492rcd13ifvqdvg","pricing_plan_id":"cebpf4jnsgd1na2vs0mg"},{"bike_id":"67b6a3fa-1eec-4286-b804-6481a690c11d","system_id":"levelo_inurba_marseille","lat":43.30884,"lon":5.3965,"is_reserved":false,"is_disabled":false,"rental_uris":{"android":"levelo://app?vid=67b6a3fa-1eec-4286-b804-6481a690c11d","ios":"levelo://app?vid=67b6a3fa-1eec-4286-b804-6481a690c11d"},"vehicle_type_id":"4","last_reported":1732633817,"current_range_meters":38000,"station_id":"ce4bh012rcd13ifvqcv0","pricing_plan_id":"cebpf4jnsgd1na2vs0mg"},{"bike_id":"f2117b01-a0a3-449c-9d2e-1d856050b788","system_id":"levelo_inurba_marseille","lat":43.29034,"lon":5.38636,"is_reserved":false,"is_disabled":false,"rental_uris":{"android":"levelo://app?vid=f2117b01-a0a3-449c-9d2e-1d856050b788","ios":"levelo://app?vid=f2117b01-a0a3-449c-9d2e-1d856050b788"},"vehicle_type_id":"4","last_reported":1732633817,"current_range_meters":22400,"station_id":"ce4bh4p2rcd13ifvqe0g","pricing_plan_id":"cebpf4jnsgd1na2vs0mg"},{"bike_id":"ac392fe0-8c77-4c1a-bcfe-d4b3639b1c63","system_id":"levelo_inurba_marseille","lat":43.32044,"lon":5.41568,"is_reserved":false,"is_disabled":false,"rental_uris":{"android":"levelo://app?vid=ac392fe0-8c77-4c1a-bcfe-d4b3639b1c63","ios":"levelo://app?vid=ac392fe0-8c77-4c1a-bcfe-d4b3639b1c63"},"vehicle_type_id":"4","last_reported":1732633817,"current_range_meters":38400,"station_id":"ce4bhq92rcd13ifvqhkg","pricing_plan_id":"cebpf4jnsgd1na2vs0mg"},{"bike_id":"30d232ab-a2a9-4185-98de-0760683b1708","system_id":"levelo_inurba_marseille","lat":43.2804,"lon":5.36935,"is_reserved":false,"is_disabled":false,"rental_uris":{"android":"levelo://app?vid=30d232ab-a2a9-4185-98de-0760683b1708","ios":"levelo://app?vid=30d232ab-a2a9-4185-98de-0760683b1708"},"vehicle_type_id":"4","last_reported":1732633817,"current_range_meters":6400,"station_id":"ce4bha12rcd13ifvqef0","pricing_plan_id":"cebpf4jnsgd1na2vs0mg"},{"bike_id":"62965e1e-ade4-47c8-a5ff-f8c8cd07ca98","system_id":"levelo_inurba_marseille","lat":43.27619,"lon":5.36109,"is_reserved":false,"is_disabled":false,"rental_uris":{"android":"levelo://app?vid=62965e1e-ade4-47c8-a5ff-f8c8cd07ca98","ios":"levelo://app?vid=62965e1e-ade4-47c8-a5ff-f8c8cd07ca98"},"vehicle_type_id":"4","last_reported":1732633817,"current_range_meters":38800,"station_id":"ce4bgj92rcd13ifvqbe0","pricing_plan_id":"cebpf4jnsgd1na2vs0mg"},{"bike_id":"a9636380-236a-4369-9aae-ca176b7e61d3","system_id":"levelo_inurba_marseille","lat":43.23193,"lon":5.3556,"is_reserved":false,"is_disabled":false,"rental_uris":{"android":"levelo://app?vid=a9636380-236a-4369-9aae-ca176b7e61d3","ios":"levelo://app?vid=a9636380-236a-4369-9aae-ca176b7e61d3"},"vehicle_type_id":"4","last_reported":1732633817,"current_range_meters":12400,"station_id":"ce4bhu92rcd13ifvqi70","pricing_plan_id":"cebpf4jnsgd1na2vs0mg"},{"bike_id":"be587f47-b710-4010-9900-93533c623a4b","system_id":"levelo_inurba_marseille","lat":43.29279,"lon":5.36846,"is_reserved":false,"is_disabled":false,"rental_uris":{"android":"levelo://app?vid=be587f47-b710-4010-9900-93533c623a4b","ios":"levelo://app?vid=be587f47-b710-4010-9900-93533c623a4b"},"vehicle_type_id":"4","last_reported":1732633817,"current_range_meters":37600,"station_id":"ce4bhbp2rcd13ifvqesg","pricing_plan_id":"cebpf4jnsgd1na2vs0mg"},{"bike_id":"39d14094-d1f7-4887-88bd-445828a2675b","system_id":"levelo_inurba_marseille","lat":43.29258,"lon":5.38443,"is_reserved":false,"is_disabled":false,"rental_uris":{"android":"levelo://app?vid=39d14094-d1f7-4887-88bd-445828a2675b","ios":"levelo://app?vid=39d14094-d1f7-4887-88bd-445828a2675b"},"vehicle_type_id":"4","last_reported":1732633817,"current_range_meters":37600,"station_id":"ce4bh692rcd13ifvqea0","pricing_plan_id":"cebpf4jnsgd1na2vs0mg"},{"bike_id":"08e18ffe-f84b-4451-8c41-2ea33df537fb","system_id":"levelo_inurba_marseille","lat":43.29795,"lon":5.40405,"is_reserved":false,"is_disabled":false,"rental_uris":{"android":"levelo://app?vid=08e18ffe-f84b-4451-8c41-2ea33df537fb","ios":"levelo://app?vid=08e18ffe-f84b-4451-8c41-2ea33df537fb"},"vehicle_type_id":"4","last_reported":1732633817,"current_range_meters":37600,"station_id":"ce4bh112rcd13ifvqd90","pricing_plan_id":"cebpf4jnsgd1na2vs0mg"},{"bike_id":"68bccc28-ccf7-44a3-be9d-2819e9c31e00","system_id":"levelo_inurba_marseille","lat":43.32346,"lon":5.40629,"is_reserved":false,"is_disabled":false,"rental_uris":{"android":"levelo://app?vid=68bccc28-ccf7-44a3-be9d-2819e9c31e00","ios":"levelo://app?vid=68bccc28-ccf7-44a3-be9d-2819e9c31e00"},"vehicle_type_id":"4","last_reported":1732633817,"current_range_meters":8000,"station_id":"ce4bhq92rcd13ifvqhjg","pricing_plan_id":"cebpf4jnsgd1na2vs0mg"},{"bike_id":"c9809c29-411c-4efe-9b15-37310794ea35","system_id":"levelo_inurba_marseille","lat":43.299399,"lon":5.365529,"is_reserved":false,"is_disabled":false,"rental_uris":{"android":"levelo://app?vid=c9809c29-411c-4efe-9b15-37310794ea35","ios":"levelo://app?vid=c9809c29-411c-4efe-9b15-37310794ea35"},"vehicle_type_id":"4","last_reported":1732633817,"current_range_meters":38400,"station_id":"ce4bgm92rcd13ifvqbr0","pricing_plan_id":"cebpf4jnsgd1na2vs0mg"},{"bike_id":"ec2c977a-ebf7-49a7-8260-e79df0d73670","system_id":"levelo_inurba_marseille","lat":43.24998,"lon":5.38944,"is_reserved":false,"is_disabled":false,"rental_uris":{"android":"levelo://app?vid=ec2c977a-ebf7-49a7-8260-e79df0d73670","ios":"levelo://app?vid=ec2c977a-ebf7-49a7-8260-e79df0d73670"},"vehicle_type_id":"4","last_reported":1732633817,"current_range_meters":36800,"station_id":"ce4bhgp2rcd13ifvqfd0","pricing_plan_id":"cebpf4jnsgd1na2vs0mg"},{"bike_id":"5ee93b13-a5d3-49a8-820d-48af1e19f43f","system_id":"levelo_inurba_marseille","lat":43.23962,"lon":5.36636,"is_reserved":false,"is_disabled":false,"rental_uris":{"android":"levelo://app?vid=5ee93b13-a5d3-49a8-820d-48af1e19f43f","ios":"levelo://app?vid=5ee93b13-a5d3-49a8-820d-48af1e19f43f"},"vehicle_type_id":"4","last_reported":1732633817,"current_range_meters":15200,"station_id":"ce4bhi12rcd13ifvqfp0","pricing_plan_id":"cebpf4jnsgd1na2vs0mg"},{"bike_id":"54a9e65d-8d95-4dda-aaed-468f1350158a","system_id":"levelo_inurba_marseille","lat":43.29313,"lon":5.37186,"is_reserved":false,"is_disabled":false,"rental_uris":{"android":"levelo://app?vid=54a9e65d-8d95-4dda-aaed-468f1350158a","ios":"levelo://app?vid=54a9e65d-8d95-4dda-aaed-468f1350158a"},"vehicle_type_id":"4","last_reported":1732633817,"current_range_meters":38800,"station_id":"ce4bgh92rcd13ifvqb40","pricing_plan_id":"cebpf4jnsgd1na2vs0mg"},{"bike_id":"cf7c9153-0dc8-430f-83bc-b3f293869575","system_id":"levelo_inurba_marseille","lat":43.33726,"lon":5.39185,"is_reserved":false,"is_disabled":false,"rental_uris":{"android":"levelo://app?vid=cf7c9153-0dc8-430f-83bc-b3f293869575","ios":"levelo://app?vid=cf7c9153-0dc8-430f-83bc-b3f293869575"},"vehicle_type_id":"4","last_reported":1732633817,"current_range_meters":9600,"station_id":"ce4bhr92rcd13ifvqhsg","pricing_plan_id":"cebpf4jnsgd1na2vs0mg"},{"bike_id":"87bb7cbe-aefe-4e56-aa6b-d384b6df38eb","system_id":"levelo_inurba_marseille","lat":43.30414,"lon":5.41284,"is_reserved":false,"is_disabled":false,"rental_uris":{"android":"levelo://app?vid=87bb7cbe-aefe-4e56-aa6b-d384b6df38eb","ios":"levelo://app?vid=87bb7cbe-aefe-4e56-aa6b-d384b6df38eb"},"vehicle_type_id":"4","last_reported":1732633817,"current_range_meters":8800,"station_id":"ce4bhop2rcd13ifvqh8g","pricing_plan_id":"cebpf4jnsgd1na2vs0mg"},{"bike_id":"b5df2a47-1c86-4b08-94b8-d153ee6a4afd","system_id":"levelo_inurba_marseille","lat":43.25858,"lon":5.39907,"is_reserved":false,"is_disabled":false,"rental_uris":{"android":"levelo://app?vid=b5df2a47-1c86-4b08-94b8-d153ee6a4afd","ios":"levelo://app?vid=b5df2a47-1c86-4b08-94b8-d153ee6a4afd"},"vehicle_type_id":"4","last_reported":1732633817,"current_range_meters":36800,"station_id":"ce4bhl92rcd13ifvqghg","pricing_plan_id":"cebpf4jnsgd1na2vs0mg"},{"bike_id":"aff4ad67-9274-4b8a-af3e-194575058088","system_id":"levelo_inurba_marseille","lat":43.30882,"lon":5.39646,"is_reserved":false,"is_disabled":false,"rental_uris":{"android":"levelo://app?vid=aff4ad67-9274-4b8a-af3e-194575058088","ios":"levelo://app?vid=aff4ad67-9274-4b8a-af3e-194575058088"},"vehicle_type_id":"4","last_reported":1732633817,"current_range_meters":30400,"station_id":"ce4bh012rcd13ifvqcv0","pricing_plan_id":"cebpf4jnsgd1na2vs0mg"},{"bike_id":"42d5921a-ec7e-4799-830f-a9ca454ba896","system_id":"levelo_inurba_marseille","lat":43.29586,"lon":5.37515,"is_reserved":false,"is_disabled":false,"rental_uris":{"android":"levelo://app?vid=42d5921a-ec7e-4799-830f-a9ca454ba896","ios":"levelo://app?vid=42d5921a-ec7e-4799-830f-a9ca454ba896"},"vehicle_type_id":"4","last_reported":1732633817,"current_range_meters":17200,"station_id":"ce4bgh92rcd13ifvqb50","pricing_plan_id":"cebpf4jnsgd1na2vs0mg"},{"bike_id":"4d809776-4d2b-4bf5-8aa6-666b5b1fd18f","system_id":"levelo_inurba_marseille","lat":43.33716,"lon":5.39192,"is_reserved":false,"is_disabled":false,"rental_uris":{"android":"levelo://app?vid=4d809776-4d2b-4bf5-8aa6-666b5b1fd18f","ios":"levelo://app?vid=4d809776-4d2b-4bf5-8aa6-666b5b1fd18f"},"vehicle_type_id":"4","last_reported":1732633817,"current_range_meters":38800,"station_id":"ce4bhr92rcd13ifvqhsg","pricing_plan_id":"cebpf4jnsgd1na2vs0mg"},{"bike_id":"b9943f68-9fb0-4588-8d1f-fcc17b23e4d8","system_id":"levelo_inurba_marseille","lat":43.28708,"lon":5.3794,"is_reserved":false,"is_disabled":false,"rental_uris":{"android":"levelo://app?vid=b9943f68-9fb0-4588-8d1f-fcc17b23e4d8","ios":"levelo://app?vid=b9943f68-9fb0-4588-8d1f-fcc17b23e4d8"},"vehicle_type_id":"4","last_reported":1732633817,"current_range_meters":38800,"station_id":"ce4bh9p2rcd13ifvqec0","pricing_plan_id":"cebpf4jnsgd1na2vs0mg"},{"bike_id":"ee731b73-f8c4-47d1-8e92-83e1d4208f6a","system_id":"levelo_inurba_marseille","lat":43.30305,"lon":5.368907,"is_reserved":false,"is_disabled":false,"rental_uris":{"android":"levelo://app?vid=ee731b73-f8c4-47d1-8e92-83e1d4208f6a","ios":"levelo://app?vid=ee731b73-f8c4-47d1-8e92-83e1d4208f6a"},"vehicle_type_id":"4","last_reported":1732633817,"current_range_meters":38000,"station_id":"ce4bgqh2rcd13ifvqc5g","pricing_plan_id":"cebpf4jnsgd1na2vs0mg"},{"bike_id":"5817161f-5d63-41b2-92c0-c94f8059d60c","system_id":"levelo_inurba_marseille","lat":43.337444,"lon":5.374475,"is_reserved":false,"is_disabled":false,"rental_uris":{"android":"levelo://app?vid=5817161f-5d63-41b2-92c0-c94f8059d60c","ios":"levelo://app?vid=5817161f-5d63-41b2-92c0-c94f8059d60c"},"vehicle_type_id":"4","last_reported":1732633817,"current_range_meters":36400,"station_id":"","pricing_plan_id":"cebpf4jnsgd1na2vs0mg"},{"bike_id":"88c80e96-32d0-4054-a0d8-e15b372ae003","system_id":"levelo_inurba_marseille","lat":43.23178,"lon":5.35598,"is_reserved":false,"is_disabled":false,"rental_uris":{"android":"levelo://app?vid=88c80e96-32d0-4054-a0d8-e15b372ae003","ios":"levelo://app?vid=88c80e96-32d0-4054-a0d8-e15b372ae003"},"vehicle_type_id":"4","last_reported":1732633817,"current_range_meters":14000,"station_id":"ce4bhu92rcd13ifvqi70","pricing_plan_id":"cebpf4jnsgd1na2vs0mg"},{"bike_id":"940e48a0-e4d7-48e1-9551-f3e033dd49f1","system_id":"levelo_inurba_marseille","lat":43.28349,"lon":5.38116,"is_reserved":false,"is_disabled":false,"rental_uris":{"android":"levelo://app?vid=940e48a0-e4d7-48e1-9551-f3e033dd49f1","ios":"levelo://app?vid=940e48a0-e4d7-48e1-9551-f3e033dd49f1"},"vehicle_type_id":"4","last_reported":1732633817,"current_range_meters":34000,"station_id":"ce4bh412rcd13ifvqdr0","pricing_plan_id":"cebpf4jnsgd1na2vs0mg"},{"bike_id":"92af3e1a-e7a5-46f1-94c4-953c0b538207","system_id":"levelo_inurba_marseille","lat":43.24082,"lon":5.37751,"is_reserved":false,"is_disabled":false,"rental_uris":{"android":"levelo://app?vid=92af3e1a-e7a5-46f1-94c4-953c0b538207","ios":"levelo://app?vid=92af3e1a-e7a5-46f1-94c4-953c0b538207"},"vehicle_type_id":"4","last_reported":1732633817,"current_range_meters":8800,"station_id":"ce4bhnp2rcd13ifvqgvg","pricing_plan_id":"cebpf4jnsgd1na2vs0mg"},{"bike_id":"e0c741f3-4f76-4197-8447-d954e76dc5fd","system_id":"levelo_inurba_marseille","lat":43.29307,"lon":5.37173,"is_reserved":false,"is_disabled":false,"rental_uris":{"android":"levelo://app?vid=e0c741f3-4f76-4197-8447-d954e76dc5fd","ios":"levelo://app?vid=e0c741f3-4f76-4197-8447-d954e76dc5fd"},"vehicle_type_id":"4","last_reported":1732633817,"current_range_meters":38800,"station_id":"ce4bgh92rcd13ifvqb40","pricing_plan_id":"cebpf4jnsgd1na2vs0mg"},{"bike_id":"75901f46-3752-48e5-99cc-ec26667053f3","system_id":"levelo_inurba_marseille","lat":43.29199,"lon":5.3933,"is_reserved":false,"is_disabled":false,"rental_uris":{"android":"levelo://app?vid=75901f46-3752-48e5-99cc-ec26667053f3","ios":"levelo://app?vid=75901f46-3752-48e5-99cc-ec26667053f3"},"vehicle_type_id":"4","last_reported":1732633817,"current_range_meters":37600,"station_id":"ce4bh192rcd13ifvqdd0","pricing_plan_id":"cebpf4jnsgd1na2vs0mg"},{"bike_id":"6edbbea4-840e-4db8-8c57-ac25c1b0919e","system_id":"levelo_inurba_marseille","lat":43.28944,"lon":5.36627,"is_reserved":false,"is_disabled":false,"rental_uris":{"android":"levelo://app?vid=6edbbea4-840e-4db8-8c57-ac25c1b0919e","ios":"levelo://app?vid=6edbbea4-840e-4db8-8c57-ac25c1b0919e"},"vehicle_type_id":"4","last_reported":1732633817,"current_range_meters":12000,"station_id":"ce4bhap2rcd13ifvqek0","pricing_plan_id":"cebpf4jnsgd1na2vs0mg"},{"bike_id":"1cf0800b-d818-4c94-b0b1-a492b77a2654","system_id":"levelo_inurba_marseille","lat":43.2961,"lon":5.3774,"is_reserved":false,"is_disabled":false,"rental_uris":{"android":"levelo://app?vid=1cf0800b-d818-4c94-b0b1-a492b77a2654","ios":"levelo://app?vid=1cf0800b-d818-4c94-b0b1-a492b77a2654"},"vehicle_type_id":"4","last_reported":1732633817,"current_range_meters":38800,"station_id":"ce4bgi92rcd13ifvqb90","pricing_plan_id":"cebpf4jnsgd1na2vs0mg"},{"bike_id":"c4f6081c-391f-473a-806f-ed2e09b03824","system_id":"levelo_inurba_marseille","lat":43.27212,"lon":5.39173,"is_reserved":false,"is_disabled":false,"rental_uris":{"android":"levelo://app?vid=c4f6081c-391f-473a-806f-ed2e09b03824","ios":"levelo://app?vid=c4f6081c-391f-473a-806f-ed2e09b03824"},"vehicle_type_id":"4","last_reported":1732633817,"current_range_meters":24400,"station_id":"ce4bhhp2rcd13ifvqfm0","pricing_plan_id":"cebpf4jnsgd1na2vs0mg"},{"bike_id":"0cd7fb1f-f090-4e80-a2fb-03510d2b2219","system_id":"levelo_inurba_marseille","lat":43.2958,"lon":5.37508,"is_reserved":false,"is_disabled":true,"rental_uris":{"android":"levelo://app?vid=0cd7fb1f-f090-4e80-a2fb-03510d2b2219","ios":"levelo://app?vid=0cd7fb1f-f090-4e80-a2fb-03510d2b2219"},"vehicle_type_id":"4","last_reported":1732633817,"current_range_meters":34000,"station_id":"ce4bgh92rcd13ifvqb50","pricing_plan_id":"cebpf4jnsgd1na2vs0mg"},{"bike_id":"ac298c55-2122-449e-9051-e8a5ca6e14e0","system_id":"levelo_inurba_marseille","lat":43.29628,"lon":5.37723,"is_reserved":false,"is_disabled":false,"rental_uris":{"android":"levelo://app?vid=ac298c55-2122-449e-9051-e8a5ca6e14e0","ios":"levelo://app?vid=ac298c55-2122-449e-9051-e8a5ca6e14e0"},"vehicle_type_id":"4","last_reported":1732633817,"current_range_meters":22800,"station_id":"ce4bgi92rcd13ifvqb90","pricing_plan_id":"cebpf4jnsgd1na2vs0mg"},{"bike_id":"d33a5273-2943-4fa7-881b-94fa64c3bbe9","system_id":"levelo_inurba_marseille","lat":43.23966,"lon":5.36633,"is_reserved":false,"is_disabled":false,"rental_uris":{"android":"levelo://app?vid=d33a5273-2943-4fa7-881b-94fa64c3bbe9","ios":"levelo://app?vid=d33a5273-2943-4fa7-881b-94fa64c3bbe9"},"vehicle_type_id":"4","last_reported":1732633817,"current_range_meters":39200,"station_id":"ce4bhi12rcd13ifvqfp0","pricing_plan_id":"cebpf4jnsgd1na2vs0mg"},{"bike_id":"c210e805-bb46-4ca2-9453-a2590b894a30","system_id":"levelo_inurba_marseille","lat":43.26779,"lon":5.39419,"is_reserved":false,"is_disabled":false,"rental_uris":{"android":"levelo://app?vid=c210e805-bb46-4ca2-9453-a2590b894a30","ios":"levelo://app?vid=c210e805-bb46-4ca2-9453-a2590b894a30"},"vehicle_type_id":"4","last_reported":1732633817,"current_range_meters":3200,"station_id":"ce4bhh12rcd13ifvqfg0","pricing_plan_id":"cebpf4jnsgd1na2vs0mg"},{"bike_id":"77106cc3-a275-43bb-a14d-76858ff1897d","system_id":"levelo_inurba_marseille","lat":43.2837,"lon":5.38621,"is_reserved":false,"is_disabled":false,"rental_uris":{"android":"levelo://app?vid=77106cc3-a275-43bb-a14d-76858ff1897d","ios":"levelo://app?vid=77106cc3-a275-43bb-a14d-76858ff1897d"},"vehicle_type_id":"4","last_reported":1732633817,"current_range_meters":36800,"station_id":"ce4bh492rcd13ifvqdvg","pricing_plan_id":"cebpf4jnsgd1na2vs0mg"},{"bike_id":"6a243988-d267-4e1e-bafc-c091870de6a8","system_id":"levelo_inurba_marseille","lat":43.241678,"lon":5.364031,"is_reserved":false,"is_disabled":false,"rental_uris":{"android":"levelo://app?vid=6a243988-d267-4e1e-bafc-c091870de6a8","ios":"levelo://app?vid=6a243988-d267-4e1e-bafc-c091870de6a8"},"vehicle_type_id":"4","last_reported":1732633817,"current_range_meters":38400,"station_id":"cpo36qri1sfpv3e86is0","pricing_plan_id":"cebpf4jnsgd1na2vs0mg"},{"bike_id":"691d64d1-4d4f-4c84-851b-7a35722818f8","system_id":"levelo_inurba_marseille","lat":43.26055,"lon":5.39413,"is_reserved":false,"is_disabled":false,"rental_uris":{"android":"levelo://app?vid=691d64d1-4d4f-4c84-851b-7a35722818f8","ios":"levelo://app?vid=691d64d1-4d4f-4c84-851b-7a35722818f8"},"vehicle_type_id":"4","last_reported":1732633817,"current_range_meters":28000,"station_id":"ce4bhh92rcd13ifvqfj0","pricing_plan_id":"cebpf4jnsgd1na2vs0mg"},{"bike_id":"7e38d160-5d86-42b2-bf0f-9979b0a4e20d","system_id":"levelo_inurba_marseille","lat":43.33032,"lon":5.39051,"is_reserved":false,"is_disabled":false,"rental_uris":{"android":"levelo://app?vid=7e38d160-5d86-42b2-bf0f-9979b0a4e20d","ios":"levelo://app?vid=7e38d160-5d86-42b2-bf0f-9979b0a4e20d"},"vehicle_type_id":"4","last_reported":1732633817,"current_range_meters":20800,"station_id":"ce4bhr92rcd13ifvqhrg","pricing_plan_id":"cebpf4jnsgd1na2vs0mg"},{"bike_id":"b82e57e9-adb0-4f2b-8dac-bda9128616c9","system_id":"levelo_inurba_marseille","lat":43.25579,"lon":5.38245,"is_reserved":false,"is_disabled":false,"rental_uris":{"android":"levelo://app?vid=b82e57e9-adb0-4f2b-8dac-bda9128616c9","ios":"levelo://app?vid=b82e57e9-adb0-4f2b-8dac-bda9128616c9"},"vehicle_type_id":"4","last_reported":1732633817,"current_range_meters":36800,"station_id":"ce4bhih2rcd13ifvqfs0","pricing_plan_id":"cebpf4jnsgd1na2vs0mg"},{"bike_id":"d321ca28-2827-49ad-ba78-0603489268a2","system_id":"levelo_inurba_marseille","lat":43.24807,"lon":5.37461,"is_reserved":false,"is_disabled":false,"rental_uris":{"android":"levelo://app?vid=d321ca28-2827-49ad-ba78-0603489268a2","ios":"levelo://app?vid=d321ca28-2827-49ad-ba78-0603489268a2"},"vehicle_type_id":"4","last_reported":1732633817,"current_range_meters":16800,"station_id":"ce4bhgh2rcd13ifvqfb0","pricing_plan_id":"cebpf4jnsgd1na2vs0mg"},{"bike_id":"39b04c21-6a6a-40a7-a489-741c2b67c9bd","system_id":"levelo_inurba_marseille","lat":43.33721,"lon":5.39195,"is_reserved":false,"is_disabled":false,"rental_uris":{"android":"levelo://app?vid=39b04c21-6a6a-40a7-a489-741c2b67c9bd","ios":"levelo://app?vid=39b04c21-6a6a-40a7-a489-741c2b67c9bd"},"vehicle_type_id":"4","last_reported":1732633817,"current_range_meters":16400,"station_id":"ce4bhr92rcd13ifvqhsg","pricing_plan_id":"cebpf4jnsgd1na2vs0mg"},{"bike_id":"123601cb-fc92-485b-9441-8e829429846e","system_id":"levelo_inurba_marseille","lat":43.30307,"lon":5.36904,"is_reserved":false,"is_disabled":false,"rental_uris":{"android":"levelo://app?vid=123601cb-fc92-485b-9441-8e829429846e","ios":"levelo://app?vid=123601cb-fc92-485b-9441-8e829429846e"},"vehicle_type_id":"4","last_reported":1732633817,"current_range_meters":35600,"station_id":"ce4bgqh2rcd13ifvqc5g","pricing_plan_id":"cebpf4jnsgd1na2vs0mg"},{"bike_id":"91c9aa15-718b-4d5a-ae37-5e51d0cc92b9","system_id":"levelo_inurba_marseille","lat":43.28412,"lon":5.34981,"is_reserved":false,"is_disabled":false,"rental_uris":{"android":"levelo://app?vid=91c9aa15-718b-4d5a-ae37-5e51d0cc92b9","ios":"levelo://app?vid=91c9aa15-718b-4d5a-ae37-5e51d0cc92b9"},"vehicle_type_id":"4","last_reported":1732633817,"current_range_meters":24400,"station_id":"ce4bhbh2rcd13ifvqepg","pricing_plan_id":"cebpf4jnsgd1na2vs0mg"},{"bike_id":"315f9207-9872-4efa-a9fa-4cb9a1c99a33","system_id":"levelo_inurba_marseille","lat":43.2991,"lon":5.37476,"is_reserved":false,"is_disabled":false,"rental_uris":{"android":"levelo://app?vid=315f9207-9872-4efa-a9fa-4cb9a1c99a33","ios":"levelo://app?vid=315f9207-9872-4efa-a9fa-4cb9a1c99a33"},"vehicle_type_id":"4","last_reported":1732633817,"current_range_meters":38800,"station_id":"ce4bgjh2rcd13ifvqbg0","pricing_plan_id":"cebpf4jnsgd1na2vs0mg"},{"bike_id":"2de7cae5-5ff7-4e8e-b04a-8f63f72fbf93","system_id":"levelo_inurba_marseille","lat":43.31533,"lon":5.38036,"is_reserved":false,"is_disabled":false,"rental_uris":{"android":"levelo://app?vid=2de7cae5-5ff7-4e8e-b04a-8f63f72fbf93","ios":"levelo://app?vid=2de7cae5-5ff7-4e8e-b04a-8f63f72fbf93"},"vehicle_type_id":"4","last_reported":1732633817,"current_range_meters":36800,"station_id":"ce4bhsp2rcd13ifvqi50","pricing_plan_id":"cebpf4jnsgd1na2vs0mg"},{"bike_id":"df6dfede-364c-4a0e-8f22-cb21db50a29f","system_id":"levelo_inurba_marseille","lat":43.2318,"lon":5.3999,"is_reserved":false,"is_disabled":false,"rental_uris":{"android":"levelo://app?vid=df6dfede-364c-4a0e-8f22-cb21db50a29f","ios":"levelo://app?vid=df6dfede-364c-4a0e-8f22-cb21db50a29f"},"vehicle_type_id":"4","last_reported":1732633817,"current_range_meters":38800,"station_id":"ce4bhn12rcd13ifvqgqg","pricing_plan_id":"cebpf4jnsgd1na2vs0mg"},{"bike_id":"f322df79-0242-4db0-ac2e-452d61c9528e","system_id":"levelo_inurba_marseille","lat":43.25569,"lon":5.38239,"is_reserved":false,"is_disabled":false,"rental_uris":{"android":"levelo://app?vid=f322df79-0242-4db0-ac2e-452d61c9528e","ios":"levelo://app?vid=f322df79-0242-4db0-ac2e-452d61c9528e"},"vehicle_type_id":"4","last_reported":1732633817,"current_range_meters":38000,"station_id":"ce4bhih2rcd13ifvqfs0","pricing_plan_id":"cebpf4jnsgd1na2vs0mg"},{"bike_id":"4f7aa767-eb91-4580-8312-45034b7fe78c","system_id":"levelo_inurba_marseille","lat":43.24769,"lon":5.37402,"is_reserved":false,"is_disabled":false,"rental_uris":{"android":"levelo://app?vid=4f7aa767-eb91-4580-8312-45034b7fe78c","ios":"levelo://app?vid=4f7aa767-eb91-4580-8312-45034b7fe78c"},"vehicle_type_id":"4","last_reported":1732633817,"current_range_meters":34000,"station_id":"ce4bhh12rcd13ifvqff0","pricing_plan_id":"cebpf4jnsgd1na2vs0mg"},{"bike_id":"f6a75aee-8623-4eed-847b-70527994dcda","system_id":"levelo_inurba_marseille","lat":43.29202,"lon":5.35812,"is_reserved":false,"is_disabled":false,"rental_uris":{"android":"levelo://app?vid=f6a75aee-8623-4eed-847b-70527994dcda","ios":"levelo://app?vid=f6a75aee-8623-4eed-847b-70527994dcda"},"vehicle_type_id":"4","last_reported":1732633817,"current_range_meters":33600,"station_id":"ce4bhb12rcd13ifvqel0","pricing_plan_id":"cebpf4jnsgd1na2vs0mg"},{"bike_id":"d1924499-6628-448a-9b04-3a50cddd37ca","system_id":"levelo_inurba_marseille","lat":43.29612,"lon":5.37175,"is_reserved":false,"is_disabled":false,"rental_uris":{"android":"levelo://app?vid=d1924499-6628-448a-9b04-3a50cddd37ca","ios":"levelo://app?vid=d1924499-6628-448a-9b04-3a50cddd37ca"},"vehicle_type_id":"4","last_reported":1732633817,"current_range_meters":36400,"station_id":"ce4bgnh2rcd13ifvqc0g","pricing_plan_id":"cebpf4jnsgd1na2vs0mg"},{"bike_id":"27299214-4931-4e88-80c7-785622e3f1ea","system_id":"levelo_inurba_marseille","lat":43.29974,"lon":5.3719,"is_reserved":false,"is_disabled":false,"rental_uris":{"android":"levelo://app?vid=27299214-4931-4e88-80c7-785622e3f1ea","ios":"levelo://app?vid=27299214-4931-4e88-80c7-785622e3f1ea"},"vehicle_type_id":"4","last_reported":1732633817,"current_range_meters":17600,"station_id":"ce4bgr92rcd13ifvqc7g","pricing_plan_id":"cebpf4jnsgd1na2vs0mg"},{"bike_id":"e3bbf8c0-57b2-4cf2-818b-cf000f234c93","system_id":"levelo_inurba_marseille","lat":43.30125,"lon":5.38782,"is_reserved":false,"is_disabled":true,"rental_uris":{"android":"levelo://app?vid=e3bbf8c0-57b2-4cf2-818b-cf000f234c93","ios":"levelo://app?vid=e3bbf8c0-57b2-4cf2-818b-cf000f234c93"},"vehicle_type_id":"4","last_reported":1732633817,"current_range_meters":1200,"station_id":"ce4bghh2rcd13ifvqb60","pricing_plan_id":"cebpf4jnsgd1na2vs0mg"},{"bike_id":"3b2ddd61-7276-4381-b067-2a88d42fe9ff","system_id":"levelo_inurba_marseille","lat":43.2827,"lon":5.35088,"is_reserved":false,"is_disabled":false,"rental_uris":{"android":"levelo://app?vid=3b2ddd61-7276-4381-b067-2a88d42fe9ff","ios":"levelo://app?vid=3b2ddd61-7276-4381-b067-2a88d42fe9ff"},"vehicle_type_id":"4","last_reported":1732633817,"current_range_meters":19200,"station_id":"ce4bhbp2rcd13ifvqerg","pricing_plan_id":"cebpf4jnsgd1na2vs0mg"},{"bike_id":"6c76c8ed-2fd3-4402-aab2-8a16f9768214","system_id":"levelo_inurba_marseille","lat":43.26071,"lon":5.39388,"is_reserved":false,"is_disabled":false,"rental_uris":{"android":"levelo://app?vid=6c76c8ed-2fd3-4402-aab2-8a16f9768214","ios":"levelo://app?vid=6c76c8ed-2fd3-4402-aab2-8a16f9768214"},"vehicle_type_id":"4","last_reported":1732633817,"current_range_meters":5600,"station_id":"ce4bhh92rcd13ifvqfj0","pricing_plan_id":"cebpf4jnsgd1na2vs0mg"},{"bike_id":"36296f5c-0176-4be0-97c8-7930cda9c369","system_id":"levelo_inurba_marseille","lat":43.32105,"lon":5.36783,"is_reserved":false,"is_disabled":false,"rental_uris":{"android":"levelo://app?vid=36296f5c-0176-4be0-97c8-7930cda9c369","ios":"levelo://app?vid=36296f5c-0176-4be0-97c8-7930cda9c369"},"vehicle_type_id":"4","last_reported":1732633817,"current_range_meters":22400,"station_id":"ce4bhrh2rcd13ifvqhug","pricing_plan_id":"cebpf4jnsgd1na2vs0mg"},{"bike_id":"6b62e754-29a8-488d-9bbc-ee9276ceccc2","system_id":"levelo_inurba_marseille","lat":43.30879,"lon":5.39649,"is_reserved":false,"is_disabled":false,"rental_uris":{"android":"levelo://app?vid=6b62e754-29a8-488d-9bbc-ee9276ceccc2","ios":"levelo://app?vid=6b62e754-29a8-488d-9bbc-ee9276ceccc2"},"vehicle_type_id":"4","last_reported":1732633817,"current_range_meters":28800,"station_id":"ce4bh012rcd13ifvqcv0","pricing_plan_id":"cebpf4jnsgd1na2vs0mg"},{"bike_id":"479302ac-1757-456a-87f6-4029c44f1b86","system_id":"levelo_inurba_marseille","lat":43.29538,"lon":5.38542,"is_reserved":false,"is_disabled":false,"rental_uris":{"android":"levelo://app?vid=479302ac-1757-456a-87f6-4029c44f1b86","ios":"levelo://app?vid=479302ac-1757-456a-87f6-4029c44f1b86"},"vehicle_type_id":"4","last_reported":1732633817,"current_range_meters":18000,"station_id":"ce4bgih2rcd13ifvqba0","pricing_plan_id":"cebpf4jnsgd1na2vs0mg"},{"bike_id":"2d3ac0cf-9b0a-4e1a-a923-ea0c3542ce6a","system_id":"levelo_inurba_marseille","lat":43.26027,"lon":5.37553,"is_reserved":false,"is_disabled":false,"rental_uris":{"android":"levelo://app?vid=2d3ac0cf-9b0a-4e1a-a923-ea0c3542ce6a","ios":"levelo://app?vid=2d3ac0cf-9b0a-4e1a-a923-ea0c3542ce6a"},"vehicle_type_id":"4","last_reported":1732633817,"current_range_meters":8800,"station_id":"ce4bhgh2rcd13ifvqfa0","pricing_plan_id":"cebpf4jnsgd1na2vs0mg"},{"bike_id":"1ebc2642-599e-41e5-89df-308a45bbfcfb","system_id":"levelo_inurba_marseille","lat":43.32101,"lon":5.36778,"is_reserved":false,"is_disabled":false,"rental_uris":{"android":"levelo://app?vid=1ebc2642-599e-41e5-89df-308a45bbfcfb","ios":"levelo://app?vid=1ebc2642-599e-41e5-89df-308a45bbfcfb"},"vehicle_type_id":"4","last_reported":1732633817,"current_range_meters":14000,"station_id":"ce4bhrh2rcd13ifvqhug","pricing_plan_id":"cebpf4jnsgd1na2vs0mg"},{"bike_id":"d0693c3e-09d0-46d0-a294-b5cddd9c153e","system_id":"levelo_inurba_marseille","lat":43.29194,"lon":5.39332,"is_reserved":false,"is_disabled":false,"rental_uris":{"android":"levelo://app?vid=d0693c3e-09d0-46d0-a294-b5cddd9c153e","ios":"levelo://app?vid=d0693c3e-09d0-46d0-a294-b5cddd9c153e"},"vehicle_type_id":"4","last_reported":1732633817,"current_range_meters":34000,"station_id":"ce4bh192rcd13ifvqdd0","pricing_plan_id":"cebpf4jnsgd1na2vs0mg"},{"bike_id":"9d1bad24-07a1-4c93-badf-c8ab1568fff5","system_id":"levelo_inurba_marseille","lat":43.289556,"lon":5.386921,"is_reserved":false,"is_disabled":false,"rental_uris":{"android":"levelo://app?vid=9d1bad24-07a1-4c93-badf-c8ab1568fff5","ios":"levelo://app?vid=9d1bad24-07a1-4c93-badf-c8ab1568fff5"},"vehicle_type_id":"4","last_reported":1732633817,"current_range_meters":24400,"station_id":"ce4bh4p2rcd13ifvqe0g","pricing_plan_id":"cebpf4jnsgd1na2vs0mg"},{"bike_id":"e8a12a11-eb94-43a1-89dc-1a990d2d11f4","system_id":"levelo_inurba_marseille","lat":43.23147,"lon":5.43732,"is_reserved":false,"is_disabled":false,"rental_uris":{"android":"levelo://app?vid=e8a12a11-eb94-43a1-89dc-1a990d2d11f4","ios":"levelo://app?vid=e8a12a11-eb94-43a1-89dc-1a990d2d11f4"},"vehicle_type_id":"4","last_reported":1732633817,"current_range_meters":38000,"station_id":"ce4bhmp2rcd13ifvqgog","pricing_plan_id":"cebpf4jnsgd1na2vs0mg"},{"bike_id":"9cb3f477-d4e9-4dfc-943a-574258c3c1c4","system_id":"levelo_inurba_marseille","lat":43.27563,"lon":5.3845,"is_reserved":false,"is_disabled":false,"rental_uris":{"android":"levelo://app?vid=9cb3f477-d4e9-4dfc-943a-574258c3c1c4","ios":"levelo://app?vid=9cb3f477-d4e9-4dfc-943a-574258c3c1c4"},"vehicle_type_id":"4","last_reported":1732633817,"current_range_meters":11200,"station_id":"ce4bhh92rcd13ifvqfi0","pricing_plan_id":"cebpf4jnsgd1na2vs0mg"},{"bike_id":"c3d0f098-52b9-45f6-8c14-c23305ab49bf","system_id":"levelo_inurba_marseille","lat":43.27807,"lon":5.40711,"is_reserved":false,"is_disabled":false,"rental_uris":{"android":"levelo://app?vid=c3d0f098-52b9-45f6-8c14-c23305ab49bf","ios":"levelo://app?vid=c3d0f098-52b9-45f6-8c14-c23305ab49bf"},"vehicle_type_id":"4","last_reported":1732633817,"current_range_meters":38400,"station_id":"ce4bhnh2rcd13ifvqgtg","pricing_plan_id":"cebpf4jnsgd1na2vs0mg"},{"bike_id":"51b398f2-b539-440c-917f-0128fd59b7e4","system_id":"levelo_inurba_marseille","lat":43.28475,"lon":5.35878,"is_reserved":false,"is_disabled":false,"rental_uris":{"android":"levelo://app?vid=51b398f2-b539-440c-917f-0128fd59b7e4","ios":"levelo://app?vid=51b398f2-b539-440c-917f-0128fd59b7e4"},"vehicle_type_id":"4","last_reported":1732633817,"current_range_meters":19200,"station_id":"ce4bhah2rcd13ifvqei0","pricing_plan_id":"cebpf4jnsgd1na2vs0mg"},{"bike_id":"6f27d061-f795-4024-adfe-2e5ac1621fda","system_id":"levelo_inurba_marseille","lat":43.22932,"lon":5.35382,"is_reserved":false,"is_disabled":true,"rental_uris":{"android":"levelo://app?vid=6f27d061-f795-4024-adfe-2e5ac1621fda","ios":"levelo://app?vid=6f27d061-f795-4024-adfe-2e5ac1621fda"},"vehicle_type_id":"4","last_reported":1732633817,"current_range_meters":400,"station_id":"cpo3532slgdg3j2ikp40","pricing_plan_id":"cebpf4jnsgd1na2vs0mg"},{"bike_id":"2c794031-1b0b-42b9-96e9-75edcb8883bc","system_id":"levelo_inurba_marseille","lat":43.29041,"lon":5.35929,"is_reserved":false,"is_disabled":false,"rental_uris":{"android":"levelo://app?vid=2c794031-1b0b-42b9-96e9-75edcb8883bc","ios":"levelo://app?vid=2c794031-1b0b-42b9-96e9-75edcb8883bc"},"vehicle_type_id":"4","last_reported":1732633817,"current_range_meters":30800,"station_id":"ce4bha92rcd13ifvqeg0","pricing_plan_id":"cebpf4jnsgd1na2vs0mg"},{"bike_id":"943cea1a-840b-4e0a-9939-14d22c3775bd","system_id":"levelo_inurba_marseille","lat":43.23173,"lon":5.4,"is_reserved":false,"is_disabled":false,"rental_uris":{"android":"levelo://app?vid=943cea1a-840b-4e0a-9939-14d22c3775bd","ios":"levelo://app?vid=943cea1a-840b-4e0a-9939-14d22c3775bd"},"vehicle_type_id":"4","last_reported":1732633817,"current_range_meters":6000,"station_id":"ce4bhn12rcd13ifvqgqg","pricing_plan_id":"cebpf4jnsgd1na2vs0mg"},{"bike_id":"f54ff67b-d74a-4a6f-a67e-bfe1536a6a2c","system_id":"levelo_inurba_marseille","lat":43.29711,"lon":5.37697,"is_reserved":false,"is_disabled":false,"rental_uris":{"android":"levelo://app?vid=f54ff67b-d74a-4a6f-a67e-bfe1536a6a2c","ios":"levelo://app?vid=f54ff67b-d74a-4a6f-a67e-bfe1536a6a2c"},"vehicle_type_id":"4","last_reported":1732633817,"current_range_meters":27600,"station_id":"ce4bgkh2rcd13ifvqbl0","pricing_plan_id":"cebpf4jnsgd1na2vs0mg"},{"bike_id":"ecafbf04-e97c-486f-8502-ae4081837df7","system_id":"levelo_inurba_marseille","lat":43.25002,"lon":5.38927,"is_reserved":false,"is_disabled":false,"rental_uris":{"android":"levelo://app?vid=ecafbf04-e97c-486f-8502-ae4081837df7","ios":"levelo://app?vid=ecafbf04-e97c-486f-8502-ae4081837df7"},"vehicle_type_id":"4","last_reported":1732633817,"current_range_meters":38800,"station_id":"ce4bhgp2rcd13ifvqfd0","pricing_plan_id":"cebpf4jnsgd1na2vs0mg"},{"bike_id":"cd37893c-394d-4be8-ac80-51269b1aac15","system_id":"levelo_inurba_marseille","lat":43.31115,"lon":5.37783,"is_reserved":false,"is_disabled":false,"rental_uris":{"android":"levelo://app?vid=cd37893c-394d-4be8-ac80-51269b1aac15","ios":"levelo://app?vid=cd37893c-394d-4be8-ac80-51269b1aac15"},"vehicle_type_id":"4","last_reported":1732633817,"current_range_meters":28400,"station_id":"ce4bgt92rcd13ifvqcg0","pricing_plan_id":"cebpf4jnsgd1na2vs0mg"},{"bike_id":"2dc7c91e-6ac4-4e11-a5bb-0be35d313768","system_id":"levelo_inurba_marseille","lat":43.28268,"lon":5.35077,"is_reserved":false,"is_disabled":false,"rental_uris":{"android":"levelo://app?vid=2dc7c91e-6ac4-4e11-a5bb-0be35d313768","ios":"levelo://app?vid=2dc7c91e-6ac4-4e11-a5bb-0be35d313768"},"vehicle_type_id":"4","last_reported":1732633817,"current_range_meters":4800,"station_id":"ce4bhbp2rcd13ifvqerg","pricing_plan_id":"cebpf4jnsgd1na2vs0mg"},{"bike_id":"8346abc5-61b3-466a-a8db-a3f2bc6ba517","system_id":"levelo_inurba_marseille","lat":43.30545,"lon":5.36526,"is_reserved":false,"is_disabled":false,"rental_uris":{"android":"levelo://app?vid=8346abc5-61b3-466a-a8db-a3f2bc6ba517","ios":"levelo://app?vid=8346abc5-61b3-466a-a8db-a3f2bc6ba517"},"vehicle_type_id":"4","last_reported":1732633817,"current_range_meters":39200,"station_id":"ce4bgs12rcd13ifvqcag","pricing_plan_id":"cebpf4jnsgd1na2vs0mg"},{"bike_id":"f80c5603-100c-4ff8-a693-c6c541628d7c","system_id":"levelo_inurba_marseille","lat":43.24649,"lon":5.38891,"is_reserved":false,"is_disabled":false,"rental_uris":{"android":"levelo://app?vid=f80c5603-100c-4ff8-a693-c6c541628d7c","ios":"levelo://app?vid=f80c5603-100c-4ff8-a693-c6c541628d7c"},"vehicle_type_id":"4","last_reported":1732633817,"current_range_meters":19600,"station_id":"ce4bhg12rcd13ifvqf60","pricing_plan_id":"cebpf4jnsgd1na2vs0mg"},{"bike_id":"ad147b94-4180-4578-a0fa-c4d1998acb2d","system_id":"levelo_inurba_marseille","lat":43.29042,"lon":5.35936,"is_reserved":false,"is_disabled":true,"rental_uris":{"android":"levelo://app?vid=ad147b94-4180-4578-a0fa-c4d1998acb2d","ios":"levelo://app?vid=ad147b94-4180-4578-a0fa-c4d1998acb2d"},"vehicle_type_id":"4","last_reported":1732633817,"current_range_meters":38800,"station_id":"ce4bha92rcd13ifvqeg0","pricing_plan_id":"cebpf4jnsgd1na2vs0mg"},{"bike_id":"0a9061a0-8df6-4ca0-9c35-7a5c736f006f","system_id":"levelo_inurba_marseille","lat":43.28074,"lon":5.39665,"is_reserved":false,"is_disabled":false,"rental_uris":{"android":"levelo://app?vid=0a9061a0-8df6-4ca0-9c35-7a5c736f006f","ios":"levelo://app?vid=0a9061a0-8df6-4ca0-9c35-7a5c736f006f"},"vehicle_type_id":"4","last_reported":1732633817,"current_range_meters":14000,"station_id":"ce4bho12rcd13ifvqh2g","pricing_plan_id":"cebpf4jnsgd1na2vs0mg"},{"bike_id":"98e1c5f8-533d-468d-9920-ce855040aa66","system_id":"levelo_inurba_marseille","lat":43.32336,"lon":5.40623,"is_reserved":false,"is_disabled":false,"rental_uris":{"android":"levelo://app?vid=98e1c5f8-533d-468d-9920-ce855040aa66","ios":"levelo://app?vid=98e1c5f8-533d-468d-9920-ce855040aa66"},"vehicle_type_id":"4","last_reported":1732633817,"current_range_meters":28000,"station_id":"ce4bhq92rcd13ifvqhjg","pricing_plan_id":"cebpf4jnsgd1na2vs0mg"},{"bike_id":"edc4ec26-9586-43e2-8071-e01c01aa0cd4","system_id":"levelo_inurba_marseille","lat":43.24391,"lon":5.37061,"is_reserved":false,"is_disabled":false,"rental_uris":{"android":"levelo://app?vid=edc4ec26-9586-43e2-8071-e01c01aa0cd4","ios":"levelo://app?vid=edc4ec26-9586-43e2-8071-e01c01aa0cd4"},"vehicle_type_id":"4","last_reported":1732633817,"current_range_meters":31200,"station_id":"ce4bhhh2rcd13ifvqfk0","pricing_plan_id":"cebpf4jnsgd1na2vs0mg"},{"bike_id":"2e68222f-30cf-465f-9189-69aabdbbd1e6","system_id":"levelo_inurba_marseille","lat":43.31759,"lon":5.39001,"is_reserved":false,"is_disabled":false,"rental_uris":{"android":"levelo://app?vid=2e68222f-30cf-465f-9189-69aabdbbd1e6","ios":"levelo://app?vid=2e68222f-30cf-465f-9189-69aabdbbd1e6"},"vehicle_type_id":"4","last_reported":1732633817,"current_range_meters":29600,"station_id":"ce4bhqp2rcd13ifvqhng","pricing_plan_id":"cebpf4jnsgd1na2vs0mg"},{"bike_id":"0c2ce8ae-8833-41c8-8523-4c849fcd260a","system_id":"levelo_inurba_marseille","lat":43.2397,"lon":5.36627,"is_reserved":false,"is_disabled":false,"rental_uris":{"android":"levelo://app?vid=0c2ce8ae-8833-41c8-8523-4c849fcd260a","ios":"levelo://app?vid=0c2ce8ae-8833-41c8-8523-4c849fcd260a"},"vehicle_type_id":"4","last_reported":1732633817,"current_range_meters":16800,"station_id":"ce4bhi12rcd13ifvqfp0","pricing_plan_id":"cebpf4jnsgd1na2vs0mg"},{"bike_id":"55276bda-a1ce-48b4-97b2-9c44116246c3","system_id":"levelo_inurba_marseille","lat":43.26577,"lon":5.39009,"is_reserved":false,"is_disabled":false,"rental_uris":{"android":"levelo://app?vid=55276bda-a1ce-48b4-97b2-9c44116246c3","ios":"levelo://app?vid=55276bda-a1ce-48b4-97b2-9c44116246c3"},"vehicle_type_id":"4","last_reported":1732633817,"current_range_meters":30400,"station_id":"ce4bhe12rcd13ifvqf30","pricing_plan_id":"cebpf4jnsgd1na2vs0mg"},{"bike_id":"d1d97a8b-6289-4717-ae0d-4ce413ad0e32","system_id":"levelo_inurba_marseille","lat":43.28426,"lon":5.39216,"is_reserved":false,"is_disabled":true,"rental_uris":{"android":"levelo://app?vid=d1d97a8b-6289-4717-ae0d-4ce413ad0e32","ios":"levelo://app?vid=d1d97a8b-6289-4717-ae0d-4ce413ad0e32"},"vehicle_type_id":"4","last_reported":1732633817,"current_range_meters":0,"station_id":"ce4bhoh2rcd13ifvqh5g","pricing_plan_id":"cebpf4jnsgd1na2vs0mg"},{"bike_id":"1e01212b-abf0-4e0b-b18b-622fee59af63","system_id":"levelo_inurba_marseille","lat":43.27557,"lon":5.38433,"is_reserved":false,"is_disabled":false,"rental_uris":{"android":"levelo://app?vid=1e01212b-abf0-4e0b-b18b-622fee59af63","ios":"levelo://app?vid=1e01212b-abf0-4e0b-b18b-622fee59af63"},"vehicle_type_id":"4","last_reported":1732633817,"current_range_meters":35600,"station_id":"ce4bhh92rcd13ifvqfi0","pricing_plan_id":"cebpf4jnsgd1na2vs0mg"},{"bike_id":"21038575-7654-4d5f-8e9d-ad563f28560c","system_id":"levelo_inurba_marseille","lat":43.28416,"lon":5.34995,"is_reserved":false,"is_disabled":false,"rental_uris":{"android":"levelo://app?vid=21038575-7654-4d5f-8e9d-ad563f28560c","ios":"levelo://app?vid=21038575-7654-4d5f-8e9d-ad563f28560c"},"vehicle_type_id":"4","last_reported":1732633817,"current_range_meters":22000,"station_id":"ce4bhbh2rcd13ifvqepg","pricing_plan_id":"cebpf4jnsgd1na2vs0mg"},{"bike_id":"858b65e1-94fc-4151-a71e-8b168cb19dcb","system_id":"levelo_inurba_marseille","lat":43.32249,"lon":5.39241,"is_reserved":false,"is_disabled":true,"rental_uris":{"android":"levelo://app?vid=858b65e1-94fc-4151-a71e-8b168cb19dcb","ios":"levelo://app?vid=858b65e1-94fc-4151-a71e-8b168cb19dcb"},"vehicle_type_id":"4","last_reported":1732633817,"current_range_meters":0,"station_id":"","pricing_plan_id":"cebpf4jnsgd1na2vs0mg"},{"bike_id":"e51b2acb-d883-446b-9ce9-347608453ece","system_id":"levelo_inurba_marseille","lat":43.22927,"lon":5.35382,"is_reserved":false,"is_disabled":false,"rental_uris":{"android":"levelo://app?vid=e51b2acb-d883-446b-9ce9-347608453ece","ios":"levelo://app?vid=e51b2acb-d883-446b-9ce9-347608453ece"},"vehicle_type_id":"4","last_reported":1732633817,"current_range_meters":30400,"station_id":"cpo3532slgdg3j2ikp40","pricing_plan_id":"cebpf4jnsgd1na2vs0mg"},{"bike_id":"9e060173-516a-4db7-bba3-20010e494e02","system_id":"levelo_inurba_marseille","lat":43.28711,"lon":5.37946,"is_reserved":false,"is_disabled":false,"rental_uris":{"android":"levelo://app?vid=9e060173-516a-4db7-bba3-20010e494e02","ios":"levelo://app?vid=9e060173-516a-4db7-bba3-20010e494e02"},"vehicle_type_id":"4","last_reported":1732633817,"current_range_meters":38800,"station_id":"ce4bh9p2rcd13ifvqec0","pricing_plan_id":"cebpf4jnsgd1na2vs0mg"},{"bike_id":"4016ad81-8f94-400e-ad85-9b6e00ff6a9b","system_id":"levelo_inurba_marseille","lat":43.31079,"lon":5.42451,"is_reserved":false,"is_disabled":false,"rental_uris":{"android":"levelo://app?vid=4016ad81-8f94-400e-ad85-9b6e00ff6a9b","ios":"levelo://app?vid=4016ad81-8f94-400e-ad85-9b6e00ff6a9b"},"vehicle_type_id":"4","last_reported":1732633817,"current_range_meters":39200,"station_id":"ce4bhp92rcd13ifvqhag","pricing_plan_id":"cebpf4jnsgd1na2vs0mg"},{"bike_id":"e1d1ad7a-5434-4dda-b6d2-ffcf929cbe92","system_id":"levelo_inurba_marseille","lat":43.28407,"lon":5.37518,"is_reserved":false,"is_disabled":false,"rental_uris":{"android":"levelo://app?vid=e1d1ad7a-5434-4dda-b6d2-ffcf929cbe92","ios":"levelo://app?vid=e1d1ad7a-5434-4dda-b6d2-ffcf929cbe92"},"vehicle_type_id":"4","last_reported":1732633817,"current_range_meters":38400,"station_id":"ce4bh412rcd13ifvqds0","pricing_plan_id":"cebpf4jnsgd1na2vs0mg"},{"bike_id":"05962b63-5574-42d1-b10f-5c6c031e1e1a","system_id":"levelo_inurba_marseille","lat":43.26202,"lon":5.37925,"is_reserved":false,"is_disabled":false,"rental_uris":{"android":"levelo://app?vid=05962b63-5574-42d1-b10f-5c6c031e1e1a","ios":"levelo://app?vid=05962b63-5574-42d1-b10f-5c6c031e1e1a"},"vehicle_type_id":"4","last_reported":1732633817,"current_range_meters":38400,"station_id":"ce4bhjp2rcd13ifvqg90","pricing_plan_id":"cebpf4jnsgd1na2vs0mg"},{"bike_id":"bf931dd5-f51c-4e08-a215-d4b67ea18d16","system_id":"levelo_inurba_marseille","lat":43.27376,"lon":5.3626,"is_reserved":false,"is_disabled":false,"rental_uris":{"android":"levelo://app?vid=bf931dd5-f51c-4e08-a215-d4b67ea18d16","ios":"levelo://app?vid=bf931dd5-f51c-4e08-a215-d4b67ea18d16"},"vehicle_type_id":"4","last_reported":1732633817,"current_range_meters":26000,"station_id":"ce4bhbh2rcd13ifvqeo0","pricing_plan_id":"cebpf4jnsgd1na2vs0mg"},{"bike_id":"05651297-e91d-438c-b796-eafad3c3259d","system_id":"levelo_inurba_marseille","lat":43.33611,"lon":5.41034,"is_reserved":false,"is_disabled":false,"rental_uris":{"android":"levelo://app?vid=05651297-e91d-438c-b796-eafad3c3259d","ios":"levelo://app?vid=05651297-e91d-438c-b796-eafad3c3259d"},"vehicle_type_id":"4","last_reported":1732633817,"current_range_meters":27200,"station_id":"ce4bhqh2rcd13ifvqhmg","pricing_plan_id":"cebpf4jnsgd1na2vs0mg"},{"bike_id":"e56684af-a751-4c04-bbbf-8c304207b3ae","system_id":"levelo_inurba_marseille","lat":43.23202,"lon":5.35575,"is_reserved":false,"is_disabled":false,"rental_uris":{"android":"levelo://app?vid=e56684af-a751-4c04-bbbf-8c304207b3ae","ios":"levelo://app?vid=e56684af-a751-4c04-bbbf-8c304207b3ae"},"vehicle_type_id":"4","last_reported":1732633817,"current_range_meters":38800,"station_id":"ce4bhu92rcd13ifvqi70","pricing_plan_id":"cebpf4jnsgd1na2vs0mg"},{"bike_id":"3bd4e758-1aa1-43e4-bf3f-c7c2dd799e60","system_id":"levelo_inurba_marseille","lat":43.23142,"lon":5.43738,"is_reserved":false,"is_disabled":false,"rental_uris":{"android":"levelo://app?vid=3bd4e758-1aa1-43e4-bf3f-c7c2dd799e60","ios":"levelo://app?vid=3bd4e758-1aa1-43e4-bf3f-c7c2dd799e60"},"vehicle_type_id":"4","last_reported":1732633817,"current_range_meters":38000,"station_id":"ce4bhmp2rcd13ifvqgog","pricing_plan_id":"cebpf4jnsgd1na2vs0mg"},{"bike_id":"bb4a47ae-6e45-4b6b-a736-e2a9fe40cb4a","system_id":"levelo_inurba_marseille","lat":43.24804,"lon":5.37463,"is_reserved":false,"is_disabled":false,"rental_uris":{"android":"levelo://app?vid=bb4a47ae-6e45-4b6b-a736-e2a9fe40cb4a","ios":"levelo://app?vid=bb4a47ae-6e45-4b6b-a736-e2a9fe40cb4a"},"vehicle_type_id":"4","last_reported":1732633817,"current_range_meters":24800,"station_id":"ce4bhgh2rcd13ifvqfb0","pricing_plan_id":"cebpf4jnsgd1na2vs0mg"},{"bike_id":"f7f3756c-1ec7-4782-9c87-6273f87b6774","system_id":"levelo_inurba_marseille","lat":43.337444,"lon":5.374475,"is_reserved":false,"is_disabled":true,"rental_uris":{"android":"levelo://app?vid=f7f3756c-1ec7-4782-9c87-6273f87b6774","ios":"levelo://app?vid=f7f3756c-1ec7-4782-9c87-6273f87b6774"},"vehicle_type_id":"4","last_reported":1732633817,"current_range_meters":19200,"station_id":"","pricing_plan_id":"cebpf4jnsgd1na2vs0mg"},{"bike_id":"0fc724ac-45c6-4b8d-82c9-3032057c18e3","system_id":"levelo_inurba_marseille","lat":43.28616,"lon":5.37058,"is_reserved":false,"is_disabled":false,"rental_uris":{"android":"levelo://app?vid=0fc724ac-45c6-4b8d-82c9-3032057c18e3","ios":"levelo://app?vid=0fc724ac-45c6-4b8d-82c9-3032057c18e3"},"vehicle_type_id":"4","last_reported":1732633817,"current_range_meters":38000,"station_id":"ce4bht12rcd13ifvqi60","pricing_plan_id":"cebpf4jnsgd1na2vs0mg"},{"bike_id":"2d0017c1-26be-4777-84ac-b8d23aaad58d","system_id":"levelo_inurba_marseille","lat":43.26572,"lon":5.39015,"is_reserved":false,"is_disabled":false,"rental_uris":{"android":"levelo://app?vid=2d0017c1-26be-4777-84ac-b8d23aaad58d","ios":"levelo://app?vid=2d0017c1-26be-4777-84ac-b8d23aaad58d"},"vehicle_type_id":"4","last_reported":1732633817,"current_range_meters":6000,"station_id":"ce4bhe12rcd13ifvqf30","pricing_plan_id":"cebpf4jnsgd1na2vs0mg"},{"bike_id":"32694ca7-9b11-4d4e-8c9d-835c92696d05","system_id":"levelo_inurba_marseille","lat":43.29714,"lon":5.36601,"is_reserved":false,"is_disabled":false,"rental_uris":{"android":"levelo://app?vid=32694ca7-9b11-4d4e-8c9d-835c92696d05","ios":"levelo://app?vid=32694ca7-9b11-4d4e-8c9d-835c92696d05"},"vehicle_type_id":"4","last_reported":1732633817,"current_range_meters":38800,"station_id":"ce4bgn12rcd13ifvqbt0","pricing_plan_id":"cebpf4jnsgd1na2vs0mg"},{"bike_id":"d2462cf7-e1ac-4b8e-8aa0-15958cf12a50","system_id":"levelo_inurba_marseille","lat":43.29292,"lon":5.40123,"is_reserved":false,"is_disabled":false,"rental_uris":{"android":"levelo://app?vid=d2462cf7-e1ac-4b8e-8aa0-15958cf12a50","ios":"levelo://app?vid=d2462cf7-e1ac-4b8e-8aa0-15958cf12a50"},"vehicle_type_id":"4","last_reported":1732633817,"current_range_meters":32000,"station_id":"ce4bh312rcd13ifvqdj0","pricing_plan_id":"cebpf4jnsgd1na2vs0mg"},{"bike_id":"4729558c-9e33-46b4-9f50-f6194b7c2f7f","system_id":"levelo_inurba_marseille","lat":43.29268,"lon":5.36848,"is_reserved":false,"is_disabled":false,"rental_uris":{"android":"levelo://app?vid=4729558c-9e33-46b4-9f50-f6194b7c2f7f","ios":"levelo://app?vid=4729558c-9e33-46b4-9f50-f6194b7c2f7f"},"vehicle_type_id":"4","last_reported":1732633817,"current_range_meters":36800,"station_id":"ce4bhbp2rcd13ifvqesg","pricing_plan_id":"cebpf4jnsgd1na2vs0mg"},{"bike_id":"dfba7dbd-3a8c-457c-ba09-176d0fadee26","system_id":"levelo_inurba_marseille","lat":43.28719,"lon":5.37938,"is_reserved":false,"is_disabled":false,"rental_uris":{"android":"levelo://app?vid=dfba7dbd-3a8c-457c-ba09-176d0fadee26","ios":"levelo://app?vid=dfba7dbd-3a8c-457c-ba09-176d0fadee26"},"vehicle_type_id":"4","last_reported":1732633817,"current_range_meters":39200,"station_id":"ce4bh9p2rcd13ifvqec0","pricing_plan_id":"cebpf4jnsgd1na2vs0mg"},{"bike_id":"f5658b6b-05db-4270-b5a2-b12a283db2c3","system_id":"levelo_inurba_marseille","lat":43.32297,"lon":5.38298,"is_reserved":false,"is_disabled":false,"rental_uris":{"android":"levelo://app?vid=f5658b6b-05db-4270-b5a2-b12a283db2c3","ios":"levelo://app?vid=f5658b6b-05db-4270-b5a2-b12a283db2c3"},"vehicle_type_id":"4","last_reported":1732633817,"current_range_meters":38800,"station_id":"ce4bhr12rcd13ifvqhqg","pricing_plan_id":"cebpf4jnsgd1na2vs0mg"},{"bike_id":"33411be9-8583-420f-b647-b40e5a90aaa7","system_id":"levelo_inurba_marseille","lat":43.2558,"lon":5.38237,"is_reserved":false,"is_disabled":false,"rental_uris":{"android":"levelo://app?vid=33411be9-8583-420f-b647-b40e5a90aaa7","ios":"levelo://app?vid=33411be9-8583-420f-b647-b40e5a90aaa7"},"vehicle_type_id":"4","last_reported":1732633817,"current_range_meters":4400,"station_id":"ce4bhih2rcd13ifvqfs0","pricing_plan_id":"cebpf4jnsgd1na2vs0mg"},{"bike_id":"1f805567-48da-46fb-8cbb-cb09cc17ccfc","system_id":"levelo_inurba_marseille","lat":43.23963,"lon":5.3664,"is_reserved":false,"is_disabled":false,"rental_uris":{"android":"levelo://app?vid=1f805567-48da-46fb-8cbb-cb09cc17ccfc","ios":"levelo://app?vid=1f805567-48da-46fb-8cbb-cb09cc17ccfc"},"vehicle_type_id":"4","last_reported":1732633817,"current_range_meters":24400,"station_id":"ce4bhi12rcd13ifvqfp0","pricing_plan_id":"cebpf4jnsgd1na2vs0mg"},{"bike_id":"a5909545-3e09-4859-9fda-9ffe4e6e4883","system_id":"levelo_inurba_marseille","lat":43.23065,"lon":5.35491,"is_reserved":false,"is_disabled":false,"rental_uris":{"android":"levelo://app?vid=a5909545-3e09-4859-9fda-9ffe4e6e4883","ios":"levelo://app?vid=a5909545-3e09-4859-9fda-9ffe4e6e4883"},"vehicle_type_id":"4","last_reported":1732633817,"current_range_meters":31200,"station_id":"cpo3342slgdg3j2ifvpg","pricing_plan_id":"cebpf4jnsgd1na2vs0mg"},{"bike_id":"554b24b6-201d-4a99-92ce-87fea6282a5f","system_id":"levelo_inurba_marseille","lat":43.28495,"lon":5.38585,"is_reserved":false,"is_disabled":false,"rental_uris":{"android":"levelo://app?vid=554b24b6-201d-4a99-92ce-87fea6282a5f","ios":"levelo://app?vid=554b24b6-201d-4a99-92ce-87fea6282a5f"},"vehicle_type_id":"4","last_reported":1732633817,"current_range_meters":20400,"station_id":"ce4bh8p2rcd13ifvqeb0","pricing_plan_id":"cebpf4jnsgd1na2vs0mg"},{"bike_id":"b50dc91b-c137-48ea-93e1-d453609537ef","system_id":"levelo_inurba_marseille","lat":43.31999,"lon":5.3814,"is_reserved":false,"is_disabled":false,"rental_uris":{"android":"levelo://app?vid=b50dc91b-c137-48ea-93e1-d453609537ef","ios":"levelo://app?vid=b50dc91b-c137-48ea-93e1-d453609537ef"},"vehicle_type_id":"4","last_reported":1732633817,"current_range_meters":10000,"station_id":"ce4bhr12rcd13ifvqhpg","pricing_plan_id":"cebpf4jnsgd1na2vs0mg"},{"bike_id":"8b855d86-2674-4484-ad52-bb485bad7ee1","system_id":"levelo_inurba_marseille","lat":43.3054,"lon":5.36542,"is_reserved":false,"is_disabled":false,"rental_uris":{"android":"levelo://app?vid=8b855d86-2674-4484-ad52-bb485bad7ee1","ios":"levelo://app?vid=8b855d86-2674-4484-ad52-bb485bad7ee1"},"vehicle_type_id":"4","last_reported":1732633817,"current_range_meters":30400,"station_id":"ce4bgs12rcd13ifvqcag","pricing_plan_id":"cebpf4jnsgd1na2vs0mg"},{"bike_id":"7415a496-7569-4efa-ae4e-2ea0560918c0","system_id":"levelo_inurba_marseille","lat":43.28028,"lon":5.36945,"is_reserved":false,"is_disabled":false,"rental_uris":{"android":"levelo://app?vid=7415a496-7569-4efa-ae4e-2ea0560918c0","ios":"levelo://app?vid=7415a496-7569-4efa-ae4e-2ea0560918c0"},"vehicle_type_id":"4","last_reported":1732633817,"current_range_meters":37600,"station_id":"ce4bha12rcd13ifvqef0","pricing_plan_id":"cebpf4jnsgd1na2vs0mg"},{"bike_id":"deba6ea1-ee4e-42a1-8d50-93aa6f4cc1f6","system_id":"levelo_inurba_marseille","lat":43.2953,"lon":5.37511,"is_reserved":false,"is_disabled":false,"rental_uris":{"android":"levelo://app?vid=deba6ea1-ee4e-42a1-8d50-93aa6f4cc1f6","ios":"levelo://app?vid=deba6ea1-ee4e-42a1-8d50-93aa6f4cc1f6"},"vehicle_type_id":"4","last_reported":1732633817,"current_range_meters":36000,"station_id":"ce4bgkp2rcd13ifvqbmg","pricing_plan_id":"cebpf4jnsgd1na2vs0mg"},{"bike_id":"e5951ee3-4a5a-4ebb-b469-096c5188dfa3","system_id":"levelo_inurba_marseille","lat":43.23198,"lon":5.35565,"is_reserved":false,"is_disabled":false,"rental_uris":{"android":"levelo://app?vid=e5951ee3-4a5a-4ebb-b469-096c5188dfa3","ios":"levelo://app?vid=e5951ee3-4a5a-4ebb-b469-096c5188dfa3"},"vehicle_type_id":"4","last_reported":1732633817,"current_range_meters":36400,"station_id":"ce4bhu92rcd13ifvqi70","pricing_plan_id":"cebpf4jnsgd1na2vs0mg"},{"bike_id":"fb2781ed-3673-4ac7-84c7-a67f6c83090a","system_id":"levelo_inurba_marseille","lat":43.29592,"lon":5.38103,"is_reserved":false,"is_disabled":false,"rental_uris":{"android":"levelo://app?vid=fb2781ed-3673-4ac7-84c7-a67f6c83090a","ios":"levelo://app?vid=fb2781ed-3673-4ac7-84c7-a67f6c83090a"},"vehicle_type_id":"4","last_reported":1732633817,"current_range_meters":14000,"station_id":"ce4bgl12rcd13ifvqbo0","pricing_plan_id":"cebpf4jnsgd1na2vs0mg"},{"bike_id":"3379f44f-c07d-4ec3-b622-4c7ff9c0b74e","system_id":"levelo_inurba_marseille","lat":43.23197,"lon":5.35556,"is_reserved":false,"is_disabled":false,"rental_uris":{"android":"levelo://app?vid=3379f44f-c07d-4ec3-b622-4c7ff9c0b74e","ios":"levelo://app?vid=3379f44f-c07d-4ec3-b622-4c7ff9c0b74e"},"vehicle_type_id":"4","last_reported":1732633817,"current_range_meters":9600,"station_id":"ce4bhu92rcd13ifvqi70","pricing_plan_id":"cebpf4jnsgd1na2vs0mg"},{"bike_id":"6c948e9c-d5b3-4fe5-a918-1bd2f7c83b02","system_id":"levelo_inurba_marseille","lat":43.32117,"lon":5.36773,"is_reserved":false,"is_disabled":false,"rental_uris":{"android":"levelo://app?vid=6c948e9c-d5b3-4fe5-a918-1bd2f7c83b02","ios":"levelo://app?vid=6c948e9c-d5b3-4fe5-a918-1bd2f7c83b02"},"vehicle_type_id":"4","last_reported":1732633817,"current_range_meters":18000,"station_id":"ce4bhrh2rcd13ifvqhug","pricing_plan_id":"cebpf4jnsgd1na2vs0mg"},{"bike_id":"9e620abf-d324-4f99-84fc-d67e71109f2a","system_id":"levelo_inurba_marseille","lat":43.31077,"lon":5.42435,"is_reserved":false,"is_disabled":true,"rental_uris":{"android":"levelo://app?vid=9e620abf-d324-4f99-84fc-d67e71109f2a","ios":"levelo://app?vid=9e620abf-d324-4f99-84fc-d67e71109f2a"},"vehicle_type_id":"4","last_reported":1732633817,"current_range_meters":0,"station_id":"ce4bhp92rcd13ifvqhag","pricing_plan_id":"cebpf4jnsgd1na2vs0mg"},{"bike_id":"311c22a9-d002-4f76-a390-2ec196f39862","system_id":"levelo_inurba_marseille","lat":43.31025,"lon":5.38342,"is_reserved":false,"is_disabled":true,"rental_uris":{"android":"levelo://app?vid=311c22a9-d002-4f76-a390-2ec196f39862","ios":"levelo://app?vid=311c22a9-d002-4f76-a390-2ec196f39862"},"vehicle_type_id":"4","last_reported":1732633817,"current_range_meters":0,"station_id":"","pricing_plan_id":"cebpf4jnsgd1na2vs0mg"},{"bike_id":"9448dd07-b8f3-4ecf-ad04-f94974afaa23","system_id":"levelo_inurba_marseille","lat":43.30891,"lon":5.39633,"is_reserved":false,"is_disabled":false,"rental_uris":{"android":"levelo://app?vid=9448dd07-b8f3-4ecf-ad04-f94974afaa23","ios":"levelo://app?vid=9448dd07-b8f3-4ecf-ad04-f94974afaa23"},"vehicle_type_id":"4","last_reported":1732633817,"current_range_meters":37600,"station_id":"ce4bh012rcd13ifvqcv0","pricing_plan_id":"cebpf4jnsgd1na2vs0mg"},{"bike_id":"b0682353-d353-4d8b-8dee-b1dc5b1d7d06","system_id":"levelo_inurba_marseille","lat":43.29958,"lon":5.38507,"is_reserved":false,"is_disabled":false,"rental_uris":{"android":"levelo://app?vid=b0682353-d353-4d8b-8dee-b1dc5b1d7d06","ios":"levelo://app?vid=b0682353-d353-4d8b-8dee-b1dc5b1d7d06"},"vehicle_type_id":"4","last_reported":1732633817,"current_range_meters":12800,"station_id":"ce4bgj92rcd13ifvqbd0","pricing_plan_id":"cebpf4jnsgd1na2vs0mg"},{"bike_id":"107d1553-1acc-4f17-8626-ef661be3ffd9","system_id":"levelo_inurba_marseille","lat":43.27943,"lon":5.38732,"is_reserved":false,"is_disabled":false,"rental_uris":{"android":"levelo://app?vid=107d1553-1acc-4f17-8626-ef661be3ffd9","ios":"levelo://app?vid=107d1553-1acc-4f17-8626-ef661be3ffd9"},"vehicle_type_id":"4","last_reported":1732633817,"current_range_meters":29600,"station_id":"ce4bhg12rcd13ifvqf80","pricing_plan_id":"cebpf4jnsgd1na2vs0mg"},{"bike_id":"df5cd0b5-e14a-4a05-9aa5-552dde252043","system_id":"levelo_inurba_marseille","lat":43.26576,"lon":5.39013,"is_reserved":false,"is_disabled":false,"rental_uris":{"android":"levelo://app?vid=df5cd0b5-e14a-4a05-9aa5-552dde252043","ios":"levelo://app?vid=df5cd0b5-e14a-4a05-9aa5-552dde252043"},"vehicle_type_id":"4","last_reported":1732633817,"current_range_meters":30800,"station_id":"ce4bhe12rcd13ifvqf30","pricing_plan_id":"cebpf4jnsgd1na2vs0mg"},{"bike_id":"5c53cfbd-2547-413a-b79a-f8cc3b1ca992","system_id":"levelo_inurba_marseille","lat":43.32115,"lon":5.36774,"is_reserved":false,"is_disabled":false,"rental_uris":{"android":"levelo://app?vid=5c53cfbd-2547-413a-b79a-f8cc3b1ca992","ios":"levelo://app?vid=5c53cfbd-2547-413a-b79a-f8cc3b1ca992"},"vehicle_type_id":"4","last_reported":1732633817,"current_range_meters":31200,"station_id":"ce4bhrh2rcd13ifvqhug","pricing_plan_id":"cebpf4jnsgd1na2vs0mg"},{"bike_id":"a42119cb-2889-43e2-aa4f-9707a87e3e28","system_id":"levelo_inurba_marseille","lat":43.24643,"lon":5.38919,"is_reserved":false,"is_disabled":false,"rental_uris":{"android":"levelo://app?vid=a42119cb-2889-43e2-aa4f-9707a87e3e28","ios":"levelo://app?vid=a42119cb-2889-43e2-aa4f-9707a87e3e28"},"vehicle_type_id":"4","last_reported":1732633817,"current_range_meters":32800,"station_id":"ce4bhg12rcd13ifvqf60","pricing_plan_id":"cebpf4jnsgd1na2vs0mg"},{"bike_id":"50889a47-8c2f-456a-ae41-575059ec92f6","system_id":"levelo_inurba_marseille","lat":43.25116,"lon":5.40323,"is_reserved":false,"is_disabled":false,"rental_uris":{"android":"levelo://app?vid=50889a47-8c2f-456a-ae41-575059ec92f6","ios":"levelo://app?vid=50889a47-8c2f-456a-ae41-575059ec92f6"},"vehicle_type_id":"4","last_reported":1732633817,"current_range_meters":7200,"station_id":"ce4bhlh2rcd13ifvqgig","pricing_plan_id":"cebpf4jnsgd1na2vs0mg"},{"bike_id":"d4bfcfd7-33e3-4a5b-8f7e-3321f76a7702","system_id":"levelo_inurba_marseille","lat":43.25578,"lon":5.38235,"is_reserved":false,"is_disabled":true,"rental_uris":{"android":"levelo://app?vid=d4bfcfd7-33e3-4a5b-8f7e-3321f76a7702","ios":"levelo://app?vid=d4bfcfd7-33e3-4a5b-8f7e-3321f76a7702"},"vehicle_type_id":"4","last_reported":1732633817,"current_range_meters":400,"station_id":"ce4bhih2rcd13ifvqfs0","pricing_plan_id":"cebpf4jnsgd1na2vs0mg"},{"bike_id":"ebc18241-6fe8-49c5-b90e-83937a48ffa5","system_id":"levelo_inurba_marseille","lat":43.28717,"lon":5.37937,"is_reserved":false,"is_disabled":false,"rental_uris":{"android":"levelo://app?vid=ebc18241-6fe8-49c5-b90e-83937a48ffa5","ios":"levelo://app?vid=ebc18241-6fe8-49c5-b90e-83937a48ffa5"},"vehicle_type_id":"4","last_reported":1732633817,"current_range_meters":38800,"station_id":"ce4bh9p2rcd13ifvqec0","pricing_plan_id":"cebpf4jnsgd1na2vs0mg"},{"bike_id":"59342d3f-bbb1-4489-aa72-0ffab505f59f","system_id":"levelo_inurba_marseille","lat":43.26489,"lon":5.39553,"is_reserved":false,"is_disabled":false,"rental_uris":{"android":"levelo://app?vid=59342d3f-bbb1-4489-aa72-0ffab505f59f","ios":"levelo://app?vid=59342d3f-bbb1-4489-aa72-0ffab505f59f"},"vehicle_type_id":"4","last_reported":1732633817,"current_range_meters":38800,"station_id":"ce4bhi12rcd13ifvqfq0","pricing_plan_id":"cebpf4jnsgd1na2vs0mg"},{"bike_id":"df773dc5-a184-4ebc-8085-dd9989ab64f4","system_id":"levelo_inurba_marseille","lat":43.23961,"lon":5.36642,"is_reserved":false,"is_disabled":false,"rental_uris":{"android":"levelo://app?vid=df773dc5-a184-4ebc-8085-dd9989ab64f4","ios":"levelo://app?vid=df773dc5-a184-4ebc-8085-dd9989ab64f4"},"vehicle_type_id":"4","last_reported":1732633817,"current_range_meters":5600,"station_id":"ce4bhi12rcd13ifvqfp0","pricing_plan_id":"cebpf4jnsgd1na2vs0mg"},{"bike_id":"66a20b70-8dfa-49c8-8562-6b00159c6a25","system_id":"levelo_inurba_marseille","lat":43.27964,"lon":5.38754,"is_reserved":false,"is_disabled":true,"rental_uris":{"android":"levelo://app?vid=66a20b70-8dfa-49c8-8562-6b00159c6a25","ios":"levelo://app?vid=66a20b70-8dfa-49c8-8562-6b00159c6a25"},"vehicle_type_id":"4","last_reported":1732633817,"current_range_meters":1200,"station_id":"ce4bhg12rcd13ifvqf80","pricing_plan_id":"cebpf4jnsgd1na2vs0mg"},{"bike_id":"276c8eac-f26f-4d52-8494-1e5f39f12889","system_id":"levelo_inurba_marseille","lat":43.2558,"lon":5.3824,"is_reserved":false,"is_disabled":true,"rental_uris":{"android":"levelo://app?vid=276c8eac-f26f-4d52-8494-1e5f39f12889","ios":"levelo://app?vid=276c8eac-f26f-4d52-8494-1e5f39f12889"},"vehicle_type_id":"4","last_reported":1732633817,"current_range_meters":0,"station_id":"ce4bhih2rcd13ifvqfs0","pricing_plan_id":"cebpf4jnsgd1na2vs0mg"},{"bike_id":"8eeb8d10-d439-4383-83f9-0c746b9f6b8d","system_id":"levelo_inurba_marseille","lat":43.2799,"lon":5.41659,"is_reserved":false,"is_disabled":false,"rental_uris":{"android":"levelo://app?vid=8eeb8d10-d439-4383-83f9-0c746b9f6b8d","ios":"levelo://app?vid=8eeb8d10-d439-4383-83f9-0c746b9f6b8d"},"vehicle_type_id":"4","last_reported":1732633817,"current_range_meters":25600,"station_id":"ce4bho12rcd13ifvqh1g","pricing_plan_id":"cebpf4jnsgd1na2vs0mg"},{"bike_id":"cb7901b7-c174-4223-b92b-8be1e6962981","system_id":"levelo_inurba_marseille","lat":43.27378,"lon":5.36259,"is_reserved":false,"is_disabled":false,"rental_uris":{"android":"levelo://app?vid=cb7901b7-c174-4223-b92b-8be1e6962981","ios":"levelo://app?vid=cb7901b7-c174-4223-b92b-8be1e6962981"},"vehicle_type_id":"4","last_reported":1732633817,"current_range_meters":29600,"station_id":"ce4bhbh2rcd13ifvqeo0","pricing_plan_id":"cebpf4jnsgd1na2vs0mg"},{"bike_id":"40c7ddb8-0e1a-4eb1-9e2f-d3bf1a0f9d1e","system_id":"levelo_inurba_marseille","lat":43.28267,"lon":5.35074,"is_reserved":false,"is_disabled":false,"rental_uris":{"android":"levelo://app?vid=40c7ddb8-0e1a-4eb1-9e2f-d3bf1a0f9d1e","ios":"levelo://app?vid=40c7ddb8-0e1a-4eb1-9e2f-d3bf1a0f9d1e"},"vehicle_type_id":"4","last_reported":1732633817,"current_range_meters":19600,"station_id":"ce4bhbp2rcd13ifvqerg","pricing_plan_id":"cebpf4jnsgd1na2vs0mg"},{"bike_id":"43746d86-8a13-4845-9faf-ae69b548d714","system_id":"levelo_inurba_marseille","lat":43.29459,"lon":5.37917,"is_reserved":false,"is_disabled":true,"rental_uris":{"android":"levelo://app?vid=43746d86-8a13-4845-9faf-ae69b548d714","ios":"levelo://app?vid=43746d86-8a13-4845-9faf-ae69b548d714"},"vehicle_type_id":"4","last_reported":1732633817,"current_range_meters":0,"station_id":"","pricing_plan_id":"cebpf4jnsgd1na2vs0mg"},{"bike_id":"e6a98e09-efc5-4507-9fb0-a56012aa8712","system_id":"levelo_inurba_marseille","lat":43.28152,"lon":5.42652,"is_reserved":false,"is_disabled":true,"rental_uris":{"android":"levelo://app?vid=e6a98e09-efc5-4507-9fb0-a56012aa8712","ios":"levelo://app?vid=e6a98e09-efc5-4507-9fb0-a56012aa8712"},"vehicle_type_id":"4","last_reported":1732633817,"current_range_meters":0,"station_id":"ce4bhnh2rcd13ifvqgug","pricing_plan_id":"cebpf4jnsgd1na2vs0mg"},{"bike_id":"df76b7bf-b879-4e94-9796-439ee296ef0a","system_id":"levelo_inurba_marseille","lat":43.22932,"lon":5.35379,"is_reserved":false,"is_disabled":false,"rental_uris":{"android":"levelo://app?vid=df76b7bf-b879-4e94-9796-439ee296ef0a","ios":"levelo://app?vid=df76b7bf-b879-4e94-9796-439ee296ef0a"},"vehicle_type_id":"4","last_reported":1732633817,"current_range_meters":4000,"station_id":"cpo3532slgdg3j2ikp40","pricing_plan_id":"cebpf4jnsgd1na2vs0mg"},{"bike_id":"a7c299b4-2395-4301-aedf-c10ea7bdcf3e","system_id":"levelo_inurba_marseille","lat":43.27828,"lon":5.39215,"is_reserved":false,"is_disabled":false,"rental_uris":{"android":"levelo://app?vid=a7c299b4-2395-4301-aedf-c10ea7bdcf3e","ios":"levelo://app?vid=a7c299b4-2395-4301-aedf-c10ea7bdcf3e"},"vehicle_type_id":"4","last_reported":1732633817,"current_range_meters":24800,"station_id":"ce4bhjp2rcd13ifvqga0","pricing_plan_id":"cebpf4jnsgd1na2vs0mg"},{"bike_id":"f971abee-70f8-43dc-afe4-4050ccc8c3f7","system_id":"levelo_inurba_marseille","lat":43.25872,"lon":5.39925,"is_reserved":false,"is_disabled":true,"rental_uris":{"android":"levelo://app?vid=f971abee-70f8-43dc-afe4-4050ccc8c3f7","ios":"levelo://app?vid=f971abee-70f8-43dc-afe4-4050ccc8c3f7"},"vehicle_type_id":"4","last_reported":1732633817,"current_range_meters":36400,"station_id":"ce4bhl92rcd13ifvqghg","pricing_plan_id":"cebpf4jnsgd1na2vs0mg"},{"bike_id":"93265b4a-cc16-4a03-b42b-bb4c46c23a67","system_id":"levelo_inurba_marseille","lat":43.2705,"lon":5.40263,"is_reserved":false,"is_disabled":false,"rental_uris":{"android":"levelo://app?vid=93265b4a-cc16-4a03-b42b-bb4c46c23a67","ios":"levelo://app?vid=93265b4a-cc16-4a03-b42b-bb4c46c23a67"},"vehicle_type_id":"4","last_reported":1732633817,"current_range_meters":36400,"station_id":"ce4bhk92rcd13ifvqgc0","pricing_plan_id":"cebpf4jnsgd1na2vs0mg"},{"bike_id":"5f125fd8-b5ec-4c8d-a5ef-19eee41649ae","system_id":"levelo_inurba_marseille","lat":43.30127,"lon":5.38779,"is_reserved":false,"is_disabled":true,"rental_uris":{"android":"levelo://app?vid=5f125fd8-b5ec-4c8d-a5ef-19eee41649ae","ios":"levelo://app?vid=5f125fd8-b5ec-4c8d-a5ef-19eee41649ae"},"vehicle_type_id":"4","last_reported":1732633817,"current_range_meters":0,"station_id":"ce4bghh2rcd13ifvqb60","pricing_plan_id":"cebpf4jnsgd1na2vs0mg"},{"bike_id":"3faf8b2f-845f-4fd3-8bc7-04d1158d9692","system_id":"levelo_inurba_marseille","lat":43.33025,"lon":5.39048,"is_reserved":false,"is_disabled":false,"rental_uris":{"android":"levelo://app?vid=3faf8b2f-845f-4fd3-8bc7-04d1158d9692","ios":"levelo://app?vid=3faf8b2f-845f-4fd3-8bc7-04d1158d9692"},"vehicle_type_id":"4","last_reported":1732633817,"current_range_meters":27600,"station_id":"ce4bhr92rcd13ifvqhrg","pricing_plan_id":"cebpf4jnsgd1na2vs0mg"},{"bike_id":"23838c9d-73ec-4e84-9d5f-f30816e60724","system_id":"levelo_inurba_marseille","lat":43.27814,"lon":5.40711,"is_reserved":false,"is_disabled":false,"rental_uris":{"android":"levelo://app?vid=23838c9d-73ec-4e84-9d5f-f30816e60724","ios":"levelo://app?vid=23838c9d-73ec-4e84-9d5f-f30816e60724"},"vehicle_type_id":"4","last_reported":1732633817,"current_range_meters":9200,"station_id":"ce4bhnh2rcd13ifvqgtg","pricing_plan_id":"cebpf4jnsgd1na2vs0mg"},{"bike_id":"ab65d1ae-9e0b-448e-9e2e-d8d167f97694","system_id":"levelo_inurba_marseille","lat":43.27214,"lon":5.39185,"is_reserved":false,"is_disabled":false,"rental_uris":{"android":"levelo://app?vid=ab65d1ae-9e0b-448e-9e2e-d8d167f97694","ios":"levelo://app?vid=ab65d1ae-9e0b-448e-9e2e-d8d167f97694"},"vehicle_type_id":"4","last_reported":1732633817,"current_range_meters":10000,"station_id":"ce4bhhp2rcd13ifvqfm0","pricing_plan_id":"cebpf4jnsgd1na2vs0mg"},{"bike_id":"a077a7bd-d44b-4ca0-96c1-49693516b3b4","system_id":"levelo_inurba_marseille","lat":43.3378,"lon":5.3743,"is_reserved":false,"is_disabled":false,"rental_uris":{"android":"levelo://app?vid=a077a7bd-d44b-4ca0-96c1-49693516b3b4","ios":"levelo://app?vid=a077a7bd-d44b-4ca0-96c1-49693516b3b4"},"vehicle_type_id":"4","last_reported":1732633817,"current_range_meters":38800,"station_id":"","pricing_plan_id":"cebpf4jnsgd1na2vs0mg"},{"bike_id":"e3a9ff25-e192-4aec-af57-758c56bd5f8b","system_id":"levelo_inurba_marseille","lat":43.26033,"lon":5.37548,"is_reserved":false,"is_disabled":false,"rental_uris":{"android":"levelo://app?vid=e3a9ff25-e192-4aec-af57-758c56bd5f8b","ios":"levelo://app?vid=e3a9ff25-e192-4aec-af57-758c56bd5f8b"},"vehicle_type_id":"4","last_reported":1732633817,"current_range_meters":24400,"station_id":"ce4bhgh2rcd13ifvqfa0","pricing_plan_id":"cebpf4jnsgd1na2vs0mg"},{"bike_id":"00e9e73e-463d-466a-863a-b0d95f9f524d","system_id":"levelo_inurba_marseille","lat":43.29636,"lon":5.40598,"is_reserved":false,"is_disabled":false,"rental_uris":{"android":"levelo://app?vid=00e9e73e-463d-466a-863a-b0d95f9f524d","ios":"levelo://app?vid=00e9e73e-463d-466a-863a-b0d95f9f524d"},"vehicle_type_id":"4","last_reported":1732633817,"current_range_meters":39200,"station_id":"ce4bh0h2rcd13ifvqd60","pricing_plan_id":"cebpf4jnsgd1na2vs0mg"},{"bike_id":"60366b91-dfba-451c-b2f1-0c2a18308bdf","system_id":"levelo_inurba_marseille","lat":43.22929,"lon":5.35378,"is_reserved":false,"is_disabled":false,"rental_uris":{"android":"levelo://app?vid=60366b91-dfba-451c-b2f1-0c2a18308bdf","ios":"levelo://app?vid=60366b91-dfba-451c-b2f1-0c2a18308bdf"},"vehicle_type_id":"4","last_reported":1732633817,"current_range_meters":39200,"station_id":"cpo3532slgdg3j2ikp40","pricing_plan_id":"cebpf4jnsgd1na2vs0mg"},{"bike_id":"9666ce30-5f2f-4332-a708-df17ba16a1d5","system_id":"levelo_inurba_marseille","lat":43.32474,"lon":5.36569,"is_reserved":false,"is_disabled":false,"rental_uris":{"android":"levelo://app?vid=9666ce30-5f2f-4332-a708-df17ba16a1d5","ios":"levelo://app?vid=9666ce30-5f2f-4332-a708-df17ba16a1d5"},"vehicle_type_id":"4","last_reported":1732633817,"current_range_meters":22800,"station_id":"ce4bhs12rcd13ifvqhvg","pricing_plan_id":"cebpf4jnsgd1na2vs0mg"},{"bike_id":"d9ef5ed5-65f4-4a4b-8dbb-274b0e908852","system_id":"levelo_inurba_marseille","lat":43.2417,"lon":5.36398,"is_reserved":false,"is_disabled":false,"rental_uris":{"android":"levelo://app?vid=d9ef5ed5-65f4-4a4b-8dbb-274b0e908852","ios":"levelo://app?vid=d9ef5ed5-65f4-4a4b-8dbb-274b0e908852"},"vehicle_type_id":"4","last_reported":1732633817,"current_range_meters":28800,"station_id":"cpo36qri1sfpv3e86is0","pricing_plan_id":"cebpf4jnsgd1na2vs0mg"},{"bike_id":"72d9cd47-be70-490b-82b8-7d3c21754334","system_id":"levelo_inurba_marseille","lat":43.24544,"lon":5.39524,"is_reserved":false,"is_disabled":false,"rental_uris":{"android":"levelo://app?vid=72d9cd47-be70-490b-82b8-7d3c21754334","ios":"levelo://app?vid=72d9cd47-be70-490b-82b8-7d3c21754334"},"vehicle_type_id":"4","last_reported":1732633817,"current_range_meters":12400,"station_id":"ce4bhlp2rcd13ifvqgjg","pricing_plan_id":"cebpf4jnsgd1na2vs0mg"},{"bike_id":"5637ffac-6061-4504-94a5-bbd993e9ac58","system_id":"levelo_inurba_marseille","lat":43.23192,"lon":5.35557,"is_reserved":false,"is_disabled":false,"rental_uris":{"android":"levelo://app?vid=5637ffac-6061-4504-94a5-bbd993e9ac58","ios":"levelo://app?vid=5637ffac-6061-4504-94a5-bbd993e9ac58"},"vehicle_type_id":"4","last_reported":1732633817,"current_range_meters":23200,"station_id":"ce4bhu92rcd13ifvqi70","pricing_plan_id":"cebpf4jnsgd1na2vs0mg"},{"bike_id":"d498a2e4-830c-4b49-aa93-4db145106d2d","system_id":"levelo_inurba_marseille","lat":43.28719,"lon":5.37943,"is_reserved":false,"is_disabled":false,"rental_uris":{"android":"levelo://app?vid=d498a2e4-830c-4b49-aa93-4db145106d2d","ios":"levelo://app?vid=d498a2e4-830c-4b49-aa93-4db145106d2d"},"vehicle_type_id":"4","last_reported":1732633817,"current_range_meters":39200,"station_id":"ce4bh9p2rcd13ifvqec0","pricing_plan_id":"cebpf4jnsgd1na2vs0mg"},{"bike_id":"3016533d-7c96-4fc8-8c45-ade8facdb0e1","system_id":"levelo_inurba_marseille","lat":43.30647,"lon":5.40083,"is_reserved":false,"is_disabled":true,"rental_uris":{"android":"levelo://app?vid=3016533d-7c96-4fc8-8c45-ade8facdb0e1","ios":"levelo://app?vid=3016533d-7c96-4fc8-8c45-ade8facdb0e1"},"vehicle_type_id":"4","last_reported":1732633817,"current_range_meters":0,"station_id":"ce4bh112rcd13ifvqda0","pricing_plan_id":"cebpf4jnsgd1na2vs0mg"},{"bike_id":"2450c4d3-c199-4cb4-bf3a-ca09f4e9351f","system_id":"levelo_inurba_marseille","lat":43.26065,"lon":5.394,"is_reserved":false,"is_disabled":false,"rental_uris":{"android":"levelo://app?vid=2450c4d3-c199-4cb4-bf3a-ca09f4e9351f","ios":"levelo://app?vid=2450c4d3-c199-4cb4-bf3a-ca09f4e9351f"},"vehicle_type_id":"4","last_reported":1732633817,"current_range_meters":16800,"station_id":"ce4bhh92rcd13ifvqfj0","pricing_plan_id":"cebpf4jnsgd1na2vs0mg"},{"bike_id":"bd65ef63-b11f-4434-94d0-b65a0721f25b","system_id":"levelo_inurba_marseille","lat":43.30416,"lon":5.41295,"is_reserved":false,"is_disabled":false,"rental_uris":{"android":"levelo://app?vid=bd65ef63-b11f-4434-94d0-b65a0721f25b","ios":"levelo://app?vid=bd65ef63-b11f-4434-94d0-b65a0721f25b"},"vehicle_type_id":"4","last_reported":1732633817,"current_range_meters":38800,"station_id":"ce4bhop2rcd13ifvqh8g","pricing_plan_id":"cebpf4jnsgd1na2vs0mg"},{"bike_id":"3a19d45d-a757-417c-b54e-92314bcfae61","system_id":"levelo_inurba_marseille","lat":43.26951,"lon":5.38627,"is_reserved":false,"is_disabled":true,"rental_uris":{"android":"levelo://app?vid=3a19d45d-a757-417c-b54e-92314bcfae61","ios":"levelo://app?vid=3a19d45d-a757-417c-b54e-92314bcfae61"},"vehicle_type_id":"4","last_reported":1732633817,"current_range_meters":0,"station_id":"ce4bhh92rcd13ifvqfh0","pricing_plan_id":"cebpf4jnsgd1na2vs0mg"},{"bike_id":"bae2ec97-0042-41b2-87b7-d0406344381e","system_id":"levelo_inurba_marseille","lat":43.24775,"lon":5.39252,"is_reserved":false,"is_disabled":false,"rental_uris":{"android":"levelo://app?vid=bae2ec97-0042-41b2-87b7-d0406344381e","ios":"levelo://app?vid=bae2ec97-0042-41b2-87b7-d0406344381e"},"vehicle_type_id":"4","last_reported":1732633817,"current_range_meters":7200,"station_id":"","pricing_plan_id":"cebpf4jnsgd1na2vs0mg"},{"bike_id":"12374fc7-5d05-4497-a57d-c04c009baf58","system_id":"levelo_inurba_marseille","lat":43.26042,"lon":5.37573,"is_reserved":false,"is_disabled":false,"rental_uris":{"android":"levelo://app?vid=12374fc7-5d05-4497-a57d-c04c009baf58","ios":"levelo://app?vid=12374fc7-5d05-4497-a57d-c04c009baf58"},"vehicle_type_id":"4","last_reported":1732633817,"current_range_meters":30800,"station_id":"ce4bhgh2rcd13ifvqfa0","pricing_plan_id":"cebpf4jnsgd1na2vs0mg"},{"bike_id":"781ea710-ac75-4a61-bb20-5db82b936630","system_id":"levelo_inurba_marseille","lat":43.29198,"lon":5.39322,"is_reserved":false,"is_disabled":false,"rental_uris":{"android":"levelo://app?vid=781ea710-ac75-4a61-bb20-5db82b936630","ios":"levelo://app?vid=781ea710-ac75-4a61-bb20-5db82b936630"},"vehicle_type_id":"4","last_reported":1732633817,"current_range_meters":32000,"station_id":"ce4bh192rcd13ifvqdd0","pricing_plan_id":"cebpf4jnsgd1na2vs0mg"},{"bike_id":"445a7b2b-960f-401b-be5e-d50cebe72426","system_id":"levelo_inurba_marseille","lat":43.29563,"lon":5.42283,"is_reserved":false,"is_disabled":false,"rental_uris":{"android":"levelo://app?vid=445a7b2b-960f-401b-be5e-d50cebe72426","ios":"levelo://app?vid=445a7b2b-960f-401b-be5e-d50cebe72426"},"vehicle_type_id":"4","last_reported":1732633817,"current_range_meters":39200,"station_id":"ce4bhph2rcd13ifvqhdg","pricing_plan_id":"cebpf4jnsgd1na2vs0mg"},{"bike_id":"dd771d3c-1bff-451c-9d0a-985d99bb56af","system_id":"levelo_inurba_marseille","lat":43.29587,"lon":5.36996,"is_reserved":false,"is_disabled":false,"rental_uris":{"android":"levelo://app?vid=dd771d3c-1bff-451c-9d0a-985d99bb56af","ios":"levelo://app?vid=dd771d3c-1bff-451c-9d0a-985d99bb56af"},"vehicle_type_id":"4","last_reported":1732633817,"current_range_meters":10000,"station_id":"","pricing_plan_id":"cebpf4jnsgd1na2vs0mg"},{"bike_id":"c3119d11-ef1f-44cf-b2d7-09e415adb754","system_id":"levelo_inurba_marseille","lat":43.28567,"lon":5.395,"is_reserved":false,"is_disabled":false,"rental_uris":{"android":"levelo://app?vid=c3119d11-ef1f-44cf-b2d7-09e415adb754","ios":"levelo://app?vid=c3119d11-ef1f-44cf-b2d7-09e415adb754"},"vehicle_type_id":"4","last_reported":1732633817,"current_range_meters":36800,"station_id":"ce4bh292rcd13ifvqdg0","pricing_plan_id":"cebpf4jnsgd1na2vs0mg"},{"bike_id":"0a4de191-1273-4605-b865-51dea3c93931","system_id":"levelo_inurba_marseille","lat":43.24806,"lon":5.3746,"is_reserved":false,"is_disabled":false,"rental_uris":{"android":"levelo://app?vid=0a4de191-1273-4605-b865-51dea3c93931","ios":"levelo://app?vid=0a4de191-1273-4605-b865-51dea3c93931"},"vehicle_type_id":"4","last_reported":1732633817,"current_range_meters":36800,"station_id":"ce4bhgh2rcd13ifvqfb0","pricing_plan_id":"cebpf4jnsgd1na2vs0mg"},{"bike_id":"5b739bbe-6641-42b7-8cd0-17d6fe1b99d1","system_id":"levelo_inurba_marseille","lat":43.26482,"lon":5.39557,"is_reserved":false,"is_disabled":true,"rental_uris":{"android":"levelo://app?vid=5b739bbe-6641-42b7-8cd0-17d6fe1b99d1","ios":"levelo://app?vid=5b739bbe-6641-42b7-8cd0-17d6fe1b99d1"},"vehicle_type_id":"4","last_reported":1732633817,"current_range_meters":0,"station_id":"ce4bhi12rcd13ifvqfq0","pricing_plan_id":"cebpf4jnsgd1na2vs0mg"},{"bike_id":"35721010-0501-4d23-9637-688c6912beae","system_id":"levelo_inurba_marseille","lat":43.26208,"lon":5.37442,"is_reserved":false,"is_disabled":false,"rental_uris":{"android":"levelo://app?vid=35721010-0501-4d23-9637-688c6912beae","ios":"levelo://app?vid=35721010-0501-4d23-9637-688c6912beae"},"vehicle_type_id":"4","last_reported":1732633817,"current_range_meters":36800,"station_id":"ce4bhgp2rcd13ifvqfc0","pricing_plan_id":"cebpf4jnsgd1na2vs0mg"},{"bike_id":"7e04bb67-c24d-44da-93e9-2e0567bf10fa","system_id":"levelo_inurba_marseille","lat":43.23152,"lon":5.43713,"is_reserved":false,"is_disabled":true,"rental_uris":{"android":"levelo://app?vid=7e04bb67-c24d-44da-93e9-2e0567bf10fa","ios":"levelo://app?vid=7e04bb67-c24d-44da-93e9-2e0567bf10fa"},"vehicle_type_id":"4","last_reported":1732633817,"current_range_meters":0,"station_id":"ce4bhmp2rcd13ifvqgog","pricing_plan_id":"cebpf4jnsgd1na2vs0mg"},{"bike_id":"9b288f25-0654-4f9d-a237-35d47e7e04a0","system_id":"levelo_inurba_marseille","lat":43.23159,"lon":5.43716,"is_reserved":false,"is_disabled":true,"rental_uris":{"android":"levelo://app?vid=9b288f25-0654-4f9d-a237-35d47e7e04a0","ios":"levelo://app?vid=9b288f25-0654-4f9d-a237-35d47e7e04a0"},"vehicle_type_id":"4","last_reported":1732633817,"current_range_meters":1600,"station_id":"ce4bhmp2rcd13ifvqgog","pricing_plan_id":"cebpf4jnsgd1na2vs0mg"},{"bike_id":"6db206cb-0668-4eaf-890a-70aa7c08dcaa","system_id":"levelo_inurba_marseille","lat":43.23186,"lon":5.39986,"is_reserved":false,"is_disabled":false,"rental_uris":{"android":"levelo://app?vid=6db206cb-0668-4eaf-890a-70aa7c08dcaa","ios":"levelo://app?vid=6db206cb-0668-4eaf-890a-70aa7c08dcaa"},"vehicle_type_id":"4","last_reported":1732633817,"current_range_meters":38800,"station_id":"ce4bhn12rcd13ifvqgqg","pricing_plan_id":"cebpf4jnsgd1na2vs0mg"},{"bike_id":"f4f66d6e-735b-465d-971e-77d387210f1a","system_id":"levelo_inurba_marseille","lat":43.27668,"lon":5.38895,"is_reserved":false,"is_disabled":false,"rental_uris":{"android":"levelo://app?vid=f4f66d6e-735b-465d-971e-77d387210f1a","ios":"levelo://app?vid=f4f66d6e-735b-465d-971e-77d387210f1a"},"vehicle_type_id":"4","last_reported":1732633817,"current_range_meters":38000,"station_id":"ce4bhi12rcd13ifvqfo0","pricing_plan_id":"cebpf4jnsgd1na2vs0mg"},{"bike_id":"193c572d-829a-4feb-96b2-9e682ad2ede5","system_id":"levelo_inurba_marseille","lat":43.28423,"lon":5.34986,"is_reserved":false,"is_disabled":false,"rental_uris":{"android":"levelo://app?vid=193c572d-829a-4feb-96b2-9e682ad2ede5","ios":"levelo://app?vid=193c572d-829a-4feb-96b2-9e682ad2ede5"},"vehicle_type_id":"4","last_reported":1732633817,"current_range_meters":26800,"station_id":"ce4bhbh2rcd13ifvqepg","pricing_plan_id":"cebpf4jnsgd1na2vs0mg"},{"bike_id":"e4395f26-4c0b-4bec-b10e-ec01132237c1","system_id":"levelo_inurba_marseille","lat":43.27171,"lon":5.410007,"is_reserved":false,"is_disabled":true,"rental_uris":{"android":"levelo://app?vid=e4395f26-4c0b-4bec-b10e-ec01132237c1","ios":"levelo://app?vid=e4395f26-4c0b-4bec-b10e-ec01132237c1"},"vehicle_type_id":"4","last_reported":1732633817,"current_range_meters":0,"station_id":"ce4bhl12rcd13ifvqgf0","pricing_plan_id":"cebpf4jnsgd1na2vs0mg"},{"bike_id":"2a1bd29f-8e03-4ada-aa4a-0e2f50851479","system_id":"levelo_inurba_marseille","lat":43.29967,"lon":5.38494,"is_reserved":false,"is_disabled":false,"rental_uris":{"android":"levelo://app?vid=2a1bd29f-8e03-4ada-aa4a-0e2f50851479","ios":"levelo://app?vid=2a1bd29f-8e03-4ada-aa4a-0e2f50851479"},"vehicle_type_id":"4","last_reported":1732633817,"current_range_meters":31200,"station_id":"ce4bgj92rcd13ifvqbd0","pricing_plan_id":"cebpf4jnsgd1na2vs0mg"},{"bike_id":"465bbde8-cd88-435a-8750-79cb5c2e3eec","system_id":"levelo_inurba_marseille","lat":43.28488,"lon":5.38424,"is_reserved":false,"is_disabled":false,"rental_uris":{"android":"levelo://app?vid=465bbde8-cd88-435a-8750-79cb5c2e3eec","ios":"levelo://app?vid=465bbde8-cd88-435a-8750-79cb5c2e3eec"},"vehicle_type_id":"4","last_reported":1732633817,"current_range_meters":31200,"station_id":"ce4bh512rcd13ifvqe3g","pricing_plan_id":"cebpf4jnsgd1na2vs0mg"},{"bike_id":"63eaf67d-9cc2-4fea-9df3-e96126502a0e","system_id":"levelo_inurba_marseille","lat":43.28961,"lon":5.37846,"is_reserved":false,"is_disabled":true,"rental_uris":{"android":"levelo://app?vid=63eaf67d-9cc2-4fea-9df3-e96126502a0e","ios":"levelo://app?vid=63eaf67d-9cc2-4fea-9df3-e96126502a0e"},"vehicle_type_id":"4","last_reported":1732633817,"current_range_meters":9600,"station_id":"ce4bh9p2rcd13ifvqed0","pricing_plan_id":"cebpf4jnsgd1na2vs0mg"},{"bike_id":"7fa2e0c4-93ef-4dd8-94bd-ece0f6fefe99","system_id":"levelo_inurba_marseille","lat":43.2315,"lon":5.43724,"is_reserved":false,"is_disabled":false,"rental_uris":{"android":"levelo://app?vid=7fa2e0c4-93ef-4dd8-94bd-ece0f6fefe99","ios":"levelo://app?vid=7fa2e0c4-93ef-4dd8-94bd-ece0f6fefe99"},