{"last_updated":1726672163,"ttl":30,"version":"2.2","data":{"bikes":[{"bike_id":"ede016f6-d038-4c5a-99ff-7781ad48ffd1","system_id":"levelo_inurba_marseille","lat":43.292572,"lon":5.409103,"is_reserved":false,"is_disabled":false,"rental_uris":{"android":"levelo://app?vid=ede016f6-d038-4c5a-99ff-7781ad48ffd1","ios":"levelo://app?vid=ede016f6-d038-4c5a-99ff-7781ad48ffd1"},"vehicle_type_id":"4","last_reported":1726672164,"current_range_meters":6400,"station_id":"ce4bh192rcd13ifvqdc0","pricing_plan_id":"cebpf4jnsgd1na2vs0mg"},{"bike_id":"ec790300-d6e7-4b7f-853b-f35e64b5136c","system_id":"levelo_inurba_marseille","lat":43.30526,"lon":5.36697,"is_reserved":false,"is_disabled":false,"rental_uris":{"android":"levelo://app?vid=ec790300-d6e7-4b7f-853b-f35e64b5136c","ios":"levelo://app?vid=ec790300-d6e7-4b7f-853b-f35e64b5136c"},"vehicle_type_id":"4","last_reported":1726672164,"current_range_meters":32000,"station_id":"ce4bgrp2rcd13ifvqc9g","pricing_plan_id":"cebpf4jnsgd1na2vs0mg"},{"bike_id":"d6568370-ef15-48c9-ba58-ef08492a1b83","system_id":"levelo_inurba_marseille","lat":43.30435,"lon":5.38888,"is_reserved":false,"is_disabled":false,"rental_uris":{"android":"levelo://app?vid=d6568370-ef15-48c9-ba58-ef08492a1b83","ios":"levelo://app?vid=d6568370-ef15-48c9-ba58-ef08492a1b83"},"vehicle_type_id":"4","last_reported":1726672164,"current_range_meters":8800,"station_id":"ce4bgk12rcd13ifvqbi0","pricing_plan_id":"cebpf4jnsgd1na2vs0mg"},{"bike_id":"445f3d15-a13c-47d2-8baa-985040f62021","system_id":"levelo_inurba_marseille","lat":43.31691,"lon":5.40464,"is_reserved":false,"is_disabled":false,"rental_uris":{"android":"levelo://app?vid=445f3d15-a13c-47d2-8baa-985040f62021","ios":"levelo://app?vid=445f3d15-a13c-47d2-8baa-985040f62021"},"vehicle_type_id":"4","last_reported":1726672164,"current_range_meters":38800,"station_id":"ce4bh012rcd13ifvqd00","pricing_plan_id":"cebpf4jnsgd1na2vs0mg"},{"bike_id":"43176770-eaee-4996-86c7-d408161e4ce6","system_id":"levelo_inurba_marseille","lat":43.29896,"lon":5.43665,"is_reserved":false,"is_disabled":false,"rental_uris":{"android":"levelo://app?vid=43176770-eaee-4996-86c7-d408161e4ce6","ios":"levelo://app?vid=43176770-eaee-4996-86c7-d408161e4ce6"},"vehicle_type_id":"4","last_reported":1726672164,"current_range_meters":36800,"station_id":"ce4bhpp2rcd13ifvqhfg","pricing_plan_id":"cebpf4jnsgd1na2vs0mg"},{"bike_id":"20c70ff1-83bb-45c5-b237-90af2dd12d30","system_id":"levelo_inurba_marseille","lat":43.27729,"lon":5.38844,"is_reserved":false,"is_disabled":false,"rental_uris":{"android":"levelo://app?vid=20c70ff1-83bb-45c5-b237-90af2dd12d30","ios":"levelo://app?vid=20c70ff1-83bb-45c5-b237-90af2dd12d30"},"vehicle_type_id":"4","last_reported":1726672164,"current_range_meters":36800,"station_id":"ce4bhi12rcd13ifvqfo0","pricing_plan_id":"cebpf4jnsgd1na2vs0mg"},{"bike_id":"76bfb786-f20d-4de3-a458-2b1658e1e7bf","system_id":"levelo_inurba_marseille","lat":43.30244,"lon":5.40043,"is_reserved":false,"is_disabled":false,"rental_uris":{"android":"levelo://app?vid=76bfb786-f20d-4de3-a458-2b1658e1e7bf","ios":"levelo://app?vid=76bfb786-f20d-4de3-a458-2b1658e1e7bf"},"vehicle_type_id":"4","last_reported":1726672164,"current_range_meters":24000,"station_id":"ce4bgvh2rcd13ifvqcs0","pricing_plan_id":"cebpf4jnsgd1na2vs0mg"},{"bike_id":"e532fd53-ad12-4848-82ea-70ac934c1c37","system_id":"levelo_inurba_marseille","lat":43.337444,"lon":5.374475,"is_reserved":false,"is_disabled":false,"rental_uris":{"android":"levelo://app?vid=e532fd53-ad12-4848-82ea-70ac934c1c37","ios":"levelo://app?vid=e532fd53-ad12-4848-82ea-70ac934c1c37"},"vehicle_type_id":"4","last_reported":1726672164,"current_range_meters":19600,"station_id":"","pricing_plan_id":"cebpf4jnsgd1na2vs0mg"},{"bike_id":"e7cace1f-0f06-43a1-af78-ff6f3d4a5106","system_id":"levelo_inurba_marseille","lat":43.299377,"lon":5.374442,"is_reserved":false,"is_disabled":false,"rental_uris":{"android":"levelo://app?vid=e7cace1f-0f06-43a1-af78-ff6f3d4a5106","ios":"levelo://app?vid=e7cace1f-0f06-43a1-af78-ff6f3d4a5106"},"vehicle_type_id":"4","last_reported":1726672164,"current_range_meters":17600,"station_id":"ce4bgjh2rcd13ifvqbg0","pricing_plan_id":"cebpf4jnsgd1na2vs0mg"},{"bike_id":"31ae5701-dc1a-42e4-a411-a38a2fdee89b","system_id":"levelo_inurba_marseille","lat":43.29425,"lon":5.38632,"is_reserved":false,"is_disabled":false,"rental_uris":{"android":"levelo://app?vid=31ae5701-dc1a-42e4-a411-a38a2fdee89b","ios":"levelo://app?vid=31ae5701-dc1a-42e4-a411-a38a2fdee89b"},"vehicle_type_id":"4","last_reported":1726672164,"current_range_meters":30800,"station_id":"ce4bh2h2rcd13ifvqdh0","pricing_plan_id":"cebpf4jnsgd1na2vs0mg"},{"bike_id":"4e871cbb-8554-40d4-8be2-dd07b4559d20","system_id":"levelo_inurba_marseille","lat":43.286127,"lon":5.35105,"is_reserved":false,"is_disabled":false,"rental_uris":{"android":"levelo://app?vid=4e871cbb-8554-40d4-8be2-dd07b4559d20","ios":"levelo://app?vid=4e871cbb-8554-40d4-8be2-dd07b4559d20"},"vehicle_type_id":"4","last_reported":1726672164,"current_range_meters":8000,"station_id":"ce4bhch2rcd13ifvqeug","pricing_plan_id":"cebpf4jnsgd1na2vs0mg"},{"bike_id":"0490972e-e7d7-4e08-8fbc-19f378d699b0","system_id":"levelo_inurba_marseille","lat":43.30949,"lon":5.39032,"is_reserved":false,"is_disabled":false,"rental_uris":{"android":"levelo://app?vid=0490972e-e7d7-4e08-8fbc-19f378d699b0","ios":"levelo://app?vid=0490972e-e7d7-4e08-8fbc-19f378d699b0"},"vehicle_type_id":"4","last_reported":1726672164,"current_range_meters":38800,"station_id":"ce4bgup2rcd13ifvqco0","pricing_plan_id":"cebpf4jnsgd1na2vs0mg"},{"bike_id":"632a89c9-7664-486d-8125-f8bd885d408c","system_id":"levelo_inurba_marseille","lat":43.2928,"lon":5.40121,"is_reserved":false,"is_disabled":false,"rental_uris":{"android":"levelo://app?vid=632a89c9-7664-486d-8125-f8bd885d408c","ios":"levelo://app?vid=632a89c9-7664-486d-8125-f8bd885d408c"},"vehicle_type_id":"4","last_reported":1726672164,"current_range_meters":37600,"station_id":"ce4bh0h2rcd13ifvqd40","pricing_plan_id":"cebpf4jnsgd1na2vs0mg"},{"bike_id":"1990f9ed-b0a9-4db5-8aa8-97b4d764c0af","system_id":"levelo_inurba_marseille","lat":43.26685,"lon":5.38273,"is_reserved":false,"is_disabled":false,"rental_uris":{"android":"levelo://app?vid=1990f9ed-b0a9-4db5-8aa8-97b4d764c0af","ios":"levelo://app?vid=1990f9ed-b0a9-4db5-8aa8-97b4d764c0af"},"vehicle_type_id":"4","last_reported":1726672164,"current_range_meters":38800,"station_id":"ce4bhg92rcd13ifvqf90","pricing_plan_id":"cebpf4jnsgd1na2vs0mg"},{"bike_id":"4a424482-fa0a-4432-aef5-200359362b78","system_id":"levelo_inurba_marseille","lat":43.30321,"lon":5.40443,"is_reserved":false,"is_disabled":false,"rental_uris":{"android":"levelo://app?vid=4a424482-fa0a-4432-aef5-200359362b78","ios":"levelo://app?vid=4a424482-fa0a-4432-aef5-200359362b78"},"vehicle_type_id":"4","last_reported":1726672164,"current_range_meters":22000,"station_id":"ce4bh012rcd13ifvqd10","pricing_plan_id":"cebpf4jnsgd1na2vs0mg"},{"bike_id":"103a716b-dbc7-4e49-a7f2-16e378e92b85","system_id":"levelo_inurba_marseille","lat":43.22927,"lon":5.35373,"is_reserved":false,"is_disabled":false,"rental_uris":{"android":"levelo://app?vid=103a716b-dbc7-4e49-a7f2-16e378e92b85","ios":"levelo://app?vid=103a716b-dbc7-4e49-a7f2-16e378e92b85"},"vehicle_type_id":"4","last_reported":1726672164,"current_range_meters":24800,"station_id":"cpo3532slgdg3j2ikp40","pricing_plan_id":"cebpf4jnsgd1na2vs0mg"},{"bike_id":"c8b16021-ad4f-4c1b-80b1-7d1b9c811227","system_id":"levelo_inurba_marseille","lat":43.32361,"lon":5.3888,"is_reserved":false,"is_disabled":false,"rental_uris":{"android":"levelo://app?vid=c8b16021-ad4f-4c1b-80b1-7d1b9c811227","ios":"levelo://app?vid=c8b16021-ad4f-4c1b-80b1-7d1b9c811227"},"vehicle_type_id":"4","last_reported":1726672164,"current_range_meters":9200,"station_id":"ce4bhqp2rcd13ifvqhog","pricing_plan_id":"cebpf4jnsgd1na2vs0mg"},{"bike_id":"b759fca4-62a4-455e-9add-560e51bb8523","system_id":"levelo_inurba_marseille","lat":43.26957,"lon":5.38631,"is_reserved":false,"is_disabled":false,"rental_uris":{"android":"levelo://app?vid=b759fca4-62a4-455e-9add-560e51bb8523","ios":"levelo://app?vid=b759fca4-62a4-455e-9add-560e51bb8523"},"vehicle_type_id":"4","last_reported":1726672164,"current_range_meters":36400,"station_id":"ce4bhh92rcd13ifvqfh0","pricing_plan_id":"cebpf4jnsgd1na2vs0mg"},{"bike_id":"734aa74e-b926-4042-9aab-1e80809573f6","system_id":"levelo_inurba_marseille","lat":43.28186,"lon":5.40497,"is_reserved":false,"is_disabled":false,"rental_uris":{"android":"levelo://app?vid=734aa74e-b926-4042-9aab-1e80809573f6","ios":"levelo://app?vid=734aa74e-b926-4042-9aab-1e80809573f6"},"vehicle_type_id":"4","last_reported":1726672164,"current_range_meters":27200,"station_id":"","pricing_plan_id":"cebpf4jnsgd1na2vs0mg"},{"bike_id":"506a28f7-0798-49e4-b38f-f0bb95dda86f","system_id":"levelo_inurba_marseille","lat":43.32487,"lon":5.36572,"is_reserved":false,"is_disabled":false,"rental_uris":{"android":"levelo://app?vid=506a28f7-0798-49e4-b38f-f0bb95dda86f","ios":"levelo://app?vid=506a28f7-0798-49e4-b38f-f0bb95dda86f"},"vehicle_type_id":"4","last_reported":1726672164,"current_range_meters":34000,"station_id":"ce4bhs12rcd13ifvqhvg","pricing_plan_id":"cebpf4jnsgd1na2vs0mg"},{"bike_id":"9453c76b-70a2-4910-8629-27df80c950ef","system_id":"levelo_inurba_marseille","lat":43.3019,"lon":5.36599,"is_reserved":false,"is_disabled":false,"rental_uris":{"android":"levelo://app?vid=9453c76b-70a2-4910-8629-27df80c950ef","ios":"levelo://app?vid=9453c76b-70a2-4910-8629-27df80c950ef"},"vehicle_type_id":"4","last_reported":1726672164,"current_range_meters":12400,"station_id":"ce4bgrh2rcd13ifvqc8g","pricing_plan_id":"cebpf4jnsgd1na2vs0mg"},{"bike_id":"7f79859b-2773-448a-ad11-9deee25a9658","system_id":"levelo_inurba_marseille","lat":43.28034,"lon":5.36936,"is_reserved":false,"is_disabled":false,"rental_uris":{"android":"levelo://app?vid=7f79859b-2773-448a-ad11-9deee25a9658","ios":"levelo://app?vid=7f79859b-2773-448a-ad11-9deee25a9658"},"vehicle_type_id":"4","last_reported":1726672164,"current_range_meters":35600,"station_id":"ce4bha12rcd13ifvqef0","pricing_plan_id":"cebpf4jnsgd1na2vs0mg"},{"bike_id":"f53d0656-6296-4227-a802-76248c9ecdfc","system_id":"levelo_inurba_marseille","lat":43.30954,"lon":5.39041,"is_reserved":false,"is_disabled":false,"rental_uris":{"android":"levelo://app?vid=f53d0656-6296-4227-a802-76248c9ecdfc","ios":"levelo://app?vid=f53d0656-6296-4227-a802-76248c9ecdfc"},"vehicle_type_id":"4","last_reported":1726672164,"current_range_meters":25200,"station_id":"ce4bgup2rcd13ifvqco0","pricing_plan_id":"cebpf4jnsgd1na2vs0mg"},{"bike_id":"5c20a958-d490-41db-84a7-f9730ee7ce03","system_id":"levelo_inurba_marseille","lat":43.2957,"lon":5.39966,"is_reserved":false,"is_disabled":false,"rental_uris":{"android":"levelo://app?vid=5c20a958-d490-41db-84a7-f9730ee7ce03","ios":"levelo://app?vid=5c20a958-d490-41db-84a7-f9730ee7ce03"},"vehicle_type_id":"4","last_reported":1726672164,"current_range_meters":24400,"station_id":"ce4bh312rcd13ifvqdj0","pricing_plan_id":"cebpf4jnsgd1na2vs0mg"},{"bike_id":"334d62ab-e5e2-4a14-b63b-84beb21f5d0a","system_id":"levelo_inurba_marseille","lat":43.27942,"lon":5.41044,"is_reserved":false,"is_disabled":false,"rental_uris":{"android":"levelo://app?vid=334d62ab-e5e2-4a14-b63b-84beb21f5d0a","ios":"levelo://app?vid=334d62ab-e5e2-4a14-b63b-84beb21f5d0a"},"vehicle_type_id":"4","last_reported":1726672164,"current_range_meters":3600,"station_id":"ce4bhnp2rcd13ifvqh0g","pricing_plan_id":"cebpf4jnsgd1na2vs0mg"},{"bike_id":"3219537e-a96e-44ff-b65a-d55caf5ddd5e","system_id":"levelo_inurba_marseille","lat":43.31326,"lon":5.39698,"is_reserved":false,"is_disabled":false,"rental_uris":{"android":"levelo://app?vid=3219537e-a96e-44ff-b65a-d55caf5ddd5e","ios":"levelo://app?vid=3219537e-a96e-44ff-b65a-d55caf5ddd5e"},"vehicle_type_id":"4","last_reported":1726672164,"current_range_meters":30000,"station_id":"ce4bgvp2rcd13ifvqcu0","pricing_plan_id":"cebpf4jnsgd1na2vs0mg"},{"bike_id":"c2667222-5d26-4d9c-a938-761c480fe584","system_id":"levelo_inurba_marseille","lat":43.33026,"lon":5.39036,"is_reserved":false,"is_disabled":false,"rental_uris":{"android":"levelo://app?vid=c2667222-5d26-4d9c-a938-761c480fe584","ios":"levelo://app?vid=c2667222-5d26-4d9c-a938-761c480fe584"},"vehicle_type_id":"4","last_reported":1726672164,"current_range_meters":10000,"station_id":"ce4bhr92rcd13ifvqhrg","pricing_plan_id":"cebpf4jnsgd1na2vs0mg"},{"bike_id":"d2648441-8611-4e86-b6a3-95e5dd6d09df","system_id":"levelo_inurba_marseille","lat":43.24647,"lon":5.38891,"is_reserved":false,"is_disabled":false,"rental_uris":{"android":"levelo://app?vid=d2648441-8611-4e86-b6a3-95e5dd6d09df","ios":"levelo://app?vid=d2648441-8611-4e86-b6a3-95e5dd6d09df"},"vehicle_type_id":"4","last_reported":1726672164,"current_range_meters":38800,"station_id":"ce4bhg12rcd13ifvqf60","pricing_plan_id":"cebpf4jnsgd1na2vs0mg"},{"bike_id":"24cdd5ee-0892-4d98-9585-a6efaadb3f4f","system_id":"levelo_inurba_marseille","lat":43.308014,"lon":5.381475,"is_reserved":false,"is_disabled":false,"rental_uris":{"android":"levelo://app?vid=24cdd5ee-0892-4d98-9585-a6efaadb3f4f","ios":"levelo://app?vid=24cdd5ee-0892-4d98-9585-a6efaadb3f4f"},"vehicle_type_id":"4","last_reported":1726672164,"current_range_meters":8400,"station_id":"ce4bgt12rcd13ifvqce0","pricing_plan_id":"cebpf4jnsgd1na2vs0mg"},{"bike_id":"f983feed-8e80-4bcd-a3a8-3f33f26b379a","system_id":"levelo_inurba_marseille","lat":43.28656,"lon":5.36354,"is_reserved":false,"is_disabled":false,"rental_uris":{"android":"levelo://app?vid=f983feed-8e80-4bcd-a3a8-3f33f26b379a","ios":"levelo://app?vid=f983feed-8e80-4bcd-a3a8-3f33f26b379a"},"vehicle_type_id":"4","last_reported":1726672164,"current_range_meters":6000,"station_id":"ce4bhah2rcd13ifvqej0","pricing_plan_id":"cebpf4jnsgd1na2vs0mg"},{"bike_id":"7b748ac9-000b-45f2-a1b4-708bb0124ebb","system_id":"levelo_inurba_marseille","lat":43.26927,"lon":5.38908,"is_reserved":false,"is_disabled":false,"rental_uris":{"android":"levelo://app?vid=7b748ac9-000b-45f2-a1b4-708bb0124ebb","ios":"levelo://app?vid=7b748ac9-000b-45f2-a1b4-708bb0124ebb"},"vehicle_type_id":"4","last_reported":1726672164,"current_range_meters":24400,"station_id":"ce4bhhh2rcd13ifvqfl0","pricing_plan_id":"cebpf4jnsgd1na2vs0mg"},{"bike_id":"6a90006c-0ef1-4c5b-a3c4-f211908d6485","system_id":"levelo_inurba_marseille","lat":43.29572,"lon":5.37512,"is_reserved":false,"is_disabled":false,"rental_uris":{"android":"levelo://app?vid=6a90006c-0ef1-4c5b-a3c4-f211908d6485","ios":"levelo://app?vid=6a90006c-0ef1-4c5b-a3c4-f211908d6485"},"vehicle_type_id":"4","last_reported":1726672164,"current_range_meters":39200,"station_id":"ce4bgh92rcd13ifvqb50","pricing_plan_id":"cebpf4jnsgd1na2vs0mg"},{"bike_id":"60e7dd4c-2921-469c-98b9-d7f245b1b02c","system_id":"levelo_inurba_marseille","lat":43.27059,"lon":5.4026,"is_reserved":false,"is_disabled":false,"rental_uris":{"android":"levelo://app?vid=60e7dd4c-2921-469c-98b9-d7f245b1b02c","ios":"levelo://app?vid=60e7dd4c-2921-469c-98b9-d7f245b1b02c"},"vehicle_type_id":"4","last_reported":1726672164,"current_range_meters":2800,"station_id":"ce4bhk92rcd13ifvqgc0","pricing_plan_id":"cebpf4jnsgd1na2vs0mg"},{"bike_id":"c48daa74-2b65-4cbf-8ab0-440696500f2e","system_id":"levelo_inurba_marseille","lat":43.291931,"lon":5.393232,"is_reserved":false,"is_disabled":false,"rental_uris":{"android":"levelo://app?vid=c48daa74-2b65-4cbf-8ab0-440696500f2e","ios":"levelo://app?vid=c48daa74-2b65-4cbf-8ab0-440696500f2e"},"vehicle_type_id":"4","last_reported":1726672164,"current_range_meters":6000,"station_id":"ce4bh192rcd13ifvqdd0","pricing_plan_id":"cebpf4jnsgd1na2vs0mg"},{"bike_id":"9b4da00a-35d7-48ba-8c95-c35f24d2316a","system_id":"levelo_inurba_marseille","lat":43.2988,"lon":5.38902,"is_reserved":false,"is_disabled":false,"rental_uris":{"android":"levelo://app?vid=9b4da00a-35d7-48ba-8c95-c35f24d2316a","ios":"levelo://app?vid=9b4da00a-35d7-48ba-8c95-c35f24d2316a"},"vehicle_type_id":"4","last_reported":1726672164,"current_range_meters":8000,"station_id":"ce4bh392rcd13ifvqdl0","pricing_plan_id":"cebpf4jnsgd1na2vs0mg"},{"bike_id":"e90761ef-6125-493a-a2ad-c941e90a04f8","system_id":"levelo_inurba_marseille","lat":43.307292,"lon":5.375815,"is_reserved":false,"is_disabled":false,"rental_uris":{"android":"levelo://app?vid=e90761ef-6125-493a-a2ad-c941e90a04f8","ios":"levelo://app?vid=e90761ef-6125-493a-a2ad-c941e90a04f8"},"vehicle_type_id":"4","last_reported":1726672164,"current_range_meters":18000,"station_id":"ce4bgv92rcd13ifvqcq0","pricing_plan_id":"cebpf4jnsgd1na2vs0mg"},{"bike_id":"a9eec73c-fd9a-44ec-8108-69fbbf855fa4","system_id":"levelo_inurba_marseille","lat":43.295694,"lon":5.37528,"is_reserved":false,"is_disabled":false,"rental_uris":{"android":"levelo://app?vid=a9eec73c-fd9a-44ec-8108-69fbbf855fa4","ios":"levelo://app?vid=a9eec73c-fd9a-44ec-8108-69fbbf855fa4"},"vehicle_type_id":"4","last_reported":1726672164,"current_range_meters":12800,"station_id":"ce4bgh92rcd13ifvqb50","pricing_plan_id":"cebpf4jnsgd1na2vs0mg"},{"bike_id":"73ce7f82-f173-456b-a513-6cd0626b0fde","system_id":"levelo_inurba_marseille","lat":43.30464,"lon":5.37908,"is_reserved":false,"is_disabled":false,"rental_uris":{"android":"levelo://app?vid=73ce7f82-f173-456b-a513-6cd0626b0fde","ios":"levelo://app?vid=73ce7f82-f173-456b-a513-6cd0626b0fde"},"vehicle_type_id":"4","last_reported":1726672164,"current_range_meters":28000,"station_id":"ce4bgup2rcd13ifvqcn0","pricing_plan_id":"cebpf4jnsgd1na2vs0mg"},{"bike_id":"08f6582c-9da1-4909-8411-4042d983d1a8","system_id":"levelo_inurba_marseille","lat":43.28699,"lon":5.37382,"is_reserved":false,"is_disabled":false,"rental_uris":{"android":"levelo://app?vid=08f6582c-9da1-4909-8411-4042d983d1a8","ios":"levelo://app?vid=08f6582c-9da1-4909-8411-4042d983d1a8"},"vehicle_type_id":"4","last_reported":1726672164,"current_range_meters":22800,"station_id":"ce4bh3p2rcd13ifvqdq0","pricing_plan_id":"cebpf4jnsgd1na2vs0mg"},{"bike_id":"12786986-13b8-41fb-ae69-e4b8d87cbe8b","system_id":"levelo_inurba_marseille","lat":43.28723,"lon":5.36089,"is_reserved":false,"is_disabled":false,"rental_uris":{"android":"levelo://app?vid=12786986-13b8-41fb-ae69-e4b8d87cbe8b","ios":"levelo://app?vid=12786986-13b8-41fb-ae69-e4b8d87cbe8b"},"vehicle_type_id":"4","last_reported":1726672164,"current_range_meters":33200,"station_id":"cki0cbj6b192h4jlfktg","pricing_plan_id":"cebpf4jnsgd1na2vs0mg"},{"bike_id":"29df17ca-d32b-49a6-bfef-3b0b122ffa2e","system_id":"levelo_inurba_marseille","lat":43.29555,"lon":5.42284,"is_reserved":false,"is_disabled":false,"rental_uris":{"android":"levelo://app?vid=29df17ca-d32b-49a6-bfef-3b0b122ffa2e","ios":"levelo://app?vid=29df17ca-d32b-49a6-bfef-3b0b122ffa2e"},"vehicle_type_id":"4","last_reported":1726672164,"current_range_meters":3200,"station_id":"ce4bhph2rcd13ifvqhdg","pricing_plan_id":"cebpf4jnsgd1na2vs0mg"},{"bike_id":"c7f93bf2-2b30-4c5c-aa72-447b3f4a28ea","system_id":"levelo_inurba_marseille","lat":43.29897,"lon":5.43659,"is_reserved":false,"is_disabled":false,"rental_uris":{"android":"levelo://app?vid=c7f93bf2-2b30-4c5c-aa72-447b3f4a28ea","ios":"levelo://app?vid=c7f93bf2-2b30-4c5c-aa72-447b3f4a28ea"},"vehicle_type_id":"4","last_reported":1726672164,"current_range_meters":3200,"station_id":"ce4bhpp2rcd13ifvqhfg","pricing_plan_id":"cebpf4jnsgd1na2vs0mg"},{"bike_id":"5ff73b00-9215-4591-8131-d515e09f56f6","system_id":"levelo_inurba_marseille","lat":43.29872,"lon":5.39729,"is_reserved":false,"is_disabled":false,"rental_uris":{"android":"levelo://app?vid=5ff73b00-9215-4591-8131-d515e09f56f6","ios":"levelo://app?vid=5ff73b00-9215-4591-8131-d515e09f56f6"},"vehicle_type_id":"4","last_reported":1726672164,"current_range_meters":38800,"station_id":"ce4bh0h2rcd13ifvqd50","pricing_plan_id":"cebpf4jnsgd1na2vs0mg"},{"bike_id":"ed69e130-7cee-4db1-9e10-0d56961305c9","system_id":"levelo_inurba_marseille","lat":43.24174,"lon":5.3639,"is_reserved":false,"is_disabled":false,"rental_uris":{"android":"levelo://app?vid=ed69e130-7cee-4db1-9e10-0d56961305c9","ios":"levelo://app?vid=ed69e130-7cee-4db1-9e10-0d56961305c9"},"vehicle_type_id":"4","last_reported":1726672164,"current_range_meters":25600,"station_id":"cpo36qri1sfpv3e86is0","pricing_plan_id":"cebpf4jnsgd1na2vs0mg"},{"bike_id":"41254ef0-42fb-440c-9443-4e42bbe89f3a","system_id":"levelo_inurba_marseille","lat":43.29043,"lon":5.37157,"is_reserved":false,"is_disabled":false,"rental_uris":{"android":"levelo://app?vid=41254ef0-42fb-440c-9443-4e42bbe89f3a","ios":"levelo://app?vid=41254ef0-42fb-440c-9443-4e42bbe89f3a"},"vehicle_type_id":"4","last_reported":1726672164,"current_range_meters":4000,"station_id":"ce4bh5p2rcd13ifvqe4g","pricing_plan_id":"cebpf4jnsgd1na2vs0mg"},{"bike_id":"d993ea77-1b1c-49ca-ad6a-47a9004ae770","system_id":"levelo_inurba_marseille","lat":43.27202,"lon":5.39185,"is_reserved":false,"is_disabled":false,"rental_uris":{"android":"levelo://app?vid=d993ea77-1b1c-49ca-ad6a-47a9004ae770","ios":"levelo://app?vid=d993ea77-1b1c-49ca-ad6a-47a9004ae770"},"vehicle_type_id":"4","last_reported":1726672164,"current_range_meters":21600,"station_id":"ce4bhhp2rcd13ifvqfm0","pricing_plan_id":"cebpf4jnsgd1na2vs0mg"},{"bike_id":"6395c965-4584-43a6-b898-29cb85508869","system_id":"levelo_inurba_marseille","lat":43.29532,"lon":5.38544,"is_reserved":false,"is_disabled":false,"rental_uris":{"android":"levelo://app?vid=6395c965-4584-43a6-b898-29cb85508869","ios":"levelo://app?vid=6395c965-4584-43a6-b898-29cb85508869"},"vehicle_type_id":"4","last_reported":1726672164,"current_range_meters":17200,"station_id":"ce4bgih2rcd13ifvqba0","pricing_plan_id":"cebpf4jnsgd1na2vs0mg"},{"bike_id":"79624b8a-3b40-4197-a84a-9a0c4492dde1","system_id":"levelo_inurba_marseille","lat":43.3135,"lon":5.38307,"is_reserved":false,"is_disabled":false,"rental_uris":{"android":"levelo://app?vid=79624b8a-3b40-4197-a84a-9a0c4492dde1","ios":"levelo://app?vid=79624b8a-3b40-4197-a84a-9a0c4492dde1"},"vehicle_type_id":"4","last_reported":1726672164,"current_range_meters":2000,"station_id":"","pricing_plan_id":"cebpf4jnsgd1na2vs0mg"},{"bike_id":"80d1eb54-6334-4c2f-a160-7e4b5cb79537","system_id":"levelo_inurba_marseille","lat":43.29966,"lon":5.41316,"is_reserved":false,"is_disabled":false,"rental_uris":{"android":"levelo://app?vid=80d1eb54-6334-4c2f-a160-7e4b5cb79537","ios":"levelo://app?vid=80d1eb54-6334-4c2f-a160-7e4b5cb79537"},"vehicle_type_id":"4","last_reported":1726672164,"current_range_meters":34800,"station_id":"ce4bhp12rcd13ifvqh9g","pricing_plan_id":"cebpf4jnsgd1na2vs0mg"},{"bike_id":"02f42f49-ea35-4c46-8cfb-e08cef580a55","system_id":"levelo_inurba_marseille","lat":43.29267,"lon":5.38443,"is_reserved":false,"is_disabled":false,"rental_uris":{"android":"levelo://app?vid=02f42f49-ea35-4c46-8cfb-e08cef580a55","ios":"levelo://app?vid=02f42f49-ea35-4c46-8cfb-e08cef580a55"},"vehicle_type_id":"4","last_reported":1726672164,"current_range_meters":30000,"station_id":"ce4bh692rcd13ifvqea0","pricing_plan_id":"cebpf4jnsgd1na2vs0mg"},{"bike_id":"0473d6c5-cea0-445c-837b-8ff9377cb4c7","system_id":"levelo_inurba_marseille","lat":43.279773,"lon":5.387389,"is_reserved":false,"is_disabled":false,"rental_uris":{"android":"levelo://app?vid=0473d6c5-cea0-445c-837b-8ff9377cb4c7","ios":"levelo://app?vid=0473d6c5-cea0-445c-837b-8ff9377cb4c7"},"vehicle_type_id":"4","last_reported":1726672164,"current_range_meters":23200,"station_id":"ce4bhg12rcd13ifvqf80","pricing_plan_id":"cebpf4jnsgd1na2vs0mg"},{"bike_id":"64de88cf-d117-4ffb-a8d7-2bf53095d59c","system_id":"levelo_inurba_marseille","lat":43.32364,"lon":5.38878,"is_reserved":false,"is_disabled":false,"rental_uris":{"android":"levelo://app?vid=64de88cf-d117-4ffb-a8d7-2bf53095d59c","ios":"levelo://app?vid=64de88cf-d117-4ffb-a8d7-2bf53095d59c"},"vehicle_type_id":"4","last_reported":1726672164,"current_range_meters":25200,"station_id":"ce4bhqp2rcd13ifvqhog","pricing_plan_id":"cebpf4jnsgd1na2vs0mg"},{"bike_id":"f087000d-f3c3-49b1-bb9b-035aa39b7299","system_id":"levelo_inurba_marseille","lat":43.31081,"lon":5.42434,"is_reserved":false,"is_disabled":false,"rental_uris":{"android":"levelo://app?vid=f087000d-f3c3-49b1-bb9b-035aa39b7299","ios":"levelo://app?vid=f087000d-f3c3-49b1-bb9b-035aa39b7299"},"vehicle_type_id":"4","last_reported":1726672164,"current_range_meters":17600,"station_id":"ce4bhp92rcd13ifvqhag","pricing_plan_id":"cebpf4jnsgd1na2vs0mg"},{"bike_id":"5d78b308-9505-4ed0-832a-dc6eb31a5971","system_id":"levelo_inurba_marseille","lat":43.25588,"lon":5.38239,"is_reserved":false,"is_disabled":false,"rental_uris":{"android":"levelo://app?vid=5d78b308-9505-4ed0-832a-dc6eb31a5971","ios":"levelo://app?vid=5d78b308-9505-4ed0-832a-dc6eb31a5971"},"vehicle_type_id":"4","last_reported":1726672164,"current_range_meters":9200,"station_id":"ce4bhih2rcd13ifvqfs0","pricing_plan_id":"cebpf4jnsgd1na2vs0mg"},{"bike_id":"085525f4-a22f-46a7-9274-1306991970b9","system_id":"levelo_inurba_marseille","lat":43.2318,"lon":5.39976,"is_reserved":false,"is_disabled":false,"rental_uris":{"android":"levelo://app?vid=085525f4-a22f-46a7-9274-1306991970b9","ios":"levelo://app?vid=085525f4-a22f-46a7-9274-1306991970b9"},"vehicle_type_id":"4","last_reported":1726672164,"current_range_meters":16000,"station_id":"ce4bhn12rcd13ifvqgqg","pricing_plan_id":"cebpf4jnsgd1na2vs0mg"},{"bike_id":"2e2254f6-d3ed-4277-af5f-ee204e464f40","system_id":"levelo_inurba_marseille","lat":43.29949,"lon":5.41318,"is_reserved":false,"is_disabled":false,"rental_uris":{"android":"levelo://app?vid=2e2254f6-d3ed-4277-af5f-ee204e464f40","ios":"levelo://app?vid=2e2254f6-d3ed-4277-af5f-ee204e464f40"},"vehicle_type_id":"4","last_reported":1726672164,"current_range_meters":35200,"station_id":"ce4bhp12rcd13ifvqh9g","pricing_plan_id":"cebpf4jnsgd1na2vs0mg"},{"bike_id":"ef9257fd-5aa8-47ba-b8ec-6b7d4c38eeb4","system_id":"levelo_inurba_marseille","lat":43.27572,"lon":5.38415,"is_reserved":false,"is_disabled":false,"rental_uris":{"android":"levelo://app?vid=ef9257fd-5aa8-47ba-b8ec-6b7d4c38eeb4","ios":"levelo://app?vid=ef9257fd-5aa8-47ba-b8ec-6b7d4c38eeb4"},"vehicle_type_id":"4","last_reported":1726672164,"current_range_meters":37600,"station_id":"ce4bhh92rcd13ifvqfi0","pricing_plan_id":"cebpf4jnsgd1na2vs0mg"},{"bike_id":"c6746ce3-7889-4f05-a54a-3265bfee7b10","system_id":"levelo_inurba_marseille","lat":43.28263,"lon":5.3507,"is_reserved":false,"is_disabled":false,"rental_uris":{"android":"levelo://app?vid=c6746ce3-7889-4f05-a54a-3265bfee7b10","ios":"levelo://app?vid=c6746ce3-7889-4f05-a54a-3265bfee7b10"},"vehicle_type_id":"4","last_reported":1726672164,"current_range_meters":36400,"station_id":"ce4bhbp2rcd13ifvqerg","pricing_plan_id":"cebpf4jnsgd1na2vs0mg"},{"bike_id":"1e952ba0-163c-485a-b9b6-8ed263f5d302","system_id":"levelo_inurba_marseille","lat":43.32473,"lon":5.36558,"is_reserved":false,"is_disabled":false,"rental_uris":{"android":"levelo://app?vid=1e952ba0-163c-485a-b9b6-8ed263f5d302","ios":"levelo://app?vid=1e952ba0-163c-485a-b9b6-8ed263f5d302"},"vehicle_type_id":"4","last_reported":1726672164,"current_range_meters":23200,"station_id":"ce4bhs12rcd13ifvqhvg","pricing_plan_id":"cebpf4jnsgd1na2vs0mg"},{"bike_id":"34c796d4-37e1-49f7-9d7f-24de266badd7","system_id":"levelo_inurba_marseille","lat":43.29881,"lon":5.38911,"is_reserved":false,"is_disabled":false,"rental_uris":{"android":"levelo://app?vid=34c796d4-37e1-49f7-9d7f-24de266badd7","ios":"levelo://app?vid=34c796d4-37e1-49f7-9d7f-24de266badd7"},"vehicle_type_id":"4","last_reported":1726672164,"current_range_meters":16400,"station_id":"ce4bh392rcd13ifvqdl0","pricing_plan_id":"cebpf4jnsgd1na2vs0mg"},{"bike_id":"c3bcca86-6294-4639-9d07-9722d40f464e","system_id":"levelo_inurba_marseille","lat":43.29899,"lon":5.43656,"is_reserved":false,"is_disabled":false,"rental_uris":{"android":"levelo://app?vid=c3bcca86-6294-4639-9d07-9722d40f464e","ios":"levelo://app?vid=c3bcca86-6294-4639-9d07-9722d40f464e"},"vehicle_type_id":"4","last_reported":1726672164,"current_range_meters":22000,"station_id":"ce4bhpp2rcd13ifvqhfg","pricing_plan_id":"cebpf4jnsgd1na2vs0mg"},{"bike_id":"d9d0e5e0-44f9-4f69-89e0-44e14e42e84a","system_id":"levelo_inurba_marseille","lat":43.28035,"lon":5.36946,"is_reserved":false,"is_disabled":false,"rental_uris":{"android":"levelo://app?vid=d9d0e5e0-44f9-4f69-89e0-44e14e42e84a","ios":"levelo://app?vid=d9d0e5e0-44f9-4f69-89e0-44e14e42e84a"},"vehicle_type_id":"4","last_reported":1726672164,"current_range_meters":18800,"station_id":"ce4bha12rcd13ifvqef0","pricing_plan_id":"cebpf4jnsgd1na2vs0mg"},{"bike_id":"fa77e604-95b4-476d-a30f-499c3aaf710d","system_id":"levelo_inurba_marseille","lat":43.33717,"lon":5.39175,"is_reserved":false,"is_disabled":false,"rental_uris":{"android":"levelo://app?vid=fa77e604-95b4-476d-a30f-499c3aaf710d","ios":"levelo://app?vid=fa77e604-95b4-476d-a30f-499c3aaf710d"},"vehicle_type_id":"4","last_reported":1726672164,"current_range_meters":12000,"station_id":"ce4bhr92rcd13ifvqhsg","pricing_plan_id":"cebpf4jnsgd1na2vs0mg"},{"bike_id":"d35e1a72-b703-49bc-bba6-f5de9c5fd6a8","system_id":"levelo_inurba_marseille","lat":43.33024,"lon":5.39035,"is_reserved":false,"is_disabled":false,"rental_uris":{"android":"levelo://app?vid=d35e1a72-b703-49bc-bba6-f5de9c5fd6a8","ios":"levelo://app?vid=d35e1a72-b703-49bc-bba6-f5de9c5fd6a8"},"vehicle_type_id":"4","last_reported":1726672164,"current_range_meters":23200,"station_id":"ce4bhr92rcd13ifvqhrg","pricing_plan_id":"cebpf4jnsgd1na2vs0mg"},{"bike_id":"32a92804-3d11-4cfc-ab0f-97030bbe2d9d","system_id":"levelo_inurba_marseille","lat":43.25109,"lon":5.40323,"is_reserved":false,"is_disabled":false,"rental_uris":{"android":"levelo://app?vid=32a92804-3d11-4cfc-ab0f-97030bbe2d9d","ios":"levelo://app?vid=32a92804-3d11-4cfc-ab0f-97030bbe2d9d"},"vehicle_type_id":"4","last_reported":1726672164,"current_range_meters":36000,"station_id":"ce4bhlh2rcd13ifvqgig","pricing_plan_id":"cebpf4jnsgd1na2vs0mg"},{"bike_id":"5304ed70-fad3-470c-b0c3-63f08a2a0a36","system_id":"levelo_inurba_marseille","lat":43.31322,"lon":5.39693,"is_reserved":false,"is_disabled":false,"rental_uris":{"android":"levelo://app?vid=5304ed70-fad3-470c-b0c3-63f08a2a0a36","ios":"levelo://app?vid=5304ed70-fad3-470c-b0c3-63f08a2a0a36"},"vehicle_type_id":"4","last_reported":1726672164,"current_range_meters":18800,"station_id":"ce4bgvp2rcd13ifvqcu0","pricing_plan_id":"cebpf4jnsgd1na2vs0mg"},{"bike_id":"474748f3-ec23-44f0-b32e-4534f1867747","system_id":"levelo_inurba_marseille","lat":43.29169,"lon":5.37145,"is_reserved":false,"is_disabled":false,"rental_uris":{"android":"levelo://app?vid=474748f3-ec23-44f0-b32e-4534f1867747","ios":"levelo://app?vid=474748f3-ec23-44f0-b32e-4534f1867747"},"vehicle_type_id":"4","last_reported":1726672164,"current_range_meters":16400,"station_id":"ce4bhb12rcd13ifvqel0","pricing_plan_id":"cebpf4jnsgd1na2vs0mg"},{"bike_id":"b5cc06aa-fd0a-4f16-9512-cc0ee529c93f","system_id":"levelo_inurba_marseille","lat":43.23147,"lon":5.43712,"is_reserved":false,"is_disabled":false,"rental_uris":{"android":"levelo://app?vid=b5cc06aa-fd0a-4f16-9512-cc0ee529c93f","ios":"levelo://app?vid=b5cc06aa-fd0a-4f16-9512-cc0ee529c93f"},"vehicle_type_id":"4","last_reported":1726672164,"current_range_meters":24800,"station_id":"ce4bhmp2rcd13ifvqgog","pricing_plan_id":"cebpf4jnsgd1na2vs0mg"},{"bike_id":"5c06f781-e501-4c22-83b4-84b8bd29c15f","system_id":"levelo_inurba_marseille","lat":43.28348,"lon":5.38098,"is_reserved":false,"is_disabled":false,"rental_uris":{"android":"levelo://app?vid=5c06f781-e501-4c22-83b4-84b8bd29c15f","ios":"levelo://app?vid=5c06f781-e501-4c22-83b4-84b8bd29c15f"},"vehicle_type_id":"4","last_reported":1726672164,"current_range_meters":15200,"station_id":"ce4bh412rcd13ifvqdr0","pricing_plan_id":"cebpf4jnsgd1na2vs0mg"},{"bike_id":"114229ed-7b50-4ac0-9fe6-068c1288e4e5","system_id":"levelo_inurba_marseille","lat":43.24167,"lon":5.36389,"is_reserved":false,"is_disabled":false,"rental_uris":{"android":"levelo://app?vid=114229ed-7b50-4ac0-9fe6-068c1288e4e5","ios":"levelo://app?vid=114229ed-7b50-4ac0-9fe6-068c1288e4e5"},"vehicle_type_id":"4","last_reported":1726672164,"current_range_meters":25600,"station_id":"cpo36qri1sfpv3e86is0","pricing_plan_id":"cebpf4jnsgd1na2vs0mg"},{"bike_id":"656d7956-2ee6-4167-83fa-f4680400de5e","system_id":"levelo_inurba_marseille","lat":43.29577,"lon":5.36738,"is_reserved":false,"is_disabled":false,"rental_uris":{"android":"levelo://app?vid=656d7956-2ee6-4167-83fa-f4680400de5e","ios":"levelo://app?vid=656d7956-2ee6-4167-83fa-f4680400de5e"},"vehicle_type_id":"4","last_reported":1726672164,"current_range_meters":33200,"station_id":"ce4bgph2rcd13ifvqc2g","pricing_plan_id":"cebpf4jnsgd1na2vs0mg"},{"bike_id":"7a1aefa5-3f47-4fb6-b298-3120a02f47d7","system_id":"levelo_inurba_marseille","lat":43.32484,"lon":5.36564,"is_reserved":false,"is_disabled":false,"rental_uris":{"android":"levelo://app?vid=7a1aefa5-3f47-4fb6-b298-3120a02f47d7","ios":"levelo://app?vid=7a1aefa5-3f47-4fb6-b298-3120a02f47d7"},"vehicle_type_id":"4","last_reported":1726672164,"current_range_meters":36000,"station_id":"ce4bhs12rcd13ifvqhvg","pricing_plan_id":"cebpf4jnsgd1na2vs0mg"},{"bike_id":"424d3e5f-f5e6-46da-8451-a022cfa1f510","system_id":"levelo_inurba_marseille","lat":43.29905,"lon":5.37472,"is_reserved":false,"is_disabled":false,"rental_uris":{"android":"levelo://app?vid=424d3e5f-f5e6-46da-8451-a022cfa1f510","ios":"levelo://app?vid=424d3e5f-f5e6-46da-8451-a022cfa1f510"},"vehicle_type_id":"4","last_reported":1726672164,"current_range_meters":38800,"station_id":"ce4bgjh2rcd13ifvqbg0","pricing_plan_id":"cebpf4jnsgd1na2vs0mg"},{"bike_id":"e2f93157-dea0-45a5-82f3-6b3f12ad379f","system_id":"levelo_inurba_marseille","lat":43.28033,"lon":5.36939,"is_reserved":false,"is_disabled":false,"rental_uris":{"android":"levelo://app?vid=e2f93157-dea0-45a5-82f3-6b3f12ad379f","ios":"levelo://app?vid=e2f93157-dea0-45a5-82f3-6b3f12ad379f"},"vehicle_type_id":"4","last_reported":1726672164,"current_range_meters":30800,"station_id":"ce4bha12rcd13ifvqef0","pricing_plan_id":"cebpf4jnsgd1na2vs0mg"},{"bike_id":"694f1e20-a5e9-4b6e-ab08-d717ffdae8c1","system_id":"levelo_inurba_marseille","lat":43.309463,"lon":5.390283,"is_reserved":false,"is_disabled":false,"rental_uris":{"android":"levelo://app?vid=694f1e20-a5e9-4b6e-ab08-d717ffdae8c1","ios":"levelo://app?vid=694f1e20-a5e9-4b6e-ab08-d717ffdae8c1"},"vehicle_type_id":"4","last_reported":1726672164,"current_range_meters":8000,"station_id":"ce4bh0h2rcd13ifvqd40","pricing_plan_id":"cebpf4jnsgd1na2vs0mg"},{"bike_id":"b645ac77-0d58-4fa9-8ad3-947af8bdb1d9","system_id":"levelo_inurba_marseille","lat":43.299,"lon":5.43667,"is_reserved":false,"is_disabled":false,"rental_uris":{"android":"levelo://app?vid=b645ac77-0d58-4fa9-8ad3-947af8bdb1d9","ios":"levelo://app?vid=b645ac77-0d58-4fa9-8ad3-947af8bdb1d9"},"vehicle_type_id":"4","last_reported":1726672164,"current_range_meters":18800,"station_id":"ce4bhpp2rcd13ifvqhfg","pricing_plan_id":"cebpf4jnsgd1na2vs0mg"},{"bike_id":"515fd82d-7e16-4883-8506-cfdd613931e3","system_id":"levelo_inurba_marseille","lat":43.24457,"lon":5.37744,"is_reserved":false,"is_disabled":false,"rental_uris":{"android":"levelo://app?vid=515fd82d-7e16-4883-8506-cfdd613931e3","ios":"levelo://app?vid=515fd82d-7e16-4883-8506-cfdd613931e3"},"vehicle_type_id":"4","last_reported":1726672164,"current_range_meters":27200,"station_id":"","pricing_plan_id":"cebpf4jnsgd1na2vs0mg"},{"bike_id":"55fed244-caf4-46e6-99fc-fcd916ddb5b7","system_id":"levelo_inurba_marseille","lat":43.23192,"lon":5.35542,"is_reserved":false,"is_disabled":false,"rental_uris":{"android":"levelo://app?vid=55fed244-caf4-46e6-99fc-fcd916ddb5b7","ios":"levelo://app?vid=55fed244-caf4-46e6-99fc-fcd916ddb5b7"},"vehicle_type_id":"4","last_reported":1726672164,"current_range_meters":24400,"station_id":"ce4bhu92rcd13ifvqi70","pricing_plan_id":"cebpf4jnsgd1na2vs0mg"},{"bike_id":"3f7da9c1-e887-441d-8808-9e98153d4023","system_id":"levelo_inurba_marseille","lat":43.28613,"lon":5.35101,"is_reserved":false,"is_disabled":false,"rental_uris":{"android":"levelo://app?vid=3f7da9c1-e887-441d-8808-9e98153d4023","ios":"levelo://app?vid=3f7da9c1-e887-441d-8808-9e98153d4023"},"vehicle_type_id":"4","last_reported":1726672164,"current_range_meters":8000,"station_id":"ce4bhch2rcd13ifvqeug","pricing_plan_id":"cebpf4jnsgd1na2vs0mg"},{"bike_id":"fecb8475-7d5e-4ccd-9c35-e32a819d71e4","system_id":"levelo_inurba_marseille","lat":43.29257,"lon":5.38443,"is_reserved":false,"is_disabled":false,"rental_uris":{"android":"levelo://app?vid=fecb8475-7d5e-4ccd-9c35-e32a819d71e4","ios":"levelo://app?vid=fecb8475-7d5e-4ccd-9c35-e32a819d71e4"},"vehicle_type_id":"4","last_reported":1726672164,"current_range_meters":31200,"station_id":"ce4bh692rcd13ifvqea0","pricing_plan_id":"cebpf4jnsgd1na2vs0mg"},{"bike_id":"597d6d88-effc-407e-919c-e776e0c35a71","system_id":"levelo_inurba_marseille","lat":43.28935,"lon":5.39631,"is_reserved":false,"is_disabled":false,"rental_uris":{"android":"levelo://app?vid=597d6d88-effc-407e-919c-e776e0c35a71","ios":"levelo://app?vid=597d6d88-effc-407e-919c-e776e0c35a71"},"vehicle_type_id":"4","last_reported":1726672164,"current_range_meters":24400,"station_id":"ce4bh3h2rcd13ifvqdn0","pricing_plan_id":"cebpf4jnsgd1na2vs0mg"},{"bike_id":"8ceb5aea-b40e-4dad-98b0-1dcabb72c74a","system_id":"levelo_inurba_marseille","lat":43.31793,"lon":5.38365,"is_reserved":false,"is_disabled":false,"rental_uris":{"android":"levelo://app?vid=8ceb5aea-b40e-4dad-98b0-1dcabb72c74a","ios":"levelo://app?vid=8ceb5aea-b40e-4dad-98b0-1dcabb72c74a"},"vehicle_type_id":"4","last_reported":1726672164,"current_range_meters":25600,"station_id":"ce4bhr12rcd13ifvqhpg","pricing_plan_id":"cebpf4jnsgd1na2vs0mg"},{"bike_id":"b25232db-c485-4e9c-a2f6-4acc0677bc78","system_id":"levelo_inurba_marseille","lat":43.23147,"lon":5.43715,"is_reserved":false,"is_disabled":false,"rental_uris":{"android":"levelo://app?vid=b25232db-c485-4e9c-a2f6-4acc0677bc78","ios":"levelo://app?vid=b25232db-c485-4e9c-a2f6-4acc0677bc78"},"vehicle_type_id":"4","last_reported":1726672164,"current_range_meters":38800,"station_id":"ce4bhmp2rcd13ifvqgog","pricing_plan_id":"cebpf4jnsgd1na2vs0mg"},{"bike_id":"677498c9-746b-4650-9a8e-2c7479635944","system_id":"levelo_inurba_marseille","lat":43.33023,"lon":5.39047,"is_reserved":false,"is_disabled":false,"rental_uris":{"android":"levelo://app?vid=677498c9-746b-4650-9a8e-2c7479635944","ios":"levelo://app?vid=677498c9-746b-4650-9a8e-2c7479635944"},"vehicle_type_id":"4","last_reported":1726672164,"current_range_meters":14400,"station_id":"ce4bhr92rcd13ifvqhrg","pricing_plan_id":"cebpf4jnsgd1na2vs0mg"},{"bike_id":"ed645ef0-83f1-4699-9183-8201b34b05b0","system_id":"levelo_inurba_marseille","lat":43.32295,"lon":5.38267,"is_reserved":false,"is_disabled":false,"rental_uris":{"android":"levelo://app?vid=ed645ef0-83f1-4699-9183-8201b34b05b0","ios":"levelo://app?vid=ed645ef0-83f1-4699-9183-8201b34b05b0"},"vehicle_type_id":"4","last_reported":1726672164,"current_range_meters":9600,"station_id":"ce4bhr12rcd13ifvqhqg","pricing_plan_id":"cebpf4jnsgd1na2vs0mg"},{"bike_id":"fabea73e-c4b0-4a87-88ac-9107965afbd3","system_id":"levelo_inurba_marseille","lat":43.26784,"lon":5.39414,"is_reserved":false,"is_disabled":false,"rental_uris":{"android":"levelo://app?vid=fabea73e-c4b0-4a87-88ac-9107965afbd3","ios":"levelo://app?vid=fabea73e-c4b0-4a87-88ac-9107965afbd3"},"vehicle_type_id":"4","last_reported":1726672164,"current_range_meters":30400,"station_id":"ce4bhh12rcd13ifvqfg0","pricing_plan_id":"cebpf4jnsgd1na2vs0mg"},{"bike_id":"146e6250-0b7a-4114-a56e-6a37e84ca3ea","system_id":"levelo_inurba_marseille","lat":43.23182,"lon":5.39983,"is_reserved":false,"is_disabled":false,"rental_uris":{"android":"levelo://app?vid=146e6250-0b7a-4114-a56e-6a37e84ca3ea","ios":"levelo://app?vid=146e6250-0b7a-4114-a56e-6a37e84ca3ea"},"vehicle_type_id":"4","last_reported":1726672164,"current_range_meters":11600,"station_id":"ce4bhn12rcd13ifvqgqg","pricing_plan_id":"cebpf4jnsgd1na2vs0mg"},{"bike_id":"0ffaf69b-85e2-4fa1-8f87-aeee7768b016","system_id":"levelo_inurba_marseille","lat":43.318854,"lon":5.407328,"is_reserved":false,"is_disabled":false,"rental_uris":{"android":"levelo://app?vid=0ffaf69b-85e2-4fa1-8f87-aeee7768b016","ios":"levelo://app?vid=0ffaf69b-85e2-4fa1-8f87-aeee7768b016"},"vehicle_type_id":"4","last_reported":1726672164,"current_range_meters":8400,"station_id":"ce4bhb12rcd13ifvqel0","pricing_plan_id":"cebpf4jnsgd1na2vs0mg"},{"bike_id":"a68ee817-739b-4970-b95c-f09d90cd2f70","system_id":"levelo_inurba_marseille","lat":43.26686,"lon":5.38269,"is_reserved":false,"is_disabled":false,"rental_uris":{"android":"levelo://app?vid=a68ee817-739b-4970-b95c-f09d90cd2f70","ios":"levelo://app?vid=a68ee817-739b-4970-b95c-f09d90cd2f70"},"vehicle_type_id":"4","last_reported":1726672164,"current_range_meters":39200,"station_id":"ce4bhg92rcd13ifvqf90","pricing_plan_id":"cebpf4jnsgd1na2vs0mg"},{"bike_id":"c33bcd60-c262-4660-8201-44af8082d182","system_id":"levelo_inurba_marseille","lat":43.297888,"lon":5.362413,"is_reserved":false,"is_disabled":false,"rental_uris":{"android":"levelo://app?vid=c33bcd60-c262-4660-8201-44af8082d182","ios":"levelo://app?vid=c33bcd60-c262-4660-8201-44af8082d182"},"vehicle_type_id":"4","last_reported":1726672164,"current_range_meters":8400,"station_id":"ce4bgpp2rcd13ifvqc3g","pricing_plan_id":"cebpf4jnsgd1na2vs0mg"},{"bike_id":"9ac6499d-1051-4a05-8d92-b36a9fee57f1","system_id":"levelo_inurba_marseille","lat":43.23175,"lon":5.39987,"is_reserved":false,"is_disabled":false,"rental_uris":{"android":"levelo://app?vid=9ac6499d-1051-4a05-8d92-b36a9fee57f1","ios":"levelo://app?vid=9ac6499d-1051-4a05-8d92-b36a9fee57f1"},"vehicle_type_id":"4","last_reported":1726672164,"current_range_meters":10800,"station_id":"ce4bhn12rcd13ifvqgqg","pricing_plan_id":"cebpf4jnsgd1na2vs0mg"},{"bike_id":"7c0312d9-cac6-4a78-9fda-953b75a25531","system_id":"levelo_inurba_marseille","lat":43.272114,"lon":5.391818,"is_reserved":false,"is_disabled":false,"rental_uris":{"android":"levelo://app?vid=7c0312d9-cac6-4a78-9fda-953b75a25531","ios":"levelo://app?vid=7c0312d9-cac6-4a78-9fda-953b75a25531"},"vehicle_type_id":"4","last_reported":1726672164,"current_range_meters":34000,"station_id":"ce4bhhp2rcd13ifvqfm0","pricing_plan_id":"cebpf4jnsgd1na2vs0mg"},{"bike_id":"3be890cf-5579-4406-9c24-210ca4afbca0","system_id":"levelo_inurba_marseille","lat":43.287,"lon":5.37386,"is_reserved":false,"is_disabled":false,"rental_uris":{"android":"levelo://app?vid=3be890cf-5579-4406-9c24-210ca4afbca0","ios":"levelo://app?vid=3be890cf-5579-4406-9c24-210ca4afbca0"},"vehicle_type_id":"4","last_reported":1726672164,"current_range_meters":38800,"station_id":"ce4bh3p2rcd13ifvqdq0","pricing_plan_id":"cebpf4jnsgd1na2vs0mg"},{"bike_id":"0db6970b-fc8f-49dc-887a-a675fd468979","system_id":"levelo_inurba_marseille","lat":43.29916,"lon":5.38556,"is_reserved":false,"is_disabled":false,"rental_uris":{"android":"levelo://app?vid=0db6970b-fc8f-49dc-887a-a675fd468979","ios":"levelo://app?vid=0db6970b-fc8f-49dc-887a-a675fd468979"},"vehicle_type_id":"4","last_reported":1726672164,"current_range_meters":22000,"station_id":"","pricing_plan_id":"cebpf4jnsgd1na2vs0mg"},{"bike_id":"81a34ead-9cd9-43a8-810a-442d28d719b6","system_id":"levelo_inurba_marseille","lat":43.3149,"lon":5.37307,"is_reserved":false,"is_disabled":false,"rental_uris":{"android":"levelo://app?vid=81a34ead-9cd9-43a8-810a-442d28d719b6","ios":"levelo://app?vid=81a34ead-9cd9-43a8-810a-442d28d719b6"},"vehicle_type_id":"4","last_reported":1726672164,"current_range_meters":33200,"station_id":"ce4bgt12rcd13ifvqcd0","pricing_plan_id":"cebpf4jnsgd1na2vs0mg"},{"bike_id":"c4d2b2b8-9df4-4804-bc82-2345e69d68c4","system_id":"levelo_inurba_marseille","lat":43.28352,"lon":5.38097,"is_reserved":false,"is_disabled":false,"rental_uris":{"android":"levelo://app?vid=c4d2b2b8-9df4-4804-bc82-2345e69d68c4","ios":"levelo://app?vid=c4d2b2b8-9df4-4804-bc82-2345e69d68c4"},"vehicle_type_id":"4","last_reported":1726672164,"current_range_meters":6800,"station_id":"ce4bh412rcd13ifvqdr0","pricing_plan_id":"cebpf4jnsgd1na2vs0mg"},{"bike_id":"0f64cac9-1c98-44fb-906b-4ae44047ae4e","system_id":"levelo_inurba_marseille","lat":43.33023,"lon":5.39034,"is_reserved":false,"is_disabled":false,"rental_uris":{"android":"levelo://app?vid=0f64cac9-1c98-44fb-906b-4ae44047ae4e","ios":"levelo://app?vid=0f64cac9-1c98-44fb-906b-4ae44047ae4e"},"vehicle_type_id":"4","last_reported":1726672164,"current_range_meters":24000,"station_id":"ce4bhr92rcd13ifvqhrg","pricing_plan_id":"cebpf4jnsgd1na2vs0mg"},{"bike_id":"ca9a9c6d-5a2e-4fe2-9a37-7ad4579c5b25","system_id":"levelo_inurba_marseille","lat":43.32367,"lon":5.38881,"is_reserved":false,"is_disabled":false,"rental_uris":{"android":"levelo://app?vid=ca9a9c6d-5a2e-4fe2-9a37-7ad4579c5b25","ios":"levelo://app?vid=ca9a9c6d-5a2e-4fe2-9a37-7ad4579c5b25"},"vehicle_type_id":"4","last_reported":1726672164,"current_range_meters":25200,"station_id":"ce4bhqp2rcd13ifvqhog","pricing_plan_id":"cebpf4jnsgd1na2vs0mg"},{"bike_id":"a889fb0d-fdd9-4b77-90d8-afa8ef3a63fb","system_id":"levelo_inurba_marseille","lat":43.299369,"lon":5.365529,"is_reserved":false,"is_disabled":false,"rental_uris":{"android":"levelo://app?vid=a889fb0d-fdd9-4b77-90d8-afa8ef3a63fb","ios":"levelo://app?vid=a889fb0d-fdd9-4b77-90d8-afa8ef3a63fb"},"vehicle_type_id":"4","last_reported":1726672164,"current_range_meters":30800,"station_id":"ce4bgm92rcd13ifvqbr0","pricing_plan_id":"cebpf4jnsgd1na2vs0mg"},{"bike_id":"baf438a7-e0be-44e3-9d18-b5421ad28cec","system_id":"levelo_inurba_marseille","lat":43.29034,"lon":5.37565,"is_reserved":false,"is_disabled":false,"rental_uris":{"android":"levelo://app?vid=baf438a7-e0be-44e3-9d18-b5421ad28cec","ios":"levelo://app?vid=baf438a7-e0be-44e3-9d18-b5421ad28cec"},"vehicle_type_id":"4","last_reported":1726672164,"current_range_meters":25200,"station_id":"ce4bh692rcd13ifvqe90","pricing_plan_id":"cebpf4jnsgd1na2vs0mg"},{"bike_id":"42f7195e-842c-4a39-aeb9-dc71acfa8714","system_id":"levelo_inurba_marseille","lat":43.306432,"lon":5.401017,"is_reserved":false,"is_disabled":false,"rental_uris":{"android":"levelo://app?vid=42f7195e-842c-4a39-aeb9-dc71acfa8714","ios":"levelo://app?vid=42f7195e-842c-4a39-aeb9-dc71acfa8714"},"vehicle_type_id":"4","last_reported":1726672164,"current_range_meters":32400,"station_id":"ce4bgg92rcd13ifvqb30","pricing_plan_id":"cebpf4jnsgd1na2vs0mg"},{"bike_id":"99684f50-b398-427b-a4e9-7ca0a0382c79","system_id":"levelo_inurba_marseille","lat":43.23188,"lon":5.35542,"is_reserved":false,"is_disabled":false,"rental_uris":{"android":"levelo://app?vid=99684f50-b398-427b-a4e9-7ca0a0382c79","ios":"levelo://app?vid=99684f50-b398-427b-a4e9-7ca0a0382c79"},"vehicle_type_id":"4","last_reported":1726672164,"current_range_meters":38800,"station_id":"ce4bhu92rcd13ifvqi70","pricing_plan_id":"cebpf4jnsgd1na2vs0mg"},{"bike_id":"c1a49b56-6fad-426f-ae96-59e1b2c47647","system_id":"levelo_inurba_marseille","lat":43.30549,"lon":5.36525,"is_reserved":false,"is_disabled":false,"rental_uris":{"android":"levelo://app?vid=c1a49b56-6fad-426f-ae96-59e1b2c47647","ios":"levelo://app?vid=c1a49b56-6fad-426f-ae96-59e1b2c47647"},"vehicle_type_id":"4","last_reported":1726672164,"current_range_meters":30400,"station_id":"ce4bgs12rcd13ifvqcag","pricing_plan_id":"cebpf4jnsgd1na2vs0mg"},{"bike_id":"7ad3edb1-b6ba-4217-a0d1-45e5d75f1243","system_id":"levelo_inurba_marseille","lat":43.29417,"lon":5.38614,"is_reserved":false,"is_disabled":false,"rental_uris":{"android":"levelo://app?vid=7ad3edb1-b6ba-4217-a0d1-45e5d75f1243","ios":"levelo://app?vid=7ad3edb1-b6ba-4217-a0d1-45e5d75f1243"},"vehicle_type_id":"4","last_reported":1726672164,"current_range_meters":18000,"station_id":"ce4bh2h2rcd13ifvqdh0","pricing_plan_id":"cebpf4jnsgd1na2vs0mg"},{"bike_id":"2b714e73-49f8-4f26-bb6d-7d72ce23aabc","system_id":"levelo_inurba_marseille","lat":43.23051,"lon":5.35491,"is_reserved":false,"is_disabled":false,"rental_uris":{"android":"levelo://app?vid=2b714e73-49f8-4f26-bb6d-7d72ce23aabc","ios":"levelo://app?vid=2b714e73-49f8-4f26-bb6d-7d72ce23aabc"},"vehicle_type_id":"4","last_reported":1726672164,"current_range_meters":8000,"station_id":"cpo3342slgdg3j2ifvpg","pricing_plan_id":"cebpf4jnsgd1na2vs0mg"},{"bike_id":"5c038a07-46e4-4170-a675-9b70c311d1c4","system_id":"levelo_inurba_marseille","lat":43.3248,"lon":5.36547,"is_reserved":false,"is_disabled":false,"rental_uris":{"android":"levelo://app?vid=5c038a07-46e4-4170-a675-9b70c311d1c4","ios":"levelo://app?vid=5c038a07-46e4-4170-a675-9b70c311d1c4"},"vehicle_type_id":"4","last_reported":1726672164,"current_range_meters":38800,"station_id":"ce4bhs12rcd13ifvqhvg","pricing_plan_id":"cebpf4jnsgd1na2vs0mg"},{"bike_id":"2ccebc4a-179e-44ac-b002-abf4ab3e65c3","system_id":"levelo_inurba_marseille","lat":43.28658,"lon":5.36342,"is_reserved":false,"is_disabled":false,"rental_uris":{"android":"levelo://app?vid=2ccebc4a-179e-44ac-b002-abf4ab3e65c3","ios":"levelo://app?vid=2ccebc4a-179e-44ac-b002-abf4ab3e65c3"},"vehicle_type_id":"4","last_reported":1726672164,"current_range_meters":30000,"station_id":"ce4bhah2rcd13ifvqej0","pricing_plan_id":"cebpf4jnsgd1na2vs0mg"},{"bike_id":"b2e6a86e-57f4-43f0-a8e2-88aef095b7ec","system_id":"levelo_inurba_marseille","lat":43.26563,"lon":5.39008,"is_reserved":false,"is_disabled":false,"rental_uris":{"android":"levelo://app?vid=b2e6a86e-57f4-43f0-a8e2-88aef095b7ec","ios":"levelo://app?vid=b2e6a86e-57f4-43f0-a8e2-88aef095b7ec"},"vehicle_type_id":"4","last_reported":1726672164,"current_range_meters":18800,"station_id":"ce4bhe12rcd13ifvqf30","pricing_plan_id":"cebpf4jnsgd1na2vs0mg"},{"bike_id":"a68a57b0-2826-4ceb-af35-24eaf8b0a814","system_id":"levelo_inurba_marseille","lat":43.26567,"lon":5.39002,"is_reserved":false,"is_disabled":false,"rental_uris":{"android":"levelo://app?vid=a68a57b0-2826-4ceb-af35-24eaf8b0a814","ios":"levelo://app?vid=a68a57b0-2826-4ceb-af35-24eaf8b0a814"},"vehicle_type_id":"4","last_reported":1726672164,"current_range_meters":25600,"station_id":"ce4bhe12rcd13ifvqf30","pricing_plan_id":"cebpf4jnsgd1na2vs0mg"},{"bike_id":"1baa72ae-d22d-4ede-bf5a-a0028c321d43","system_id":"levelo_inurba_marseille","lat":43.2619,"lon":5.37446,"is_reserved":false,"is_disabled":false,"rental_uris":{"android":"levelo://app?vid=1baa72ae-d22d-4ede-bf5a-a0028c321d43","ios":"levelo://app?vid=1baa72ae-d22d-4ede-bf5a-a0028c321d43"},"vehicle_type_id":"4","last_reported":1726672164,"current_range_meters":32400,"station_id":"ce4bhgp2rcd13ifvqfc0","pricing_plan_id":"cebpf4jnsgd1na2vs0mg"},{"bike_id":"67b8dddd-0444-4026-8868-d8d2e4f5c61a","system_id":"levelo_inurba_marseille","lat":43.29777,"lon":5.37097,"is_reserved":false,"is_disabled":false,"rental_uris":{"android":"levelo://app?vid=67b8dddd-0444-4026-8868-d8d2e4f5c61a","ios":"levelo://app?vid=67b8dddd-0444-4026-8868-d8d2e4f5c61a"},"vehicle_type_id":"4","last_reported":1726672164,"current_range_meters":16000,"station_id":"ce4bgop2rcd13ifvqc1g","pricing_plan_id":"cebpf4jnsgd1na2vs0mg"},{"bike_id":"1d6d21d2-a02d-43cf-800d-21f2d8e1d9ee","system_id":"levelo_inurba_marseille","lat":43.281629,"lon":5.425075,"is_reserved":false,"is_disabled":false,"rental_uris":{"android":"levelo://app?vid=1d6d21d2-a02d-43cf-800d-21f2d8e1d9ee","ios":"levelo://app?vid=1d6d21d2-a02d-43cf-800d-21f2d8e1d9ee"},"vehicle_type_id":"4","last_reported":1726672164,"current_range_meters":34800,"station_id":"ce4bhnh2rcd13ifvqgug","pricing_plan_id":"cebpf4jnsgd1na2vs0mg"},{"bike_id":"85ca5dde-0dcf-448e-8ea6-fe392753073d","system_id":"levelo_inurba_marseille","lat":43.28262,"lon":5.35061,"is_reserved":false,"is_disabled":false,"rental_uris":{"android":"levelo://app?vid=85ca5dde-0dcf-448e-8ea6-fe392753073d","ios":"levelo://app?vid=85ca5dde-0dcf-448e-8ea6-fe392753073d"},"vehicle_type_id":"4","last_reported":1726672164,"current_range_meters":21600,"station_id":"ce4bhbp2rcd13ifvqerg","pricing_plan_id":"cebpf4jnsgd1na2vs0mg"},{"bike_id":"83e2f304-be30-44a7-88a0-6428ca5f7e32","system_id":"levelo_inurba_marseille","lat":43.298851,"lon":5.389027,"is_reserved":false,"is_disabled":false,"rental_uris":{"android":"levelo://app?vid=83e2f304-be30-44a7-88a0-6428ca5f7e32","ios":"levelo://app?vid=83e2f304-be30-44a7-88a0-6428ca5f7e32"},"vehicle_type_id":"4","last_reported":1726672164,"current_range_meters":10800,"station_id":"ce4bh392rcd13ifvqdl0","pricing_plan_id":"cebpf4jnsgd1na2vs0mg"},{"bike_id":"89cd13c5-f19f-428e-b0d4-c55416cee4e8","system_id":"levelo_inurba_marseille","lat":43.28265,"lon":5.35067,"is_reserved":false,"is_disabled":false,"rental_uris":{"android":"levelo://app?vid=89cd13c5-f19f-428e-b0d4-c55416cee4e8","ios":"levelo://app?vid=89cd13c5-f19f-428e-b0d4-c55416cee4e8"},"vehicle_type_id":"4","last_reported":1726672164,"current_range_meters":17600,"station_id":"ce4bhbp2rcd13ifvqerg","pricing_plan_id":"cebpf4jnsgd1na2vs0mg"},{"bike_id":"3e034926-5539-4480-9686-77673b0cd3d6","system_id":"levelo_inurba_marseille","lat":43.28699,"lon":5.37382,"is_reserved":false,"is_disabled":false,"rental_uris":{"android":"levelo://app?vid=3e034926-5539-4480-9686-77673b0cd3d6","ios":"levelo://app?vid=3e034926-5539-4480-9686-77673b0cd3d6"},"vehicle_type_id":"4","last_reported":1726672164,"current_range_meters":38800,"station_id":"ce4bh3p2rcd13ifvqdq0","pricing_plan_id":"cebpf4jnsgd1na2vs0mg"},{"bike_id":"bd946933-97f3-4203-ad20-153bde2db9dd","system_id":"levelo_inurba_marseille","lat":43.2756,"lon":5.38419,"is_reserved":false,"is_disabled":false,"rental_uris":{"android":"levelo://app?vid=bd946933-97f3-4203-ad20-153bde2db9dd","ios":"levelo://app?vid=bd946933-97f3-4203-ad20-153bde2db9dd"},"vehicle_type_id":"4","last_reported":1726672164,"current_range_meters":22000,"station_id":"ce4bhh92rcd13ifvqfi0","pricing_plan_id":"cebpf4jnsgd1na2vs0mg"},{"bike_id":"ef5ccbe4-cdac-4867-8b34-2187bbf04b13","system_id":"levelo_inurba_marseille","lat":43.30449,"lon":5.39739,"is_reserved":false,"is_disabled":false,"rental_uris":{"android":"levelo://app?vid=ef5ccbe4-cdac-4867-8b34-2187bbf04b13","ios":"levelo://app?vid=ef5ccbe4-cdac-4867-8b34-2187bbf04b13"},"vehicle_type_id":"4","last_reported":1726672164,"current_range_meters":7200,"station_id":"ce4bh092rcd13ifvqd20","pricing_plan_id":"cebpf4jnsgd1na2vs0mg"},{"bike_id":"6dd17a2f-59bb-4453-859d-2c09ab795824","system_id":"levelo_inurba_marseille","lat":43.33021,"lon":5.39039,"is_reserved":false,"is_disabled":false,"rental_uris":{"android":"levelo://app?vid=6dd17a2f-59bb-4453-859d-2c09ab795824","ios":"levelo://app?vid=6dd17a2f-59bb-4453-859d-2c09ab795824"},"vehicle_type_id":"4","last_reported":1726672164,"current_range_meters":24400,"station_id":"ce4bhr92rcd13ifvqhrg","pricing_plan_id":"cebpf4jnsgd1na2vs0mg"},{"bike_id":"fc2c37fd-b30e-4e49-9975-3233bf5effda","system_id":"levelo_inurba_marseille","lat":43.32274,"lon":5.38264,"is_reserved":false,"is_disabled":false,"rental_uris":{"android":"levelo://app?vid=fc2c37fd-b30e-4e49-9975-3233bf5effda","ios":"levelo://app?vid=fc2c37fd-b30e-4e49-9975-3233bf5effda"},"vehicle_type_id":"4","last_reported":1726672164,"current_range_meters":30800,"station_id":"ce4bhr12rcd13ifvqhqg","pricing_plan_id":"cebpf4jnsgd1na2vs0mg"},{"bike_id":"1139d6fa-83d1-4ca0-acb1-c8239c3c8421","system_id":"levelo_inurba_marseille","lat":43.29255,"lon":5.40894,"is_reserved":false,"is_disabled":false,"rental_uris":{"android":"levelo://app?vid=1139d6fa-83d1-4ca0-acb1-c8239c3c8421","ios":"levelo://app?vid=1139d6fa-83d1-4ca0-acb1-c8239c3c8421"},"vehicle_type_id":"4","last_reported":1726672164,"current_range_meters":6800,"station_id":"ce4bh192rcd13ifvqdc0","pricing_plan_id":"cebpf4jnsgd1na2vs0mg"},{"bike_id":"4d382a91-7aeb-45ad-bdc8-f16f323dce81","system_id":"levelo_inurba_marseille","lat":43.3046,"lon":5.37912,"is_reserved":false,"is_disabled":false,"rental_uris":{"android":"levelo://app?vid=4d382a91-7aeb-45ad-bdc8-f16f323dce81","ios":"levelo://app?vid=4d382a91-7aeb-45ad-bdc8-f16f323dce81"},"vehicle_type_id":"4","last_reported":1726672164,"current_range_meters":18800,"station_id":"ce4bgup2rcd13ifvqcn0","pricing_plan_id":"cebpf4jnsgd1na2vs0mg"},{"bike_id":"0da9ab4b-275d-4af6-9462-890740190d92","system_id":"levelo_inurba_marseille","lat":43.29614,"lon":5.37722,"is_reserved":false,"is_disabled":false,"rental_uris":{"android":"levelo://app?vid=0da9ab4b-275d-4af6-9462-890740190d92","ios":"levelo://app?vid=0da9ab4b-275d-4af6-9462-890740190d92"},"vehicle_type_id":"4","last_reported":1726672164,"current_range_meters":24000,"station_id":"ce4bgi92rcd13ifvqb90","pricing_plan_id":"cebpf4jnsgd1na2vs0mg"},{"bike_id":"551007eb-0d19-4212-aaad-40cf20c93b6d","system_id":"levelo_inurba_marseille","lat":43.30538,"lon":5.36525,"is_reserved":false,"is_disabled":false,"rental_uris":{"android":"levelo://app?vid=551007eb-0d19-4212-aaad-40cf20c93b6d","ios":"levelo://app?vid=551007eb-0d19-4212-aaad-40cf20c93b6d"},"vehicle_type_id":"4","last_reported":1726672164,"current_range_meters":39200,"station_id":"ce4bgs12rcd13ifvqcag","pricing_plan_id":"cebpf4jnsgd1na2vs0mg"},{"bike_id":"7ed6e232-258b-4a81-8bc6-1263c7ea255d","system_id":"levelo_inurba_marseille","lat":43.26783,"lon":5.39418,"is_reserved":false,"is_disabled":false,"rental_uris":{"android":"levelo://app?vid=7ed6e232-258b-4a81-8bc6-1263c7ea255d","ios":"levelo://app?vid=7ed6e232-258b-4a81-8bc6-1263c7ea255d"},"vehicle_type_id":"4","last_reported":1726672164,"current_range_meters":14000,"station_id":"ce4bhh12rcd13ifvqfg0","pricing_plan_id":"cebpf4jnsgd1na2vs0mg"},{"bike_id":"db5bed51-afb9-4548-98e9-7b7ae226c501","system_id":"levelo_inurba_marseille","lat":43.337444,"lon":5.374475,"is_reserved":false,"is_disabled":false,"rental_uris":{"android":"levelo://app?vid=db5bed51-afb9-4548-98e9-7b7ae226c501","ios":"levelo://app?vid=db5bed51-afb9-4548-98e9-7b7ae226c501"},"vehicle_type_id":"4","last_reported":1726672164,"current_range_meters":38000,"station_id":"","pricing_plan_id":"cebpf4jnsgd1na2vs0mg"},{"bike_id":"5a8e0727-1433-453f-a85c-f3f95c4b8a8c","system_id":"levelo_inurba_marseille","lat":43.30546,"lon":5.36527,"is_reserved":false,"is_disabled":false,"rental_uris":{"android":"levelo://app?vid=5a8e0727-1433-453f-a85c-f3f95c4b8a8c","ios":"levelo://app?vid=5a8e0727-1433-453f-a85c-f3f95c4b8a8c"},"vehicle_type_id":"4","last_reported":1726672164,"current_range_meters":36400,"station_id":"ce4bgs12rcd13ifvqcag","pricing_plan_id":"cebpf4jnsgd1na2vs0mg"},{"bike_id":"c69c8435-50bc-4a99-aa32-79ae3620a7de","system_id":"levelo_inurba_marseille","lat":43.294189,"lon":5.386313,"is_reserved":false,"is_disabled":false,"rental_uris":{"android":"levelo://app?vid=c69c8435-50bc-4a99-aa32-79ae3620a7de","ios":"levelo://app?vid=c69c8435-50bc-4a99-aa32-79ae3620a7de"},"vehicle_type_id":"4","last_reported":1726672164,"current_range_meters":34000,"station_id":"ce4bh2h2rcd13ifvqdh0","pricing_plan_id":"cebpf4jnsgd1na2vs0mg"},{"bike_id":"9b7c75ae-fd61-4a01-adb6-a6de6a950813","system_id":"levelo_inurba_marseille","lat":43.27557,"lon":5.3841,"is_reserved":false,"is_disabled":false,"rental_uris":{"android":"levelo://app?vid=9b7c75ae-fd61-4a01-adb6-a6de6a950813","ios":"levelo://app?vid=9b7c75ae-fd61-4a01-adb6-a6de6a950813"},"vehicle_type_id":"4","last_reported":1726672164,"current_range_meters":38800,"station_id":"ce4bhh92rcd13ifvqfi0","pricing_plan_id":"cebpf4jnsgd1na2vs0mg"},{"bike_id":"bc33d38d-829d-4883-85ae-b8c2be86f268","system_id":"levelo_inurba_marseille","lat":43.30553,"lon":5.36535,"is_reserved":false,"is_disabled":false,"rental_uris":{"android":"levelo://app?vid=bc33d38d-829d-4883-85ae-b8c2be86f268","ios":"levelo://app?vid=bc33d38d-829d-4883-85ae-b8c2be86f268"},"vehicle_type_id":"4","last_reported":1726672164,"current_range_meters":20800,"station_id":"ce4bgs12rcd13ifvqcag","pricing_plan_id":"cebpf4jnsgd1na2vs0mg"},{"bike_id":"8c0d530c-80a9-463b-b552-7c7a8c8ab48a","system_id":"levelo_inurba_marseille","lat":43.2315,"lon":5.43713,"is_reserved":false,"is_disabled":false,"rental_uris":{"android":"levelo://app?vid=8c0d530c-80a9-463b-b552-7c7a8c8ab48a","ios":"levelo://app?vid=8c0d530c-80a9-463b-b552-7c7a8c8ab48a"},"vehicle_type_id":"4","last_reported":1726672164,"current_range_meters":38800,"station_id":"ce4bhmp2rcd13ifvqgog","pricing_plan_id":"cebpf4jnsgd1na2vs0mg"},{"bike_id":"4f85f1ac-4d89-4690-bcc3-5ad118b61425","system_id":"levelo_inurba_marseille","lat":43.29876,"lon":5.3891,"is_reserved":false,"is_disabled":false,"rental_uris":{"android":"levelo://app?vid=4f85f1ac-4d89-4690-bcc3-5ad118b61425","ios":"levelo://app?vid=4f85f1ac-4d89-4690-bcc3-5ad118b61425"},"vehicle_type_id":"4","last_reported":1726672164,"current_range_meters":38800,"station_id":"ce4bh392rcd13ifvqdl0","pricing_plan_id":"cebpf4jnsgd1na2vs0mg"},{"bike_id":"492835cb-8258-4229-9447-9c77f4797a20","system_id":"levelo_inurba_marseille","lat":43.31361,"lon":5.38499,"is_reserved":false,"is_disabled":false,"rental_uris":{"android":"levelo://app?vid=492835cb-8258-4229-9447-9c77f4797a20","ios":"levelo://app?vid=492835cb-8258-4229-9447-9c77f4797a20"},"vehicle_type_id":"4","last_reported":1726672164,"current_range_meters":3600,"station_id":"ce4bgt92rcd13ifvqcf0","pricing_plan_id":"cebpf4jnsgd1na2vs0mg"},{"bike_id":"58014cc6-4f39-4119-a8a0-cdc0e2507820","system_id":"levelo_inurba_marseille","lat":43.32284,"lon":5.38272,"is_reserved":false,"is_disabled":false,"rental_uris":{"android":"levelo://app?vid=58014cc6-4f39-4119-a8a0-cdc0e2507820","ios":"levelo://app?vid=58014cc6-4f39-4119-a8a0-cdc0e2507820"},"vehicle_type_id":"4","last_reported":1726672164,"current_range_meters":38800,"station_id":"ce4bhr12rcd13ifvqhqg","pricing_plan_id":"cebpf4jnsgd1na2vs0mg"},{"bike_id":"7231c74c-5278-429f-90a8-a50ab6504eee","system_id":"levelo_inurba_marseille","lat":43.32485,"lon":5.36567,"is_reserved":false,"is_disabled":false,"rental_uris":{"android":"levelo://app?vid=7231c74c-5278-429f-90a8-a50ab6504eee","ios":"levelo://app?vid=7231c74c-5278-429f-90a8-a50ab6504eee"},"vehicle_type_id":"4","last_reported":1726672164,"current_range_meters":27600,"station_id":"ce4bhs12rcd13ifvqhvg","pricing_plan_id":"cebpf4jnsgd1na2vs0mg"},{"bike_id":"a891ee1a-9762-4aa1-9913-dbcb815d9f95","system_id":"levelo_inurba_marseille","lat":43.29417,"lon":5.38621,"is_reserved":false,"is_disabled":false,"rental_uris":{"android":"levelo://app?vid=a891ee1a-9762-4aa1-9913-dbcb815d9f95","ios":"levelo://app?vid=a891ee1a-9762-4aa1-9913-dbcb815d9f95"},"vehicle_type_id":"4","last_reported":1726672164,"current_range_meters":25200,"station_id":"ce4bh2h2rcd13ifvqdh0","pricing_plan_id":"cebpf4jnsgd1na2vs0mg"},{"bike_id":"913dc838-5ca6-4773-a047-8fd0489457df","system_id":"levelo_inurba_marseille","lat":43.297821,"lon":5.380994,"is_reserved":false,"is_disabled":false,"rental_uris":{"android":"levelo://app?vid=913dc838-5ca6-4773-a047-8fd0489457df","ios":"levelo://app?vid=913dc838-5ca6-4773-a047-8fd0489457df"},"vehicle_type_id":"4","last_reported":1726672164,"current_range_meters":8400,"station_id":"ce4bgip2rcd13ifvqbb0","pricing_plan_id":"cebpf4jnsgd1na2vs0mg"},{"bike_id":"67101e27-2fdd-4e84-bdf7-495c619879ab","system_id":"levelo_inurba_marseille","lat":43.31995,"lon":5.38162,"is_reserved":false,"is_disabled":false,"rental_uris":{"android":"levelo://app?vid=67101e27-2fdd-4e84-bdf7-495c619879ab","ios":"levelo://app?vid=67101e27-2fdd-4e84-bdf7-495c619879ab"},"vehicle_type_id":"4","last_reported":1726672164,"current_range_meters":14400,"station_id":"ce4bhr12rcd13ifvqhpg","pricing_plan_id":"cebpf4jnsgd1na2vs0mg"},{"bike_id":"9de036c4-decb-465b-a775-32e663a8924f","system_id":"levelo_inurba_marseille","lat":43.33021,"lon":5.39026,"is_reserved":false,"is_disabled":false,"rental_uris":{"android":"levelo://app?vid=9de036c4-decb-465b-a775-32e663a8924f","ios":"levelo://app?vid=9de036c4-decb-465b-a775-32e663a8924f"},"vehicle_type_id":"4","last_reported":1726672164,"current_range_meters":33600,"station_id":"ce4bhr92rcd13ifvqhrg","pricing_plan_id":"cebpf4jnsgd1na2vs0mg"},{"bike_id":"7c948a0e-65e6-4a09-821a-12650c050a56","system_id":"levelo_inurba_marseille","lat":43.30138,"lon":5.38772,"is_reserved":false,"is_disabled":false,"rental_uris":{"android":"levelo://app?vid=7c948a0e-65e6-4a09-821a-12650c050a56","ios":"levelo://app?vid=7c948a0e-65e6-4a09-821a-12650c050a56"},"vehicle_type_id":"4","last_reported":1726672164,"current_range_meters":22000,"station_id":"ce4bghh2rcd13ifvqb60","pricing_plan_id":"cebpf4jnsgd1na2vs0mg"},{"bike_id":"cb81e840-af29-4eef-b98d-b512a6de60d5","system_id":"levelo_inurba_marseille","lat":43.25584,"lon":5.38241,"is_reserved":false,"is_disabled":false,"rental_uris":{"android":"levelo://app?vid=cb81e840-af29-4eef-b98d-b512a6de60d5","ios":"levelo://app?vid=cb81e840-af29-4eef-b98d-b512a6de60d5"},"vehicle_type_id":"4","last_reported":1726672164,"current_range_meters":26800,"station_id":"ce4bhih2rcd13ifvqfs0","pricing_plan_id":"cebpf4jnsgd1na2vs0mg"},{"bike_id":"6ff4ce02-3ef0-442c-aeaa-002d5008e739","system_id":"levelo_inurba_marseille","lat":43.32477,"lon":5.36552,"is_reserved":false,"is_disabled":false,"rental_uris":{"android":"levelo://app?vid=6ff4ce02-3ef0-442c-aeaa-002d5008e739","ios":"levelo://app?vid=6ff4ce02-3ef0-442c-aeaa-002d5008e739"},"vehicle_type_id":"4","last_reported":1726672164,"current_range_meters":28800,"station_id":"ce4bhs12rcd13ifvqhvg","pricing_plan_id":"cebpf4jnsgd1na2vs0mg"},{"bike_id":"22828621-0c06-4b51-b248-3091626d23c7","system_id":"levelo_inurba_marseille","lat":43.30309,"lon":5.39215,"is_reserved":false,"is_disabled":false,"rental_uris":{"android":"levelo://app?vid=22828621-0c06-4b51-b248-3091626d23c7","ios":"levelo://app?vid=22828621-0c06-4b51-b248-3091626d23c7"},"vehicle_type_id":"4","last_reported":1726672164,"current_range_meters":4000,"station_id":"ce4bhbp2rcd13ifvqerg","pricing_plan_id":"cebpf4jnsgd1na2vs0mg"},{"bike_id":"cee6c8df-c86c-4c67-bff0-7e076fbdf3dd","system_id":"levelo_inurba_marseille","lat":43.30431,"lon":5.38873,"is_reserved":false,"is_disabled":false,"rental_uris":{"android":"levelo://app?vid=cee6c8df-c86c-4c67-bff0-7e076fbdf3dd","ios":"levelo://app?vid=cee6c8df-c86c-4c67-bff0-7e076fbdf3dd"},"vehicle_type_id":"4","last_reported":1726672164,"current_range_meters":30400,"station_id":"ce4bgk12rcd13ifvqbi0","pricing_plan_id":"cebpf4jnsgd1na2vs0mg"},{"bike_id":"8c1b5fed-7d25-47d7-9086-88f1222ac1b4","system_id":"levelo_inurba_marseille","lat":43.28847,"lon":5.39306,"is_reserved":false,"is_disabled":false,"rental_uris":{"android":"levelo://app?vid=8c1b5fed-7d25-47d7-9086-88f1222ac1b4","ios":"levelo://app?vid=8c1b5fed-7d25-47d7-9086-88f1222ac1b4"},"vehicle_type_id":"4","last_reported":1726672164,"current_range_meters":6000,"station_id":"ce4bh2p2rcd13ifvqdi0","pricing_plan_id":"cebpf4jnsgd1na2vs0mg"},{"bike_id":"cbaf03bf-0340-4293-a424-18d0ef0b595f","system_id":"levelo_inurba_marseille","lat":43.29899,"lon":5.43666,"is_reserved":false,"is_disabled":false,"rental_uris":{"android":"levelo://app?vid=cbaf03bf-0340-4293-a424-18d0ef0b595f","ios":"levelo://app?vid=cbaf03bf-0340-4293-a424-18d0ef0b595f"},"vehicle_type_id":"4","last_reported":1726672164,"current_range_meters":15200,"station_id":"ce4bhpp2rcd13ifvqhfg","pricing_plan_id":"cebpf4jnsgd1na2vs0mg"},{"bike_id":"707eaac3-45ed-4b0c-9010-e60d916b1864","system_id":"levelo_inurba_marseille","lat":43.23188,"lon":5.39984,"is_reserved":false,"is_disabled":false,"rental_uris":{"android":"levelo://app?vid=707eaac3-45ed-4b0c-9010-e60d916b1864","ios":"levelo://app?vid=707eaac3-45ed-4b0c-9010-e60d916b1864"},"vehicle_type_id":"4","last_reported":1726672164,"current_range_meters":27600,"station_id":"ce4bhn12rcd13ifvqgqg","pricing_plan_id":"cebpf4jnsgd1na2vs0mg"},{"bike_id":"d0fc61d1-7fab-4a57-ba4e-64fa512d0e95","system_id":"levelo_inurba_marseille","lat":43.26489,"lon":5.3954,"is_reserved":false,"is_disabled":false,"rental_uris":{"android":"levelo://app?vid=d0fc61d1-7fab-4a57-ba4e-64fa512d0e95","ios":"levelo://app?vid=d0fc61d1-7fab-4a57-ba4e-64fa512d0e95"},"vehicle_type_id":"4","last_reported":1726672164,"current_range_meters":25600,"station_id":"ce4bhi12rcd13ifvqfq0","pricing_plan_id":"cebpf4jnsgd1na2vs0mg"},{"bike_id":"6e00666a-f02f-4580-a990-0531883c2cb7","system_id":"levelo_inurba_marseille","lat":43.29895,"lon":5.43663,"is_reserved":false,"is_disabled":false,"rental_uris":{"android":"levelo://app?vid=6e00666a-f02f-4580-a990-0531883c2cb7","ios":"levelo://app?vid=6e00666a-f02f-4580-a990-0531883c2cb7"},"vehicle_type_id":"4","last_reported":1726672164,"current_range_meters":6400,"station_id":"ce4bhpp2rcd13ifvqhfg","pricing_plan_id":"cebpf4jnsgd1na2vs0mg"},{"bike_id":"70f15b34-7ff4-47b7-83da-f32173b344f2","system_id":"levelo_inurba_marseille","lat":43.304392,"lon":5.393692,"is_reserved":false,"is_disabled":false,"rental_uris":{"android":"levelo://app?vid=70f15b34-7ff4-47b7-83da-f32173b344f2","ios":"levelo://app?vid=70f15b34-7ff4-47b7-83da-f32173b344f2"},"vehicle_type_id":"4","last_reported":1726672164,"current_range_meters":19200,"station_id":"ce4bgv92rcd13ifvqcq0","pricing_plan_id":"cebpf4jnsgd1na2vs0mg"},{"bike_id":"d2f9be63-e292-4d77-b064-2978a6d84d49","system_id":"levelo_inurba_marseille","lat":43.24663,"lon":5.38162,"is_reserved":false,"is_disabled":false,"rental_uris":{"android":"levelo://app?vid=d2f9be63-e292-4d77-b064-2978a6d84d49","ios":"levelo://app?vid=d2f9be63-e292-4d77-b064-2978a6d84d49"},"vehicle_type_id":"4","last_reported":1726672164,"current_range_meters":28000,"station_id":"ce4bhih2rcd13ifvqfr0","pricing_plan_id":"cebpf4jnsgd1na2vs0mg"},{"bike_id":"34d0db7b-787d-44c6-a40d-5c98288ad70d","system_id":"levelo_inurba_marseille","lat":43.27172,"lon":5.40986,"is_reserved":false,"is_disabled":false,"rental_uris":{"android":"levelo://app?vid=34d0db7b-787d-44c6-a40d-5c98288ad70d","ios":"levelo://app?vid=34d0db7b-787d-44c6-a40d-5c98288ad70d"},"vehicle_type_id":"4","last_reported":1726672164,"current_range_meters":23200,"station_id":"ce4bhl12rcd13ifvqgf0","pricing_plan_id":"cebpf4jnsgd1na2vs0mg"},{"bike_id":"008b5d84-7410-4fc2-b9d9-71d52f7b2c59","system_id":"levelo_inurba_marseille","lat":43.284149,"lon":5.349827,"is_reserved":false,"is_disabled":false,"rental_uris":{"android":"levelo://app?vid=008b5d84-7410-4fc2-b9d9-71d52f7b2c59","ios":"levelo://app?vid=008b5d84-7410-4fc2-b9d9-71d52f7b2c59"},"vehicle_type_id":"4","last_reported":1726672164,"current_range_meters":35600,"station_id":"ce4bhbh2rcd13ifvqepg","pricing_plan_id":"cebpf4jnsgd1na2vs0mg"},{"bike_id":"e88c0602-0765-4f60-a279-870782d0f819","system_id":"levelo_inurba_marseille","lat":43.27055,"lon":5.40269,"is_reserved":false,"is_disabled":false,"rental_uris":{"android":"levelo://app?vid=e88c0602-0765-4f60-a279-870782d0f819","ios":"levelo://app?vid=e88c0602-0765-4f60-a279-870782d0f819"},"vehicle_type_id":"4","last_reported":1726672164,"current_range_meters":11200,"station_id":"ce4bhk92rcd13ifvqgc0","pricing_plan_id":"cebpf4jnsgd1na2vs0mg"},{"bike_id":"fa2e946d-01fe-4bb4-a2b0-55af60a0bcec","system_id":"levelo_inurba_marseille","lat":43.33722,"lon":5.39188,"is_reserved":false,"is_disabled":false,"rental_uris":{"android":"levelo://app?vid=fa2e946d-01fe-4bb4-a2b0-55af60a0bcec","ios":"levelo://app?vid=fa2e946d-01fe-4bb4-a2b0-55af60a0bcec"},"vehicle_type_id":"4","last_reported":1726672164,"current_range_meters":38400,"station_id":"ce4bhr92rcd13ifvqhsg","pricing_plan_id":"cebpf4jnsgd1na2vs0mg"},{"bike_id":"679fb09d-cc8f-4b7d-bb83-aa3e7d0f0061","system_id":"levelo_inurba_marseille","lat":43.30247,"lon":5.40054,"is_reserved":false,"is_disabled":false,"rental_uris":{"android":"levelo://app?vid=679fb09d-cc8f-4b7d-bb83-aa3e7d0f0061","ios":"levelo://app?vid=679fb09d-cc8f-4b7d-bb83-aa3e7d0f0061"},"vehicle_type_id":"4","last_reported":1726672164,"current_range_meters":38000,"station_id":"ce4bgvh2rcd13ifvqcs0","pricing_plan_id":"cebpf4jnsgd1na2vs0mg"},{"bike_id":"9a9381f8-e406-48a5-b776-168a06f518ee","system_id":"levelo_inurba_marseille","lat":43.30315,"lon":5.39195,"is_reserved":false,"is_disabled":false,"rental_uris":{"android":"levelo://app?vid=9a9381f8-e406-48a5-b776-168a06f518ee","ios":"levelo://app?vid=9a9381f8-e406-48a5-b776-168a06f518ee"},"vehicle_type_id":"4","last_reported":1726672164,"current_range_meters":38800,"station_id":"ce4bgkh2rcd13ifvqbk0","pricing_plan_id":"cebpf4jnsgd1na2vs0mg"},{"bike_id":"c11ebf5c-b2d3-4290-a13c-2ad74dd9fb71","system_id":"levelo_inurba_marseille","lat":43.30138,"lon":5.3742,"is_reserved":false,"is_disabled":false,"rental_uris":{"android":"levelo://app?vid=c11ebf5c-b2d3-4290-a13c-2ad74dd9fb71","ios":"levelo://app?vid=c11ebf5c-b2d3-4290-a13c-2ad74dd9fb71"},"vehicle_type_id":"4","last_reported":1726672164,"current_range_meters":38800,"station_id":"ce4bgs92rcd13ifvqcc0","pricing_plan_id":"cebpf4jnsgd1na2vs0mg"},{"bike_id":"8576b7ab-7715-4607-8c54-78dbf8289bdb","system_id":"levelo_inurba_marseille","lat":43.26199,"lon":5.37447,"is_reserved":false,"is_disabled":false,"rental_uris":{"android":"levelo://app?vid=8576b7ab-7715-4607-8c54-78dbf8289bdb","ios":"levelo://app?vid=8576b7ab-7715-4607-8c54-78dbf8289bdb"},"vehicle_type_id":"4","last_reported":1726672164,"current_range_meters":38800,"station_id":"ce4bhgp2rcd13ifvqfc0","pricing_plan_id":"cebpf4jnsgd1na2vs0mg"},{"bike_id":"328d45f9-980e-4811-97c0-47d761861509","system_id":"levelo_inurba_marseille","lat":43.29847,"lon":5.37836,"is_reserved":false,"is_disabled":false,"rental_uris":{"android":"levelo://app?vid=328d45f9-980e-4811-97c0-47d761861509","ios":"levelo://app?vid=328d45f9-980e-4811-97c0-47d761861509"},"vehicle_type_id":"4","last_reported":1726672164,"current_range_meters":10800,"station_id":"ce4bgkh2rcd13ifvqbl0","pricing_plan_id":"cebpf4jnsgd1na2vs0mg"},{"bike_id":"1c168f5e-c1fc-46b2-a6d4-440110bb06d8","system_id":"levelo_inurba_marseille","lat":43.2829,"lon":5.37932,"is_reserved":false,"is_disabled":false,"rental_uris":{"android":"levelo://app?vid=1c168f5e-c1fc-46b2-a6d4-440110bb06d8","ios":"levelo://app?vid=1c168f5e-c1fc-46b2-a6d4-440110bb06d8"},"vehicle_type_id":"4","last_reported":1726672164,"current_range_meters":26000,"station_id":"ce4bhhh2rcd13ifvqfl0","pricing_plan_id":"cebpf4jnsgd1na2vs0mg"},{"bike_id":"fa690805-233a-4a70-a9f3-33f1b67cdb1f","system_id":"levelo_inurba_marseille","lat":43.32283,"lon":5.38261,"is_reserved":false,"is_disabled":false,"rental_uris":{"android":"levelo://app?vid=fa690805-233a-4a70-a9f3-33f1b67cdb1f","ios":"levelo://app?vid=fa690805-233a-4a70-a9f3-33f1b67cdb1f"},"vehicle_type_id":"4","last_reported":1726672164,"current_range_meters":27600,"station_id":"ce4bhr12rcd13ifvqhqg","pricing_plan_id":"cebpf4jnsgd1na2vs0mg"},{"bike_id":"8b608b96-fedf-4511-8d4b-09bad2606e1a","system_id":"levelo_inurba_marseille","lat":43.27738,"lon":5.41132,"is_reserved":false,"is_disabled":false,"rental_uris":{"android":"levelo://app?vid=8b608b96-fedf-4511-8d4b-09bad2606e1a","ios":"levelo://app?vid=8b608b96-fedf-4511-8d4b-09bad2606e1a"},"vehicle_type_id":"4","last_reported":1726672164,"current_range_meters":4000,"station_id":"","pricing_plan_id":"cebpf4jnsgd1na2vs0mg"},{"bike_id":"53933f63-d4a1-4751-90aa-dbca76b98c88","system_id":"levelo_inurba_marseille","lat":43.29878,"lon":5.38906,"is_reserved":false,"is_disabled":false,"rental_uris":{"android":"levelo://app?vid=53933f63-d4a1-4751-90aa-dbca76b98c88","ios":"levelo://app?vid=53933f63-d4a1-4751-90aa-dbca76b98c88"},"vehicle_type_id":"4","last_reported":1726672164,"current_range_meters":22400,"station_id":"ce4bh392rcd13ifvqdl0","pricing_plan_id":"cebpf4jnsgd1na2vs0mg"},{"bike_id":"adf1fb47-9d94-4b0a-ac42-3ae7959ddecd","system_id":"levelo_inurba_marseille","lat":43.24802,"lon":5.37451,"is_reserved":false,"is_disabled":false,"rental_uris":{"android":"levelo://app?vid=adf1fb47-9d94-4b0a-ac42-3ae7959ddecd","ios":"levelo://app?vid=adf1fb47-9d94-4b0a-ac42-3ae7959ddecd"},"vehicle_type_id":"4","last_reported":1726672164,"current_range_meters":3600,"station_id":"ce4bhgh2rcd13ifvqfb0","pricing_plan_id":"cebpf4jnsgd1na2vs0mg"},{"bike_id":"ffd965b9-8de1-45fd-999a-f52852783f71","system_id":"levelo_inurba_marseille","lat":43.27568,"lon":5.38415,"is_reserved":false,"is_disabled":false,"rental_uris":{"android":"levelo://app?vid=ffd965b9-8de1-45fd-999a-f52852783f71","ios":"levelo://app?vid=ffd965b9-8de1-45fd-999a-f52852783f71"},"vehicle_type_id":"4","last_reported":1726672164,"current_range_meters":19600,"station_id":"ce4bhh92rcd13ifvqfi0","pricing_plan_id":"cebpf4jnsgd1na2vs0mg"},{"bike_id":"90e3bc66-29a6-46c1-873d-fcfbc6b9bf4e","system_id":"levelo_inurba_marseille","lat":43.29623,"lon":5.37701,"is_reserved":false,"is_disabled":false,"rental_uris":{"android":"levelo://app?vid=90e3bc66-29a6-46c1-873d-fcfbc6b9bf4e","ios":"levelo://app?vid=90e3bc66-29a6-46c1-873d-fcfbc6b9bf4e"},"vehicle_type_id":"4","last_reported":1726672164,"current_range_meters":36400,"station_id":"ce4bgi92rcd13ifvqb90","pricing_plan_id":"cebpf4jnsgd1na2vs0mg"},{"bike_id":"7723f8b5-28ba-4c14-a8c6-7ab2a47f9035","system_id":"levelo_inurba_marseille","lat":43.27573,"lon":5.38405,"is_reserved":false,"is_disabled":false,"rental_uris":{"android":"levelo://app?vid=7723f8b5-28ba-4c14-a8c6-7ab2a47f9035","ios":"levelo://app?vid=7723f8b5-28ba-4c14-a8c6-7ab2a47f9035"},"vehicle_type_id":"4","last_reported":1726672164,"current_range_meters":40000,"station_id":"ce4bhh92rcd13ifvqfi0","pricing_plan_id":"cebpf4jnsgd1na2vs0mg"},{"bike_id":"4fda2431-9696-464c-8950-6e94ca0126d5","system_id":"levelo_inurba_marseille","lat":43.301409,"lon":5.374246,"is_reserved":false,"is_disabled":false,"rental_uris":{"android":"levelo://app?vid=4fda2431-9696-464c-8950-6e94ca0126d5","ios":"levelo://app?vid=4fda2431-9696-464c-8950-6e94ca0126d5"},"vehicle_type_id":"4","last_reported":1726672164,"current_range_meters":24800,"station_id":"ce4bgs92rcd13ifvqcc0","pricing_plan_id":"cebpf4jnsgd1na2vs0mg"},{"bike_id":"0ad41644-3799-49ca-a221-c187ba7acd3c","system_id":"levelo_inurba_marseille","lat":43.30944,"lon":5.39024,"is_reserved":false,"is_disabled":false,"rental_uris":{"android":"levelo://app?vid=0ad41644-3799-49ca-a221-c187ba7acd3c","ios":"levelo://app?vid=0ad41644-3799-49ca-a221-c187ba7acd3c"},"vehicle_type_id":"4","last_reported":1726672164,"current_range_meters":11200,"station_id":"ce4bgup2rcd13ifvqco0","pricing_plan_id":"cebpf4jnsgd1na2vs0mg"},{"bike_id":"f2741cbb-baf6-48ac-9ab9-e4a2519206f1","system_id":"levelo_inurba_marseille","lat":43.2873,"lon":5.36078,"is_reserved":false,"is_disabled":false,"rental_uris":{"android":"levelo://app?vid=f2741cbb-baf6-48ac-9ab9-e4a2519206f1","ios":"levelo://app?vid=f2741cbb-baf6-48ac-9ab9-e4a2519206f1"},"vehicle_type_id":"4","last_reported":1726672164,"current_range_meters":9600,"station_id":"cki0cbj6b192h4jlfktg","pricing_plan_id":"cebpf4jnsgd1na2vs0mg"},{"bike_id":"32fe5e49-8911-49b3-a692-8fea7b86d3a7","system_id":"levelo_inurba_marseille","lat":43.25578,"lon":5.3823,"is_reserved":false,"is_disabled":false,"rental_uris":{"android":"levelo://app?vid=32fe5e49-8911-49b3-a692-8fea7b86d3a7","ios":"levelo://app?vid=32fe5e49-8911-49b3-a692-8fea7b86d3a7"},"vehicle_type_id":"4","last_reported":1726672164,"current_range_meters":18800,"station_id":"ce4bhih2rcd13ifvqfs0","pricing_plan_id":"cebpf4jnsgd1na2vs0mg"},{"bike_id":"498a9975-f93a-42dc-9b2f-06fb60860407","system_id":"levelo_inurba_marseille","lat":43.23154,"lon":5.4371,"is_reserved":false,"is_disabled":false,"rental_uris":{"android":"levelo://app?vid=498a9975-f93a-42dc-9b2f-06fb60860407","ios":"levelo://app?vid=498a9975-f93a-42dc-9b2f-06fb60860407"},"vehicle_type_id":"4","last_reported":1726672164,"current_range_meters":24400,"station_id":"ce4bhmp2rcd13ifvqgog","pricing_plan_id":"cebpf4jnsgd1na2vs0mg"},{"bike_id":"d7886d72-22ec-4898-96d7-47719b13e0c7","system_id":"levelo_inurba_marseille","lat":43.26941,"lon":5.40243,"is_reserved":false,"is_disabled":false,"rental_uris":{"android":"levelo://app?vid=d7886d72-22ec-4898-96d7-47719b13e0c7","ios":"levelo://app?vid=d7886d72-22ec-4898-96d7-47719b13e0c7"},"vehicle_type_id":"4","last_reported":1726672164,"current_range_meters":14400,"station_id":"cjm6bp8fraef2m0cb0m0","pricing_plan_id":"cebpf4jnsgd1na2vs0mg"},{"bike_id":"a1b810b2-be0e-43a7-876b-e09cde51a510","system_id":"levelo_inurba_marseille","lat":43.29839,"lon":5.36277,"is_reserved":false,"is_disabled":false,"rental_uris":{"android":"levelo://app?vid=a1b810b2-be0e-43a7-876b-e09cde51a510","ios":"levelo://app?vid=a1b810b2-be0e-43a7-876b-e09cde51a510"},"vehicle_type_id":"4","last_reported":1726672164,"current_range_meters":38400,"station_id":"ce4bgpp2rcd13ifvqc3g","pricing_plan_id":"cebpf4jnsgd1na2vs0mg"},{"bike_id":"004c1074-df58-4367-9fbf-32d1ac721b48","system_id":"levelo_inurba_marseille","lat":43.27066,"lon":5.40257,"is_reserved":false,"is_disabled":false,"rental_uris":{"android":"levelo://app?vid=004c1074-df58-4367-9fbf-32d1ac721b48","ios":"levelo://app?vid=004c1074-df58-4367-9fbf-32d1ac721b48"},"vehicle_type_id":"4","last_reported":1726672164,"current_range_meters":9600,"station_id":"ce4bhk92rcd13ifvqgc0","pricing_plan_id":"cebpf4jnsgd1na2vs0mg"},{"bike_id":"858f4560-2681-4ad8-9049-f0696b7c37b4","system_id":"levelo_inurba_marseille","lat":43.29888,"lon":5.38906,"is_reserved":false,"is_disabled":false,"rental_uris":{"android":"levelo://app?vid=858f4560-2681-4ad8-9049-f0696b7c37b4","ios":"levelo://app?vid=858f4560-2681-4ad8-9049-f0696b7c37b4"},"vehicle_type_id":"4","last_reported":1726672164,"current_range_meters":36400,"station_id":"ce4bh392rcd13ifvqdl0","pricing_plan_id":"cebpf4jnsgd1na2vs0mg"},{"bike_id":"7e653029-cc13-4fde-b3a4-13d2a7474a17","system_id":"levelo_inurba_marseille","lat":43.23194,"lon":5.35552,"is_reserved":false,"is_disabled":false,"rental_uris":{"android":"levelo://app?vid=7e653029-cc13-4fde-b3a4-13d2a7474a17","ios":"levelo://app?vid=7e653029-cc13-4fde-b3a4-13d2a7474a17"},"vehicle_type_id":"4","last_reported":1726672164,"current_range_meters":36800,"station_id":"ce4bhu92rcd13ifvqi70","pricing_plan_id":"cebpf4jnsgd1na2vs0mg"},{"bike_id":"38fe9352-6de4-4cfc-9cd2-3b888e14bfba","system_id":"levelo_inurba_marseille","lat":43.24176,"lon":5.39728,"is_reserved":false,"is_disabled":false,"rental_uris":{"android":"levelo://app?vid=38fe9352-6de4-4cfc-9cd2-3b888e14bfba","ios":"levelo://app?vid=38fe9352-6de4-4cfc-9cd2-3b888e14bfba"},"vehicle_type_id":"4","last_reported":1726672164,"current_range_meters":36400,"station_id":"ce4bhn12rcd13ifvqgpg","pricing_plan_id":"cebpf4jnsgd1na2vs0mg"},{"bike_id":"27109f1d-8ca1-4ba1-8193-7ca41a45028e","system_id":"levelo_inurba_marseille","lat":43.26682,"lon":5.38273,"is_reserved":false,"is_disabled":false,"rental_uris":{"android":"levelo://app?vid=27109f1d-8ca1-4ba1-8193-7ca41a45028e","ios":"levelo://app?vid=27109f1d-8ca1-4ba1-8193-7ca41a45028e"},"vehicle_type_id":"4","last_reported":1726672164,"current_range_meters":29600,"station_id":"ce4bhg92rcd13ifvqf90","pricing_plan_id":"cebpf4jnsgd1na2vs0mg"},{"bike_id":"20421f49-af3c-46cd-99d9-861b10db3251","system_id":"levelo_inurba_marseille","lat":43.30527,"lon":5.36533,"is_reserved":false,"is_disabled":false,"rental_uris":{"android":"levelo://app?vid=20421f49-af3c-46cd-99d9-861b10db3251","ios":"levelo://app?vid=20421f49-af3c-46cd-99d9-861b10db3251"},"vehicle_type_id":"4","last_reported":1726672164,"current_range_meters":27600,"station_id":"ce4bgs12rcd13ifvqcag","pricing_plan_id":"cebpf4jnsgd1na2vs0mg"},{"bike_id":"2b573bda-96ff-42eb-8e05-8354fc2a55ce","system_id":"levelo_inurba_marseille","lat":43.26948,"lon":5.38627,"is_reserved":false,"is_disabled":false,"rental_uris":{"android":"levelo://app?vid=2b573bda-96ff-42eb-8e05-8354fc2a55ce","ios":"levelo://app?vid=2b573bda-96ff-42eb-8e05-8354fc2a55ce"},"vehicle_type_id":"4","last_reported":1726672164,"current_range_meters":31200,"station_id":"ce4bhh92rcd13ifvqfh0","pricing_plan_id":"cebpf4jnsgd1na2vs0mg"},{"bike_id":"e5ce120e-f189-4882-876a-d185220bcf95","system_id":"levelo_inurba_marseille","lat":43.3302,"lon":5.39049,"is_reserved":false,"is_disabled":false,"rental_uris":{"android":"levelo://app?vid=e5ce120e-f189-4882-876a-d185220bcf95","ios":"levelo://app?vid=e5ce120e-f189-4882-876a-d185220bcf95"},"vehicle_type_id":"4","last_reported":1726672164,"current_range_meters":9600,"station_id":"ce4bhr92rcd13ifvqhrg","pricing_plan_id":"cebpf4jnsgd1na2vs0mg"},{"bike_id":"0a3283f9-1885-4d53-8177-f8e3517fc853","system_id":"levelo_inurba_marseille","lat":43.28915,"lon":5.37807,"is_reserved":false,"is_disabled":false,"rental_uris":{"android":"levelo://app?vid=0a3283f9-1885-4d53-8177-f8e3517fc853","ios":"levelo://app?vid=0a3283f9-1885-4d53-8177-f8e3517fc853"},"vehicle_type_id":"4","last_reported":1726672164,"current_range_meters":28400,"station_id":"","pricing_plan_id":"cebpf4jnsgd1na2vs0mg"},{"bike_id":"fdfe9903-2164-4df6-91bb-d6c7c2430a26","system_id":"levelo_inurba_marseille","lat":43.26059,"lon":5.394019,"is_reserved":false,"is_disabled":false,"rental_uris":{"android":"levelo://app?vid=fdfe9903-2164-4df6-91bb-d6c7c2430a26","ios":"levelo://app?vid=fdfe9903-2164-4df6-91bb-d6c7c2430a26"},"vehicle_type_id":"4","last_reported":1726672164,"current_range_meters":38400,"station_id":"ce4bhh92rcd13ifvqfj0","pricing_plan_id":"cebpf4jnsgd1na2vs0mg"},{"bike_id":"e25a3ed1-f610-4eeb-a4a8-79551906dc0e","system_id":"levelo_inurba_marseille","lat":43.30528,"lon":5.36535,"is_reserved":false,"is_disabled":false,"rental_uris":{"android":"levelo://app?vid=e25a3ed1-f610-4eeb-a4a8-79551906dc0e","ios":"levelo://app?vid=e25a3ed1-f610-4eeb-a4a8-79551906dc0e"},"vehicle_type_id":"4","last_reported":1726672164,"current_range_meters":13600,"station_id":"ce4bgs12rcd13ifvqcag","pricing_plan_id":"cebpf4jnsgd1na2vs0mg"},{"bike_id":"6f387a41-1a28-4619-ac86-26875678b81b","system_id":"levelo_inurba_marseille","lat":43.29899,"lon":5.43668,"is_reserved":false,"is_disabled":false,"rental_uris":{"android":"levelo://app?vid=6f387a41-1a28-4619-ac86-26875678b81b","ios":"levelo://app?vid=6f387a41-1a28-4619-ac86-26875678b81b"},"vehicle_type_id":"4","last_reported":1726672164,"current_range_meters":14800,"station_id":"ce4bhpp2rcd13ifvqhfg","pricing_plan_id":"cebpf4jnsgd1na2vs0mg"},{"bike_id":"85644f18-567c-4729-9f1f-0e912bd9680c","system_id":"levelo_inurba_marseille","lat":43.30882,"lon":5.39644,"is_reserved":false,"is_disabled":false,"rental_uris":{"android":"levelo://app?vid=85644f18-567c-4729-9f1f-0e912bd9680c","ios":"levelo://app?vid=85644f18-567c-4729-9f1f-0e912bd9680c"},"vehicle_type_id":"4","last_reported":1726672164,"current_range_meters":19600,"station_id":"ce4bh012rcd13ifvqcv0","pricing_plan_id":"cebpf4jnsgd1na2vs0mg"},{"bike_id":"58190bbe-9315-429b-878a-50c3668829e8","system_id":"levelo_inurba_marseille","lat":43.24652,"lon":5.38893,"is_reserved":false,"is_disabled":false,"rental_uris":{"android":"levelo://app?vid=58190bbe-9315-429b-878a-50c3668829e8","ios":"levelo://app?vid=58190bbe-9315-429b-878a-50c3668829e8"},"vehicle_type_id":"4","last_reported":1726672164,"current_range_meters":18800,"station_id":"ce4bhg12rcd13ifvqf60","pricing_plan_id":"cebpf4jnsgd1na2vs0mg"},{"bike_id":"66075e51-c532-41b2-837a-c8514ef0a0cb","system_id":"levelo_inurba_marseille","lat":43.25729,"lon":5.41109,"is_reserved":false,"is_disabled":false,"rental_uris":{"android":"levelo://app?vid=66075e51-c532-41b2-837a-c8514ef0a0cb","ios":"levelo://app?vid=66075e51-c532-41b2-837a-c8514ef0a0cb"},"vehicle_type_id":"4","last_reported":1726672164,"current_range_meters":7200,"station_id":"ce4bhkp2rcd13ifvqgd0","pricing_plan_id":"cebpf4jnsgd1na2vs0mg"},{"bike_id":"4f4dfb54-47d2-4345-8f91-501b54db9b9f","system_id":"levelo_inurba_marseille","lat":43.30528,"lon":5.38419,"is_reserved":false,"is_disabled":false,"rental_uris":{"android":"levelo://app?vid=4f4dfb54-47d2-4345-8f91-501b54db9b9f","ios":"levelo://app?vid=4f4dfb54-47d2-4345-8f91-501b54db9b9f"},"vehicle_type_id":"4","last_reported":1726672164,"current_range_meters":35600,"station_id":"ce4bgg92rcd13ifvqb30","pricing_plan_id":"cebpf4jnsgd1na2vs0mg"},{"bike_id":"5ab24690-db5b-4fc8-95d0-bbca224817ea","system_id":"levelo_inurba_marseille","lat":43.32365,"lon":5.38882,"is_reserved":false,"is_disabled":false,"rental_uris":{"android":"levelo://app?vid=5ab24690-db5b-4fc8-95d0-bbca224817ea","ios":"levelo://app?vid=5ab24690-db5b-4fc8-95d0-bbca224817ea"},"vehicle_type_id":"4","last_reported":1726672164,"current_range_meters":26800,"station_id":"ce4bhqp2rcd13ifvqhog","pricing_plan_id":"cebpf4jnsgd1na2vs0mg"},{"bike_id":"88068615-8377-4919-a422-c6e9bcaa3ab4","system_id":"levelo_inurba_marseille","lat":43.32289,"lon":5.38265,"is_reserved":false,"is_disabled":false,"rental_uris":{"android":"levelo://app?vid=88068615-8377-4919-a422-c6e9bcaa3ab4","ios":"levelo://app?vid=88068615-8377-4919-a422-c6e9bcaa3ab4"},"vehicle_type_id":"4","last_reported":1726672164,"current_range_meters":38000,"station_id":"ce4bhr12rcd13ifvqhqg","pricing_plan_id":"cebpf4jnsgd1na2vs0mg"},{"bike_id":"32a53a5c-bd44-4a60-816b-c8f392c1434e","system_id":"levelo_inurba_marseille","lat":43.29099,"lon":5.38141,"is_reserved":false,"is_disabled":false,"rental_uris":{"android":"levelo://app?vid=32a53a5c-bd44-4a60-816b-c8f392c1434e","ios":"levelo://app?vid=32a53a5c-bd44-4a60-816b-c8f392c1434e"},"vehicle_type_id":"4","last_reported":1726672164,"current_range_meters":38000,"station_id":"ce4bh512rcd13ifvqe2g","pricing_plan_id":"cebpf4jnsgd1na2vs0mg"},{"bike_id":"7c63adda-4228-4ba2-907a-ce1df8b3266e","system_id":"levelo_inurba_marseille","lat":43.337444,"lon":5.374475,"is_reserved":false,"is_disabled":false,"rental_uris":{"android":"levelo://app?vid=7c63adda-4228-4ba2-907a-ce1df8b3266e","ios":"levelo://app?vid=7c63adda-4228-4ba2-907a-ce1df8b3266e"},"vehicle_type_id":"4","last_reported":1726672164,"current_range_meters":32000,"station_id":"","pricing_plan_id":"cebpf4jnsgd1na2vs0mg"},{"bike_id":"f358b2c9-7bc4-4380-b5bd-b4c365f1fa2a","system_id":"levelo_inurba_marseille","lat":43.29789,"lon":5.37107,"is_reserved":false,"is_disabled":false,"rental_uris":{"android":"levelo://app?vid=f358b2c9-7bc4-4380-b5bd-b4c365f1fa2a","ios":"levelo://app?vid=f358b2c9-7bc4-4380-b5bd-b4c365f1fa2a"},"vehicle_type_id":"4","last_reported":1726672164,"current_range_meters":30800,"station_id":"ce4bgop2rcd13ifvqc1g","pricing_plan_id":"cebpf4jnsgd1na2vs0mg"},{"bike_id":"cb612164-ef29-4863-8347-b66b3d45f902","system_id":"levelo_inurba_marseille","lat":43.31996,"lon":5.38142,"is_reserved":false,"is_disabled":false,"rental_uris":{"android":"levelo://app?vid=cb612164-ef29-4863-8347-b66b3d45f902","ios":"levelo://app?vid=cb612164-ef29-4863-8347-b66b3d45f902"},"vehicle_type_id":"4","last_reported":1726672164,"current_range_meters":12000,"station_id":"ce4bhr12rcd13ifvqhpg","pricing_plan_id":"cebpf4jnsgd1na2vs0mg"},{"bike_id":"1994fb68-5b4c-454b-b94b-74955c595dfe","system_id":"levelo_inurba_marseille","lat":43.276753,"lon":5.388728,"is_reserved":false,"is_disabled":false,"rental_uris":{"android":"levelo://app?vid=1994fb68-5b4c-454b-b94b-74955c595dfe","ios":"levelo://app?vid=1994fb68-5b4c-454b-b94b-74955c595dfe"},"vehicle_type_id":"4","last_reported":1726672164,"current_range_meters":39200,"station_id":"ce4bhi12rcd13ifvqfo0","pricing_plan_id":"cebpf4jnsgd1na2vs0mg"},{"bike_id":"7fe9bdb9-136a-45bf-945d-82d0c4c07b9c","system_id":"levelo_inurba_marseille","lat":43.29264,"lon":5.38433,"is_reserved":false,"is_disabled":false,"rental_uris":{"android":"levelo://app?vid=7fe9bdb9-136a-45bf-945d-82d0c4c07b9c","ios":"levelo://app?vid=7fe9bdb9-136a-45bf-945d-82d0c4c07b9c"},"vehicle_type_id":"4","last_reported":1726672164,"current_range_meters":36400,"station_id":"ce4bh692rcd13ifvqea0","pricing_plan_id":"cebpf4jnsgd1na2vs0mg"},{"bike_id":"447c1a82-3325-49e0-bb48-2ae95a84abd5","system_id":"levelo_inurba_marseille","lat":43.304283,"lon":5.388887,"is_reserved":false,"is_disabled":false,"rental_uris":{"android":"levelo://app?vid=447c1a82-3325-49e0-bb48-2ae95a84abd5","ios":"levelo://app?vid=447c1a82-3325-49e0-bb48-2ae95a84abd5"},"vehicle_type_id":"4","last_reported":1726672164,"current_range_meters":8000,"station_id":"ce4bgk12rcd13ifvqbi0","pricing_plan_id":"cebpf4jnsgd1na2vs0mg"},{"bike_id":"b1421f45-3b69-4045-9305-6d07eebcdd78","system_id":"levelo_inurba_marseille","lat":43.31275,"lon":5.40154,"is_reserved":false,"is_disabled":false,"rental_uris":{"android":"levelo://app?vid=b1421f45-3b69-4045-9305-6d07eebcdd78","ios":"levelo://app?vid=b1421f45-3b69-4045-9305-6d07eebcdd78"},"vehicle_type_id":"4","last_reported":1726672164,"current_range_meters":33600,"station_id":"ce4bh092rcd13ifvqd30","pricing_plan_id":"cebpf4jnsgd1na2vs0mg"},{"bike_id":"b9c7ddc1-b448-4c85-bc7c-2659b305a3e5","system_id":"levelo_inurba_marseille","lat":43.31268,"lon":5.40161,"is_reserved":false,"is_disabled":false,"rental_uris":{"android":"levelo://app?vid=b9c7ddc1-b448-4c85-bc7c-2659b305a3e5","ios":"levelo://app?vid=b9c7ddc1-b448-4c85-bc7c-2659b305a3e5"},"vehicle_type_id":"4","last_reported":1726672164,"current_range_meters":30800,"station_id":"ce4bh092rcd13ifvqd30","pricing_plan_id":"cebpf4jnsgd1na2vs0mg"},{"bike_id":"1c8ae5b3-5dd9-4095-853f-fad303d7798f","system_id":"levelo_inurba_marseille","lat":43.299439,"lon":5.385215,"is_reserved":false,"is_disabled":false,"rental_uris":{"android":"levelo://app?vid=1c8ae5b3-5dd9-4095-853f-fad303d7798f","ios":"levelo://app?vid=1c8ae5b3-5dd9-4095-853f-fad303d7798f"},"vehicle_type_id":"4","last_reported":1726672164,"current_range_meters":22000,"station_id":"ce4bgj92rcd13ifvqbd0","pricing_plan_id":"cebpf4jnsgd1na2vs0mg"},{"bike_id":"3b4cc168-ae9a-4f43-8fec-88ab292ef729","system_id":"levelo_inurba_marseille","lat":43.28001,"lon":5.41658,"is_reserved":false,"is_disabled":false,"rental_uris":{"android":"levelo://app?vid=3b4cc168-ae9a-4f43-8fec-88ab292ef729","ios":"levelo://app?vid=3b4cc168-ae9a-4f43-8fec-88ab292ef729"},"vehicle_type_id":"4","last_reported":1726672164,"current_range_meters":33600,"station_id":"ce4bho12rcd13ifvqh1g","pricing_plan_id":"cebpf4jnsgd1na2vs0mg"},{"bike_id":"0906340b-ff48-4f7d-80a4-107c1937ac87","system_id":"levelo_inurba_marseille","lat":43.27915,"lon":5.3958,"is_reserved":false,"is_disabled":false,"rental_uris":{"android":"levelo://app?vid=0906340b-ff48-4f7d-80a4-107c1937ac87","ios":"levelo://app?vid=0906340b-ff48-4f7d-80a4-107c1937ac87"},"vehicle_type_id":"4","last_reported":1726672164,"current_range_meters":25600,"station_id":"ce4bhf92rcd13ifvqf40","pricing_plan_id":"cebpf4jnsgd1na2vs0mg"},{"bike_id":"b2d80a0a-0909-4592-8a00-62fbbab09557","system_id":"levelo_inurba_marseille","lat":43.2841,"lon":5.3751,"is_reserved":false,"is_disabled":false,"rental_uris":{"android":"levelo://app?vid=b2d80a0a-0909-4592-8a00-62fbbab09557","ios":"levelo://app?vid=b2d80a0a-0909-4592-8a00-62fbbab09557"},"vehicle_type_id":"4","last_reported":1726672164,"current_range_meters":17200,"station_id":"ce4bh412rcd13ifvqds0","pricing_plan_id":"cebpf4jnsgd1na2vs0mg"},{"bike_id":"fda7280b-d87f-4b27-abd7-084e7dd20d80","system_id":"levelo_inurba_marseille","lat":43.26944,"lon":5.40249,"is_reserved":false,"is_disabled":false,"rental_uris":{"android":"levelo://app?vid=fda7280b-d87f-4b27-abd7-084e7dd20d80","ios":"levelo://app?vid=fda7280b-d87f-4b27-abd7-084e7dd20d80"},"vehicle_type_id":"4","last_reported":1726672164,"current_range_meters":25600,"station_id":"cjm6bp8fraef2m0cb0m0","pricing_plan_id":"cebpf4jnsgd1na2vs0mg"},{"bike_id":"4c034b9f-cbab-4e04-b5bc-ee83cd01a53c","system_id":"levelo_inurba_marseille","lat":43.32287,"lon":5.38266,"is_reserved":false,"is_disabled":false,"rental_uris":{"android":"levelo://app?vid=4c034b9f-cbab-4e04-b5bc-ee83cd01a53c","ios":"levelo://app?vid=4c034b9f-cbab-4e04-b5bc-ee83cd01a53c"},"vehicle_type_id":"4","last_reported":1726672164,"current_range_meters":38800,"station_id":"ce4bhr12rcd13ifvqhqg","pricing_plan_id":"cebpf4jnsgd1na2vs0mg"},{"bike_id":"2bac6b95-c690-4ab2-b52d-9cb898650d90","system_id":"levelo_inurba_marseille","lat":43.32366,"lon":5.38886,"is_reserved":false,"is_disabled":false,"rental_uris":{"android":"levelo://app?vid=2bac6b95-c690-4ab2-b52d-9cb898650d90","ios":"levelo://app?vid=2bac6b95-c690-4ab2-b52d-9cb898650d90"},"vehicle_type_id":"4","last_reported":1726672164,"current_range_meters":22000,"station_id":"ce4bhqp2rcd13ifvqhog","pricing_plan_id":"cebpf4jnsgd1na2vs0mg"},{"bike_id":"9143e261-b7de-48de-a21b-2d03e75d19c7","system_id":"levelo_inurba_marseille","lat":43.30326,"lon":5.40435,"is_reserved":false,"is_disabled":false,"rental_uris":{"android":"levelo://app?vid=9143e261-b7de-48de-a21b-2d03e75d19c7","ios":"levelo://app?vid=9143e261-b7de-48de-a21b-2d03e75d19c7"},"vehicle_type_id":"4","last_reported":1726672164,"current_range_meters":17200,"station_id":"ce4bh012rcd13ifvqd10","pricing_plan_id":"cebpf4jnsgd1na2vs0mg"},{"bike_id":"950c1f48-5217-45d9-bd9a-1573aa4cb9a1","system_id":"levelo_inurba_marseille","lat":43.30647,"lon":5.40092,"is_reserved":false,"is_disabled":false,"rental_uris":{"android":"levelo://app?vid=950c1f48-5217-45d9-bd9a-1573aa4cb9a1","ios":"levelo://app?vid=950c1f48-5217-45d9-bd9a-1573aa4cb9a1"},"vehicle_type_id":"4","last_reported":1726672164,"current_range_meters":27200,"station_id":"ce4bh112rcd13ifvqda0","pricing_plan_id":"cebpf4jnsgd1na2vs0mg"},{"bike_id":"785caa5c-7275-4e9c-9b88-cb2ad3698ed8","system_id":"levelo_inurba_marseille","lat":43.31703,"lon":5.37752,"is_reserved":false,"is_disabled":false,"rental_uris":{"android":"levelo://app?vid=785caa5c-7275-4e9c-9b88-cb2ad3698ed8","ios":"levelo://app?vid=785caa5c-7275-4e9c-9b88-cb2ad3698ed8"},"vehicle_type_id":"4","last_reported":1726672164,"current_range_meters":37600,"station_id":"ce4bgth2rcd13ifvqch0","pricing_plan_id":"cebpf4jnsgd1na2vs0mg"},{"bike_id":"a5cf50d5-82da-44be-990d-124f4e3a62cd","system_id":"levelo_inurba_marseille","lat":43.27315,"lon":5.39072,"is_reserved":false,"is_disabled":false,"rental_uris":{"android":"levelo://app?vid=a5cf50d5-82da-44be-990d-124f4e3a62cd","ios":"levelo://app?vid=a5cf50d5-82da-44be-990d-124f4e3a62cd"},"vehicle_type_id":"4","last_reported":1726672164,"current_range_meters":14400,"station_id":"ce4bhgp2rcd13ifvqfe0","pricing_plan_id":"cebpf4jnsgd1na2vs0mg"},{"bike_id":"a26722f9-2a63-428f-8619-5ac1a332c164","system_id":"levelo_inurba_marseille","lat":43.27996,"lon":5.4166,"is_reserved":false,"is_disabled":false,"rental_uris":{"android":"levelo://app?vid=a26722f9-2a63-428f-8619-5ac1a332c164","ios":"levelo://app?vid=a26722f9-2a63-428f-8619-5ac1a332c164"},"vehicle_type_id":"4","last_reported":1726672164,"current_range_meters":24400,"station_id":"ce4bho12rcd13ifvqh1g","pricing_plan_id":"cebpf4jnsgd1na2vs0mg"},{"bike_id":"dcebcd92-4c0c-4c29-a392-1d714fe492f5","system_id":"levelo_inurba_marseille","lat":43.29418,"lon":5.39413,"is_reserved":false,"is_disabled":false,"rental_uris":{"android":"levelo://app?vid=dcebcd92-4c0c-4c29-a392-1d714fe492f5","ios":"levelo://app?vid=dcebcd92-4c0c-4c29-a392-1d714fe492f5"},"vehicle_type_id":"4","last_reported":1726672164,"current_range_meters":23200,"station_id":"","pricing_plan_id":"cebpf4jnsgd1na2vs0mg"},{"bike_id":"5e00fe00-0710-4108-8a05-ce7ae988203f","system_id":"levelo_inurba_marseille","lat":43.29293,"lon":5.37459,"is_reserved":false,"is_disabled":false,"rental_uris":{"android":"levelo://app?vid=5e00fe00-0710-4108-8a05-ce7ae988203f","ios":"levelo://app?vid=5e00fe00-0710-4108-8a05-ce7ae988203f"},"vehicle_type_id":"4","last_reported":1726672164,"current_range_meters":18000,"station_id":"ce4bgi12rcd13ifvqb70","pricing_plan_id":"cebpf4jnsgd1na2vs0mg"},{"bike_id":"e234c845-4fe7-4b15-83e2-2059d7489c62","system_id":"levelo_inurba_marseille","lat":43.3237,"lon":5.38884,"is_reserved":false,"is_disabled":false,"rental_uris":{"android":"levelo://app?vid=e234c845-4fe7-4b15-83e2-2059d7489c62","ios":"levelo://app?vid=e234c845-4fe7-4b15-83e2-2059d7489c62"},"vehicle_type_id":"4","last_reported":1726672164,"current_range_meters":25200,"station_id":"ce4bhqp2rcd13ifvqhog","pricing_plan_id":"cebpf4jnsgd1na2vs0mg"},{"bike_id":"6a62e443-dc23-4969-a0c1-a3421b30788d","system_id":"levelo_inurba_marseille","lat":43.25731,"lon":5.41117,"is_reserved":false,"is_disabled":false,"rental_uris":{"android":"levelo://app?vid=6a62e443-dc23-4969-a0c1-a3421b30788d","ios":"levelo://app?vid=6a62e443-dc23-4969-a0c1-a3421b30788d"},"vehicle_type_id":"4","last_reported":1726672164,"current_range_meters":34800,"station_id":"ce4bhkp2rcd13ifvqgd0","pricing_plan_id":"cebpf4jnsgd1na2vs0mg"},{"bike_id":"8bf45d95-2632-4ce0-8998-ca9b7c913510","system_id":"levelo_inurba_marseille","lat":43.31756,"lon":5.39014,"is_reserved":false,"is_disabled":false,"rental_uris":{"android":"levelo://app?vid=8bf45d95-2632-4ce0-8998-ca9b7c913510","ios":"levelo://app?vid=8bf45d95-2632-4ce0-8998-ca9b7c913510"},"vehicle_type_id":"4","last_reported":1726672164,"current_range_meters":36800,"station_id":"ce4bhqp2rcd13ifvqhng","pricing_plan_id":"cebpf4jnsgd1na2vs0mg"},