{"last_updated":1740330509,"ttl":60,"version":"2.2","data":{"bikes":[{"bike_id":"0d10a060-f699-4364-93be-0f4eb11daa00","system_id":"levelo_inurba_marseille","lat":43.2894,"lon":5.36641,"is_reserved":false,"is_disabled":false,"rental_uris":{"android":"levelo://app?vid=0d10a060-f699-4364-93be-0f4eb11daa00","ios":"levelo://app?vid=0d10a060-f699-4364-93be-0f4eb11daa00"},"vehicle_type_id":"4","last_reported":1740330510,"current_range_meters":2800,"station_id":"ce4bhap2rcd13ifvqek0","pricing_plan_id":"cebpf4jnsgd1na2vs0mg"},{"bike_id":"5b287323-f96c-473a-8363-4427eaec28e5","system_id":"levelo_inurba_marseille","lat":43.26204,"lon":5.37929,"is_reserved":false,"is_disabled":false,"rental_uris":{"android":"levelo://app?vid=5b287323-f96c-473a-8363-4427eaec28e5","ios":"levelo://app?vid=5b287323-f96c-473a-8363-4427eaec28e5"},"vehicle_type_id":"4","last_reported":1740330510,"current_range_meters":2800,"station_id":"ce4bhjp2rcd13ifvqg90","pricing_plan_id":"cebpf4jnsgd1na2vs0mg"},{"bike_id":"37486a82-6407-4eb3-b86f-e21ed4a3cf76","system_id":"levelo_inurba_marseille","lat":43.27229,"lon":5.39149,"is_reserved":false,"is_disabled":false,"rental_uris":{"android":"levelo://app?vid=37486a82-6407-4eb3-b86f-e21ed4a3cf76","ios":"levelo://app?vid=37486a82-6407-4eb3-b86f-e21ed4a3cf76"},"vehicle_type_id":"4","last_reported":1740330510,"current_range_meters":2800,"station_id":"ce4bhhp2rcd13ifvqfm0","pricing_plan_id":"cebpf4jnsgd1na2vs0mg"},{"bike_id":"5d514647-5cbe-4082-b60a-5b17fbed8e84","system_id":"levelo_inurba_marseille","lat":43.25008,"lon":5.38912,"is_reserved":false,"is_disabled":false,"rental_uris":{"android":"levelo://app?vid=5d514647-5cbe-4082-b60a-5b17fbed8e84","ios":"levelo://app?vid=5d514647-5cbe-4082-b60a-5b17fbed8e84"},"vehicle_type_id":"4","last_reported":1740330510,"current_range_meters":2800,"station_id":"ce4bhgp2rcd13ifvqfd0","pricing_plan_id":"cebpf4jnsgd1na2vs0mg"},{"bike_id":"0fb3d653-f99f-4896-bc45-6c89fdb9f8b3","system_id":"levelo_inurba_marseille","lat":43.25312,"lon":5.39453,"is_reserved":false,"is_disabled":false,"rental_uris":{"android":"levelo://app?vid=0fb3d653-f99f-4896-bc45-6c89fdb9f8b3","ios":"levelo://app?vid=0fb3d653-f99f-4896-bc45-6c89fdb9f8b3"},"vehicle_type_id":"4","last_reported":1740330510,"current_range_meters":2800,"station_id":"ce4bhm12rcd13ifvqgkg","pricing_plan_id":"cebpf4jnsgd1na2vs0mg"},{"bike_id":"91cd9c50-a708-4ca7-8c38-9684716b8855","system_id":"levelo_inurba_marseille","lat":43.33777,"lon":5.37439,"is_reserved":false,"is_disabled":false,"rental_uris":{"android":"levelo://app?vid=91cd9c50-a708-4ca7-8c38-9684716b8855","ios":"levelo://app?vid=91cd9c50-a708-4ca7-8c38-9684716b8855"},"vehicle_type_id":"4","last_reported":1740330510,"current_range_meters":2800,"station_id":"","pricing_plan_id":"cebpf4jnsgd1na2vs0mg"},{"bike_id":"6632bc22-7354-4a6c-9729-5841ecfea8ff","system_id":"levelo_inurba_marseille","lat":43.28591,"lon":5.35094,"is_reserved":false,"is_disabled":false,"rental_uris":{"android":"levelo://app?vid=6632bc22-7354-4a6c-9729-5841ecfea8ff","ios":"levelo://app?vid=6632bc22-7354-4a6c-9729-5841ecfea8ff"},"vehicle_type_id":"4","last_reported":1740330510,"current_range_meters":2800,"station_id":"ce4bhb92rcd13ifvqen0","pricing_plan_id":"cebpf4jnsgd1na2vs0mg"},{"bike_id":"8934e3f3-daf7-489d-bf2b-6118ae51b83c","system_id":"levelo_inurba_marseille","lat":43.283575,"lon":5.381002,"is_reserved":false,"is_disabled":false,"rental_uris":{"android":"levelo://app?vid=8934e3f3-daf7-489d-bf2b-6118ae51b83c","ios":"levelo://app?vid=8934e3f3-daf7-489d-bf2b-6118ae51b83c"},"vehicle_type_id":"4","last_reported":1740330510,"current_range_meters":2800,"station_id":"ce4bgi12rcd13ifvqb70","pricing_plan_id":"cebpf4jnsgd1na2vs0mg"},{"bike_id":"cb2d1d63-545c-4d92-b999-65ce08137c87","system_id":"levelo_inurba_marseille","lat":43.24809,"lon":5.37457,"is_reserved":false,"is_disabled":false,"rental_uris":{"android":"levelo://app?vid=cb2d1d63-545c-4d92-b999-65ce08137c87","ios":"levelo://app?vid=cb2d1d63-545c-4d92-b999-65ce08137c87"},"vehicle_type_id":"4","last_reported":1740330510,"current_range_meters":3200,"station_id":"ce4bhgh2rcd13ifvqfb0","pricing_plan_id":"cebpf4jnsgd1na2vs0mg"},{"bike_id":"b8fdf114-f8ca-4423-b314-1c8125dc6717","system_id":"levelo_inurba_marseille","lat":43.25087,"lon":5.39513,"is_reserved":false,"is_disabled":false,"rental_uris":{"android":"levelo://app?vid=b8fdf114-f8ca-4423-b314-1c8125dc6717","ios":"levelo://app?vid=b8fdf114-f8ca-4423-b314-1c8125dc6717"},"vehicle_type_id":"4","last_reported":1740330510,"current_range_meters":3200,"station_id":"ce4bhm12rcd13ifvqgkg","pricing_plan_id":"cebpf4jnsgd1na2vs0mg"},{"bike_id":"7380a1fb-1e64-431e-ad07-ae48b7990a22","system_id":"levelo_inurba_marseille","lat":43.305338,"lon":5.384303,"is_reserved":false,"is_disabled":false,"rental_uris":{"android":"levelo://app?vid=7380a1fb-1e64-431e-ad07-ae48b7990a22","ios":"levelo://app?vid=7380a1fb-1e64-431e-ad07-ae48b7990a22"},"vehicle_type_id":"4","last_reported":1740330510,"current_range_meters":3200,"station_id":"ce4bgv92rcd13ifvqcr0","pricing_plan_id":"cebpf4jnsgd1na2vs0mg"},{"bike_id":"84c2667d-c3a8-4fa6-af9c-6759b8fc2729","system_id":"levelo_inurba_marseille","lat":43.30603,"lon":5.3723,"is_reserved":false,"is_disabled":false,"rental_uris":{"android":"levelo://app?vid=84c2667d-c3a8-4fa6-af9c-6759b8fc2729","ios":"levelo://app?vid=84c2667d-c3a8-4fa6-af9c-6759b8fc2729"},"vehicle_type_id":"4","last_reported":1740330510,"current_range_meters":3600,"station_id":"ce4bgqh2rcd13ifvqc4g","pricing_plan_id":"cebpf4jnsgd1na2vs0mg"},{"bike_id":"597f22d2-3d4a-4b91-8dd6-0882bac65463","system_id":"levelo_inurba_marseille","lat":43.27613,"lon":5.36109,"is_reserved":false,"is_disabled":true,"rental_uris":{"android":"levelo://app?vid=597f22d2-3d4a-4b91-8dd6-0882bac65463","ios":"levelo://app?vid=597f22d2-3d4a-4b91-8dd6-0882bac65463"},"vehicle_type_id":"4","last_reported":1740330510,"current_range_meters":3600,"station_id":"ce4bgj92rcd13ifvqbe0","pricing_plan_id":"cebpf4jnsgd1na2vs0mg"},{"bike_id":"842c5fcb-dc21-45f8-b607-b00efc9b29de","system_id":"levelo_inurba_marseille","lat":43.29932,"lon":5.36545,"is_reserved":false,"is_disabled":false,"rental_uris":{"android":"levelo://app?vid=842c5fcb-dc21-45f8-b607-b00efc9b29de","ios":"levelo://app?vid=842c5fcb-dc21-45f8-b607-b00efc9b29de"},"vehicle_type_id":"4","last_reported":1740330510,"current_range_meters":3600,"station_id":"ce4bgm92rcd13ifvqbr0","pricing_plan_id":"cebpf4jnsgd1na2vs0mg"},{"bike_id":"fa83beb1-2405-4db0-9826-c091cb751783","system_id":"levelo_inurba_marseille","lat":43.25117,"lon":5.40321,"is_reserved":false,"is_disabled":true,"rental_uris":{"android":"levelo://app?vid=fa83beb1-2405-4db0-9826-c091cb751783","ios":"levelo://app?vid=fa83beb1-2405-4db0-9826-c091cb751783"},"vehicle_type_id":"4","last_reported":1740330510,"current_range_meters":3600,"station_id":"ce4bhlh2rcd13ifvqgig","pricing_plan_id":"cebpf4jnsgd1na2vs0mg"},{"bike_id":"67022dcd-c38c-4d0a-a26b-f89fe7c4344d","system_id":"levelo_inurba_marseille","lat":43.29192,"lon":5.35805,"is_reserved":false,"is_disabled":false,"rental_uris":{"android":"levelo://app?vid=67022dcd-c38c-4d0a-a26b-f89fe7c4344d","ios":"levelo://app?vid=67022dcd-c38c-4d0a-a26b-f89fe7c4344d"},"vehicle_type_id":"4","last_reported":1740330510,"current_range_meters":4000,"station_id":"ce4bhb12rcd13ifvqel0","pricing_plan_id":"cebpf4jnsgd1na2vs0mg"},{"bike_id":"1352b9bf-a41c-4789-8726-c1be384bcc6b","system_id":"levelo_inurba_marseille","lat":43.30303,"lon":5.3921,"is_reserved":false,"is_disabled":false,"rental_uris":{"android":"levelo://app?vid=1352b9bf-a41c-4789-8726-c1be384bcc6b","ios":"levelo://app?vid=1352b9bf-a41c-4789-8726-c1be384bcc6b"},"vehicle_type_id":"4","last_reported":1740330510,"current_range_meters":4000,"station_id":"ce4bgkh2rcd13ifvqbk0","pricing_plan_id":"cebpf4jnsgd1na2vs0mg"},{"bike_id":"0cf96e2b-aa7d-4a9e-997c-9164596232a0","system_id":"levelo_inurba_marseille","lat":43.32003,"lon":5.38161,"is_reserved":false,"is_disabled":false,"rental_uris":{"android":"levelo://app?vid=0cf96e2b-aa7d-4a9e-997c-9164596232a0","ios":"levelo://app?vid=0cf96e2b-aa7d-4a9e-997c-9164596232a0"},"vehicle_type_id":"4","last_reported":1740330510,"current_range_meters":4000,"station_id":"ce4bhr12rcd13ifvqhpg","pricing_plan_id":"cebpf4jnsgd1na2vs0mg"},{"bike_id":"ab46b189-6bae-4129-a7fd-10b3ccd5a48e","system_id":"levelo_inurba_marseille","lat":43.27196,"lon":5.40001,"is_reserved":false,"is_disabled":false,"rental_uris":{"android":"levelo://app?vid=ab46b189-6bae-4129-a7fd-10b3ccd5a48e","ios":"levelo://app?vid=ab46b189-6bae-4129-a7fd-10b3ccd5a48e"},"vehicle_type_id":"4","last_reported":1740330510,"current_range_meters":4000,"station_id":"","pricing_plan_id":"cebpf4jnsgd1na2vs0mg"},{"bike_id":"8bfe7f7a-721f-4be6-825e-e8de2f4be402","system_id":"levelo_inurba_marseille","lat":43.27914,"lon":5.39598,"is_reserved":false,"is_disabled":false,"rental_uris":{"android":"levelo://app?vid=8bfe7f7a-721f-4be6-825e-e8de2f4be402","ios":"levelo://app?vid=8bfe7f7a-721f-4be6-825e-e8de2f4be402"},"vehicle_type_id":"4","last_reported":1740330510,"current_range_meters":4000,"station_id":"ce4bhf92rcd13ifvqf40","pricing_plan_id":"cebpf4jnsgd1na2vs0mg"},{"bike_id":"d96a811e-7000-43af-9b3e-6a5e4d5580d3","system_id":"levelo_inurba_marseille","lat":43.28412,"lon":5.37507,"is_reserved":false,"is_disabled":false,"rental_uris":{"android":"levelo://app?vid=d96a811e-7000-43af-9b3e-6a5e4d5580d3","ios":"levelo://app?vid=d96a811e-7000-43af-9b3e-6a5e4d5580d3"},"vehicle_type_id":"4","last_reported":1740330510,"current_range_meters":4400,"station_id":"ce4bh412rcd13ifvqds0","pricing_plan_id":"cebpf4jnsgd1na2vs0mg"},{"bike_id":"30dc027b-862b-4eee-b5e9-748f55bddfeb","system_id":"levelo_inurba_marseille","lat":43.26211,"lon":5.40456,"is_reserved":false,"is_disabled":false,"rental_uris":{"android":"levelo://app?vid=30dc027b-862b-4eee-b5e9-748f55bddfeb","ios":"levelo://app?vid=30dc027b-862b-4eee-b5e9-748f55bddfeb"},"vehicle_type_id":"4","last_reported":1740330510,"current_range_meters":4400,"station_id":"ce4bhmh2rcd13ifvqgmg","pricing_plan_id":"cebpf4jnsgd1na2vs0mg"},{"bike_id":"4a557853-50e7-49c9-b18a-024cf4005d71","system_id":"levelo_inurba_marseille","lat":43.29967,"lon":5.38499,"is_reserved":false,"is_disabled":false,"rental_uris":{"android":"levelo://app?vid=4a557853-50e7-49c9-b18a-024cf4005d71","ios":"levelo://app?vid=4a557853-50e7-49c9-b18a-024cf4005d71"},"vehicle_type_id":"4","last_reported":1740330510,"current_range_meters":4400,"station_id":"ce4bgj92rcd13ifvqbd0","pricing_plan_id":"cebpf4jnsgd1na2vs0mg"},{"bike_id":"ad897e9a-47c9-4b11-b12a-3f029095f3c7","system_id":"levelo_inurba_marseille","lat":43.27436,"lon":5.39404,"is_reserved":false,"is_disabled":false,"rental_uris":{"android":"levelo://app?vid=ad897e9a-47c9-4b11-b12a-3f029095f3c7","ios":"levelo://app?vid=ad897e9a-47c9-4b11-b12a-3f029095f3c7"},"vehicle_type_id":"4","last_reported":1740330510,"current_range_meters":4400,"station_id":"ce4bhdp2rcd13ifvqf20","pricing_plan_id":"cebpf4jnsgd1na2vs0mg"},{"bike_id":"b0ad779d-eb92-4a1c-aaae-6dd1854a4f02","system_id":"levelo_inurba_marseille","lat":43.29029,"lon":5.39965,"is_reserved":false,"is_disabled":false,"rental_uris":{"android":"levelo://app?vid=b0ad779d-eb92-4a1c-aaae-6dd1854a4f02","ios":"levelo://app?vid=b0ad779d-eb92-4a1c-aaae-6dd1854a4f02"},"vehicle_type_id":"4","last_reported":1740330510,"current_range_meters":4800,"station_id":"ce4bh392rcd13ifvqdm0","pricing_plan_id":"cebpf4jnsgd1na2vs0mg"},{"bike_id":"d11c43cb-285f-4ab5-81ed-3ec4cc9e9312","system_id":"levelo_inurba_marseille","lat":43.30305,"lon":5.39214,"is_reserved":false,"is_disabled":false,"rental_uris":{"android":"levelo://app?vid=d11c43cb-285f-4ab5-81ed-3ec4cc9e9312","ios":"levelo://app?vid=d11c43cb-285f-4ab5-81ed-3ec4cc9e9312"},"vehicle_type_id":"4","last_reported":1740330510,"current_range_meters":4800,"station_id":"ce4bgkh2rcd13ifvqbk0","pricing_plan_id":"cebpf4jnsgd1na2vs0mg"},{"bike_id":"380e6f43-ec90-4049-b4d6-3c275dcb82bb","system_id":"levelo_inurba_marseille","lat":43.29008,"lon":5.35609,"is_reserved":false,"is_disabled":false,"rental_uris":{"android":"levelo://app?vid=380e6f43-ec90-4049-b4d6-3c275dcb82bb","ios":"levelo://app?vid=380e6f43-ec90-4049-b4d6-3c275dcb82bb"},"vehicle_type_id":"4","last_reported":1740330510,"current_range_meters":4800,"station_id":"ce4bhb92rcd13ifvqen0","pricing_plan_id":"cebpf4jnsgd1na2vs0mg"},{"bike_id":"9d6ba316-a496-4ae5-9173-abd9b54f92cf","system_id":"levelo_inurba_marseille","lat":43.28992,"lon":5.35619,"is_reserved":false,"is_disabled":false,"rental_uris":{"android":"levelo://app?vid=9d6ba316-a496-4ae5-9173-abd9b54f92cf","ios":"levelo://app?vid=9d6ba316-a496-4ae5-9173-abd9b54f92cf"},"vehicle_type_id":"4","last_reported":1740330510,"current_range_meters":4800,"station_id":"ce4bhb92rcd13ifvqen0","pricing_plan_id":"cebpf4jnsgd1na2vs0mg"},{"bike_id":"a613e5e8-d492-414d-b6a0-1dfaeab208ce","system_id":"levelo_inurba_marseille","lat":43.31324,"lon":5.39703,"is_reserved":false,"is_disabled":false,"rental_uris":{"android":"levelo://app?vid=a613e5e8-d492-414d-b6a0-1dfaeab208ce","ios":"levelo://app?vid=a613e5e8-d492-414d-b6a0-1dfaeab208ce"},"vehicle_type_id":"4","last_reported":1740330510,"current_range_meters":4800,"station_id":"ce4bgvp2rcd13ifvqcu0","pricing_plan_id":"cebpf4jnsgd1na2vs0mg"},{"bike_id":"af1c5902-ca24-432d-ae7b-f8e1803daa4b","system_id":"levelo_inurba_marseille","lat":43.31994,"lon":5.3817,"is_reserved":false,"is_disabled":false,"rental_uris":{"android":"levelo://app?vid=af1c5902-ca24-432d-ae7b-f8e1803daa4b","ios":"levelo://app?vid=af1c5902-ca24-432d-ae7b-f8e1803daa4b"},"vehicle_type_id":"4","last_reported":1740330510,"current_range_meters":5600,"station_id":"ce4bhr12rcd13ifvqhpg","pricing_plan_id":"cebpf4jnsgd1na2vs0mg"},{"bike_id":"f8812183-2a7f-4612-bd78-a321cf2ab341","system_id":"levelo_inurba_marseille","lat":43.3235,"lon":5.40614,"is_reserved":false,"is_disabled":false,"rental_uris":{"android":"levelo://app?vid=f8812183-2a7f-4612-bd78-a321cf2ab341","ios":"levelo://app?vid=f8812183-2a7f-4612-bd78-a321cf2ab341"},"vehicle_type_id":"4","last_reported":1740330510,"current_range_meters":5600,"station_id":"ce4bhq92rcd13ifvqhjg","pricing_plan_id":"cebpf4jnsgd1na2vs0mg"},{"bike_id":"8e04af9c-0414-4f0d-85eb-c83d56f19ea5","system_id":"levelo_inurba_marseille","lat":43.28617,"lon":5.35108,"is_reserved":false,"is_disabled":false,"rental_uris":{"android":"levelo://app?vid=8e04af9c-0414-4f0d-85eb-c83d56f19ea5","ios":"levelo://app?vid=8e04af9c-0414-4f0d-85eb-c83d56f19ea5"},"vehicle_type_id":"4","last_reported":1740330510,"current_range_meters":5600,"station_id":"ce4bhch2rcd13ifvqeug","pricing_plan_id":"cebpf4jnsgd1na2vs0mg"},{"bike_id":"327a9ffb-0bfd-4f9e-9cd7-147f2b64d145","system_id":"levelo_inurba_marseille","lat":43.28442,"lon":5.39207,"is_reserved":false,"is_disabled":false,"rental_uris":{"android":"levelo://app?vid=327a9ffb-0bfd-4f9e-9cd7-147f2b64d145","ios":"levelo://app?vid=327a9ffb-0bfd-4f9e-9cd7-147f2b64d145"},"vehicle_type_id":"4","last_reported":1740330510,"current_range_meters":5600,"station_id":"ce4bhoh2rcd13ifvqh5g","pricing_plan_id":"cebpf4jnsgd1na2vs0mg"},{"bike_id":"9116b8ac-629d-459b-b44d-248b2c2649b7","system_id":"levelo_inurba_marseille","lat":43.279422,"lon":5.410598,"is_reserved":false,"is_disabled":true,"rental_uris":{"android":"levelo://app?vid=9116b8ac-629d-459b-b44d-248b2c2649b7","ios":"levelo://app?vid=9116b8ac-629d-459b-b44d-248b2c2649b7"},"vehicle_type_id":"4","last_reported":1740330510,"current_range_meters":5600,"station_id":"ce4bhnp2rcd13ifvqh0g","pricing_plan_id":"cebpf4jnsgd1na2vs0mg"},{"bike_id":"32c377b9-504c-41ed-920b-fdc08cc6d6a6","system_id":"levelo_inurba_marseille","lat":43.282786,"lon":5.350653,"is_reserved":false,"is_disabled":false,"rental_uris":{"android":"levelo://app?vid=32c377b9-504c-41ed-920b-fdc08cc6d6a6","ios":"levelo://app?vid=32c377b9-504c-41ed-920b-fdc08cc6d6a6"},"vehicle_type_id":"4","last_reported":1740330510,"current_range_meters":5600,"station_id":"ce4bhbp2rcd13ifvqerg","pricing_plan_id":"cebpf4jnsgd1na2vs0mg"},{"bike_id":"11e4295d-8543-4dfc-9a13-07148ed96857","system_id":"levelo_inurba_marseille","lat":43.28937,"lon":5.36641,"is_reserved":false,"is_disabled":false,"rental_uris":{"android":"levelo://app?vid=11e4295d-8543-4dfc-9a13-07148ed96857","ios":"levelo://app?vid=11e4295d-8543-4dfc-9a13-07148ed96857"},"vehicle_type_id":"4","last_reported":1740330510,"current_range_meters":5600,"station_id":"ce4bhap2rcd13ifvqek0","pricing_plan_id":"cebpf4jnsgd1na2vs0mg"},{"bike_id":"b985ad1f-1942-453b-b5eb-7462cafd1e31","system_id":"levelo_inurba_marseille","lat":43.23197,"lon":5.35531,"is_reserved":false,"is_disabled":false,"rental_uris":{"android":"levelo://app?vid=b985ad1f-1942-453b-b5eb-7462cafd1e31","ios":"levelo://app?vid=b985ad1f-1942-453b-b5eb-7462cafd1e31"},"vehicle_type_id":"4","last_reported":1740330510,"current_range_meters":5600,"station_id":"ce4bhu92rcd13ifvqi70","pricing_plan_id":"cebpf4jnsgd1na2vs0mg"},{"bike_id":"2eaeb71a-cca5-4858-973a-1d2251c3a5af","system_id":"levelo_inurba_marseille","lat":43.25121,"lon":5.40315,"is_reserved":false,"is_disabled":false,"rental_uris":{"android":"levelo://app?vid=2eaeb71a-cca5-4858-973a-1d2251c3a5af","ios":"levelo://app?vid=2eaeb71a-cca5-4858-973a-1d2251c3a5af"},"vehicle_type_id":"4","last_reported":1740330510,"current_range_meters":3600,"station_id":"ce4bhlh2rcd13ifvqgig","pricing_plan_id":"cebpf4jnsgd1na2vs0mg"},{"bike_id":"58cf0688-ca19-4b44-a66e-05140007d280","system_id":"levelo_inurba_marseille","lat":43.25493,"lon":5.37667,"is_reserved":false,"is_disabled":false,"rental_uris":{"android":"levelo://app?vid=58cf0688-ca19-4b44-a66e-05140007d280","ios":"levelo://app?vid=58cf0688-ca19-4b44-a66e-05140007d280"},"vehicle_type_id":"4","last_reported":1740330510,"current_range_meters":6000,"station_id":"ce4bhh12rcd13ifvqff0","pricing_plan_id":"cebpf4jnsgd1na2vs0mg"},{"bike_id":"2a7165b4-60a1-4418-90cd-83d9915280e2","system_id":"levelo_inurba_marseille","lat":43.28019,"lon":5.40605,"is_reserved":false,"is_disabled":false,"rental_uris":{"android":"levelo://app?vid=2a7165b4-60a1-4418-90cd-83d9915280e2","ios":"levelo://app?vid=2a7165b4-60a1-4418-90cd-83d9915280e2"},"vehicle_type_id":"4","last_reported":1740330510,"current_range_meters":6000,"station_id":"","pricing_plan_id":"cebpf4jnsgd1na2vs0mg"},{"bike_id":"d1d1b207-33ff-4454-ad8b-3b995decb552","system_id":"levelo_inurba_marseille","lat":43.29198,"lon":5.35795,"is_reserved":false,"is_disabled":false,"rental_uris":{"android":"levelo://app?vid=d1d1b207-33ff-4454-ad8b-3b995decb552","ios":"levelo://app?vid=d1d1b207-33ff-4454-ad8b-3b995decb552"},"vehicle_type_id":"4","last_reported":1740330510,"current_range_meters":6400,"station_id":"ce4bhb12rcd13ifvqel0","pricing_plan_id":"cebpf4jnsgd1na2vs0mg"},{"bike_id":"7f4d447e-9875-420d-9883-66a7a2800be3","system_id":"levelo_inurba_marseille","lat":43.29933,"lon":5.36554,"is_reserved":false,"is_disabled":false,"rental_uris":{"android":"levelo://app?vid=7f4d447e-9875-420d-9883-66a7a2800be3","ios":"levelo://app?vid=7f4d447e-9875-420d-9883-66a7a2800be3"},"vehicle_type_id":"4","last_reported":1740330510,"current_range_meters":6400,"station_id":"ce4bgm92rcd13ifvqbr0","pricing_plan_id":"cebpf4jnsgd1na2vs0mg"},{"bike_id":"f4c73116-43d3-41d9-88bb-9461dbbb405f","system_id":"levelo_inurba_marseille","lat":43.25429,"lon":5.41587,"is_reserved":false,"is_disabled":false,"rental_uris":{"android":"levelo://app?vid=f4c73116-43d3-41d9-88bb-9461dbbb405f","ios":"levelo://app?vid=f4c73116-43d3-41d9-88bb-9461dbbb405f"},"vehicle_type_id":"4","last_reported":1740330510,"current_range_meters":6800,"station_id":"","pricing_plan_id":"cebpf4jnsgd1na2vs0mg"},{"bike_id":"2e4d9ef6-4dd9-45eb-8687-42db3850d70a","system_id":"levelo_inurba_marseille","lat":43.27464,"lon":5.40737,"is_reserved":false,"is_disabled":false,"rental_uris":{"android":"levelo://app?vid=2e4d9ef6-4dd9-45eb-8687-42db3850d70a","ios":"levelo://app?vid=2e4d9ef6-4dd9-45eb-8687-42db3850d70a"},"vehicle_type_id":"4","last_reported":1740330510,"current_range_meters":6400,"station_id":"","pricing_plan_id":"cebpf4jnsgd1na2vs0mg"},{"bike_id":"262e6d9a-3772-4b53-acb4-4449fdd79c31","system_id":"levelo_inurba_marseille","lat":43.2717,"lon":5.40992,"is_reserved":false,"is_disabled":false,"rental_uris":{"android":"levelo://app?vid=262e6d9a-3772-4b53-acb4-4449fdd79c31","ios":"levelo://app?vid=262e6d9a-3772-4b53-acb4-4449fdd79c31"},"vehicle_type_id":"4","last_reported":1740330510,"current_range_meters":6000,"station_id":"ce4bhl12rcd13ifvqgf0","pricing_plan_id":"cebpf4jnsgd1na2vs0mg"},{"bike_id":"b6c77459-26f3-43ec-baac-b2da52ec6895","system_id":"levelo_inurba_marseille","lat":43.28568,"lon":5.39526,"is_reserved":false,"is_disabled":false,"rental_uris":{"android":"levelo://app?vid=b6c77459-26f3-43ec-baac-b2da52ec6895","ios":"levelo://app?vid=b6c77459-26f3-43ec-baac-b2da52ec6895"},"vehicle_type_id":"4","last_reported":1740330510,"current_range_meters":6400,"station_id":"ce4bh292rcd13ifvqdg0","pricing_plan_id":"cebpf4jnsgd1na2vs0mg"},{"bike_id":"b256aeed-7b4d-42a7-92ad-e2181a75d0e3","system_id":"levelo_inurba_marseille","lat":43.28,"lon":5.40005,"is_reserved":false,"is_disabled":false,"rental_uris":{"android":"levelo://app?vid=b256aeed-7b4d-42a7-92ad-e2181a75d0e3","ios":"levelo://app?vid=b256aeed-7b4d-42a7-92ad-e2181a75d0e3"},"vehicle_type_id":"4","last_reported":1740330510,"current_range_meters":3200,"station_id":"ce4bho92rcd13ifvqh4g","pricing_plan_id":"cebpf4jnsgd1na2vs0mg"},{"bike_id":"940f716a-4244-4a35-bde1-c13177bc062b","system_id":"levelo_inurba_marseille","lat":43.29006,"lon":5.35606,"is_reserved":false,"is_disabled":false,"rental_uris":{"android":"levelo://app?vid=940f716a-4244-4a35-bde1-c13177bc062b","ios":"levelo://app?vid=940f716a-4244-4a35-bde1-c13177bc062b"},"vehicle_type_id":"4","last_reported":1740330510,"current_range_meters":6800,"station_id":"ce4bhb92rcd13ifvqen0","pricing_plan_id":"cebpf4jnsgd1na2vs0mg"},{"bike_id":"9e9e1a17-336d-4355-a0b3-deea0e239b1f","system_id":"levelo_inurba_marseille","lat":43.29975,"lon":5.37188,"is_reserved":false,"is_disabled":false,"rental_uris":{"android":"levelo://app?vid=9e9e1a17-336d-4355-a0b3-deea0e239b1f","ios":"levelo://app?vid=9e9e1a17-336d-4355-a0b3-deea0e239b1f"},"vehicle_type_id":"4","last_reported":1740330510,"current_range_meters":6800,"station_id":"ce4bgr92rcd13ifvqc7g","pricing_plan_id":"cebpf4jnsgd1na2vs0mg"},{"bike_id":"1284377d-613e-4b0e-b8b9-30807af03316","system_id":"levelo_inurba_marseille","lat":43.278305,"lon":5.391998,"is_reserved":false,"is_disabled":true,"rental_uris":{"android":"levelo://app?vid=1284377d-613e-4b0e-b8b9-30807af03316","ios":"levelo://app?vid=1284377d-613e-4b0e-b8b9-30807af03316"},"vehicle_type_id":"4","last_reported":1740330510,"current_range_meters":6800,"station_id":"ce4bhjp2rcd13ifvqga0","pricing_plan_id":"cebpf4jnsgd1na2vs0mg"},{"bike_id":"519c0d90-c598-4074-9c80-d5e1565ff705","system_id":"levelo_inurba_marseille","lat":43.23068,"lon":5.35483,"is_reserved":false,"is_disabled":false,"rental_uris":{"android":"levelo://app?vid=519c0d90-c598-4074-9c80-d5e1565ff705","ios":"levelo://app?vid=519c0d90-c598-4074-9c80-d5e1565ff705"},"vehicle_type_id":"4","last_reported":1740330510,"current_range_meters":7200,"station_id":"cpo3342slgdg3j2ifvpg","pricing_plan_id":"cebpf4jnsgd1na2vs0mg"},{"bike_id":"db5d9613-c30a-48a3-8624-2effcc292914","system_id":"levelo_inurba_marseille","lat":43.32106,"lon":5.36792,"is_reserved":false,"is_disabled":false,"rental_uris":{"android":"levelo://app?vid=db5d9613-c30a-48a3-8624-2effcc292914","ios":"levelo://app?vid=db5d9613-c30a-48a3-8624-2effcc292914"},"vehicle_type_id":"4","last_reported":1740330510,"current_range_meters":7200,"station_id":"ce4bhrh2rcd13ifvqhug","pricing_plan_id":"cebpf4jnsgd1na2vs0mg"},{"bike_id":"1127a561-55dc-461d-840d-fc4e71e9155a","system_id":"levelo_inurba_marseille","lat":43.29897,"lon":5.43671,"is_reserved":false,"is_disabled":false,"rental_uris":{"android":"levelo://app?vid=1127a561-55dc-461d-840d-fc4e71e9155a","ios":"levelo://app?vid=1127a561-55dc-461d-840d-fc4e71e9155a"},"vehicle_type_id":"4","last_reported":1740330510,"current_range_meters":7200,"station_id":"ce4bhpp2rcd13ifvqhfg","pricing_plan_id":"cebpf4jnsgd1na2vs0mg"},{"bike_id":"0b35ef10-1d1d-4e8a-949e-c3122c5e3874","system_id":"levelo_inurba_marseille","lat":43.2395,"lon":5.36637,"is_reserved":false,"is_disabled":false,"rental_uris":{"android":"levelo://app?vid=0b35ef10-1d1d-4e8a-949e-c3122c5e3874","ios":"levelo://app?vid=0b35ef10-1d1d-4e8a-949e-c3122c5e3874"},"vehicle_type_id":"4","last_reported":1740330510,"current_range_meters":7200,"station_id":"ce4bhi12rcd13ifvqfp0","pricing_plan_id":"cebpf4jnsgd1na2vs0mg"},{"bike_id":"590c2d4d-a6f8-41f2-86bc-cf779452c419","system_id":"levelo_inurba_marseille","lat":43.27175,"lon":5.41004,"is_reserved":false,"is_disabled":false,"rental_uris":{"android":"levelo://app?vid=590c2d4d-a6f8-41f2-86bc-cf779452c419","ios":"levelo://app?vid=590c2d4d-a6f8-41f2-86bc-cf779452c419"},"vehicle_type_id":"4","last_reported":1740330510,"current_range_meters":7200,"station_id":"ce4bhl12rcd13ifvqgf0","pricing_plan_id":"cebpf4jnsgd1na2vs0mg"},{"bike_id":"e986eca7-5a28-485a-8e56-0f4b75498460","system_id":"levelo_inurba_marseille","lat":43.28931,"lon":5.36633,"is_reserved":false,"is_disabled":false,"rental_uris":{"android":"levelo://app?vid=e986eca7-5a28-485a-8e56-0f4b75498460","ios":"levelo://app?vid=e986eca7-5a28-485a-8e56-0f4b75498460"},"vehicle_type_id":"4","last_reported":1740330510,"current_range_meters":7200,"station_id":"ce4bhap2rcd13ifvqek0","pricing_plan_id":"cebpf4jnsgd1na2vs0mg"},{"bike_id":"15df4f22-0e02-40b3-916a-9516d1f46a1d","system_id":"levelo_inurba_marseille","lat":43.23958,"lon":5.36626,"is_reserved":false,"is_disabled":false,"rental_uris":{"android":"levelo://app?vid=15df4f22-0e02-40b3-916a-9516d1f46a1d","ios":"levelo://app?vid=15df4f22-0e02-40b3-916a-9516d1f46a1d"},"vehicle_type_id":"4","last_reported":1740330510,"current_range_meters":7200,"station_id":"ce4bhi12rcd13ifvqfp0","pricing_plan_id":"cebpf4jnsgd1na2vs0mg"},{"bike_id":"be42bf56-7f97-4791-80c6-aeb87d889a32","system_id":"levelo_inurba_marseille","lat":43.2395,"lon":5.36661,"is_reserved":false,"is_disabled":false,"rental_uris":{"android":"levelo://app?vid=be42bf56-7f97-4791-80c6-aeb87d889a32","ios":"levelo://app?vid=be42bf56-7f97-4791-80c6-aeb87d889a32"},"vehicle_type_id":"4","last_reported":1740330510,"current_range_meters":7200,"station_id":"ce4bhi12rcd13ifvqfp0","pricing_plan_id":"cebpf4jnsgd1na2vs0mg"},{"bike_id":"cf1be1d9-2857-407d-a4c5-4a48fb3210f1","system_id":"levelo_inurba_marseille","lat":43.29717,"lon":5.36609,"is_reserved":false,"is_disabled":false,"rental_uris":{"android":"levelo://app?vid=cf1be1d9-2857-407d-a4c5-4a48fb3210f1","ios":"levelo://app?vid=cf1be1d9-2857-407d-a4c5-4a48fb3210f1"},"vehicle_type_id":"4","last_reported":1740330510,"current_range_meters":8000,"station_id":"ce4bgn12rcd13ifvqbt0","pricing_plan_id":"cebpf4jnsgd1na2vs0mg"},{"bike_id":"d03a0d4a-3cc8-46ac-b904-35a45999a775","system_id":"levelo_inurba_marseille","lat":43.27994,"lon":5.40024,"is_reserved":false,"is_disabled":false,"rental_uris":{"android":"levelo://app?vid=d03a0d4a-3cc8-46ac-b904-35a45999a775","ios":"levelo://app?vid=d03a0d4a-3cc8-46ac-b904-35a45999a775"},"vehicle_type_id":"4","last_reported":1740330510,"current_range_meters":8000,"station_id":"ce4bho92rcd13ifvqh4g","pricing_plan_id":"cebpf4jnsgd1na2vs0mg"},{"bike_id":"a325bed6-7fa3-4389-bac0-25373636330e","system_id":"levelo_inurba_marseille","lat":43.23605,"lon":5.40347,"is_reserved":false,"is_disabled":false,"rental_uris":{"android":"levelo://app?vid=a325bed6-7fa3-4389-bac0-25373636330e","ios":"levelo://app?vid=a325bed6-7fa3-4389-bac0-25373636330e"},"vehicle_type_id":"4","last_reported":1740330510,"current_range_meters":8000,"station_id":"ce4bhn12rcd13ifvqgqg","pricing_plan_id":"cebpf4jnsgd1na2vs0mg"},{"bike_id":"3e4c04e3-2b8f-47de-86f7-86856c84bc79","system_id":"levelo_inurba_marseille","lat":43.26037,"lon":5.37543,"is_reserved":false,"is_disabled":false,"rental_uris":{"android":"levelo://app?vid=3e4c04e3-2b8f-47de-86f7-86856c84bc79","ios":"levelo://app?vid=3e4c04e3-2b8f-47de-86f7-86856c84bc79"},"vehicle_type_id":"4","last_reported":1740330510,"current_range_meters":8000,"station_id":"ce4bhgh2rcd13ifvqfa0","pricing_plan_id":"cebpf4jnsgd1na2vs0mg"},{"bike_id":"d363a62d-4238-478e-97f9-795f4f7e4534","system_id":"levelo_inurba_marseille","lat":43.284424,"lon":5.358591,"is_reserved":false,"is_disabled":false,"rental_uris":{"android":"levelo://app?vid=d363a62d-4238-478e-97f9-795f4f7e4534","ios":"levelo://app?vid=d363a62d-4238-478e-97f9-795f4f7e4534"},"vehicle_type_id":"4","last_reported":1740330510,"current_range_meters":7200,"station_id":"ce4bhah2rcd13ifvqei0","pricing_plan_id":"cebpf4jnsgd1na2vs0mg"},{"bike_id":"cbbdea23-cbbb-4663-858e-27fbc6659ce8","system_id":"levelo_inurba_marseille","lat":43.27842,"lon":5.3921,"is_reserved":false,"is_disabled":false,"rental_uris":{"android":"levelo://app?vid=cbbdea23-cbbb-4663-858e-27fbc6659ce8","ios":"levelo://app?vid=cbbdea23-cbbb-4663-858e-27fbc6659ce8"},"vehicle_type_id":"4","last_reported":1740330510,"current_range_meters":8000,"station_id":"ce4bhjp2rcd13ifvqga0","pricing_plan_id":"cebpf4jnsgd1na2vs0mg"},{"bike_id":"a49eaa6a-9865-41c6-8892-5cd8a5a23185","system_id":"levelo_inurba_marseille","lat":43.27213,"lon":5.39169,"is_reserved":false,"is_disabled":false,"rental_uris":{"android":"levelo://app?vid=a49eaa6a-9865-41c6-8892-5cd8a5a23185","ios":"levelo://app?vid=a49eaa6a-9865-41c6-8892-5cd8a5a23185"},"vehicle_type_id":"4","last_reported":1740330510,"current_range_meters":8400,"station_id":"ce4bhhp2rcd13ifvqfm0","pricing_plan_id":"cebpf4jnsgd1na2vs0mg"},{"bike_id":"09486dc5-7654-4904-afc6-3b8a40308aeb","system_id":"levelo_inurba_marseille","lat":43.25393,"lon":5.41503,"is_reserved":false,"is_disabled":false,"rental_uris":{"android":"levelo://app?vid=09486dc5-7654-4904-afc6-3b8a40308aeb","ios":"levelo://app?vid=09486dc5-7654-4904-afc6-3b8a40308aeb"},"vehicle_type_id":"4","last_reported":1740330510,"current_range_meters":8400,"station_id":"","pricing_plan_id":"cebpf4jnsgd1na2vs0mg"},{"bike_id":"1af71967-b274-4269-9655-88715abf61c6","system_id":"levelo_inurba_marseille","lat":43.26549,"lon":5.37283,"is_reserved":false,"is_disabled":true,"rental_uris":{"android":"levelo://app?vid=1af71967-b274-4269-9655-88715abf61c6","ios":"levelo://app?vid=1af71967-b274-4269-9655-88715abf61c6"},"vehicle_type_id":"4","last_reported":1740330510,"current_range_meters":8400,"station_id":"ce4bhg12rcd13ifvqf70","pricing_plan_id":"cebpf4jnsgd1na2vs0mg"},{"bike_id":"bcdec4e2-1788-4070-b572-0026a4727de0","system_id":"levelo_inurba_marseille","lat":43.24671,"lon":5.38154,"is_reserved":false,"is_disabled":false,"rental_uris":{"android":"levelo://app?vid=bcdec4e2-1788-4070-b572-0026a4727de0","ios":"levelo://app?vid=bcdec4e2-1788-4070-b572-0026a4727de0"},"vehicle_type_id":"4","last_reported":1740330510,"current_range_meters":8400,"station_id":"ce4bhih2rcd13ifvqfr0","pricing_plan_id":"cebpf4jnsgd1na2vs0mg"},{"bike_id":"26a2d076-f5f2-45a7-98f5-29542790fe7d","system_id":"levelo_inurba_marseille","lat":43.32357,"lon":5.36758,"is_reserved":false,"is_disabled":false,"rental_uris":{"android":"levelo://app?vid=26a2d076-f5f2-45a7-98f5-29542790fe7d","ios":"levelo://app?vid=26a2d076-f5f2-45a7-98f5-29542790fe7d"},"vehicle_type_id":"4","last_reported":1740330510,"current_range_meters":8400,"station_id":"ce4bhsh2rcd13ifvqi2g","pricing_plan_id":"cebpf4jnsgd1na2vs0mg"},{"bike_id":"13fe1cf0-562f-4fce-924b-a59d4bce6b12","system_id":"levelo_inurba_marseille","lat":43.28506,"lon":5.38397,"is_reserved":false,"is_disabled":false,"rental_uris":{"android":"levelo://app?vid=13fe1cf0-562f-4fce-924b-a59d4bce6b12","ios":"levelo://app?vid=13fe1cf0-562f-4fce-924b-a59d4bce6b12"},"vehicle_type_id":"4","last_reported":1740330510,"current_range_meters":8400,"station_id":"ce4bh512rcd13ifvqe3g","pricing_plan_id":"cebpf4jnsgd1na2vs0mg"},{"bike_id":"e98f540b-46e8-40e3-89eb-3ccf70c33d26","system_id":"levelo_inurba_marseille","lat":43.29101,"lon":5.38142,"is_reserved":false,"is_disabled":false,"rental_uris":{"android":"levelo://app?vid=e98f540b-46e8-40e3-89eb-3ccf70c33d26","ios":"levelo://app?vid=e98f540b-46e8-40e3-89eb-3ccf70c33d26"},"vehicle_type_id":"4","last_reported":1740330510,"current_range_meters":8800,"station_id":"ce4bh512rcd13ifvqe2g","pricing_plan_id":"cebpf4jnsgd1na2vs0mg"},{"bike_id":"afc84dbf-628a-41db-ac78-8cd395472fea","system_id":"levelo_inurba_marseille","lat":43.28612,"lon":5.35106,"is_reserved":false,"is_disabled":false,"rental_uris":{"android":"levelo://app?vid=afc84dbf-628a-41db-ac78-8cd395472fea","ios":"levelo://app?vid=afc84dbf-628a-41db-ac78-8cd395472fea"},"vehicle_type_id":"4","last_reported":1740330510,"current_range_meters":8800,"station_id":"ce4bhch2rcd13ifvqeug","pricing_plan_id":"cebpf4jnsgd1na2vs0mg"},{"bike_id":"cc42a8c0-db27-4634-b2b7-32de4f5a4f68","system_id":"levelo_inurba_marseille","lat":43.24808,"lon":5.37461,"is_reserved":false,"is_disabled":false,"rental_uris":{"android":"levelo://app?vid=cc42a8c0-db27-4634-b2b7-32de4f5a4f68","ios":"levelo://app?vid=cc42a8c0-db27-4634-b2b7-32de4f5a4f68"},"vehicle_type_id":"4","last_reported":1740330510,"current_range_meters":8800,"station_id":"ce4bhgh2rcd13ifvqfb0","pricing_plan_id":"cebpf4jnsgd1na2vs0mg"},{"bike_id":"5f1b530a-32cb-4c24-a057-b5fd0fe50448","system_id":"levelo_inurba_marseille","lat":43.31267,"lon":5.40164,"is_reserved":false,"is_disabled":false,"rental_uris":{"android":"levelo://app?vid=5f1b530a-32cb-4c24-a057-b5fd0fe50448","ios":"levelo://app?vid=5f1b530a-32cb-4c24-a057-b5fd0fe50448"},"vehicle_type_id":"4","last_reported":1740330510,"current_range_meters":8800,"station_id":"ce4bh092rcd13ifvqd30","pricing_plan_id":"cebpf4jnsgd1na2vs0mg"},{"bike_id":"49e1c317-c43a-4e17-be08-ea23dc8d6739","system_id":"levelo_inurba_marseille","lat":43.301676,"lon":5.395803,"is_reserved":false,"is_disabled":true,"rental_uris":{"android":"levelo://app?vid=49e1c317-c43a-4e17-be08-ea23dc8d6739","ios":"levelo://app?vid=49e1c317-c43a-4e17-be08-ea23dc8d6739"},"vehicle_type_id":"4","last_reported":1740330510,"current_range_meters":8800,"station_id":"","pricing_plan_id":"cebpf4jnsgd1na2vs0mg"},{"bike_id":"f156c9c5-19d9-4384-9e71-fc4e3c7c9451","system_id":"levelo_inurba_marseille","lat":43.29871,"lon":5.39736,"is_reserved":false,"is_disabled":false,"rental_uris":{"android":"levelo://app?vid=f156c9c5-19d9-4384-9e71-fc4e3c7c9451","ios":"levelo://app?vid=f156c9c5-19d9-4384-9e71-fc4e3c7c9451"},"vehicle_type_id":"4","last_reported":1740330510,"current_range_meters":8400,"station_id":"ce4bh0h2rcd13ifvqd50","pricing_plan_id":"cebpf4jnsgd1na2vs0mg"},{"bike_id":"7518ae02-e3cf-4eb1-ac0e-cdade2e92c1a","system_id":"levelo_inurba_marseille","lat":43.28269,"lon":5.35066,"is_reserved":false,"is_disabled":false,"rental_uris":{"android":"levelo://app?vid=7518ae02-e3cf-4eb1-ac0e-cdade2e92c1a","ios":"levelo://app?vid=7518ae02-e3cf-4eb1-ac0e-cdade2e92c1a"},"vehicle_type_id":"4","last_reported":1740330510,"current_range_meters":8400,"station_id":"ce4bh5p2rcd13ifvqe4g","pricing_plan_id":"cebpf4jnsgd1na2vs0mg"},{"bike_id":"89f59c0c-2c4a-43c2-b005-34a3e85697a3","system_id":"levelo_inurba_marseille","lat":43.2952,"lon":5.38537,"is_reserved":false,"is_disabled":false,"rental_uris":{"android":"levelo://app?vid=89f59c0c-2c4a-43c2-b005-34a3e85697a3","ios":"levelo://app?vid=89f59c0c-2c4a-43c2-b005-34a3e85697a3"},"vehicle_type_id":"4","last_reported":1740330510,"current_range_meters":8800,"station_id":"ce4bgih2rcd13ifvqba0","pricing_plan_id":"cebpf4jnsgd1na2vs0mg"},{"bike_id":"8dc51aab-29d3-43fa-a37e-6c47cc4c2e69","system_id":"levelo_inurba_marseille","lat":43.24167,"lon":5.36393,"is_reserved":false,"is_disabled":false,"rental_uris":{"android":"levelo://app?vid=8dc51aab-29d3-43fa-a37e-6c47cc4c2e69","ios":"levelo://app?vid=8dc51aab-29d3-43fa-a37e-6c47cc4c2e69"},"vehicle_type_id":"4","last_reported":1740330510,"current_range_meters":9200,"station_id":"cpo36qri1sfpv3e86is0","pricing_plan_id":"cebpf4jnsgd1na2vs0mg"},{"bike_id":"419920d2-ccf1-4235-93ed-6cccd9ba8e8e","system_id":"levelo_inurba_marseille","lat":43.28146,"lon":5.42626,"is_reserved":false,"is_disabled":false,"rental_uris":{"android":"levelo://app?vid=419920d2-ccf1-4235-93ed-6cccd9ba8e8e","ios":"levelo://app?vid=419920d2-ccf1-4235-93ed-6cccd9ba8e8e"},"vehicle_type_id":"4","last_reported":1740330510,"current_range_meters":9200,"station_id":"ce4bhnh2rcd13ifvqgug","pricing_plan_id":"cebpf4jnsgd1na2vs0mg"},{"bike_id":"1f7411cd-9379-4bab-a8bc-411b928d8602","system_id":"levelo_inurba_marseille","lat":43.27481,"lon":5.42468,"is_reserved":false,"is_disabled":false,"rental_uris":{"android":"levelo://app?vid=1f7411cd-9379-4bab-a8bc-411b928d8602","ios":"levelo://app?vid=1f7411cd-9379-4bab-a8bc-411b928d8602"},"vehicle_type_id":"4","last_reported":1740330510,"current_range_meters":9600,"station_id":"ce4bhn92rcd13ifvqgrg","pricing_plan_id":"cebpf4jnsgd1na2vs0mg"},{"bike_id":"344f6f62-afd9-44bd-a134-d9ec9b798e4e","system_id":"levelo_inurba_marseille","lat":43.28702,"lon":5.39994,"is_reserved":false,"is_disabled":false,"rental_uris":{"android":"levelo://app?vid=344f6f62-afd9-44bd-a134-d9ec9b798e4e","ios":"levelo://app?vid=344f6f62-afd9-44bd-a134-d9ec9b798e4e"},"vehicle_type_id":"4","last_reported":1740330510,"current_range_meters":9600,"station_id":"ce4bho92rcd13ifvqh3g","pricing_plan_id":"cebpf4jnsgd1na2vs0mg"},{"bike_id":"80e30e07-59ff-4807-b06b-c6dc1a9e08e2","system_id":"levelo_inurba_marseille","lat":43.33606,"lon":5.41006,"is_reserved":false,"is_disabled":true,"rental_uris":{"android":"levelo://app?vid=80e30e07-59ff-4807-b06b-c6dc1a9e08e2","ios":"levelo://app?vid=80e30e07-59ff-4807-b06b-c6dc1a9e08e2"},"vehicle_type_id":"4","last_reported":1740330510,"current_range_meters":9600,"station_id":"ce4bhqh2rcd13ifvqhmg","pricing_plan_id":"cebpf4jnsgd1na2vs0mg"},{"bike_id":"331722d8-2645-4b84-81df-6a2aef51a19e","system_id":"levelo_inurba_marseille","lat":43.25114,"lon":5.40334,"is_reserved":false,"is_disabled":false,"rental_uris":{"android":"levelo://app?vid=331722d8-2645-4b84-81df-6a2aef51a19e","ios":"levelo://app?vid=331722d8-2645-4b84-81df-6a2aef51a19e"},"vehicle_type_id":"4","last_reported":1740330510,"current_range_meters":9600,"station_id":"ce4bhlh2rcd13ifvqgig","pricing_plan_id":"cebpf4jnsgd1na2vs0mg"},{"bike_id":"ffe9f313-6021-40f1-ad62-e0c9a02695b5","system_id":"levelo_inurba_marseille","lat":43.28601,"lon":5.37053,"is_reserved":false,"is_disabled":false,"rental_uris":{"android":"levelo://app?vid=ffe9f313-6021-40f1-ad62-e0c9a02695b5","ios":"levelo://app?vid=ffe9f313-6021-40f1-ad62-e0c9a02695b5"},"vehicle_type_id":"4","last_reported":1740330510,"current_range_meters":9600,"station_id":"ce4bht12rcd13ifvqi60","pricing_plan_id":"cebpf4jnsgd1na2vs0mg"},{"bike_id":"79d999f7-53a4-4a09-b40a-4ec89ff997b3","system_id":"levelo_inurba_marseille","lat":43.28992,"lon":5.35626,"is_reserved":false,"is_disabled":false,"rental_uris":{"android":"levelo://app?vid=79d999f7-53a4-4a09-b40a-4ec89ff997b3","ios":"levelo://app?vid=79d999f7-53a4-4a09-b40a-4ec89ff997b3"},"vehicle_type_id":"4","last_reported":1740330510,"current_range_meters":9600,"station_id":"ce4bhb92rcd13ifvqen0","pricing_plan_id":"cebpf4jnsgd1na2vs0mg"},{"bike_id":"e0c1d965-9bb5-48f6-93c4-81a00c3e7849","system_id":"levelo_inurba_marseille","lat":43.27073,"lon":5.42261,"is_reserved":false,"is_disabled":false,"rental_uris":{"android":"levelo://app?vid=e0c1d965-9bb5-48f6-93c4-81a00c3e7849","ios":"levelo://app?vid=e0c1d965-9bb5-48f6-93c4-81a00c3e7849"},"vehicle_type_id":"4","last_reported":1740330510,"current_range_meters":9600,"station_id":"ce4bhk92rcd13ifvqgb0","pricing_plan_id":"cebpf4jnsgd1na2vs0mg"},{"bike_id":"e9c5d09c-4b74-4c23-8771-9bcc70d35cf9","system_id":"levelo_inurba_marseille","lat":43.3077,"lon":5.37647,"is_reserved":false,"is_disabled":false,"rental_uris":{"android":"levelo://app?vid=e9c5d09c-4b74-4c23-8771-9bcc70d35cf9","ios":"levelo://app?vid=e9c5d09c-4b74-4c23-8771-9bcc70d35cf9"},"vehicle_type_id":"4","last_reported":1740330510,"current_range_meters":9600,"station_id":"ce4bgv92rcd13ifvqcq0","pricing_plan_id":"cebpf4jnsgd1na2vs0mg"},{"bike_id":"609dcb97-7655-42e2-886f-60b2b5d0d197","system_id":"levelo_inurba_marseille","lat":43.28727,"lon":5.36095,"is_reserved":false,"is_disabled":false,"rental_uris":{"android":"levelo://app?vid=609dcb97-7655-42e2-886f-60b2b5d0d197","ios":"levelo://app?vid=609dcb97-7655-42e2-886f-60b2b5d0d197"},"vehicle_type_id":"4","last_reported":1740330510,"current_range_meters":10000,"station_id":"cki0cbj6b192h4jlfktg","pricing_plan_id":"cebpf4jnsgd1na2vs0mg"},{"bike_id":"113693c3-b10b-4848-97bf-82de5173ac09","system_id":"levelo_inurba_marseille","lat":43.28937,"lon":5.36622,"is_reserved":false,"is_disabled":false,"rental_uris":{"android":"levelo://app?vid=113693c3-b10b-4848-97bf-82de5173ac09","ios":"levelo://app?vid=113693c3-b10b-4848-97bf-82de5173ac09"},"vehicle_type_id":"4","last_reported":1740330510,"current_range_meters":10000,"station_id":"ce4bhap2rcd13ifvqek0","pricing_plan_id":"cebpf4jnsgd1na2vs0mg"},{"bike_id":"095d5026-b6cb-411c-ab71-6c60703e2b2f","system_id":"levelo_inurba_marseille","lat":43.23057,"lon":5.35493,"is_reserved":false,"is_disabled":true,"rental_uris":{"android":"levelo://app?vid=095d5026-b6cb-411c-ab71-6c60703e2b2f","ios":"levelo://app?vid=095d5026-b6cb-411c-ab71-6c60703e2b2f"},"vehicle_type_id":"4","last_reported":1740330510,"current_range_meters":10000,"station_id":"cpo3342slgdg3j2ifvpg","pricing_plan_id":"cebpf4jnsgd1na2vs0mg"},{"bike_id":"c6b341b6-7ffa-4e20-b0fe-0327232c0679","system_id":"levelo_inurba_marseille","lat":43.3021,"lon":5.39473,"is_reserved":false,"is_disabled":false,"rental_uris":{"android":"levelo://app?vid=c6b341b6-7ffa-4e20-b0fe-0327232c0679","ios":"levelo://app?vid=c6b341b6-7ffa-4e20-b0fe-0327232c0679"},"vehicle_type_id":"4","last_reported":1740330510,"current_range_meters":10000,"station_id":"ce4bh0p2rcd13ifvqd70","pricing_plan_id":"cebpf4jnsgd1na2vs0mg"},{"bike_id":"38c2133d-694a-47aa-922f-74e2e612197e","system_id":"levelo_inurba_marseille","lat":43.30428,"lon":5.38899,"is_reserved":false,"is_disabled":false,"rental_uris":{"android":"levelo://app?vid=38c2133d-694a-47aa-922f-74e2e612197e","ios":"levelo://app?vid=38c2133d-694a-47aa-922f-74e2e612197e"},"vehicle_type_id":"4","last_reported":1740330510,"current_range_meters":10000,"station_id":"ce4bgk12rcd13ifvqbi0","pricing_plan_id":"cebpf4jnsgd1na2vs0mg"},{"bike_id":"a34024d2-bd78-4aa2-b9dd-e4711b4f4101","system_id":"levelo_inurba_marseille","lat":43.24391,"lon":5.37059,"is_reserved":false,"is_disabled":false,"rental_uris":{"android":"levelo://app?vid=a34024d2-bd78-4aa2-b9dd-e4711b4f4101","ios":"levelo://app?vid=a34024d2-bd78-4aa2-b9dd-e4711b4f4101"},"vehicle_type_id":"4","last_reported":1740330510,"current_range_meters":10800,"station_id":"ce4bhhh2rcd13ifvqfk0","pricing_plan_id":"cebpf4jnsgd1na2vs0mg"},{"bike_id":"4740243d-2a32-4df0-bbfe-2a7211c92627","system_id":"levelo_inurba_marseille","lat":43.28428,"lon":5.37511,"is_reserved":false,"is_disabled":false,"rental_uris":{"android":"levelo://app?vid=4740243d-2a32-4df0-bbfe-2a7211c92627","ios":"levelo://app?vid=4740243d-2a32-4df0-bbfe-2a7211c92627"},"vehicle_type_id":"4","last_reported":1740330510,"current_range_meters":10800,"station_id":"ce4bh412rcd13ifvqds0","pricing_plan_id":"cebpf4jnsgd1na2vs0mg"},{"bike_id":"bb577856-8340-481d-ba44-818b9d97fabe","system_id":"levelo_inurba_marseille","lat":43.29961,"lon":5.38498,"is_reserved":false,"is_disabled":false,"rental_uris":{"android":"levelo://app?vid=bb577856-8340-481d-ba44-818b9d97fabe","ios":"levelo://app?vid=bb577856-8340-481d-ba44-818b9d97fabe"},"vehicle_type_id":"4","last_reported":1740330510,"current_range_meters":10800,"station_id":"ce4bgj92rcd13ifvqbd0","pricing_plan_id":"cebpf4jnsgd1na2vs0mg"},{"bike_id":"2aa034c9-1100-4ef9-afdc-cb8fa536b64e","system_id":"levelo_inurba_marseille","lat":43.34147,"lon":5.4089,"is_reserved":false,"is_disabled":false,"rental_uris":{"android":"levelo://app?vid=2aa034c9-1100-4ef9-afdc-cb8fa536b64e","ios":"levelo://app?vid=2aa034c9-1100-4ef9-afdc-cb8fa536b64e"},"vehicle_type_id":"4","last_reported":1740330510,"current_range_meters":10800,"station_id":"ce4bhqh2rcd13ifvqhlg","pricing_plan_id":"cebpf4jnsgd1na2vs0mg"},{"bike_id":"d8fe9461-3f19-4646-9471-9345bfd53bad","system_id":"levelo_inurba_marseille","lat":43.24394,"lon":5.37047,"is_reserved":false,"is_disabled":false,"rental_uris":{"android":"levelo://app?vid=d8fe9461-3f19-4646-9471-9345bfd53bad","ios":"levelo://app?vid=d8fe9461-3f19-4646-9471-9345bfd53bad"},"vehicle_type_id":"4","last_reported":1740330510,"current_range_meters":11200,"station_id":"ce4bhhh2rcd13ifvqfk0","pricing_plan_id":"cebpf4jnsgd1na2vs0mg"},{"bike_id":"30c94b08-ef1e-4456-b696-fc35738f94cc","system_id":"levelo_inurba_marseille","lat":43.30676,"lon":5.40064,"is_reserved":false,"is_disabled":false,"rental_uris":{"android":"levelo://app?vid=30c94b08-ef1e-4456-b696-fc35738f94cc","ios":"levelo://app?vid=30c94b08-ef1e-4456-b696-fc35738f94cc"},"vehicle_type_id":"4","last_reported":1740330510,"current_range_meters":11200,"station_id":"ce4bh112rcd13ifvqda0","pricing_plan_id":"cebpf4jnsgd1na2vs0mg"},{"bike_id":"ae046741-3ea9-4185-b4e2-4509ca44e92c","system_id":"levelo_inurba_marseille","lat":43.30948,"lon":5.39034,"is_reserved":false,"is_disabled":false,"rental_uris":{"android":"levelo://app?vid=ae046741-3ea9-4185-b4e2-4509ca44e92c","ios":"levelo://app?vid=ae046741-3ea9-4185-b4e2-4509ca44e92c"},"vehicle_type_id":"4","last_reported":1740330510,"current_range_meters":11600,"station_id":"ce4bgup2rcd13ifvqco0","pricing_plan_id":"cebpf4jnsgd1na2vs0mg"},{"bike_id":"2bdc35be-c87d-4858-a812-b27d436edeb5","system_id":"levelo_inurba_marseille","lat":43.28282,"lon":5.35074,"is_reserved":false,"is_disabled":false,"rental_uris":{"android":"levelo://app?vid=2bdc35be-c87d-4858-a812-b27d436edeb5","ios":"levelo://app?vid=2bdc35be-c87d-4858-a812-b27d436edeb5"},"vehicle_type_id":"4","last_reported":1740330510,"current_range_meters":11600,"station_id":"ce4bhbp2rcd13ifvqerg","pricing_plan_id":"cebpf4jnsgd1na2vs0mg"},{"bike_id":"fb44b31f-7afc-4a5c-8b14-6d56005aa669","system_id":"levelo_inurba_marseille","lat":43.289917,"lon":5.43259,"is_reserved":false,"is_disabled":false,"rental_uris":{"android":"levelo://app?vid=fb44b31f-7afc-4a5c-8b14-6d56005aa669","ios":"levelo://app?vid=fb44b31f-7afc-4a5c-8b14-6d56005aa669"},"vehicle_type_id":"4","last_reported":1740330510,"current_range_meters":11600,"station_id":"","pricing_plan_id":"cebpf4jnsgd1na2vs0mg"},{"bike_id":"47c58b1f-0f04-4a95-ba73-4d794abee5f2","system_id":"levelo_inurba_marseille","lat":43.30433,"lon":5.38896,"is_reserved":false,"is_disabled":true,"rental_uris":{"android":"levelo://app?vid=47c58b1f-0f04-4a95-ba73-4d794abee5f2","ios":"levelo://app?vid=47c58b1f-0f04-4a95-ba73-4d794abee5f2"},"vehicle_type_id":"4","last_reported":1740330510,"current_range_meters":12000,"station_id":"ce4bgk12rcd13ifvqbi0","pricing_plan_id":"cebpf4jnsgd1na2vs0mg"},{"bike_id":"47c96bba-8d3a-4c92-b78d-467948674844","system_id":"levelo_inurba_marseille","lat":43.30772,"lon":5.37641,"is_reserved":false,"is_disabled":false,"rental_uris":{"android":"levelo://app?vid=47c96bba-8d3a-4c92-b78d-467948674844","ios":"levelo://app?vid=47c96bba-8d3a-4c92-b78d-467948674844"},"vehicle_type_id":"4","last_reported":1740330510,"current_range_meters":12000,"station_id":"ce4bgv92rcd13ifvqcq0","pricing_plan_id":"cebpf4jnsgd1na2vs0mg"},{"bike_id":"ab7da9df-c7ed-482b-9961-43b5cca3e34b","system_id":"levelo_inurba_marseille","lat":43.31128,"lon":5.37775,"is_reserved":false,"is_disabled":true,"rental_uris":{"android":"levelo://app?vid=ab7da9df-c7ed-482b-9961-43b5cca3e34b","ios":"levelo://app?vid=ab7da9df-c7ed-482b-9961-43b5cca3e34b"},"vehicle_type_id":"4","last_reported":1740330510,"current_range_meters":12000,"station_id":"ce4bgt92rcd13ifvqcg0","pricing_plan_id":"cebpf4jnsgd1na2vs0mg"},{"bike_id":"e61c2b74-4ece-46bf-bf8e-6ea12dcb1ec2","system_id":"levelo_inurba_marseille","lat":43.30615,"lon":5.39361,"is_reserved":false,"is_disabled":true,"rental_uris":{"android":"levelo://app?vid=e61c2b74-4ece-46bf-bf8e-6ea12dcb1ec2","ios":"levelo://app?vid=e61c2b74-4ece-46bf-bf8e-6ea12dcb1ec2"},"vehicle_type_id":"4","last_reported":1740330510,"current_range_meters":12000,"station_id":"ce4bh0p2rcd13ifvqd80","pricing_plan_id":"cebpf4jnsgd1na2vs0mg"},{"bike_id":"946bd644-9a24-4b56-9753-7cc94d65ed18","system_id":"levelo_inurba_marseille","lat":43.29252,"lon":5.40909,"is_reserved":false,"is_disabled":false,"rental_uris":{"android":"levelo://app?vid=946bd644-9a24-4b56-9753-7cc94d65ed18","ios":"levelo://app?vid=946bd644-9a24-4b56-9753-7cc94d65ed18"},"vehicle_type_id":"4","last_reported":1740330510,"current_range_meters":12000,"station_id":"ce4bh192rcd13ifvqdc0","pricing_plan_id":"cebpf4jnsgd1na2vs0mg"},{"bike_id":"0e17628e-77f1-4b2d-9900-e51a8c9f0181","system_id":"levelo_inurba_marseille","lat":43.28889,"lon":5.44984,"is_reserved":false,"is_disabled":false,"rental_uris":{"android":"levelo://app?vid=0e17628e-77f1-4b2d-9900-e51a8c9f0181","ios":"levelo://app?vid=0e17628e-77f1-4b2d-9900-e51a8c9f0181"},"vehicle_type_id":"4","last_reported":1740330510,"current_range_meters":12400,"station_id":"","pricing_plan_id":"cebpf4jnsgd1na2vs0mg"},{"bike_id":"54a6b0ba-8381-4a72-830c-622766c32199","system_id":"levelo_inurba_marseille","lat":43.32098,"lon":5.36799,"is_reserved":false,"is_disabled":false,"rental_uris":{"android":"levelo://app?vid=54a6b0ba-8381-4a72-830c-622766c32199","ios":"levelo://app?vid=54a6b0ba-8381-4a72-830c-622766c32199"},"vehicle_type_id":"4","last_reported":1740330510,"current_range_meters":12400,"station_id":"ce4bhrh2rcd13ifvqhug","pricing_plan_id":"cebpf4jnsgd1na2vs0mg"},{"bike_id":"7f3636f9-475d-4947-9157-e2729f25a441","system_id":"levelo_inurba_marseille","lat":43.28671,"lon":5.38673,"is_reserved":false,"is_disabled":false,"rental_uris":{"android":"levelo://app?vid=7f3636f9-475d-4947-9157-e2729f25a441","ios":"levelo://app?vid=7f3636f9-475d-4947-9157-e2729f25a441"},"vehicle_type_id":"4","last_reported":1740330510,"current_range_meters":12000,"station_id":"ce4bh492rcd13ifvqdug","pricing_plan_id":"cebpf4jnsgd1na2vs0mg"},{"bike_id":"0d78d734-7800-412a-9f3c-235de5b67af7","system_id":"levelo_inurba_marseille","lat":43.29958,"lon":5.41318,"is_reserved":false,"is_disabled":false,"rental_uris":{"android":"levelo://app?vid=0d78d734-7800-412a-9f3c-235de5b67af7","ios":"levelo://app?vid=0d78d734-7800-412a-9f3c-235de5b67af7"},"vehicle_type_id":"4","last_reported":1740330510,"current_range_meters":12400,"station_id":"ce4bhp12rcd13ifvqh9g","pricing_plan_id":"cebpf4jnsgd1na2vs0mg"},{"bike_id":"f018ca42-7a7e-4fa1-a0d7-98c86501a561","system_id":"levelo_inurba_marseille","lat":43.29968,"lon":5.37172,"is_reserved":false,"is_disabled":false,"rental_uris":{"android":"levelo://app?vid=f018ca42-7a7e-4fa1-a0d7-98c86501a561","ios":"levelo://app?vid=f018ca42-7a7e-4fa1-a0d7-98c86501a561"},"vehicle_type_id":"4","last_reported":1740330510,"current_range_meters":12400,"station_id":"ce4bgr92rcd13ifvqc7g","pricing_plan_id":"cebpf4jnsgd1na2vs0mg"},{"bike_id":"5e959b41-c7da-4bd1-9de8-e6d5366666c4","system_id":"levelo_inurba_marseille","lat":43.3046,"lon":5.37904,"is_reserved":false,"is_disabled":false,"rental_uris":{"android":"levelo://app?vid=5e959b41-c7da-4bd1-9de8-e6d5366666c4","ios":"levelo://app?vid=5e959b41-c7da-4bd1-9de8-e6d5366666c4"},"vehicle_type_id":"4","last_reported":1740330510,"current_range_meters":12400,"station_id":"ce4bgup2rcd13ifvqcn0","pricing_plan_id":"cebpf4jnsgd1na2vs0mg"},{"bike_id":"a3610751-bbe4-4d3e-a717-1a0eebd2fb2a","system_id":"levelo_inurba_marseille","lat":43.30683,"lon":5.37506,"is_reserved":false,"is_disabled":false,"rental_uris":{"android":"levelo://app?vid=a3610751-bbe4-4d3e-a717-1a0eebd2fb2a","ios":"levelo://app?vid=a3610751-bbe4-4d3e-a717-1a0eebd2fb2a"},"vehicle_type_id":"4","last_reported":1740330510,"current_range_meters":12400,"station_id":"","pricing_plan_id":"cebpf4jnsgd1na2vs0mg"},{"bike_id":"be30d01b-c09b-4904-a2dc-5fe9053897c1","system_id":"levelo_inurba_marseille","lat":43.29907,"lon":5.38551,"is_reserved":false,"is_disabled":false,"rental_uris":{"android":"levelo://app?vid=be30d01b-c09b-4904-a2dc-5fe9053897c1","ios":"levelo://app?vid=be30d01b-c09b-4904-a2dc-5fe9053897c1"},"vehicle_type_id":"4","last_reported":1740330510,"current_range_meters":12400,"station_id":"ce4bgj92rcd13ifvqbd0","pricing_plan_id":"cebpf4jnsgd1na2vs0mg"},{"bike_id":"c385a77b-0c66-4d2b-baef-72f976c4c20e","system_id":"levelo_inurba_marseille","lat":43.31713,"lon":5.43708,"is_reserved":false,"is_disabled":false,"rental_uris":{"android":"levelo://app?vid=c385a77b-0c66-4d2b-baef-72f976c4c20e","ios":"levelo://app?vid=c385a77b-0c66-4d2b-baef-72f976c4c20e"},"vehicle_type_id":"4","last_reported":1740330510,"current_range_meters":12400,"station_id":"ce4bhp92rcd13ifvqhcg","pricing_plan_id":"cebpf4jnsgd1na2vs0mg"},{"bike_id":"8d60d634-973e-4a82-8ea0-70920e472946","system_id":"levelo_inurba_marseille","lat":43.27921,"lon":5.3958,"is_reserved":false,"is_disabled":false,"rental_uris":{"android":"levelo://app?vid=8d60d634-973e-4a82-8ea0-70920e472946","ios":"levelo://app?vid=8d60d634-973e-4a82-8ea0-70920e472946"},"vehicle_type_id":"4","last_reported":1740330510,"current_range_meters":12800,"station_id":"ce4bhf92rcd13ifvqf40","pricing_plan_id":"cebpf4jnsgd1na2vs0mg"},{"bike_id":"6e15618d-4d2d-4cdc-9d90-2b87c6806ce4","system_id":"levelo_inurba_marseille","lat":43.27184,"lon":5.40998,"is_reserved":false,"is_disabled":false,"rental_uris":{"android":"levelo://app?vid=6e15618d-4d2d-4cdc-9d90-2b87c6806ce4","ios":"levelo://app?vid=6e15618d-4d2d-4cdc-9d90-2b87c6806ce4"},"vehicle_type_id":"4","last_reported":1740330510,"current_range_meters":12800,"station_id":"ce4bhl12rcd13ifvqgf0","pricing_plan_id":"cebpf4jnsgd1na2vs0mg"},{"bike_id":"0534aabe-c608-4b62-92e3-d319095d9490","system_id":"levelo_inurba_marseille","lat":43.31273,"lon":5.4017,"is_reserved":false,"is_disabled":false,"rental_uris":{"android":"levelo://app?vid=0534aabe-c608-4b62-92e3-d319095d9490","ios":"levelo://app?vid=0534aabe-c608-4b62-92e3-d319095d9490"},"vehicle_type_id":"4","last_reported":1740330510,"current_range_meters":12800,"station_id":"ce4bh092rcd13ifvqd30","pricing_plan_id":"cebpf4jnsgd1na2vs0mg"},{"bike_id":"35f7fe5f-b05d-405c-a155-dda0758733e2","system_id":"levelo_inurba_marseille","lat":43.28151,"lon":5.42633,"is_reserved":false,"is_disabled":true,"rental_uris":{"android":"levelo://app?vid=35f7fe5f-b05d-405c-a155-dda0758733e2","ios":"levelo://app?vid=35f7fe5f-b05d-405c-a155-dda0758733e2"},"vehicle_type_id":"4","last_reported":1740330510,"current_range_meters":12800,"station_id":"ce4bhnh2rcd13ifvqgug","pricing_plan_id":"cebpf4jnsgd1na2vs0mg"},{"bike_id":"e3ed00a3-56ab-4253-aaeb-94961ae315b6","system_id":"levelo_inurba_marseille","lat":43.25684,"lon":5.38452,"is_reserved":false,"is_disabled":false,"rental_uris":{"android":"levelo://app?vid=e3ed00a3-56ab-4253-aaeb-94961ae315b6","ios":"levelo://app?vid=e3ed00a3-56ab-4253-aaeb-94961ae315b6"},"vehicle_type_id":"4","last_reported":1740330510,"current_range_meters":12800,"station_id":"ce4bhlh2rcd13ifvqgig","pricing_plan_id":"cebpf4jnsgd1na2vs0mg"},{"bike_id":"69927872-aa1e-4e6b-997c-52ce129f1e2e","system_id":"levelo_inurba_marseille","lat":43.26199,"lon":5.37929,"is_reserved":false,"is_disabled":false,"rental_uris":{"android":"levelo://app?vid=69927872-aa1e-4e6b-997c-52ce129f1e2e","ios":"levelo://app?vid=69927872-aa1e-4e6b-997c-52ce129f1e2e"},"vehicle_type_id":"4","last_reported":1740330510,"current_range_meters":12800,"station_id":"ce4bhjp2rcd13ifvqg90","pricing_plan_id":"cebpf4jnsgd1na2vs0mg"},{"bike_id":"7805c6d4-1cb7-4c94-bc97-08c2e9b9d59e","system_id":"levelo_inurba_marseille","lat":43.28275,"lon":5.35058,"is_reserved":false,"is_disabled":false,"rental_uris":{"android":"levelo://app?vid=7805c6d4-1cb7-4c94-bc97-08c2e9b9d59e","ios":"levelo://app?vid=7805c6d4-1cb7-4c94-bc97-08c2e9b9d59e"},"vehicle_type_id":"4","last_reported":1740330510,"current_range_meters":12800,"station_id":"ce4bhbp2rcd13ifvqerg","pricing_plan_id":"cebpf4jnsgd1na2vs0mg"},{"bike_id":"766eeae2-fc97-4db3-ab38-5490a111f065","system_id":"levelo_inurba_marseille","lat":43.30112,"lon":5.39079,"is_reserved":false,"is_disabled":false,"rental_uris":{"android":"levelo://app?vid=766eeae2-fc97-4db3-ab38-5490a111f065","ios":"levelo://app?vid=766eeae2-fc97-4db3-ab38-5490a111f065"},"vehicle_type_id":"4","last_reported":1740330510,"current_range_meters":13600,"station_id":"ce4bh192rcd13ifvqdb0","pricing_plan_id":"cebpf4jnsgd1na2vs0mg"},{"bike_id":"9ea32aa7-74d1-4380-96ae-683f1683c41a","system_id":"levelo_inurba_marseille","lat":43.29886,"lon":5.38914,"is_reserved":false,"is_disabled":false,"rental_uris":{"android":"levelo://app?vid=9ea32aa7-74d1-4380-96ae-683f1683c41a","ios":"levelo://app?vid=9ea32aa7-74d1-4380-96ae-683f1683c41a"},"vehicle_type_id":"4","last_reported":1740330510,"current_range_meters":13600,"station_id":"ce4bh392rcd13ifvqdl0","pricing_plan_id":"cebpf4jnsgd1na2vs0mg"},{"bike_id":"9b44913f-e779-41c9-ad90-d0f985ebbb39","system_id":"levelo_inurba_marseille","lat":43.290172,"lon":5.357067,"is_reserved":false,"is_disabled":false,"rental_uris":{"android":"levelo://app?vid=9b44913f-e779-41c9-ad90-d0f985ebbb39","ios":"levelo://app?vid=9b44913f-e779-41c9-ad90-d0f985ebbb39"},"vehicle_type_id":"4","last_reported":1740330510,"current_range_meters":13600,"station_id":"ce4bhh12rcd13ifvqff0","pricing_plan_id":"cebpf4jnsgd1na2vs0mg"},{"bike_id":"9fdc5228-e835-4793-ad30-e5834cfd975b","system_id":"levelo_inurba_marseille","lat":43.2586,"lon":5.39904,"is_reserved":false,"is_disabled":false,"rental_uris":{"android":"levelo://app?vid=9fdc5228-e835-4793-ad30-e5834cfd975b","ios":"levelo://app?vid=9fdc5228-e835-4793-ad30-e5834cfd975b"},"vehicle_type_id":"4","last_reported":1740330510,"current_range_meters":13600,"station_id":"ce4bhl92rcd13ifvqghg","pricing_plan_id":"cebpf4jnsgd1na2vs0mg"},{"bike_id":"2e9a51e0-3ae1-4cb4-a523-b345e6ecb0d0","system_id":"levelo_inurba_marseille","lat":43.31226,"lon":5.36851,"is_reserved":false,"is_disabled":false,"rental_uris":{"android":"levelo://app?vid=2e9a51e0-3ae1-4cb4-a523-b345e6ecb0d0","ios":"levelo://app?vid=2e9a51e0-3ae1-4cb4-a523-b345e6ecb0d0"},"vehicle_type_id":"4","last_reported":1740330510,"current_range_meters":14000,"station_id":"ce4bgl92rcd13ifvqbq0","pricing_plan_id":"cebpf4jnsgd1na2vs0mg"},{"bike_id":"94d81672-f077-455d-ad5d-d4332136c2a8","system_id":"levelo_inurba_marseille","lat":43.22893,"lon":5.35409,"is_reserved":false,"is_disabled":false,"rental_uris":{"android":"levelo://app?vid=94d81672-f077-455d-ad5d-d4332136c2a8","ios":"levelo://app?vid=94d81672-f077-455d-ad5d-d4332136c2a8"},"vehicle_type_id":"4","last_reported":1740330510,"current_range_meters":14000,"station_id":"cpo3532slgdg3j2ikp40","pricing_plan_id":"cebpf4jnsgd1na2vs0mg"},{"bike_id":"9faf844a-413f-419f-bdea-64830f7f2bfb","system_id":"levelo_inurba_marseille","lat":43.29922,"lon":5.37846,"is_reserved":false,"is_disabled":false,"rental_uris":{"android":"levelo://app?vid=9faf844a-413f-419f-bdea-64830f7f2bfb","ios":"levelo://app?vid=9faf844a-413f-419f-bdea-64830f7f2bfb"},"vehicle_type_id":"4","last_reported":1740330510,"current_range_meters":14000,"station_id":"","pricing_plan_id":"cebpf4jnsgd1na2vs0mg"},{"bike_id":"99336520-3ecc-4a8a-afa1-32a05d41d3c8","system_id":"levelo_inurba_marseille","lat":43.27919,"lon":5.39587,"is_reserved":false,"is_disabled":false,"rental_uris":{"android":"levelo://app?vid=99336520-3ecc-4a8a-afa1-32a05d41d3c8","ios":"levelo://app?vid=99336520-3ecc-4a8a-afa1-32a05d41d3c8"},"vehicle_type_id":"4","last_reported":1740330510,"current_range_meters":14000,"station_id":"ce4bhf92rcd13ifvqf40","pricing_plan_id":"cebpf4jnsgd1na2vs0mg"},{"bike_id":"cccae571-68b2-4f9b-9a1e-8b15dc763f99","system_id":"levelo_inurba_marseille","lat":43.2509,"lon":5.39522,"is_reserved":false,"is_disabled":false,"rental_uris":{"android":"levelo://app?vid=cccae571-68b2-4f9b-9a1e-8b15dc763f99","ios":"levelo://app?vid=cccae571-68b2-4f9b-9a1e-8b15dc763f99"},"vehicle_type_id":"4","last_reported":1740330510,"current_range_meters":13600,"station_id":"ce4bhm12rcd13ifvqgkg","pricing_plan_id":"cebpf4jnsgd1na2vs0mg"},{"bike_id":"bd3cd35d-8872-4079-b434-dfe718238ac3","system_id":"levelo_inurba_marseille","lat":43.32369,"lon":5.3887,"is_reserved":false,"is_disabled":false,"rental_uris":{"android":"levelo://app?vid=bd3cd35d-8872-4079-b434-dfe718238ac3","ios":"levelo://app?vid=bd3cd35d-8872-4079-b434-dfe718238ac3"},"vehicle_type_id":"4","last_reported":1740330510,"current_range_meters":14000,"station_id":"ce4bhqp2rcd13ifvqhog","pricing_plan_id":"cebpf4jnsgd1na2vs0mg"},{"bike_id":"30ba8ddb-11e7-42da-b578-b3cc025f68ba","system_id":"levelo_inurba_marseille","lat":43.28697,"lon":5.3739,"is_reserved":false,"is_disabled":false,"rental_uris":{"android":"levelo://app?vid=30ba8ddb-11e7-42da-b578-b3cc025f68ba","ios":"levelo://app?vid=30ba8ddb-11e7-42da-b578-b3cc025f68ba"},"vehicle_type_id":"4","last_reported":1740330510,"current_range_meters":14400,"station_id":"ce4bh3p2rcd13ifvqdq0","pricing_plan_id":"cebpf4jnsgd1na2vs0mg"},{"bike_id":"b49d5e52-ea0b-48d3-8a70-3d9ea3251436","system_id":"levelo_inurba_marseille","lat":43.3004,"lon":5.39773,"is_reserved":false,"is_disabled":true,"rental_uris":{"android":"levelo://app?vid=b49d5e52-ea0b-48d3-8a70-3d9ea3251436","ios":"levelo://app?vid=b49d5e52-ea0b-48d3-8a70-3d9ea3251436"},"vehicle_type_id":"4","last_reported":1740330510,"current_range_meters":14400,"station_id":"ce4bh0h2rcd13ifvqd40","pricing_plan_id":"cebpf4jnsgd1na2vs0mg"},{"bike_id":"6aa4dde2-57d1-4271-91d7-3249e7118204","system_id":"levelo_inurba_marseille","lat":43.30304,"lon":5.36884,"is_reserved":false,"is_disabled":false,"rental_uris":{"android":"levelo://app?vid=6aa4dde2-57d1-4271-91d7-3249e7118204","ios":"levelo://app?vid=6aa4dde2-57d1-4271-91d7-3249e7118204"},"vehicle_type_id":"4","last_reported":1740330510,"current_range_meters":14400,"station_id":"ce4bgqh2rcd13ifvqc5g","pricing_plan_id":"cebpf4jnsgd1na2vs0mg"},{"bike_id":"860eff15-4aff-4d92-8690-98414ae73df2","system_id":"levelo_inurba_marseille","lat":43.26562,"lon":5.39016,"is_reserved":false,"is_disabled":true,"rental_uris":{"android":"levelo://app?vid=860eff15-4aff-4d92-8690-98414ae73df2","ios":"levelo://app?vid=860eff15-4aff-4d92-8690-98414ae73df2"},"vehicle_type_id":"4","last_reported":1740330510,"current_range_meters":14400,"station_id":"ce4bhe12rcd13ifvqf30","pricing_plan_id":"cebpf4jnsgd1na2vs0mg"},{"bike_id":"934527c6-6558-4c6a-9e4d-e62edb1bec25","system_id":"levelo_inurba_marseille","lat":43.3046,"lon":5.37903,"is_reserved":false,"is_disabled":false,"rental_uris":{"android":"levelo://app?vid=934527c6-6558-4c6a-9e4d-e62edb1bec25","ios":"levelo://app?vid=934527c6-6558-4c6a-9e4d-e62edb1bec25"},"vehicle_type_id":"4","last_reported":1740330510,"current_range_meters":15200,"station_id":"ce4bgup2rcd13ifvqcn0","pricing_plan_id":"cebpf4jnsgd1na2vs0mg"},{"bike_id":"f4434e29-5640-48c8-baa8-5cca863a5ca0","system_id":"levelo_inurba_marseille","lat":43.25826,"lon":5.39446,"is_reserved":false,"is_disabled":false,"rental_uris":{"android":"levelo://app?vid=f4434e29-5640-48c8-baa8-5cca863a5ca0","ios":"levelo://app?vid=f4434e29-5640-48c8-baa8-5cca863a5ca0"},"vehicle_type_id":"4","last_reported":1740330510,"current_range_meters":14800,"station_id":"ce4bhip2rcd13ifvqft0","pricing_plan_id":"cebpf4jnsgd1na2vs0mg"},{"bike_id":"e8b59b6b-cba7-4bbc-896c-c0eeab497aec","system_id":"levelo_inurba_marseille","lat":43.258179,"lon":5.394502,"is_reserved":false,"is_disabled":false,"rental_uris":{"android":"levelo://app?vid=e8b59b6b-cba7-4bbc-896c-c0eeab497aec","ios":"levelo://app?vid=e8b59b6b-cba7-4bbc-896c-c0eeab497aec"},"vehicle_type_id":"4","last_reported":1740330510,"current_range_meters":14800,"station_id":"ce4bhip2rcd13ifvqft0","pricing_plan_id":"cebpf4jnsgd1na2vs0mg"},{"bike_id":"2d653113-b2d7-4664-9367-8e1be1889533","system_id":"levelo_inurba_marseille","lat":43.28678,"lon":5.38672,"is_reserved":false,"is_disabled":false,"rental_uris":{"android":"levelo://app?vid=2d653113-b2d7-4664-9367-8e1be1889533","ios":"levelo://app?vid=2d653113-b2d7-4664-9367-8e1be1889533"},"vehicle_type_id":"4","last_reported":1740330510,"current_range_meters":14800,"station_id":"ce4bh492rcd13ifvqdug","pricing_plan_id":"cebpf4jnsgd1na2vs0mg"},{"bike_id":"fc93a0cd-d658-4fe7-9e6a-52a49333f268","system_id":"levelo_inurba_marseille","lat":43.30825,"lon":5.381917,"is_reserved":false,"is_disabled":false,"rental_uris":{"android":"levelo://app?vid=fc93a0cd-d658-4fe7-9e6a-52a49333f268","ios":"levelo://app?vid=fc93a0cd-d658-4fe7-9e6a-52a49333f268"},"vehicle_type_id":"4","last_reported":1740330510,"current_range_meters":14800,"station_id":"ce4bgt12rcd13ifvqce0","pricing_plan_id":"cebpf4jnsgd1na2vs0mg"},{"bike_id":"6d037411-3779-4371-a075-7368fc024295","system_id":"levelo_inurba_marseille","lat":43.28444,"lon":5.39203,"is_reserved":false,"is_disabled":false,"rental_uris":{"android":"levelo://app?vid=6d037411-3779-4371-a075-7368fc024295","ios":"levelo://app?vid=6d037411-3779-4371-a075-7368fc024295"},"vehicle_type_id":"4","last_reported":1740330510,"current_range_meters":15200,"station_id":"ce4bhoh2rcd13ifvqh5g","pricing_plan_id":"cebpf4jnsgd1na2vs0mg"},{"bike_id":"6d3a28fb-ad8e-4099-ab7e-2f1842cf0da6","system_id":"levelo_inurba_marseille","lat":43.31992,"lon":5.38149,"is_reserved":false,"is_disabled":false,"rental_uris":{"android":"levelo://app?vid=6d3a28fb-ad8e-4099-ab7e-2f1842cf0da6","ios":"levelo://app?vid=6d3a28fb-ad8e-4099-ab7e-2f1842cf0da6"},"vehicle_type_id":"4","last_reported":1740330510,"current_range_meters":15200,"station_id":"ce4bhr12rcd13ifvqhpg","pricing_plan_id":"cebpf4jnsgd1na2vs0mg"},{"bike_id":"2473ce2a-6c13-46c8-b945-2980afca0cd6","system_id":"levelo_inurba_marseille","lat":43.27936,"lon":5.41053,"is_reserved":false,"is_disabled":false,"rental_uris":{"android":"levelo://app?vid=2473ce2a-6c13-46c8-b945-2980afca0cd6","ios":"levelo://app?vid=2473ce2a-6c13-46c8-b945-2980afca0cd6"},"vehicle_type_id":"4","last_reported":1740330510,"current_range_meters":15200,"station_id":"ce4bhnp2rcd13ifvqh0g","pricing_plan_id":"cebpf4jnsgd1na2vs0mg"},{"bike_id":"a502f599-e684-42e0-95e9-ce86b84d119a","system_id":"levelo_inurba_marseille","lat":43.27175,"lon":5.40982,"is_reserved":false,"is_disabled":false,"rental_uris":{"android":"levelo://app?vid=a502f599-e684-42e0-95e9-ce86b84d119a","ios":"levelo://app?vid=a502f599-e684-42e0-95e9-ce86b84d119a"},"vehicle_type_id":"4","last_reported":1740330510,"current_range_meters":15200,"station_id":"ce4bhl12rcd13ifvqgf0","pricing_plan_id":"cebpf4jnsgd1na2vs0mg"},{"bike_id":"68c1cb49-7da1-4934-a025-4e78e338d091","system_id":"levelo_inurba_marseille","lat":43.337638,"lon":5.374412,"is_reserved":false,"is_disabled":false,"rental_uris":{"android":"levelo://app?vid=68c1cb49-7da1-4934-a025-4e78e338d091","ios":"levelo://app?vid=68c1cb49-7da1-4934-a025-4e78e338d091"},"vehicle_type_id":"4","last_reported":1740330510,"current_range_meters":15200,"station_id":"","pricing_plan_id":"cebpf4jnsgd1na2vs0mg"},{"bike_id":"fa032edb-b9cd-40ea-a924-751c81da1b92","system_id":"levelo_inurba_marseille","lat":43.26892,"lon":5.36885,"is_reserved":false,"is_disabled":false,"rental_uris":{"android":"levelo://app?vid=fa032edb-b9cd-40ea-a924-751c81da1b92","ios":"levelo://app?vid=fa032edb-b9cd-40ea-a924-751c81da1b92"},"vehicle_type_id":"4","last_reported":1740330510,"current_range_meters":15200,"station_id":"ce4bhbp2rcd13ifvqerg","pricing_plan_id":"cebpf4jnsgd1na2vs0mg"},{"bike_id":"0b6992b8-6510-4fb2-8331-d6386f2fd168","system_id":"levelo_inurba_marseille","lat":43.284141,"lon":5.349766,"is_reserved":false,"is_disabled":false,"rental_uris":{"android":"levelo://app?vid=0b6992b8-6510-4fb2-8331-d6386f2fd168","ios":"levelo://app?vid=0b6992b8-6510-4fb2-8331-d6386f2fd168"},"vehicle_type_id":"4","last_reported":1740330510,"current_range_meters":15200,"station_id":"ce4bh4p2rcd13ifvqe1g","pricing_plan_id":"cebpf4jnsgd1na2vs0mg"},{"bike_id":"69164cda-af79-49c1-9319-dc816606cbd8","system_id":"levelo_inurba_marseille","lat":43.2481,"lon":5.37455,"is_reserved":false,"is_disabled":false,"rental_uris":{"android":"levelo://app?vid=69164cda-af79-49c1-9319-dc816606cbd8","ios":"levelo://app?vid=69164cda-af79-49c1-9319-dc816606cbd8"},"vehicle_type_id":"4","last_reported":1740330510,"current_range_meters":16000,"station_id":"ce4bhgh2rcd13ifvqfb0","pricing_plan_id":"cebpf4jnsgd1na2vs0mg"},{"bike_id":"292edb31-f352-4be5-8ad0-fb4394d483ee","system_id":"levelo_inurba_marseille","lat":43.27444,"lon":5.39413,"is_reserved":false,"is_disabled":false,"rental_uris":{"android":"levelo://app?vid=292edb31-f352-4be5-8ad0-fb4394d483ee","ios":"levelo://app?vid=292edb31-f352-4be5-8ad0-fb4394d483ee"},"vehicle_type_id":"4","last_reported":1740330510,"current_range_meters":16000,"station_id":"ce4bhdp2rcd13ifvqf20","pricing_plan_id":"cebpf4jnsgd1na2vs0mg"},{"bike_id":"b42cba7e-09b0-43ea-a514-52dc161235a6","system_id":"levelo_inurba_marseille","lat":43.27172,"lon":5.40995,"is_reserved":false,"is_disabled":false,"rental_uris":{"android":"levelo://app?vid=b42cba7e-09b0-43ea-a514-52dc161235a6","ios":"levelo://app?vid=b42cba7e-09b0-43ea-a514-52dc161235a6"},"vehicle_type_id":"4","last_reported":1740330510,"current_range_meters":16000,"station_id":"ce4bhl12rcd13ifvqgf0","pricing_plan_id":"cebpf4jnsgd1na2vs0mg"},{"bike_id":"a85dea3d-d4f1-4002-bf3e-2b6ec1fa25b3","system_id":"levelo_inurba_marseille","lat":43.262175,"lon":5.40458,"is_reserved":false,"is_disabled":false,"rental_uris":{"android":"levelo://app?vid=a85dea3d-d4f1-4002-bf3e-2b6ec1fa25b3","ios":"levelo://app?vid=a85dea3d-d4f1-4002-bf3e-2b6ec1fa25b3"},"vehicle_type_id":"4","last_reported":1740330510,"current_range_meters":16000,"station_id":"ce4bhmh2rcd13ifvqgmg","pricing_plan_id":"cebpf4jnsgd1na2vs0mg"},{"bike_id":"1ab711d5-8028-4a44-8295-26dfcb859cc5","system_id":"levelo_inurba_marseille","lat":43.31226,"lon":5.36853,"is_reserved":false,"is_disabled":false,"rental_uris":{"android":"levelo://app?vid=1ab711d5-8028-4a44-8295-26dfcb859cc5","ios":"levelo://app?vid=1ab711d5-8028-4a44-8295-26dfcb859cc5"},"vehicle_type_id":"4","last_reported":1740330510,"current_range_meters":16000,"station_id":"ce4bgl92rcd13ifvqbq0","pricing_plan_id":"cebpf4jnsgd1na2vs0mg"},{"bike_id":"5af9f220-0472-48cc-8979-84246ae4cf3d","system_id":"levelo_inurba_marseille","lat":43.283722,"lon":5.375331,"is_reserved":false,"is_disabled":false,"rental_uris":{"android":"levelo://app?vid=5af9f220-0472-48cc-8979-84246ae4cf3d","ios":"levelo://app?vid=5af9f220-0472-48cc-8979-84246ae4cf3d"},"vehicle_type_id":"4","last_reported":1740330510,"current_range_meters":16000,"station_id":"ce4bh392rcd13ifvqdl0","pricing_plan_id":"cebpf4jnsgd1na2vs0mg"},{"bike_id":"425dfc13-f615-4dae-9af9-83fe46b9022e","system_id":"levelo_inurba_marseille","lat":43.28616,"lon":5.35104,"is_reserved":false,"is_disabled":false,"rental_uris":{"android":"levelo://app?vid=425dfc13-f615-4dae-9af9-83fe46b9022e","ios":"levelo://app?vid=425dfc13-f615-4dae-9af9-83fe46b9022e"},"vehicle_type_id":"4","last_reported":1740330510,"current_range_meters":16000,"station_id":"ce4bhch2rcd13ifvqeug","pricing_plan_id":"cebpf4jnsgd1na2vs0mg"},{"bike_id":"60dad195-4263-490b-a123-1f4bb064603d","system_id":"levelo_inurba_marseille","lat":43.28958,"lon":5.36491,"is_reserved":false,"is_disabled":false,"rental_uris":{"android":"levelo://app?vid=60dad195-4263-490b-a123-1f4bb064603d","ios":"levelo://app?vid=60dad195-4263-490b-a123-1f4bb064603d"},"vehicle_type_id":"4","last_reported":1740330510,"current_range_meters":16400,"station_id":"ce4bh3p2rcd13ifvqdp0","pricing_plan_id":"cebpf4jnsgd1na2vs0mg"},{"bike_id":"5e11a4f1-a882-48a1-b278-661cafe47bfb","system_id":"levelo_inurba_marseille","lat":43.29258,"lon":5.40912,"is_reserved":false,"is_disabled":false,"rental_uris":{"android":"levelo://app?vid=5e11a4f1-a882-48a1-b278-661cafe47bfb","ios":"levelo://app?vid=5e11a4f1-a882-48a1-b278-661cafe47bfb"},"vehicle_type_id":"4","last_reported":1740330510,"current_range_meters":16400,"station_id":"ce4bh192rcd13ifvqdc0","pricing_plan_id":"cebpf4jnsgd1na2vs0mg"},{"bike_id":"51c7c09f-82e9-4a4b-a201-54869c0fba8f","system_id":"levelo_inurba_marseille","lat":43.25089,"lon":5.39511,"is_reserved":false,"is_disabled":true,"rental_uris":{"android":"levelo://app?vid=51c7c09f-82e9-4a4b-a201-54869c0fba8f","ios":"levelo://app?vid=51c7c09f-82e9-4a4b-a201-54869c0fba8f"},"vehicle_type_id":"4","last_reported":1740330510,"current_range_meters":16400,"station_id":"ce4bhm12rcd13ifvqgkg","pricing_plan_id":"cebpf4jnsgd1na2vs0mg"},{"bike_id":"f15c9c6d-38bd-4835-bf2d-a7f4cf2e2a93","system_id":"levelo_inurba_marseille","lat":43.23195,"lon":5.35553,"is_reserved":false,"is_disabled":false,"rental_uris":{"android":"levelo://app?vid=f15c9c6d-38bd-4835-bf2d-a7f4cf2e2a93","ios":"levelo://app?vid=f15c9c6d-38bd-4835-bf2d-a7f4cf2e2a93"},"vehicle_type_id":"4","last_reported":1740330510,"current_range_meters":16400,"station_id":"ce4bhu92rcd13ifvqi70","pricing_plan_id":"cebpf4jnsgd1na2vs0mg"},{"bike_id":"87c93845-143c-4613-9a0d-08836448a26d","system_id":"levelo_inurba_marseille","lat":43.2395,"lon":5.36638,"is_reserved":false,"is_disabled":false,"rental_uris":{"android":"levelo://app?vid=87c93845-143c-4613-9a0d-08836448a26d","ios":"levelo://app?vid=87c93845-143c-4613-9a0d-08836448a26d"},"vehicle_type_id":"4","last_reported":1740330510,"current_range_meters":16400,"station_id":"ce4bhi12rcd13ifvqfp0","pricing_plan_id":"cebpf4jnsgd1na2vs0mg"},{"bike_id":"b4e0215b-f2ff-46db-ba8e-290afa8d74a4","system_id":"levelo_inurba_marseille","lat":43.28945,"lon":5.36629,"is_reserved":false,"is_disabled":false,"rental_uris":{"android":"levelo://app?vid=b4e0215b-f2ff-46db-ba8e-290afa8d74a4","ios":"levelo://app?vid=b4e0215b-f2ff-46db-ba8e-290afa8d74a4"},"vehicle_type_id":"4","last_reported":1740330510,"current_range_meters":16400,"station_id":"ce4bhap2rcd13ifvqek0","pricing_plan_id":"cebpf4jnsgd1na2vs0mg"},{"bike_id":"58eb2bfc-18e7-4191-af5a-de95e302d9a9","system_id":"levelo_inurba_marseille","lat":43.2901,"lon":5.35618,"is_reserved":false,"is_disabled":false,"rental_uris":{"android":"levelo://app?vid=58eb2bfc-18e7-4191-af5a-de95e302d9a9","ios":"levelo://app?vid=58eb2bfc-18e7-4191-af5a-de95e302d9a9"},"vehicle_type_id":"4","last_reported":1740330510,"current_range_meters":16400,"station_id":"ce4bhb92rcd13ifvqen0","pricing_plan_id":"cebpf4jnsgd1na2vs0mg"},{"bike_id":"e0fe8782-5415-45e2-96c7-2bde047cebcd","system_id":"levelo_inurba_marseille","lat":43.29797,"lon":5.3811,"is_reserved":false,"is_disabled":false,"rental_uris":{"android":"levelo://app?vid=e0fe8782-5415-45e2-96c7-2bde047cebcd","ios":"levelo://app?vid=e0fe8782-5415-45e2-96c7-2bde047cebcd"},"vehicle_type_id":"4","last_reported":1740330510,"current_range_meters":16800,"station_id":"ce4bgip2rcd13ifvqbb0","pricing_plan_id":"cebpf4jnsgd1na2vs0mg"},{"bike_id":"3fd560b7-472b-414b-bbb9-fede0abf01d9","system_id":"levelo_inurba_marseille","lat":43.29421,"lon":5.38627,"is_reserved":false,"is_disabled":false,"rental_uris":{"android":"levelo://app?vid=3fd560b7-472b-414b-bbb9-fede0abf01d9","ios":"levelo://app?vid=3fd560b7-472b-414b-bbb9-fede0abf01d9"},"vehicle_type_id":"4","last_reported":1740330510,"current_range_meters":16800,"station_id":"ce4bh2h2rcd13ifvqdh0","pricing_plan_id":"cebpf4jnsgd1na2vs0mg"},{"bike_id":"fbb5455a-b04b-4cc4-92d6-d98f37be3aff","system_id":"levelo_inurba_marseille","lat":43.30259,"lon":5.40066,"is_reserved":false,"is_disabled":false,"rental_uris":{"android":"levelo://app?vid=fbb5455a-b04b-4cc4-92d6-d98f37be3aff","ios":"levelo://app?vid=fbb5455a-b04b-4cc4-92d6-d98f37be3aff"},"vehicle_type_id":"4","last_reported":1740330510,"current_range_meters":16800,"station_id":"ce4bgvh2rcd13ifvqcs0","pricing_plan_id":"cebpf4jnsgd1na2vs0mg"},{"bike_id":"34168c40-3b8d-4627-9191-5e845802f26a","system_id":"levelo_inurba_marseille","lat":43.32747,"lon":5.39235,"is_reserved":false,"is_disabled":false,"rental_uris":{"android":"levelo://app?vid=34168c40-3b8d-4627-9191-5e845802f26a","ios":"levelo://app?vid=34168c40-3b8d-4627-9191-5e845802f26a"},"vehicle_type_id":"4","last_reported":1740330510,"current_range_meters":17200,"station_id":"","pricing_plan_id":"cebpf4jnsgd1na2vs0mg"},{"bike_id":"7fe0996e-2e24-4a3a-b975-03a2a20f6506","system_id":"levelo_inurba_marseille","lat":43.32368,"lon":5.36782,"is_reserved":false,"is_disabled":false,"rental_uris":{"android":"levelo://app?vid=7fe0996e-2e24-4a3a-b975-03a2a20f6506","ios":"levelo://app?vid=7fe0996e-2e24-4a3a-b975-03a2a20f6506"},"vehicle_type_id":"4","last_reported":1740330510,"current_range_meters":17200,"station_id":"ce4bhsh2rcd13ifvqi2g","pricing_plan_id":"cebpf4jnsgd1na2vs0mg"},{"bike_id":"ab3e223d-d2ad-4c8c-8328-39e5c9f4f486","system_id":"levelo_inurba_marseille","lat":43.29643,"lon":5.40593,"is_reserved":false,"is_disabled":false,"rental_uris":{"android":"levelo://app?vid=ab3e223d-d2ad-4c8c-8328-39e5c9f4f486","ios":"levelo://app?vid=ab3e223d-d2ad-4c8c-8328-39e5c9f4f486"},"vehicle_type_id":"4","last_reported":1740330510,"current_range_meters":17200,"station_id":"ce4bh0h2rcd13ifvqd60","pricing_plan_id":"cebpf4jnsgd1na2vs0mg"},{"bike_id":"f046220a-9a54-4572-86c0-e68750509988","system_id":"levelo_inurba_marseille","lat":43.27423,"lon":5.39421,"is_reserved":false,"is_disabled":false,"rental_uris":{"android":"levelo://app?vid=f046220a-9a54-4572-86c0-e68750509988","ios":"levelo://app?vid=f046220a-9a54-4572-86c0-e68750509988"},"vehicle_type_id":"4","last_reported":1740330510,"current_range_meters":17600,"station_id":"ce4bhdp2rcd13ifvqf20","pricing_plan_id":"cebpf4jnsgd1na2vs0mg"},{"bike_id":"1ef41376-cd3a-40a3-ae4a-f23a2a34fc30","system_id":"levelo_inurba_marseille","lat":43.27677,"lon":5.38907,"is_reserved":false,"is_disabled":true,"rental_uris":{"android":"levelo://app?vid=1ef41376-cd3a-40a3-ae4a-f23a2a34fc30","ios":"levelo://app?vid=1ef41376-cd3a-40a3-ae4a-f23a2a34fc30"},"vehicle_type_id":"4","last_reported":1740330510,"current_range_meters":17600,"station_id":"ce4bhi12rcd13ifvqfo0","pricing_plan_id":"cebpf4jnsgd1na2vs0mg"},{"bike_id":"5e5cce2d-049f-490e-9b28-7bc00f6e804b","system_id":"levelo_inurba_marseille","lat":43.29188,"lon":5.35788,"is_reserved":false,"is_disabled":false,"rental_uris":{"android":"levelo://app?vid=5e5cce2d-049f-490e-9b28-7bc00f6e804b","ios":"levelo://app?vid=5e5cce2d-049f-490e-9b28-7bc00f6e804b"},"vehicle_type_id":"4","last_reported":1740330510,"current_range_meters":17600,"station_id":"ce4bhb12rcd13ifvqel0","pricing_plan_id":"cebpf4jnsgd1na2vs0mg"},{"bike_id":"31f22dd6-b64e-47dc-a1e2-0e184779765a","system_id":"levelo_inurba_marseille","lat":43.27923,"lon":5.38285,"is_reserved":false,"is_disabled":false,"rental_uris":{"android":"levelo://app?vid=31f22dd6-b64e-47dc-a1e2-0e184779765a","ios":"levelo://app?vid=31f22dd6-b64e-47dc-a1e2-0e184779765a"},"vehicle_type_id":"4","last_reported":1740330510,"current_range_meters":17600,"station_id":"","pricing_plan_id":"cebpf4jnsgd1na2vs0mg"},{"bike_id":"33fe3978-debb-48af-a09a-67b7194363d8","system_id":"levelo_inurba_marseille","lat":43.25829,"lon":5.39448,"is_reserved":false,"is_disabled":false,"rental_uris":{"android":"levelo://app?vid=33fe3978-debb-48af-a09a-67b7194363d8","ios":"levelo://app?vid=33fe3978-debb-48af-a09a-67b7194363d8"},"vehicle_type_id":"4","last_reported":1740330510,"current_range_meters":17600,"station_id":"ce4bhip2rcd13ifvqft0","pricing_plan_id":"cebpf4jnsgd1na2vs0mg"},{"bike_id":"252d3934-b442-424c-a076-9eb977c9e361","system_id":"levelo_inurba_marseille","lat":43.28612,"lon":5.351,"is_reserved":false,"is_disabled":false,"rental_uris":{"android":"levelo://app?vid=252d3934-b442-424c-a076-9eb977c9e361","ios":"levelo://app?vid=252d3934-b442-424c-a076-9eb977c9e361"},"vehicle_type_id":"4","last_reported":1740330510,"current_range_meters":17600,"station_id":"ce4bhch2rcd13ifvqeug","pricing_plan_id":"cebpf4jnsgd1na2vs0mg"},{"bike_id":"4050c71f-003e-493b-80f5-b57716be863d","system_id":"levelo_inurba_marseille","lat":43.31277,"lon":5.40161,"is_reserved":false,"is_disabled":false,"rental_uris":{"android":"levelo://app?vid=4050c71f-003e-493b-80f5-b57716be863d","ios":"levelo://app?vid=4050c71f-003e-493b-80f5-b57716be863d"},"vehicle_type_id":"4","last_reported":1740330510,"current_range_meters":17600,"station_id":"ce4bh092rcd13ifvqd30","pricing_plan_id":"cebpf4jnsgd1na2vs0mg"},{"bike_id":"a2d6ae3f-66f4-4649-ba0a-99967149441d","system_id":"levelo_inurba_marseille","lat":43.29474,"lon":5.36188,"is_reserved":false,"is_disabled":false,"rental_uris":{"android":"levelo://app?vid=a2d6ae3f-66f4-4649-ba0a-99967149441d","ios":"levelo://app?vid=a2d6ae3f-66f4-4649-ba0a-99967149441d"},"vehicle_type_id":"4","last_reported":1740330510,"current_range_meters":17600,"station_id":"","pricing_plan_id":"cebpf4jnsgd1na2vs0mg"},{"bike_id":"738d7062-e684-48a6-b108-52fbc1509e4e","system_id":"levelo_inurba_marseille","lat":43.291863,"lon":5.39319,"is_reserved":false,"is_disabled":false,"rental_uris":{"android":"levelo://app?vid=738d7062-e684-48a6-b108-52fbc1509e4e","ios":"levelo://app?vid=738d7062-e684-48a6-b108-52fbc1509e4e"},"vehicle_type_id":"4","last_reported":1740330510,"current_range_meters":17600,"station_id":"ce4bh192rcd13ifvqdd0","pricing_plan_id":"cebpf4jnsgd1na2vs0mg"},{"bike_id":"d84b8d93-f1c4-4fd2-8747-337938d79815","system_id":"levelo_inurba_marseille","lat":43.25576,"lon":5.38229,"is_reserved":false,"is_disabled":false,"rental_uris":{"android":"levelo://app?vid=d84b8d93-f1c4-4fd2-8747-337938d79815","ios":"levelo://app?vid=d84b8d93-f1c4-4fd2-8747-337938d79815"},"vehicle_type_id":"4","last_reported":1740330510,"current_range_meters":18000,"station_id":"ce4bhih2rcd13ifvqfs0","pricing_plan_id":"cebpf4jnsgd1na2vs0mg"},{"bike_id":"4fdf7b2b-cb0e-460b-a85c-87d4783d8218","system_id":"levelo_inurba_marseille","lat":43.25488,"lon":5.37665,"is_reserved":false,"is_disabled":true,"rental_uris":{"android":"levelo://app?vid=4fdf7b2b-cb0e-460b-a85c-87d4783d8218","ios":"levelo://app?vid=4fdf7b2b-cb0e-460b-a85c-87d4783d8218"},"vehicle_type_id":"4","last_reported":1740330510,"current_range_meters":18000,"station_id":"ce4bhh12rcd13ifvqff0","pricing_plan_id":"cebpf4jnsgd1na2vs0mg"},{"bike_id":"b5a1d484-9e63-43b3-9bbc-06f2df1a2c91","system_id":"levelo_inurba_marseille","lat":43.292101,"lon":5.393133,"is_reserved":false,"is_disabled":false,"rental_uris":{"android":"levelo://app?vid=b5a1d484-9e63-43b3-9bbc-06f2df1a2c91","ios":"levelo://app?vid=b5a1d484-9e63-43b3-9bbc-06f2df1a2c91"},"vehicle_type_id":"4","last_reported":1740330510,"current_range_meters":18000,"station_id":"ce4bh192rcd13ifvqdd0","pricing_plan_id":"cebpf4jnsgd1na2vs0mg"},{"bike_id":"600b91b9-5163-4bda-9707-69bb01539f3e","system_id":"levelo_inurba_marseille","lat":43.31689,"lon":5.40481,"is_reserved":false,"is_disabled":false,"rental_uris":{"android":"levelo://app?vid=600b91b9-5163-4bda-9707-69bb01539f3e","ios":"levelo://app?vid=600b91b9-5163-4bda-9707-69bb01539f3e"},"vehicle_type_id":"4","last_reported":1740330510,"current_range_meters":19600,"station_id":"ce4bh012rcd13ifvqd00","pricing_plan_id":"cebpf4jnsgd1na2vs0mg"},{"bike_id":"4c822ac9-ca27-4f02-be13-94c5d69ffb4f","system_id":"levelo_inurba_marseille","lat":43.28348,"lon":5.35019,"is_reserved":false,"is_disabled":false,"rental_uris":{"android":"levelo://app?vid=4c822ac9-ca27-4f02-be13-94c5d69ffb4f","ios":"levelo://app?vid=4c822ac9-ca27-4f02-be13-94c5d69ffb4f"},"vehicle_type_id":"4","last_reported":1740330510,"current_range_meters":18000,"station_id":"","pricing_plan_id":"cebpf4jnsgd1na2vs0mg"},{"bike_id":"da805173-c32f-4615-b8c5-69bdaf0f2e7f","system_id":"levelo_inurba_marseille","lat":43.28997,"lon":5.35591,"is_reserved":false,"is_disabled":true,"rental_uris":{"android":"levelo://app?vid=da805173-c32f-4615-b8c5-69bdaf0f2e7f","ios":"levelo://app?vid=da805173-c32f-4615-b8c5-69bdaf0f2e7f"},"vehicle_type_id":"4","last_reported":1740330510,"current_range_meters":18000,"station_id":"ce4bhb92rcd13ifvqen0","pricing_plan_id":"cebpf4jnsgd1na2vs0mg"},{"bike_id":"b6c67d47-6b6c-433b-9cf7-69638e23cd88","system_id":"levelo_inurba_marseille","lat":43.28411,"lon":5.37511,"is_reserved":false,"is_disabled":false,"rental_uris":{"android":"levelo://app?vid=b6c67d47-6b6c-433b-9cf7-69638e23cd88","ios":"levelo://app?vid=b6c67d47-6b6c-433b-9cf7-69638e23cd88"},"vehicle_type_id":"4","last_reported":1740330510,"current_range_meters":18000,"station_id":"ce4bh412rcd13ifvqds0","pricing_plan_id":"cebpf4jnsgd1na2vs0mg"},{"bike_id":"41a2216f-8b22-4f4f-9eac-5e2283bcdb4b","system_id":"levelo_inurba_marseille","lat":43.28158,"lon":5.42649,"is_reserved":false,"is_disabled":true,"rental_uris":{"android":"levelo://app?vid=41a2216f-8b22-4f4f-9eac-5e2283bcdb4b","ios":"levelo://app?vid=41a2216f-8b22-4f4f-9eac-5e2283bcdb4b"},"vehicle_type_id":"4","last_reported":1740330510,"current_range_meters":18800,"station_id":"ce4bhnh2rcd13ifvqgug","pricing_plan_id":"cebpf4jnsgd1na2vs0mg"},{"bike_id":"b74b70b7-2ee4-40f6-9bb9-a30abcb56606","system_id":"levelo_inurba_marseille","lat":43.292084,"lon":5.393346,"is_reserved":false,"is_disabled":false,"rental_uris":{"android":"levelo://app?vid=b74b70b7-2ee4-40f6-9bb9-a30abcb56606","ios":"levelo://app?vid=b74b70b7-2ee4-40f6-9bb9-a30abcb56606"},"vehicle_type_id":"4","last_reported":1740330510,"current_range_meters":18800,"station_id":"ce4bh192rcd13ifvqdd0","pricing_plan_id":"cebpf4jnsgd1na2vs0mg"},{"bike_id":"2c226df1-fd18-49fa-937a-6cfcc5f50412","system_id":"levelo_inurba_marseille","lat":43.28698,"lon":5.399917,"is_reserved":false,"is_disabled":false,"rental_uris":{"android":"levelo://app?vid=2c226df1-fd18-49fa-937a-6cfcc5f50412","ios":"levelo://app?vid=2c226df1-fd18-49fa-937a-6cfcc5f50412"},"vehicle_type_id":"4","last_reported":1740330510,"current_range_meters":18800,"station_id":"ce4bho92rcd13ifvqh3g","pricing_plan_id":"cebpf4jnsgd1na2vs0mg"},{"bike_id":"f5b344f2-355c-467e-970b-726a50f41791","system_id":"levelo_inurba_marseille","lat":43.30099,"lon":5.39105,"is_reserved":false,"is_disabled":false,"rental_uris":{"android":"levelo://app?vid=f5b344f2-355c-467e-970b-726a50f41791","ios":"levelo://app?vid=f5b344f2-355c-467e-970b-726a50f41791"},"vehicle_type_id":"4","last_reported":1740330510,"current_range_meters":18800,"station_id":"ce4bh192rcd13ifvqdb0","pricing_plan_id":"cebpf4jnsgd1na2vs0mg"},{"bike_id":"9ec80d5d-5365-4fe8-b1b8-741c81741c1c","system_id":"levelo_inurba_marseille","lat":43.27702,"lon":5.40798,"is_reserved":false,"is_disabled":false,"rental_uris":{"android":"levelo://app?vid=9ec80d5d-5365-4fe8-b1b8-741c81741c1c","ios":"levelo://app?vid=9ec80d5d-5365-4fe8-b1b8-741c81741c1c"},"vehicle_type_id":"4","last_reported":1740330510,"current_range_meters":18800,"station_id":"","pricing_plan_id":"cebpf4jnsgd1na2vs0mg"},{"bike_id":"11d2fe39-d9d4-48dc-add1-83528bf8cf2e","system_id":"levelo_inurba_marseille","lat":43.23175,"lon":5.39994,"is_reserved":false,"is_disabled":false,"rental_uris":{"android":"levelo://app?vid=11d2fe39-d9d4-48dc-add1-83528bf8cf2e","ios":"levelo://app?vid=11d2fe39-d9d4-48dc-add1-83528bf8cf2e"},"vehicle_type_id":"4","last_reported":1740330510,"current_range_meters":18800,"station_id":"ce4bhn12rcd13ifvqgqg","pricing_plan_id":"cebpf4jnsgd1na2vs0mg"},{"bike_id":"2cb3f284-7b8f-46db-a012-ff6c476270a8","system_id":"levelo_inurba_marseille","lat":43.23192,"lon":5.3556,"is_reserved":false,"is_disabled":false,"rental_uris":{"android":"levelo://app?vid=2cb3f284-7b8f-46db-a012-ff6c476270a8","ios":"levelo://app?vid=2cb3f284-7b8f-46db-a012-ff6c476270a8"},"vehicle_type_id":"4","last_reported":1740330510,"current_range_meters":18800,"station_id":"ce4bhu92rcd13ifvqi70","pricing_plan_id":"cebpf4jnsgd1na2vs0mg"},{"bike_id":"e1e6eecf-00c7-420d-b145-21709b68c1fe","system_id":"levelo_inurba_marseille","lat":43.28612,"lon":5.351,"is_reserved":false,"is_disabled":false,"rental_uris":{"android":"levelo://app?vid=e1e6eecf-00c7-420d-b145-21709b68c1fe","ios":"levelo://app?vid=e1e6eecf-00c7-420d-b145-21709b68c1fe"},"vehicle_type_id":"4","last_reported":1740330510,"current_range_meters":18800,"station_id":"ce4bhch2rcd13ifvqeug","pricing_plan_id":"cebpf4jnsgd1na2vs0mg"},{"bike_id":"c0553ce2-1e21-4424-ae14-30f158e9755d","system_id":"levelo_inurba_marseille","lat":43.29883,"lon":5.38906,"is_reserved":false,"is_disabled":true,"rental_uris":{"android":"levelo://app?vid=c0553ce2-1e21-4424-ae14-30f158e9755d","ios":"levelo://app?vid=c0553ce2-1e21-4424-ae14-30f158e9755d"},"vehicle_type_id":"4","last_reported":1740330510,"current_range_meters":18800,"station_id":"ce4bh392rcd13ifvqdl0","pricing_plan_id":"cebpf4jnsgd1na2vs0mg"},{"bike_id":"a655fc37-3b1c-45bf-9781-60b956dfc557","system_id":"levelo_inurba_marseille","lat":43.2895,"lon":5.36401,"is_reserved":false,"is_disabled":false,"rental_uris":{"android":"levelo://app?vid=a655fc37-3b1c-45bf-9781-60b956dfc557","ios":"levelo://app?vid=a655fc37-3b1c-45bf-9781-60b956dfc557"},"vehicle_type_id":"4","last_reported":1740330510,"current_range_meters":19200,"station_id":"ce4bhc92rcd13ifvqetg","pricing_plan_id":"cebpf4jnsgd1na2vs0mg"},{"bike_id":"f7c755ed-027e-4e82-a71c-dc01251c9358","system_id":"levelo_inurba_marseille","lat":43.292764,"lon":5.368499,"is_reserved":false,"is_disabled":false,"rental_uris":{"android":"levelo://app?vid=f7c755ed-027e-4e82-a71c-dc01251c9358","ios":"levelo://app?vid=f7c755ed-027e-4e82-a71c-dc01251c9358"},"vehicle_type_id":"4","last_reported":1740330510,"current_range_meters":19200,"station_id":"chh1huq6cuj3fo74tm60","pricing_plan_id":"cebpf4jnsgd1na2vs0mg"},{"bike_id":"bd85949c-cd40-4d8b-b327-ed6b8a897748","system_id":"levelo_inurba_marseille","lat":43.28438,"lon":5.39202,"is_reserved":false,"is_disabled":false,"rental_uris":{"android":"levelo://app?vid=bd85949c-cd40-4d8b-b327-ed6b8a897748","ios":"levelo://app?vid=bd85949c-cd40-4d8b-b327-ed6b8a897748"},"vehicle_type_id":"4","last_reported":1740330510,"current_range_meters":19200,"station_id":"ce4bhoh2rcd13ifvqh5g","pricing_plan_id":"cebpf4jnsgd1na2vs0mg"},{"bike_id":"820eabd5-d824-4434-99d7-9fbd6fd66758","system_id":"levelo_inurba_marseille","lat":43.32782,"lon":5.39227,"is_reserved":false,"is_disabled":false,"rental_uris":{"android":"levelo://app?vid=820eabd5-d824-4434-99d7-9fbd6fd66758","ios":"levelo://app?vid=820eabd5-d824-4434-99d7-9fbd6fd66758"},"vehicle_type_id":"4","last_reported":1740330510,"current_range_meters":19600,"station_id":"","pricing_plan_id":"cebpf4jnsgd1na2vs0mg"},{"bike_id":"cdf89f84-1d45-4ce1-b985-6a2c8b69ccf3","system_id":"levelo_inurba_marseille","lat":43.30543,"lon":5.3654,"is_reserved":false,"is_disabled":true,"rental_uris":{"android":"levelo://app?vid=cdf89f84-1d45-4ce1-b985-6a2c8b69ccf3","ios":"levelo://app?vid=cdf89f84-1d45-4ce1-b985-6a2c8b69ccf3"},"vehicle_type_id":"4","last_reported":1740330510,"current_range_meters":19600,"station_id":"ce4bgs12rcd13ifvqcag","pricing_plan_id":"cebpf4jnsgd1na2vs0mg"},{"bike_id":"ebbf6217-465f-4269-8ee4-4515a862b241","system_id":"levelo_inurba_marseille","lat":43.29867,"lon":5.389,"is_reserved":false,"is_disabled":true,"rental_uris":{"android":"levelo://app?vid=ebbf6217-465f-4269-8ee4-4515a862b241","ios":"levelo://app?vid=ebbf6217-465f-4269-8ee4-4515a862b241"},"vehicle_type_id":"4","last_reported":1740330510,"current_range_meters":19600,"station_id":"ce4bh392rcd13ifvqdl0","pricing_plan_id":"cebpf4jnsgd1na2vs0mg"},{"bike_id":"583a2911-17b4-4b06-a72d-52bb6b597c93","system_id":"levelo_inurba_marseille","lat":43.30463,"lon":5.37904,"is_reserved":false,"is_disabled":false,"rental_uris":{"android":"levelo://app?vid=583a2911-17b4-4b06-a72d-52bb6b597c93","ios":"levelo://app?vid=583a2911-17b4-4b06-a72d-52bb6b597c93"},"vehicle_type_id":"4","last_reported":1740330510,"current_range_meters":20000,"station_id":"ce4bgup2rcd13ifvqcn0","pricing_plan_id":"cebpf4jnsgd1na2vs0mg"},{"bike_id":"d4730943-c8a0-45ac-a541-8183607370d1","system_id":"levelo_inurba_marseille","lat":43.25008,"lon":5.38908,"is_reserved":false,"is_disabled":false,"rental_uris":{"android":"levelo://app?vid=d4730943-c8a0-45ac-a541-8183607370d1","ios":"levelo://app?vid=d4730943-c8a0-45ac-a541-8183607370d1"},"vehicle_type_id":"4","last_reported":1740330510,"current_range_meters":20000,"station_id":"ce4bhgp2rcd13ifvqfd0","pricing_plan_id":"cebpf4jnsgd1na2vs0mg"},{"bike_id":"59cb34f0-8a85-41be-8eb2-2dc1ba4b7d14","system_id":"levelo_inurba_marseille","lat":43.293584,"lon":5.401755,"is_reserved":false,"is_disabled":false,"rental_uris":{"android":"levelo://app?vid=59cb34f0-8a85-41be-8eb2-2dc1ba4b7d14","ios":"levelo://app?vid=59cb34f0-8a85-41be-8eb2-2dc1ba4b7d14"},"vehicle_type_id":"4","last_reported":1740330510,"current_range_meters":20000,"station_id":"ce4bh392rcd13ifvqdl0","pricing_plan_id":"cebpf4jnsgd1na2vs0mg"},{"bike_id":"323996e1-e8ef-45d2-a2ba-1021072d96c1","system_id":"levelo_inurba_marseille","lat":43.28277,"lon":5.35061,"is_reserved":false,"is_disabled":false,"rental_uris":{"android":"levelo://app?vid=323996e1-e8ef-45d2-a2ba-1021072d96c1","ios":"levelo://app?vid=323996e1-e8ef-45d2-a2ba-1021072d96c1"},"vehicle_type_id":"4","last_reported":1740330510,"current_range_meters":20000,"station_id":"ce4bhbp2rcd13ifvqerg","pricing_plan_id":"cebpf4jnsgd1na2vs0mg"},{"bike_id":"edb6a05c-33ea-423c-ae58-8772169a7eea","system_id":"levelo_inurba_marseille","lat":43.289764,"lon":5.378265,"is_reserved":false,"is_disabled":false,"rental_uris":{"android":"levelo://app?vid=edb6a05c-33ea-423c-ae58-8772169a7eea","ios":"levelo://app?vid=edb6a05c-33ea-423c-ae58-8772169a7eea"},"vehicle_type_id":"4","last_reported":1740330510,"current_range_meters":20000,"station_id":"ce4bh9p2rcd13ifvqed0","pricing_plan_id":"cebpf4jnsgd1na2vs0mg"},{"bike_id":"7f5aae77-407d-4966-a802-dcf0bc20ffbf","system_id":"levelo_inurba_marseille","lat":43.26817,"lon":5.40244,"is_reserved":false,"is_disabled":false,"rental_uris":{"android":"levelo://app?vid=7f5aae77-407d-4966-a802-dcf0bc20ffbf","ios":"levelo://app?vid=7f5aae77-407d-4966-a802-dcf0bc20ffbf"},"vehicle_type_id":"4","last_reported":1740330510,"current_range_meters":20400,"station_id":"ce501612rcd8frsf0b60","pricing_plan_id":"cebpf4jnsgd1na2vs0mg"},{"bike_id":"c87d858a-e06a-4a97-ba7e-adf208fcd196","system_id":"levelo_inurba_marseille","lat":43.24081,"lon":5.3776,"is_reserved":false,"is_disabled":false,"rental_uris":{"android":"levelo://app?vid=c87d858a-e06a-4a97-ba7e-adf208fcd196","ios":"levelo://app?vid=c87d858a-e06a-4a97-ba7e-adf208fcd196"},"vehicle_type_id":"4","last_reported":1740330510,"current_range_meters":20400,"station_id":"ce4bhnp2rcd13ifvqgvg","pricing_plan_id":"cebpf4jnsgd1na2vs0mg"},{"bike_id":"d8ba22ba-eb90-43ee-af02-af94b7a6b3ac","system_id":"levelo_inurba_marseille","lat":43.27381,"lon":5.36253,"is_reserved":false,"is_disabled":false,"rental_uris":{"android":"levelo://app?vid=d8ba22ba-eb90-43ee-af02-af94b7a6b3ac","ios":"levelo://app?vid=d8ba22ba-eb90-43ee-af02-af94b7a6b3ac"},"vehicle_type_id":"4","last_reported":1740330510,"current_range_meters":20400,"station_id":"ce4bhbh2rcd13ifvqeo0","pricing_plan_id":"cebpf4jnsgd1na2vs0mg"},{"bike_id":"286de0f8-97e0-452c-b6d5-32db1b3d13db","system_id":"levelo_inurba_marseille","lat":43.28411,"lon":5.34985,"is_reserved":false,"is_disabled":false,"rental_uris":{"android":"levelo://app?vid=286de0f8-97e0-452c-b6d5-32db1b3d13db","ios":"levelo://app?vid=286de0f8-97e0-452c-b6d5-32db1b3d13db"},"vehicle_type_id":"4","last_reported":1740330510,"current_range_meters":20400,"station_id":"ce4bhbh2rcd13ifvqepg","pricing_plan_id":"cebpf4jnsgd1na2vs0mg"},{"bike_id":"53899e2c-901f-4684-921b-47370fcd206b","system_id":"levelo_inurba_marseille","lat":43.30095,"lon":5.39091,"is_reserved":false,"is_disabled":true,"rental_uris":{"android":"levelo://app?vid=53899e2c-901f-4684-921b-47370fcd206b","ios":"levelo://app?vid=53899e2c-901f-4684-921b-47370fcd206b"},"vehicle_type_id":"4","last_reported":1740330510,"current_range_meters":20400,"station_id":"ce4bh192rcd13ifvqdb0","pricing_plan_id":"cebpf4jnsgd1na2vs0mg"},{"bike_id":"bb8e5c89-f275-4883-98b0-2a138979c085","system_id":"levelo_inurba_marseille","lat":43.28355,"lon":5.38103,"is_reserved":false,"is_disabled":false,"rental_uris":{"android":"levelo://app?vid=bb8e5c89-f275-4883-98b0-2a138979c085","ios":"levelo://app?vid=bb8e5c89-f275-4883-98b0-2a138979c085"},"vehicle_type_id":"4","last_reported":1740330510,"current_range_meters":20400,"station_id":"ce4bh412rcd13ifvqdr0","pricing_plan_id":"cebpf4jnsgd1na2vs0mg"},{"bike_id":"33759a3a-f186-4908-9274-a16ff178fb86","system_id":"levelo_inurba_marseille","lat":43.31216,"lon":5.36843,"is_reserved":false,"is_disabled":false,"rental_uris":{"android":"levelo://app?vid=33759a3a-f186-4908-9274-a16ff178fb86","ios":"levelo://app?vid=33759a3a-f186-4908-9274-a16ff178fb86"},"vehicle_type_id":"4","last_reported":1740330510,"current_range_meters":20400,"station_id":"ce4bgl92rcd13ifvqbq0","pricing_plan_id":"cebpf4jnsgd1na2vs0mg"},{"bike_id":"b9ca77b9-71b3-4fce-ba6d-9bf71fdeb3e8","system_id":"levelo_inurba_marseille","lat":43.28625,"lon":5.35111,"is_reserved":false,"is_disabled":false,"rental_uris":{"android":"levelo://app?vid=b9ca77b9-71b3-4fce-ba6d-9bf71fdeb3e8","ios":"levelo://app?vid=b9ca77b9-71b3-4fce-ba6d-9bf71fdeb3e8"},"vehicle_type_id":"4","last_reported":1740330510,"current_range_meters":20400,"station_id":"ce4bhch2rcd13ifvqeug","pricing_plan_id":"cebpf4jnsgd1na2vs0mg"},{"bike_id":"a01f5c6f-5aea-4ddc-8287-05dfd53152b4","system_id":"levelo_inurba_marseille","lat":43.292081,"lon":5.393116,"is_reserved":false,"is_disabled":false,"rental_uris":{"android":"levelo://app?vid=a01f5c6f-5aea-4ddc-8287-05dfd53152b4","ios":"levelo://app?vid=a01f5c6f-5aea-4ddc-8287-05dfd53152b4"},"vehicle_type_id":"4","last_reported":1740330510,"current_range_meters":20400,"station_id":"ce4bh192rcd13ifvqdd0","pricing_plan_id":"cebpf4jnsgd1na2vs0mg"},{"bike_id":"f8817c67-9f96-43e3-940f-f159d7bac78e","system_id":"levelo_inurba_marseille","lat":43.29422,"lon":5.38615,"is_reserved":false,"is_disabled":false,"rental_uris":{"android":"levelo://app?vid=f8817c67-9f96-43e3-940f-f159d7bac78e","ios":"levelo://app?vid=f8817c67-9f96-43e3-940f-f159d7bac78e"},"vehicle_type_id":"4","last_reported":1740330510,"current_range_meters":20400,"station_id":"ce4bh2h2rcd13ifvqdh0","pricing_plan_id":"cebpf4jnsgd1na2vs0mg"},{"bike_id":"3b843b54-677d-434f-b83d-392c5edaed7d","system_id":"levelo_inurba_marseille","lat":43.26583,"lon":5.39006,"is_reserved":false,"is_disabled":false,"rental_uris":{"android":"levelo://app?vid=3b843b54-677d-434f-b83d-392c5edaed7d","ios":"levelo://app?vid=3b843b54-677d-434f-b83d-392c5edaed7d"},"vehicle_type_id":"4","last_reported":1740330510,"current_range_meters":20400,"station_id":"ce4bhe12rcd13ifvqf30","pricing_plan_id":"cebpf4jnsgd1na2vs0mg"},{"bike_id":"994d5156-b1a9-4e4f-84c8-c8f5a8efd4e2","system_id":"levelo_inurba_marseille","lat":43.2979,"lon":5.371,"is_reserved":false,"is_disabled":false,"rental_uris":{"android":"levelo://app?vid=994d5156-b1a9-4e4f-84c8-c8f5a8efd4e2","ios":"levelo://app?vid=994d5156-b1a9-4e4f-84c8-c8f5a8efd4e2"},"vehicle_type_id":"4","last_reported":1740330510,"current_range_meters":20400,"station_id":"ce4bgop2rcd13ifvqc1g","pricing_plan_id":"cebpf4jnsgd1na2vs0mg"},{"bike_id":"14d47470-7ae4-461b-a6eb-0ffe427a987b","system_id":"levelo_inurba_marseille","lat":43.250914,"lon":5.39529,"is_reserved":false,"is_disabled":false,"rental_uris":{"android":"levelo://app?vid=14d47470-7ae4-461b-a6eb-0ffe427a987b","ios":"levelo://app?vid=14d47470-7ae4-461b-a6eb-0ffe427a987b"},"vehicle_type_id":"4","last_reported":1740330510,"current_range_meters":20800,"station_id":"ce4bhhh2rcd13ifvqfl0","pricing_plan_id":"cebpf4jnsgd1na2vs0mg"},{"bike_id":"f81732c4-5175-4d94-95d8-09fa6a0feab1","system_id":"levelo_inurba_marseille","lat":43.293906,"lon":5.373519,"is_reserved":false,"is_disabled":false,"rental_uris":{"android":"levelo://app?vid=f81732c4-5175-4d94-95d8-09fa6a0feab1","ios":"levelo://app?vid=f81732c4-5175-4d94-95d8-09fa6a0feab1"},"vehicle_type_id":"4","last_reported":1740330510,"current_range_meters":20800,"station_id":"ce4bh2h2rcd13ifvqdh0","pricing_plan_id":"cebpf4jnsgd1na2vs0mg"},{"bike_id":"c4fe471e-f1a5-43b1-bbfc-5e52128262e0","system_id":"levelo_inurba_marseille","lat":43.3031,"lon":5.36886,"is_reserved":false,"is_disabled":false,"rental_uris":{"android":"levelo://app?vid=c4fe471e-f1a5-43b1-bbfc-5e52128262e0","ios":"levelo://app?vid=c4fe471e-f1a5-43b1-bbfc-5e52128262e0"},