{"last_updated":1750234485,"ttl":60,"version":"2.2","data":{"bikes":[{"bike_id":"3da29fb8-fc97-44c6-b9ac-31dd456b2fd4","system_id":"levelo_inurba_marseille","lat":43.33771,"lon":5.37424,"is_reserved":false,"is_disabled":true,"rental_uris":{"android":"levelo://app?vid=3da29fb8-fc97-44c6-b9ac-31dd456b2fd4","ios":"levelo://app?vid=3da29fb8-fc97-44c6-b9ac-31dd456b2fd4"},"vehicle_type_id":"4","last_reported":1750234485,"current_range_meters":0,"station_id":"","pricing_plan_id":"cebpf4jnsgd1na2vs0mg"},{"bike_id":"01861ad8-a8d7-4be6-816e-651927c87584","system_id":"levelo_inurba_marseille","lat":43.33751,"lon":5.37456,"is_reserved":false,"is_disabled":true,"rental_uris":{"android":"levelo://app?vid=01861ad8-a8d7-4be6-816e-651927c87584","ios":"levelo://app?vid=01861ad8-a8d7-4be6-816e-651927c87584"},"vehicle_type_id":"4","last_reported":1750234485,"current_range_meters":0,"station_id":"","pricing_plan_id":"cebpf4jnsgd1na2vs0mg"},{"bike_id":"dbfce7a3-3423-4296-b193-a177dea644ac","system_id":"levelo_inurba_marseille","lat":43.27294,"lon":5.41595,"is_reserved":false,"is_disabled":true,"rental_uris":{"android":"levelo://app?vid=dbfce7a3-3423-4296-b193-a177dea644ac","ios":"levelo://app?vid=dbfce7a3-3423-4296-b193-a177dea644ac"},"vehicle_type_id":"4","last_reported":1750234485,"current_range_meters":0,"station_id":"","pricing_plan_id":"cebpf4jnsgd1na2vs0mg"},{"bike_id":"8d297b38-f666-4a46-9dee-0132f800019c","system_id":"levelo_inurba_marseille","lat":43.32201,"lon":5.38574,"is_reserved":false,"is_disabled":true,"rental_uris":{"android":"levelo://app?vid=8d297b38-f666-4a46-9dee-0132f800019c","ios":"levelo://app?vid=8d297b38-f666-4a46-9dee-0132f800019c"},"vehicle_type_id":"4","last_reported":1750234485,"current_range_meters":0,"station_id":"","pricing_plan_id":"cebpf4jnsgd1na2vs0mg"},{"bike_id":"d2bd57c8-6b64-48db-ad24-5398eb3fd9d6","system_id":"levelo_inurba_marseille","lat":43.337444,"lon":5.374475,"is_reserved":false,"is_disabled":true,"rental_uris":{"android":"levelo://app?vid=d2bd57c8-6b64-48db-ad24-5398eb3fd9d6","ios":"levelo://app?vid=d2bd57c8-6b64-48db-ad24-5398eb3fd9d6"},"vehicle_type_id":"4","last_reported":1750234485,"current_range_meters":0,"station_id":"","pricing_plan_id":"cebpf4jnsgd1na2vs0mg"},{"bike_id":"5170252d-8bbb-4100-a2df-8f8b2e5e53eb","system_id":"levelo_inurba_marseille","lat":43.33762,"lon":5.37485,"is_reserved":false,"is_disabled":true,"rental_uris":{"android":"levelo://app?vid=5170252d-8bbb-4100-a2df-8f8b2e5e53eb","ios":"levelo://app?vid=5170252d-8bbb-4100-a2df-8f8b2e5e53eb"},"vehicle_type_id":"4","last_reported":1750234485,"current_range_meters":0,"station_id":"","pricing_plan_id":"cebpf4jnsgd1na2vs0mg"},{"bike_id":"62a493c7-4534-4419-ad43-0582de34a72a","system_id":"levelo_inurba_marseille","lat":43.21366,"lon":5.355183,"is_reserved":false,"is_disabled":true,"rental_uris":{"android":"levelo://app?vid=62a493c7-4534-4419-ad43-0582de34a72a","ios":"levelo://app?vid=62a493c7-4534-4419-ad43-0582de34a72a"},"vehicle_type_id":"4","last_reported":1750234485,"current_range_meters":0,"station_id":"","pricing_plan_id":"cebpf4jnsgd1na2vs0mg"},{"bike_id":"b9e37238-9abe-4b8b-b932-edaee33a7e59","system_id":"levelo_inurba_marseille","lat":43.27503,"lon":5.39013,"is_reserved":false,"is_disabled":true,"rental_uris":{"android":"levelo://app?vid=b9e37238-9abe-4b8b-b932-edaee33a7e59","ios":"levelo://app?vid=b9e37238-9abe-4b8b-b932-edaee33a7e59"},"vehicle_type_id":"4","last_reported":1750234485,"current_range_meters":0,"station_id":"","pricing_plan_id":"cebpf4jnsgd1na2vs0mg"},{"bike_id":"8ad9234e-001a-4549-8bba-9baf2ef98804","system_id":"levelo_inurba_marseille","lat":43.27416,"lon":5.39768,"is_reserved":false,"is_disabled":true,"rental_uris":{"android":"levelo://app?vid=8ad9234e-001a-4549-8bba-9baf2ef98804","ios":"levelo://app?vid=8ad9234e-001a-4549-8bba-9baf2ef98804"},"vehicle_type_id":"4","last_reported":1750234485,"current_range_meters":0,"station_id":"","pricing_plan_id":"cebpf4jnsgd1na2vs0mg"},{"bike_id":"93af304b-67b5-47b8-a3fd-e0775f7cde8c","system_id":"levelo_inurba_marseille","lat":43.21535,"lon":5.34738,"is_reserved":false,"is_disabled":true,"rental_uris":{"android":"levelo://app?vid=93af304b-67b5-47b8-a3fd-e0775f7cde8c","ios":"levelo://app?vid=93af304b-67b5-47b8-a3fd-e0775f7cde8c"},"vehicle_type_id":"4","last_reported":1750234485,"current_range_meters":0,"station_id":"","pricing_plan_id":"cebpf4jnsgd1na2vs0mg"},{"bike_id":"d6609b4f-333b-43c1-9ebe-8726f5e76e88","system_id":"levelo_inurba_marseille","lat":43.337444,"lon":5.374475,"is_reserved":false,"is_disabled":true,"rental_uris":{"android":"levelo://app?vid=d6609b4f-333b-43c1-9ebe-8726f5e76e88","ios":"levelo://app?vid=d6609b4f-333b-43c1-9ebe-8726f5e76e88"},"vehicle_type_id":"4","last_reported":1750234485,"current_range_meters":0,"station_id":"","pricing_plan_id":"cebpf4jnsgd1na2vs0mg"},{"bike_id":"57c83ce1-960e-466a-b6c5-d93bc130c53a","system_id":"levelo_inurba_marseille","lat":43.24917,"lon":5.3897,"is_reserved":false,"is_disabled":true,"rental_uris":{"android":"levelo://app?vid=57c83ce1-960e-466a-b6c5-d93bc130c53a","ios":"levelo://app?vid=57c83ce1-960e-466a-b6c5-d93bc130c53a"},"vehicle_type_id":"4","last_reported":1750234485,"current_range_meters":0,"station_id":"","pricing_plan_id":"cebpf4jnsgd1na2vs0mg"},{"bike_id":"db6045e3-cdd0-4b0e-8b29-2a66290d15b4","system_id":"levelo_inurba_marseille","lat":43.2925,"lon":5.40901,"is_reserved":false,"is_disabled":true,"rental_uris":{"android":"levelo://app?vid=db6045e3-cdd0-4b0e-8b29-2a66290d15b4","ios":"levelo://app?vid=db6045e3-cdd0-4b0e-8b29-2a66290d15b4"},"vehicle_type_id":"4","last_reported":1750234485,"current_range_meters":0,"station_id":"ce4bh192rcd13ifvqdc0","pricing_plan_id":"cebpf4jnsgd1na2vs0mg"},{"bike_id":"56337a1f-c717-46e2-80bc-34aa68c2a9b3","system_id":"levelo_inurba_marseille","lat":43.284082,"lon":5.349843,"is_reserved":false,"is_disabled":true,"rental_uris":{"android":"levelo://app?vid=56337a1f-c717-46e2-80bc-34aa68c2a9b3","ios":"levelo://app?vid=56337a1f-c717-46e2-80bc-34aa68c2a9b3"},"vehicle_type_id":"4","last_reported":1750234485,"current_range_meters":0,"station_id":"ce4bhbh2rcd13ifvqepg","pricing_plan_id":"cebpf4jnsgd1na2vs0mg"},{"bike_id":"6ab1ca16-c4ac-44a0-8157-7fb72ffd7777","system_id":"levelo_inurba_marseille","lat":43.2708,"lon":5.42294,"is_reserved":false,"is_disabled":true,"rental_uris":{"android":"levelo://app?vid=6ab1ca16-c4ac-44a0-8157-7fb72ffd7777","ios":"levelo://app?vid=6ab1ca16-c4ac-44a0-8157-7fb72ffd7777"},"vehicle_type_id":"4","last_reported":1750234485,"current_range_meters":0,"station_id":"ce4bhk92rcd13ifvqgb0","pricing_plan_id":"cebpf4jnsgd1na2vs0mg"},{"bike_id":"228fabe7-5671-4f97-9c31-9eb37ab08a14","system_id":"levelo_inurba_marseille","lat":43.231526,"lon":5.437115,"is_reserved":false,"is_disabled":true,"rental_uris":{"android":"levelo://app?vid=228fabe7-5671-4f97-9c31-9eb37ab08a14","ios":"levelo://app?vid=228fabe7-5671-4f97-9c31-9eb37ab08a14"},"vehicle_type_id":"4","last_reported":1750234485,"current_range_meters":0,"station_id":"ce4bhmp2rcd13ifvqgog","pricing_plan_id":"cebpf4jnsgd1na2vs0mg"},{"bike_id":"18227d6e-e290-40e3-9f19-6ab3f2388f3e","system_id":"levelo_inurba_marseille","lat":43.28002,"lon":5.40014,"is_reserved":false,"is_disabled":true,"rental_uris":{"android":"levelo://app?vid=18227d6e-e290-40e3-9f19-6ab3f2388f3e","ios":"levelo://app?vid=18227d6e-e290-40e3-9f19-6ab3f2388f3e"},"vehicle_type_id":"4","last_reported":1750234485,"current_range_meters":0,"station_id":"ce4bho92rcd13ifvqh4g","pricing_plan_id":"cebpf4jnsgd1na2vs0mg"},{"bike_id":"ba33e5dd-6ebe-4e7d-9712-f84e1ebb7f95","system_id":"levelo_inurba_marseille","lat":43.32056,"lon":5.36704,"is_reserved":false,"is_disabled":true,"rental_uris":{"android":"levelo://app?vid=ba33e5dd-6ebe-4e7d-9712-f84e1ebb7f95","ios":"levelo://app?vid=ba33e5dd-6ebe-4e7d-9712-f84e1ebb7f95"},"vehicle_type_id":"4","last_reported":1750234485,"current_range_meters":0,"station_id":"ce4bhrh2rcd13ifvqhug","pricing_plan_id":"cebpf4jnsgd1na2vs0mg"},{"bike_id":"68075f5b-bfd6-439b-b675-f207ccaadd95","system_id":"levelo_inurba_marseille","lat":43.30141,"lon":5.38779,"is_reserved":false,"is_disabled":true,"rental_uris":{"android":"levelo://app?vid=68075f5b-bfd6-439b-b675-f207ccaadd95","ios":"levelo://app?vid=68075f5b-bfd6-439b-b675-f207ccaadd95"},"vehicle_type_id":"4","last_reported":1750234485,"current_range_meters":400,"station_id":"ce4bghh2rcd13ifvqb60","pricing_plan_id":"cebpf4jnsgd1na2vs0mg"},{"bike_id":"cd0a9710-d470-4597-8c1d-17e149f7a713","system_id":"levelo_inurba_marseille","lat":43.30149,"lon":5.37427,"is_reserved":false,"is_disabled":true,"rental_uris":{"android":"levelo://app?vid=cd0a9710-d470-4597-8c1d-17e149f7a713","ios":"levelo://app?vid=cd0a9710-d470-4597-8c1d-17e149f7a713"},"vehicle_type_id":"4","last_reported":1750234485,"current_range_meters":400,"station_id":"ce4bgs92rcd13ifvqcc0","pricing_plan_id":"cebpf4jnsgd1na2vs0mg"},{"bike_id":"156e9508-d2d3-47ff-b6f7-edc7ed455dda","system_id":"levelo_inurba_marseille","lat":43.25114,"lon":5.40323,"is_reserved":false,"is_disabled":true,"rental_uris":{"android":"levelo://app?vid=156e9508-d2d3-47ff-b6f7-edc7ed455dda","ios":"levelo://app?vid=156e9508-d2d3-47ff-b6f7-edc7ed455dda"},"vehicle_type_id":"4","last_reported":1750234485,"current_range_meters":400,"station_id":"ce4bhlh2rcd13ifvqgig","pricing_plan_id":"cebpf4jnsgd1na2vs0mg"},{"bike_id":"d4f28517-563b-48c1-9b0f-51f454f99191","system_id":"levelo_inurba_marseille","lat":43.30963,"lon":5.39036,"is_reserved":false,"is_disabled":true,"rental_uris":{"android":"levelo://app?vid=d4f28517-563b-48c1-9b0f-51f454f99191","ios":"levelo://app?vid=d4f28517-563b-48c1-9b0f-51f454f99191"},"vehicle_type_id":"4","last_reported":1750234485,"current_range_meters":800,"station_id":"ce4bgup2rcd13ifvqco0","pricing_plan_id":"cebpf4jnsgd1na2vs0mg"},{"bike_id":"118d38ab-329e-4a00-9acf-616554a41323","system_id":"levelo_inurba_marseille","lat":43.2993,"lon":5.3653,"is_reserved":false,"is_disabled":true,"rental_uris":{"android":"levelo://app?vid=118d38ab-329e-4a00-9acf-616554a41323","ios":"levelo://app?vid=118d38ab-329e-4a00-9acf-616554a41323"},"vehicle_type_id":"4","last_reported":1750234485,"current_range_meters":1200,"station_id":"ce4bgm92rcd13ifvqbr0","pricing_plan_id":"cebpf4jnsgd1na2vs0mg"},{"bike_id":"8a42f196-b948-415e-bee4-e747f052c722","system_id":"levelo_inurba_marseille","lat":43.26197,"lon":5.37456,"is_reserved":false,"is_disabled":true,"rental_uris":{"android":"levelo://app?vid=8a42f196-b948-415e-bee4-e747f052c722","ios":"levelo://app?vid=8a42f196-b948-415e-bee4-e747f052c722"},"vehicle_type_id":"4","last_reported":1750234485,"current_range_meters":1200,"station_id":"ce4bhgp2rcd13ifvqfc0","pricing_plan_id":"cebpf4jnsgd1na2vs0mg"},{"bike_id":"30d24ad2-8583-436d-be09-37806aa87e6a","system_id":"levelo_inurba_marseille","lat":43.26012,"lon":5.3753,"is_reserved":false,"is_disabled":true,"rental_uris":{"android":"levelo://app?vid=30d24ad2-8583-436d-be09-37806aa87e6a","ios":"levelo://app?vid=30d24ad2-8583-436d-be09-37806aa87e6a"},"vehicle_type_id":"4","last_reported":1750234485,"current_range_meters":2000,"station_id":"","pricing_plan_id":"cebpf4jnsgd1na2vs0mg"},{"bike_id":"6c61c240-75fa-4a9f-b754-f97932181eb0","system_id":"levelo_inurba_marseille","lat":43.29523,"lon":5.37512,"is_reserved":false,"is_disabled":true,"rental_uris":{"android":"levelo://app?vid=6c61c240-75fa-4a9f-b754-f97932181eb0","ios":"levelo://app?vid=6c61c240-75fa-4a9f-b754-f97932181eb0"},"vehicle_type_id":"4","last_reported":1750234485,"current_range_meters":2000,"station_id":"ce4bgkp2rcd13ifvqbmg","pricing_plan_id":"cebpf4jnsgd1na2vs0mg"},{"bike_id":"8fb703ab-6a4d-426a-8ab7-0475ff1a3bd6","system_id":"levelo_inurba_marseille","lat":43.27498,"lon":5.42458,"is_reserved":false,"is_disabled":false,"rental_uris":{"android":"levelo://app?vid=8fb703ab-6a4d-426a-8ab7-0475ff1a3bd6","ios":"levelo://app?vid=8fb703ab-6a4d-426a-8ab7-0475ff1a3bd6"},"vehicle_type_id":"4","last_reported":1750234485,"current_range_meters":2800,"station_id":"ce4bhn92rcd13ifvqgrg","pricing_plan_id":"cebpf4jnsgd1na2vs0mg"},{"bike_id":"2395248d-0fef-4e4f-ba8e-f8283c94ae53","system_id":"levelo_inurba_marseille","lat":43.312476,"lon":5.394993,"is_reserved":false,"is_disabled":false,"rental_uris":{"android":"levelo://app?vid=2395248d-0fef-4e4f-ba8e-f8283c94ae53","ios":"levelo://app?vid=2395248d-0fef-4e4f-ba8e-f8283c94ae53"},"vehicle_type_id":"4","last_reported":1750234485,"current_range_meters":3200,"station_id":"","pricing_plan_id":"cebpf4jnsgd1na2vs0mg"},{"bike_id":"c63a9814-e6f5-4f32-83d8-419def890de5","system_id":"levelo_inurba_marseille","lat":43.314,"lon":5.36658,"is_reserved":false,"is_disabled":false,"rental_uris":{"android":"levelo://app?vid=c63a9814-e6f5-4f32-83d8-419def890de5","ios":"levelo://app?vid=c63a9814-e6f5-4f32-83d8-419def890de5"},"vehicle_type_id":"4","last_reported":1750234485,"current_range_meters":3200,"station_id":"","pricing_plan_id":"cebpf4jnsgd1na2vs0mg"},{"bike_id":"0eb847d7-4aae-442a-857e-27d2ae6bcede","system_id":"levelo_inurba_marseille","lat":43.30137,"lon":5.37415,"is_reserved":false,"is_disabled":false,"rental_uris":{"android":"levelo://app?vid=0eb847d7-4aae-442a-857e-27d2ae6bcede","ios":"levelo://app?vid=0eb847d7-4aae-442a-857e-27d2ae6bcede"},"vehicle_type_id":"4","last_reported":1750234485,"current_range_meters":3200,"station_id":"ce4bgs92rcd13ifvqcc0","pricing_plan_id":"cebpf4jnsgd1na2vs0mg"},{"bike_id":"47196f00-388f-4b3b-a4de-3dba126cd107","system_id":"levelo_inurba_marseille","lat":43.24376,"lon":5.41153,"is_reserved":false,"is_disabled":false,"rental_uris":{"android":"levelo://app?vid=47196f00-388f-4b3b-a4de-3dba126cd107","ios":"levelo://app?vid=47196f00-388f-4b3b-a4de-3dba126cd107"},"vehicle_type_id":"4","last_reported":1750234485,"current_range_meters":3600,"station_id":"","pricing_plan_id":"cebpf4jnsgd1na2vs0mg"},{"bike_id":"78a87e21-64a7-4dc8-ac46-1c160fd9205f","system_id":"levelo_inurba_marseille","lat":43.2842,"lon":5.34978,"is_reserved":false,"is_disabled":false,"rental_uris":{"android":"levelo://app?vid=78a87e21-64a7-4dc8-ac46-1c160fd9205f","ios":"levelo://app?vid=78a87e21-64a7-4dc8-ac46-1c160fd9205f"},"vehicle_type_id":"4","last_reported":1750234485,"current_range_meters":3600,"station_id":"ce4bhbh2rcd13ifvqepg","pricing_plan_id":"cebpf4jnsgd1na2vs0mg"},{"bike_id":"56874ddf-7918-4edd-92e0-51761cf4170e","system_id":"levelo_inurba_marseille","lat":43.23058,"lon":5.35492,"is_reserved":false,"is_disabled":false,"rental_uris":{"android":"levelo://app?vid=56874ddf-7918-4edd-92e0-51761cf4170e","ios":"levelo://app?vid=56874ddf-7918-4edd-92e0-51761cf4170e"},"vehicle_type_id":"4","last_reported":1750234485,"current_range_meters":3600,"station_id":"cpo3342slgdg3j2ifvpg","pricing_plan_id":"cebpf4jnsgd1na2vs0mg"},{"bike_id":"7a5c5fcc-95ae-4f03-9774-df2adf3ed456","system_id":"levelo_inurba_marseille","lat":43.29222,"lon":5.36071,"is_reserved":false,"is_disabled":false,"rental_uris":{"android":"levelo://app?vid=7a5c5fcc-95ae-4f03-9774-df2adf3ed456","ios":"levelo://app?vid=7a5c5fcc-95ae-4f03-9774-df2adf3ed456"},"vehicle_type_id":"4","last_reported":1750234485,"current_range_meters":4000,"station_id":"ce4bhbh2rcd13ifvqeqg","pricing_plan_id":"cebpf4jnsgd1na2vs0mg"},{"bike_id":"7d5a1ef5-c109-4977-b182-4addb0e38b1d","system_id":"levelo_inurba_marseille","lat":43.30648,"lon":5.37276,"is_reserved":false,"is_disabled":false,"rental_uris":{"android":"levelo://app?vid=7d5a1ef5-c109-4977-b182-4addb0e38b1d","ios":"levelo://app?vid=7d5a1ef5-c109-4977-b182-4addb0e38b1d"},"vehicle_type_id":"4","last_reported":1750234485,"current_range_meters":4400,"station_id":"","pricing_plan_id":"cebpf4jnsgd1na2vs0mg"},{"bike_id":"ad139bc1-e4f7-4395-bb1e-d9932b0a72b5","system_id":"levelo_inurba_marseille","lat":43.29366,"lon":5.37862,"is_reserved":false,"is_disabled":false,"rental_uris":{"android":"levelo://app?vid=ad139bc1-e4f7-4395-bb1e-d9932b0a72b5","ios":"levelo://app?vid=ad139bc1-e4f7-4395-bb1e-d9932b0a72b5"},"vehicle_type_id":"4","last_reported":1750234485,"current_range_meters":4400,"station_id":"ce4bgjh2rcd13ifvqbf0","pricing_plan_id":"cebpf4jnsgd1na2vs0mg"},{"bike_id":"81b271b6-86bf-463a-afca-b584ddf77611","system_id":"levelo_inurba_marseille","lat":43.292755,"lon":5.368411,"is_reserved":false,"is_disabled":false,"rental_uris":{"android":"levelo://app?vid=81b271b6-86bf-463a-afca-b584ddf77611","ios":"levelo://app?vid=81b271b6-86bf-463a-afca-b584ddf77611"},"vehicle_type_id":"4","last_reported":1750234485,"current_range_meters":4400,"station_id":"ce4bhbp2rcd13ifvqesg","pricing_plan_id":"cebpf4jnsgd1na2vs0mg"},{"bike_id":"2a7c0536-555b-4e53-a4d7-8ea512690472","system_id":"levelo_inurba_marseille","lat":43.26563,"lon":5.39007,"is_reserved":false,"is_disabled":false,"rental_uris":{"android":"levelo://app?vid=2a7c0536-555b-4e53-a4d7-8ea512690472","ios":"levelo://app?vid=2a7c0536-555b-4e53-a4d7-8ea512690472"},"vehicle_type_id":"4","last_reported":1750234485,"current_range_meters":4400,"station_id":"ce4bhe12rcd13ifvqf30","pricing_plan_id":"cebpf4jnsgd1na2vs0mg"},{"bike_id":"76a4ffb4-dd9b-42c1-bb4d-e288ee651a30","system_id":"levelo_inurba_marseille","lat":43.24804,"lon":5.37457,"is_reserved":false,"is_disabled":false,"rental_uris":{"android":"levelo://app?vid=76a4ffb4-dd9b-42c1-bb4d-e288ee651a30","ios":"levelo://app?vid=76a4ffb4-dd9b-42c1-bb4d-e288ee651a30"},"vehicle_type_id":"4","last_reported":1750234485,"current_range_meters":4400,"station_id":"ce4bhgh2rcd13ifvqfb0","pricing_plan_id":"cebpf4jnsgd1na2vs0mg"},{"bike_id":"1d4ac80f-49a3-4c10-8080-d90ccde766d6","system_id":"levelo_inurba_marseille","lat":43.28601,"lon":5.37075,"is_reserved":false,"is_disabled":false,"rental_uris":{"android":"levelo://app?vid=1d4ac80f-49a3-4c10-8080-d90ccde766d6","ios":"levelo://app?vid=1d4ac80f-49a3-4c10-8080-d90ccde766d6"},"vehicle_type_id":"4","last_reported":1750234485,"current_range_meters":4400,"station_id":"ce4bht12rcd13ifvqi60","pricing_plan_id":"cebpf4jnsgd1na2vs0mg"},{"bike_id":"d1c0f8b0-4ead-4103-9d8a-1320ed5f9733","system_id":"levelo_inurba_marseille","lat":43.29245,"lon":5.37619,"is_reserved":false,"is_disabled":false,"rental_uris":{"android":"levelo://app?vid=d1c0f8b0-4ead-4103-9d8a-1320ed5f9733","ios":"levelo://app?vid=d1c0f8b0-4ead-4103-9d8a-1320ed5f9733"},"vehicle_type_id":"4","last_reported":1750234485,"current_range_meters":4800,"station_id":"ce4bgi12rcd13ifvqb80","pricing_plan_id":"cebpf4jnsgd1na2vs0mg"},{"bike_id":"b282cc75-21ce-47e4-86f7-556476c4499d","system_id":"levelo_inurba_marseille","lat":43.30424,"lon":5.397537,"is_reserved":false,"is_disabled":false,"rental_uris":{"android":"levelo://app?vid=b282cc75-21ce-47e4-86f7-556476c4499d","ios":"levelo://app?vid=b282cc75-21ce-47e4-86f7-556476c4499d"},"vehicle_type_id":"4","last_reported":1750234485,"current_range_meters":4800,"station_id":"ce4bh092rcd13ifvqd20","pricing_plan_id":"cebpf4jnsgd1na2vs0mg"},{"bike_id":"6077fb26-cc55-4cc9-84b6-5490e0d9eb92","system_id":"levelo_inurba_marseille","lat":43.23193,"lon":5.40001,"is_reserved":false,"is_disabled":false,"rental_uris":{"android":"levelo://app?vid=6077fb26-cc55-4cc9-84b6-5490e0d9eb92","ios":"levelo://app?vid=6077fb26-cc55-4cc9-84b6-5490e0d9eb92"},"vehicle_type_id":"4","last_reported":1750234485,"current_range_meters":4800,"station_id":"ce4bhn12rcd13ifvqgqg","pricing_plan_id":"cebpf4jnsgd1na2vs0mg"},{"bike_id":"1c8dd34b-9d03-492f-aa85-8944da27fde3","system_id":"levelo_inurba_marseille","lat":43.28613,"lon":5.37058,"is_reserved":false,"is_disabled":false,"rental_uris":{"android":"levelo://app?vid=1c8dd34b-9d03-492f-aa85-8944da27fde3","ios":"levelo://app?vid=1c8dd34b-9d03-492f-aa85-8944da27fde3"},"vehicle_type_id":"4","last_reported":1750234485,"current_range_meters":4800,"station_id":"ce4bht12rcd13ifvqi60","pricing_plan_id":"cebpf4jnsgd1na2vs0mg"},{"bike_id":"2558e9f4-c29a-4675-bea7-401adb97d527","system_id":"levelo_inurba_marseille","lat":43.33066,"lon":5.40839,"is_reserved":false,"is_disabled":false,"rental_uris":{"android":"levelo://app?vid=2558e9f4-c29a-4675-bea7-401adb97d527","ios":"levelo://app?vid=2558e9f4-c29a-4675-bea7-401adb97d527"},"vehicle_type_id":"4","last_reported":1750234485,"current_range_meters":5600,"station_id":"","pricing_plan_id":"cebpf4jnsgd1na2vs0mg"},{"bike_id":"ad667941-18cf-4a61-adf1-191fd27c5848","system_id":"levelo_inurba_marseille","lat":43.29253,"lon":5.40918,"is_reserved":false,"is_disabled":false,"rental_uris":{"android":"levelo://app?vid=ad667941-18cf-4a61-adf1-191fd27c5848","ios":"levelo://app?vid=ad667941-18cf-4a61-adf1-191fd27c5848"},"vehicle_type_id":"4","last_reported":1750234485,"current_range_meters":5600,"station_id":"ce4bh192rcd13ifvqdc0","pricing_plan_id":"cebpf4jnsgd1na2vs0mg"},{"bike_id":"ef06d6b9-50b4-4e11-977b-c3a2ddeefcc2","system_id":"levelo_inurba_marseille","lat":43.2623,"lon":5.40454,"is_reserved":false,"is_disabled":false,"rental_uris":{"android":"levelo://app?vid=ef06d6b9-50b4-4e11-977b-c3a2ddeefcc2","ios":"levelo://app?vid=ef06d6b9-50b4-4e11-977b-c3a2ddeefcc2"},"vehicle_type_id":"4","last_reported":1750234485,"current_range_meters":5600,"station_id":"ce4bhmh2rcd13ifvqgmg","pricing_plan_id":"cebpf4jnsgd1na2vs0mg"},{"bike_id":"7b50fe96-be8d-484d-8057-d07e13b4127b","system_id":"levelo_inurba_marseille","lat":43.28156,"lon":5.42644,"is_reserved":false,"is_disabled":false,"rental_uris":{"android":"levelo://app?vid=7b50fe96-be8d-484d-8057-d07e13b4127b","ios":"levelo://app?vid=7b50fe96-be8d-484d-8057-d07e13b4127b"},"vehicle_type_id":"4","last_reported":1750234485,"current_range_meters":5600,"station_id":"ce4bhnh2rcd13ifvqgug","pricing_plan_id":"cebpf4jnsgd1na2vs0mg"},{"bike_id":"e7073502-cd92-4f9e-9ea7-0135ca01fc3b","system_id":"levelo_inurba_marseille","lat":43.2992,"lon":5.37478,"is_reserved":false,"is_disabled":false,"rental_uris":{"android":"levelo://app?vid=e7073502-cd92-4f9e-9ea7-0135ca01fc3b","ios":"levelo://app?vid=e7073502-cd92-4f9e-9ea7-0135ca01fc3b"},"vehicle_type_id":"4","last_reported":1750234485,"current_range_meters":6000,"station_id":"ce4bgjh2rcd13ifvqbg0","pricing_plan_id":"cebpf4jnsgd1na2vs0mg"},{"bike_id":"3b739518-fe16-477b-9202-c6684639a600","system_id":"levelo_inurba_marseille","lat":43.31241,"lon":5.3686,"is_reserved":false,"is_disabled":false,"rental_uris":{"android":"levelo://app?vid=3b739518-fe16-477b-9202-c6684639a600","ios":"levelo://app?vid=3b739518-fe16-477b-9202-c6684639a600"},"vehicle_type_id":"4","last_reported":1750234485,"current_range_meters":6000,"station_id":"ce4bgl92rcd13ifvqbq0","pricing_plan_id":"cebpf4jnsgd1na2vs0mg"},{"bike_id":"575b97b8-b607-4bff-85dc-a0921eb0ff13","system_id":"levelo_inurba_marseille","lat":43.27994,"lon":5.40021,"is_reserved":false,"is_disabled":false,"rental_uris":{"android":"levelo://app?vid=575b97b8-b607-4bff-85dc-a0921eb0ff13","ios":"levelo://app?vid=575b97b8-b607-4bff-85dc-a0921eb0ff13"},"vehicle_type_id":"4","last_reported":1750234485,"current_range_meters":6000,"station_id":"ce4bho92rcd13ifvqh4g","pricing_plan_id":"cebpf4jnsgd1na2vs0mg"},{"bike_id":"d0f0a189-5111-4e44-9da9-645c982f81aa","system_id":"levelo_inurba_marseille","lat":43.3138,"lon":5.36749,"is_reserved":false,"is_disabled":false,"rental_uris":{"android":"levelo://app?vid=d0f0a189-5111-4e44-9da9-645c982f81aa","ios":"levelo://app?vid=d0f0a189-5111-4e44-9da9-645c982f81aa"},"vehicle_type_id":"4","last_reported":1750234485,"current_range_meters":6400,"station_id":"","pricing_plan_id":"cebpf4jnsgd1na2vs0mg"},{"bike_id":"1d8bd4a1-9e73-49fa-b006-ef26665936f6","system_id":"levelo_inurba_marseille","lat":43.30466,"lon":5.37909,"is_reserved":false,"is_disabled":false,"rental_uris":{"android":"levelo://app?vid=1d8bd4a1-9e73-49fa-b006-ef26665936f6","ios":"levelo://app?vid=1d8bd4a1-9e73-49fa-b006-ef26665936f6"},"vehicle_type_id":"4","last_reported":1750234485,"current_range_meters":6400,"station_id":"ce4bgup2rcd13ifvqcn0","pricing_plan_id":"cebpf4jnsgd1na2vs0mg"},{"bike_id":"bcbac273-78f8-47d4-a17a-558d8b4a75f9","system_id":"levelo_inurba_marseille","lat":43.31075,"lon":5.3836,"is_reserved":false,"is_disabled":false,"rental_uris":{"android":"levelo://app?vid=bcbac273-78f8-47d4-a17a-558d8b4a75f9","ios":"levelo://app?vid=bcbac273-78f8-47d4-a17a-558d8b4a75f9"},"vehicle_type_id":"4","last_reported":1750234485,"current_range_meters":6400,"station_id":"ce4bgv92rcd13ifvqcr0","pricing_plan_id":"cebpf4jnsgd1na2vs0mg"},{"bike_id":"21cb71d7-a938-418c-8a36-7ca5ab577625","system_id":"levelo_inurba_marseille","lat":43.28929,"lon":5.36655,"is_reserved":false,"is_disabled":false,"rental_uris":{"android":"levelo://app?vid=21cb71d7-a938-418c-8a36-7ca5ab577625","ios":"levelo://app?vid=21cb71d7-a938-418c-8a36-7ca5ab577625"},"vehicle_type_id":"4","last_reported":1750234485,"current_range_meters":6400,"station_id":"ce4bhap2rcd13ifvqek0","pricing_plan_id":"cebpf4jnsgd1na2vs0mg"},{"bike_id":"a7939fe5-3da2-4b6f-a2d9-6a57eb32137d","system_id":"levelo_inurba_marseille","lat":43.23147,"lon":5.43717,"is_reserved":false,"is_disabled":false,"rental_uris":{"android":"levelo://app?vid=a7939fe5-3da2-4b6f-a2d9-6a57eb32137d","ios":"levelo://app?vid=a7939fe5-3da2-4b6f-a2d9-6a57eb32137d"},"vehicle_type_id":"4","last_reported":1750234485,"current_range_meters":6400,"station_id":"ce4bhmp2rcd13ifvqgog","pricing_plan_id":"cebpf4jnsgd1na2vs0mg"},{"bike_id":"ae4a7bb6-19ec-4528-ba2f-4c58721d2ee8","system_id":"levelo_inurba_marseille","lat":43.23338,"lon":5.43604,"is_reserved":false,"is_disabled":false,"rental_uris":{"android":"levelo://app?vid=ae4a7bb6-19ec-4528-ba2f-4c58721d2ee8","ios":"levelo://app?vid=ae4a7bb6-19ec-4528-ba2f-4c58721d2ee8"},"vehicle_type_id":"4","last_reported":1750234485,"current_range_meters":6800,"station_id":"","pricing_plan_id":"cebpf4jnsgd1na2vs0mg"},{"bike_id":"6ba80795-26da-43fa-ab60-6831760385ff","system_id":"levelo_inurba_marseille","lat":43.32578,"lon":5.41958,"is_reserved":false,"is_disabled":false,"rental_uris":{"android":"levelo://app?vid=6ba80795-26da-43fa-ab60-6831760385ff","ios":"levelo://app?vid=6ba80795-26da-43fa-ab60-6831760385ff"},"vehicle_type_id":"4","last_reported":1750234485,"current_range_meters":6800,"station_id":"","pricing_plan_id":"cebpf4jnsgd1na2vs0mg"},{"bike_id":"f63a71f0-6134-4645-ad80-c81f1e773990","system_id":"levelo_inurba_marseille","lat":43.31576,"lon":5.37947,"is_reserved":false,"is_disabled":false,"rental_uris":{"android":"levelo://app?vid=f63a71f0-6134-4645-ad80-c81f1e773990","ios":"levelo://app?vid=f63a71f0-6134-4645-ad80-c81f1e773990"},"vehicle_type_id":"4","last_reported":1750234485,"current_range_meters":6800,"station_id":"","pricing_plan_id":"cebpf4jnsgd1na2vs0mg"},{"bike_id":"2781462b-59bf-4004-afd3-e8a84a121ac8","system_id":"levelo_inurba_marseille","lat":43.2957,"lon":5.37504,"is_reserved":false,"is_disabled":false,"rental_uris":{"android":"levelo://app?vid=2781462b-59bf-4004-afd3-e8a84a121ac8","ios":"levelo://app?vid=2781462b-59bf-4004-afd3-e8a84a121ac8"},"vehicle_type_id":"4","last_reported":1750234485,"current_range_meters":6800,"station_id":"ce4bgh92rcd13ifvqb50","pricing_plan_id":"cebpf4jnsgd1na2vs0mg"},{"bike_id":"a3c71096-a081-440f-9051-2c1952aac647","system_id":"levelo_inurba_marseille","lat":43.3122,"lon":5.36856,"is_reserved":false,"is_disabled":false,"rental_uris":{"android":"levelo://app?vid=a3c71096-a081-440f-9051-2c1952aac647","ios":"levelo://app?vid=a3c71096-a081-440f-9051-2c1952aac647"},"vehicle_type_id":"4","last_reported":1750234485,"current_range_meters":6800,"station_id":"ce4bgl92rcd13ifvqbq0","pricing_plan_id":"cebpf4jnsgd1na2vs0mg"},{"bike_id":"60ca4c43-5838-45c6-b374-0be38bd5e145","system_id":"levelo_inurba_marseille","lat":43.30313,"lon":5.36918,"is_reserved":false,"is_disabled":false,"rental_uris":{"android":"levelo://app?vid=60ca4c43-5838-45c6-b374-0be38bd5e145","ios":"levelo://app?vid=60ca4c43-5838-45c6-b374-0be38bd5e145"},"vehicle_type_id":"4","last_reported":1750234485,"current_range_meters":6800,"station_id":"ce4bgqh2rcd13ifvqc5g","pricing_plan_id":"cebpf4jnsgd1na2vs0mg"},{"bike_id":"ec893ad1-cd34-42b3-a918-50518c985a41","system_id":"levelo_inurba_marseille","lat":43.31337,"lon":5.36686,"is_reserved":false,"is_disabled":false,"rental_uris":{"android":"levelo://app?vid=ec893ad1-cd34-42b3-a918-50518c985a41","ios":"levelo://app?vid=ec893ad1-cd34-42b3-a918-50518c985a41"},"vehicle_type_id":"4","last_reported":1750234485,"current_range_meters":6800,"station_id":"ce4bgr92rcd13ifvqc6g","pricing_plan_id":"cebpf4jnsgd1na2vs0mg"},{"bike_id":"d4f1fe01-02bb-4ec2-b428-f546077cc788","system_id":"levelo_inurba_marseille","lat":43.3112,"lon":5.37765,"is_reserved":false,"is_disabled":false,"rental_uris":{"android":"levelo://app?vid=d4f1fe01-02bb-4ec2-b428-f546077cc788","ios":"levelo://app?vid=d4f1fe01-02bb-4ec2-b428-f546077cc788"},"vehicle_type_id":"4","last_reported":1750234485,"current_range_meters":6800,"station_id":"ce4bgt92rcd13ifvqcg0","pricing_plan_id":"cebpf4jnsgd1na2vs0mg"},{"bike_id":"9844affe-bca0-437f-878e-189619e22993","system_id":"levelo_inurba_marseille","lat":43.273732,"lon":5.362593,"is_reserved":false,"is_disabled":false,"rental_uris":{"android":"levelo://app?vid=9844affe-bca0-437f-878e-189619e22993","ios":"levelo://app?vid=9844affe-bca0-437f-878e-189619e22993"},"vehicle_type_id":"4","last_reported":1750234485,"current_range_meters":6800,"station_id":"ce4bhbh2rcd13ifvqeo0","pricing_plan_id":"cebpf4jnsgd1na2vs0mg"},{"bike_id":"857c245f-8ab5-4179-9a16-97db6aa6bebe","system_id":"levelo_inurba_marseille","lat":43.23141,"lon":5.43707,"is_reserved":false,"is_disabled":false,"rental_uris":{"android":"levelo://app?vid=857c245f-8ab5-4179-9a16-97db6aa6bebe","ios":"levelo://app?vid=857c245f-8ab5-4179-9a16-97db6aa6bebe"},"vehicle_type_id":"4","last_reported":1750234485,"current_range_meters":6800,"station_id":"ce4bhmp2rcd13ifvqgog","pricing_plan_id":"cebpf4jnsgd1na2vs0mg"},{"bike_id":"e03a6d42-f362-4878-ab56-4b5afba95b0c","system_id":"levelo_inurba_marseille","lat":43.314778,"lon":5.369158,"is_reserved":false,"is_disabled":false,"rental_uris":{"android":"levelo://app?vid=e03a6d42-f362-4878-ab56-4b5afba95b0c","ios":"levelo://app?vid=e03a6d42-f362-4878-ab56-4b5afba95b0c"},"vehicle_type_id":"4","last_reported":1750234485,"current_range_meters":7200,"station_id":"","pricing_plan_id":"cebpf4jnsgd1na2vs0mg"},{"bike_id":"ddee3ac8-2cab-49b6-a418-1fde9da47475","system_id":"levelo_inurba_marseille","lat":43.23149,"lon":5.43721,"is_reserved":false,"is_disabled":false,"rental_uris":{"android":"levelo://app?vid=ddee3ac8-2cab-49b6-a418-1fde9da47475","ios":"levelo://app?vid=ddee3ac8-2cab-49b6-a418-1fde9da47475"},"vehicle_type_id":"4","last_reported":1750234485,"current_range_meters":7200,"station_id":"ce4bhmp2rcd13ifvqgog","pricing_plan_id":"cebpf4jnsgd1na2vs0mg"},{"bike_id":"2c7a5a47-742b-4585-8bbd-a4b604bb9bbf","system_id":"levelo_inurba_marseille","lat":43.29262,"lon":5.3762,"is_reserved":false,"is_disabled":false,"rental_uris":{"android":"levelo://app?vid=2c7a5a47-742b-4585-8bbd-a4b604bb9bbf","ios":"levelo://app?vid=2c7a5a47-742b-4585-8bbd-a4b604bb9bbf"},"vehicle_type_id":"4","last_reported":1750234485,"current_range_meters":8000,"station_id":"ce4bgi12rcd13ifvqb80","pricing_plan_id":"cebpf4jnsgd1na2vs0mg"},{"bike_id":"599edd48-0a29-4db2-9ab4-b98d5514d266","system_id":"levelo_inurba_marseille","lat":43.31356,"lon":5.3673,"is_reserved":false,"is_disabled":false,"rental_uris":{"android":"levelo://app?vid=599edd48-0a29-4db2-9ab4-b98d5514d266","ios":"levelo://app?vid=599edd48-0a29-4db2-9ab4-b98d5514d266"},"vehicle_type_id":"4","last_reported":1750234485,"current_range_meters":8000,"station_id":"ce4bgr92rcd13ifvqc6g","pricing_plan_id":"cebpf4jnsgd1na2vs0mg"},{"bike_id":"c3d2678c-6abf-43da-9e69-995f05c278ce","system_id":"levelo_inurba_marseille","lat":43.29168,"lon":5.37153,"is_reserved":false,"is_disabled":false,"rental_uris":{"android":"levelo://app?vid=c3d2678c-6abf-43da-9e69-995f05c278ce","ios":"levelo://app?vid=c3d2678c-6abf-43da-9e69-995f05c278ce"},"vehicle_type_id":"4","last_reported":1750234485,"current_range_meters":8000,"station_id":"ce4bha92rcd13ifvqeh0","pricing_plan_id":"cebpf4jnsgd1na2vs0mg"},{"bike_id":"2171bea9-dc96-4ae5-bd8e-5f803db2ef81","system_id":"levelo_inurba_marseille","lat":43.27934,"lon":5.38733,"is_reserved":false,"is_disabled":false,"rental_uris":{"android":"levelo://app?vid=2171bea9-dc96-4ae5-bd8e-5f803db2ef81","ios":"levelo://app?vid=2171bea9-dc96-4ae5-bd8e-5f803db2ef81"},"vehicle_type_id":"4","last_reported":1750234485,"current_range_meters":8000,"station_id":"ce4bhg12rcd13ifvqf80","pricing_plan_id":"cebpf4jnsgd1na2vs0mg"},{"bike_id":"582929f4-74ce-4c56-8f26-f3dea033a12e","system_id":"levelo_inurba_marseille","lat":43.259357,"lon":5.40905,"is_reserved":false,"is_disabled":false,"rental_uris":{"android":"levelo://app?vid=582929f4-74ce-4c56-8f26-f3dea033a12e","ios":"levelo://app?vid=582929f4-74ce-4c56-8f26-f3dea033a12e"},"vehicle_type_id":"4","last_reported":1750234485,"current_range_meters":8000,"station_id":"ce4bhm92rcd13ifvqglg","pricing_plan_id":"cebpf4jnsgd1na2vs0mg"},{"bike_id":"3b136301-d892-4bf1-aa15-695ec30464ca","system_id":"levelo_inurba_marseille","lat":43.3208,"lon":5.3677,"is_reserved":false,"is_disabled":false,"rental_uris":{"android":"levelo://app?vid=3b136301-d892-4bf1-aa15-695ec30464ca","ios":"levelo://app?vid=3b136301-d892-4bf1-aa15-695ec30464ca"},"vehicle_type_id":"4","last_reported":1750234485,"current_range_meters":8000,"station_id":"ce4bhrh2rcd13ifvqhug","pricing_plan_id":"cebpf4jnsgd1na2vs0mg"},{"bike_id":"ae8524c6-7b10-43ef-8ed4-b8035f1213c1","system_id":"levelo_inurba_marseille","lat":43.33415,"lon":5.40048,"is_reserved":false,"is_disabled":false,"rental_uris":{"android":"levelo://app?vid=ae8524c6-7b10-43ef-8ed4-b8035f1213c1","ios":"levelo://app?vid=ae8524c6-7b10-43ef-8ed4-b8035f1213c1"},"vehicle_type_id":"4","last_reported":1750234485,"current_range_meters":8400,"station_id":"","pricing_plan_id":"cebpf4jnsgd1na2vs0mg"},{"bike_id":"13603010-4ba6-45d8-8742-faf7a41367fa","system_id":"levelo_inurba_marseille","lat":43.29192,"lon":5.38303,"is_reserved":false,"is_disabled":false,"rental_uris":{"android":"levelo://app?vid=13603010-4ba6-45d8-8742-faf7a41367fa","ios":"levelo://app?vid=13603010-4ba6-45d8-8742-faf7a41367fa"},"vehicle_type_id":"4","last_reported":1750234485,"current_range_meters":8400,"station_id":"","pricing_plan_id":"cebpf4jnsgd1na2vs0mg"},{"bike_id":"ad347c14-931f-4261-ab3b-a1807595d5e4","system_id":"levelo_inurba_marseille","lat":43.31716,"lon":5.40454,"is_reserved":false,"is_disabled":false,"rental_uris":{"android":"levelo://app?vid=ad347c14-931f-4261-ab3b-a1807595d5e4","ios":"levelo://app?vid=ad347c14-931f-4261-ab3b-a1807595d5e4"},"vehicle_type_id":"4","last_reported":1750234485,"current_range_meters":8400,"station_id":"ce4bh012rcd13ifvqd00","pricing_plan_id":"cebpf4jnsgd1na2vs0mg"},{"bike_id":"47322413-bbe4-41e5-bcff-4545c981af01","system_id":"levelo_inurba_marseille","lat":43.2952,"lon":5.39041,"is_reserved":false,"is_disabled":false,"rental_uris":{"android":"levelo://app?vid=47322413-bbe4-41e5-bcff-4545c981af01","ios":"levelo://app?vid=47322413-bbe4-41e5-bcff-4545c981af01"},"vehicle_type_id":"4","last_reported":1750234485,"current_range_meters":8400,"station_id":"ce4bh3p2rcd13ifvqdp0","pricing_plan_id":"cebpf4jnsgd1na2vs0mg"},{"bike_id":"879f2f41-1a05-436b-8b64-3bffedfacc7b","system_id":"levelo_inurba_marseille","lat":43.28271,"lon":5.35088,"is_reserved":false,"is_disabled":false,"rental_uris":{"android":"levelo://app?vid=879f2f41-1a05-436b-8b64-3bffedfacc7b","ios":"levelo://app?vid=879f2f41-1a05-436b-8b64-3bffedfacc7b"},"vehicle_type_id":"4","last_reported":1750234485,"current_range_meters":8400,"station_id":"ce4bhbp2rcd13ifvqerg","pricing_plan_id":"cebpf4jnsgd1na2vs0mg"},{"bike_id":"723612c9-b4cc-4101-badd-cf63928f4875","system_id":"levelo_inurba_marseille","lat":43.26679,"lon":5.38283,"is_reserved":false,"is_disabled":false,"rental_uris":{"android":"levelo://app?vid=723612c9-b4cc-4101-badd-cf63928f4875","ios":"levelo://app?vid=723612c9-b4cc-4101-badd-cf63928f4875"},"vehicle_type_id":"4","last_reported":1750234485,"current_range_meters":8400,"station_id":"ce4bhg92rcd13ifvqf90","pricing_plan_id":"cebpf4jnsgd1na2vs0mg"},{"bike_id":"242e7a23-2b7a-457d-acdd-4e38f9fdeaa8","system_id":"levelo_inurba_marseille","lat":43.27171,"lon":5.40996,"is_reserved":false,"is_disabled":false,"rental_uris":{"android":"levelo://app?vid=242e7a23-2b7a-457d-acdd-4e38f9fdeaa8","ios":"levelo://app?vid=242e7a23-2b7a-457d-acdd-4e38f9fdeaa8"},"vehicle_type_id":"4","last_reported":1750234485,"current_range_meters":8400,"station_id":"ce4bhl12rcd13ifvqgf0","pricing_plan_id":"cebpf4jnsgd1na2vs0mg"},{"bike_id":"a6826c5a-c2ad-4cbf-99a2-79a5bb91cdb7","system_id":"levelo_inurba_marseille","lat":43.30933,"lon":5.36841,"is_reserved":false,"is_disabled":false,"rental_uris":{"android":"levelo://app?vid=a6826c5a-c2ad-4cbf-99a2-79a5bb91cdb7","ios":"levelo://app?vid=a6826c5a-c2ad-4cbf-99a2-79a5bb91cdb7"},"vehicle_type_id":"4","last_reported":1750234485,"current_range_meters":8800,"station_id":"ce4bgn92rcd13ifvqbvg","pricing_plan_id":"cebpf4jnsgd1na2vs0mg"},{"bike_id":"820df921-69fc-426c-b325-82acf4918bb0","system_id":"levelo_inurba_marseille","lat":43.30604,"lon":5.372023,"is_reserved":false,"is_disabled":false,"rental_uris":{"android":"levelo://app?vid=820df921-69fc-426c-b325-82acf4918bb0","ios":"levelo://app?vid=820df921-69fc-426c-b325-82acf4918bb0"},"vehicle_type_id":"4","last_reported":1750234485,"current_range_meters":8800,"station_id":"ce4bgqh2rcd13ifvqc4g","pricing_plan_id":"cebpf4jnsgd1na2vs0mg"},{"bike_id":"8952fcea-34cf-4372-8b51-bbeb0fed4148","system_id":"levelo_inurba_marseille","lat":43.31355,"lon":5.36735,"is_reserved":false,"is_disabled":false,"rental_uris":{"android":"levelo://app?vid=8952fcea-34cf-4372-8b51-bbeb0fed4148","ios":"levelo://app?vid=8952fcea-34cf-4372-8b51-bbeb0fed4148"},"vehicle_type_id":"4","last_reported":1750234485,"current_range_meters":8800,"station_id":"ce4bgr92rcd13ifvqc6g","pricing_plan_id":"cebpf4jnsgd1na2vs0mg"},{"bike_id":"0236841f-d315-4698-8c72-cd71d700f9c8","system_id":"levelo_inurba_marseille","lat":43.31707,"lon":5.40427,"is_reserved":false,"is_disabled":false,"rental_uris":{"android":"levelo://app?vid=0236841f-d315-4698-8c72-cd71d700f9c8","ios":"levelo://app?vid=0236841f-d315-4698-8c72-cd71d700f9c8"},"vehicle_type_id":"4","last_reported":1750234485,"current_range_meters":8800,"station_id":"ce4bh012rcd13ifvqd00","pricing_plan_id":"cebpf4jnsgd1na2vs0mg"},{"bike_id":"49af61f3-cd20-44f5-8ede-8151209aa7c7","system_id":"levelo_inurba_marseille","lat":43.28725,"lon":5.37943,"is_reserved":false,"is_disabled":false,"rental_uris":{"android":"levelo://app?vid=49af61f3-cd20-44f5-8ede-8151209aa7c7","ios":"levelo://app?vid=49af61f3-cd20-44f5-8ede-8151209aa7c7"},"vehicle_type_id":"4","last_reported":1750234485,"current_range_meters":8800,"station_id":"ce4bh9p2rcd13ifvqec0","pricing_plan_id":"cebpf4jnsgd1na2vs0mg"},{"bike_id":"2fc84838-7f9b-4751-bffb-a48b3058b522","system_id":"levelo_inurba_marseille","lat":43.24175,"lon":5.39751,"is_reserved":false,"is_disabled":false,"rental_uris":{"android":"levelo://app?vid=2fc84838-7f9b-4751-bffb-a48b3058b522","ios":"levelo://app?vid=2fc84838-7f9b-4751-bffb-a48b3058b522"},"vehicle_type_id":"4","last_reported":1750234485,"current_range_meters":8800,"station_id":"ce4bhn12rcd13ifvqgpg","pricing_plan_id":"cebpf4jnsgd1na2vs0mg"},{"bike_id":"c9c71664-8516-4ec9-a922-373c22be8d05","system_id":"levelo_inurba_marseille","lat":43.32284,"lon":5.38272,"is_reserved":false,"is_disabled":false,"rental_uris":{"android":"levelo://app?vid=c9c71664-8516-4ec9-a922-373c22be8d05","ios":"levelo://app?vid=c9c71664-8516-4ec9-a922-373c22be8d05"},"vehicle_type_id":"4","last_reported":1750234485,"current_range_meters":8800,"station_id":"ce4bhr12rcd13ifvqhqg","pricing_plan_id":"cebpf4jnsgd1na2vs0mg"},{"bike_id":"6f3a0055-18ce-456d-886f-5dd53c809fc5","system_id":"levelo_inurba_marseille","lat":43.267609,"lon":5.42534,"is_reserved":false,"is_disabled":false,"rental_uris":{"android":"levelo://app?vid=6f3a0055-18ce-456d-886f-5dd53c809fc5","ios":"levelo://app?vid=6f3a0055-18ce-456d-886f-5dd53c809fc5"},"vehicle_type_id":"4","last_reported":1750234485,"current_range_meters":9200,"station_id":"","pricing_plan_id":"cebpf4jnsgd1na2vs0mg"},{"bike_id":"b1f836cc-8463-4099-b55e-304d28b0138d","system_id":"levelo_inurba_marseille","lat":43.29576,"lon":5.37493,"is_reserved":false,"is_disabled":false,"rental_uris":{"android":"levelo://app?vid=b1f836cc-8463-4099-b55e-304d28b0138d","ios":"levelo://app?vid=b1f836cc-8463-4099-b55e-304d28b0138d"},"vehicle_type_id":"4","last_reported":1750234485,"current_range_meters":9200,"station_id":"ce4bgh92rcd13ifvqb50","pricing_plan_id":"cebpf4jnsgd1na2vs0mg"},{"bike_id":"bb95f930-dabb-4f0b-8a50-4fe7023997df","system_id":"levelo_inurba_marseille","lat":43.2961,"lon":5.37709,"is_reserved":false,"is_disabled":false,"rental_uris":{"android":"levelo://app?vid=bb95f930-dabb-4f0b-8a50-4fe7023997df","ios":"levelo://app?vid=bb95f930-dabb-4f0b-8a50-4fe7023997df"},"vehicle_type_id":"4","last_reported":1750234485,"current_range_meters":9200,"station_id":"ce4bgi92rcd13ifvqb90","pricing_plan_id":"cebpf4jnsgd1na2vs0mg"},{"bike_id":"0c16fa7a-87bf-462a-bbfa-4a5736265631","system_id":"levelo_inurba_marseille","lat":43.30545,"lon":5.36536,"is_reserved":false,"is_disabled":false,"rental_uris":{"android":"levelo://app?vid=0c16fa7a-87bf-462a-bbfa-4a5736265631","ios":"levelo://app?vid=0c16fa7a-87bf-462a-bbfa-4a5736265631"},"vehicle_type_id":"4","last_reported":1750234485,"current_range_meters":9200,"station_id":"ce4bgs12rcd13ifvqcag","pricing_plan_id":"cebpf4jnsgd1na2vs0mg"},{"bike_id":"7c7d8ab5-008b-47eb-a5ae-5a63a77e5f6a","system_id":"levelo_inurba_marseille","lat":43.292556,"lon":5.409147,"is_reserved":false,"is_disabled":false,"rental_uris":{"android":"levelo://app?vid=7c7d8ab5-008b-47eb-a5ae-5a63a77e5f6a","ios":"levelo://app?vid=7c7d8ab5-008b-47eb-a5ae-5a63a77e5f6a"},"vehicle_type_id":"4","last_reported":1750234485,"current_range_meters":9200,"station_id":"ce4bh192rcd13ifvqdc0","pricing_plan_id":"cebpf4jnsgd1na2vs0mg"},{"bike_id":"b5002037-f4b0-4634-8bc4-796d0c74810e","system_id":"levelo_inurba_marseille","lat":43.2439,"lon":5.41128,"is_reserved":false,"is_disabled":false,"rental_uris":{"android":"levelo://app?vid=b5002037-f4b0-4634-8bc4-796d0c74810e","ios":"levelo://app?vid=b5002037-f4b0-4634-8bc4-796d0c74810e"},"vehicle_type_id":"4","last_reported":1750234485,"current_range_meters":9600,"station_id":"","pricing_plan_id":"cebpf4jnsgd1na2vs0mg"},{"bike_id":"7ef4c7fd-4355-4f02-b477-7d98c6958bb3","system_id":"levelo_inurba_marseille","lat":43.29778,"lon":5.37106,"is_reserved":false,"is_disabled":false,"rental_uris":{"android":"levelo://app?vid=7ef4c7fd-4355-4f02-b477-7d98c6958bb3","ios":"levelo://app?vid=7ef4c7fd-4355-4f02-b477-7d98c6958bb3"},"vehicle_type_id":"4","last_reported":1750234485,"current_range_meters":9600,"station_id":"ce4bgop2rcd13ifvqc1g","pricing_plan_id":"cebpf4jnsgd1na2vs0mg"},{"bike_id":"fef203aa-c49d-4e52-b64f-044341d7d7e3","system_id":"levelo_inurba_marseille","lat":43.301352,"lon":5.374217,"is_reserved":false,"is_disabled":false,"rental_uris":{"android":"levelo://app?vid=fef203aa-c49d-4e52-b64f-044341d7d7e3","ios":"levelo://app?vid=fef203aa-c49d-4e52-b64f-044341d7d7e3"},"vehicle_type_id":"4","last_reported":1750234485,"current_range_meters":9600,"station_id":"ce4bgs92rcd13ifvqcc0","pricing_plan_id":"cebpf4jnsgd1na2vs0mg"},{"bike_id":"1a9c122e-c061-40ad-9a64-f11e38bab186","system_id":"levelo_inurba_marseille","lat":43.304783,"lon":5.379074,"is_reserved":false,"is_disabled":false,"rental_uris":{"android":"levelo://app?vid=1a9c122e-c061-40ad-9a64-f11e38bab186","ios":"levelo://app?vid=1a9c122e-c061-40ad-9a64-f11e38bab186"},"vehicle_type_id":"4","last_reported":1750234485,"current_range_meters":9600,"station_id":"ce4bgup2rcd13ifvqcn0","pricing_plan_id":"cebpf4jnsgd1na2vs0mg"},{"bike_id":"0c9277e0-2179-4ecd-863c-23bf38ac9920","system_id":"levelo_inurba_marseille","lat":43.30961,"lon":5.3903,"is_reserved":false,"is_disabled":false,"rental_uris":{"android":"levelo://app?vid=0c9277e0-2179-4ecd-863c-23bf38ac9920","ios":"levelo://app?vid=0c9277e0-2179-4ecd-863c-23bf38ac9920"},"vehicle_type_id":"4","last_reported":1750234485,"current_range_meters":9600,"station_id":"ce4bgup2rcd13ifvqco0","pricing_plan_id":"cebpf4jnsgd1na2vs0mg"},{"bike_id":"76a2cb98-224c-4a20-9528-fd104d864420","system_id":"levelo_inurba_marseille","lat":43.24173,"lon":5.39736,"is_reserved":false,"is_disabled":false,"rental_uris":{"android":"levelo://app?vid=76a2cb98-224c-4a20-9528-fd104d864420","ios":"levelo://app?vid=76a2cb98-224c-4a20-9528-fd104d864420"},"vehicle_type_id":"4","last_reported":1750234485,"current_range_meters":9600,"station_id":"ce4bhn12rcd13ifvqgpg","pricing_plan_id":"cebpf4jnsgd1na2vs0mg"},{"bike_id":"eca25bd6-1b44-4388-a7b0-074a85a4f502","system_id":"levelo_inurba_marseille","lat":43.31096,"lon":5.39749,"is_reserved":false,"is_disabled":false,"rental_uris":{"android":"levelo://app?vid=eca25bd6-1b44-4388-a7b0-074a85a4f502","ios":"levelo://app?vid=eca25bd6-1b44-4388-a7b0-074a85a4f502"},"vehicle_type_id":"4","last_reported":1750234485,"current_range_meters":10000,"station_id":"","pricing_plan_id":"cebpf4jnsgd1na2vs0mg"},{"bike_id":"300ca1f9-c608-4982-82af-3f268e1aada5","system_id":"levelo_inurba_marseille","lat":43.30516,"lon":5.36515,"is_reserved":false,"is_disabled":false,"rental_uris":{"android":"levelo://app?vid=300ca1f9-c608-4982-82af-3f268e1aada5","ios":"levelo://app?vid=300ca1f9-c608-4982-82af-3f268e1aada5"},"vehicle_type_id":"4","last_reported":1750234485,"current_range_meters":10000,"station_id":"","pricing_plan_id":"cebpf4jnsgd1na2vs0mg"},{"bike_id":"f7c932c3-850a-4201-b92e-0800814d134d","system_id":"levelo_inurba_marseille","lat":43.29847,"lon":5.3628,"is_reserved":false,"is_disabled":false,"rental_uris":{"android":"levelo://app?vid=f7c932c3-850a-4201-b92e-0800814d134d","ios":"levelo://app?vid=f7c932c3-850a-4201-b92e-0800814d134d"},"vehicle_type_id":"4","last_reported":1750234485,"current_range_meters":10000,"station_id":"ce4bgpp2rcd13ifvqc3g","pricing_plan_id":"cebpf4jnsgd1na2vs0mg"},{"bike_id":"10815380-2d18-4542-91b9-b5f84e8b6f72","system_id":"levelo_inurba_marseille","lat":43.30521,"lon":5.36718,"is_reserved":false,"is_disabled":false,"rental_uris":{"android":"levelo://app?vid=10815380-2d18-4542-91b9-b5f84e8b6f72","ios":"levelo://app?vid=10815380-2d18-4542-91b9-b5f84e8b6f72"},"vehicle_type_id":"4","last_reported":1750234485,"current_range_meters":10000,"station_id":"ce4bgrp2rcd13ifvqc9g","pricing_plan_id":"cebpf4jnsgd1na2vs0mg"},{"bike_id":"a7c1ffa9-2337-4768-8c4c-19543deaa646","system_id":"levelo_inurba_marseille","lat":43.26684,"lon":5.38274,"is_reserved":false,"is_disabled":false,"rental_uris":{"android":"levelo://app?vid=a7c1ffa9-2337-4768-8c4c-19543deaa646","ios":"levelo://app?vid=a7c1ffa9-2337-4768-8c4c-19543deaa646"},"vehicle_type_id":"4","last_reported":1750234485,"current_range_meters":10000,"station_id":"ce4bhg92rcd13ifvqf90","pricing_plan_id":"cebpf4jnsgd1na2vs0mg"},{"bike_id":"3796ad63-3d1c-4d8a-89ff-ffee322ba259","system_id":"levelo_inurba_marseille","lat":43.25,"lon":5.38942,"is_reserved":false,"is_disabled":false,"rental_uris":{"android":"levelo://app?vid=3796ad63-3d1c-4d8a-89ff-ffee322ba259","ios":"levelo://app?vid=3796ad63-3d1c-4d8a-89ff-ffee322ba259"},"vehicle_type_id":"4","last_reported":1750234485,"current_range_meters":10000,"station_id":"ce4bhgp2rcd13ifvqfd0","pricing_plan_id":"cebpf4jnsgd1na2vs0mg"},{"bike_id":"4db1dd35-ef74-446c-8750-a9479c04546c","system_id":"levelo_inurba_marseille","lat":43.23144,"lon":5.43721,"is_reserved":false,"is_disabled":false,"rental_uris":{"android":"levelo://app?vid=4db1dd35-ef74-446c-8750-a9479c04546c","ios":"levelo://app?vid=4db1dd35-ef74-446c-8750-a9479c04546c"},"vehicle_type_id":"4","last_reported":1750234485,"current_range_meters":10000,"station_id":"ce4bhmp2rcd13ifvqgog","pricing_plan_id":"cebpf4jnsgd1na2vs0mg"},{"bike_id":"83cfee7d-980d-496a-98c8-745c7e44c68d","system_id":"levelo_inurba_marseille","lat":43.32879,"lon":5.39111,"is_reserved":false,"is_disabled":false,"rental_uris":{"android":"levelo://app?vid=83cfee7d-980d-496a-98c8-745c7e44c68d","ios":"levelo://app?vid=83cfee7d-980d-496a-98c8-745c7e44c68d"},"vehicle_type_id":"4","last_reported":1750234485,"current_range_meters":10800,"station_id":"","pricing_plan_id":"cebpf4jnsgd1na2vs0mg"},{"bike_id":"d30f880b-8118-45d2-aac3-136366f21bb5","system_id":"levelo_inurba_marseille","lat":43.29849,"lon":5.36285,"is_reserved":false,"is_disabled":false,"rental_uris":{"android":"levelo://app?vid=d30f880b-8118-45d2-aac3-136366f21bb5","ios":"levelo://app?vid=d30f880b-8118-45d2-aac3-136366f21bb5"},"vehicle_type_id":"4","last_reported":1750234485,"current_range_meters":10800,"station_id":"ce4bgpp2rcd13ifvqc3g","pricing_plan_id":"cebpf4jnsgd1na2vs0mg"},{"bike_id":"3d61168d-e43c-4deb-9b6a-9d4199cba290","system_id":"levelo_inurba_marseille","lat":43.30308,"lon":5.36899,"is_reserved":false,"is_disabled":false,"rental_uris":{"android":"levelo://app?vid=3d61168d-e43c-4deb-9b6a-9d4199cba290","ios":"levelo://app?vid=3d61168d-e43c-4deb-9b6a-9d4199cba290"},"vehicle_type_id":"4","last_reported":1750234485,"current_range_meters":10800,"station_id":"ce4bgqh2rcd13ifvqc5g","pricing_plan_id":"cebpf4jnsgd1na2vs0mg"},{"bike_id":"1ba0c422-e2d0-42e2-b94c-581514c3d51e","system_id":"levelo_inurba_marseille","lat":43.31695,"lon":5.40475,"is_reserved":false,"is_disabled":false,"rental_uris":{"android":"levelo://app?vid=1ba0c422-e2d0-42e2-b94c-581514c3d51e","ios":"levelo://app?vid=1ba0c422-e2d0-42e2-b94c-581514c3d51e"},"vehicle_type_id":"4","last_reported":1750234485,"current_range_meters":10800,"station_id":"ce4bh012rcd13ifvqd00","pricing_plan_id":"cebpf4jnsgd1na2vs0mg"},{"bike_id":"bbd4d7c2-8d45-4b8d-a165-f26c00d90047","system_id":"levelo_inurba_marseille","lat":43.31701,"lon":5.40476,"is_reserved":false,"is_disabled":false,"rental_uris":{"android":"levelo://app?vid=bbd4d7c2-8d45-4b8d-a165-f26c00d90047","ios":"levelo://app?vid=bbd4d7c2-8d45-4b8d-a165-f26c00d90047"},"vehicle_type_id":"4","last_reported":1750234485,"current_range_meters":10800,"station_id":"ce4bh012rcd13ifvqd00","pricing_plan_id":"cebpf4jnsgd1na2vs0mg"},{"bike_id":"8b36b831-ec15-497c-9502-aaec67bfedef","system_id":"levelo_inurba_marseille","lat":43.29517,"lon":5.39039,"is_reserved":false,"is_disabled":false,"rental_uris":{"android":"levelo://app?vid=8b36b831-ec15-497c-9502-aaec67bfedef","ios":"levelo://app?vid=8b36b831-ec15-497c-9502-aaec67bfedef"},"vehicle_type_id":"4","last_reported":1750234485,"current_range_meters":10800,"station_id":"ce4bh3p2rcd13ifvqdp0","pricing_plan_id":"cebpf4jnsgd1na2vs0mg"},{"bike_id":"65a89bb6-81d5-4ec5-95d1-a1f828e17eef","system_id":"levelo_inurba_marseille","lat":43.26669,"lon":5.3826,"is_reserved":false,"is_disabled":false,"rental_uris":{"android":"levelo://app?vid=65a89bb6-81d5-4ec5-95d1-a1f828e17eef","ios":"levelo://app?vid=65a89bb6-81d5-4ec5-95d1-a1f828e17eef"},"vehicle_type_id":"4","last_reported":1750234485,"current_range_meters":10800,"station_id":"ce4bhg92rcd13ifvqf90","pricing_plan_id":"cebpf4jnsgd1na2vs0mg"},{"bike_id":"b72e78eb-c13b-4a46-8d83-e4b5db28583a","system_id":"levelo_inurba_marseille","lat":43.26686,"lon":5.38269,"is_reserved":false,"is_disabled":false,"rental_uris":{"android":"levelo://app?vid=b72e78eb-c13b-4a46-8d83-e4b5db28583a","ios":"levelo://app?vid=b72e78eb-c13b-4a46-8d83-e4b5db28583a"},"vehicle_type_id":"4","last_reported":1750234485,"current_range_meters":10800,"station_id":"ce4bhg92rcd13ifvqf90","pricing_plan_id":"cebpf4jnsgd1na2vs0mg"},{"bike_id":"b0cbcf3d-ad07-4dca-a36a-401b81db7a8d","system_id":"levelo_inurba_marseille","lat":43.25111,"lon":5.40334,"is_reserved":false,"is_disabled":false,"rental_uris":{"android":"levelo://app?vid=b0cbcf3d-ad07-4dca-a36a-401b81db7a8d","ios":"levelo://app?vid=b0cbcf3d-ad07-4dca-a36a-401b81db7a8d"},"vehicle_type_id":"4","last_reported":1750234485,"current_range_meters":10800,"station_id":"ce4bhlh2rcd13ifvqgig","pricing_plan_id":"cebpf4jnsgd1na2vs0mg"},{"bike_id":"3a0a03bd-930c-4579-a692-ca12ebc511ad","system_id":"levelo_inurba_marseille","lat":43.27494,"lon":5.42464,"is_reserved":false,"is_disabled":false,"rental_uris":{"android":"levelo://app?vid=3a0a03bd-930c-4579-a692-ca12ebc511ad","ios":"levelo://app?vid=3a0a03bd-930c-4579-a692-ca12ebc511ad"},"vehicle_type_id":"4","last_reported":1750234485,"current_range_meters":10800,"station_id":"ce4bhn92rcd13ifvqgrg","pricing_plan_id":"cebpf4jnsgd1na2vs0mg"},{"bike_id":"49da1d70-8c28-4afa-8ea5-4ebf8e5e437a","system_id":"levelo_inurba_marseille","lat":43.33592,"lon":5.40966,"is_reserved":false,"is_disabled":false,"rental_uris":{"android":"levelo://app?vid=49da1d70-8c28-4afa-8ea5-4ebf8e5e437a","ios":"levelo://app?vid=49da1d70-8c28-4afa-8ea5-4ebf8e5e437a"},"vehicle_type_id":"4","last_reported":1750234485,"current_range_meters":10800,"station_id":"ce4bhqh2rcd13ifvqhmg","pricing_plan_id":"cebpf4jnsgd1na2vs0mg"},{"bike_id":"fb8c994a-909e-45ff-a536-ad7da7661bb6","system_id":"levelo_inurba_marseille","lat":43.3359,"lon":5.40971,"is_reserved":false,"is_disabled":false,"rental_uris":{"android":"levelo://app?vid=fb8c994a-909e-45ff-a536-ad7da7661bb6","ios":"levelo://app?vid=fb8c994a-909e-45ff-a536-ad7da7661bb6"},"vehicle_type_id":"4","last_reported":1750234485,"current_range_meters":10800,"station_id":"ce4bhqh2rcd13ifvqhmg","pricing_plan_id":"cebpf4jnsgd1na2vs0mg"},{"bike_id":"b66645b7-de02-4292-9af4-6e516633c1a0","system_id":"levelo_inurba_marseille","lat":43.29598,"lon":5.38096,"is_reserved":false,"is_disabled":false,"rental_uris":{"android":"levelo://app?vid=b66645b7-de02-4292-9af4-6e516633c1a0","ios":"levelo://app?vid=b66645b7-de02-4292-9af4-6e516633c1a0"},"vehicle_type_id":"4","last_reported":1750234485,"current_range_meters":11200,"station_id":"ce4bgl12rcd13ifvqbo0","pricing_plan_id":"cebpf4jnsgd1na2vs0mg"},{"bike_id":"960c85a1-5973-4697-9a13-ccb47f1e6891","system_id":"levelo_inurba_marseille","lat":43.22943,"lon":5.35395,"is_reserved":false,"is_disabled":false,"rental_uris":{"android":"levelo://app?vid=960c85a1-5973-4697-9a13-ccb47f1e6891","ios":"levelo://app?vid=960c85a1-5973-4697-9a13-ccb47f1e6891"},"vehicle_type_id":"4","last_reported":1750234485,"current_range_meters":11200,"station_id":"cpo3532slgdg3j2ikp40","pricing_plan_id":"cebpf4jnsgd1na2vs0mg"},{"bike_id":"ec791070-eafa-4c06-b970-7958cef6417d","system_id":"levelo_inurba_marseille","lat":43.231944,"lon":5.355502,"is_reserved":false,"is_disabled":false,"rental_uris":{"android":"levelo://app?vid=ec791070-eafa-4c06-b970-7958cef6417d","ios":"levelo://app?vid=ec791070-eafa-4c06-b970-7958cef6417d"},"vehicle_type_id":"4","last_reported":1750234485,"current_range_meters":11600,"station_id":"ce4bhu92rcd13ifvqi70","pricing_plan_id":"cebpf4jnsgd1na2vs0mg"},{"bike_id":"de0f7c2b-5974-4035-a240-8ed367c0e3f3","system_id":"levelo_inurba_marseille","lat":43.31929,"lon":5.37683,"is_reserved":false,"is_disabled":false,"rental_uris":{"android":"levelo://app?vid=de0f7c2b-5974-4035-a240-8ed367c0e3f3","ios":"levelo://app?vid=de0f7c2b-5974-4035-a240-8ed367c0e3f3"},"vehicle_type_id":"4","last_reported":1750234485,"current_range_meters":12000,"station_id":"","pricing_plan_id":"cebpf4jnsgd1na2vs0mg"},{"bike_id":"43bd9e31-d7e3-425a-a949-2ef8eb6942ed","system_id":"levelo_inurba_marseille","lat":43.29843,"lon":5.36272,"is_reserved":false,"is_disabled":false,"rental_uris":{"android":"levelo://app?vid=43bd9e31-d7e3-425a-a949-2ef8eb6942ed","ios":"levelo://app?vid=43bd9e31-d7e3-425a-a949-2ef8eb6942ed"},"vehicle_type_id":"4","last_reported":1750234485,"current_range_meters":12000,"station_id":"ce4bgpp2rcd13ifvqc3g","pricing_plan_id":"cebpf4jnsgd1na2vs0mg"},{"bike_id":"1197e330-995f-4f41-954b-3eea58f2a4c0","system_id":"levelo_inurba_marseille","lat":43.21186,"lon":5.35082,"is_reserved":false,"is_disabled":false,"rental_uris":{"android":"levelo://app?vid=1197e330-995f-4f41-954b-3eea58f2a4c0","ios":"levelo://app?vid=1197e330-995f-4f41-954b-3eea58f2a4c0"},"vehicle_type_id":"4","last_reported":1750234485,"current_range_meters":12000,"station_id":"st_cvj6sg6p6f1abm77japg","pricing_plan_id":"cebpf4jnsgd1na2vs0mg"},{"bike_id":"cc7142c6-34ef-4b0c-a302-c657990c1b31","system_id":"levelo_inurba_marseille","lat":43.3057,"lon":5.36526,"is_reserved":false,"is_disabled":false,"rental_uris":{"android":"levelo://app?vid=cc7142c6-34ef-4b0c-a302-c657990c1b31","ios":"levelo://app?vid=cc7142c6-34ef-4b0c-a302-c657990c1b31"},"vehicle_type_id":"4","last_reported":1750234485,"current_range_meters":12400,"station_id":"ce4bgs12rcd13ifvqcag","pricing_plan_id":"cebpf4jnsgd1na2vs0mg"},{"bike_id":"08deb29c-ecb1-4769-9681-e3d0275f3304","system_id":"levelo_inurba_marseille","lat":43.31485,"lon":5.3731,"is_reserved":false,"is_disabled":false,"rental_uris":{"android":"levelo://app?vid=08deb29c-ecb1-4769-9681-e3d0275f3304","ios":"levelo://app?vid=08deb29c-ecb1-4769-9681-e3d0275f3304"},"vehicle_type_id":"4","last_reported":1750234485,"current_range_meters":12400,"station_id":"ce4bgt12rcd13ifvqcd0","pricing_plan_id":"cebpf4jnsgd1na2vs0mg"},{"bike_id":"317b7757-3526-49e1-84fb-91d5444692c0","system_id":"levelo_inurba_marseille","lat":43.26681,"lon":5.38276,"is_reserved":false,"is_disabled":false,"rental_uris":{"android":"levelo://app?vid=317b7757-3526-49e1-84fb-91d5444692c0","ios":"levelo://app?vid=317b7757-3526-49e1-84fb-91d5444692c0"},"vehicle_type_id":"4","last_reported":1750234485,"current_range_meters":12400,"station_id":"ce4bhg92rcd13ifvqf90","pricing_plan_id":"cebpf4jnsgd1na2vs0mg"},{"bike_id":"9e55cb1e-0a33-46a3-88e2-80a33e9d7edd","system_id":"levelo_inurba_marseille","lat":43.26933,"lon":5.38922,"is_reserved":false,"is_disabled":false,"rental_uris":{"android":"levelo://app?vid=9e55cb1e-0a33-46a3-88e2-80a33e9d7edd","ios":"levelo://app?vid=9e55cb1e-0a33-46a3-88e2-80a33e9d7edd"},"vehicle_type_id":"4","last_reported":1750234485,"current_range_meters":12400,"station_id":"ce4bhhh2rcd13ifvqfl0","pricing_plan_id":"cebpf4jnsgd1na2vs0mg"},{"bike_id":"b6d71e35-eee3-438f-94fe-4ffc3566de18","system_id":"levelo_inurba_marseille","lat":43.259272,"lon":5.409222,"is_reserved":false,"is_disabled":false,"rental_uris":{"android":"levelo://app?vid=b6d71e35-eee3-438f-94fe-4ffc3566de18","ios":"levelo://app?vid=b6d71e35-eee3-438f-94fe-4ffc3566de18"},"vehicle_type_id":"4","last_reported":1750234485,"current_range_meters":12400,"station_id":"ce4bhm92rcd13ifvqglg","pricing_plan_id":"cebpf4jnsgd1na2vs0mg"},{"bike_id":"2062f28b-8f4d-40c5-9c1b-cfd69b25f5fd","system_id":"levelo_inurba_marseille","lat":43.25931,"lon":5.40912,"is_reserved":false,"is_disabled":false,"rental_uris":{"android":"levelo://app?vid=2062f28b-8f4d-40c5-9c1b-cfd69b25f5fd","ios":"levelo://app?vid=2062f28b-8f4d-40c5-9c1b-cfd69b25f5fd"},"vehicle_type_id":"4","last_reported":1750234485,"current_range_meters":12400,"station_id":"ce4bhm92rcd13ifvqglg","pricing_plan_id":"cebpf4jnsgd1na2vs0mg"},{"bike_id":"f7fa858e-b7ee-404f-8191-6184cc003e2b","system_id":"levelo_inurba_marseille","lat":43.23188,"lon":5.35501,"is_reserved":false,"is_disabled":false,"rental_uris":{"android":"levelo://app?vid=f7fa858e-b7ee-404f-8191-6184cc003e2b","ios":"levelo://app?vid=f7fa858e-b7ee-404f-8191-6184cc003e2b"},"vehicle_type_id":"4","last_reported":1750234485,"current_range_meters":12400,"station_id":"ce4bhu92rcd13ifvqi70","pricing_plan_id":"cebpf4jnsgd1na2vs0mg"},{"bike_id":"3518210a-6d90-482f-a11b-11cb7c94acd1","system_id":"levelo_inurba_marseille","lat":43.26473,"lon":5.39226,"is_reserved":false,"is_disabled":false,"rental_uris":{"android":"levelo://app?vid=3518210a-6d90-482f-a11b-11cb7c94acd1","ios":"levelo://app?vid=3518210a-6d90-482f-a11b-11cb7c94acd1"},"vehicle_type_id":"4","last_reported":1750234485,"current_range_meters":12800,"station_id":"","pricing_plan_id":"cebpf4jnsgd1na2vs0mg"},{"bike_id":"90200c32-65a7-4788-976c-d6f48d6f7789","system_id":"levelo_inurba_marseille","lat":43.30909,"lon":5.36849,"is_reserved":false,"is_disabled":false,"rental_uris":{"android":"levelo://app?vid=90200c32-65a7-4788-976c-d6f48d6f7789","ios":"levelo://app?vid=90200c32-65a7-4788-976c-d6f48d6f7789"},"vehicle_type_id":"4","last_reported":1750234485,"current_range_meters":12800,"station_id":"ce4bgn92rcd13ifvqbvg","pricing_plan_id":"cebpf4jnsgd1na2vs0mg"},{"bike_id":"82552b0d-28d6-46a5-a7c4-089e23e2c583","system_id":"levelo_inurba_marseille","lat":43.23196,"lon":5.3998,"is_reserved":false,"is_disabled":false,"rental_uris":{"android":"levelo://app?vid=82552b0d-28d6-46a5-a7c4-089e23e2c583","ios":"levelo://app?vid=82552b0d-28d6-46a5-a7c4-089e23e2c583"},"vehicle_type_id":"4","last_reported":1750234485,"current_range_meters":12800,"station_id":"ce4bhn12rcd13ifvqgqg","pricing_plan_id":"cebpf4jnsgd1na2vs0mg"},{"bike_id":"2f0f7865-53e4-4955-8eb9-1bb98bf95595","system_id":"levelo_inurba_marseille","lat":43.31746,"lon":5.37615,"is_reserved":false,"is_disabled":false,"rental_uris":{"android":"levelo://app?vid=2f0f7865-53e4-4955-8eb9-1bb98bf95595","ios":"levelo://app?vid=2f0f7865-53e4-4955-8eb9-1bb98bf95595"},"vehicle_type_id":"4","last_reported":1750234485,"current_range_meters":13600,"station_id":"","pricing_plan_id":"cebpf4jnsgd1na2vs0mg"},{"bike_id":"e0a889cf-2327-4278-9b67-453fc8c6ae2a","system_id":"levelo_inurba_marseille","lat":43.30253,"lon":5.37486,"is_reserved":false,"is_disabled":false,"rental_uris":{"android":"levelo://app?vid=e0a889cf-2327-4278-9b67-453fc8c6ae2a","ios":"levelo://app?vid=e0a889cf-2327-4278-9b67-453fc8c6ae2a"},"vehicle_type_id":"4","last_reported":1750234485,"current_range_meters":13600,"station_id":"","pricing_plan_id":"cebpf4jnsgd1na2vs0mg"},{"bike_id":"3bd4f1f6-53d4-48d2-84f8-875902b29eb2","system_id":"levelo_inurba_marseille","lat":43.30957,"lon":5.39034,"is_reserved":false,"is_disabled":false,"rental_uris":{"android":"levelo://app?vid=3bd4f1f6-53d4-48d2-84f8-875902b29eb2","ios":"levelo://app?vid=3bd4f1f6-53d4-48d2-84f8-875902b29eb2"},"vehicle_type_id":"4","last_reported":1750234485,"current_range_meters":13600,"station_id":"ce4bgup2rcd13ifvqco0","pricing_plan_id":"cebpf4jnsgd1na2vs0mg"},{"bike_id":"83468b08-5fc5-43b8-9513-fe6f716da034","system_id":"levelo_inurba_marseille","lat":43.26684,"lon":5.38274,"is_reserved":false,"is_disabled":false,"rental_uris":{"android":"levelo://app?vid=83468b08-5fc5-43b8-9513-fe6f716da034","ios":"levelo://app?vid=83468b08-5fc5-43b8-9513-fe6f716da034"},"vehicle_type_id":"4","last_reported":1750234485,"current_range_meters":13600,"station_id":"ce4bhg92rcd13ifvqf90","pricing_plan_id":"cebpf4jnsgd1na2vs0mg"},{"bike_id":"439ed54d-6159-480b-a257-e7207677bd3a","system_id":"levelo_inurba_marseille","lat":43.25824,"lon":5.39442,"is_reserved":false,"is_disabled":false,"rental_uris":{"android":"levelo://app?vid=439ed54d-6159-480b-a257-e7207677bd3a","ios":"levelo://app?vid=439ed54d-6159-480b-a257-e7207677bd3a"},"vehicle_type_id":"4","last_reported":1750234485,"current_range_meters":13600,"station_id":"ce4bhip2rcd13ifvqft0","pricing_plan_id":"cebpf4jnsgd1na2vs0mg"},{"bike_id":"699da6d6-be62-43bd-8e21-145b1a0c18a3","system_id":"levelo_inurba_marseille","lat":43.25936,"lon":5.40907,"is_reserved":false,"is_disabled":false,"rental_uris":{"android":"levelo://app?vid=699da6d6-be62-43bd-8e21-145b1a0c18a3","ios":"levelo://app?vid=699da6d6-be62-43bd-8e21-145b1a0c18a3"},"vehicle_type_id":"4","last_reported":1750234485,"current_range_meters":13600,"station_id":"ce4bhm92rcd13ifvqglg","pricing_plan_id":"cebpf4jnsgd1na2vs0mg"},{"bike_id":"9c9a0cd0-2064-427e-bc46-ba36cf7e483f","system_id":"levelo_inurba_marseille","lat":43.24165,"lon":5.36391,"is_reserved":false,"is_disabled":false,"rental_uris":{"android":"levelo://app?vid=9c9a0cd0-2064-427e-bc46-ba36cf7e483f","ios":"levelo://app?vid=9c9a0cd0-2064-427e-bc46-ba36cf7e483f"},"vehicle_type_id":"4","last_reported":1750234485,"current_range_meters":13600,"station_id":"cpo36qri1sfpv3e86is0","pricing_plan_id":"cebpf4jnsgd1na2vs0mg"},{"bike_id":"de0bda34-41a6-4231-8ed4-c93e07fc3176","system_id":"levelo_inurba_marseille","lat":43.3262,"lon":5.3751,"is_reserved":false,"is_disabled":false,"rental_uris":{"android":"levelo://app?vid=de0bda34-41a6-4231-8ed4-c93e07fc3176","ios":"levelo://app?vid=de0bda34-41a6-4231-8ed4-c93e07fc3176"},"vehicle_type_id":"4","last_reported":1750234485,"current_range_meters":14000,"station_id":"","pricing_plan_id":"cebpf4jnsgd1na2vs0mg"},{"bike_id":"9a81dc9f-e796-4cb7-88e6-658432c5b33f","system_id":"levelo_inurba_marseille","lat":43.29568,"lon":5.37505,"is_reserved":false,"is_disabled":false,"rental_uris":{"android":"levelo://app?vid=9a81dc9f-e796-4cb7-88e6-658432c5b33f","ios":"levelo://app?vid=9a81dc9f-e796-4cb7-88e6-658432c5b33f"},"vehicle_type_id":"4","last_reported":1750234485,"current_range_meters":14000,"station_id":"ce4bgh92rcd13ifvqb50","pricing_plan_id":"cebpf4jnsgd1na2vs0mg"},{"bike_id":"32681a94-c1c6-4ccc-b0dd-7de7e29cd3d8","system_id":"levelo_inurba_marseille","lat":43.305438,"lon":5.365562,"is_reserved":false,"is_disabled":false,"rental_uris":{"android":"levelo://app?vid=32681a94-c1c6-4ccc-b0dd-7de7e29cd3d8","ios":"levelo://app?vid=32681a94-c1c6-4ccc-b0dd-7de7e29cd3d8"},"vehicle_type_id":"4","last_reported":1750234485,"current_range_meters":14000,"station_id":"ce4bgs12rcd13ifvqcag","pricing_plan_id":"cebpf4jnsgd1na2vs0mg"},{"bike_id":"c54cf614-b188-4019-a68e-33cff6c563f4","system_id":"levelo_inurba_marseille","lat":43.295,"lon":5.39036,"is_reserved":false,"is_disabled":false,"rental_uris":{"android":"levelo://app?vid=c54cf614-b188-4019-a68e-33cff6c563f4","ios":"levelo://app?vid=c54cf614-b188-4019-a68e-33cff6c563f4"},"vehicle_type_id":"4","last_reported":1750234485,"current_range_meters":14000,"station_id":"ce4bh3p2rcd13ifvqdp0","pricing_plan_id":"cebpf4jnsgd1na2vs0mg"},{"bike_id":"f96fac91-fcd6-4cf6-94db-3fb959156263","system_id":"levelo_inurba_marseille","lat":43.28284,"lon":5.35065,"is_reserved":false,"is_disabled":false,"rental_uris":{"android":"levelo://app?vid=f96fac91-fcd6-4cf6-94db-3fb959156263","ios":"levelo://app?vid=f96fac91-fcd6-4cf6-94db-3fb959156263"},"vehicle_type_id":"4","last_reported":1750234485,"current_range_meters":14000,"station_id":"ce4bhbp2rcd13ifvqerg","pricing_plan_id":"cebpf4jnsgd1na2vs0mg"},{"bike_id":"d405a688-e8e5-4bdc-8a60-245a808e3129","system_id":"levelo_inurba_marseille","lat":43.27556,"lon":5.38434,"is_reserved":false,"is_disabled":false,"rental_uris":{"android":"levelo://app?vid=d405a688-e8e5-4bdc-8a60-245a808e3129","ios":"levelo://app?vid=d405a688-e8e5-4bdc-8a60-245a808e3129"},"vehicle_type_id":"4","last_reported":1750234485,"current_range_meters":14000,"station_id":"ce4bhh92rcd13ifvqfi0","pricing_plan_id":"cebpf4jnsgd1na2vs0mg"},{"bike_id":"3ec5f447-9536-4917-8ee7-ce8ef58406ed","system_id":"levelo_inurba_marseille","lat":43.25719,"lon":5.41106,"is_reserved":false,"is_disabled":false,"rental_uris":{"android":"levelo://app?vid=3ec5f447-9536-4917-8ee7-ce8ef58406ed","ios":"levelo://app?vid=3ec5f447-9536-4917-8ee7-ce8ef58406ed"},"vehicle_type_id":"4","last_reported":1750234485,"current_range_meters":14000,"station_id":"ce4bhkp2rcd13ifvqgd0","pricing_plan_id":"cebpf4jnsgd1na2vs0mg"},{"bike_id":"ffd553d7-2210-49b3-ace7-75c5f82947d2","system_id":"levelo_inurba_marseille","lat":43.23199,"lon":5.39981,"is_reserved":false,"is_disabled":false,"rental_uris":{"android":"levelo://app?vid=ffd553d7-2210-49b3-ace7-75c5f82947d2","ios":"levelo://app?vid=ffd553d7-2210-49b3-ace7-75c5f82947d2"},"vehicle_type_id":"4","last_reported":1750234485,"current_range_meters":14000,"station_id":"ce4bhn12rcd13ifvqgqg","pricing_plan_id":"cebpf4jnsgd1na2vs0mg"},{"bike_id":"bb6816ed-abc5-49f6-8309-be5fd7258ba0","system_id":"levelo_inurba_marseille","lat":43.23199,"lon":5.35561,"is_reserved":false,"is_disabled":false,"rental_uris":{"android":"levelo://app?vid=bb6816ed-abc5-49f6-8309-be5fd7258ba0","ios":"levelo://app?vid=bb6816ed-abc5-49f6-8309-be5fd7258ba0"},"vehicle_type_id":"4","last_reported":1750234485,"current_range_meters":14000,"station_id":"ce4bhu92rcd13ifvqi70","pricing_plan_id":"cebpf4jnsgd1na2vs0mg"},{"bike_id":"748b40b5-8f1c-4711-bade-847aefdb040d","system_id":"levelo_inurba_marseille","lat":43.31706,"lon":5.37399,"is_reserved":false,"is_disabled":false,"rental_uris":{"android":"levelo://app?vid=748b40b5-8f1c-4711-bade-847aefdb040d","ios":"levelo://app?vid=748b40b5-8f1c-4711-bade-847aefdb040d"},"vehicle_type_id":"4","last_reported":1750234485,"current_range_meters":14400,"station_id":"","pricing_plan_id":"cebpf4jnsgd1na2vs0mg"},{"bike_id":"4b8da722-ee9e-48a4-a5e5-3a8a10364708","system_id":"levelo_inurba_marseille","lat":43.312335,"lon":5.378136,"is_reserved":false,"is_disabled":false,"rental_uris":{"android":"levelo://app?vid=4b8da722-ee9e-48a4-a5e5-3a8a10364708","ios":"levelo://app?vid=4b8da722-ee9e-48a4-a5e5-3a8a10364708"},"vehicle_type_id":"4","last_reported":1750234485,"current_range_meters":14400,"station_id":"","pricing_plan_id":"cebpf4jnsgd1na2vs0mg"},{"bike_id":"2d7e1778-300e-4769-8854-305c49557808","system_id":"levelo_inurba_marseille","lat":43.29565,"lon":5.37515,"is_reserved":false,"is_disabled":false,"rental_uris":{"android":"levelo://app?vid=2d7e1778-300e-4769-8854-305c49557808","ios":"levelo://app?vid=2d7e1778-300e-4769-8854-305c49557808"},"vehicle_type_id":"4","last_reported":1750234485,"current_range_meters":14400,"station_id":"ce4bgh92rcd13ifvqb50","pricing_plan_id":"cebpf4jnsgd1na2vs0mg"},{"bike_id":"4e2c3ca8-2a28-4abe-87b1-e2a83a1bd755","system_id":"levelo_inurba_marseille","lat":43.29846,"lon":5.36274,"is_reserved":false,"is_disabled":false,"rental_uris":{"android":"levelo://app?vid=4e2c3ca8-2a28-4abe-87b1-e2a83a1bd755","ios":"levelo://app?vid=4e2c3ca8-2a28-4abe-87b1-e2a83a1bd755"},"vehicle_type_id":"4","last_reported":1750234485,"current_range_meters":14400,"station_id":"ce4bgpp2rcd13ifvqc3g","pricing_plan_id":"cebpf4jnsgd1na2vs0mg"},{"bike_id":"4823025e-a7f4-493e-8259-a890c4360df6","system_id":"levelo_inurba_marseille","lat":43.30316,"lon":5.36913,"is_reserved":false,"is_disabled":false,"rental_uris":{"android":"levelo://app?vid=4823025e-a7f4-493e-8259-a890c4360df6","ios":"levelo://app?vid=4823025e-a7f4-493e-8259-a890c4360df6"},"vehicle_type_id":"4","last_reported":1750234485,"current_range_meters":14400,"station_id":"ce4bgqh2rcd13ifvqc5g","pricing_plan_id":"cebpf4jnsgd1na2vs0mg"},{"bike_id":"a60724fd-2425-41c1-a369-875919c112ae","system_id":"levelo_inurba_marseille","lat":43.30538,"lon":5.36544,"is_reserved":false,"is_disabled":false,"rental_uris":{"android":"levelo://app?vid=a60724fd-2425-41c1-a369-875919c112ae","ios":"levelo://app?vid=a60724fd-2425-41c1-a369-875919c112ae"},"vehicle_type_id":"4","last_reported":1750234485,"current_range_meters":14400,"station_id":"ce4bgs12rcd13ifvqcag","pricing_plan_id":"cebpf4jnsgd1na2vs0mg"},{"bike_id":"bf926316-c2d2-4b23-8f2b-109a2206ed7c","system_id":"levelo_inurba_marseille","lat":43.30138,"lon":5.37419,"is_reserved":false,"is_disabled":false,"rental_uris":{"android":"levelo://app?vid=bf926316-c2d2-4b23-8f2b-109a2206ed7c","ios":"levelo://app?vid=bf926316-c2d2-4b23-8f2b-109a2206ed7c"},"vehicle_type_id":"4","last_reported":1750234485,"current_range_meters":14400,"station_id":"ce4bgs92rcd13ifvqcc0","pricing_plan_id":"cebpf4jnsgd1na2vs0mg"},{"bike_id":"de432a01-1dfd-476c-a018-c16583f5a60e","system_id":"levelo_inurba_marseille","lat":43.31369,"lon":5.3849,"is_reserved":false,"is_disabled":false,"rental_uris":{"android":"levelo://app?vid=de432a01-1dfd-476c-a018-c16583f5a60e","ios":"levelo://app?vid=de432a01-1dfd-476c-a018-c16583f5a60e"},"vehicle_type_id":"4","last_reported":1750234485,"current_range_meters":14400,"station_id":"ce4bgt92rcd13ifvqcf0","pricing_plan_id":"cebpf4jnsgd1na2vs0mg"},{"bike_id":"e5a3bf1b-7050-4502-973a-5bce6783c1bc","system_id":"levelo_inurba_marseille","lat":43.31715,"lon":5.37751,"is_reserved":false,"is_disabled":false,"rental_uris":{"android":"levelo://app?vid=e5a3bf1b-7050-4502-973a-5bce6783c1bc","ios":"levelo://app?vid=e5a3bf1b-7050-4502-973a-5bce6783c1bc"},"vehicle_type_id":"4","last_reported":1750234485,"current_range_meters":14400,"station_id":"ce4bgth2rcd13ifvqch0","pricing_plan_id":"cebpf4jnsgd1na2vs0mg"},{"bike_id":"8737eba2-0720-4e29-949e-0f8cab6bf39f","system_id":"levelo_inurba_marseille","lat":43.24659,"lon":5.38169,"is_reserved":false,"is_disabled":false,"rental_uris":{"android":"levelo://app?vid=8737eba2-0720-4e29-949e-0f8cab6bf39f","ios":"levelo://app?vid=8737eba2-0720-4e29-949e-0f8cab6bf39f"},"vehicle_type_id":"4","last_reported":1750234485,"current_range_meters":14400,"station_id":"ce4bhih2rcd13ifvqfr0","pricing_plan_id":"cebpf4jnsgd1na2vs0mg"},{"bike_id":"cc8086c3-023b-4662-b7ba-91199240f1a1","system_id":"levelo_inurba_marseille","lat":43.23052,"lon":5.35493,"is_reserved":false,"is_disabled":false,"rental_uris":{"android":"levelo://app?vid=cc8086c3-023b-4662-b7ba-91199240f1a1","ios":"levelo://app?vid=cc8086c3-023b-4662-b7ba-91199240f1a1"},"vehicle_type_id":"4","last_reported":1750234485,"current_range_meters":14400,"station_id":"cpo3342slgdg3j2ifvpg","pricing_plan_id":"cebpf4jnsgd1na2vs0mg"},{"bike_id":"b9740617-416c-49ef-a593-d345aa13726b","system_id":"levelo_inurba_marseille","lat":43.26998,"lon":5.431693,"is_reserved":false,"is_disabled":false,"rental_uris":{"android":"levelo://app?vid=b9740617-416c-49ef-a593-d345aa13726b","ios":"levelo://app?vid=b9740617-416c-49ef-a593-d345aa13726b"},"vehicle_type_id":"4","last_reported":1750234485,"current_range_meters":14800,"station_id":"","pricing_plan_id":"cebpf4jnsgd1na2vs0mg"},{"bike_id":"0dedb6f6-6801-483b-bfb8-9cd4533d158f","system_id":"levelo_inurba_marseille","lat":43.31141,"lon":5.3807,"is_reserved":false,"is_disabled":false,"rental_uris":{"android":"levelo://app?vid=0dedb6f6-6801-483b-bfb8-9cd4533d158f","ios":"levelo://app?vid=0dedb6f6-6801-483b-bfb8-9cd4533d158f"},"vehicle_type_id":"4","last_reported":1750234485,"current_range_meters":14800,"station_id":"","pricing_plan_id":"cebpf4jnsgd1na2vs0mg"},{"bike_id":"9419eee2-4cbd-46ea-8a19-a98bf3b8c7ee","system_id":"levelo_inurba_marseille","lat":43.322472,"lon":5.382949,"is_reserved":false,"is_disabled":false,"rental_uris":{"android":"levelo://app?vid=9419eee2-4cbd-46ea-8a19-a98bf3b8c7ee","ios":"levelo://app?vid=9419eee2-4cbd-46ea-8a19-a98bf3b8c7ee"},"vehicle_type_id":"4","last_reported":1750234485,"current_range_meters":14800,"station_id":"ce4bhr12rcd13ifvqhqg","pricing_plan_id":"cebpf4jnsgd1na2vs0mg"},{"bike_id":"4cda9327-46c6-426e-87dd-c291d5dc5ff7","system_id":"levelo_inurba_marseille","lat":43.2119,"lon":5.35078,"is_reserved":false,"is_disabled":false,"rental_uris":{"android":"levelo://app?vid=4cda9327-46c6-426e-87dd-c291d5dc5ff7","ios":"levelo://app?vid=4cda9327-46c6-426e-87dd-c291d5dc5ff7"},"vehicle_type_id":"4","last_reported":1750234485,"current_range_meters":14800,"station_id":"st_cvj6sg6p6f1abm77japg","pricing_plan_id":"cebpf4jnsgd1na2vs0mg"},{"bike_id":"a34a106c-3bd7-4c58-b3de-1018322b911a","system_id":"levelo_inurba_marseille","lat":43.29271,"lon":5.368397,"is_reserved":false,"is_disabled":false,"rental_uris":{"android":"levelo://app?vid=a34a106c-3bd7-4c58-b3de-1018322b911a","ios":"levelo://app?vid=a34a106c-3bd7-4c58-b3de-1018322b911a"},"vehicle_type_id":"4","last_reported":1750234485,"current_range_meters":15200,"station_id":"ce4bhbp2rcd13ifvqesg","pricing_plan_id":"cebpf4jnsgd1na2vs0mg"},{"bike_id":"9e6b6795-72a7-4c2f-ae9a-06b58fcd1632","system_id":"levelo_inurba_marseille","lat":43.25903,"lon":5.40854,"is_reserved":false,"is_disabled":false,"rental_uris":{"android":"levelo://app?vid=9e6b6795-72a7-4c2f-ae9a-06b58fcd1632","ios":"levelo://app?vid=9e6b6795-72a7-4c2f-ae9a-06b58fcd1632"},"vehicle_type_id":"4","last_reported":1750234485,"current_range_meters":15200,"station_id":"ce4bhm92rcd13ifvqglg","pricing_plan_id":"cebpf4jnsgd1na2vs0mg"},{"bike_id":"2b1fb361-9323-4ad2-b985-6f2dcc632273","system_id":"levelo_inurba_marseille","lat":43.23154,"lon":5.43717,"is_reserved":false,"is_disabled":false,"rental_uris":{"android":"levelo://app?vid=2b1fb361-9323-4ad2-b985-6f2dcc632273","ios":"levelo://app?vid=2b1fb361-9323-4ad2-b985-6f2dcc632273"},"vehicle_type_id":"4","last_reported":1750234485,"current_range_meters":15200,"station_id":"ce4bhmp2rcd13ifvqgog","pricing_plan_id":"cebpf4jnsgd1na2vs0mg"},{"bike_id":"9fd7bb63-ff0e-4a0d-8f74-13d436406339","system_id":"levelo_inurba_marseille","lat":43.24177,"lon":5.39724,"is_reserved":false,"is_disabled":false,"rental_uris":{"android":"levelo://app?vid=9fd7bb63-ff0e-4a0d-8f74-13d436406339","ios":"levelo://app?vid=9fd7bb63-ff0e-4a0d-8f74-13d436406339"},"vehicle_type_id":"4","last_reported":1750234485,"current_range_meters":15200,"station_id":"ce4bhn12rcd13ifvqgpg","pricing_plan_id":"cebpf4jnsgd1na2vs0mg"},{"bike_id":"653a05d9-205d-420f-b0c9-a638667f0917","system_id":"levelo_inurba_marseille","lat":43.21192,"lon":5.35064,"is_reserved":false,"is_disabled":false,"rental_uris":{"android":"levelo://app?vid=653a05d9-205d-420f-b0c9-a638667f0917","ios":"levelo://app?vid=653a05d9-205d-420f-b0c9-a638667f0917"},"vehicle_type_id":"4","last_reported":1750234485,"current_range_meters":15200,"station_id":"st_cvj6sg6p6f1abm77japg","pricing_plan_id":"cebpf4jnsgd1na2vs0mg"},{"bike_id":"bba11897-d53d-43df-88f7-3bb99fb0e77b","system_id":"levelo_inurba_marseille","lat":43.309886,"lon":5.389943,"is_reserved":false,"is_disabled":false,"rental_uris":{"android":"levelo://app?vid=bba11897-d53d-43df-88f7-3bb99fb0e77b","ios":"levelo://app?vid=bba11897-d53d-43df-88f7-3bb99fb0e77b"},"vehicle_type_id":"4","last_reported":1750234485,"current_range_meters":16000,"station_id":"ce4bgup2rcd13ifvqco0","pricing_plan_id":"cebpf4jnsgd1na2vs0mg"},{"bike_id":"c26c404f-4602-4ced-a562-c0df6f19d6ca","system_id":"levelo_inurba_marseille","lat":43.26211,"lon":5.37441,"is_reserved":false,"is_disabled":false,"rental_uris":{"android":"levelo://app?vid=c26c404f-4602-4ced-a562-c0df6f19d6ca","ios":"levelo://app?vid=c26c404f-4602-4ced-a562-c0df6f19d6ca"},"vehicle_type_id":"4","last_reported":1750234485,"current_range_meters":16000,"station_id":"ce4bhgp2rcd13ifvqfc0","pricing_plan_id":"cebpf4jnsgd1na2vs0mg"},{"bike_id":"7cae9e26-d06b-4e8d-af98-027f10a31426","system_id":"levelo_inurba_marseille","lat":43.23965,"lon":5.36624,"is_reserved":false,"is_disabled":false,"rental_uris":{"android":"levelo://app?vid=7cae9e26-d06b-4e8d-af98-027f10a31426","ios":"levelo://app?vid=7cae9e26-d06b-4e8d-af98-027f10a31426"},"vehicle_type_id":"4","last_reported":1750234485,"current_range_meters":16000,"station_id":"ce4bhi12rcd13ifvqfp0","pricing_plan_id":"cebpf4jnsgd1na2vs0mg"},{"bike_id":"268aafb4-1331-426c-97bc-a7d6564caeb6","system_id":"levelo_inurba_marseille","lat":43.32933,"lon":5.37919,"is_reserved":false,"is_disabled":false,"rental_uris":{"android":"levelo://app?vid=268aafb4-1331-426c-97bc-a7d6564caeb6","ios":"levelo://app?vid=268aafb4-1331-426c-97bc-a7d6564caeb6"},"vehicle_type_id":"4","last_reported":1750234485,"current_range_meters":16400,"station_id":"","pricing_plan_id":"cebpf4jnsgd1na2vs0mg"},{"bike_id":"3151b431-ae3a-411c-8189-09c45ab38d79","system_id":"levelo_inurba_marseille","lat":43.308644,"lon":5.371894,"is_reserved":false,"is_disabled":false,"rental_uris":{"android":"levelo://app?vid=3151b431-ae3a-411c-8189-09c45ab38d79","ios":"levelo://app?vid=3151b431-ae3a-411c-8189-09c45ab38d79"},"vehicle_type_id":"4","last_reported":1750234485,"current_range_meters":16400,"station_id":"ce4bguh2rcd13ifvqckg","pricing_plan_id":"cebpf4jnsgd1na2vs0mg"},{"bike_id":"1147287d-f656-4307-aa45-3da78096d08b","system_id":"levelo_inurba_marseille","lat":43.30952,"lon":5.3903,"is_reserved":false,"is_disabled":false,"rental_uris":{"android":"levelo://app?vid=1147287d-f656-4307-aa45-3da78096d08b","ios":"levelo://app?vid=1147287d-f656-4307-aa45-3da78096d08b"},"vehicle_type_id":"4","last_reported":1750234485,"current_range_meters":16400,"station_id":"ce4bgup2rcd13ifvqco0","pricing_plan_id":"cebpf4jnsgd1na2vs0mg"},{"bike_id":"261b5fae-8e34-4cd2-91ab-712e590025c9","system_id":"levelo_inurba_marseille","lat":43.28275,"lon":5.35061,"is_reserved":false,"is_disabled":false,"rental_uris":{"android":"levelo://app?vid=261b5fae-8e34-4cd2-91ab-712e590025c9","ios":"levelo://app?vid=261b5fae-8e34-4cd2-91ab-712e590025c9"},"vehicle_type_id":"4","last_reported":1750234485,"current_range_meters":16400,"station_id":"ce4bhbp2rcd13ifvqerg","pricing_plan_id":"cebpf4jnsgd1na2vs0mg"},{"bike_id":"70a08be0-ce5b-4d19-9244-d18a8a4e00b3","system_id":"levelo_inurba_marseille","lat":43.24175,"lon":5.39724,"is_reserved":false,"is_disabled":false,"rental_uris":{"android":"levelo://app?vid=70a08be0-ce5b-4d19-9244-d18a8a4e00b3","ios":"levelo://app?vid=70a08be0-ce5b-4d19-9244-d18a8a4e00b3"},"vehicle_type_id":"4","last_reported":1750234485,"current_range_meters":16400,"station_id":"ce4bhn12rcd13ifvqgpg","pricing_plan_id":"cebpf4jnsgd1na2vs0mg"},{"bike_id":"3a36c9f3-b80b-444d-90e6-1b15063ea03c","system_id":"levelo_inurba_marseille","lat":43.32109,"lon":5.36766,"is_reserved":false,"is_disabled":false,"rental_uris":{"android":"levelo://app?vid=3a36c9f3-b80b-444d-90e6-1b15063ea03c","ios":"levelo://app?vid=3a36c9f3-b80b-444d-90e6-1b15063ea03c"},"vehicle_type_id":"4","last_reported":1750234485,"current_range_meters":16400,"station_id":"ce4bhrh2rcd13ifvqhug","pricing_plan_id":"cebpf4jnsgd1na2vs0mg"},{"bike_id":"f025e0b0-8595-426c-b214-cb9b74c5fcfd","system_id":"levelo_inurba_marseille","lat":43.32188,"lon":5.4056,"is_reserved":false,"is_disabled":false,"rental_uris":{"android":"levelo://app?vid=f025e0b0-8595-426c-b214-cb9b74c5fcfd","ios":"levelo://app?vid=f025e0b0-8595-426c-b214-cb9b74c5fcfd"},"vehicle_type_id":"4","last_reported":1750234485,"current_range_meters":16800,"station_id":"","pricing_plan_id":"cebpf4jnsgd1na2vs0mg"},{"bike_id":"2561f5be-a5da-4006-909a-87e7eb88a505","system_id":"levelo_inurba_marseille","lat":43.29838,"lon":5.36265,"is_reserved":false,"is_disabled":false,"rental_uris":{"android":"levelo://app?vid=2561f5be-a5da-4006-909a-87e7eb88a505","ios":"levelo://app?vid=2561f5be-a5da-4006-909a-87e7eb88a505"},"vehicle_type_id":"4","last_reported":1750234485,"current_range_meters":16800,"station_id":"ce4bgpp2rcd13ifvqc3g","pricing_plan_id":"cebpf4jnsgd1na2vs0mg"},{"bike_id":"8b146626-23e4-4258-8262-90b3b385fd5a","system_id":"levelo_inurba_marseille","lat":43.301819,"lon":5.36624,"is_reserved":false,"is_disabled":false,"rental_uris":{"android":"levelo://app?vid=8b146626-23e4-4258-8262-90b3b385fd5a","ios":"levelo://app?vid=8b146626-23e4-4258-8262-90b3b385fd5a"},"vehicle_type_id":"4","last_reported":1750234485,"current_range_meters":16800,"station_id":"ce4bgrh2rcd13ifvqc8g","pricing_plan_id":"cebpf4jnsgd1na2vs0mg"},{"bike_id":"5455f314-6ba9-46ca-8290-8461ec011158","system_id":"levelo_inurba_marseille","lat":43.30186,"lon":5.36602,"is_reserved":false,"is_disabled":false,"rental_uris":{"android":"levelo://app?vid=5455f314-6ba9-46ca-8290-8461ec011158","ios":"levelo://app?vid=5455f314-6ba9-46ca-8290-8461ec011158"},"vehicle_type_id":"4","last_reported":1750234485,"current_range_meters":16800,"station_id":"ce4bgrh2rcd13ifvqc8g","pricing_plan_id":"cebpf4jnsgd1na2vs0mg"},{"bike_id":"fc88f6dc-7af2-4bd4-bfd9-66bcd5434564","system_id":"levelo_inurba_marseille","lat":43.30467,"lon":5.37917,"is_reserved":false,"is_disabled":false,"rental_uris":{"android":"levelo://app?vid=fc88f6dc-7af2-4bd4-bfd9-66bcd5434564","ios":"levelo://app?vid=fc88f6dc-7af2-4bd4-bfd9-66bcd5434564"},"vehicle_type_id":"4","last_reported":1750234485,"current_range_meters":16800,"station_id":"ce4bgup2rcd13ifvqcn0","pricing_plan_id":"cebpf4jnsgd1na2vs0mg"},{"bike_id":"cfc3fef4-f93f-49bc-ba62-ea97fc2c8db8","system_id":"levelo_inurba_marseille","lat":43.28416,"lon":5.34975,"is_reserved":false,"is_disabled":false,"rental_uris":{"android":"levelo://app?vid=cfc3fef4-f93f-49bc-ba62-ea97fc2c8db8","ios":"levelo://app?vid=cfc3fef4-f93f-49bc-ba62-ea97fc2c8db8"},"vehicle_type_id":"4","last_reported":1750234485,"current_range_meters":16800,"station_id":"ce4bhbh2rcd13ifvqepg","pricing_plan_id":"cebpf4jnsgd1na2vs0mg"},{"bike_id":"df4f5c28-3221-41a0-b096-aee0f80c1231","system_id":"levelo_inurba_marseille","lat":43.243892,"lon":5.370513,"is_reserved":false,"is_disabled":false,"rental_uris":{"android":"levelo://app?vid=df4f5c28-3221-41a0-b096-aee0f80c1231","ios":"levelo://app?vid=df4f5c28-3221-41a0-b096-aee0f80c1231"},"vehicle_type_id":"4","last_reported":1750234485,"current_range_meters":16800,"station_id":"ce4bhhh2rcd13ifvqfk0","pricing_plan_id":"cebpf4jnsgd1na2vs0mg"},{"bike_id":"d6b59448-6161-4e70-befd-235ecc0fb1fc","system_id":"levelo_inurba_marseille","lat":43.231885,"lon":5.35559,"is_reserved":false,"is_disabled":false,"rental_uris":{"android":"levelo://app?vid=d6b59448-6161-4e70-befd-235ecc0fb1fc","ios":"levelo://app?vid=d6b59448-6161-4e70-befd-235ecc0fb1fc"},"vehicle_type_id":"4","last_reported":1750234485,"current_range_meters":16800,"station_id":"ce4bhu92rcd13ifvqi70","pricing_plan_id":"cebpf4jnsgd1na2vs0mg"},{"bike_id":"e921cee3-b8ce-4c00-b7eb-8ab335b5e125","system_id":"levelo_inurba_marseille","lat":43.30201,"lon":5.42277,"is_reserved":false,"is_disabled":false,"rental_uris":{"android":"levelo://app?vid=e921cee3-b8ce-4c00-b7eb-8ab335b5e125","ios":"levelo://app?vid=e921cee3-b8ce-4c00-b7eb-8ab335b5e125"},"vehicle_type_id":"4","last_reported":1750234485,"current_range_meters":17200,"station_id":"","pricing_plan_id":"cebpf4jnsgd1na2vs0mg"},{"bike_id":"ae2fdae3-50bf-4bd1-ba6e-560530838045","system_id":"levelo_inurba_marseille","lat":43.2632,"lon":5.37394,"is_reserved":false,"is_disabled":false,"rental_uris":{"android":"levelo://app?vid=ae2fdae3-50bf-4bd1-ba6e-560530838045","ios":"levelo://app?vid=ae2fdae3-50bf-4bd1-ba6e-560530838045"},"vehicle_type_id":"4","last_reported":1750234485,"current_range_meters":17200,"station_id":"","pricing_plan_id":"cebpf4jnsgd1na2vs0mg"},{"bike_id":"0af6827f-37b3-4b29-aa65-05e625b8db92","system_id":"levelo_inurba_marseille","lat":43.31325,"lon":5.36773,"is_reserved":false,"is_disabled":false,"rental_uris":{"android":"levelo://app?vid=0af6827f-37b3-4b29-aa65-05e625b8db92","ios":"levelo://app?vid=0af6827f-37b3-4b29-aa65-05e625b8db92"},"vehicle_type_id":"4","last_reported":1750234485,"current_range_meters":17200,"station_id":"","pricing_plan_id":"cebpf4jnsgd1na2vs0mg"},{"bike_id":"ecc98687-ea75-49cd-bab6-e74bc996927d","system_id":"levelo_inurba_marseille","lat":43.30534,"lon":5.36545,"is_reserved":false,"is_disabled":false,"rental_uris":{"android":"levelo://app?vid=ecc98687-ea75-49cd-bab6-e74bc996927d","ios":"levelo://app?vid=ecc98687-ea75-49cd-bab6-e74bc996927d"},"vehicle_type_id":"4","last_reported":1750234485,"current_range_meters":17200,"station_id":"ce4bgs12rcd13ifvqcag","pricing_plan_id":"cebpf4jnsgd1na2vs0mg"},{"bike_id":"05d706c4-5263-4444-a279-47fccd6231be","system_id":"levelo_inurba_marseille","lat":43.26214,"lon":5.37444,"is_reserved":false,"is_disabled":false,"rental_uris":{"android":"levelo://app?vid=05d706c4-5263-4444-a279-47fccd6231be","ios":"levelo://app?vid=05d706c4-5263-4444-a279-47fccd6231be"},"vehicle_type_id":"4","last_reported":1750234485,"current_range_meters":17200,"station_id":"ce4bhgp2rcd13ifvqfc0","pricing_plan_id":"cebpf4jnsgd1na2vs0mg"},{"bike_id":"54cc543a-33cf-441f-9d8e-d83f83c5448d","system_id":"levelo_inurba_marseille","lat":43.2732,"lon":5.39084,"is_reserved":false,"is_disabled":false,"rental_uris":{"android":"levelo://app?vid=54cc543a-33cf-441f-9d8e-d83f83c5448d","ios":"levelo://app?vid=54cc543a-33cf-441f-9d8e-d83f83c5448d"},"vehicle_type_id":"4","last_reported":1750234485,"current_range_meters":17200,"station_id":"ce4bhgp2rcd13ifvqfe0","pricing_plan_id":"cebpf4jnsgd1na2vs0mg"},{"bike_id":"4f3842ae-753d-4560-bc4f-364adf58b7f8","system_id":"levelo_inurba_marseille","lat":43.25933,"lon":5.40909,"is_reserved":false,"is_disabled":false,"rental_uris":{"android":"levelo://app?vid=4f3842ae-753d-4560-bc4f-364adf58b7f8","ios":"levelo://app?vid=4f3842ae-753d-4560-bc4f-364adf58b7f8"},"vehicle_type_id":"4","last_reported":1750234485,"current_range_meters":17200,"station_id":"ce4bhm92rcd13ifvqglg","pricing_plan_id":"cebpf4jnsgd1na2vs0mg"},{"bike_id":"d1a40c3e-44a4-4b9a-97c3-90a5bd273762","system_id":"levelo_inurba_marseille","lat":43.24172,"lon":5.39743,"is_reserved":false,"is_disabled":false,"rental_uris":{"android":"levelo://app?vid=d1a40c3e-44a4-4b9a-97c3-90a5bd273762","ios":"levelo://app?vid=d1a40c3e-44a4-4b9a-97c3-90a5bd273762"},"vehicle_type_id":"4","last_reported":1750234485,"current_range_meters":17200,"station_id":"ce4bhn12rcd13ifvqgpg","pricing_plan_id":"cebpf4jnsgd1na2vs0mg"},{"bike_id":"7091b35b-bd3e-463c-8b18-ffddd3cc8b9d","system_id":"levelo_inurba_marseille","lat":43.29271,"lon":5.36853,"is_reserved":false,"is_disabled":false,"rental_uris":{"android":"levelo://app?vid=7091b35b-bd3e-463c-8b18-ffddd3cc8b9d","ios":"levelo://app?vid=7091b35b-bd3e-463c-8b18-ffddd3cc8b9d"},"vehicle_type_id":"4","last_reported":1750234485,"current_range_meters":17600,"station_id":"ce4bhbp2rcd13ifvqesg","pricing_plan_id":"cebpf4jnsgd1na2vs0mg"},{"bike_id":"ee85577e-045e-4acb-a900-538c6606293b","system_id":"levelo_inurba_marseille","lat":43.27318,"lon":5.39108,"is_reserved":false,"is_disabled":false,"rental_uris":{"android":"levelo://app?vid=ee85577e-045e-4acb-a900-538c6606293b","ios":"levelo://app?vid=ee85577e-045e-4acb-a900-538c6606293b"},"vehicle_type_id":"4","last_reported":1750234485,"current_range_meters":17600,"station_id":"ce4bhgp2rcd13ifvqfe0","pricing_plan_id":"cebpf4jnsgd1na2vs0mg"},{"bike_id":"a1400340-ade0-4e90-bc81-e640ea44a43b","system_id":"levelo_inurba_marseille","lat":43.25733,"lon":5.4112,"is_reserved":false,"is_disabled":false,"rental_uris":{"android":"levelo://app?vid=a1400340-ade0-4e90-bc81-e640ea44a43b","ios":"levelo://app?vid=a1400340-ade0-4e90-bc81-e640ea44a43b"},"vehicle_type_id":"4","last_reported":1750234485,"current_range_meters":17600,"station_id":"ce4bhkp2rcd13ifvqgd0","pricing_plan_id":"cebpf4jnsgd1na2vs0mg"},{"bike_id":"5c9878b4-89f1-4442-84b0-44598b017874","system_id":"levelo_inurba_marseille","lat":43.25932,"lon":5.409,"is_reserved":false,"is_disabled":false,"rental_uris":{"android":"levelo://app?vid=5c9878b4-89f1-4442-84b0-44598b017874","ios":"levelo://app?vid=5c9878b4-89f1-4442-84b0-44598b017874"},"vehicle_type_id":"4","last_reported":1750234485,"current_range_meters":17600,"station_id":"ce4bhm92rcd13ifvqglg","pricing_plan_id":"cebpf4jnsgd1na2vs0mg"},{"bike_id":"cfef7392-1433-476b-a989-3fb180315ec3","system_id":"levelo_inurba_marseille","lat":43.2417,"lon":5.39706,"is_reserved":false,"is_disabled":false,"rental_uris":{"android":"levelo://app?vid=cfef7392-1433-476b-a989-3fb180315ec3","ios":"levelo://app?vid=cfef7392-1433-476b-a989-3fb180315ec3"},"vehicle_type_id":"4","last_reported":1750234485,"current_range_meters":17600,"station_id":"ce4bhn12rcd13ifvqgpg","pricing_plan_id":"cebpf4jnsgd1na2vs0mg"},{"bike_id":"efb16fb0-12ee-403f-9419-bf2e06ac454e","system_id":"levelo_inurba_marseille","lat":43.24064,"lon":5.37764,"is_reserved":false,"is_disabled":false,"rental_uris":{"android":"levelo://app?vid=efb16fb0-12ee-403f-9419-bf2e06ac454e","ios":"levelo://app?vid=efb16fb0-12ee-403f-9419-bf2e06ac454e"},"vehicle_type_id":"4","last_reported":1750234485,"current_range_meters":17600,"station_id":"ce4bhnp2rcd13ifvqgvg","pricing_plan_id":"cebpf4jnsgd1na2vs0mg"},{"bike_id":"265a59d9-3169-42bd-bfb9-d9777adeacff","system_id":"levelo_inurba_marseille","lat":43.32655,"lon":5.40995,"is_reserved":false,"is_disabled":false,"rental_uris":{"android":"levelo://app?vid=265a59d9-3169-42bd-bfb9-d9777adeacff","ios":"levelo://app?vid=265a59d9-3169-42bd-bfb9-d9777adeacff"},"vehicle_type_id":"4","last_reported":1750234485,"current_range_meters":17600,"station_id":"ce4bhpp2rcd13ifvqhgg","pricing_plan_id":"cebpf4jnsgd1na2vs0mg"},{"bike_id":"a7269e3f-e2c4-4028-b2ed-51436c8cf697","system_id":"levelo_inurba_marseille","lat":43.21196,"lon":5.35067,"is_reserved":false,"is_disabled":false,"rental_uris":{"android":"levelo://app?vid=a7269e3f-e2c4-4028-b2ed-51436c8cf697","ios":"levelo://app?vid=a7269e3f-e2c4-4028-b2ed-51436c8cf697"},"vehicle_type_id":"4","last_reported":1750234485,"current_range_meters":17600,"station_id":"st_cvj6sg6p6f1abm77japg","pricing_plan_id":"cebpf4jnsgd1na2vs0mg"},{"bike_id":"4b6b2a2b-d3c4-4663-8ea1-de4eff39b7b2","system_id":"levelo_inurba_marseille","lat":43.2119,"lon":5.35065,"is_reserved":false,"is_disabled":false,"rental_uris":{"android":"levelo://app?vid=4b6b2a2b-d3c4-4663-8ea1-de4eff39b7b2","ios":"levelo://app?vid=4b6b2a2b-d3c4-4663-8ea1-de4eff39b7b2"},"vehicle_type_id":"4","last_reported":1750234485,"current_range_meters":17600,"station_id":"st_cvj6sg6p6f1abm77japg","pricing_plan_id":"cebpf4jnsgd1na2vs0mg"},{"bike_id":"a85b2000-e3ea-4c9d-8512-f632fbae13d6","system_id":"levelo_inurba_marseille","lat":43.3015,"lon":5.40099,"is_reserved":false,"is_disabled":false,"rental_uris":{"android":"levelo://app?vid=a85b2000-e3ea-4c9d-8512-f632fbae13d6","ios":"levelo://app?vid=a85b2000-e3ea-4c9d-8512-f632fbae13d6"},"vehicle_type_id":"4","last_reported":1750234485,"current_range_meters":18000,"station_id":"","pricing_plan_id":"cebpf4jnsgd1na2vs0mg"},{"bike_id":"3cbf3f59-e5f5-49e2-b506-aa870488a870","system_id":"levelo_inurba_marseille","lat":43.31387,"lon":5.36837,"is_reserved":false,"is_disabled":false,"rental_uris":{"android":"levelo://app?vid=3cbf3f59-e5f5-49e2-b506-aa870488a870","ios":"levelo://app?vid=3cbf3f59-e5f5-49e2-b506-aa870488a870"},"vehicle_type_id":"4","last_reported":1750234485,"current_range_meters":18000,"station_id":"","pricing_plan_id":"cebpf4jnsgd1na2vs0mg"},{"bike_id":"9904cd74-64b0-4876-8b66-b6d76180e221","system_id":"levelo_inurba_marseille","lat":43.29838,"lon":5.36272,"is_reserved":false,"is_disabled":false,"rental_uris":{"android":"levelo://app?vid=9904cd74-64b0-4876-8b66-b6d76180e221","ios":"levelo://app?vid=9904cd74-64b0-4876-8b66-b6d76180e221"},"vehicle_type_id":"4","last_reported":1750234485,"current_range_meters":18000,"station_id":"ce4bgpp2rcd13ifvqc3g","pricing_plan_id":"cebpf4jnsgd1na2vs0mg"},{"bike_id":"a43da8b1-54d1-4d4d-80a0-0d1413f9877c","system_id":"levelo_inurba_marseille","lat":43.30558,"lon":5.36535,"is_reserved":false,"is_disabled":false,"rental_uris":{"android":"levelo://app?vid=a43da8b1-54d1-4d4d-80a0-0d1413f9877c","ios":"levelo://app?vid=a43da8b1-54d1-4d4d-80a0-0d1413f9877c"},"vehicle_type_id":"4","last_reported":1750234485,"current_range_meters":18000,"station_id":"ce4bgs12rcd13ifvqcag","pricing_plan_id":"cebpf4jnsgd1na2vs0mg"},{"bike_id":"c9fbdbdd-e36f-476c-97ed-eed9a03f40ae","system_id":"levelo_inurba_marseille","lat":43.290986,"lon":5.381216,"is_reserved":false,"is_disabled":false,"rental_uris":{"android":"levelo://app?vid=c9fbdbdd-e36f-476c-97ed-eed9a03f40ae","ios":"levelo://app?vid=c9fbdbdd-e36f-476c-97ed-eed9a03f40ae"},"vehicle_type_id":"4","last_reported":1750234485,"current_range_meters":18000,"station_id":"ce4bh512rcd13ifvqe2g","pricing_plan_id":"cebpf4jnsgd1na2vs0mg"},{"bike_id":"585259ad-ba2c-4ce6-8a01-013d223950d8","system_id":"levelo_inurba_marseille","lat":43.2842,"lon":5.34979,"is_reserved":false,"is_disabled":false,"rental_uris":{"android":"levelo://app?vid=585259ad-ba2c-4ce6-8a01-013d223950d8","ios":"levelo://app?vid=585259ad-ba2c-4ce6-8a01-013d223950d8"},"vehicle_type_id":"4","last_reported":1750234485,"current_range_meters":18000,"station_id":"ce4bhbh2rcd13ifvqepg","pricing_plan_id":"cebpf4jnsgd1na2vs0mg"},{"bike_id":"1045cbb5-2783-402c-ba9b-01077b046095","system_id":"levelo_inurba_marseille","lat":43.2842,"lon":5.34981,"is_reserved":false,"is_disabled":false,"rental_uris":{"android":"levelo://app?vid=1045cbb5-2783-402c-ba9b-01077b046095","ios":"levelo://app?vid=1045cbb5-2783-402c-ba9b-01077b046095"},"vehicle_type_id":"4","last_reported":1750234485,"current_range_meters":18000,"station_id":"ce4bhbh2rcd13ifvqepg","pricing_plan_id":"cebpf4jnsgd1na2vs0mg"},{"bike_id":"a004d7f2-75e1-49e9-b073-ad13bcf23d1e","system_id":"levelo_inurba_marseille","lat":43.23191,"lon":5.35546,"is_reserved":false,"is_disabled":false,"rental_uris":{"android":"levelo://app?vid=a004d7f2-75e1-49e9-b073-ad13bcf23d1e","ios":"levelo://app?vid=a004d7f2-75e1-49e9-b073-ad13bcf23d1e"},"vehicle_type_id":"4","last_reported":1750234485,"current_range_meters":18000,"station_id":"ce4bhu92rcd13ifvqi70","pricing_plan_id":"cebpf4jnsgd1na2vs0mg"},{"bike_id":"c6b75037-338d-440a-a322-0c900bccd77f","system_id":"levelo_inurba_marseille","lat":43.28473,"lon":5.3855,"is_reserved":false,"is_disabled":false,"rental_uris":{"android":"levelo://app?vid=c6b75037-338d-440a-a322-0c900bccd77f","ios":"levelo://app?vid=c6b75037-338d-440a-a322-0c900bccd77f"},"vehicle_type_id":"4","last_reported":1750234485,"current_range_meters":18800,"station_id":"","pricing_plan_id":"cebpf4jnsgd1na2vs0mg"},{"bike_id":"77ac8037-3c3c-493a-82c2-904a9ad6c7d0","system_id":"levelo_inurba_marseille","lat":43.26835,"lon":5.39049,"is_reserved":false,"is_disabled":false,"rental_uris":{"android":"levelo://app?vid=77ac8037-3c3c-493a-82c2-904a9ad6c7d0","ios":"levelo://app?vid=77ac8037-3c3c-493a-82c2-904a9ad6c7d0"},"vehicle_type_id":"4","last_reported":1750234485,"current_range_meters":18800,"station_id":"","pricing_plan_id":"cebpf4jnsgd1na2vs0mg"},{"bike_id":"cd6b0f39-6bc0-43fc-b665-ce02669d345a","system_id":"levelo_inurba_marseille","lat":43.28266,"lon":5.35075,"is_reserved":false,"is_disabled":false,"rental_uris":{"android":"levelo://app?vid=cd6b0f39-6bc0-43fc-b665-ce02669d345a","ios":"levelo://app?vid=cd6b0f39-6bc0-43fc-b665-ce02669d345a"},"vehicle_type_id":"4","last_reported":1750234485,"current_range_meters":18800,"station_id":"ce4bhbp2rcd13ifvqerg","pricing_plan_id":"cebpf4jnsgd1na2vs0mg"},{"bike_id":"7aeb9e5d-46cc-4fb2-89b7-7f55fa98e63b","system_id":"levelo_inurba_marseille","lat":43.26676,"lon":5.38269,"is_reserved":false,"is_disabled":false,"rental_uris":{"android":"levelo://app?vid=7aeb9e5d-46cc-4fb2-89b7-7f55fa98e63b","ios":"levelo://app?vid=7aeb9e5d-46cc-4fb2-89b7-7f55fa98e63b"},"vehicle_type_id":"4","last_reported":1750234485,"current_range_meters":18800,"station_id":"ce4bhg92rcd13ifvqf90","pricing_plan_id":"cebpf4jnsgd1na2vs0mg"},{"bike_id":"4037a0f6-4461-4c1e-bad0-03e7c1253ab3","system_id":"levelo_inurba_marseille","lat":43.25493,"lon":5.3765,"is_reserved":false,"is_disabled":false,"rental_uris":{"android":"levelo://app?vid=4037a0f6-4461-4c1e-bad0-03e7c1253ab3","ios":"levelo://app?vid=4037a0f6-4461-4c1e-bad0-03e7c1253ab3"},"vehicle_type_id":"4","last_reported":1750234485,"current_range_meters":18800,"station_id":"ce4bhh12rcd13ifvqff0","pricing_plan_id":"cebpf4jnsgd1na2vs0mg"},{"bike_id":"bcc573f7-4885-4e01-a82f-f27d067ecde3","system_id":"levelo_inurba_marseille","lat":43.24174,"lon":5.39727,"is_reserved":false,"is_disabled":false,"rental_uris":{"android":"levelo://app?vid=bcc573f7-4885-4e01-a82f-f27d067ecde3","ios":"levelo://app?vid=bcc573f7-4885-4e01-a82f-f27d067ecde3"},"vehicle_type_id":"4","last_reported":1750234485,"current_range_meters":18800,"station_id":"ce4bhn12rcd13ifvqgpg","pricing_plan_id":"cebpf4jnsgd1na2vs0mg"},{"bike_id":"b792d1c2-8a9e-4afa-b07e-74b8daa2a6f8","system_id":"levelo_inurba_marseille","lat":43.32111,"lon":5.36771,"is_reserved":false,"is_disabled":false,"rental_uris":{"android":"levelo://app?vid=b792d1c2-8a9e-4afa-b07e-74b8daa2a6f8","ios":"levelo://app?vid=b792d1c2-8a9e-4afa-b07e-74b8daa2a6f8"},"vehicle_type_id":"4","last_reported":1750234485,"current_range_meters":18800,"station_id":"ce4bhrh2rcd13ifvqhug","pricing_plan_id":"cebpf4jnsgd1na2vs0mg"},{"bike_id":"833b16e1-97ec-4192-81e4-91877b340a52","system_id":"levelo_inurba_marseille","lat":43.3247,"lon":5.36571,"is_reserved":false,"is_disabled":false,"rental_uris":{"android":"levelo://app?vid=833b16e1-97ec-4192-81e4-91877b340a52","ios":"levelo://app?vid=833b16e1-97ec-4192-81e4-91877b340a52"},"vehicle_type_id":"4","last_reported":1750234485,"current_range_meters":18800,"station_id":"ce4bhs12rcd13ifvqhvg","pricing_plan_id":"cebpf4jnsgd1na2vs0mg"},{"bike_id":"e5863b13-0bb4-41ee-a7a1-72091c1036b5","system_id":"levelo_inurba_marseille","lat":43.316103,"lon":5.38392,"is_reserved":false,"is_disabled":false,"rental_uris":{"android":"levelo://app?vid=e5863b13-0bb4-41ee-a7a1-72091c1036b5","ios":"levelo://app?vid=e5863b13-0bb4-41ee-a7a1-72091c1036b5"},"vehicle_type_id":"4","last_reported":1750234485,"current_range_meters":19200,"station_id":"","pricing_plan_id":"cebpf4jnsgd1na2vs0mg"},