{"last_updated":1758834522,"ttl":60,"version":"2.2","data":{"bikes":[{"bike_id":"1efddf8d-578f-4e4c-8c3f-e3a8bd592ba4","system_id":"levelo_inurba_marseille","lat":43.29953,"lon":5.37317,"is_reserved":false,"is_disabled":false,"rental_uris":{"android":"levelo://app?vid=1efddf8d-578f-4e4c-8c3f-e3a8bd592ba4","ios":"levelo://app?vid=1efddf8d-578f-4e4c-8c3f-e3a8bd592ba4"},"vehicle_type_id":"4","last_reported":1758834522,"current_range_meters":2800,"station_id":"","pricing_plan_id":"cebpf4jnsgd1na2vs0mg"},{"bike_id":"9d0b958a-1d96-419c-b9e8-4dcddddad032","system_id":"levelo_inurba_marseille","lat":43.28977,"lon":5.37824,"is_reserved":false,"is_disabled":false,"rental_uris":{"android":"levelo://app?vid=9d0b958a-1d96-419c-b9e8-4dcddddad032","ios":"levelo://app?vid=9d0b958a-1d96-419c-b9e8-4dcddddad032"},"vehicle_type_id":"4","last_reported":1758834522,"current_range_meters":2800,"station_id":"ce4bh9p2rcd13ifvqed0","pricing_plan_id":"cebpf4jnsgd1na2vs0mg"},{"bike_id":"dfa2e0eb-c01c-40f5-bdf0-94cf19dc56f0","system_id":"levelo_inurba_marseille","lat":43.25107,"lon":5.39492,"is_reserved":false,"is_disabled":true,"rental_uris":{"android":"levelo://app?vid=dfa2e0eb-c01c-40f5-bdf0-94cf19dc56f0","ios":"levelo://app?vid=dfa2e0eb-c01c-40f5-bdf0-94cf19dc56f0"},"vehicle_type_id":"4","last_reported":1758834522,"current_range_meters":2800,"station_id":"ce4bhm12rcd13ifvqgkg","pricing_plan_id":"cebpf4jnsgd1na2vs0mg"},{"bike_id":"2132e4be-d3b4-4fa0-94fb-e9cd97eac444","system_id":"levelo_inurba_marseille","lat":43.29187,"lon":5.3695,"is_reserved":false,"is_disabled":false,"rental_uris":{"android":"levelo://app?vid=2132e4be-d3b4-4fa0-94fb-e9cd97eac444","ios":"levelo://app?vid=2132e4be-d3b4-4fa0-94fb-e9cd97eac444"},"vehicle_type_id":"4","last_reported":1758834522,"current_range_meters":2800,"station_id":"","pricing_plan_id":"cebpf4jnsgd1na2vs0mg"},{"bike_id":"c80e1f6e-41df-47e3-91cd-de5847cd5136","system_id":"levelo_inurba_marseille","lat":43.32323,"lon":5.39295,"is_reserved":false,"is_disabled":true,"rental_uris":{"android":"levelo://app?vid=c80e1f6e-41df-47e3-91cd-de5847cd5136","ios":"levelo://app?vid=c80e1f6e-41df-47e3-91cd-de5847cd5136"},"vehicle_type_id":"4","last_reported":1758834522,"current_range_meters":3600,"station_id":"","pricing_plan_id":"cebpf4jnsgd1na2vs0mg"},{"bike_id":"3d476d69-4af4-40a8-8ecd-153d3d338261","system_id":"levelo_inurba_marseille","lat":43.27188,"lon":5.42842,"is_reserved":false,"is_disabled":false,"rental_uris":{"android":"levelo://app?vid=3d476d69-4af4-40a8-8ecd-153d3d338261","ios":"levelo://app?vid=3d476d69-4af4-40a8-8ecd-153d3d338261"},"vehicle_type_id":"4","last_reported":1758834522,"current_range_meters":4000,"station_id":"","pricing_plan_id":"cebpf4jnsgd1na2vs0mg"},{"bike_id":"7c0482c3-9253-4d1b-b4f3-be55cdb7721d","system_id":"levelo_inurba_marseille","lat":43.33757,"lon":5.37466,"is_reserved":false,"is_disabled":false,"rental_uris":{"android":"levelo://app?vid=7c0482c3-9253-4d1b-b4f3-be55cdb7721d","ios":"levelo://app?vid=7c0482c3-9253-4d1b-b4f3-be55cdb7721d"},"vehicle_type_id":"4","last_reported":1758834522,"current_range_meters":4000,"station_id":"","pricing_plan_id":"cebpf4jnsgd1na2vs0mg"},{"bike_id":"cf665375-7869-482d-8dc0-65fe178dc165","system_id":"levelo_inurba_marseille","lat":43.28114,"lon":5.37839,"is_reserved":false,"is_disabled":false,"rental_uris":{"android":"levelo://app?vid=cf665375-7869-482d-8dc0-65fe178dc165","ios":"levelo://app?vid=cf665375-7869-482d-8dc0-65fe178dc165"},"vehicle_type_id":"4","last_reported":1758834522,"current_range_meters":4000,"station_id":"ce4bha12rcd13ifvqee0","pricing_plan_id":"cebpf4jnsgd1na2vs0mg"},{"bike_id":"939538dc-20bd-4d94-8a10-8e1e0a179bc7","system_id":"levelo_inurba_marseille","lat":43.30477,"lon":5.366657,"is_reserved":false,"is_disabled":false,"rental_uris":{"android":"levelo://app?vid=939538dc-20bd-4d94-8a10-8e1e0a179bc7","ios":"levelo://app?vid=939538dc-20bd-4d94-8a10-8e1e0a179bc7"},"vehicle_type_id":"4","last_reported":1758834522,"current_range_meters":4400,"station_id":"","pricing_plan_id":"cebpf4jnsgd1na2vs0mg"},{"bike_id":"cb3d83dd-8277-415b-bc5d-a118e1200728","system_id":"levelo_inurba_marseille","lat":43.30117,"lon":5.41009,"is_reserved":false,"is_disabled":false,"rental_uris":{"android":"levelo://app?vid=cb3d83dd-8277-415b-bc5d-a118e1200728","ios":"levelo://app?vid=cb3d83dd-8277-415b-bc5d-a118e1200728"},"vehicle_type_id":"4","last_reported":1758834522,"current_range_meters":4800,"station_id":"","pricing_plan_id":"cebpf4jnsgd1na2vs0mg"},{"bike_id":"96b954c9-1984-4f26-b630-bef328bd00e0","system_id":"levelo_inurba_marseille","lat":43.29038,"lon":5.37568,"is_reserved":false,"is_disabled":false,"rental_uris":{"android":"levelo://app?vid=96b954c9-1984-4f26-b630-bef328bd00e0","ios":"levelo://app?vid=96b954c9-1984-4f26-b630-bef328bd00e0"},"vehicle_type_id":"4","last_reported":1758834522,"current_range_meters":4800,"station_id":"ce4bh692rcd13ifvqe90","pricing_plan_id":"cebpf4jnsgd1na2vs0mg"},{"bike_id":"e76ca2c0-a531-4fe0-b5f3-0af3000ce7b6","system_id":"levelo_inurba_marseille","lat":43.27998,"lon":5.4165,"is_reserved":false,"is_disabled":false,"rental_uris":{"android":"levelo://app?vid=e76ca2c0-a531-4fe0-b5f3-0af3000ce7b6","ios":"levelo://app?vid=e76ca2c0-a531-4fe0-b5f3-0af3000ce7b6"},"vehicle_type_id":"4","last_reported":1758834522,"current_range_meters":4800,"station_id":"ce4bho12rcd13ifvqh1g","pricing_plan_id":"cebpf4jnsgd1na2vs0mg"},{"bike_id":"f62f48d9-e1e6-45a5-958c-cfe1b3c5818d","system_id":"levelo_inurba_marseille","lat":43.302969,"lon":5.392115,"is_reserved":false,"is_disabled":false,"rental_uris":{"android":"levelo://app?vid=f62f48d9-e1e6-45a5-958c-cfe1b3c5818d","ios":"levelo://app?vid=f62f48d9-e1e6-45a5-958c-cfe1b3c5818d"},"vehicle_type_id":"4","last_reported":1758834522,"current_range_meters":5600,"station_id":"ce4bgkh2rcd13ifvqbk0","pricing_plan_id":"cebpf4jnsgd1na2vs0mg"},{"bike_id":"9c4a7bdb-c552-4dfd-8efb-40b9e0b0b147","system_id":"levelo_inurba_marseille","lat":43.30922,"lon":5.36742,"is_reserved":false,"is_disabled":false,"rental_uris":{"android":"levelo://app?vid=9c4a7bdb-c552-4dfd-8efb-40b9e0b0b147","ios":"levelo://app?vid=9c4a7bdb-c552-4dfd-8efb-40b9e0b0b147"},"vehicle_type_id":"4","last_reported":1758834522,"current_range_meters":5600,"station_id":"","pricing_plan_id":"cebpf4jnsgd1na2vs0mg"},{"bike_id":"136a707a-b224-4c44-8119-f846f7b7d0a7","system_id":"levelo_inurba_marseille","lat":43.29516,"lon":5.37375,"is_reserved":false,"is_disabled":false,"rental_uris":{"android":"levelo://app?vid=136a707a-b224-4c44-8119-f846f7b7d0a7","ios":"levelo://app?vid=136a707a-b224-4c44-8119-f846f7b7d0a7"},"vehicle_type_id":"4","last_reported":1758834522,"current_range_meters":6000,"station_id":"","pricing_plan_id":"cebpf4jnsgd1na2vs0mg"},{"bike_id":"01d1981d-2f04-4235-bd95-c2aef11a2466","system_id":"levelo_inurba_marseille","lat":43.29441,"lon":5.39752,"is_reserved":false,"is_disabled":false,"rental_uris":{"android":"levelo://app?vid=01d1981d-2f04-4235-bd95-c2aef11a2466","ios":"levelo://app?vid=01d1981d-2f04-4235-bd95-c2aef11a2466"},"vehicle_type_id":"4","last_reported":1758834522,"current_range_meters":6000,"station_id":"ce4bh3h2rcd13ifvqdo0","pricing_plan_id":"cebpf4jnsgd1na2vs0mg"},{"bike_id":"74e25f73-50d4-483b-9c41-2ecbb5a7f87c","system_id":"levelo_inurba_marseille","lat":43.31485,"lon":5.37306,"is_reserved":false,"is_disabled":false,"rental_uris":{"android":"levelo://app?vid=74e25f73-50d4-483b-9c41-2ecbb5a7f87c","ios":"levelo://app?vid=74e25f73-50d4-483b-9c41-2ecbb5a7f87c"},"vehicle_type_id":"4","last_reported":1758834522,"current_range_meters":6000,"station_id":"ce4bgt12rcd13ifvqcd0","pricing_plan_id":"cebpf4jnsgd1na2vs0mg"},{"bike_id":"f999ab2a-e392-4217-8a90-a579323d8624","system_id":"levelo_inurba_marseille","lat":43.29088,"lon":5.38153,"is_reserved":false,"is_disabled":true,"rental_uris":{"android":"levelo://app?vid=f999ab2a-e392-4217-8a90-a579323d8624","ios":"levelo://app?vid=f999ab2a-e392-4217-8a90-a579323d8624"},"vehicle_type_id":"4","last_reported":1758834522,"current_range_meters":6000,"station_id":"ce4bh512rcd13ifvqe2g","pricing_plan_id":"cebpf4jnsgd1na2vs0mg"},{"bike_id":"4109348a-29fe-4b5d-a842-12d7613fa9c4","system_id":"levelo_inurba_marseille","lat":43.29538,"lon":5.38551,"is_reserved":false,"is_disabled":false,"rental_uris":{"android":"levelo://app?vid=4109348a-29fe-4b5d-a842-12d7613fa9c4","ios":"levelo://app?vid=4109348a-29fe-4b5d-a842-12d7613fa9c4"},"vehicle_type_id":"4","last_reported":1758834522,"current_range_meters":6000,"station_id":"ce4bgih2rcd13ifvqba0","pricing_plan_id":"cebpf4jnsgd1na2vs0mg"},{"bike_id":"afde7177-3a72-45a5-b408-37153da0aceb","system_id":"levelo_inurba_marseille","lat":43.28413,"lon":5.34993,"is_reserved":false,"is_disabled":false,"rental_uris":{"android":"levelo://app?vid=afde7177-3a72-45a5-b408-37153da0aceb","ios":"levelo://app?vid=afde7177-3a72-45a5-b408-37153da0aceb"},"vehicle_type_id":"4","last_reported":1758834522,"current_range_meters":6400,"station_id":"ce4bhbh2rcd13ifvqepg","pricing_plan_id":"cebpf4jnsgd1na2vs0mg"},{"bike_id":"58bcb43d-c000-4e3e-b004-30450f57645b","system_id":"levelo_inurba_marseille","lat":43.29527,"lon":5.37448,"is_reserved":false,"is_disabled":false,"rental_uris":{"android":"levelo://app?vid=58bcb43d-c000-4e3e-b004-30450f57645b","ios":"levelo://app?vid=58bcb43d-c000-4e3e-b004-30450f57645b"},"vehicle_type_id":"4","last_reported":1758834522,"current_range_meters":6400,"station_id":"","pricing_plan_id":"cebpf4jnsgd1na2vs0mg"},{"bike_id":"438ead59-de14-4fa0-a61d-03a70a4122ae","system_id":"levelo_inurba_marseille","lat":43.97269,"lon":4.89111,"is_reserved":false,"is_disabled":true,"rental_uris":{"android":"levelo://app?vid=438ead59-de14-4fa0-a61d-03a70a4122ae","ios":"levelo://app?vid=438ead59-de14-4fa0-a61d-03a70a4122ae"},"vehicle_type_id":"4","last_reported":1758834522,"current_range_meters":6400,"station_id":"","pricing_plan_id":"cebpf4jnsgd1na2vs0mg"},{"bike_id":"ddd8c0a7-a7ac-4c34-b48b-0710c492a44c","system_id":"levelo_inurba_marseille","lat":43.32297,"lon":5.39378,"is_reserved":false,"is_disabled":true,"rental_uris":{"android":"levelo://app?vid=ddd8c0a7-a7ac-4c34-b48b-0710c492a44c","ios":"levelo://app?vid=ddd8c0a7-a7ac-4c34-b48b-0710c492a44c"},"vehicle_type_id":"4","last_reported":1758834522,"current_range_meters":6400,"station_id":"","pricing_plan_id":"cebpf4jnsgd1na2vs0mg"},{"bike_id":"4e737411-53ce-4bdf-9802-c3bc30d9bc94","system_id":"levelo_inurba_marseille","lat":43.29552,"lon":5.40649,"is_reserved":false,"is_disabled":false,"rental_uris":{"android":"levelo://app?vid=4e737411-53ce-4bdf-9802-c3bc30d9bc94","ios":"levelo://app?vid=4e737411-53ce-4bdf-9802-c3bc30d9bc94"},"vehicle_type_id":"4","last_reported":1758834522,"current_range_meters":6800,"station_id":"","pricing_plan_id":"cebpf4jnsgd1na2vs0mg"},{"bike_id":"326e0232-f60c-4e08-aa23-d5548198fe2a","system_id":"levelo_inurba_marseille","lat":43.30266,"lon":5.40077,"is_reserved":false,"is_disabled":false,"rental_uris":{"android":"levelo://app?vid=326e0232-f60c-4e08-aa23-d5548198fe2a","ios":"levelo://app?vid=326e0232-f60c-4e08-aa23-d5548198fe2a"},"vehicle_type_id":"4","last_reported":1758834522,"current_range_meters":6800,"station_id":"ce4bgvh2rcd13ifvqcs0","pricing_plan_id":"cebpf4jnsgd1na2vs0mg"},{"bike_id":"d1bf5877-7433-4026-a1ea-b36c24e54045","system_id":"levelo_inurba_marseille","lat":43.21229,"lon":5.35057,"is_reserved":false,"is_disabled":false,"rental_uris":{"android":"levelo://app?vid=d1bf5877-7433-4026-a1ea-b36c24e54045","ios":"levelo://app?vid=d1bf5877-7433-4026-a1ea-b36c24e54045"},"vehicle_type_id":"4","last_reported":1758834522,"current_range_meters":7200,"station_id":"","pricing_plan_id":"cebpf4jnsgd1na2vs0mg"},{"bike_id":"3bd489e5-2659-4c74-b36b-70a17cc86db1","system_id":"levelo_inurba_marseille","lat":43.23373,"lon":5.36003,"is_reserved":false,"is_disabled":false,"rental_uris":{"android":"levelo://app?vid=3bd489e5-2659-4c74-b36b-70a17cc86db1","ios":"levelo://app?vid=3bd489e5-2659-4c74-b36b-70a17cc86db1"},"vehicle_type_id":"4","last_reported":1758834522,"current_range_meters":8000,"station_id":"","pricing_plan_id":"cebpf4jnsgd1na2vs0mg"},{"bike_id":"3d4fe58b-8aaf-4cbe-85b5-77b4b57da08a","system_id":"levelo_inurba_marseille","lat":43.29985,"lon":5.38502,"is_reserved":false,"is_disabled":false,"rental_uris":{"android":"levelo://app?vid=3d4fe58b-8aaf-4cbe-85b5-77b4b57da08a","ios":"levelo://app?vid=3d4fe58b-8aaf-4cbe-85b5-77b4b57da08a"},"vehicle_type_id":"4","last_reported":1758834522,"current_range_meters":4400,"station_id":"ce4bgj92rcd13ifvqbd0","pricing_plan_id":"cebpf4jnsgd1na2vs0mg"},{"bike_id":"58e095fe-697c-492a-860a-ada78513b493","system_id":"levelo_inurba_marseille","lat":43.31061,"lon":5.38354,"is_reserved":false,"is_disabled":true,"rental_uris":{"android":"levelo://app?vid=58e095fe-697c-492a-860a-ada78513b493","ios":"levelo://app?vid=58e095fe-697c-492a-860a-ada78513b493"},"vehicle_type_id":"4","last_reported":1758834522,"current_range_meters":8000,"station_id":"ce4bgv92rcd13ifvqcr0","pricing_plan_id":"cebpf4jnsgd1na2vs0mg"},{"bike_id":"3b63ef40-b85f-4f6b-8f0a-f718a5db1fc1","system_id":"levelo_inurba_marseille","lat":43.287201,"lon":5.36088,"is_reserved":false,"is_disabled":false,"rental_uris":{"android":"levelo://app?vid=3b63ef40-b85f-4f6b-8f0a-f718a5db1fc1","ios":"levelo://app?vid=3b63ef40-b85f-4f6b-8f0a-f718a5db1fc1"},"vehicle_type_id":"4","last_reported":1758834522,"current_range_meters":8400,"station_id":"cki0cbj6b192h4jlfktg","pricing_plan_id":"cebpf4jnsgd1na2vs0mg"},{"bike_id":"94b2f036-4ca4-4693-89f2-72df2150ee98","system_id":"levelo_inurba_marseille","lat":43.258265,"lon":5.394374,"is_reserved":false,"is_disabled":true,"rental_uris":{"android":"levelo://app?vid=94b2f036-4ca4-4693-89f2-72df2150ee98","ios":"levelo://app?vid=94b2f036-4ca4-4693-89f2-72df2150ee98"},"vehicle_type_id":"4","last_reported":1758834522,"current_range_meters":8400,"station_id":"ce4bhip2rcd13ifvqft0","pricing_plan_id":"cebpf4jnsgd1na2vs0mg"},{"bike_id":"cfa462e1-a746-48ae-b405-0b9474d89333","system_id":"levelo_inurba_marseille","lat":43.28945,"lon":5.36365,"is_reserved":false,"is_disabled":false,"rental_uris":{"android":"levelo://app?vid=cfa462e1-a746-48ae-b405-0b9474d89333","ios":"levelo://app?vid=cfa462e1-a746-48ae-b405-0b9474d89333"},"vehicle_type_id":"4","last_reported":1758834522,"current_range_meters":8800,"station_id":"ce4bhc92rcd13ifvqetg","pricing_plan_id":"cebpf4jnsgd1na2vs0mg"},{"bike_id":"4035ffcf-62d8-4fb0-89da-8d7b6b41ef29","system_id":"levelo_inurba_marseille","lat":43.294312,"lon":5.397722,"is_reserved":false,"is_disabled":true,"rental_uris":{"android":"levelo://app?vid=4035ffcf-62d8-4fb0-89da-8d7b6b41ef29","ios":"levelo://app?vid=4035ffcf-62d8-4fb0-89da-8d7b6b41ef29"},"vehicle_type_id":"4","last_reported":1758834522,"current_range_meters":8800,"station_id":"ce4bh3h2rcd13ifvqdo0","pricing_plan_id":"cebpf4jnsgd1na2vs0mg"},{"bike_id":"3a83ddcd-ce03-4ed4-a7fa-b273c2464f02","system_id":"levelo_inurba_marseille","lat":43.27957,"lon":5.36328,"is_reserved":false,"is_disabled":false,"rental_uris":{"android":"levelo://app?vid=3a83ddcd-ce03-4ed4-a7fa-b273c2464f02","ios":"levelo://app?vid=3a83ddcd-ce03-4ed4-a7fa-b273c2464f02"},"vehicle_type_id":"4","last_reported":1758834522,"current_range_meters":8800,"station_id":"","pricing_plan_id":"cebpf4jnsgd1na2vs0mg"},{"bike_id":"117acf13-6b03-4ee3-b4a5-edb1f47e11bc","system_id":"levelo_inurba_marseille","lat":43.26826,"lon":5.38702,"is_reserved":false,"is_disabled":true,"rental_uris":{"android":"levelo://app?vid=117acf13-6b03-4ee3-b4a5-edb1f47e11bc","ios":"levelo://app?vid=117acf13-6b03-4ee3-b4a5-edb1f47e11bc"},"vehicle_type_id":"4","last_reported":1758834522,"current_range_meters":8800,"station_id":"","pricing_plan_id":"cebpf4jnsgd1na2vs0mg"},{"bike_id":"a294ec25-f643-41e6-b75e-f26534f372ee","system_id":"levelo_inurba_marseille","lat":43.29213,"lon":5.38827,"is_reserved":false,"is_disabled":false,"rental_uris":{"android":"levelo://app?vid=a294ec25-f643-41e6-b75e-f26534f372ee","ios":"levelo://app?vid=a294ec25-f643-41e6-b75e-f26534f372ee"},"vehicle_type_id":"4","last_reported":1758834522,"current_range_meters":9200,"station_id":"","pricing_plan_id":"cebpf4jnsgd1na2vs0mg"},{"bike_id":"379911e0-a8b9-4b05-96ac-c75be54d3c45","system_id":"levelo_inurba_marseille","lat":43.28861,"lon":5.42511,"is_reserved":false,"is_disabled":false,"rental_uris":{"android":"levelo://app?vid=379911e0-a8b9-4b05-96ac-c75be54d3c45","ios":"levelo://app?vid=379911e0-a8b9-4b05-96ac-c75be54d3c45"},"vehicle_type_id":"4","last_reported":1758834522,"current_range_meters":9200,"station_id":"","pricing_plan_id":"cebpf4jnsgd1na2vs0mg"},{"bike_id":"0e9ca394-4351-4bf8-a641-f4e5215baf20","system_id":"levelo_inurba_marseille","lat":43.28218,"lon":5.35129,"is_reserved":false,"is_disabled":false,"rental_uris":{"android":"levelo://app?vid=0e9ca394-4351-4bf8-a641-f4e5215baf20","ios":"levelo://app?vid=0e9ca394-4351-4bf8-a641-f4e5215baf20"},"vehicle_type_id":"4","last_reported":1758834522,"current_range_meters":9600,"station_id":"ce4bhbp2rcd13ifvqerg","pricing_plan_id":"cebpf4jnsgd1na2vs0mg"},{"bike_id":"d7f9e1df-8b0f-4a8d-ad58-d349030d8c25","system_id":"levelo_inurba_marseille","lat":43.296478,"lon":5.378323,"is_reserved":false,"is_disabled":false,"rental_uris":{"android":"levelo://app?vid=d7f9e1df-8b0f-4a8d-ad58-d349030d8c25","ios":"levelo://app?vid=d7f9e1df-8b0f-4a8d-ad58-d349030d8c25"},"vehicle_type_id":"4","last_reported":1758834522,"current_range_meters":9600,"station_id":"","pricing_plan_id":"cebpf4jnsgd1na2vs0mg"},{"bike_id":"8584eb3e-f7b4-4300-97fe-005a37d8d75b","system_id":"levelo_inurba_marseille","lat":43.36837,"lon":5.36295,"is_reserved":false,"is_disabled":false,"rental_uris":{"android":"levelo://app?vid=8584eb3e-f7b4-4300-97fe-005a37d8d75b","ios":"levelo://app?vid=8584eb3e-f7b4-4300-97fe-005a37d8d75b"},"vehicle_type_id":"4","last_reported":1758834522,"current_range_meters":9600,"station_id":"","pricing_plan_id":"cebpf4jnsgd1na2vs0mg"},{"bike_id":"d5632eaf-207f-4351-be9c-95c58bc9c538","system_id":"levelo_inurba_marseille","lat":43.29538,"lon":5.37514,"is_reserved":false,"is_disabled":true,"rental_uris":{"android":"levelo://app?vid=d5632eaf-207f-4351-be9c-95c58bc9c538","ios":"levelo://app?vid=d5632eaf-207f-4351-be9c-95c58bc9c538"},"vehicle_type_id":"4","last_reported":1758834522,"current_range_meters":10000,"station_id":"ce4bgkp2rcd13ifvqbmg","pricing_plan_id":"cebpf4jnsgd1na2vs0mg"},{"bike_id":"8eae954c-dab6-4303-94f5-569e1c483f62","system_id":"levelo_inurba_marseille","lat":43.294557,"lon":5.407499,"is_reserved":false,"is_disabled":false,"rental_uris":{"android":"levelo://app?vid=8eae954c-dab6-4303-94f5-569e1c483f62","ios":"levelo://app?vid=8eae954c-dab6-4303-94f5-569e1c483f62"},"vehicle_type_id":"4","last_reported":1758834522,"current_range_meters":10000,"station_id":"","pricing_plan_id":"cebpf4jnsgd1na2vs0mg"},{"bike_id":"7096101a-2b1f-4b2b-b1d2-b3c992cd3685","system_id":"levelo_inurba_marseille","lat":43.30733,"lon":5.42447,"is_reserved":false,"is_disabled":false,"rental_uris":{"android":"levelo://app?vid=7096101a-2b1f-4b2b-b1d2-b3c992cd3685","ios":"levelo://app?vid=7096101a-2b1f-4b2b-b1d2-b3c992cd3685"},"vehicle_type_id":"4","last_reported":1758834522,"current_range_meters":10000,"station_id":"st_cvj6ca6bvosntc0bfgr0","pricing_plan_id":"cebpf4jnsgd1na2vs0mg"},{"bike_id":"237c6c1c-3b20-4dcb-82ea-76107a136d3e","system_id":"levelo_inurba_marseille","lat":43.292764,"lon":5.368504,"is_reserved":false,"is_disabled":true,"rental_uris":{"android":"levelo://app?vid=237c6c1c-3b20-4dcb-82ea-76107a136d3e","ios":"levelo://app?vid=237c6c1c-3b20-4dcb-82ea-76107a136d3e"},"vehicle_type_id":"4","last_reported":1758834522,"current_range_meters":10000,"station_id":"ce4bhbp2rcd13ifvqesg","pricing_plan_id":"cebpf4jnsgd1na2vs0mg"},{"bike_id":"bdec3261-de13-477f-818b-7af8ae1d1f6a","system_id":"levelo_inurba_marseille","lat":43.23956,"lon":5.37699,"is_reserved":false,"is_disabled":false,"rental_uris":{"android":"levelo://app?vid=bdec3261-de13-477f-818b-7af8ae1d1f6a","ios":"levelo://app?vid=bdec3261-de13-477f-818b-7af8ae1d1f6a"},"vehicle_type_id":"4","last_reported":1758834522,"current_range_meters":10000,"station_id":"","pricing_plan_id":"cebpf4jnsgd1na2vs0mg"},{"bike_id":"6b91fe41-8c06-48bd-bd30-c74300c3411a","system_id":"levelo_inurba_marseille","lat":43.29527,"lon":5.3854,"is_reserved":false,"is_disabled":false,"rental_uris":{"android":"levelo://app?vid=6b91fe41-8c06-48bd-bd30-c74300c3411a","ios":"levelo://app?vid=6b91fe41-8c06-48bd-bd30-c74300c3411a"},"vehicle_type_id":"4","last_reported":1758834522,"current_range_meters":10000,"station_id":"ce4bgih2rcd13ifvqba0","pricing_plan_id":"cebpf4jnsgd1na2vs0mg"},{"bike_id":"0ef81889-2d7f-4e70-b480-0b08f55cbfba","system_id":"levelo_inurba_marseille","lat":43.30925,"lon":5.36835,"is_reserved":false,"is_disabled":false,"rental_uris":{"android":"levelo://app?vid=0ef81889-2d7f-4e70-b480-0b08f55cbfba","ios":"levelo://app?vid=0ef81889-2d7f-4e70-b480-0b08f55cbfba"},"vehicle_type_id":"4","last_reported":1758834522,"current_range_meters":10000,"station_id":"ce4bgn92rcd13ifvqbvg","pricing_plan_id":"cebpf4jnsgd1na2vs0mg"},{"bike_id":"003515e8-8117-44bb-979d-5f47e8d50fda","system_id":"levelo_inurba_marseille","lat":43.306,"lon":5.37597,"is_reserved":false,"is_disabled":false,"rental_uris":{"android":"levelo://app?vid=003515e8-8117-44bb-979d-5f47e8d50fda","ios":"levelo://app?vid=003515e8-8117-44bb-979d-5f47e8d50fda"},"vehicle_type_id":"4","last_reported":1758834522,"current_range_meters":10800,"station_id":"","pricing_plan_id":"cebpf4jnsgd1na2vs0mg"},{"bike_id":"fac26b36-2b85-4b83-911f-e9c845daf834","system_id":"levelo_inurba_marseille","lat":43.28105,"lon":5.37831,"is_reserved":false,"is_disabled":false,"rental_uris":{"android":"levelo://app?vid=fac26b36-2b85-4b83-911f-e9c845daf834","ios":"levelo://app?vid=fac26b36-2b85-4b83-911f-e9c845daf834"},"vehicle_type_id":"4","last_reported":1758834522,"current_range_meters":10800,"station_id":"ce4bha12rcd13ifvqee0","pricing_plan_id":"cebpf4jnsgd1na2vs0mg"},{"bike_id":"1d83c96d-d874-4e8c-bc91-af13c750bf6c","system_id":"levelo_inurba_marseille","lat":43.2655,"lon":5.40333,"is_reserved":false,"is_disabled":false,"rental_uris":{"android":"levelo://app?vid=1d83c96d-d874-4e8c-bc91-af13c750bf6c","ios":"levelo://app?vid=1d83c96d-d874-4e8c-bc91-af13c750bf6c"},"vehicle_type_id":"4","last_reported":1758834522,"current_range_meters":10800,"station_id":"ce4bhmp2rcd13ifvqgng","pricing_plan_id":"cebpf4jnsgd1na2vs0mg"},{"bike_id":"d9b8fa0e-57f1-4026-9be2-2d0e2e94a52b","system_id":"levelo_inurba_marseille","lat":43.24639,"lon":5.43144,"is_reserved":false,"is_disabled":false,"rental_uris":{"android":"levelo://app?vid=d9b8fa0e-57f1-4026-9be2-2d0e2e94a52b","ios":"levelo://app?vid=d9b8fa0e-57f1-4026-9be2-2d0e2e94a52b"},"vehicle_type_id":"4","last_reported":1758834522,"current_range_meters":10800,"station_id":"st_d2m6c4gdas8pm72e190g","pricing_plan_id":"cebpf4jnsgd1na2vs0mg"},{"bike_id":"46923300-e0d3-40c1-8c76-7dadc761100f","system_id":"levelo_inurba_marseille","lat":43.29008,"lon":5.35641,"is_reserved":false,"is_disabled":false,"rental_uris":{"android":"levelo://app?vid=46923300-e0d3-40c1-8c76-7dadc761100f","ios":"levelo://app?vid=46923300-e0d3-40c1-8c76-7dadc761100f"},"vehicle_type_id":"4","last_reported":1758834522,"current_range_meters":10800,"station_id":"ce4bhb92rcd13ifvqen0","pricing_plan_id":"cebpf4jnsgd1na2vs0mg"},{"bike_id":"212de2eb-8bbc-413c-b204-9fe1facd76e8","system_id":"levelo_inurba_marseille","lat":43.31291,"lon":5.37821,"is_reserved":false,"is_disabled":false,"rental_uris":{"android":"levelo://app?vid=212de2eb-8bbc-413c-b204-9fe1facd76e8","ios":"levelo://app?vid=212de2eb-8bbc-413c-b204-9fe1facd76e8"},"vehicle_type_id":"4","last_reported":1758834522,"current_range_meters":10800,"station_id":"","pricing_plan_id":"cebpf4jnsgd1na2vs0mg"},{"bike_id":"cb3139a4-f2d1-4c6a-bb07-a858c1fa1910","system_id":"levelo_inurba_marseille","lat":43.26568,"lon":5.3901,"is_reserved":false,"is_disabled":false,"rental_uris":{"android":"levelo://app?vid=cb3139a4-f2d1-4c6a-bb07-a858c1fa1910","ios":"levelo://app?vid=cb3139a4-f2d1-4c6a-bb07-a858c1fa1910"},"vehicle_type_id":"4","last_reported":1758834522,"current_range_meters":10800,"station_id":"ce4bhe12rcd13ifvqf30","pricing_plan_id":"cebpf4jnsgd1na2vs0mg"},{"bike_id":"e793b8a8-4611-4404-a8bd-2a019b0a204d","system_id":"levelo_inurba_marseille","lat":43.29583,"lon":5.38627,"is_reserved":false,"is_disabled":false,"rental_uris":{"android":"levelo://app?vid=e793b8a8-4611-4404-a8bd-2a019b0a204d","ios":"levelo://app?vid=e793b8a8-4611-4404-a8bd-2a019b0a204d"},"vehicle_type_id":"4","last_reported":1758834522,"current_range_meters":11200,"station_id":"","pricing_plan_id":"cebpf4jnsgd1na2vs0mg"},{"bike_id":"ee37266a-4bb5-4da4-9d2c-3ed4c716a19d","system_id":"levelo_inurba_marseille","lat":43.29515,"lon":5.39401,"is_reserved":false,"is_disabled":false,"rental_uris":{"android":"levelo://app?vid=ee37266a-4bb5-4da4-9d2c-3ed4c716a19d","ios":"levelo://app?vid=ee37266a-4bb5-4da4-9d2c-3ed4c716a19d"},"vehicle_type_id":"4","last_reported":1758834522,"current_range_meters":11200,"station_id":"ce4bh292rcd13ifvqdf0","pricing_plan_id":"cebpf4jnsgd1na2vs0mg"},{"bike_id":"8fe6899c-f678-4f46-be40-9ca7596a0783","system_id":"levelo_inurba_marseille","lat":43.28925,"lon":5.38399,"is_reserved":false,"is_disabled":true,"rental_uris":{"android":"levelo://app?vid=8fe6899c-f678-4f46-be40-9ca7596a0783","ios":"levelo://app?vid=8fe6899c-f678-4f46-be40-9ca7596a0783"},"vehicle_type_id":"4","last_reported":1758834522,"current_range_meters":11200,"station_id":"ce4bh612rcd13ifvqe6g","pricing_plan_id":"cebpf4jnsgd1na2vs0mg"},{"bike_id":"87c11965-076e-4550-9974-a643a31a03fa","system_id":"levelo_inurba_marseille","lat":43.26234,"lon":5.40444,"is_reserved":false,"is_disabled":false,"rental_uris":{"android":"levelo://app?vid=87c11965-076e-4550-9974-a643a31a03fa","ios":"levelo://app?vid=87c11965-076e-4550-9974-a643a31a03fa"},"vehicle_type_id":"4","last_reported":1758834522,"current_range_meters":11200,"station_id":"ce4bhmh2rcd13ifvqgmg","pricing_plan_id":"cebpf4jnsgd1na2vs0mg"},{"bike_id":"f9af076b-c426-46f0-97f6-f6a5a530c8e2","system_id":"levelo_inurba_marseille","lat":43.330567,"lon":5.39483,"is_reserved":false,"is_disabled":true,"rental_uris":{"android":"levelo://app?vid=f9af076b-c426-46f0-97f6-f6a5a530c8e2","ios":"levelo://app?vid=f9af076b-c426-46f0-97f6-f6a5a530c8e2"},"vehicle_type_id":"4","last_reported":1758834522,"current_range_meters":11200,"station_id":"","pricing_plan_id":"cebpf4jnsgd1na2vs0mg"},{"bike_id":"dd47cc9a-8f6a-4c62-9b7c-bd17d8798bcf","system_id":"levelo_inurba_marseille","lat":43.279163,"lon":5.395839,"is_reserved":false,"is_disabled":false,"rental_uris":{"android":"levelo://app?vid=dd47cc9a-8f6a-4c62-9b7c-bd17d8798bcf","ios":"levelo://app?vid=dd47cc9a-8f6a-4c62-9b7c-bd17d8798bcf"},"vehicle_type_id":"4","last_reported":1758834522,"current_range_meters":11200,"station_id":"ce4bhf92rcd13ifvqf40","pricing_plan_id":"cebpf4jnsgd1na2vs0mg"},{"bike_id":"02212ec5-e517-4a4c-bf69-5117e317eb1a","system_id":"levelo_inurba_marseille","lat":43.32149,"lon":5.36771,"is_reserved":false,"is_disabled":false,"rental_uris":{"android":"levelo://app?vid=02212ec5-e517-4a4c-bf69-5117e317eb1a","ios":"levelo://app?vid=02212ec5-e517-4a4c-bf69-5117e317eb1a"},"vehicle_type_id":"4","last_reported":1758834522,"current_range_meters":11600,"station_id":"","pricing_plan_id":"cebpf4jnsgd1na2vs0mg"},{"bike_id":"2bd2a176-8590-4e06-8b8c-a96b49b7b36a","system_id":"levelo_inurba_marseille","lat":43.242409,"lon":5.41085,"is_reserved":false,"is_disabled":false,"rental_uris":{"android":"levelo://app?vid=2bd2a176-8590-4e06-8b8c-a96b49b7b36a","ios":"levelo://app?vid=2bd2a176-8590-4e06-8b8c-a96b49b7b36a"},"vehicle_type_id":"4","last_reported":1758834522,"current_range_meters":11600,"station_id":"","pricing_plan_id":"cebpf4jnsgd1na2vs0mg"},{"bike_id":"fc71c58a-0998-4ad7-adf3-f0dcb9e5585b","system_id":"levelo_inurba_marseille","lat":43.23197,"lon":5.39997,"is_reserved":false,"is_disabled":false,"rental_uris":{"android":"levelo://app?vid=fc71c58a-0998-4ad7-adf3-f0dcb9e5585b","ios":"levelo://app?vid=fc71c58a-0998-4ad7-adf3-f0dcb9e5585b"},"vehicle_type_id":"4","last_reported":1758834522,"current_range_meters":11600,"station_id":"ce4bhn12rcd13ifvqgqg","pricing_plan_id":"cebpf4jnsgd1na2vs0mg"},{"bike_id":"2a21c7e2-caa8-4b6d-a1a1-aeee3726ddd2","system_id":"levelo_inurba_marseille","lat":43.30922,"lon":5.37186,"is_reserved":false,"is_disabled":false,"rental_uris":{"android":"levelo://app?vid=2a21c7e2-caa8-4b6d-a1a1-aeee3726ddd2","ios":"levelo://app?vid=2a21c7e2-caa8-4b6d-a1a1-aeee3726ddd2"},"vehicle_type_id":"4","last_reported":1758834522,"current_range_meters":12000,"station_id":"ce4bguh2rcd13ifvqckg","pricing_plan_id":"cebpf4jnsgd1na2vs0mg"},{"bike_id":"402b573d-229b-4b0e-977a-075c271e85c6","system_id":"levelo_inurba_marseille","lat":43.28861,"lon":5.42528,"is_reserved":false,"is_disabled":false,"rental_uris":{"android":"levelo://app?vid=402b573d-229b-4b0e-977a-075c271e85c6","ios":"levelo://app?vid=402b573d-229b-4b0e-977a-075c271e85c6"},"vehicle_type_id":"4","last_reported":1758834522,"current_range_meters":12000,"station_id":"","pricing_plan_id":"cebpf4jnsgd1na2vs0mg"},{"bike_id":"7bc9e158-af64-4fa0-a3d2-6f150a0bd49d","system_id":"levelo_inurba_marseille","lat":43.24649,"lon":5.4313,"is_reserved":false,"is_disabled":false,"rental_uris":{"android":"levelo://app?vid=7bc9e158-af64-4fa0-a3d2-6f150a0bd49d","ios":"levelo://app?vid=7bc9e158-af64-4fa0-a3d2-6f150a0bd49d"},"vehicle_type_id":"4","last_reported":1758834522,"current_range_meters":12000,"station_id":"st_d2m6c4gdas8pm72e190g","pricing_plan_id":"cebpf4jnsgd1na2vs0mg"},{"bike_id":"cee3c36d-9304-42e6-a4ef-d96f70adb757","system_id":"levelo_inurba_marseille","lat":43.24962,"lon":5.40496,"is_reserved":false,"is_disabled":false,"rental_uris":{"android":"levelo://app?vid=cee3c36d-9304-42e6-a4ef-d96f70adb757","ios":"levelo://app?vid=cee3c36d-9304-42e6-a4ef-d96f70adb757"},"vehicle_type_id":"4","last_reported":1758834522,"current_range_meters":12000,"station_id":"st_d2ngiaodas8pm72gd1h0","pricing_plan_id":"cebpf4jnsgd1na2vs0mg"},{"bike_id":"e0392a48-715d-4286-916a-c58dd0a4719b","system_id":"levelo_inurba_marseille","lat":43.298851,"lon":5.389052,"is_reserved":false,"is_disabled":false,"rental_uris":{"android":"levelo://app?vid=e0392a48-715d-4286-916a-c58dd0a4719b","ios":"levelo://app?vid=e0392a48-715d-4286-916a-c58dd0a4719b"},"vehicle_type_id":"4","last_reported":1758834522,"current_range_meters":12000,"station_id":"ce4bh392rcd13ifvqdl0","pricing_plan_id":"cebpf4jnsgd1na2vs0mg"},{"bike_id":"2c2668ca-f261-4fc7-8cfe-b93f7ae1342f","system_id":"levelo_inurba_marseille","lat":43.32461,"lon":5.36563,"is_reserved":false,"is_disabled":false,"rental_uris":{"android":"levelo://app?vid=2c2668ca-f261-4fc7-8cfe-b93f7ae1342f","ios":"levelo://app?vid=2c2668ca-f261-4fc7-8cfe-b93f7ae1342f"},"vehicle_type_id":"4","last_reported":1758834522,"current_range_meters":12000,"station_id":"ce4bhs12rcd13ifvqhvg","pricing_plan_id":"cebpf4jnsgd1na2vs0mg"},{"bike_id":"3731e4b4-e57b-4ad8-affe-801decac42ca","system_id":"levelo_inurba_marseille","lat":43.24987,"lon":5.40484,"is_reserved":false,"is_disabled":false,"rental_uris":{"android":"levelo://app?vid=3731e4b4-e57b-4ad8-affe-801decac42ca","ios":"levelo://app?vid=3731e4b4-e57b-4ad8-affe-801decac42ca"},"vehicle_type_id":"4","last_reported":1758834522,"current_range_meters":12000,"station_id":"st_d2ngiaodas8pm72gd1h0","pricing_plan_id":"cebpf4jnsgd1na2vs0mg"},{"bike_id":"2e22e098-1e6e-4376-9dcc-d2faf4d95e30","system_id":"levelo_inurba_marseille","lat":43.2952,"lon":5.37827,"is_reserved":false,"is_disabled":false,"rental_uris":{"android":"levelo://app?vid=2e22e098-1e6e-4376-9dcc-d2faf4d95e30","ios":"levelo://app?vid=2e22e098-1e6e-4376-9dcc-d2faf4d95e30"},"vehicle_type_id":"4","last_reported":1758834522,"current_range_meters":12000,"station_id":"","pricing_plan_id":"cebpf4jnsgd1na2vs0mg"},{"bike_id":"d31d856a-933d-49cf-948f-ce03657dfc74","system_id":"levelo_inurba_marseille","lat":43.28432,"lon":5.34985,"is_reserved":false,"is_disabled":false,"rental_uris":{"android":"levelo://app?vid=d31d856a-933d-49cf-948f-ce03657dfc74","ios":"levelo://app?vid=d31d856a-933d-49cf-948f-ce03657dfc74"},"vehicle_type_id":"4","last_reported":1758834522,"current_range_meters":12000,"station_id":"ce4bhbh2rcd13ifvqepg","pricing_plan_id":"cebpf4jnsgd1na2vs0mg"},{"bike_id":"7ffd16fe-e13b-40cc-a3d7-f9bcb37e0c5d","system_id":"levelo_inurba_marseille","lat":43.26694,"lon":5.38272,"is_reserved":false,"is_disabled":true,"rental_uris":{"android":"levelo://app?vid=7ffd16fe-e13b-40cc-a3d7-f9bcb37e0c5d","ios":"levelo://app?vid=7ffd16fe-e13b-40cc-a3d7-f9bcb37e0c5d"},"vehicle_type_id":"4","last_reported":1758834522,"current_range_meters":12000,"station_id":"ce4bhg92rcd13ifvqf90","pricing_plan_id":"cebpf4jnsgd1na2vs0mg"},{"bike_id":"f897d300-643c-4c7a-951b-f56d70ef23ca","system_id":"levelo_inurba_marseille","lat":43.303341,"lon":5.390791,"is_reserved":false,"is_disabled":false,"rental_uris":{"android":"levelo://app?vid=f897d300-643c-4c7a-951b-f56d70ef23ca","ios":"levelo://app?vid=f897d300-643c-4c7a-951b-f56d70ef23ca"},"vehicle_type_id":"4","last_reported":1758834522,"current_range_meters":12400,"station_id":"","pricing_plan_id":"cebpf4jnsgd1na2vs0mg"},{"bike_id":"1c27f7d4-507d-43e2-b324-44f5e35dee72","system_id":"levelo_inurba_marseille","lat":43.32322,"lon":5.39305,"is_reserved":false,"is_disabled":false,"rental_uris":{"android":"levelo://app?vid=1c27f7d4-507d-43e2-b324-44f5e35dee72","ios":"levelo://app?vid=1c27f7d4-507d-43e2-b324-44f5e35dee72"},"vehicle_type_id":"4","last_reported":1758834522,"current_range_meters":12400,"station_id":"","pricing_plan_id":"cebpf4jnsgd1na2vs0mg"},{"bike_id":"1c35bf83-ebdb-4c44-ba8d-eb30d817a599","system_id":"levelo_inurba_marseille","lat":43.304251,"lon":5.39741,"is_reserved":false,"is_disabled":true,"rental_uris":{"android":"levelo://app?vid=1c35bf83-ebdb-4c44-ba8d-eb30d817a599","ios":"levelo://app?vid=1c35bf83-ebdb-4c44-ba8d-eb30d817a599"},"vehicle_type_id":"4","last_reported":1758834522,"current_range_meters":12400,"station_id":"","pricing_plan_id":"cebpf4jnsgd1na2vs0mg"},{"bike_id":"e5303607-da03-4ac7-b81e-b332ede84cf7","system_id":"levelo_inurba_marseille","lat":43.31308,"lon":5.37814,"is_reserved":false,"is_disabled":false,"rental_uris":{"android":"levelo://app?vid=e5303607-da03-4ac7-b81e-b332ede84cf7","ios":"levelo://app?vid=e5303607-da03-4ac7-b81e-b332ede84cf7"},"vehicle_type_id":"4","last_reported":1758834522,"current_range_meters":12400,"station_id":"","pricing_plan_id":"cebpf4jnsgd1na2vs0mg"},{"bike_id":"358b5bd0-bd1a-4b9c-b0d1-08dbb5ab85b3","system_id":"levelo_inurba_marseille","lat":43.27054,"lon":5.40264,"is_reserved":false,"is_disabled":false,"rental_uris":{"android":"levelo://app?vid=358b5bd0-bd1a-4b9c-b0d1-08dbb5ab85b3","ios":"levelo://app?vid=358b5bd0-bd1a-4b9c-b0d1-08dbb5ab85b3"},"vehicle_type_id":"4","last_reported":1758834522,"current_range_meters":12800,"station_id":"ce4bhk92rcd13ifvqgc0","pricing_plan_id":"cebpf4jnsgd1na2vs0mg"},{"bike_id":"0983bc59-6bab-4490-9d5e-7882acc678d9","system_id":"levelo_inurba_marseille","lat":43.27906,"lon":5.3802,"is_reserved":false,"is_disabled":false,"rental_uris":{"android":"levelo://app?vid=0983bc59-6bab-4490-9d5e-7882acc678d9","ios":"levelo://app?vid=0983bc59-6bab-4490-9d5e-7882acc678d9"},"vehicle_type_id":"4","last_reported":1758834522,"current_range_meters":12800,"station_id":"","pricing_plan_id":"cebpf4jnsgd1na2vs0mg"},{"bike_id":"e7ff35e4-c4d7-4171-87a5-355f3771a20a","system_id":"levelo_inurba_marseille","lat":43.29259,"lon":5.38444,"is_reserved":false,"is_disabled":false,"rental_uris":{"android":"levelo://app?vid=e7ff35e4-c4d7-4171-87a5-355f3771a20a","ios":"levelo://app?vid=e7ff35e4-c4d7-4171-87a5-355f3771a20a"},"vehicle_type_id":"4","last_reported":1758834522,"current_range_meters":12800,"station_id":"ce4bh692rcd13ifvqea0","pricing_plan_id":"cebpf4jnsgd1na2vs0mg"},{"bike_id":"d36a2efd-6168-43e5-8ffd-b8eee049adfc","system_id":"levelo_inurba_marseille","lat":43.27932,"lon":5.41046,"is_reserved":false,"is_disabled":false,"rental_uris":{"android":"levelo://app?vid=d36a2efd-6168-43e5-8ffd-b8eee049adfc","ios":"levelo://app?vid=d36a2efd-6168-43e5-8ffd-b8eee049adfc"},"vehicle_type_id":"4","last_reported":1758834522,"current_range_meters":12800,"station_id":"ce4bhnp2rcd13ifvqh0g","pricing_plan_id":"cebpf4jnsgd1na2vs0mg"},{"bike_id":"5f52347a-ff03-43e3-a018-5fbc76e115c4","system_id":"levelo_inurba_marseille","lat":43.29545,"lon":5.38551,"is_reserved":false,"is_disabled":false,"rental_uris":{"android":"levelo://app?vid=5f52347a-ff03-43e3-a018-5fbc76e115c4","ios":"levelo://app?vid=5f52347a-ff03-43e3-a018-5fbc76e115c4"},"vehicle_type_id":"4","last_reported":1758834522,"current_range_meters":12800,"station_id":"ce4bgih2rcd13ifvqba0","pricing_plan_id":"cebpf4jnsgd1na2vs0mg"},{"bike_id":"c7f6a08b-c655-4213-b2ba-7d02e7f382fe","system_id":"levelo_inurba_marseille","lat":43.27988,"lon":5.39483,"is_reserved":false,"is_disabled":false,"rental_uris":{"android":"levelo://app?vid=c7f6a08b-c655-4213-b2ba-7d02e7f382fe","ios":"levelo://app?vid=c7f6a08b-c655-4213-b2ba-7d02e7f382fe"},"vehicle_type_id":"4","last_reported":1758834522,"current_range_meters":12800,"station_id":"","pricing_plan_id":"cebpf4jnsgd1na2vs0mg"},{"bike_id":"bff9a25f-2c32-4c46-ac3f-3117bcc81e09","system_id":"levelo_inurba_marseille","lat":43.23963,"lon":5.3663,"is_reserved":false,"is_disabled":false,"rental_uris":{"android":"levelo://app?vid=bff9a25f-2c32-4c46-ac3f-3117bcc81e09","ios":"levelo://app?vid=bff9a25f-2c32-4c46-ac3f-3117bcc81e09"},"vehicle_type_id":"4","last_reported":1758834522,"current_range_meters":12800,"station_id":"ce4bhi12rcd13ifvqfp0","pricing_plan_id":"cebpf4jnsgd1na2vs0mg"},{"bike_id":"ac723c7e-b4b1-401e-b380-ef5f4a531aff","system_id":"levelo_inurba_marseille","lat":43.265529,"lon":5.372855,"is_reserved":false,"is_disabled":false,"rental_uris":{"android":"levelo://app?vid=ac723c7e-b4b1-401e-b380-ef5f4a531aff","ios":"levelo://app?vid=ac723c7e-b4b1-401e-b380-ef5f4a531aff"},"vehicle_type_id":"4","last_reported":1758834522,"current_range_meters":13600,"station_id":"ce4bhg12rcd13ifvqf70","pricing_plan_id":"cebpf4jnsgd1na2vs0mg"},{"bike_id":"0d54f249-b891-4504-a5ff-687b2a4870e6","system_id":"levelo_inurba_marseille","lat":43.2863,"lon":5.35093,"is_reserved":false,"is_disabled":false,"rental_uris":{"android":"levelo://app?vid=0d54f249-b891-4504-a5ff-687b2a4870e6","ios":"levelo://app?vid=0d54f249-b891-4504-a5ff-687b2a4870e6"},"vehicle_type_id":"4","last_reported":1758834522,"current_range_meters":13600,"station_id":"ce4bhch2rcd13ifvqeug","pricing_plan_id":"cebpf4jnsgd1na2vs0mg"},{"bike_id":"11a160ff-b883-4187-aac8-caac1341135a","system_id":"levelo_inurba_marseille","lat":43.24967,"lon":5.40504,"is_reserved":false,"is_disabled":false,"rental_uris":{"android":"levelo://app?vid=11a160ff-b883-4187-aac8-caac1341135a","ios":"levelo://app?vid=11a160ff-b883-4187-aac8-caac1341135a"},"vehicle_type_id":"4","last_reported":1758834522,"current_range_meters":13600,"station_id":"st_d2ngiaodas8pm72gd1h0","pricing_plan_id":"cebpf4jnsgd1na2vs0mg"},{"bike_id":"ee62656f-1ef5-47aa-be89-25fa2f17ff19","system_id":"levelo_inurba_marseille","lat":43.30266,"lon":5.40078,"is_reserved":false,"is_disabled":false,"rental_uris":{"android":"levelo://app?vid=ee62656f-1ef5-47aa-be89-25fa2f17ff19","ios":"levelo://app?vid=ee62656f-1ef5-47aa-be89-25fa2f17ff19"},"vehicle_type_id":"4","last_reported":1758834522,"current_range_meters":13600,"station_id":"ce4bgvh2rcd13ifvqcs0","pricing_plan_id":"cebpf4jnsgd1na2vs0mg"},{"bike_id":"8ce8f6b2-faaa-43b9-92b6-993c0ca177c6","system_id":"levelo_inurba_marseille","lat":43.30806,"lon":5.38153,"is_reserved":false,"is_disabled":false,"rental_uris":{"android":"levelo://app?vid=8ce8f6b2-faaa-43b9-92b6-993c0ca177c6","ios":"levelo://app?vid=8ce8f6b2-faaa-43b9-92b6-993c0ca177c6"},"vehicle_type_id":"4","last_reported":1758834522,"current_range_meters":14000,"station_id":"ce4bgt12rcd13ifvqce0","pricing_plan_id":"cebpf4jnsgd1na2vs0mg"},{"bike_id":"8c4ab826-cb2f-429d-8756-e71c08799e2a","system_id":"levelo_inurba_marseille","lat":43.31085,"lon":5.37775,"is_reserved":false,"is_disabled":false,"rental_uris":{"android":"levelo://app?vid=8c4ab826-cb2f-429d-8756-e71c08799e2a","ios":"levelo://app?vid=8c4ab826-cb2f-429d-8756-e71c08799e2a"},"vehicle_type_id":"4","last_reported":1758834522,"current_range_meters":14000,"station_id":"ce4bgt92rcd13ifvqcg0","pricing_plan_id":"cebpf4jnsgd1na2vs0mg"},{"bike_id":"d734f0f7-bb82-4cbc-9571-824c32d91d22","system_id":"levelo_inurba_marseille","lat":43.24165,"lon":5.36409,"is_reserved":false,"is_disabled":false,"rental_uris":{"android":"levelo://app?vid=d734f0f7-bb82-4cbc-9571-824c32d91d22","ios":"levelo://app?vid=d734f0f7-bb82-4cbc-9571-824c32d91d22"},"vehicle_type_id":"4","last_reported":1758834522,"current_range_meters":14000,"station_id":"cpo36qri1sfpv3e86is0","pricing_plan_id":"cebpf4jnsgd1na2vs0mg"},{"bike_id":"041cd397-24ab-4e04-af23-07b961e161f4","system_id":"levelo_inurba_marseille","lat":43.337444,"lon":5.374475,"is_reserved":false,"is_disabled":false,"rental_uris":{"android":"levelo://app?vid=041cd397-24ab-4e04-af23-07b961e161f4","ios":"levelo://app?vid=041cd397-24ab-4e04-af23-07b961e161f4"},"vehicle_type_id":"4","last_reported":1758834522,"current_range_meters":14000,"station_id":"","pricing_plan_id":"cebpf4jnsgd1na2vs0mg"},{"bike_id":"97a5ee76-2e0a-479d-a727-d5a9ad8fecb2","system_id":"levelo_inurba_marseille","lat":43.22937,"lon":5.35368,"is_reserved":false,"is_disabled":false,"rental_uris":{"android":"levelo://app?vid=97a5ee76-2e0a-479d-a727-d5a9ad8fecb2","ios":"levelo://app?vid=97a5ee76-2e0a-479d-a727-d5a9ad8fecb2"},"vehicle_type_id":"4","last_reported":1758834522,"current_range_meters":14400,"station_id":"cpo3532slgdg3j2ikp40","pricing_plan_id":"cebpf4jnsgd1na2vs0mg"},{"bike_id":"df649d25-1f44-4471-8cdd-9566da8ef9b9","system_id":"levelo_inurba_marseille","lat":43.32165,"lon":5.38788,"is_reserved":false,"is_disabled":false,"rental_uris":{"android":"levelo://app?vid=df649d25-1f44-4471-8cdd-9566da8ef9b9","ios":"levelo://app?vid=df649d25-1f44-4471-8cdd-9566da8ef9b9"},"vehicle_type_id":"4","last_reported":1758834522,"current_range_meters":14400,"station_id":"","pricing_plan_id":"cebpf4jnsgd1na2vs0mg"},{"bike_id":"c6b3e536-9745-4760-93b7-a9b7697329d8","system_id":"levelo_inurba_marseille","lat":43.28424,"lon":5.34986,"is_reserved":false,"is_disabled":false,"rental_uris":{"android":"levelo://app?vid=c6b3e536-9745-4760-93b7-a9b7697329d8","ios":"levelo://app?vid=c6b3e536-9745-4760-93b7-a9b7697329d8"},"vehicle_type_id":"4","last_reported":1758834522,"current_range_meters":14400,"station_id":"ce4bhbh2rcd13ifvqepg","pricing_plan_id":"cebpf4jnsgd1na2vs0mg"},{"bike_id":"d4ac8b16-e5fe-4025-a55c-c3e92ea13551","system_id":"levelo_inurba_marseille","lat":43.25095,"lon":5.39504,"is_reserved":false,"is_disabled":false,"rental_uris":{"android":"levelo://app?vid=d4ac8b16-e5fe-4025-a55c-c3e92ea13551","ios":"levelo://app?vid=d4ac8b16-e5fe-4025-a55c-c3e92ea13551"},"vehicle_type_id":"4","last_reported":1758834522,"current_range_meters":14400,"station_id":"ce4bhm12rcd13ifvqgkg","pricing_plan_id":"cebpf4jnsgd1na2vs0mg"},{"bike_id":"8fd54bca-71d1-44cf-9ae4-23cc4e28462c","system_id":"levelo_inurba_marseille","lat":43.29562,"lon":5.38146,"is_reserved":false,"is_disabled":false,"rental_uris":{"android":"levelo://app?vid=8fd54bca-71d1-44cf-9ae4-23cc4e28462c","ios":"levelo://app?vid=8fd54bca-71d1-44cf-9ae4-23cc4e28462c"},"vehicle_type_id":"4","last_reported":1758834522,"current_range_meters":14400,"station_id":"","pricing_plan_id":"cebpf4jnsgd1na2vs0mg"},{"bike_id":"b6ff3672-4e7c-404c-ab2a-bd902cf95e14","system_id":"levelo_inurba_marseille","lat":43.26863,"lon":5.40672,"is_reserved":false,"is_disabled":false,"rental_uris":{"android":"levelo://app?vid=b6ff3672-4e7c-404c-ab2a-bd902cf95e14","ios":"levelo://app?vid=b6ff3672-4e7c-404c-ab2a-bd902cf95e14"},"vehicle_type_id":"4","last_reported":1758834522,"current_range_meters":14400,"station_id":"","pricing_plan_id":"cebpf4jnsgd1na2vs0mg"},{"bike_id":"97bfabe2-678f-4469-8156-b2c689b4137d","system_id":"levelo_inurba_marseille","lat":43.31998,"lon":5.38135,"is_reserved":false,"is_disabled":false,"rental_uris":{"android":"levelo://app?vid=97bfabe2-678f-4469-8156-b2c689b4137d","ios":"levelo://app?vid=97bfabe2-678f-4469-8156-b2c689b4137d"},"vehicle_type_id":"4","last_reported":1758834522,"current_range_meters":14800,"station_id":"ce4bhr12rcd13ifvqhpg","pricing_plan_id":"cebpf4jnsgd1na2vs0mg"},{"bike_id":"232f7f05-11b0-4e83-87a0-d64195604901","system_id":"levelo_inurba_marseille","lat":43.2799,"lon":5.41659,"is_reserved":false,"is_disabled":false,"rental_uris":{"android":"levelo://app?vid=232f7f05-11b0-4e83-87a0-d64195604901","ios":"levelo://app?vid=232f7f05-11b0-4e83-87a0-d64195604901"},"vehicle_type_id":"4","last_reported":1758834522,"current_range_meters":14800,"station_id":"ce4bho12rcd13ifvqh1g","pricing_plan_id":"cebpf4jnsgd1na2vs0mg"},{"bike_id":"6d2eb950-d164-4577-9873-486899ca731f","system_id":"levelo_inurba_marseille","lat":43.30881,"lon":5.39636,"is_reserved":false,"is_disabled":false,"rental_uris":{"android":"levelo://app?vid=6d2eb950-d164-4577-9873-486899ca731f","ios":"levelo://app?vid=6d2eb950-d164-4577-9873-486899ca731f"},"vehicle_type_id":"4","last_reported":1758834522,"current_range_meters":14400,"station_id":"ce4bh012rcd13ifvqcv0","pricing_plan_id":"cebpf4jnsgd1na2vs0mg"},{"bike_id":"c31c58ee-4e29-4ce3-bf0a-25ae5cf57cfc","system_id":"levelo_inurba_marseille","lat":43.24961,"lon":5.40504,"is_reserved":false,"is_disabled":false,"rental_uris":{"android":"levelo://app?vid=c31c58ee-4e29-4ce3-bf0a-25ae5cf57cfc","ios":"levelo://app?vid=c31c58ee-4e29-4ce3-bf0a-25ae5cf57cfc"},"vehicle_type_id":"4","last_reported":1758834522,"current_range_meters":14800,"station_id":"st_d2ngiaodas8pm72gd1h0","pricing_plan_id":"cebpf4jnsgd1na2vs0mg"},{"bike_id":"f5790c8e-d5bd-4a08-aa85-ed56ad9fb78f","system_id":"levelo_inurba_marseille","lat":43.29526,"lon":5.39405,"is_reserved":false,"is_disabled":false,"rental_uris":{"android":"levelo://app?vid=f5790c8e-d5bd-4a08-aa85-ed56ad9fb78f","ios":"levelo://app?vid=f5790c8e-d5bd-4a08-aa85-ed56ad9fb78f"},"vehicle_type_id":"4","last_reported":1758834522,"current_range_meters":15200,"station_id":"ce4bh292rcd13ifvqdf0","pricing_plan_id":"cebpf4jnsgd1na2vs0mg"},{"bike_id":"ea2ca6bf-43d8-4b42-bacf-294aba32c875","system_id":"levelo_inurba_marseille","lat":43.31289,"lon":5.4012,"is_reserved":false,"is_disabled":false,"rental_uris":{"android":"levelo://app?vid=ea2ca6bf-43d8-4b42-bacf-294aba32c875","ios":"levelo://app?vid=ea2ca6bf-43d8-4b42-bacf-294aba32c875"},"vehicle_type_id":"4","last_reported":1758834522,"current_range_meters":16400,"station_id":"ce4bh092rcd13ifvqd30","pricing_plan_id":"cebpf4jnsgd1na2vs0mg"},{"bike_id":"39e6b2d7-e7bc-4366-8a01-87bc46855564","system_id":"levelo_inurba_marseille","lat":43.3214,"lon":5.36808,"is_reserved":false,"is_disabled":false,"rental_uris":{"android":"levelo://app?vid=39e6b2d7-e7bc-4366-8a01-87bc46855564","ios":"levelo://app?vid=39e6b2d7-e7bc-4366-8a01-87bc46855564"},"vehicle_type_id":"4","last_reported":1758834522,"current_range_meters":14800,"station_id":"","pricing_plan_id":"cebpf4jnsgd1na2vs0mg"},{"bike_id":"97be8e1b-8e50-4131-b4ce-8a578ed1e157","system_id":"levelo_inurba_marseille","lat":43.29281,"lon":5.3685,"is_reserved":false,"is_disabled":false,"rental_uris":{"android":"levelo://app?vid=97be8e1b-8e50-4131-b4ce-8a578ed1e157","ios":"levelo://app?vid=97be8e1b-8e50-4131-b4ce-8a578ed1e157"},"vehicle_type_id":"4","last_reported":1758834522,"current_range_meters":15200,"station_id":"ce4bhbp2rcd13ifvqesg","pricing_plan_id":"cebpf4jnsgd1na2vs0mg"},{"bike_id":"22d0a681-3a7c-44f3-96ed-3bb44961739a","system_id":"levelo_inurba_marseille","lat":43.28935,"lon":5.36402,"is_reserved":false,"is_disabled":false,"rental_uris":{"android":"levelo://app?vid=22d0a681-3a7c-44f3-96ed-3bb44961739a","ios":"levelo://app?vid=22d0a681-3a7c-44f3-96ed-3bb44961739a"},"vehicle_type_id":"4","last_reported":1758834522,"current_range_meters":15200,"station_id":"ce4bhc92rcd13ifvqetg","pricing_plan_id":"cebpf4jnsgd1na2vs0mg"},{"bike_id":"b0934032-3d3c-44e1-985e-e72b8cee3491","system_id":"levelo_inurba_marseille","lat":43.2463,"lon":5.43135,"is_reserved":false,"is_disabled":false,"rental_uris":{"android":"levelo://app?vid=b0934032-3d3c-44e1-985e-e72b8cee3491","ios":"levelo://app?vid=b0934032-3d3c-44e1-985e-e72b8cee3491"},"vehicle_type_id":"4","last_reported":1758834522,"current_range_meters":15200,"station_id":"st_d2m6c4gdas8pm72e190g","pricing_plan_id":"cebpf4jnsgd1na2vs0mg"},{"bike_id":"b41f3a2f-f6c6-4cda-9625-a5bad6cd6a2c","system_id":"levelo_inurba_marseille","lat":43.31486,"lon":5.37307,"is_reserved":false,"is_disabled":false,"rental_uris":{"android":"levelo://app?vid=b41f3a2f-f6c6-4cda-9625-a5bad6cd6a2c","ios":"levelo://app?vid=b41f3a2f-f6c6-4cda-9625-a5bad6cd6a2c"},"vehicle_type_id":"4","last_reported":1758834522,"current_range_meters":15200,"station_id":"ce4bgt12rcd13ifvqcd0","pricing_plan_id":"cebpf4jnsgd1na2vs0mg"},{"bike_id":"9811e1f7-6003-4f66-9587-6fdbbe85e0ed","system_id":"levelo_inurba_marseille","lat":43.2955,"lon":5.42273,"is_reserved":false,"is_disabled":false,"rental_uris":{"android":"levelo://app?vid=9811e1f7-6003-4f66-9587-6fdbbe85e0ed","ios":"levelo://app?vid=9811e1f7-6003-4f66-9587-6fdbbe85e0ed"},"vehicle_type_id":"4","last_reported":1758834522,"current_range_meters":15200,"station_id":"ce4bhph2rcd13ifvqhdg","pricing_plan_id":"cebpf4jnsgd1na2vs0mg"},{"bike_id":"a57b3feb-2354-42fe-87fd-e8fcee3a0260","system_id":"levelo_inurba_marseille","lat":43.26953,"lon":5.40241,"is_reserved":false,"is_disabled":false,"rental_uris":{"android":"levelo://app?vid=a57b3feb-2354-42fe-87fd-e8fcee3a0260","ios":"levelo://app?vid=a57b3feb-2354-42fe-87fd-e8fcee3a0260"},"vehicle_type_id":"4","last_reported":1758834522,"current_range_meters":15200,"station_id":"","pricing_plan_id":"cebpf4jnsgd1na2vs0mg"},{"bike_id":"81513c38-4122-42c9-a5eb-4cb5b1dc4508","system_id":"levelo_inurba_marseille","lat":43.2953,"lon":5.38535,"is_reserved":false,"is_disabled":false,"rental_uris":{"android":"levelo://app?vid=81513c38-4122-42c9-a5eb-4cb5b1dc4508","ios":"levelo://app?vid=81513c38-4122-42c9-a5eb-4cb5b1dc4508"},"vehicle_type_id":"4","last_reported":1758834522,"current_range_meters":16000,"station_id":"ce4bgih2rcd13ifvqba0","pricing_plan_id":"cebpf4jnsgd1na2vs0mg"},{"bike_id":"7e848ad8-3b46-4990-8791-073379270774","system_id":"levelo_inurba_marseille","lat":43.27283,"lon":5.39048,"is_reserved":false,"is_disabled":true,"rental_uris":{"android":"levelo://app?vid=7e848ad8-3b46-4990-8791-073379270774","ios":"levelo://app?vid=7e848ad8-3b46-4990-8791-073379270774"},"vehicle_type_id":"4","last_reported":1758834522,"current_range_meters":16000,"station_id":"ce4bhgp2rcd13ifvqfe0","pricing_plan_id":"cebpf4jnsgd1na2vs0mg"},{"bike_id":"028ec748-0688-466e-9bb1-3c3d65207629","system_id":"levelo_inurba_marseille","lat":43.30881,"lon":5.39653,"is_reserved":false,"is_disabled":false,"rental_uris":{"android":"levelo://app?vid=028ec748-0688-466e-9bb1-3c3d65207629","ios":"levelo://app?vid=028ec748-0688-466e-9bb1-3c3d65207629"},"vehicle_type_id":"4","last_reported":1758834522,"current_range_meters":15200,"station_id":"ce4bh012rcd13ifvqcv0","pricing_plan_id":"cebpf4jnsgd1na2vs0mg"},{"bike_id":"288fd43a-7262-4d1d-ba4e-172b9463b55b","system_id":"levelo_inurba_marseille","lat":43.26211,"lon":5.37442,"is_reserved":false,"is_disabled":false,"rental_uris":{"android":"levelo://app?vid=288fd43a-7262-4d1d-ba4e-172b9463b55b","ios":"levelo://app?vid=288fd43a-7262-4d1d-ba4e-172b9463b55b"},"vehicle_type_id":"4","last_reported":1758834522,"current_range_meters":16000,"station_id":"ce4bhgp2rcd13ifvqfc0","pricing_plan_id":"cebpf4jnsgd1na2vs0mg"},{"bike_id":"b01b5bc6-6834-41fb-be97-f5b6fb7e9ec8","system_id":"levelo_inurba_marseille","lat":43.26325,"lon":5.39851,"is_reserved":false,"is_disabled":false,"rental_uris":{"android":"levelo://app?vid=b01b5bc6-6834-41fb-be97-f5b6fb7e9ec8","ios":"levelo://app?vid=b01b5bc6-6834-41fb-be97-f5b6fb7e9ec8"},"vehicle_type_id":"4","last_reported":1758834522,"current_range_meters":16000,"station_id":"","pricing_plan_id":"cebpf4jnsgd1na2vs0mg"},{"bike_id":"b4f47bc1-4d12-4541-a757-a859819c9d1c","system_id":"levelo_inurba_marseille","lat":43.276802,"lon":5.388803,"is_reserved":false,"is_disabled":true,"rental_uris":{"android":"levelo://app?vid=b4f47bc1-4d12-4541-a757-a859819c9d1c","ios":"levelo://app?vid=b4f47bc1-4d12-4541-a757-a859819c9d1c"},"vehicle_type_id":"4","last_reported":1758834522,"current_range_meters":16000,"station_id":"","pricing_plan_id":"cebpf4jnsgd1na2vs0mg"},{"bike_id":"9781be90-ba61-46d6-b074-2cd5e3210009","system_id":"levelo_inurba_marseille","lat":43.32331,"lon":5.40621,"is_reserved":false,"is_disabled":false,"rental_uris":{"android":"levelo://app?vid=9781be90-ba61-46d6-b074-2cd5e3210009","ios":"levelo://app?vid=9781be90-ba61-46d6-b074-2cd5e3210009"},"vehicle_type_id":"4","last_reported":1758834522,"current_range_meters":16000,"station_id":"ce4bhq92rcd13ifvqhjg","pricing_plan_id":"cebpf4jnsgd1na2vs0mg"},{"bike_id":"f5a888db-229a-4246-81ee-0ff2a1bcfdfa","system_id":"levelo_inurba_marseille","lat":43.22929,"lon":5.35381,"is_reserved":false,"is_disabled":false,"rental_uris":{"android":"levelo://app?vid=f5a888db-229a-4246-81ee-0ff2a1bcfdfa","ios":"levelo://app?vid=f5a888db-229a-4246-81ee-0ff2a1bcfdfa"},"vehicle_type_id":"4","last_reported":1758834522,"current_range_meters":16000,"station_id":"cpo3532slgdg3j2ikp40","pricing_plan_id":"cebpf4jnsgd1na2vs0mg"},{"bike_id":"5efb8686-b6a8-4cc7-b96c-ed5da08a47ac","system_id":"levelo_inurba_marseille","lat":43.28342,"lon":5.3811,"is_reserved":false,"is_disabled":false,"rental_uris":{"android":"levelo://app?vid=5efb8686-b6a8-4cc7-b96c-ed5da08a47ac","ios":"levelo://app?vid=5efb8686-b6a8-4cc7-b96c-ed5da08a47ac"},"vehicle_type_id":"4","last_reported":1758834522,"current_range_meters":16000,"station_id":"ce4bh412rcd13ifvqdr0","pricing_plan_id":"cebpf4jnsgd1na2vs0mg"},{"bike_id":"c37a4fa9-8929-4812-9e52-967878d66fa4","system_id":"levelo_inurba_marseille","lat":43.2779,"lon":5.40704,"is_reserved":false,"is_disabled":false,"rental_uris":{"android":"levelo://app?vid=c37a4fa9-8929-4812-9e52-967878d66fa4","ios":"levelo://app?vid=c37a4fa9-8929-4812-9e52-967878d66fa4"},"vehicle_type_id":"4","last_reported":1758834522,"current_range_meters":16000,"station_id":"ce4bhnh2rcd13ifvqgtg","pricing_plan_id":"cebpf4jnsgd1na2vs0mg"},{"bike_id":"1ea9d921-9613-43bc-b04e-f3d4bd6e636d","system_id":"levelo_inurba_marseille","lat":43.32663,"lon":5.40988,"is_reserved":false,"is_disabled":false,"rental_uris":{"android":"levelo://app?vid=1ea9d921-9613-43bc-b04e-f3d4bd6e636d","ios":"levelo://app?vid=1ea9d921-9613-43bc-b04e-f3d4bd6e636d"},"vehicle_type_id":"4","last_reported":1758834522,"current_range_meters":16000,"station_id":"ce4bhpp2rcd13ifvqhgg","pricing_plan_id":"cebpf4jnsgd1na2vs0mg"},{"bike_id":"f81a0071-2e86-43dd-bd24-bde2287fbde2","system_id":"levelo_inurba_marseille","lat":43.29278,"lon":5.40115,"is_reserved":false,"is_disabled":false,"rental_uris":{"android":"levelo://app?vid=f81a0071-2e86-43dd-bd24-bde2287fbde2","ios":"levelo://app?vid=f81a0071-2e86-43dd-bd24-bde2287fbde2"},"vehicle_type_id":"4","last_reported":1758834522,"current_range_meters":16000,"station_id":"ce4bh312rcd13ifvqdk0","pricing_plan_id":"cebpf4jnsgd1na2vs0mg"},{"bike_id":"a3d93974-bacc-4c9e-ab78-e1e8d21d61de","system_id":"levelo_inurba_marseille","lat":43.28701,"lon":5.39979,"is_reserved":false,"is_disabled":false,"rental_uris":{"android":"levelo://app?vid=a3d93974-bacc-4c9e-ab78-e1e8d21d61de","ios":"levelo://app?vid=a3d93974-bacc-4c9e-ab78-e1e8d21d61de"},"vehicle_type_id":"4","last_reported":1758834522,"current_range_meters":16000,"station_id":"ce4bho92rcd13ifvqh3g","pricing_plan_id":"cebpf4jnsgd1na2vs0mg"},{"bike_id":"484bd3e6-b0c1-4fae-b8dd-62bfbd3e1eea","system_id":"levelo_inurba_marseille","lat":43.33608,"lon":5.41034,"is_reserved":false,"is_disabled":false,"rental_uris":{"android":"levelo://app?vid=484bd3e6-b0c1-4fae-b8dd-62bfbd3e1eea","ios":"levelo://app?vid=484bd3e6-b0c1-4fae-b8dd-62bfbd3e1eea"},"vehicle_type_id":"4","last_reported":1758834522,"current_range_meters":16400,"station_id":"ce4bhqh2rcd13ifvqhmg","pricing_plan_id":"cebpf4jnsgd1na2vs0mg"},{"bike_id":"62715686-f744-46bf-8dd9-e63deb32cdf4","system_id":"levelo_inurba_marseille","lat":43.28906,"lon":5.3638,"is_reserved":false,"is_disabled":false,"rental_uris":{"android":"levelo://app?vid=62715686-f744-46bf-8dd9-e63deb32cdf4","ios":"levelo://app?vid=62715686-f744-46bf-8dd9-e63deb32cdf4"},"vehicle_type_id":"4","last_reported":1758834522,"current_range_meters":16400,"station_id":"ce4bhc92rcd13ifvqetg","pricing_plan_id":"cebpf4jnsgd1na2vs0mg"},{"bike_id":"6f97756d-103a-472e-9ee0-e1b6357d8727","system_id":"levelo_inurba_marseille","lat":43.30858,"lon":5.39678,"is_reserved":false,"is_disabled":false,"rental_uris":{"android":"levelo://app?vid=6f97756d-103a-472e-9ee0-e1b6357d8727","ios":"levelo://app?vid=6f97756d-103a-472e-9ee0-e1b6357d8727"},"vehicle_type_id":"4","last_reported":1758834522,"current_range_meters":16400,"station_id":"","pricing_plan_id":"cebpf4jnsgd1na2vs0mg"},{"bike_id":"4a275e96-8fbb-451f-8264-73bdbf9b7cfd","system_id":"levelo_inurba_marseille","lat":43.28458,"lon":5.35883,"is_reserved":false,"is_disabled":false,"rental_uris":{"android":"levelo://app?vid=4a275e96-8fbb-451f-8264-73bdbf9b7cfd","ios":"levelo://app?vid=4a275e96-8fbb-451f-8264-73bdbf9b7cfd"},"vehicle_type_id":"4","last_reported":1758834522,"current_range_meters":16400,"station_id":"ce4bhah2rcd13ifvqei0","pricing_plan_id":"cebpf4jnsgd1na2vs0mg"},{"bike_id":"13be0879-670b-43f4-8fc1-8fbc1c4ccf9c","system_id":"levelo_inurba_marseille","lat":43.28433,"lon":5.34986,"is_reserved":false,"is_disabled":false,"rental_uris":{"android":"levelo://app?vid=13be0879-670b-43f4-8fc1-8fbc1c4ccf9c","ios":"levelo://app?vid=13be0879-670b-43f4-8fc1-8fbc1c4ccf9c"},"vehicle_type_id":"4","last_reported":1758834522,"current_range_meters":16400,"station_id":"ce4bhbh2rcd13ifvqepg","pricing_plan_id":"cebpf4jnsgd1na2vs0mg"},{"bike_id":"b0e9c894-5414-4237-b0c8-32f0e91cae29","system_id":"levelo_inurba_marseille","lat":43.3154,"lon":5.3804,"is_reserved":false,"is_disabled":false,"rental_uris":{"android":"levelo://app?vid=b0e9c894-5414-4237-b0c8-32f0e91cae29","ios":"levelo://app?vid=b0e9c894-5414-4237-b0c8-32f0e91cae29"},"vehicle_type_id":"4","last_reported":1758834522,"current_range_meters":16400,"station_id":"ce4bhsp2rcd13ifvqi50","pricing_plan_id":"cebpf4jnsgd1na2vs0mg"},{"bike_id":"327c041e-5c9e-4b0d-a97c-a2dbaab036ae","system_id":"levelo_inurba_marseille","lat":43.32807,"lon":5.41062,"is_reserved":false,"is_disabled":false,"rental_uris":{"android":"levelo://app?vid=327c041e-5c9e-4b0d-a97c-a2dbaab036ae","ios":"levelo://app?vid=327c041e-5c9e-4b0d-a97c-a2dbaab036ae"},"vehicle_type_id":"4","last_reported":1758834522,"current_range_meters":16800,"station_id":"","pricing_plan_id":"cebpf4jnsgd1na2vs0mg"},{"bike_id":"aa19f2a2-187b-4635-9147-135471094c5a","system_id":"levelo_inurba_marseille","lat":43.2927,"lon":5.40916,"is_reserved":false,"is_disabled":false,"rental_uris":{"android":"levelo://app?vid=aa19f2a2-187b-4635-9147-135471094c5a","ios":"levelo://app?vid=aa19f2a2-187b-4635-9147-135471094c5a"},"vehicle_type_id":"4","last_reported":1758834522,"current_range_meters":16800,"station_id":"ce4bh192rcd13ifvqdc0","pricing_plan_id":"cebpf4jnsgd1na2vs0mg"},{"bike_id":"450105b9-c22a-49ab-be5d-edb16f342a35","system_id":"levelo_inurba_marseille","lat":43.29886,"lon":5.38907,"is_reserved":false,"is_disabled":false,"rental_uris":{"android":"levelo://app?vid=450105b9-c22a-49ab-be5d-edb16f342a35","ios":"levelo://app?vid=450105b9-c22a-49ab-be5d-edb16f342a35"},"vehicle_type_id":"4","last_reported":1758834522,"current_range_meters":16800,"station_id":"ce4bh392rcd13ifvqdl0","pricing_plan_id":"cebpf4jnsgd1na2vs0mg"},{"bike_id":"75611fb7-df45-4d9f-9db0-a181136cc424","system_id":"levelo_inurba_marseille","lat":43.21757,"lon":5.34603,"is_reserved":false,"is_disabled":true,"rental_uris":{"android":"levelo://app?vid=75611fb7-df45-4d9f-9db0-a181136cc424","ios":"levelo://app?vid=75611fb7-df45-4d9f-9db0-a181136cc424"},"vehicle_type_id":"4","last_reported":1758834522,"current_range_meters":16800,"station_id":"st_cvj6r9ubvosntc0bgbag","pricing_plan_id":"cebpf4jnsgd1na2vs0mg"},{"bike_id":"280349c2-7d75-4732-844a-272770d12d07","system_id":"levelo_inurba_marseille","lat":43.249527,"lon":5.404894,"is_reserved":false,"is_disabled":false,"rental_uris":{"android":"levelo://app?vid=280349c2-7d75-4732-844a-272770d12d07","ios":"levelo://app?vid=280349c2-7d75-4732-844a-272770d12d07"},"vehicle_type_id":"4","last_reported":1758834522,"current_range_meters":16800,"station_id":"st_d2ngiaodas8pm72gd1h0","pricing_plan_id":"cebpf4jnsgd1na2vs0mg"},{"bike_id":"49410c27-7a7a-47db-9d49-81903c0a2087","system_id":"levelo_inurba_marseille","lat":43.2836,"lon":5.38091,"is_reserved":false,"is_disabled":false,"rental_uris":{"android":"levelo://app?vid=49410c27-7a7a-47db-9d49-81903c0a2087","ios":"levelo://app?vid=49410c27-7a7a-47db-9d49-81903c0a2087"},"vehicle_type_id":"4","last_reported":1758834522,"current_range_meters":16800,"station_id":"ce4bh412rcd13ifvqdr0","pricing_plan_id":"cebpf4jnsgd1na2vs0mg"},{"bike_id":"ddfc760f-fcb9-4a30-a293-16cfa589da65","system_id":"levelo_inurba_marseille","lat":43.27817,"lon":5.40709,"is_reserved":false,"is_disabled":false,"rental_uris":{"android":"levelo://app?vid=ddfc760f-fcb9-4a30-a293-16cfa589da65","ios":"levelo://app?vid=ddfc760f-fcb9-4a30-a293-16cfa589da65"},"vehicle_type_id":"4","last_reported":1758834522,"current_range_meters":16800,"station_id":"ce4bhnh2rcd13ifvqgtg","pricing_plan_id":"cebpf4jnsgd1na2vs0mg"},{"bike_id":"ccabd35a-a691-4eed-acd2-dce907f56433","system_id":"levelo_inurba_marseille","lat":43.32338,"lon":5.40619,"is_reserved":false,"is_disabled":false,"rental_uris":{"android":"levelo://app?vid=ccabd35a-a691-4eed-acd2-dce907f56433","ios":"levelo://app?vid=ccabd35a-a691-4eed-acd2-dce907f56433"},"vehicle_type_id":"4","last_reported":1758834522,"current_range_meters":16800,"station_id":"ce4bhq92rcd13ifvqhjg","pricing_plan_id":"cebpf4jnsgd1na2vs0mg"},{"bike_id":"b2219950-bb22-4648-9ba4-18cd9cf365ce","system_id":"levelo_inurba_marseille","lat":43.25106,"lon":5.39496,"is_reserved":false,"is_disabled":false,"rental_uris":{"android":"levelo://app?vid=b2219950-bb22-4648-9ba4-18cd9cf365ce","ios":"levelo://app?vid=b2219950-bb22-4648-9ba4-18cd9cf365ce"},"vehicle_type_id":"4","last_reported":1758834522,"current_range_meters":16800,"station_id":"ce4bhm12rcd13ifvqgkg","pricing_plan_id":"cebpf4jnsgd1na2vs0mg"},{"bike_id":"46a648bf-42a5-4fc5-b881-b77e8e43b612","system_id":"levelo_inurba_marseille","lat":43.2293,"lon":5.35376,"is_reserved":false,"is_disabled":false,"rental_uris":{"android":"levelo://app?vid=46a648bf-42a5-4fc5-b881-b77e8e43b612","ios":"levelo://app?vid=46a648bf-42a5-4fc5-b881-b77e8e43b612"},"vehicle_type_id":"4","last_reported":1758834522,"current_range_meters":16800,"station_id":"cpo3532slgdg3j2ikp40","pricing_plan_id":"cebpf4jnsgd1na2vs0mg"},{"bike_id":"377142cb-267c-494b-99d9-6fe238c4e676","system_id":"levelo_inurba_marseille","lat":43.30974,"lon":5.40817,"is_reserved":false,"is_disabled":false,"rental_uris":{"android":"levelo://app?vid=377142cb-267c-494b-99d9-6fe238c4e676","ios":"levelo://app?vid=377142cb-267c-494b-99d9-6fe238c4e676"},"vehicle_type_id":"4","last_reported":1758834522,"current_range_meters":16800,"station_id":"","pricing_plan_id":"cebpf4jnsgd1na2vs0mg"},{"bike_id":"08fe2b08-b3fa-43f8-ae73-04061f76318d","system_id":"levelo_inurba_marseille","lat":43.305552,"lon":5.365395,"is_reserved":false,"is_disabled":false,"rental_uris":{"android":"levelo://app?vid=08fe2b08-b3fa-43f8-ae73-04061f76318d","ios":"levelo://app?vid=08fe2b08-b3fa-43f8-ae73-04061f76318d"},"vehicle_type_id":"4","last_reported":1758834522,"current_range_meters":16800,"station_id":"","pricing_plan_id":"cebpf4jnsgd1na2vs0mg"},{"bike_id":"c110996d-22e7-4035-9eef-b37954d27511","system_id":"levelo_inurba_marseille","lat":43.23198,"lon":5.35553,"is_reserved":false,"is_disabled":false,"rental_uris":{"android":"levelo://app?vid=c110996d-22e7-4035-9eef-b37954d27511","ios":"levelo://app?vid=c110996d-22e7-4035-9eef-b37954d27511"},"vehicle_type_id":"4","last_reported":1758834522,"current_range_meters":16800,"station_id":"ce4bhu92rcd13ifvqi70","pricing_plan_id":"cebpf4jnsgd1na2vs0mg"},{"bike_id":"1d5d14cf-15e7-4470-bff9-613bb9abe120","system_id":"levelo_inurba_marseille","lat":43.33482,"lon":5.420686,"is_reserved":false,"is_disabled":false,"rental_uris":{"android":"levelo://app?vid=1d5d14cf-15e7-4470-bff9-613bb9abe120","ios":"levelo://app?vid=1d5d14cf-15e7-4470-bff9-613bb9abe120"},"vehicle_type_id":"4","last_reported":1758834522,"current_range_meters":16800,"station_id":"","pricing_plan_id":"cebpf4jnsgd1na2vs0mg"},{"bike_id":"4ca03bb8-02f5-45cd-952c-53c4b1c26372","system_id":"levelo_inurba_marseille","lat":43.29249,"lon":5.38435,"is_reserved":false,"is_disabled":false,"rental_uris":{"android":"levelo://app?vid=4ca03bb8-02f5-45cd-952c-53c4b1c26372","ios":"levelo://app?vid=4ca03bb8-02f5-45cd-952c-53c4b1c26372"},"vehicle_type_id":"4","last_reported":1758834522,"current_range_meters":16800,"station_id":"ce4bh692rcd13ifvqea0","pricing_plan_id":"cebpf4jnsgd1na2vs0mg"},{"bike_id":"10b8d871-07e9-4114-9eb9-6bcce40e7beb","system_id":"levelo_inurba_marseille","lat":43.27045,"lon":5.392226,"is_reserved":false,"is_disabled":false,"rental_uris":{"android":"levelo://app?vid=10b8d871-07e9-4114-9eb9-6bcce40e7beb","ios":"levelo://app?vid=10b8d871-07e9-4114-9eb9-6bcce40e7beb"},"vehicle_type_id":"4","last_reported":1758834522,"current_range_meters":16800,"station_id":"ce4bhe12rcd13ifvqf30","pricing_plan_id":"cebpf4jnsgd1na2vs0mg"},{"bike_id":"0de847a2-59aa-4ed3-a6f3-b8ab4a32ef36","system_id":"levelo_inurba_marseille","lat":43.29573,"lon":5.39959,"is_reserved":false,"is_disabled":false,"rental_uris":{"android":"levelo://app?vid=0de847a2-59aa-4ed3-a6f3-b8ab4a32ef36","ios":"levelo://app?vid=0de847a2-59aa-4ed3-a6f3-b8ab4a32ef36"},"vehicle_type_id":"4","last_reported":1758834522,"current_range_meters":16800,"station_id":"","pricing_plan_id":"cebpf4jnsgd1na2vs0mg"},{"bike_id":"479a733a-832d-4fd4-820c-03bc949930ca","system_id":"levelo_inurba_marseille","lat":43.27559,"lon":5.38415,"is_reserved":false,"is_disabled":false,"rental_uris":{"android":"levelo://app?vid=479a733a-832d-4fd4-820c-03bc949930ca","ios":"levelo://app?vid=479a733a-832d-4fd4-820c-03bc949930ca"},"vehicle_type_id":"4","last_reported":1758834522,"current_range_meters":16800,"station_id":"ce4bhh92rcd13ifvqfi0","pricing_plan_id":"cebpf4jnsgd1na2vs0mg"},{"bike_id":"a006993e-7f72-4321-948a-07f1537e282b","system_id":"levelo_inurba_marseille","lat":43.29158,"lon":5.37168,"is_reserved":false,"is_disabled":false,"rental_uris":{"android":"levelo://app?vid=a006993e-7f72-4321-948a-07f1537e282b","ios":"levelo://app?vid=a006993e-7f72-4321-948a-07f1537e282b"},"vehicle_type_id":"4","last_reported":1758834522,"current_range_meters":17200,"station_id":"ce4bha92rcd13ifvqeh0","pricing_plan_id":"cebpf4jnsgd1na2vs0mg"},{"bike_id":"467b4306-5fd8-484e-9a4b-cf8eb50151ba","system_id":"levelo_inurba_marseille","lat":43.32291,"lon":5.38248,"is_reserved":false,"is_disabled":false,"rental_uris":{"android":"levelo://app?vid=467b4306-5fd8-484e-9a4b-cf8eb50151ba","ios":"levelo://app?vid=467b4306-5fd8-484e-9a4b-cf8eb50151ba"},"vehicle_type_id":"4","last_reported":1758834522,"current_range_meters":17200,"station_id":"ce4bhr12rcd13ifvqhqg","pricing_plan_id":"cebpf4jnsgd1na2vs0mg"},{"bike_id":"7d386e92-0637-4894-be92-264d6a72c11e","system_id":"levelo_inurba_marseille","lat":43.28442,"lon":5.34981,"is_reserved":false,"is_disabled":false,"rental_uris":{"android":"levelo://app?vid=7d386e92-0637-4894-be92-264d6a72c11e","ios":"levelo://app?vid=7d386e92-0637-4894-be92-264d6a72c11e"},"vehicle_type_id":"4","last_reported":1758834522,"current_range_meters":17200,"station_id":"ce4bhbh2rcd13ifvqepg","pricing_plan_id":"cebpf4jnsgd1na2vs0mg"},{"bike_id":"46d92f98-aa3a-4a1f-97ff-1bad4e7ecc95","system_id":"levelo_inurba_marseille","lat":43.26812,"lon":5.40259,"is_reserved":false,"is_disabled":false,"rental_uris":{"android":"levelo://app?vid=46d92f98-aa3a-4a1f-97ff-1bad4e7ecc95","ios":"levelo://app?vid=46d92f98-aa3a-4a1f-97ff-1bad4e7ecc95"},"vehicle_type_id":"4","last_reported":1758834522,"current_range_meters":17200,"station_id":"ce501612rcd8frsf0b60","pricing_plan_id":"cebpf4jnsgd1na2vs0mg"},{"bike_id":"330b2c47-f746-44c7-9f13-5ee538bbcad2","system_id":"levelo_inurba_marseille","lat":43.28357,"lon":5.38086,"is_reserved":false,"is_disabled":false,"rental_uris":{"android":"levelo://app?vid=330b2c47-f746-44c7-9f13-5ee538bbcad2","ios":"levelo://app?vid=330b2c47-f746-44c7-9f13-5ee538bbcad2"},"vehicle_type_id":"4","last_reported":1758834522,"current_range_meters":17200,"station_id":"ce4bh412rcd13ifvqdr0","pricing_plan_id":"cebpf4jnsgd1na2vs0mg"},{"bike_id":"6924e35a-6e1a-4cc2-994f-51d06ed75695","system_id":"levelo_inurba_marseille","lat":43.24992,"lon":5.38935,"is_reserved":false,"is_disabled":false,"rental_uris":{"android":"levelo://app?vid=6924e35a-6e1a-4cc2-994f-51d06ed75695","ios":"levelo://app?vid=6924e35a-6e1a-4cc2-994f-51d06ed75695"},"vehicle_type_id":"4","last_reported":1758834522,"current_range_meters":17200,"station_id":"ce4bhgp2rcd13ifvqfd0","pricing_plan_id":"cebpf4jnsgd1na2vs0mg"},{"bike_id":"6ff62d79-81a4-487f-8694-4fb22f54a494","system_id":"levelo_inurba_marseille","lat":43.32486,"lon":5.3919,"is_reserved":false,"is_disabled":false,"rental_uris":{"android":"levelo://app?vid=6ff62d79-81a4-487f-8694-4fb22f54a494","ios":"levelo://app?vid=6ff62d79-81a4-487f-8694-4fb22f54a494"},"vehicle_type_id":"4","last_reported":1758834522,"current_range_meters":17200,"station_id":"","pricing_plan_id":"cebpf4jnsgd1na2vs0mg"},{"bike_id":"c428f80b-bd6a-4e94-a7c9-eacff36a382d","system_id":"levelo_inurba_marseille","lat":43.28848,"lon":5.35853,"is_reserved":false,"is_disabled":false,"rental_uris":{"android":"levelo://app?vid=c428f80b-bd6a-4e94-a7c9-eacff36a382d","ios":"levelo://app?vid=c428f80b-bd6a-4e94-a7c9-eacff36a382d"},"vehicle_type_id":"4","last_reported":1758834522,"current_range_meters":17200,"station_id":"ce4bhb12rcd13ifvqem0","pricing_plan_id":"cebpf4jnsgd1na2vs0mg"},{"bike_id":"208d8654-3228-40c7-b9c8-8618c2e5fa52","system_id":"levelo_inurba_marseille","lat":43.28645,"lon":5.38263,"is_reserved":false,"is_disabled":false,"rental_uris":{"android":"levelo://app?vid=208d8654-3228-40c7-b9c8-8618c2e5fa52","ios":"levelo://app?vid=208d8654-3228-40c7-b9c8-8618c2e5fa52"},"vehicle_type_id":"4","last_reported":1758834522,"current_range_meters":17200,"station_id":"","pricing_plan_id":"cebpf4jnsgd1na2vs0mg"},{"bike_id":"11691f1d-e624-4821-af5b-86cd6f6d081a","system_id":"levelo_inurba_marseille","lat":43.27971,"lon":5.41055,"is_reserved":false,"is_disabled":false,"rental_uris":{"android":"levelo://app?vid=11691f1d-e624-4821-af5b-86cd6f6d081a","ios":"levelo://app?vid=11691f1d-e624-4821-af5b-86cd6f6d081a"},"vehicle_type_id":"4","last_reported":1758834522,"current_range_meters":17200,"station_id":"ce4bhnp2rcd13ifvqh0g","pricing_plan_id":"cebpf4jnsgd1na2vs0mg"},{"bike_id":"09716c1c-6500-49f5-9718-2ee71c83c71e","system_id":"levelo_inurba_marseille","lat":43.298428,"lon":5.362754,"is_reserved":false,"is_disabled":true,"rental_uris":{"android":"levelo://app?vid=09716c1c-6500-49f5-9718-2ee71c83c71e","ios":"levelo://app?vid=09716c1c-6500-49f5-9718-2ee71c83c71e"},"vehicle_type_id":"4","last_reported":1758834522,"current_range_meters":17200,"station_id":"ce4bgpp2rcd13ifvqc3g","pricing_plan_id":"cebpf4jnsgd1na2vs0mg"},{"bike_id":"5d944089-7d4d-485d-8e5e-fe9c9b3dd7de","system_id":"levelo_inurba_marseille","lat":43.2256,"lon":5.41623,"is_reserved":false,"is_disabled":false,"rental_uris":{"android":"levelo://app?vid=5d944089-7d4d-485d-8e5e-fe9c9b3dd7de","ios":"levelo://app?vid=5d944089-7d4d-485d-8e5e-fe9c9b3dd7de"},"vehicle_type_id":"4","last_reported":1758834522,"current_range_meters":17200,"station_id":"st_d2o4gvlbi1j2169b742g","pricing_plan_id":"cebpf4jnsgd1na2vs0mg"},{"bike_id":"1b119230-af63-42ef-bf99-8f657cff62a8","system_id":"levelo_inurba_marseille","lat":43.31532,"lon":5.38034,"is_reserved":false,"is_disabled":false,"rental_uris":{"android":"levelo://app?vid=1b119230-af63-42ef-bf99-8f657cff62a8","ios":"levelo://app?vid=1b119230-af63-42ef-bf99-8f657cff62a8"},"vehicle_type_id":"4","last_reported":1758834522,"current_range_meters":16800,"station_id":"ce4bhsp2rcd13ifvqi50","pricing_plan_id":"cebpf4jnsgd1na2vs0mg"},{"bike_id":"3e598750-4bdb-482d-9a73-a4c44a4f5e2b","system_id":"levelo_inurba_marseille","lat":43.26779,"lon":5.39416,"is_reserved":false,"is_disabled":false,"rental_uris":{"android":"levelo://app?vid=3e598750-4bdb-482d-9a73-a4c44a4f5e2b","ios":"levelo://app?vid=3e598750-4bdb-482d-9a73-a4c44a4f5e2b"},"vehicle_type_id":"4","last_reported":1758834522,"current_range_meters":17600,"station_id":"ce4bhh12rcd13ifvqfg0","pricing_plan_id":"cebpf4jnsgd1na2vs0mg"},{"bike_id":"2f21c966-7d37-442a-8e27-8939d88c2d2b","system_id":"levelo_inurba_marseille","lat":43.31125,"lon":5.3776,"is_reserved":false,"is_disabled":false,"rental_uris":{"android":"levelo://app?vid=2f21c966-7d37-442a-8e27-8939d88c2d2b","ios":"levelo://app?vid=2f21c966-7d37-442a-8e27-8939d88c2d2b"},"vehicle_type_id":"4","last_reported":1758834522,"current_range_meters":17600,"station_id":"ce4bgt92rcd13ifvqcg0","pricing_plan_id":"cebpf4jnsgd1na2vs0mg"},{"bike_id":"08292ac0-f4a0-4778-9703-5ac015ee1e3a","system_id":"levelo_inurba_marseille","lat":43.24632,"lon":5.43142,"is_reserved":false,"is_disabled":false,"rental_uris":{"android":"levelo://app?vid=08292ac0-f4a0-4778-9703-5ac015ee1e3a","ios":"levelo://app?vid=08292ac0-f4a0-4778-9703-5ac015ee1e3a"},"vehicle_type_id":"4","last_reported":1758834522,"current_range_meters":17600,"station_id":"st_d2m6c4gdas8pm72e190g","pricing_plan_id":"cebpf4jnsgd1na2vs0mg"},{"bike_id":"9a4f92ed-e086-4038-a651-bbe0613f80bd","system_id":"levelo_inurba_marseille","lat":43.22567,"lon":5.41607,"is_reserved":false,"is_disabled":false,"rental_uris":{"android":"levelo://app?vid=9a4f92ed-e086-4038-a651-bbe0613f80bd","ios":"levelo://app?vid=9a4f92ed-e086-4038-a651-bbe0613f80bd"},"vehicle_type_id":"4","last_reported":1758834522,"current_range_meters":17600,"station_id":"st_d2o4gvlbi1j2169b742g","pricing_plan_id":"cebpf4jnsgd1na2vs0mg"},{"bike_id":"37ecf219-142b-424d-a540-aaddf3ba94ba","system_id":"levelo_inurba_marseille","lat":43.28415,"lon":5.37501,"is_reserved":false,"is_disabled":false,"rental_uris":{"android":"levelo://app?vid=37ecf219-142b-424d-a540-aaddf3ba94ba","ios":"levelo://app?vid=37ecf219-142b-424d-a540-aaddf3ba94ba"},"vehicle_type_id":"4","last_reported":1758834522,"current_range_meters":17600,"station_id":"ce4bh412rcd13ifvqds0","pricing_plan_id":"cebpf4jnsgd1na2vs0mg"},{"bike_id":"7f09bc43-02a6-468a-9182-731c83281b4a","system_id":"levelo_inurba_marseille","lat":43.26344,"lon":5.37515,"is_reserved":false,"is_disabled":false,"rental_uris":{"android":"levelo://app?vid=7f09bc43-02a6-468a-9182-731c83281b4a","ios":"levelo://app?vid=7f09bc43-02a6-468a-9182-731c83281b4a"},"vehicle_type_id":"4","last_reported":1758834522,"current_range_meters":17600,"station_id":"","pricing_plan_id":"cebpf4jnsgd1na2vs0mg"},{"bike_id":"c42002d1-cbd7-45d3-8c8d-84ee03d010f1","system_id":"levelo_inurba_marseille","lat":43.28866,"lon":5.42511,"is_reserved":false,"is_disabled":false,"rental_uris":{"android":"levelo://app?vid=c42002d1-cbd7-45d3-8c8d-84ee03d010f1","ios":"levelo://app?vid=c42002d1-cbd7-45d3-8c8d-84ee03d010f1"},"vehicle_type_id":"4","last_reported":1758834522,"current_range_meters":17600,"station_id":"","pricing_plan_id":"cebpf4jnsgd1na2vs0mg"},{"bike_id":"a8ce7b19-cf75-4418-abe6-f8b489742469","system_id":"levelo_inurba_marseille","lat":43.31989,"lon":5.38145,"is_reserved":false,"is_disabled":false,"rental_uris":{"android":"levelo://app?vid=a8ce7b19-cf75-4418-abe6-f8b489742469","ios":"levelo://app?vid=a8ce7b19-cf75-4418-abe6-f8b489742469"},"vehicle_type_id":"4","last_reported":1758834522,"current_range_meters":17600,"station_id":"ce4bhr12rcd13ifvqhpg","pricing_plan_id":"cebpf4jnsgd1na2vs0mg"},{"bike_id":"3611f2ba-eeb4-45ee-ac8e-be195e39a1a4","system_id":"levelo_inurba_marseille","lat":43.28426,"lon":5.34981,"is_reserved":false,"is_disabled":false,"rental_uris":{"android":"levelo://app?vid=3611f2ba-eeb4-45ee-ac8e-be195e39a1a4","ios":"levelo://app?vid=3611f2ba-eeb4-45ee-ac8e-be195e39a1a4"},"vehicle_type_id":"4","last_reported":1758834522,"current_range_meters":17600,"station_id":"ce4bhbh2rcd13ifvqepg","pricing_plan_id":"cebpf4jnsgd1na2vs0mg"},{"bike_id":"fb625d23-5a9b-482e-ab1e-b82505718aa0","system_id":"levelo_inurba_marseille","lat":43.29557,"lon":5.42278,"is_reserved":false,"is_disabled":false,"rental_uris":{"android":"levelo://app?vid=fb625d23-5a9b-482e-ab1e-b82505718aa0","ios":"levelo://app?vid=fb625d23-5a9b-482e-ab1e-b82505718aa0"},"vehicle_type_id":"4","last_reported":1758834522,"current_range_meters":18000,"station_id":"ce4bhph2rcd13ifvqhdg","pricing_plan_id":"cebpf4jnsgd1na2vs0mg"},{"bike_id":"c0471e0c-0aec-4814-bfd8-20b9814d1ac7","system_id":"levelo_inurba_marseille","lat":43.29152,"lon":5.37158,"is_reserved":false,"is_disabled":false,"rental_uris":{"android":"levelo://app?vid=c0471e0c-0aec-4814-bfd8-20b9814d1ac7","ios":"levelo://app?vid=c0471e0c-0aec-4814-bfd8-20b9814d1ac7"},"vehicle_type_id":"4","last_reported":1758834522,"current_range_meters":18000,"station_id":"ce4bha92rcd13ifvqeh0","pricing_plan_id":"cebpf4jnsgd1na2vs0mg"},{"bike_id":"3f788679-5ed2-4d65-b228-944ec647b681","system_id":"levelo_inurba_marseille","lat":43.26209,"lon":5.40386,"is_reserved":false,"is_disabled":false,"rental_uris":{"android":"levelo://app?vid=3f788679-5ed2-4d65-b228-944ec647b681","ios":"levelo://app?vid=3f788679-5ed2-4d65-b228-944ec647b681"},"vehicle_type_id":"4","last_reported":1758834522,"current_range_meters":18000,"station_id":"ce4bhmh2rcd13ifvqgmg","pricing_plan_id":"cebpf4jnsgd1na2vs0mg"},{"bike_id":"85782661-163d-4a8b-b5a4-1f0a766faaa2","system_id":"levelo_inurba_marseille","lat":43.24632,"lon":5.43141,"is_reserved":false,"is_disabled":false,"rental_uris":{"android":"levelo://app?vid=85782661-163d-4a8b-b5a4-1f0a766faaa2","ios":"levelo://app?vid=85782661-163d-4a8b-b5a4-1f0a766faaa2"},"vehicle_type_id":"4","last_reported":1758834522,"current_range_meters":18000,"station_id":"st_d2m6c4gdas8pm72e190g","pricing_plan_id":"cebpf4jnsgd1na2vs0mg"},{"bike_id":"ece36685-817e-47c1-b130-8af29913096b","system_id":"levelo_inurba_marseille","lat":43.292835,"lon":5.401144,"is_reserved":false,"is_disabled":false,"rental_uris":{"android":"levelo://app?vid=ece36685-817e-47c1-b130-8af29913096b","ios":"levelo://app?vid=ece36685-817e-47c1-b130-8af29913096b"},"vehicle_type_id":"4","last_reported":1758834522,"current_range_meters":18000,"station_id":"","pricing_plan_id":"cebpf4jnsgd1na2vs0mg"},{"bike_id":"f660e6c9-cf46-4f0e-98f4-ab4b7627497b","system_id":"levelo_inurba_marseille","lat":43.30092,"lon":5.39082,"is_reserved":false,"is_disabled":false,"rental_uris":{"android":"levelo://app?vid=f660e6c9-cf46-4f0e-98f4-ab4b7627497b","ios":"levelo://app?vid=f660e6c9-cf46-4f0e-98f4-ab4b7627497b"},"vehicle_type_id":"4","last_reported":1758834522,"current_range_meters":18000,"station_id":"ce4bh192rcd13ifvqdb0","pricing_plan_id":"cebpf4jnsgd1na2vs0mg"},{"bike_id":"aac272c1-51a8-4c23-96d6-01ca597dbafa","system_id":"levelo_inurba_marseille","lat":43.29261,"lon":5.38443,"is_reserved":false,"is_disabled":false,"rental_uris":{"android":"levelo://app?vid=aac272c1-51a8-4c23-96d6-01ca597dbafa","ios":"levelo://app?vid=aac272c1-51a8-4c23-96d6-01ca597dbafa"},"vehicle_type_id":"4","last_reported":1758834522,"current_range_meters":18000,"station_id":"ce4bh692rcd13ifvqea0","pricing_plan_id":"cebpf4jnsgd1na2vs0mg"},{"bike_id":"ca5b8071-3505-4e43-9710-fe6ca0bbf864","system_id":"levelo_inurba_marseille","lat":43.26588,"lon":5.40333,"is_reserved":false,"is_disabled":false,"rental_uris":{"android":"levelo://app?vid=ca5b8071-3505-4e43-9710-fe6ca0bbf864","ios":"levelo://app?vid=ca5b8071-3505-4e43-9710-fe6ca0bbf864"},"vehicle_type_id":"4","last_reported":1758834522,"current_range_meters":18000,"station_id":"ce4bhmp2rcd13ifvqgng","pricing_plan_id":"cebpf4jnsgd1na2vs0mg"},{"bike_id":"b2fc922b-ff47-4f68-9531-9abaa818a9ad","system_id":"levelo_inurba_marseille","lat":43.24959,"lon":5.40494,"is_reserved":false,"is_disabled":false,"rental_uris":{"android":"levelo://app?vid=b2fc922b-ff47-4f68-9531-9abaa818a9ad","ios":"levelo://app?vid=b2fc922b-ff47-4f68-9531-9abaa818a9ad"},"vehicle_type_id":"4","last_reported":1758834522,"current_range_meters":18000,"station_id":"st_d2ngiaodas8pm72gd1h0","pricing_plan_id":"cebpf4jnsgd1na2vs0mg"},{"bike_id":"b467065d-40c8-4639-a94e-77f0f1d0a8da","system_id":"levelo_inurba_marseille","lat":43.28464,"lon":5.35858,"is_reserved":false,"is_disabled":false,"rental_uris":{"android":"levelo://app?vid=b467065d-40c8-4639-a94e-77f0f1d0a8da","ios":"levelo://app?vid=b467065d-40c8-4639-a94e-77f0f1d0a8da"},"vehicle_type_id":"4","last_reported":1758834522,"current_range_meters":18000,"station_id":"ce4bhah2rcd13ifvqei0","pricing_plan_id":"cebpf4jnsgd1na2vs0mg"},{"bike_id":"517868a9-5065-4a75-bb66-168829baf622","system_id":"levelo_inurba_marseille","lat":43.29525,"lon":5.39051,"is_reserved":false,"is_disabled":false,"rental_uris":{"android":"levelo://app?vid=517868a9-5065-4a75-bb66-168829baf622","ios":"levelo://app?vid=517868a9-5065-4a75-bb66-168829baf622"},"vehicle_type_id":"4","last_reported":1758834522,"current_range_meters":18000,"station_id":"ce4bh3p2rcd13ifvqdp0","pricing_plan_id":"cebpf4jnsgd1na2vs0mg"},{"bike_id":"c779a5df-2207-43a0-96fd-904c38318313","system_id":"levelo_inurba_marseille","lat":43.27552,"lon":5.38425,"is_reserved":false,"is_disabled":false,"rental_uris":{"android":"levelo://app?vid=c779a5df-2207-43a0-96fd-904c38318313","ios":"levelo://app?vid=c779a5df-2207-43a0-96fd-904c38318313"},"vehicle_type_id":"4","last_reported":1758834522,"current_range_meters":18000,"station_id":"ce4bhh92rcd13ifvqfi0","pricing_plan_id":"cebpf4jnsgd1na2vs0mg"},{"bike_id":"647d31be-c59f-4e15-9e30-6448c2e2351e","system_id":"levelo_inurba_marseille","lat":43.28854,"lon":5.35835,"is_reserved":false,"is_disabled":false,"rental_uris":{"android":"levelo://app?vid=647d31be-c59f-4e15-9e30-6448c2e2351e","ios":"levelo://app?vid=647d31be-c59f-4e15-9e30-6448c2e2351e"},"vehicle_type_id":"4","last_reported":1758834522,"current_range_meters":18000,"station_id":"ce4bhb12rcd13ifvqem0","pricing_plan_id":"cebpf4jnsgd1na2vs0mg"},{"bike_id":"353d16a4-65e9-4896-ad53-df82bb14ace3","system_id":"levelo_inurba_marseille","lat":43.2843,"lon":5.34985,"is_reserved":false,"is_disabled":false,"rental_uris":{"android":"levelo://app?vid=353d16a4-65e9-4896-ad53-df82bb14ace3","ios":"levelo://app?vid=353d16a4-65e9-4896-ad53-df82bb14ace3"},"vehicle_type_id":"4","last_reported":1758834522,"current_range_meters":18800,"station_id":"ce4bhbh2rcd13ifvqepg","pricing_plan_id":"cebpf4jnsgd1na2vs0mg"},{"bike_id":"47197d17-a903-48d9-a5ca-da961df1da03","system_id":"levelo_inurba_marseille","lat":43.28114,"lon":5.37828,"is_reserved":false,"is_disabled":false,"rental_uris":{"android":"levelo://app?vid=47197d17-a903-48d9-a5ca-da961df1da03","ios":"levelo://app?vid=47197d17-a903-48d9-a5ca-da961df1da03"},"vehicle_type_id":"4","last_reported":1758834522,"current_range_meters":18800,"station_id":"ce4bha12rcd13ifvqee0","pricing_plan_id":"cebpf4jnsgd1na2vs0mg"},{"bike_id":"4a134abe-eeb4-464d-9784-77fc57760245","system_id":"levelo_inurba_marseille","lat":43.29455,"lon":5.39752,"is_reserved":false,"is_disabled":false,"rental_uris":{"android":"levelo://app?vid=4a134abe-eeb4-464d-9784-77fc57760245","ios":"levelo://app?vid=4a134abe-eeb4-464d-9784-77fc57760245"},"vehicle_type_id":"4","last_reported":1758834522,"current_range_meters":18800,"station_id":"ce4bhmp2rcd13ifvqgng","pricing_plan_id":"cebpf4jnsgd1na2vs0mg"},{"bike_id":"fee74e98-eb52-4f66-a612-109c75f34aa6","system_id":"levelo_inurba_marseille","lat":43.296217,"lon":5.379586,"is_reserved":false,"is_disabled":false,"rental_uris":{"android":"levelo://app?vid=fee74e98-eb52-4f66-a612-109c75f34aa6","ios":"levelo://app?vid=fee74e98-eb52-4f66-a612-109c75f34aa6"},"vehicle_type_id":"4","last_reported":1758834522,"current_range_meters":18800,"station_id":"","pricing_plan_id":"cebpf4jnsgd1na2vs0mg"},{"bike_id":"909ff9b2-997a-41b4-8e78-150c0450d91b","system_id":"levelo_inurba_marseille","lat":43.29169,"lon":5.37164,"is_reserved":false,"is_disabled":false,"rental_uris":{"android":"levelo://app?vid=909ff9b2-997a-41b4-8e78-150c0450d91b","ios":"levelo://app?vid=909ff9b2-997a-41b4-8e78-150c0450d91b"},"vehicle_type_id":"4","last_reported":1758834522,"current_range_meters":18800,"station_id":"ce4bha92rcd13ifvqeh0","pricing_plan_id":"cebpf4jnsgd1na2vs0mg"},{"bike_id":"2a416e7a-1803-402e-9523-74bfe690bd54","system_id":"levelo_inurba_marseille","lat":43.32365,"lon":5.36767,"is_reserved":false,"is_disabled":false,"rental_uris":{"android":"levelo://app?vid=2a416e7a-1803-402e-9523-74bfe690bd54","ios":"levelo://app?vid=2a416e7a-1803-402e-9523-74bfe690bd54"},"vehicle_type_id":"4","last_reported":1758834522,"current_range_meters":18800,"station_id":"ce4bhsh2rcd13ifvqi2g","pricing_plan_id":"cebpf4jnsgd1na2vs0mg"},{"bike_id":"1d897d59-85d7-45a1-a0aa-f248bfd808e5","system_id":"levelo_inurba_marseille","lat":43.25869,"lon":5.39899,"is_reserved":false,"is_disabled":false,"rental_uris":{"android":"levelo://app?vid=1d897d59-85d7-45a1-a0aa-f248bfd808e5","ios":"levelo://app?vid=1d897d59-85d7-45a1-a0aa-f248bfd808e5"},"vehicle_type_id":"4","last_reported":1758834522,"current_range_meters":18800,"station_id":"ce4bhl92rcd13ifvqghg","pricing_plan_id":"cebpf4jnsgd1na2vs0mg"},{"bike_id":"c973dbb4-81a7-4731-a850-2666ddbc48bd","system_id":"levelo_inurba_marseille","lat":43.28197,"lon":5.42617,"is_reserved":false,"is_disabled":false,"rental_uris":{"android":"levelo://app?vid=c973dbb4-81a7-4731-a850-2666ddbc48bd","ios":"levelo://app?vid=c973dbb4-81a7-4731-a850-2666ddbc48bd"},"vehicle_type_id":"4","last_reported":1758834522,"current_range_meters":19200,"station_id":"","pricing_plan_id":"cebpf4jnsgd1na2vs0mg"},{"bike_id":"1f06a3e3-12af-42ce-879d-764cd221ec77","system_id":"levelo_inurba_marseille","lat":43.28158,"lon":5.37893,"is_reserved":false,"is_disabled":false,"rental_uris":{"android":"levelo://app?vid=1f06a3e3-12af-42ce-879d-764cd221ec77","ios":"levelo://app?vid=1f06a3e3-12af-42ce-879d-764cd221ec77"},"vehicle_type_id":"4","last_reported":1758834522,"current_range_meters":19200,"station_id":"","pricing_plan_id":"cebpf4jnsgd1na2vs0mg"},{"bike_id":"1307013c-7101-4a2a-b3a9-2caa6454614e","system_id":"levelo_inurba_marseille","lat":43.29511,"lon":5.39049,"is_reserved":false,"is_disabled":false,"rental_uris":{"android":"levelo://app?vid=1307013c-7101-4a2a-b3a9-2caa6454614e","ios":"levelo://app?vid=1307013c-7101-4a2a-b3a9-2caa6454614e"},"vehicle_type_id":"4","last_reported":1758834522,"current_range_meters":19200,"station_id":"ce4bh3p2rcd13ifvqdp0","pricing_plan_id":"cebpf4jnsgd1na2vs0mg"},{"bike_id":"1c7621b9-961a-4db4-89c5-7e40e49b6861","system_id":"levelo_inurba_marseille","lat":43.26204,"lon":5.37447,"is_reserved":false,"is_disabled":false,"rental_uris":{"android":"levelo://app?vid=1c7621b9-961a-4db4-89c5-7e40e49b6861","ios":"levelo://app?vid=1c7621b9-961a-4db4-89c5-7e40e49b6861"},"vehicle_type_id":"4","last_reported":1758834522,"current_range_meters":19200,"station_id":"ce4bhgp2rcd13ifvqfc0","pricing_plan_id":"cebpf4jnsgd1na2vs0mg"},{"bike_id":"e3549ef6-0a19-4698-b816-cd559dd3d7d0","system_id":"levelo_inurba_marseille","lat":43.29261,"lon":5.38455,"is_reserved":false,"is_disabled":false,"rental_uris":{"android":"levelo://app?vid=e3549ef6-0a19-4698-b816-cd559dd3d7d0","ios":"levelo://app?vid=e3549ef6-0a19-4698-b816-cd559dd3d7d0"},"vehicle_type_id":"4","last_reported":1758834522,"current_range_meters":19200,"station_id":"ce4bh692rcd13ifvqea0","pricing_plan_id":"cebpf4jnsgd1na2vs0mg"},{"bike_id":"414edfd0-3e2a-40e2-bcfa-a59b15caf510","system_id":"levelo_inurba_marseille","lat":43.3033,"lon":5.40427,"is_reserved":false,"is_disabled":false,"rental_uris":{"android":"levelo://app?vid=414edfd0-3e2a-40e2-bcfa-a59b15caf510","ios":"levelo://app?vid=414edfd0-3e2a-40e2-bcfa-a59b15caf510"},"vehicle_type_id":"4","last_reported":1758834522,"current_range_meters":19200,"station_id":"ce4bh012rcd13ifvqd10","pricing_plan_id":"cebpf4jnsgd1na2vs0mg"},{"bike_id":"b5f2bf43-8dd3-46f4-9057-e117ac567d89","system_id":"levelo_inurba_marseille","lat":43.28455,"lon":5.35887,"is_reserved":false,"is_disabled":false,"rental_uris":{"android":"levelo://app?vid=b5f2bf43-8dd3-46f4-9057-e117ac567d89","ios":"levelo://app?vid=b5f2bf43-8dd3-46f4-9057-e117ac567d89"},"vehicle_type_id":"4","last_reported":1758834522,"current_range_meters":18800,"station_id":"ce4bhah2rcd13ifvqei0","pricing_plan_id":"cebpf4jnsgd1na2vs0mg"},{"bike_id":"f2a2e351-40f1-44b1-bf8f-c4615d40503e","system_id":"levelo_inurba_marseille","lat":43.29278,"lon":5.40136,"is_reserved":false,"is_disabled":false,"rental_uris":{"android":"levelo://app?vid=f2a2e351-40f1-44b1-bf8f-c4615d40503e","ios":"levelo://app?vid=f2a2e351-40f1-44b1-bf8f-c4615d40503e"},"vehicle_type_id":"4","last_reported":1758834522,"current_range_meters":19200,"station_id":"ce4bh312rcd13ifvqdk0","pricing_plan_id":"cebpf4jnsgd1na2vs0mg"},{"bike_id":"63d52c35-c9c9-44eb-9780-1b2f9145123b","system_id":"levelo_inurba_marseille","lat":43.29627,"lon":5.377037,"is_reserved":false,"is_disabled":false,"rental_uris":{"android":"levelo://app?vid=63d52c35-c9c9-44eb-9780-1b2f9145123b","ios":"levelo://app?vid=63d52c35-c9c9-44eb-9780-1b2f9145123b"},"vehicle_type_id":"4","last_reported":1758834522,"current_range_meters":19200,"station_id":"","pricing_plan_id":"cebpf4jnsgd1na2vs0mg"},{"bike_id":"01bf55f2-4ac6-46f6-8504-3267bf31e1a6","system_id":"levelo_inurba_marseille","lat":43.2973,"lon":5.381787,"is_reserved":false,"is_disabled":false,"rental_uris":{"android":"levelo://app?vid=01bf55f2-4ac6-46f6-8504-3267bf31e1a6","ios":"levelo://app?vid=01bf55f2-4ac6-46f6-8504-3267bf31e1a6"},"vehicle_type_id":"4","last_reported":1758834522,"current_range_meters":19200,"station_id":"","pricing_plan_id":"cebpf4jnsgd1na2vs0mg"},{"bike_id":"7a6e4798-b167-492a-bf21-02e3f93b724f","system_id":"levelo_inurba_marseille","lat":43.280774,"lon":5.396536,"is_reserved":false,"is_disabled":false,"rental_uris":{"android":"levelo://app?vid=7a6e4798-b167-492a-bf21-02e3f93b724f","ios":"levelo://app?vid=7a6e4798-b167-492a-bf21-02e3f93b724f"},"vehicle_type_id":"4","last_reported":1758834522,"current_range_meters":19200,"station_id":"ce4bho12rcd13ifvqh2g","pricing_plan_id":"cebpf4jnsgd1na2vs0mg"},{"bike_id":"ff80ace9-5bb1-4400-92db-811f67417271","system_id":"levelo_inurba_marseille","lat":43.24955,"lon":5.40496,"is_reserved":false,"is_disabled":false,"rental_uris":{"android":"levelo://app?vid=ff80ace9-5bb1-4400-92db-811f67417271","ios":"levelo://app?vid=ff80ace9-5bb1-4400-92db-811f67417271"},"vehicle_type_id":"4","last_reported":1758834522,"current_range_meters":19600,"station_id":"st_d2ngiaodas8pm72gd1h0","pricing_plan_id":"cebpf4jnsgd1na2vs0mg"},{"bike_id":"6a5edbe2-66a8-4cc0-87c0-11d5220ca8c5","system_id":"levelo_inurba_marseille","lat":43.24173,"lon":5.36399,"is_reserved":false,"is_disabled":false,"rental_uris":{"android":"levelo://app?vid=6a5edbe2-66a8-4cc0-87c0-11d5220ca8c5","ios":"levelo://app?vid=6a5edbe2-66a8-4cc0-87c0-11d5220ca8c5"},"vehicle_type_id":"4","last_reported":1758834522,"current_range_meters":19600,"station_id":"cpo36qri1sfpv3e86is0","pricing_plan_id":"cebpf4jnsgd1na2vs0mg"},{"bike_id":"27a9138c-be62-462c-baa5-df2a83019b5e","system_id":"levelo_inurba_marseille","lat":43.30157,"lon":5.37407,"is_reserved":false,"is_disabled":false,"rental_uris":{"android":"levelo://app?vid=27a9138c-be62-462c-baa5-df2a83019b5e","ios":"levelo://app?vid=27a9138c-be62-462c-baa5-df2a83019b5e"},"vehicle_type_id":"4","last_reported":1758834522,"current_range_meters":19600,"station_id":"ce4bgs92rcd13ifvqcc0","pricing_plan_id":"cebpf4jnsgd1na2vs0mg"},{"bike_id":"e86a10ee-e4fc-4bad-8814-d799893003e2","system_id":"levelo_inurba_marseille","lat":43.29882,"lon":5.389,"is_reserved":false,"is_disabled":false,"rental_uris":{"android":"levelo://app?vid=e86a10ee-e4fc-4bad-8814-d799893003e2","ios":"levelo://app?vid=e86a10ee-e4fc-4bad-8814-d799893003e2"},"vehicle_type_id":"4","last_reported":1758834522,"current_range_meters":19600,"station_id":"ce4bh392rcd13ifvqdl0","pricing_plan_id":"cebpf4jnsgd1na2vs0mg"},{"bike_id":"4242f41e-e957-450b-879b-fe556dc3de02","system_id":"levelo_inurba_marseille","lat":43.31056,"lon":5.3835,"is_reserved":false,"is_disabled":false,"rental_uris":{"android":"levelo://app?vid=4242f41e-e957-450b-879b-fe556dc3de02","ios":"levelo://app?vid=4242f41e-e957-450b-879b-fe556dc3de02"},"vehicle_type_id":"4","last_reported":1758834522,"current_range_meters":19600,"station_id":"ce4bgv92rcd13ifvqcr0","pricing_plan_id":"cebpf4jnsgd1na2vs0mg"},{"bike_id":"b87eb970-05e7-49f7-87a5-56fc663951bc","system_id":"levelo_inurba_marseille","lat":43.30141,"lon":5.38768,"is_reserved":false,"is_disabled":false,"rental_uris":{"android":"levelo://app?vid=b87eb970-05e7-49f7-87a5-56fc663951bc","ios":"levelo://app?vid=b87eb970-05e7-49f7-87a5-56fc663951bc"},"vehicle_type_id":"4","last_reported":1758834522,"current_range_meters":19200,"station_id":"ce4bghh2rcd13ifvqb60","pricing_plan_id":"cebpf4jnsgd1na2vs0mg"},{"bike_id":"3b6f91bf-c4cb-4849-80d4-5c590f519f64","system_id":"levelo_inurba_marseille","lat":43.292607,"lon":5.384324,"is_reserved":false,"is_disabled":false,"rental_uris":{"android":"levelo://app?vid=3b6f91bf-c4cb-4849-80d4-5c590f519f64","ios":"levelo://app?vid=3b6f91bf-c4cb-4849-80d4-5c590f519f64"},"vehicle_type_id":"4","last_reported":1758834522,"current_range_meters":19600,"station_id":"ce4bh692rcd13ifvqea0","pricing_plan_id":"cebpf4jnsgd1na2vs0mg"},{"bike_id":"bf33fb26-a587-4958-8c1d-19a6ee6adcb6","system_id":"levelo_inurba_marseille","lat":43.30805,"lon":5.38143,"is_reserved":false,"is_disabled":false,"rental_uris":{"android":"levelo://app?vid=bf33fb26-a587-4958-8c1d-19a6ee6adcb6","ios":"levelo://app?vid=bf33fb26-a587-4958-8c1d-19a6ee6adcb6"},"vehicle_type_id":"4","last_reported":1758834522,"current_range_meters":19600,"station_id":"ce4bgt12rcd13ifvqce0","pricing_plan_id":"cebpf4jnsgd1na2vs0mg"},{"bike_id":"ee925a9c-c600-454e-8837-0da5956fd25f","system_id":"levelo_inurba_marseille","lat":43.22936,"lon":5.35379,"is_reserved":false,"is_disabled":false,"rental_uris":{"android":"levelo://app?vid=ee925a9c-c600-454e-8837-0da5956fd25f","ios":"levelo://app?vid=ee925a9c-c600-454e-8837-0da5956fd25f"},"vehicle_type_id":"4","last_reported":1758834522,"current_range_meters":19600,"station_id":"cpo3532slgdg3j2ikp40","pricing_plan_id":"cebpf4jnsgd1na2vs0mg"},{"bike_id":"8cf842e4-76c1-4a82-ad31-66529da65dba","system_id":"levelo_inurba_marseille","lat":43.26707,"lon":5.40208,"is_reserved":false,"is_disabled":false,"rental_uris":{"android":"levelo://app?vid=8cf842e4-76c1-4a82-ad31-66529da65dba","ios":"levelo://app?vid=8cf842e4-76c1-4a82-ad31-66529da65dba"},"vehicle_type_id":"4","last_reported":1758834522,"current_range_meters":20000,"station_id":"","pricing_plan_id":"cebpf4jnsgd1na2vs0mg"},{"bike_id":"030b56c3-3641-49f9-a03b-0da5df66fdfc","system_id":"levelo_inurba_marseille","lat":43.28357,"lon":5.38096,"is_reserved":false,"is_disabled":false,"rental_uris":{"android":"levelo://app?vid=030b56c3-3641-49f9-a03b-0da5df66fdfc","ios":"levelo://app?vid=030b56c3-3641-49f9-a03b-0da5df66fdfc"},"vehicle_type_id":"4","last_reported":1758834522,"current_range_meters":20000,"station_id":"ce4bh412rcd13ifvqdr0","pricing_plan_id":"cebpf4jnsgd1na2vs0mg"},{"bike_id":"d206bd75-48aa-4e0a-bccc-78269204a699","system_id":"levelo_inurba_marseille","lat":43.2923,"lon":5.360646,"is_reserved":false,"is_disabled":false,"rental_uris":{"android":"levelo://app?vid=d206bd75-48aa-4e0a-bccc-78269204a699","ios":"levelo://app?vid=d206bd75-48aa-4e0a-bccc-78269204a699"},"vehicle_type_id":"4","last_reported":1758834522,"current_range_meters":20000,"station_id":"ce4bhbh2rcd13ifvqeqg","pricing_plan_id":"cebpf4jnsgd1na2vs0mg"},{"bike_id":"1702921e-6ae0-4bf3-9b57-d04d9db378e9","system_id":"levelo_inurba_marseille","lat":43.31533,"lon":5.3725,"is_reserved":false,"is_disabled":false,"rental_uris":{"android":"levelo://app?vid=1702921e-6ae0-4bf3-9b57-d04d9db378e9","ios":"levelo://app?vid=1702921e-6ae0-4bf3-9b57-d04d9db378e9"},"vehicle_type_id":"4","last_reported":1758834522,"current_range_meters":20000,"station_id":"ce4bgt12rcd13ifvqcd0","pricing_plan_id":"cebpf4jnsgd1na2vs0mg"},{"bike_id":"934ea1ec-b7f6-49a1-9efa-287317d4eb22","system_id":"levelo_inurba_marseille","lat":43.29048,"lon":5.35914,"is_reserved":false,"is_disabled":false,"rental_uris":{"android":"levelo://app?vid=934ea1ec-b7f6-49a1-9efa-287317d4eb22","ios":"levelo://app?vid=934ea1ec-b7f6-49a1-9efa-287317d4eb22"},"vehicle_type_id":"4","last_reported":1758834522,"current_range_meters":20000,"station_id":"","pricing_plan_id":"cebpf4jnsgd1na2vs0mg"},{"bike_id":"e6683e4c-018f-4ae5-b2b2-e329a3ab638c","system_id":"levelo_inurba_marseille","lat":43.29056,"lon":5.37188,"is_reserved":false,"is_disabled":false,"rental_uris":{"android":"levelo://app?vid=e6683e4c-018f-4ae5-b2b2-e329a3ab638c","ios":"levelo://app?vid=e6683e4c-018f-4ae5-b2b2-e329a3ab638c"},"vehicle_type_id":"4","last_reported":1758834522,"current_range_meters":20000,"station_id":"ce4bh5p2rcd13ifvqe4g","pricing_plan_id":"cebpf4jnsgd1na2vs0mg"},{"bike_id":"16d0b00a-2019-4209-8db5-70dffd4b56d8","system_id":"levelo_inurba_marseille","lat":43.28709,"lon":5.37394,"is_reserved":false,"is_disabled":false,"rental_uris":{"android":"levelo://app?vid=16d0b00a-2019-4209-8db5-70dffd4b56d8","ios":"levelo://app?vid=16d0b00a-2019-4209-8db5-70dffd4b56d8"},"vehicle_type_id":"4","last_reported":1758834522,"current_range_meters":20000,"station_id":"ce4bh3p2rcd13ifvqdq0","pricing_plan_id":"cebpf4jnsgd1na2vs0mg"},{"bike_id":"86ed8796-a608-43b6-961f-45dea91530fa","system_id":"levelo_inurba_marseille","lat":43.29193,"lon":5.35812,"is_reserved":false,"is_disabled":false,"rental_uris":{"android":"levelo://app?vid=86ed8796-a608-43b6-961f-45dea91530fa","ios":"levelo://app?vid=86ed8796-a608-43b6-961f-45dea91530fa"},"vehicle_type_id":"4","last_reported":1758834522,"current_range_meters":20400,"station_id":"ce4bhb12rcd13ifvqel0","pricing_plan_id":"cebpf4jnsgd1na2vs0mg"},{"bike_id":"74e80d7c-036c-4d08-a82d-3904c5e3b031","system_id":"levelo_inurba_marseille","lat":43.2828,"lon":5.35064,"is_reserved":false,"is_disabled":true,"rental_uris":{"android":"levelo://app?vid=74e80d7c-036c-4d08-a82d-3904c5e3b031","ios":"levelo://app?vid=74e80d7c-036c-4d08-a82d-3904c5e3b031"},"vehicle_type_id":"4","last_reported":1758834522,"current_range_meters":20000,"station_id":"ce4bhbp2rcd13ifvqerg","pricing_plan_id":"cebpf4jnsgd1na2vs0mg"},{"bike_id":"3cbda264-231b-40d8-a3d9-d4eb40b2c15a","system_id":"levelo_inurba_marseille","lat":43.29283,"lon":5.40129,"is_reserved":false,"is_disabled":false,"rental_uris":{"android":"levelo://app?vid=3cbda264-231b-40d8-a3d9-d4eb40b2c15a","ios":"levelo://app?vid=3cbda264-231b-40d8-a3d9-d4eb40b2c15a"},"vehicle_type_id":"4","last_reported":1758834522,"current_range_meters":20000,"station_id":"ce4bh312rcd13ifvqdk0","pricing_plan_id":"cebpf4jnsgd1na2vs0mg"},{"bike_id":"80bdba63-46f3-4274-b0d9-d9711409b6a8","system_id":"levelo_inurba_marseille","lat":43.270752,"lon":5.402497,"is_reserved":false,"is_disabled":false,"rental_uris":{"android":"levelo://app?vid=80bdba63-46f3-4274-b0d9-d9711409b6a8","ios":"levelo://app?vid=80bdba63-46f3-4274-b0d9-d9711409b6a8"},"vehicle_type_id":"4","last_reported":1758834522,"current_range_meters":20000,"station_id":"","pricing_plan_id":"cebpf4jnsgd1na2vs0mg"},