{"last_updated":1734692825,"ttl":60,"version":"2.2","data":{"bikes":[{"bike_id":"9df452b0-7e55-41e3-a581-b22ff103c8ea","system_id":"levelo_inurba_marseille","lat":43.30467,"lon":5.37907,"is_reserved":false,"is_disabled":false,"rental_uris":{"android":"levelo://app?vid=9df452b0-7e55-41e3-a581-b22ff103c8ea","ios":"levelo://app?vid=9df452b0-7e55-41e3-a581-b22ff103c8ea"},"vehicle_type_id":"4","last_reported":1734692826,"current_range_meters":27600,"station_id":"ce4bgup2rcd13ifvqcn0","pricing_plan_id":"cebpf4jnsgd1na2vs0mg"},{"bike_id":"cc6db7e5-d594-4a81-a95e-afbab3f0dce6","system_id":"levelo_inurba_marseille","lat":43.30946,"lon":5.3904,"is_reserved":false,"is_disabled":false,"rental_uris":{"android":"levelo://app?vid=cc6db7e5-d594-4a81-a95e-afbab3f0dce6","ios":"levelo://app?vid=cc6db7e5-d594-4a81-a95e-afbab3f0dce6"},"vehicle_type_id":"4","last_reported":1734692826,"current_range_meters":32800,"station_id":"ce4bgup2rcd13ifvqco0","pricing_plan_id":"cebpf4jnsgd1na2vs0mg"},{"bike_id":"eb156c91-5c91-4664-a66b-8fb17c1b7811","system_id":"levelo_inurba_marseille","lat":43.2844,"lon":5.39186,"is_reserved":false,"is_disabled":false,"rental_uris":{"android":"levelo://app?vid=eb156c91-5c91-4664-a66b-8fb17c1b7811","ios":"levelo://app?vid=eb156c91-5c91-4664-a66b-8fb17c1b7811"},"vehicle_type_id":"4","last_reported":1734692826,"current_range_meters":37600,"station_id":"ce4bhoh2rcd13ifvqh5g","pricing_plan_id":"cebpf4jnsgd1na2vs0mg"},{"bike_id":"36807a31-e460-493e-8278-8b01fc652a74","system_id":"levelo_inurba_marseille","lat":43.29042,"lon":5.35917,"is_reserved":false,"is_disabled":false,"rental_uris":{"android":"levelo://app?vid=36807a31-e460-493e-8278-8b01fc652a74","ios":"levelo://app?vid=36807a31-e460-493e-8278-8b01fc652a74"},"vehicle_type_id":"4","last_reported":1734692826,"current_range_meters":22400,"station_id":"ce4bha92rcd13ifvqeg0","pricing_plan_id":"cebpf4jnsgd1na2vs0mg"},{"bike_id":"c20c717d-c827-41e6-9454-3f93a777b421","system_id":"levelo_inurba_marseille","lat":43.27823,"lon":5.39204,"is_reserved":false,"is_disabled":true,"rental_uris":{"android":"levelo://app?vid=c20c717d-c827-41e6-9454-3f93a777b421","ios":"levelo://app?vid=c20c717d-c827-41e6-9454-3f93a777b421"},"vehicle_type_id":"4","last_reported":1734692826,"current_range_meters":2000,"station_id":"ce4bhjp2rcd13ifvqga0","pricing_plan_id":"cebpf4jnsgd1na2vs0mg"},{"bike_id":"7bbce5a0-f11c-41c3-ae02-31dcd5c16eb9","system_id":"levelo_inurba_marseille","lat":43.29418,"lon":5.38614,"is_reserved":false,"is_disabled":false,"rental_uris":{"android":"levelo://app?vid=7bbce5a0-f11c-41c3-ae02-31dcd5c16eb9","ios":"levelo://app?vid=7bbce5a0-f11c-41c3-ae02-31dcd5c16eb9"},"vehicle_type_id":"4","last_reported":1734692826,"current_range_meters":18000,"station_id":"ce4bh2h2rcd13ifvqdh0","pricing_plan_id":"cebpf4jnsgd1na2vs0mg"},{"bike_id":"f41ab9ad-3783-4b31-b71a-bfbe1764cea9","system_id":"levelo_inurba_marseille","lat":43.26189,"lon":5.3746,"is_reserved":false,"is_disabled":false,"rental_uris":{"android":"levelo://app?vid=f41ab9ad-3783-4b31-b71a-bfbe1764cea9","ios":"levelo://app?vid=f41ab9ad-3783-4b31-b71a-bfbe1764cea9"},"vehicle_type_id":"4","last_reported":1734692826,"current_range_meters":32800,"station_id":"ce4bhgp2rcd13ifvqfc0","pricing_plan_id":"cebpf4jnsgd1na2vs0mg"},{"bike_id":"0b3c962c-40d1-4375-b60d-644d72aaacf1","system_id":"levelo_inurba_marseille","lat":43.280101,"lon":5.40403,"is_reserved":false,"is_disabled":true,"rental_uris":{"android":"levelo://app?vid=0b3c962c-40d1-4375-b60d-644d72aaacf1","ios":"levelo://app?vid=0b3c962c-40d1-4375-b60d-644d72aaacf1"},"vehicle_type_id":"4","last_reported":1734692826,"current_range_meters":0,"station_id":"","pricing_plan_id":"cebpf4jnsgd1na2vs0mg"},{"bike_id":"bb8a7f7b-b3a9-42f7-80d9-b15024d74ec2","system_id":"levelo_inurba_marseille","lat":43.28721,"lon":5.36088,"is_reserved":false,"is_disabled":false,"rental_uris":{"android":"levelo://app?vid=bb8a7f7b-b3a9-42f7-80d9-b15024d74ec2","ios":"levelo://app?vid=bb8a7f7b-b3a9-42f7-80d9-b15024d74ec2"},"vehicle_type_id":"4","last_reported":1734692826,"current_range_meters":31200,"station_id":"cki0cbj6b192h4jlfktg","pricing_plan_id":"cebpf4jnsgd1na2vs0mg"},{"bike_id":"c5b80322-ab04-49bd-a2c6-ab8bceab3a4c","system_id":"levelo_inurba_marseille","lat":43.27059,"lon":5.40264,"is_reserved":false,"is_disabled":false,"rental_uris":{"android":"levelo://app?vid=c5b80322-ab04-49bd-a2c6-ab8bceab3a4c","ios":"levelo://app?vid=c5b80322-ab04-49bd-a2c6-ab8bceab3a4c"},"vehicle_type_id":"4","last_reported":1734692826,"current_range_meters":38800,"station_id":"ce4bhk92rcd13ifvqgc0","pricing_plan_id":"cebpf4jnsgd1na2vs0mg"},{"bike_id":"6dbd45f5-882d-4325-9c7e-f0f72386c6da","system_id":"levelo_inurba_marseille","lat":43.23866,"lon":5.37399,"is_reserved":false,"is_disabled":true,"rental_uris":{"android":"levelo://app?vid=6dbd45f5-882d-4325-9c7e-f0f72386c6da","ios":"levelo://app?vid=6dbd45f5-882d-4325-9c7e-f0f72386c6da"},"vehicle_type_id":"4","last_reported":1734692826,"current_range_meters":5600,"station_id":"","pricing_plan_id":"cebpf4jnsgd1na2vs0mg"},{"bike_id":"467a4fb7-3485-4c1c-a8c1-5cc343209e8c","system_id":"levelo_inurba_marseille","lat":43.28569,"lon":5.39496,"is_reserved":false,"is_disabled":false,"rental_uris":{"android":"levelo://app?vid=467a4fb7-3485-4c1c-a8c1-5cc343209e8c","ios":"levelo://app?vid=467a4fb7-3485-4c1c-a8c1-5cc343209e8c"},"vehicle_type_id":"4","last_reported":1734692826,"current_range_meters":37600,"station_id":"ce4bh292rcd13ifvqdg0","pricing_plan_id":"cebpf4jnsgd1na2vs0mg"},{"bike_id":"83376578-4f1c-4c1f-886f-bbc918b69c7a","system_id":"levelo_inurba_marseille","lat":43.30599,"lon":5.37221,"is_reserved":false,"is_disabled":false,"rental_uris":{"android":"levelo://app?vid=83376578-4f1c-4c1f-886f-bbc918b69c7a","ios":"levelo://app?vid=83376578-4f1c-4c1f-886f-bbc918b69c7a"},"vehicle_type_id":"4","last_reported":1734692826,"current_range_meters":12800,"station_id":"ce4bgqh2rcd13ifvqc4g","pricing_plan_id":"cebpf4jnsgd1na2vs0mg"},{"bike_id":"5fd062f7-f0a1-4cb7-8405-64f2afdadf5e","system_id":"levelo_inurba_marseille","lat":43.30146,"lon":5.39882,"is_reserved":false,"is_disabled":false,"rental_uris":{"android":"levelo://app?vid=5fd062f7-f0a1-4cb7-8405-64f2afdadf5e","ios":"levelo://app?vid=5fd062f7-f0a1-4cb7-8405-64f2afdadf5e"},"vehicle_type_id":"4","last_reported":1734692826,"current_range_meters":34000,"station_id":"ce4bh0h2rcd13ifvqd40","pricing_plan_id":"cebpf4jnsgd1na2vs0mg"},{"bike_id":"46000ad8-3b4b-4f92-9d2e-8fa197c22c1f","system_id":"levelo_inurba_marseille","lat":43.29098,"lon":5.38123,"is_reserved":false,"is_disabled":false,"rental_uris":{"android":"levelo://app?vid=46000ad8-3b4b-4f92-9d2e-8fa197c22c1f","ios":"levelo://app?vid=46000ad8-3b4b-4f92-9d2e-8fa197c22c1f"},"vehicle_type_id":"4","last_reported":1734692826,"current_range_meters":26800,"station_id":"ce4bh512rcd13ifvqe2g","pricing_plan_id":"cebpf4jnsgd1na2vs0mg"},{"bike_id":"93cd12d2-ee52-454b-a1c6-a2a94b1185da","system_id":"levelo_inurba_marseille","lat":43.24826,"lon":5.37418,"is_reserved":false,"is_disabled":false,"rental_uris":{"android":"levelo://app?vid=93cd12d2-ee52-454b-a1c6-a2a94b1185da","ios":"levelo://app?vid=93cd12d2-ee52-454b-a1c6-a2a94b1185da"},"vehicle_type_id":"4","last_reported":1734692826,"current_range_meters":38800,"station_id":"ce4bhgh2rcd13ifvqfb0","pricing_plan_id":"cebpf4jnsgd1na2vs0mg"},{"bike_id":"02bf8158-426b-4335-9b97-c473816a1fd2","system_id":"levelo_inurba_marseille","lat":43.25825,"lon":5.39446,"is_reserved":false,"is_disabled":false,"rental_uris":{"android":"levelo://app?vid=02bf8158-426b-4335-9b97-c473816a1fd2","ios":"levelo://app?vid=02bf8158-426b-4335-9b97-c473816a1fd2"},"vehicle_type_id":"4","last_reported":1734692826,"current_range_meters":39200,"station_id":"ce4bhip2rcd13ifvqft0","pricing_plan_id":"cebpf4jnsgd1na2vs0mg"},{"bike_id":"a6b29f44-fdb7-43b4-aa0a-03a46febd127","system_id":"levelo_inurba_marseille","lat":43.308863,"lon":5.378124,"is_reserved":false,"is_disabled":true,"rental_uris":{"android":"levelo://app?vid=a6b29f44-fdb7-43b4-aa0a-03a46febd127","ios":"levelo://app?vid=a6b29f44-fdb7-43b4-aa0a-03a46febd127"},"vehicle_type_id":"4","last_reported":1734692826,"current_range_meters":18000,"station_id":"","pricing_plan_id":"cebpf4jnsgd1na2vs0mg"},{"bike_id":"c7f24469-1136-4e21-b84a-0a12ce3b4eea","system_id":"levelo_inurba_marseille","lat":43.31694,"lon":5.40472,"is_reserved":false,"is_disabled":false,"rental_uris":{"android":"levelo://app?vid=c7f24469-1136-4e21-b84a-0a12ce3b4eea","ios":"levelo://app?vid=c7f24469-1136-4e21-b84a-0a12ce3b4eea"},"vehicle_type_id":"4","last_reported":1734692826,"current_range_meters":3200,"station_id":"ce4bh012rcd13ifvqd00","pricing_plan_id":"cebpf4jnsgd1na2vs0mg"},{"bike_id":"7ec8621a-9726-4d85-b602-b2b6b4a16cb4","system_id":"levelo_inurba_marseille","lat":43.29628,"lon":5.37738,"is_reserved":false,"is_disabled":false,"rental_uris":{"android":"levelo://app?vid=7ec8621a-9726-4d85-b602-b2b6b4a16cb4","ios":"levelo://app?vid=7ec8621a-9726-4d85-b602-b2b6b4a16cb4"},"vehicle_type_id":"4","last_reported":1734692826,"current_range_meters":33200,"station_id":"ce4bgi92rcd13ifvqb90","pricing_plan_id":"cebpf4jnsgd1na2vs0mg"},{"bike_id":"3091d709-3c11-43a1-a95d-31c0908ceed1","system_id":"levelo_inurba_marseille","lat":43.29263,"lon":5.36849,"is_reserved":false,"is_disabled":false,"rental_uris":{"android":"levelo://app?vid=3091d709-3c11-43a1-a95d-31c0908ceed1","ios":"levelo://app?vid=3091d709-3c11-43a1-a95d-31c0908ceed1"},"vehicle_type_id":"4","last_reported":1734692826,"current_range_meters":27600,"station_id":"ce4bhbp2rcd13ifvqesg","pricing_plan_id":"cebpf4jnsgd1na2vs0mg"},{"bike_id":"f2fca4b0-6d09-4b8b-ac93-ff1931bdad1c","system_id":"levelo_inurba_marseille","lat":43.27949,"lon":5.41049,"is_reserved":false,"is_disabled":false,"rental_uris":{"android":"levelo://app?vid=f2fca4b0-6d09-4b8b-ac93-ff1931bdad1c","ios":"levelo://app?vid=f2fca4b0-6d09-4b8b-ac93-ff1931bdad1c"},"vehicle_type_id":"4","last_reported":1734692826,"current_range_meters":27600,"station_id":"ce4bhnp2rcd13ifvqh0g","pricing_plan_id":"cebpf4jnsgd1na2vs0mg"},{"bike_id":"9f826eb0-0dfb-447e-92e0-ddb647271103","system_id":"levelo_inurba_marseille","lat":43.27811,"lon":5.40717,"is_reserved":false,"is_disabled":false,"rental_uris":{"android":"levelo://app?vid=9f826eb0-0dfb-447e-92e0-ddb647271103","ios":"levelo://app?vid=9f826eb0-0dfb-447e-92e0-ddb647271103"},"vehicle_type_id":"4","last_reported":1734692826,"current_range_meters":37600,"station_id":"ce4bhnh2rcd13ifvqgtg","pricing_plan_id":"cebpf4jnsgd1na2vs0mg"},{"bike_id":"e54c3fa3-f9e8-43fa-97ab-12f5b2a3bfae","system_id":"levelo_inurba_marseille","lat":43.27835,"lon":5.39206,"is_reserved":false,"is_disabled":true,"rental_uris":{"android":"levelo://app?vid=e54c3fa3-f9e8-43fa-97ab-12f5b2a3bfae","ios":"levelo://app?vid=e54c3fa3-f9e8-43fa-97ab-12f5b2a3bfae"},"vehicle_type_id":"4","last_reported":1734692826,"current_range_meters":26800,"station_id":"ce4bhjp2rcd13ifvqga0","pricing_plan_id":"cebpf4jnsgd1na2vs0mg"},{"bike_id":"85f27a5d-9af7-4b09-a20c-f802a8f11d6d","system_id":"levelo_inurba_marseille","lat":43.32659,"lon":5.40985,"is_reserved":false,"is_disabled":false,"rental_uris":{"android":"levelo://app?vid=85f27a5d-9af7-4b09-a20c-f802a8f11d6d","ios":"levelo://app?vid=85f27a5d-9af7-4b09-a20c-f802a8f11d6d"},"vehicle_type_id":"4","last_reported":1734692826,"current_range_meters":10800,"station_id":"ce4bhpp2rcd13ifvqhgg","pricing_plan_id":"cebpf4jnsgd1na2vs0mg"},{"bike_id":"d34bdf4f-71bc-4ae4-b273-f3852ddc692a","system_id":"levelo_inurba_marseille","lat":43.33756,"lon":5.37472,"is_reserved":false,"is_disabled":false,"rental_uris":{"android":"levelo://app?vid=d34bdf4f-71bc-4ae4-b273-f3852ddc692a","ios":"levelo://app?vid=d34bdf4f-71bc-4ae4-b273-f3852ddc692a"},"vehicle_type_id":"4","last_reported":1734692826,"current_range_meters":33600,"station_id":"","pricing_plan_id":"cebpf4jnsgd1na2vs0mg"},{"bike_id":"17491703-ff2f-459f-9ee1-be1fc9a58c21","system_id":"levelo_inurba_marseille","lat":43.29092,"lon":5.38129,"is_reserved":false,"is_disabled":false,"rental_uris":{"android":"levelo://app?vid=17491703-ff2f-459f-9ee1-be1fc9a58c21","ios":"levelo://app?vid=17491703-ff2f-459f-9ee1-be1fc9a58c21"},"vehicle_type_id":"4","last_reported":1734692826,"current_range_meters":27200,"station_id":"ce4bh512rcd13ifvqe2g","pricing_plan_id":"cebpf4jnsgd1na2vs0mg"},{"bike_id":"c7eb361d-62ae-499c-ab37-1c6d2dec8359","system_id":"levelo_inurba_marseille","lat":43.29903,"lon":5.37471,"is_reserved":false,"is_disabled":false,"rental_uris":{"android":"levelo://app?vid=c7eb361d-62ae-499c-ab37-1c6d2dec8359","ios":"levelo://app?vid=c7eb361d-62ae-499c-ab37-1c6d2dec8359"},"vehicle_type_id":"4","last_reported":1734692826,"current_range_meters":26800,"station_id":"ce4bgjh2rcd13ifvqbg0","pricing_plan_id":"cebpf4jnsgd1na2vs0mg"},{"bike_id":"c7a472ed-6dc3-4cde-83b8-4deb8af0b49b","system_id":"levelo_inurba_marseille","lat":43.24391,"lon":5.37075,"is_reserved":false,"is_disabled":false,"rental_uris":{"android":"levelo://app?vid=c7a472ed-6dc3-4cde-83b8-4deb8af0b49b","ios":"levelo://app?vid=c7a472ed-6dc3-4cde-83b8-4deb8af0b49b"},"vehicle_type_id":"4","last_reported":1734692826,"current_range_meters":22800,"station_id":"ce4bhhh2rcd13ifvqfk0","pricing_plan_id":"cebpf4jnsgd1na2vs0mg"},{"bike_id":"7d865d14-375d-4fed-a137-c22ff266a03a","system_id":"levelo_inurba_marseille","lat":43.292533,"lon":5.4092,"is_reserved":false,"is_disabled":false,"rental_uris":{"android":"levelo://app?vid=7d865d14-375d-4fed-a137-c22ff266a03a","ios":"levelo://app?vid=7d865d14-375d-4fed-a137-c22ff266a03a"},"vehicle_type_id":"4","last_reported":1734692826,"current_range_meters":37600,"station_id":"ce4bh192rcd13ifvqdc0","pricing_plan_id":"cebpf4jnsgd1na2vs0mg"},{"bike_id":"af375b95-98ed-4d0c-a1db-a5220a0cbfa9","system_id":"levelo_inurba_marseille","lat":43.31687,"lon":5.40464,"is_reserved":false,"is_disabled":false,"rental_uris":{"android":"levelo://app?vid=af375b95-98ed-4d0c-a1db-a5220a0cbfa9","ios":"levelo://app?vid=af375b95-98ed-4d0c-a1db-a5220a0cbfa9"},"vehicle_type_id":"4","last_reported":1734692826,"current_range_meters":37600,"station_id":"ce4bh012rcd13ifvqd00","pricing_plan_id":"cebpf4jnsgd1na2vs0mg"},{"bike_id":"39abd0c9-fe2d-49a5-a9eb-6972b0f37ba4","system_id":"levelo_inurba_marseille","lat":43.29802,"lon":5.38097,"is_reserved":false,"is_disabled":false,"rental_uris":{"android":"levelo://app?vid=39abd0c9-fe2d-49a5-a9eb-6972b0f37ba4","ios":"levelo://app?vid=39abd0c9-fe2d-49a5-a9eb-6972b0f37ba4"},"vehicle_type_id":"4","last_reported":1734692826,"current_range_meters":29600,"station_id":"ce4bgip2rcd13ifvqbb0","pricing_plan_id":"cebpf4jnsgd1na2vs0mg"},{"bike_id":"dd52cea9-6fe3-460c-a4fc-255f18d6f38c","system_id":"levelo_inurba_marseille","lat":43.25043,"lon":5.3896,"is_reserved":false,"is_disabled":false,"rental_uris":{"android":"levelo://app?vid=dd52cea9-6fe3-460c-a4fc-255f18d6f38c","ios":"levelo://app?vid=dd52cea9-6fe3-460c-a4fc-255f18d6f38c"},"vehicle_type_id":"4","last_reported":1734692826,"current_range_meters":30000,"station_id":"","pricing_plan_id":"cebpf4jnsgd1na2vs0mg"},{"bike_id":"714703e4-4373-45a0-8859-0524fe8e8d54","system_id":"levelo_inurba_marseille","lat":43.30147,"lon":5.37425,"is_reserved":false,"is_disabled":false,"rental_uris":{"android":"levelo://app?vid=714703e4-4373-45a0-8859-0524fe8e8d54","ios":"levelo://app?vid=714703e4-4373-45a0-8859-0524fe8e8d54"},"vehicle_type_id":"4","last_reported":1734692826,"current_range_meters":36800,"station_id":"ce4bgs92rcd13ifvqcc0","pricing_plan_id":"cebpf4jnsgd1na2vs0mg"},{"bike_id":"af72925e-8be1-4fd4-b87e-17d23f069ad3","system_id":"levelo_inurba_marseille","lat":43.29678,"lon":5.36608,"is_reserved":false,"is_disabled":false,"rental_uris":{"android":"levelo://app?vid=af72925e-8be1-4fd4-b87e-17d23f069ad3","ios":"levelo://app?vid=af72925e-8be1-4fd4-b87e-17d23f069ad3"},"vehicle_type_id":"4","last_reported":1734692826,"current_range_meters":38000,"station_id":"ce4bgn12rcd13ifvqbt0","pricing_plan_id":"cebpf4jnsgd1na2vs0mg"},{"bike_id":"a3490aca-cd3e-423c-b291-413d54e7a9b6","system_id":"levelo_inurba_marseille","lat":43.29687,"lon":5.37665,"is_reserved":false,"is_disabled":false,"rental_uris":{"android":"levelo://app?vid=a3490aca-cd3e-423c-b291-413d54e7a9b6","ios":"levelo://app?vid=a3490aca-cd3e-423c-b291-413d54e7a9b6"},"vehicle_type_id":"4","last_reported":1734692826,"current_range_meters":37600,"station_id":"ce4bgkh2rcd13ifvqbl0","pricing_plan_id":"cebpf4jnsgd1na2vs0mg"},{"bike_id":"202732ae-b078-47a3-8d06-070b89946afe","system_id":"levelo_inurba_marseille","lat":43.29007,"lon":5.37568,"is_reserved":false,"is_disabled":false,"rental_uris":{"android":"levelo://app?vid=202732ae-b078-47a3-8d06-070b89946afe","ios":"levelo://app?vid=202732ae-b078-47a3-8d06-070b89946afe"},"vehicle_type_id":"4","last_reported":1734692826,"current_range_meters":39200,"station_id":"ce4bh692rcd13ifvqe90","pricing_plan_id":"cebpf4jnsgd1na2vs0mg"},{"bike_id":"3f35c514-84c7-403c-be41-f914dbb94369","system_id":"levelo_inurba_marseille","lat":43.24645,"lon":5.38892,"is_reserved":false,"is_disabled":false,"rental_uris":{"android":"levelo://app?vid=3f35c514-84c7-403c-be41-f914dbb94369","ios":"levelo://app?vid=3f35c514-84c7-403c-be41-f914dbb94369"},"vehicle_type_id":"4","last_reported":1734692826,"current_range_meters":38800,"station_id":"ce4bhg12rcd13ifvqf60","pricing_plan_id":"cebpf4jnsgd1na2vs0mg"},{"bike_id":"6728802e-c3c6-4f8f-ade5-af96b0024ae1","system_id":"levelo_inurba_marseille","lat":43.25714,"lon":5.41125,"is_reserved":false,"is_disabled":false,"rental_uris":{"android":"levelo://app?vid=6728802e-c3c6-4f8f-ade5-af96b0024ae1","ios":"levelo://app?vid=6728802e-c3c6-4f8f-ade5-af96b0024ae1"},"vehicle_type_id":"4","last_reported":1734692826,"current_range_meters":39200,"station_id":"ce4bhkp2rcd13ifvqgd0","pricing_plan_id":"cebpf4jnsgd1na2vs0mg"},{"bike_id":"f20cd36c-a895-444d-b8aa-a67ddb893a61","system_id":"levelo_inurba_marseille","lat":43.306553,"lon":5.400886,"is_reserved":false,"is_disabled":true,"rental_uris":{"android":"levelo://app?vid=f20cd36c-a895-444d-b8aa-a67ddb893a61","ios":"levelo://app?vid=f20cd36c-a895-444d-b8aa-a67ddb893a61"},"vehicle_type_id":"4","last_reported":1734692826,"current_range_meters":5600,"station_id":"ce4bh112rcd13ifvqda0","pricing_plan_id":"cebpf4jnsgd1na2vs0mg"},{"bike_id":"666223cf-f963-4676-a2c3-13c4383f763c","system_id":"levelo_inurba_marseille","lat":43.31721,"lon":5.42395,"is_reserved":false,"is_disabled":false,"rental_uris":{"android":"levelo://app?vid=666223cf-f963-4676-a2c3-13c4383f763c","ios":"levelo://app?vid=666223cf-f963-4676-a2c3-13c4383f763c"},"vehicle_type_id":"4","last_reported":1734692826,"current_range_meters":28000,"station_id":"ce4bhp92rcd13ifvqhbg","pricing_plan_id":"cebpf4jnsgd1na2vs0mg"},{"bike_id":"7d8b4789-db38-4881-a12e-8303c1c118b0","system_id":"levelo_inurba_marseille","lat":43.30584,"lon":5.36744,"is_reserved":false,"is_disabled":false,"rental_uris":{"android":"levelo://app?vid=7d8b4789-db38-4881-a12e-8303c1c118b0","ios":"levelo://app?vid=7d8b4789-db38-4881-a12e-8303c1c118b0"},"vehicle_type_id":"4","last_reported":1734692826,"current_range_meters":38800,"station_id":"ce4bgrp2rcd13ifvqc9g","pricing_plan_id":"cebpf4jnsgd1na2vs0mg"},{"bike_id":"6840d155-4ad1-41f0-8aba-5b39be5e42db","system_id":"levelo_inurba_marseille","lat":43.34143,"lon":5.40901,"is_reserved":false,"is_disabled":true,"rental_uris":{"android":"levelo://app?vid=6840d155-4ad1-41f0-8aba-5b39be5e42db","ios":"levelo://app?vid=6840d155-4ad1-41f0-8aba-5b39be5e42db"},"vehicle_type_id":"4","last_reported":1734692826,"current_range_meters":34000,"station_id":"ce4bhqh2rcd13ifvqhlg","pricing_plan_id":"cebpf4jnsgd1na2vs0mg"},{"bike_id":"ccafd601-a601-427e-9311-be371d157fd2","system_id":"levelo_inurba_marseille","lat":43.285156,"lon":5.391381,"is_reserved":false,"is_disabled":false,"rental_uris":{"android":"levelo://app?vid=ccafd601-a601-427e-9311-be371d157fd2","ios":"levelo://app?vid=ccafd601-a601-427e-9311-be371d157fd2"},"vehicle_type_id":"4","last_reported":1734692826,"current_range_meters":30400,"station_id":"ce4bgjp2rcd13ifvqbh0","pricing_plan_id":"cebpf4jnsgd1na2vs0mg"},{"bike_id":"49afe83b-abb5-4be5-a10f-e37f6b41e94f","system_id":"levelo_inurba_marseille","lat":43.29897,"lon":5.43673,"is_reserved":false,"is_disabled":false,"rental_uris":{"android":"levelo://app?vid=49afe83b-abb5-4be5-a10f-e37f6b41e94f","ios":"levelo://app?vid=49afe83b-abb5-4be5-a10f-e37f6b41e94f"},"vehicle_type_id":"4","last_reported":1734692826,"current_range_meters":32800,"station_id":"ce4bhpp2rcd13ifvqhfg","pricing_plan_id":"cebpf4jnsgd1na2vs0mg"},{"bike_id":"fd516522-efeb-4c3a-b168-4e7991d4eb25","system_id":"levelo_inurba_marseille","lat":43.24077,"lon":5.37743,"is_reserved":false,"is_disabled":false,"rental_uris":{"android":"levelo://app?vid=fd516522-efeb-4c3a-b168-4e7991d4eb25","ios":"levelo://app?vid=fd516522-efeb-4c3a-b168-4e7991d4eb25"},"vehicle_type_id":"4","last_reported":1734692826,"current_range_meters":22000,"station_id":"ce4bhnp2rcd13ifvqgvg","pricing_plan_id":"cebpf4jnsgd1na2vs0mg"},{"bike_id":"da976e63-2653-4865-94d7-c962f7529aae","system_id":"levelo_inurba_marseille","lat":43.29435,"lon":5.39752,"is_reserved":false,"is_disabled":false,"rental_uris":{"android":"levelo://app?vid=da976e63-2653-4865-94d7-c962f7529aae","ios":"levelo://app?vid=da976e63-2653-4865-94d7-c962f7529aae"},"vehicle_type_id":"4","last_reported":1734692826,"current_range_meters":38000,"station_id":"ce4bh3h2rcd13ifvqdo0","pricing_plan_id":"cebpf4jnsgd1na2vs0mg"},{"bike_id":"8535c9fb-8c99-4405-b33c-0d44804b4583","system_id":"levelo_inurba_marseille","lat":43.29944,"lon":5.38183,"is_reserved":false,"is_disabled":false,"rental_uris":{"android":"levelo://app?vid=8535c9fb-8c99-4405-b33c-0d44804b4583","ios":"levelo://app?vid=8535c9fb-8c99-4405-b33c-0d44804b4583"},"vehicle_type_id":"4","last_reported":1734692826,"current_range_meters":39200,"station_id":"ce4bgj12rcd13ifvqbc0","pricing_plan_id":"cebpf4jnsgd1na2vs0mg"},{"bike_id":"6be06396-7842-46ec-a270-3e8d410abdb0","system_id":"levelo_inurba_marseille","lat":43.30146,"lon":5.37426,"is_reserved":false,"is_disabled":false,"rental_uris":{"android":"levelo://app?vid=6be06396-7842-46ec-a270-3e8d410abdb0","ios":"levelo://app?vid=6be06396-7842-46ec-a270-3e8d410abdb0"},"vehicle_type_id":"4","last_reported":1734692826,"current_range_meters":25600,"station_id":"ce4bgs92rcd13ifvqcc0","pricing_plan_id":"cebpf4jnsgd1na2vs0mg"},{"bike_id":"aceb3676-6ea7-42ff-8547-5be9aca19066","system_id":"levelo_inurba_marseille","lat":43.30157,"lon":5.38082,"is_reserved":false,"is_disabled":false,"rental_uris":{"android":"levelo://app?vid=aceb3676-6ea7-42ff-8547-5be9aca19066","ios":"levelo://app?vid=aceb3676-6ea7-42ff-8547-5be9aca19066"},"vehicle_type_id":"4","last_reported":1734692826,"current_range_meters":25200,"station_id":"ce4bgjp2rcd13ifvqbh0","pricing_plan_id":"cebpf4jnsgd1na2vs0mg"},{"bike_id":"b30db4df-e2c6-4cb8-b048-a68f2892d96f","system_id":"levelo_inurba_marseille","lat":43.31347,"lon":5.39701,"is_reserved":false,"is_disabled":false,"rental_uris":{"android":"levelo://app?vid=b30db4df-e2c6-4cb8-b048-a68f2892d96f","ios":"levelo://app?vid=b30db4df-e2c6-4cb8-b048-a68f2892d96f"},"vehicle_type_id":"4","last_reported":1734692826,"current_range_meters":28400,"station_id":"ce4bgvp2rcd13ifvqcu0","pricing_plan_id":"cebpf4jnsgd1na2vs0mg"},{"bike_id":"ec8b85ba-80e7-49fc-944d-ae51fa9164e8","system_id":"levelo_inurba_marseille","lat":43.27058,"lon":5.40258,"is_reserved":false,"is_disabled":false,"rental_uris":{"android":"levelo://app?vid=ec8b85ba-80e7-49fc-944d-ae51fa9164e8","ios":"levelo://app?vid=ec8b85ba-80e7-49fc-944d-ae51fa9164e8"},"vehicle_type_id":"4","last_reported":1734692826,"current_range_meters":37600,"station_id":"ce4bhk92rcd13ifvqgc0","pricing_plan_id":"cebpf4jnsgd1na2vs0mg"},{"bike_id":"c5d3dda4-9397-4823-9c8b-ea8eda2ab949","system_id":"levelo_inurba_marseille","lat":43.23961,"lon":5.36636,"is_reserved":false,"is_disabled":false,"rental_uris":{"android":"levelo://app?vid=c5d3dda4-9397-4823-9c8b-ea8eda2ab949","ios":"levelo://app?vid=c5d3dda4-9397-4823-9c8b-ea8eda2ab949"},"vehicle_type_id":"4","last_reported":1734692826,"current_range_meters":35200,"station_id":"ce4bhi12rcd13ifvqfp0","pricing_plan_id":"cebpf4jnsgd1na2vs0mg"},{"bike_id":"4a3ca9fc-50c7-445a-b4a3-dd5b6864efc1","system_id":"levelo_inurba_marseille","lat":43.28716,"lon":5.39997,"is_reserved":false,"is_disabled":false,"rental_uris":{"android":"levelo://app?vid=4a3ca9fc-50c7-445a-b4a3-dd5b6864efc1","ios":"levelo://app?vid=4a3ca9fc-50c7-445a-b4a3-dd5b6864efc1"},"vehicle_type_id":"4","last_reported":1734692826,"current_range_meters":30000,"station_id":"ce4bho92rcd13ifvqh3g","pricing_plan_id":"cebpf4jnsgd1na2vs0mg"},{"bike_id":"b5436064-4838-4a21-99fb-87553b534de1","system_id":"levelo_inurba_marseille","lat":43.2928,"lon":5.36847,"is_reserved":false,"is_disabled":false,"rental_uris":{"android":"levelo://app?vid=b5436064-4838-4a21-99fb-87553b534de1","ios":"levelo://app?vid=b5436064-4838-4a21-99fb-87553b534de1"},"vehicle_type_id":"4","last_reported":1734692826,"current_range_meters":34000,"station_id":"ce4bhbp2rcd13ifvqesg","pricing_plan_id":"cebpf4jnsgd1na2vs0mg"},{"bike_id":"539cde95-ccb1-4527-83aa-9bfdbc3eb37c","system_id":"levelo_inurba_marseille","lat":43.30583,"lon":5.37204,"is_reserved":false,"is_disabled":false,"rental_uris":{"android":"levelo://app?vid=539cde95-ccb1-4527-83aa-9bfdbc3eb37c","ios":"levelo://app?vid=539cde95-ccb1-4527-83aa-9bfdbc3eb37c"},"vehicle_type_id":"4","last_reported":1734692826,"current_range_meters":7200,"station_id":"ce4bgqh2rcd13ifvqc4g","pricing_plan_id":"cebpf4jnsgd1na2vs0mg"},{"bike_id":"b11dec3c-37ae-4e5f-a182-7db8571c22d2","system_id":"levelo_inurba_marseille","lat":43.299,"lon":5.43641,"is_reserved":false,"is_disabled":false,"rental_uris":{"android":"levelo://app?vid=b11dec3c-37ae-4e5f-a182-7db8571c22d2","ios":"levelo://app?vid=b11dec3c-37ae-4e5f-a182-7db8571c22d2"},"vehicle_type_id":"4","last_reported":1734692826,"current_range_meters":33200,"station_id":"ce4bhpp2rcd13ifvqhfg","pricing_plan_id":"cebpf4jnsgd1na2vs0mg"},{"bike_id":"9152841a-fdfe-42c3-8a9b-1e8063e50345","system_id":"levelo_inurba_marseille","lat":43.29583,"lon":5.38103,"is_reserved":false,"is_disabled":false,"rental_uris":{"android":"levelo://app?vid=9152841a-fdfe-42c3-8a9b-1e8063e50345","ios":"levelo://app?vid=9152841a-fdfe-42c3-8a9b-1e8063e50345"},"vehicle_type_id":"4","last_reported":1734692826,"current_range_meters":33600,"station_id":"ce4bgl12rcd13ifvqbo0","pricing_plan_id":"cebpf4jnsgd1na2vs0mg"},{"bike_id":"72492ff3-d3e5-4b81-822b-1d3357339451","system_id":"levelo_inurba_marseille","lat":43.29303,"lon":5.40004,"is_reserved":false,"is_disabled":true,"rental_uris":{"android":"levelo://app?vid=72492ff3-d3e5-4b81-822b-1d3357339451","ios":"levelo://app?vid=72492ff3-d3e5-4b81-822b-1d3357339451"},"vehicle_type_id":"4","last_reported":1734692826,"current_range_meters":32000,"station_id":"","pricing_plan_id":"cebpf4jnsgd1na2vs0mg"},{"bike_id":"ac35e660-89e6-4739-9d9a-129983f77756","system_id":"levelo_inurba_marseille","lat":43.30564,"lon":5.36785,"is_reserved":false,"is_disabled":false,"rental_uris":{"android":"levelo://app?vid=ac35e660-89e6-4739-9d9a-129983f77756","ios":"levelo://app?vid=ac35e660-89e6-4739-9d9a-129983f77756"},"vehicle_type_id":"4","last_reported":1734692826,"current_range_meters":15200,"station_id":"","pricing_plan_id":"cebpf4jnsgd1na2vs0mg"},{"bike_id":"68cc3280-8c90-422e-b1e6-051d15979724","system_id":"levelo_inurba_marseille","lat":43.23183,"lon":5.39989,"is_reserved":false,"is_disabled":false,"rental_uris":{"android":"levelo://app?vid=68cc3280-8c90-422e-b1e6-051d15979724","ios":"levelo://app?vid=68cc3280-8c90-422e-b1e6-051d15979724"},"vehicle_type_id":"4","last_reported":1734692826,"current_range_meters":17600,"station_id":"ce4bhn12rcd13ifvqgqg","pricing_plan_id":"cebpf4jnsgd1na2vs0mg"},{"bike_id":"2f3ffe14-db03-4fbe-b9e8-6285c689975c","system_id":"levelo_inurba_marseille","lat":43.31369,"lon":5.39695,"is_reserved":false,"is_disabled":true,"rental_uris":{"android":"levelo://app?vid=2f3ffe14-db03-4fbe-b9e8-6285c689975c","ios":"levelo://app?vid=2f3ffe14-db03-4fbe-b9e8-6285c689975c"},"vehicle_type_id":"4","last_reported":1734692826,"current_range_meters":15200,"station_id":"ce4bgvp2rcd13ifvqcu0","pricing_plan_id":"cebpf4jnsgd1na2vs0mg"},{"bike_id":"f7621af2-768a-4092-8f9b-0bfd56207a0a","system_id":"levelo_inurba_marseille","lat":43.2511,"lon":5.40337,"is_reserved":false,"is_disabled":false,"rental_uris":{"android":"levelo://app?vid=f7621af2-768a-4092-8f9b-0bfd56207a0a","ios":"levelo://app?vid=f7621af2-768a-4092-8f9b-0bfd56207a0a"},"vehicle_type_id":"4","last_reported":1734692826,"current_range_meters":39200,"station_id":"ce4bhlh2rcd13ifvqgig","pricing_plan_id":"cebpf4jnsgd1na2vs0mg"},{"bike_id":"cef27dca-2c4f-4699-9a2c-39e01beb2ca0","system_id":"levelo_inurba_marseille","lat":43.30525,"lon":5.36714,"is_reserved":false,"is_disabled":false,"rental_uris":{"android":"levelo://app?vid=cef27dca-2c4f-4699-9a2c-39e01beb2ca0","ios":"levelo://app?vid=cef27dca-2c4f-4699-9a2c-39e01beb2ca0"},"vehicle_type_id":"4","last_reported":1734692826,"current_range_meters":33200,"station_id":"ce4bgrp2rcd13ifvqc9g","pricing_plan_id":"cebpf4jnsgd1na2vs0mg"},{"bike_id":"b3c94148-282c-49ef-bed3-a778d2e917e9","system_id":"levelo_inurba_marseille","lat":43.301526,"lon":5.380881,"is_reserved":false,"is_disabled":false,"rental_uris":{"android":"levelo://app?vid=b3c94148-282c-49ef-bed3-a778d2e917e9","ios":"levelo://app?vid=b3c94148-282c-49ef-bed3-a778d2e917e9"},"vehicle_type_id":"4","last_reported":1734692826,"current_range_meters":35600,"station_id":"ce4bgjp2rcd13ifvqbh0","pricing_plan_id":"cebpf4jnsgd1na2vs0mg"},{"bike_id":"6c4af420-e957-45d5-8e46-697958a83ae5","system_id":"levelo_inurba_marseille","lat":43.27369,"lon":5.36261,"is_reserved":false,"is_disabled":false,"rental_uris":{"android":"levelo://app?vid=6c4af420-e957-45d5-8e46-697958a83ae5","ios":"levelo://app?vid=6c4af420-e957-45d5-8e46-697958a83ae5"},"vehicle_type_id":"4","last_reported":1734692826,"current_range_meters":38400,"station_id":"ce4bhbh2rcd13ifvqeo0","pricing_plan_id":"cebpf4jnsgd1na2vs0mg"},{"bike_id":"a0b13504-4db3-4c1c-85c9-95caada3e30d","system_id":"levelo_inurba_marseille","lat":43.25932,"lon":5.40913,"is_reserved":false,"is_disabled":false,"rental_uris":{"android":"levelo://app?vid=a0b13504-4db3-4c1c-85c9-95caada3e30d","ios":"levelo://app?vid=a0b13504-4db3-4c1c-85c9-95caada3e30d"},"vehicle_type_id":"4","last_reported":1734692826,"current_range_meters":30800,"station_id":"ce4bhm92rcd13ifvqglg","pricing_plan_id":"cebpf4jnsgd1na2vs0mg"},{"bike_id":"d7a56cd7-2b68-42d4-a1a9-6148b7cde173","system_id":"levelo_inurba_marseille","lat":43.30585,"lon":5.39357,"is_reserved":false,"is_disabled":false,"rental_uris":{"android":"levelo://app?vid=d7a56cd7-2b68-42d4-a1a9-6148b7cde173","ios":"levelo://app?vid=d7a56cd7-2b68-42d4-a1a9-6148b7cde173"},"vehicle_type_id":"4","last_reported":1734692826,"current_range_meters":36800,"station_id":"ce4bh0p2rcd13ifvqd80","pricing_plan_id":"cebpf4jnsgd1na2vs0mg"},{"bike_id":"7f253010-e4c1-4581-a3ac-071064bce5b6","system_id":"levelo_inurba_marseille","lat":43.30472,"lon":5.37898,"is_reserved":false,"is_disabled":false,"rental_uris":{"android":"levelo://app?vid=7f253010-e4c1-4581-a3ac-071064bce5b6","ios":"levelo://app?vid=7f253010-e4c1-4581-a3ac-071064bce5b6"},"vehicle_type_id":"4","last_reported":1734692826,"current_range_meters":38800,"station_id":"ce4bgup2rcd13ifvqcn0","pricing_plan_id":"cebpf4jnsgd1na2vs0mg"},{"bike_id":"817bb774-19e9-4671-a1ad-0f1f89092a18","system_id":"levelo_inurba_marseille","lat":43.284624,"lon":5.384141,"is_reserved":false,"is_disabled":false,"rental_uris":{"android":"levelo://app?vid=817bb774-19e9-4671-a1ad-0f1f89092a18","ios":"levelo://app?vid=817bb774-19e9-4671-a1ad-0f1f89092a18"},"vehicle_type_id":"4","last_reported":1734692826,"current_range_meters":38800,"station_id":"ce4bh512rcd13ifvqe3g","pricing_plan_id":"cebpf4jnsgd1na2vs0mg"},{"bike_id":"782bcbf2-b7de-4b04-bebc-aaa0329dd90c","system_id":"levelo_inurba_marseille","lat":43.23193,"lon":5.35557,"is_reserved":false,"is_disabled":false,"rental_uris":{"android":"levelo://app?vid=782bcbf2-b7de-4b04-bebc-aaa0329dd90c","ios":"levelo://app?vid=782bcbf2-b7de-4b04-bebc-aaa0329dd90c"},"vehicle_type_id":"4","last_reported":1734692826,"current_range_meters":36800,"station_id":"ce4bhu92rcd13ifvqi70","pricing_plan_id":"cebpf4jnsgd1na2vs0mg"},{"bike_id":"a51b29cf-e630-4dd8-91c4-95b34b8596e4","system_id":"levelo_inurba_marseille","lat":43.30133,"lon":5.39873,"is_reserved":false,"is_disabled":false,"rental_uris":{"android":"levelo://app?vid=a51b29cf-e630-4dd8-91c4-95b34b8596e4","ios":"levelo://app?vid=a51b29cf-e630-4dd8-91c4-95b34b8596e4"},"vehicle_type_id":"4","last_reported":1734692826,"current_range_meters":11200,"station_id":"ce4bh0h2rcd13ifvqd40","pricing_plan_id":"cebpf4jnsgd1na2vs0mg"},{"bike_id":"67e590f7-0feb-4571-9ae2-729bb19e5be9","system_id":"levelo_inurba_marseille","lat":43.28458,"lon":5.35889,"is_reserved":false,"is_disabled":false,"rental_uris":{"android":"levelo://app?vid=67e590f7-0feb-4571-9ae2-729bb19e5be9","ios":"levelo://app?vid=67e590f7-0feb-4571-9ae2-729bb19e5be9"},"vehicle_type_id":"4","last_reported":1734692826,"current_range_meters":15200,"station_id":"ce4bhah2rcd13ifvqei0","pricing_plan_id":"cebpf4jnsgd1na2vs0mg"},{"bike_id":"7d872448-c3b4-40a4-984e-792a758c118e","system_id":"levelo_inurba_marseille","lat":43.27815,"lon":5.40708,"is_reserved":false,"is_disabled":false,"rental_uris":{"android":"levelo://app?vid=7d872448-c3b4-40a4-984e-792a758c118e","ios":"levelo://app?vid=7d872448-c3b4-40a4-984e-792a758c118e"},"vehicle_type_id":"4","last_reported":1734692826,"current_range_meters":8000,"station_id":"ce4bhnh2rcd13ifvqgtg","pricing_plan_id":"cebpf4jnsgd1na2vs0mg"},{"bike_id":"1897ad2d-5c02-4d9f-ba4c-937899dfbdc3","system_id":"levelo_inurba_marseille","lat":43.24381,"lon":5.37057,"is_reserved":false,"is_disabled":false,"rental_uris":{"android":"levelo://app?vid=1897ad2d-5c02-4d9f-ba4c-937899dfbdc3","ios":"levelo://app?vid=1897ad2d-5c02-4d9f-ba4c-937899dfbdc3"},"vehicle_type_id":"4","last_reported":1734692826,"current_range_meters":38800,"station_id":"ce4bhhh2rcd13ifvqfk0","pricing_plan_id":"cebpf4jnsgd1na2vs0mg"},{"bike_id":"e9e5d726-62e1-4b6b-a23c-0a4951c24076","system_id":"levelo_inurba_marseille","lat":43.24072,"lon":5.39737,"is_reserved":false,"is_disabled":true,"rental_uris":{"android":"levelo://app?vid=e9e5d726-62e1-4b6b-a23c-0a4951c24076","ios":"levelo://app?vid=e9e5d726-62e1-4b6b-a23c-0a4951c24076"},"vehicle_type_id":"4","last_reported":1734692826,"current_range_meters":0,"station_id":"","pricing_plan_id":"cebpf4jnsgd1na2vs0mg"},{"bike_id":"d9a22046-cbe9-4de7-ada7-e4f01d7177aa","system_id":"levelo_inurba_marseille","lat":43.29029,"lon":5.37575,"is_reserved":false,"is_disabled":false,"rental_uris":{"android":"levelo://app?vid=d9a22046-cbe9-4de7-ada7-e4f01d7177aa","ios":"levelo://app?vid=d9a22046-cbe9-4de7-ada7-e4f01d7177aa"},"vehicle_type_id":"4","last_reported":1734692826,"current_range_meters":38800,"station_id":"ce4bh692rcd13ifvqe90","pricing_plan_id":"cebpf4jnsgd1na2vs0mg"},{"bike_id":"ea300bb5-9ab8-4102-825a-14e36fff0270","system_id":"levelo_inurba_marseille","lat":43.309,"lon":5.3685,"is_reserved":false,"is_disabled":false,"rental_uris":{"android":"levelo://app?vid=ea300bb5-9ab8-4102-825a-14e36fff0270","ios":"levelo://app?vid=ea300bb5-9ab8-4102-825a-14e36fff0270"},"vehicle_type_id":"4","last_reported":1734692826,"current_range_meters":38800,"station_id":"ce4bgn92rcd13ifvqbvg","pricing_plan_id":"cebpf4jnsgd1na2vs0mg"},{"bike_id":"5f8e4290-a91a-4704-973a-835ea6fc4c37","system_id":"levelo_inurba_marseille","lat":43.30539,"lon":5.36692,"is_reserved":false,"is_disabled":false,"rental_uris":{"android":"levelo://app?vid=5f8e4290-a91a-4704-973a-835ea6fc4c37","ios":"levelo://app?vid=5f8e4290-a91a-4704-973a-835ea6fc4c37"},"vehicle_type_id":"4","last_reported":1734692826,"current_range_meters":20000,"station_id":"ce4bgrp2rcd13ifvqc9g","pricing_plan_id":"cebpf4jnsgd1na2vs0mg"},{"bike_id":"30cec467-33cd-4cdb-957e-7d21124d2d68","system_id":"levelo_inurba_marseille","lat":43.30538,"lon":5.36699,"is_reserved":false,"is_disabled":false,"rental_uris":{"android":"levelo://app?vid=30cec467-33cd-4cdb-957e-7d21124d2d68","ios":"levelo://app?vid=30cec467-33cd-4cdb-957e-7d21124d2d68"},"vehicle_type_id":"4","last_reported":1734692826,"current_range_meters":38800,"station_id":"ce4bgrp2rcd13ifvqc9g","pricing_plan_id":"cebpf4jnsgd1na2vs0mg"},{"bike_id":"da47edb6-6b7d-48ce-8360-5fd99f41974c","system_id":"levelo_inurba_marseille","lat":43.23189,"lon":5.39991,"is_reserved":false,"is_disabled":false,"rental_uris":{"android":"levelo://app?vid=da47edb6-6b7d-48ce-8360-5fd99f41974c","ios":"levelo://app?vid=da47edb6-6b7d-48ce-8360-5fd99f41974c"},"vehicle_type_id":"4","last_reported":1734692826,"current_range_meters":31200,"station_id":"ce4bhn12rcd13ifvqgqg","pricing_plan_id":"cebpf4jnsgd1na2vs0mg"},{"bike_id":"290bb62e-1ac8-4f49-8850-7312456812da","system_id":"levelo_inurba_marseille","lat":43.30531,"lon":5.36698,"is_reserved":false,"is_disabled":false,"rental_uris":{"android":"levelo://app?vid=290bb62e-1ac8-4f49-8850-7312456812da","ios":"levelo://app?vid=290bb62e-1ac8-4f49-8850-7312456812da"},"vehicle_type_id":"4","last_reported":1734692826,"current_range_meters":29600,"station_id":"ce4bgrp2rcd13ifvqc9g","pricing_plan_id":"cebpf4jnsgd1na2vs0mg"},{"bike_id":"8121ea70-bcea-4330-bf34-8839e068416d","system_id":"levelo_inurba_marseille","lat":43.3054,"lon":5.36727,"is_reserved":false,"is_disabled":false,"rental_uris":{"android":"levelo://app?vid=8121ea70-bcea-4330-bf34-8839e068416d","ios":"levelo://app?vid=8121ea70-bcea-4330-bf34-8839e068416d"},"vehicle_type_id":"4","last_reported":1734692826,"current_range_meters":38800,"station_id":"ce4bgrp2rcd13ifvqc9g","pricing_plan_id":"cebpf4jnsgd1na2vs0mg"},{"bike_id":"64917de6-527c-4e28-8147-d95c5c8716df","system_id":"levelo_inurba_marseille","lat":43.3014,"lon":5.39882,"is_reserved":false,"is_disabled":false,"rental_uris":{"android":"levelo://app?vid=64917de6-527c-4e28-8147-d95c5c8716df","ios":"levelo://app?vid=64917de6-527c-4e28-8147-d95c5c8716df"},"vehicle_type_id":"4","last_reported":1734692826,"current_range_meters":38800,"station_id":"ce4bh0h2rcd13ifvqd40","pricing_plan_id":"cebpf4jnsgd1na2vs0mg"},{"bike_id":"330bf880-e1f5-4f4a-b329-f0f879268631","system_id":"levelo_inurba_marseille","lat":43.28854,"lon":5.39336,"is_reserved":false,"is_disabled":true,"rental_uris":{"android":"levelo://app?vid=330bf880-e1f5-4f4a-b329-f0f879268631","ios":"levelo://app?vid=330bf880-e1f5-4f4a-b329-f0f879268631"},"vehicle_type_id":"4","last_reported":1734692826,"current_range_meters":16000,"station_id":"ce4bh2p2rcd13ifvqdi0","pricing_plan_id":"cebpf4jnsgd1na2vs0mg"},{"bike_id":"44127e4e-8e84-4a38-89f7-8f4efb63f7a5","system_id":"levelo_inurba_marseille","lat":43.31196,"lon":5.36756,"is_reserved":false,"is_disabled":true,"rental_uris":{"android":"levelo://app?vid=44127e4e-8e84-4a38-89f7-8f4efb63f7a5","ios":"levelo://app?vid=44127e4e-8e84-4a38-89f7-8f4efb63f7a5"},"vehicle_type_id":"4","last_reported":1734692826,"current_range_meters":0,"station_id":"","pricing_plan_id":"cebpf4jnsgd1na2vs0mg"},{"bike_id":"36a3e11b-a356-441c-a678-bca2cc8e636c","system_id":"levelo_inurba_marseille","lat":43.27207,"lon":5.39182,"is_reserved":false,"is_disabled":false,"rental_uris":{"android":"levelo://app?vid=36a3e11b-a356-441c-a678-bca2cc8e636c","ios":"levelo://app?vid=36a3e11b-a356-441c-a678-bca2cc8e636c"},"vehicle_type_id":"4","last_reported":1734692826,"current_range_meters":22000,"station_id":"ce4bhhp2rcd13ifvqfm0","pricing_plan_id":"cebpf4jnsgd1na2vs0mg"},{"bike_id":"7342d331-edf5-4d0e-8d54-50aa1fd0b045","system_id":"levelo_inurba_marseille","lat":43.29026,"lon":5.37572,"is_reserved":false,"is_disabled":false,"rental_uris":{"android":"levelo://app?vid=7342d331-edf5-4d0e-8d54-50aa1fd0b045","ios":"levelo://app?vid=7342d331-edf5-4d0e-8d54-50aa1fd0b045"},"vehicle_type_id":"4","last_reported":1734692826,"current_range_meters":39200,"station_id":"ce4bh692rcd13ifvqe90","pricing_plan_id":"cebpf4jnsgd1na2vs0mg"},{"bike_id":"60c24abf-7634-4c1d-be8e-3905917c0f35","system_id":"levelo_inurba_marseille","lat":43.260602,"lon":5.394076,"is_reserved":false,"is_disabled":false,"rental_uris":{"android":"levelo://app?vid=60c24abf-7634-4c1d-be8e-3905917c0f35","ios":"levelo://app?vid=60c24abf-7634-4c1d-be8e-3905917c0f35"},"vehicle_type_id":"4","last_reported":1734692826,"current_range_meters":26000,"station_id":"ce4bhh92rcd13ifvqfj0","pricing_plan_id":"cebpf4jnsgd1na2vs0mg"},{"bike_id":"beceb8b8-d5e3-4e9e-bbff-ca798bff2e76","system_id":"levelo_inurba_marseille","lat":43.29977,"lon":5.3718,"is_reserved":false,"is_disabled":false,"rental_uris":{"android":"levelo://app?vid=beceb8b8-d5e3-4e9e-bbff-ca798bff2e76","ios":"levelo://app?vid=beceb8b8-d5e3-4e9e-bbff-ca798bff2e76"},"vehicle_type_id":"4","last_reported":1734692826,"current_range_meters":39200,"station_id":"ce4bgr92rcd13ifvqc7g","pricing_plan_id":"cebpf4jnsgd1na2vs0mg"},{"bike_id":"4c1fd80c-e9fb-42bb-9ee8-77cae5913cbe","system_id":"levelo_inurba_marseille","lat":43.28611,"lon":5.37067,"is_reserved":false,"is_disabled":false,"rental_uris":{"android":"levelo://app?vid=4c1fd80c-e9fb-42bb-9ee8-77cae5913cbe","ios":"levelo://app?vid=4c1fd80c-e9fb-42bb-9ee8-77cae5913cbe"},"vehicle_type_id":"4","last_reported":1734692826,"current_range_meters":38400,"station_id":"ce4bht12rcd13ifvqi60","pricing_plan_id":"cebpf4jnsgd1na2vs0mg"},{"bike_id":"ff1810ea-7920-431d-a554-3cf458736fb3","system_id":"levelo_inurba_marseille","lat":43.275676,"lon":5.384064,"is_reserved":false,"is_disabled":false,"rental_uris":{"android":"levelo://app?vid=ff1810ea-7920-431d-a554-3cf458736fb3","ios":"levelo://app?vid=ff1810ea-7920-431d-a554-3cf458736fb3"},"vehicle_type_id":"4","last_reported":1734692826,"current_range_meters":8000,"station_id":"ce4bhh92rcd13ifvqfi0","pricing_plan_id":"cebpf4jnsgd1na2vs0mg"},{"bike_id":"5ccf4016-43de-40ec-b7cb-18f36b051f59","system_id":"levelo_inurba_marseille","lat":43.28161,"lon":5.42639,"is_reserved":false,"is_disabled":true,"rental_uris":{"android":"levelo://app?vid=5ccf4016-43de-40ec-b7cb-18f36b051f59","ios":"levelo://app?vid=5ccf4016-43de-40ec-b7cb-18f36b051f59"},"vehicle_type_id":"4","last_reported":1734692826,"current_range_meters":800,"station_id":"ce4bhnh2rcd13ifvqgug","pricing_plan_id":"cebpf4jnsgd1na2vs0mg"},{"bike_id":"f4d746c8-4a7f-482b-8eb9-5672e99102c5","system_id":"levelo_inurba_marseille","lat":43.29866,"lon":5.39731,"is_reserved":false,"is_disabled":false,"rental_uris":{"android":"levelo://app?vid=f4d746c8-4a7f-482b-8eb9-5672e99102c5","ios":"levelo://app?vid=f4d746c8-4a7f-482b-8eb9-5672e99102c5"},"vehicle_type_id":"4","last_reported":1734692826,"current_range_meters":36000,"station_id":"ce4bh0h2rcd13ifvqd50","pricing_plan_id":"cebpf4jnsgd1na2vs0mg"},{"bike_id":"c5448d7c-ce1b-4976-a816-9c8571bd467a","system_id":"levelo_inurba_marseille","lat":43.29525,"lon":5.37503,"is_reserved":false,"is_disabled":false,"rental_uris":{"android":"levelo://app?vid=c5448d7c-ce1b-4976-a816-9c8571bd467a","ios":"levelo://app?vid=c5448d7c-ce1b-4976-a816-9c8571bd467a"},"vehicle_type_id":"4","last_reported":1734692826,"current_range_meters":26800,"station_id":"ce4bgkp2rcd13ifvqbmg","pricing_plan_id":"cebpf4jnsgd1na2vs0mg"},{"bike_id":"82d04b50-e48e-48de-9086-622bd99590fe","system_id":"levelo_inurba_marseille","lat":43.31692,"lon":5.40471,"is_reserved":false,"is_disabled":false,"rental_uris":{"android":"levelo://app?vid=82d04b50-e48e-48de-9086-622bd99590fe","ios":"levelo://app?vid=82d04b50-e48e-48de-9086-622bd99590fe"},"vehicle_type_id":"4","last_reported":1734692826,"current_range_meters":38800,"station_id":"ce4bh012rcd13ifvqd00","pricing_plan_id":"cebpf4jnsgd1na2vs0mg"},{"bike_id":"88d0fca1-50cd-440e-a583-785fe0c07914","system_id":"levelo_inurba_marseille","lat":43.33032,"lon":5.39268,"is_reserved":false,"is_disabled":false,"rental_uris":{"android":"levelo://app?vid=88d0fca1-50cd-440e-a583-785fe0c07914","ios":"levelo://app?vid=88d0fca1-50cd-440e-a583-785fe0c07914"},"vehicle_type_id":"4","last_reported":1734692826,"current_range_meters":4400,"station_id":"","pricing_plan_id":"cebpf4jnsgd1na2vs0mg"},{"bike_id":"584b817f-1a7d-4e53-8e6b-a260280bc97e","system_id":"levelo_inurba_marseille","lat":43.27812,"lon":5.40713,"is_reserved":false,"is_disabled":false,"rental_uris":{"android":"levelo://app?vid=584b817f-1a7d-4e53-8e6b-a260280bc97e","ios":"levelo://app?vid=584b817f-1a7d-4e53-8e6b-a260280bc97e"},"vehicle_type_id":"4","last_reported":1734692826,"current_range_meters":20800,"station_id":"ce4bhnh2rcd13ifvqgtg","pricing_plan_id":"cebpf4jnsgd1na2vs0mg"},{"bike_id":"77dd45bd-8318-4b15-b271-d6ad3042584d","system_id":"levelo_inurba_marseille","lat":43.28614,"lon":5.37059,"is_reserved":false,"is_disabled":false,"rental_uris":{"android":"levelo://app?vid=77dd45bd-8318-4b15-b271-d6ad3042584d","ios":"levelo://app?vid=77dd45bd-8318-4b15-b271-d6ad3042584d"},"vehicle_type_id":"4","last_reported":1734692826,"current_range_meters":38400,"station_id":"ce4bht12rcd13ifvqi60","pricing_plan_id":"cebpf4jnsgd1na2vs0mg"},{"bike_id":"62159b96-70de-4225-a341-fe8203f1c374","system_id":"levelo_inurba_marseille","lat":43.289416,"lon":5.396359,"is_reserved":false,"is_disabled":true,"rental_uris":{"android":"levelo://app?vid=62159b96-70de-4225-a341-fe8203f1c374","ios":"levelo://app?vid=62159b96-70de-4225-a341-fe8203f1c374"},"vehicle_type_id":"4","last_reported":1734692826,"current_range_meters":30400,"station_id":"ce4bh3h2rcd13ifvqdn0","pricing_plan_id":"cebpf4jnsgd1na2vs0mg"},{"bike_id":"c97d5880-82c8-486f-b57c-042aaa388801","system_id":"levelo_inurba_marseille","lat":43.25937,"lon":5.40903,"is_reserved":false,"is_disabled":false,"rental_uris":{"android":"levelo://app?vid=c97d5880-82c8-486f-b57c-042aaa388801","ios":"levelo://app?vid=c97d5880-82c8-486f-b57c-042aaa388801"},"vehicle_type_id":"4","last_reported":1734692826,"current_range_meters":36400,"station_id":"ce4bhm92rcd13ifvqglg","pricing_plan_id":"cebpf4jnsgd1na2vs0mg"},{"bike_id":"27909249-f4e0-4d1d-a2be-efdc4d84b85a","system_id":"levelo_inurba_marseille","lat":43.32659,"lon":5.40991,"is_reserved":false,"is_disabled":false,"rental_uris":{"android":"levelo://app?vid=27909249-f4e0-4d1d-a2be-efdc4d84b85a","ios":"levelo://app?vid=27909249-f4e0-4d1d-a2be-efdc4d84b85a"},"vehicle_type_id":"4","last_reported":1734692826,"current_range_meters":34000,"station_id":"ce4bhpp2rcd13ifvqhgg","pricing_plan_id":"cebpf4jnsgd1na2vs0mg"},{"bike_id":"0c9a1202-8e72-4c9a-bd45-c006f8854121","system_id":"levelo_inurba_marseille","lat":43.3016,"lon":5.38091,"is_reserved":false,"is_disabled":false,"rental_uris":{"android":"levelo://app?vid=0c9a1202-8e72-4c9a-bd45-c006f8854121","ios":"levelo://app?vid=0c9a1202-8e72-4c9a-bd45-c006f8854121"},"vehicle_type_id":"4","last_reported":1734692826,"current_range_meters":20400,"station_id":"ce4bgjp2rcd13ifvqbh0","pricing_plan_id":"cebpf4jnsgd1na2vs0mg"},{"bike_id":"6df499b8-4a58-4d4f-ba33-89952d9ec9ac","system_id":"levelo_inurba_marseille","lat":43.24994,"lon":5.38949,"is_reserved":false,"is_disabled":false,"rental_uris":{"android":"levelo://app?vid=6df499b8-4a58-4d4f-ba33-89952d9ec9ac","ios":"levelo://app?vid=6df499b8-4a58-4d4f-ba33-89952d9ec9ac"},"vehicle_type_id":"4","last_reported":1734692826,"current_range_meters":34800,"station_id":"ce4bhgp2rcd13ifvqfd0","pricing_plan_id":"cebpf4jnsgd1na2vs0mg"},{"bike_id":"cc5cc33a-170c-4c9d-8b38-4163e1ce4670","system_id":"levelo_inurba_marseille","lat":43.27878,"lon":5.37991,"is_reserved":false,"is_disabled":false,"rental_uris":{"android":"levelo://app?vid=cc5cc33a-170c-4c9d-8b38-4163e1ce4670","ios":"levelo://app?vid=cc5cc33a-170c-4c9d-8b38-4163e1ce4670"},"vehicle_type_id":"4","last_reported":1734692826,"current_range_meters":38800,"station_id":"ce4bhf92rcd13ifvqf50","pricing_plan_id":"cebpf4jnsgd1na2vs0mg"},{"bike_id":"eeb165cd-0850-4135-b307-a7a2de607d7b","system_id":"levelo_inurba_marseille","lat":43.28611,"lon":5.37066,"is_reserved":false,"is_disabled":false,"rental_uris":{"android":"levelo://app?vid=eeb165cd-0850-4135-b307-a7a2de607d7b","ios":"levelo://app?vid=eeb165cd-0850-4135-b307-a7a2de607d7b"},"vehicle_type_id":"4","last_reported":1734692826,"current_range_meters":38800,"station_id":"ce4bht12rcd13ifvqi60","pricing_plan_id":"cebpf4jnsgd1na2vs0mg"},{"bike_id":"fb35cf8d-b386-4618-a728-a76f484e9f38","system_id":"levelo_inurba_marseille","lat":43.30352,"lon":5.41874,"is_reserved":false,"is_disabled":false,"rental_uris":{"android":"levelo://app?vid=fb35cf8d-b386-4618-a728-a76f484e9f38","ios":"levelo://app?vid=fb35cf8d-b386-4618-a728-a76f484e9f38"},"vehicle_type_id":"4","last_reported":1734692826,"current_range_meters":38800,"station_id":"ce4bhop2rcd13ifvqh7g","pricing_plan_id":"cebpf4jnsgd1na2vs0mg"},{"bike_id":"1535fb9d-d39a-4ce5-9a53-b732b7d21414","system_id":"levelo_inurba_marseille","lat":43.26786,"lon":5.39412,"is_reserved":false,"is_disabled":false,"rental_uris":{"android":"levelo://app?vid=1535fb9d-d39a-4ce5-9a53-b732b7d21414","ios":"levelo://app?vid=1535fb9d-d39a-4ce5-9a53-b732b7d21414"},"vehicle_type_id":"4","last_reported":1734692826,"current_range_meters":26800,"station_id":"ce4bhh12rcd13ifvqfg0","pricing_plan_id":"cebpf4jnsgd1na2vs0mg"},{"bike_id":"bde16004-2a0c-4fc8-acdd-f812d033bf70","system_id":"levelo_inurba_marseille","lat":43.26065,"lon":5.39388,"is_reserved":false,"is_disabled":false,"rental_uris":{"android":"levelo://app?vid=bde16004-2a0c-4fc8-acdd-f812d033bf70","ios":"levelo://app?vid=bde16004-2a0c-4fc8-acdd-f812d033bf70"},"vehicle_type_id":"4","last_reported":1734692826,"current_range_meters":8400,"station_id":"ce4bhh92rcd13ifvqfj0","pricing_plan_id":"cebpf4jnsgd1na2vs0mg"},{"bike_id":"df227d23-afec-4906-8b5a-7364725bbe5b","system_id":"levelo_inurba_marseille","lat":43.26479,"lon":5.39561,"is_reserved":false,"is_disabled":false,"rental_uris":{"android":"levelo://app?vid=df227d23-afec-4906-8b5a-7364725bbe5b","ios":"levelo://app?vid=df227d23-afec-4906-8b5a-7364725bbe5b"},"vehicle_type_id":"4","last_reported":1734692826,"current_range_meters":26000,"station_id":"ce4bhi12rcd13ifvqfq0","pricing_plan_id":"cebpf4jnsgd1na2vs0mg"},{"bike_id":"00078e40-53cc-4acd-8d45-eabe56d3a9c1","system_id":"levelo_inurba_marseille","lat":43.30789,"lon":5.38158,"is_reserved":false,"is_disabled":true,"rental_uris":{"android":"levelo://app?vid=00078e40-53cc-4acd-8d45-eabe56d3a9c1","ios":"levelo://app?vid=00078e40-53cc-4acd-8d45-eabe56d3a9c1"},"vehicle_type_id":"4","last_reported":1734692826,"current_range_meters":2000,"station_id":"ce4bgt12rcd13ifvqce0","pricing_plan_id":"cebpf4jnsgd1na2vs0mg"},{"bike_id":"9f50244a-d38a-491a-9f70-c23a46404b46","system_id":"levelo_inurba_marseille","lat":43.286,"lon":5.37072,"is_reserved":false,"is_disabled":false,"rental_uris":{"android":"levelo://app?vid=9f50244a-d38a-491a-9f70-c23a46404b46","ios":"levelo://app?vid=9f50244a-d38a-491a-9f70-c23a46404b46"},"vehicle_type_id":"4","last_reported":1734692826,"current_range_meters":39200,"station_id":"ce4bht12rcd13ifvqi60","pricing_plan_id":"cebpf4jnsgd1na2vs0mg"},{"bike_id":"df609213-4f03-423d-a027-9336b146a373","system_id":"levelo_inurba_marseille","lat":43.27562,"lon":5.38426,"is_reserved":false,"is_disabled":false,"rental_uris":{"android":"levelo://app?vid=df609213-4f03-423d-a027-9336b146a373","ios":"levelo://app?vid=df609213-4f03-423d-a027-9336b146a373"},"vehicle_type_id":"4","last_reported":1734692826,"current_range_meters":38800,"station_id":"ce4bhh92rcd13ifvqfi0","pricing_plan_id":"cebpf4jnsgd1na2vs0mg"},{"bike_id":"a2556b02-a46f-40fc-83fb-d4423cb32ea6","system_id":"levelo_inurba_marseille","lat":43.28099,"lon":5.3784,"is_reserved":false,"is_disabled":false,"rental_uris":{"android":"levelo://app?vid=a2556b02-a46f-40fc-83fb-d4423cb32ea6","ios":"levelo://app?vid=a2556b02-a46f-40fc-83fb-d4423cb32ea6"},"vehicle_type_id":"4","last_reported":1734692826,"current_range_meters":27200,"station_id":"ce4bha12rcd13ifvqee0","pricing_plan_id":"cebpf4jnsgd1na2vs0mg"},{"bike_id":"9f3ab42c-c55b-4fdd-b086-5c2c40cb4f7c","system_id":"levelo_inurba_marseille","lat":43.29093,"lon":5.38145,"is_reserved":false,"is_disabled":false,"rental_uris":{"android":"levelo://app?vid=9f3ab42c-c55b-4fdd-b086-5c2c40cb4f7c","ios":"levelo://app?vid=9f3ab42c-c55b-4fdd-b086-5c2c40cb4f7c"},"vehicle_type_id":"4","last_reported":1734692826,"current_range_meters":37600,"station_id":"ce4bh512rcd13ifvqe2g","pricing_plan_id":"cebpf4jnsgd1na2vs0mg"},{"bike_id":"ea8c9781-6248-4fa6-ae03-0f18d29b0609","system_id":"levelo_inurba_marseille","lat":43.2936,"lon":5.37847,"is_reserved":false,"is_disabled":false,"rental_uris":{"android":"levelo://app?vid=ea8c9781-6248-4fa6-ae03-0f18d29b0609","ios":"levelo://app?vid=ea8c9781-6248-4fa6-ae03-0f18d29b0609"},"vehicle_type_id":"4","last_reported":1734692826,"current_range_meters":37600,"station_id":"ce4bgjh2rcd13ifvqbf0","pricing_plan_id":"cebpf4jnsgd1na2vs0mg"},{"bike_id":"fdedeb22-25f3-437c-93c3-0cffa7be6e4d","system_id":"levelo_inurba_marseille","lat":43.28459,"lon":5.35895,"is_reserved":false,"is_disabled":true,"rental_uris":{"android":"levelo://app?vid=fdedeb22-25f3-437c-93c3-0cffa7be6e4d","ios":"levelo://app?vid=fdedeb22-25f3-437c-93c3-0cffa7be6e4d"},"vehicle_type_id":"4","last_reported":1734692826,"current_range_meters":37600,"station_id":"ce4bhah2rcd13ifvqei0","pricing_plan_id":"cebpf4jnsgd1na2vs0mg"},{"bike_id":"c8b30424-050c-4dd3-9931-fa2ff9468c28","system_id":"levelo_inurba_marseille","lat":43.30349,"lon":5.37725,"is_reserved":false,"is_disabled":false,"rental_uris":{"android":"levelo://app?vid=c8b30424-050c-4dd3-9931-fa2ff9468c28","ios":"levelo://app?vid=c8b30424-050c-4dd3-9931-fa2ff9468c28"},"vehicle_type_id":"4","last_reported":1734692826,"current_range_meters":39200,"station_id":"ce4bguh2rcd13ifvqcj0","pricing_plan_id":"cebpf4jnsgd1na2vs0mg"},{"bike_id":"aee0c001-d83d-47e6-86b4-3c2a0bbc1bf7","system_id":"levelo_inurba_marseille","lat":43.25825,"lon":5.39435,"is_reserved":false,"is_disabled":false,"rental_uris":{"android":"levelo://app?vid=aee0c001-d83d-47e6-86b4-3c2a0bbc1bf7","ios":"levelo://app?vid=aee0c001-d83d-47e6-86b4-3c2a0bbc1bf7"},"vehicle_type_id":"4","last_reported":1734692826,"current_range_meters":39200,"station_id":"ce4bhip2rcd13ifvqft0","pricing_plan_id":"cebpf4jnsgd1na2vs0mg"},{"bike_id":"a7053f8c-b657-4929-95e3-080c0ef9f617","system_id":"levelo_inurba_marseille","lat":43.27941,"lon":5.41048,"is_reserved":false,"is_disabled":false,"rental_uris":{"android":"levelo://app?vid=a7053f8c-b657-4929-95e3-080c0ef9f617","ios":"levelo://app?vid=a7053f8c-b657-4929-95e3-080c0ef9f617"},"vehicle_type_id":"4","last_reported":1734692826,"current_range_meters":24400,"station_id":"ce4bhnp2rcd13ifvqh0g","pricing_plan_id":"cebpf4jnsgd1na2vs0mg"},{"bike_id":"8fb1bad3-a121-4eb1-a55f-687f99cf68d1","system_id":"levelo_inurba_marseille","lat":43.25493,"lon":5.37653,"is_reserved":false,"is_disabled":false,"rental_uris":{"android":"levelo://app?vid=8fb1bad3-a121-4eb1-a55f-687f99cf68d1","ios":"levelo://app?vid=8fb1bad3-a121-4eb1-a55f-687f99cf68d1"},"vehicle_type_id":"4","last_reported":1734692826,"current_range_meters":38400,"station_id":"ce4bhh12rcd13ifvqff0","pricing_plan_id":"cebpf4jnsgd1na2vs0mg"},{"bike_id":"8417b700-ae98-45dd-8f9e-a85d1d752cc3","system_id":"levelo_inurba_marseille","lat":43.26045,"lon":5.39415,"is_reserved":false,"is_disabled":true,"rental_uris":{"android":"levelo://app?vid=8417b700-ae98-45dd-8f9e-a85d1d752cc3","ios":"levelo://app?vid=8417b700-ae98-45dd-8f9e-a85d1d752cc3"},"vehicle_type_id":"4","last_reported":1734692826,"current_range_meters":39200,"station_id":"ce4bhh92rcd13ifvqfj0","pricing_plan_id":"cebpf4jnsgd1na2vs0mg"},{"bike_id":"09bec947-4c4d-46e1-81b7-d95e087b0d9f","system_id":"levelo_inurba_marseille","lat":43.25492,"lon":5.37651,"is_reserved":false,"is_disabled":false,"rental_uris":{"android":"levelo://app?vid=09bec947-4c4d-46e1-81b7-d95e087b0d9f","ios":"levelo://app?vid=09bec947-4c4d-46e1-81b7-d95e087b0d9f"},"vehicle_type_id":"4","last_reported":1734692826,"current_range_meters":38800,"station_id":"ce4bhh12rcd13ifvqff0","pricing_plan_id":"cebpf4jnsgd1na2vs0mg"},{"bike_id":"bfbfa309-e736-4a61-b3da-e584362122b2","system_id":"levelo_inurba_marseille","lat":43.24812,"lon":5.37455,"is_reserved":false,"is_disabled":false,"rental_uris":{"android":"levelo://app?vid=bfbfa309-e736-4a61-b3da-e584362122b2","ios":"levelo://app?vid=bfbfa309-e736-4a61-b3da-e584362122b2"},"vehicle_type_id":"4","last_reported":1734692826,"current_range_meters":19600,"station_id":"ce4bhgh2rcd13ifvqfb0","pricing_plan_id":"cebpf4jnsgd1na2vs0mg"},{"bike_id":"950b3650-1415-45fe-aaf1-f844a81a2976","system_id":"levelo_inurba_marseille","lat":43.27822,"lon":5.39204,"is_reserved":false,"is_disabled":false,"rental_uris":{"android":"levelo://app?vid=950b3650-1415-45fe-aaf1-f844a81a2976","ios":"levelo://app?vid=950b3650-1415-45fe-aaf1-f844a81a2976"},"vehicle_type_id":"4","last_reported":1734692826,"current_range_meters":25200,"station_id":"ce4bhjp2rcd13ifvqga0","pricing_plan_id":"cebpf4jnsgd1na2vs0mg"},{"bike_id":"e35f93ba-cda7-4cd4-850b-9d649babd848","system_id":"levelo_inurba_marseille","lat":43.27056,"lon":5.40269,"is_reserved":false,"is_disabled":false,"rental_uris":{"android":"levelo://app?vid=e35f93ba-cda7-4cd4-850b-9d649babd848","ios":"levelo://app?vid=e35f93ba-cda7-4cd4-850b-9d649babd848"},"vehicle_type_id":"4","last_reported":1734692826,"current_range_meters":34800,"station_id":"ce4bhk92rcd13ifvqgc0","pricing_plan_id":"cebpf4jnsgd1na2vs0mg"},{"bike_id":"fc4ff347-ef4d-4a4d-ae09-babf618fedb6","system_id":"levelo_inurba_marseille","lat":43.24169,"lon":5.36403,"is_reserved":false,"is_disabled":true,"rental_uris":{"android":"levelo://app?vid=fc4ff347-ef4d-4a4d-ae09-babf618fedb6","ios":"levelo://app?vid=fc4ff347-ef4d-4a4d-ae09-babf618fedb6"},"vehicle_type_id":"4","last_reported":1734692826,"current_range_meters":0,"station_id":"cpo36qri1sfpv3e86is0","pricing_plan_id":"cebpf4jnsgd1na2vs0mg"},{"bike_id":"4e1c702f-4fec-4a09-a45d-af1848f5ba3b","system_id":"levelo_inurba_marseille","lat":43.25581,"lon":5.38247,"is_reserved":false,"is_disabled":false,"rental_uris":{"android":"levelo://app?vid=4e1c702f-4fec-4a09-a45d-af1848f5ba3b","ios":"levelo://app?vid=4e1c702f-4fec-4a09-a45d-af1848f5ba3b"},"vehicle_type_id":"4","last_reported":1734692826,"current_range_meters":38800,"station_id":"ce4bhih2rcd13ifvqfs0","pricing_plan_id":"cebpf4jnsgd1na2vs0mg"},{"bike_id":"47ef36cf-a9e9-4af3-aa08-fe48d348ea21","system_id":"levelo_inurba_marseille","lat":43.32543,"lon":5.4145,"is_reserved":false,"is_disabled":false,"rental_uris":{"android":"levelo://app?vid=47ef36cf-a9e9-4af3-aa08-fe48d348ea21","ios":"levelo://app?vid=47ef36cf-a9e9-4af3-aa08-fe48d348ea21"},"vehicle_type_id":"4","last_reported":1734692826,"current_range_meters":27200,"station_id":"ce4bhq12rcd13ifvqhhg","pricing_plan_id":"cebpf4jnsgd1na2vs0mg"},{"bike_id":"f0598eeb-6636-4202-bc3a-c35fdb37b2a3","system_id":"levelo_inurba_marseille","lat":43.30156,"lon":5.38095,"is_reserved":false,"is_disabled":false,"rental_uris":{"android":"levelo://app?vid=f0598eeb-6636-4202-bc3a-c35fdb37b2a3","ios":"levelo://app?vid=f0598eeb-6636-4202-bc3a-c35fdb37b2a3"},"vehicle_type_id":"4","last_reported":1734692826,"current_range_meters":23200,"station_id":"ce4bgjp2rcd13ifvqbh0","pricing_plan_id":"cebpf4jnsgd1na2vs0mg"},{"bike_id":"f12eaac2-c206-4e31-933a-825306ca618d","system_id":"levelo_inurba_marseille","lat":43.26774,"lon":5.39419,"is_reserved":false,"is_disabled":false,"rental_uris":{"android":"levelo://app?vid=f12eaac2-c206-4e31-933a-825306ca618d","ios":"levelo://app?vid=f12eaac2-c206-4e31-933a-825306ca618d"},"vehicle_type_id":"4","last_reported":1734692826,"current_range_meters":32000,"station_id":"ce4bhh12rcd13ifvqfg0","pricing_plan_id":"cebpf4jnsgd1na2vs0mg"},{"bike_id":"8c1a8ce8-2afe-4434-b8e6-9fcd179c0126","system_id":"levelo_inurba_marseille","lat":43.29367,"lon":5.37829,"is_reserved":false,"is_disabled":false,"rental_uris":{"android":"levelo://app?vid=8c1a8ce8-2afe-4434-b8e6-9fcd179c0126","ios":"levelo://app?vid=8c1a8ce8-2afe-4434-b8e6-9fcd179c0126"},"vehicle_type_id":"4","last_reported":1734692826,"current_range_meters":39200,"station_id":"ce4bgjh2rcd13ifvqbf0","pricing_plan_id":"cebpf4jnsgd1na2vs0mg"},{"bike_id":"6dd7ced6-a614-45f4-afdd-d21affa34a4d","system_id":"levelo_inurba_marseille","lat":43.28455,"lon":5.35899,"is_reserved":false,"is_disabled":false,"rental_uris":{"android":"levelo://app?vid=6dd7ced6-a614-45f4-afdd-d21affa34a4d","ios":"levelo://app?vid=6dd7ced6-a614-45f4-afdd-d21affa34a4d"},"vehicle_type_id":"4","last_reported":1734692826,"current_range_meters":33200,"station_id":"ce4bhah2rcd13ifvqei0","pricing_plan_id":"cebpf4jnsgd1na2vs0mg"},{"bike_id":"06c2e09c-294a-4f18-bc29-8e7d864b6f09","system_id":"levelo_inurba_marseille","lat":43.31117,"lon":5.3777,"is_reserved":false,"is_disabled":false,"rental_uris":{"android":"levelo://app?vid=06c2e09c-294a-4f18-bc29-8e7d864b6f09","ios":"levelo://app?vid=06c2e09c-294a-4f18-bc29-8e7d864b6f09"},"vehicle_type_id":"4","last_reported":1734692826,"current_range_meters":24000,"station_id":"ce4bgt92rcd13ifvqcg0","pricing_plan_id":"cebpf4jnsgd1na2vs0mg"},{"bike_id":"05929ef6-9ef2-4752-a127-101b7fed8eb1","system_id":"levelo_inurba_marseille","lat":43.29571,"lon":5.375,"is_reserved":false,"is_disabled":false,"rental_uris":{"android":"levelo://app?vid=05929ef6-9ef2-4752-a127-101b7fed8eb1","ios":"levelo://app?vid=05929ef6-9ef2-4752-a127-101b7fed8eb1"},"vehicle_type_id":"4","last_reported":1734692826,"current_range_meters":35600,"station_id":"ce4bgh92rcd13ifvqb50","pricing_plan_id":"cebpf4jnsgd1na2vs0mg"},{"bike_id":"6b311879-2bde-4ef4-b466-fe69eb768b43","system_id":"levelo_inurba_marseille","lat":43.26664,"lon":5.38269,"is_reserved":false,"is_disabled":false,"rental_uris":{"android":"levelo://app?vid=6b311879-2bde-4ef4-b466-fe69eb768b43","ios":"levelo://app?vid=6b311879-2bde-4ef4-b466-fe69eb768b43"},"vehicle_type_id":"4","last_reported":1734692826,"current_range_meters":38800,"station_id":"ce4bhg92rcd13ifvqf90","pricing_plan_id":"cebpf4jnsgd1na2vs0mg"},{"bike_id":"4d7a228f-4e0b-48fe-a576-0bd3e50315a1","system_id":"levelo_inurba_marseille","lat":43.2842,"lon":5.34993,"is_reserved":false,"is_disabled":false,"rental_uris":{"android":"levelo://app?vid=4d7a228f-4e0b-48fe-a576-0bd3e50315a1","ios":"levelo://app?vid=4d7a228f-4e0b-48fe-a576-0bd3e50315a1"},"vehicle_type_id":"4","last_reported":1734692826,"current_range_meters":21600,"station_id":"ce4bhbh2rcd13ifvqepg","pricing_plan_id":"cebpf4jnsgd1na2vs0mg"},{"bike_id":"2fa603a9-77c2-4e40-aeae-4f35faee187c","system_id":"levelo_inurba_marseille","lat":43.28449,"lon":5.38536,"is_reserved":false,"is_disabled":false,"rental_uris":{"android":"levelo://app?vid=2fa603a9-77c2-4e40-aeae-4f35faee187c","ios":"levelo://app?vid=2fa603a9-77c2-4e40-aeae-4f35faee187c"},"vehicle_type_id":"4","last_reported":1734692826,"current_range_meters":32800,"station_id":"ce4bh8p2rcd13ifvqeb0","pricing_plan_id":"cebpf4jnsgd1na2vs0mg"},{"bike_id":"42a284f0-1d0c-4705-a251-5ed847fda263","system_id":"levelo_inurba_marseille","lat":43.2881,"lon":5.35813,"is_reserved":false,"is_disabled":false,"rental_uris":{"android":"levelo://app?vid=42a284f0-1d0c-4705-a251-5ed847fda263","ios":"levelo://app?vid=42a284f0-1d0c-4705-a251-5ed847fda263"},"vehicle_type_id":"4","last_reported":1734692826,"current_range_meters":11600,"station_id":"","pricing_plan_id":"cebpf4jnsgd1na2vs0mg"},{"bike_id":"ccfddbb7-bdd2-4bed-9bd4-68a43061003a","system_id":"levelo_inurba_marseille","lat":43.25943,"lon":5.4091,"is_reserved":false,"is_disabled":false,"rental_uris":{"android":"levelo://app?vid=ccfddbb7-bdd2-4bed-9bd4-68a43061003a","ios":"levelo://app?vid=ccfddbb7-bdd2-4bed-9bd4-68a43061003a"},"vehicle_type_id":"4","last_reported":1734692826,"current_range_meters":38800,"station_id":"ce4bhm92rcd13ifvqglg","pricing_plan_id":"cebpf4jnsgd1na2vs0mg"},{"bike_id":"9094da62-ff9f-4da1-9f23-6f83302bca03","system_id":"levelo_inurba_marseille","lat":43.29916,"lon":5.38167,"is_reserved":false,"is_disabled":false,"rental_uris":{"android":"levelo://app?vid=9094da62-ff9f-4da1-9f23-6f83302bca03","ios":"levelo://app?vid=9094da62-ff9f-4da1-9f23-6f83302bca03"},"vehicle_type_id":"4","last_reported":1734692826,"current_range_meters":9200,"station_id":"ce4bgj12rcd13ifvqbc0","pricing_plan_id":"cebpf4jnsgd1na2vs0mg"},{"bike_id":"0d3de152-b760-47b3-86e1-7f5d180f9e2f","system_id":"levelo_inurba_marseille","lat":43.32365,"lon":5.38884,"is_reserved":false,"is_disabled":false,"rental_uris":{"android":"levelo://app?vid=0d3de152-b760-47b3-86e1-7f5d180f9e2f","ios":"levelo://app?vid=0d3de152-b760-47b3-86e1-7f5d180f9e2f"},"vehicle_type_id":"4","last_reported":1734692826,"current_range_meters":14800,"station_id":"ce4bhqp2rcd13ifvqhog","pricing_plan_id":"cebpf4jnsgd1na2vs0mg"},{"bike_id":"d4a92d73-458f-4633-b078-8b09bedbb320","system_id":"levelo_inurba_marseille","lat":43.31327,"lon":5.39693,"is_reserved":false,"is_disabled":false,"rental_uris":{"android":"levelo://app?vid=d4a92d73-458f-4633-b078-8b09bedbb320","ios":"levelo://app?vid=d4a92d73-458f-4633-b078-8b09bedbb320"},"vehicle_type_id":"4","last_reported":1734692826,"current_range_meters":38800,"station_id":"ce4bgvp2rcd13ifvqcu0","pricing_plan_id":"cebpf4jnsgd1na2vs0mg"},{"bike_id":"e91219f7-cc33-492e-9b45-4476bf3bccec","system_id":"levelo_inurba_marseille","lat":43.28097,"lon":5.37868,"is_reserved":false,"is_disabled":false,"rental_uris":{"android":"levelo://app?vid=e91219f7-cc33-492e-9b45-4476bf3bccec","ios":"levelo://app?vid=e91219f7-cc33-492e-9b45-4476bf3bccec"},"vehicle_type_id":"4","last_reported":1734692826,"current_range_meters":28800,"station_id":"ce4bha12rcd13ifvqee0","pricing_plan_id":"cebpf4jnsgd1na2vs0mg"},{"bike_id":"2a12bde8-ca1e-4ca8-8cbb-8dbf9a638106","system_id":"levelo_inurba_marseille","lat":43.23187,"lon":5.35558,"is_reserved":false,"is_disabled":false,"rental_uris":{"android":"levelo://app?vid=2a12bde8-ca1e-4ca8-8cbb-8dbf9a638106","ios":"levelo://app?vid=2a12bde8-ca1e-4ca8-8cbb-8dbf9a638106"},"vehicle_type_id":"4","last_reported":1734692826,"current_range_meters":25600,"station_id":"ce4bhu92rcd13ifvqi70","pricing_plan_id":"cebpf4jnsgd1na2vs0mg"},{"bike_id":"82b98b08-cf84-40f3-a0a4-1136038c5b5f","system_id":"levelo_inurba_marseille","lat":43.28846,"lon":5.35786,"is_reserved":false,"is_disabled":false,"rental_uris":{"android":"levelo://app?vid=82b98b08-cf84-40f3-a0a4-1136038c5b5f","ios":"levelo://app?vid=82b98b08-cf84-40f3-a0a4-1136038c5b5f"},"vehicle_type_id":"4","last_reported":1734692826,"current_range_meters":35600,"station_id":"ce4bhb12rcd13ifvqem0","pricing_plan_id":"cebpf4jnsgd1na2vs0mg"},{"bike_id":"5cd0e186-dad6-403c-9513-a3f3abdcc32e","system_id":"levelo_inurba_marseille","lat":43.25088,"lon":5.39516,"is_reserved":false,"is_disabled":false,"rental_uris":{"android":"levelo://app?vid=5cd0e186-dad6-403c-9513-a3f3abdcc32e","ios":"levelo://app?vid=5cd0e186-dad6-403c-9513-a3f3abdcc32e"},"vehicle_type_id":"4","last_reported":1734692826,"current_range_meters":27200,"station_id":"ce4bhm12rcd13ifvqgkg","pricing_plan_id":"cebpf4jnsgd1na2vs0mg"},{"bike_id":"434fc0df-6295-4be1-949d-a77a16929ec8","system_id":"levelo_inurba_marseille","lat":43.26204,"lon":5.37935,"is_reserved":false,"is_disabled":false,"rental_uris":{"android":"levelo://app?vid=434fc0df-6295-4be1-949d-a77a16929ec8","ios":"levelo://app?vid=434fc0df-6295-4be1-949d-a77a16929ec8"},"vehicle_type_id":"4","last_reported":1734692826,"current_range_meters":38000,"station_id":"ce4bhjp2rcd13ifvqg90","pricing_plan_id":"cebpf4jnsgd1na2vs0mg"},{"bike_id":"d4162634-1e75-481c-99d9-f3072aa7f8be","system_id":"levelo_inurba_marseille","lat":43.27813,"lon":5.40714,"is_reserved":false,"is_disabled":false,"rental_uris":{"android":"levelo://app?vid=d4162634-1e75-481c-99d9-f3072aa7f8be","ios":"levelo://app?vid=d4162634-1e75-481c-99d9-f3072aa7f8be"},"vehicle_type_id":"4","last_reported":1734692826,"current_range_meters":35200,"station_id":"ce4bhnh2rcd13ifvqgtg","pricing_plan_id":"cebpf4jnsgd1na2vs0mg"},{"bike_id":"f0bcbb45-555d-4c5b-8534-084b0fafc4e9","system_id":"levelo_inurba_marseille","lat":43.2917,"lon":5.3715,"is_reserved":false,"is_disabled":true,"rental_uris":{"android":"levelo://app?vid=f0bcbb45-555d-4c5b-8534-084b0fafc4e9","ios":"levelo://app?vid=f0bcbb45-555d-4c5b-8534-084b0fafc4e9"},"vehicle_type_id":"4","last_reported":1734692826,"current_range_meters":12400,"station_id":"ce4bha92rcd13ifvqeh0","pricing_plan_id":"cebpf4jnsgd1na2vs0mg"},{"bike_id":"6e60e44a-835c-4524-97cd-98e45c667a2e","system_id":"levelo_inurba_marseille","lat":43.30619,"lon":5.37215,"is_reserved":false,"is_disabled":false,"rental_uris":{"android":"levelo://app?vid=6e60e44a-835c-4524-97cd-98e45c667a2e","ios":"levelo://app?vid=6e60e44a-835c-4524-97cd-98e45c667a2e"},"vehicle_type_id":"4","last_reported":1734692826,"current_range_meters":10000,"station_id":"ce4bgqh2rcd13ifvqc4g","pricing_plan_id":"cebpf4jnsgd1na2vs0mg"},{"bike_id":"3733bd2d-81d3-4d1b-a57e-798a2efb8225","system_id":"levelo_inurba_marseille","lat":43.29622,"lon":5.37731,"is_reserved":false,"is_disabled":false,"rental_uris":{"android":"levelo://app?vid=3733bd2d-81d3-4d1b-a57e-798a2efb8225","ios":"levelo://app?vid=3733bd2d-81d3-4d1b-a57e-798a2efb8225"},"vehicle_type_id":"4","last_reported":1734692826,"current_range_meters":27600,"station_id":"ce4bgi92rcd13ifvqb90","pricing_plan_id":"cebpf4jnsgd1na2vs0mg"},{"bike_id":"b002d028-e42c-46e2-93ce-a18a7a90546e","system_id":"levelo_inurba_marseille","lat":43.32285,"lon":5.38295,"is_reserved":false,"is_disabled":false,"rental_uris":{"android":"levelo://app?vid=b002d028-e42c-46e2-93ce-a18a7a90546e","ios":"levelo://app?vid=b002d028-e42c-46e2-93ce-a18a7a90546e"},"vehicle_type_id":"4","last_reported":1734692826,"current_range_meters":17600,"station_id":"ce4bhr12rcd13ifvqhqg","pricing_plan_id":"cebpf4jnsgd1na2vs0mg"},{"bike_id":"8d2d1fc5-8995-4400-8cfc-148fb6ed4a6d","system_id":"levelo_inurba_marseille","lat":43.27491,"lon":5.42453,"is_reserved":false,"is_disabled":false,"rental_uris":{"android":"levelo://app?vid=8d2d1fc5-8995-4400-8cfc-148fb6ed4a6d","ios":"levelo://app?vid=8d2d1fc5-8995-4400-8cfc-148fb6ed4a6d"},"vehicle_type_id":"4","last_reported":1734692826,"current_range_meters":33600,"station_id":"ce4bhn92rcd13ifvqgrg","pricing_plan_id":"cebpf4jnsgd1na2vs0mg"},{"bike_id":"39d6556a-c954-43ed-b77e-24523ab497d1","system_id":"levelo_inurba_marseille","lat":43.26821,"lon":5.39424,"is_reserved":false,"is_disabled":false,"rental_uris":{"android":"levelo://app?vid=39d6556a-c954-43ed-b77e-24523ab497d1","ios":"levelo://app?vid=39d6556a-c954-43ed-b77e-24523ab497d1"},"vehicle_type_id":"4","last_reported":1734692826,"current_range_meters":37600,"station_id":"ce4bhh12rcd13ifvqfg0","pricing_plan_id":"cebpf4jnsgd1na2vs0mg"},{"bike_id":"d452df7b-9cf3-4345-9661-a79d0f4f284d","system_id":"levelo_inurba_marseille","lat":43.3053,"lon":5.36705,"is_reserved":false,"is_disabled":false,"rental_uris":{"android":"levelo://app?vid=d452df7b-9cf3-4345-9661-a79d0f4f284d","ios":"levelo://app?vid=d452df7b-9cf3-4345-9661-a79d0f4f284d"},"vehicle_type_id":"4","last_reported":1734692826,"current_range_meters":38000,"station_id":"ce4bgrp2rcd13ifvqc9g","pricing_plan_id":"cebpf4jnsgd1na2vs0mg"},{"bike_id":"4094ac40-fe97-4483-91f4-bc4b6a97b4f3","system_id":"levelo_inurba_marseille","lat":43.2582,"lon":5.39437,"is_reserved":false,"is_disabled":false,"rental_uris":{"android":"levelo://app?vid=4094ac40-fe97-4483-91f4-bc4b6a97b4f3","ios":"levelo://app?vid=4094ac40-fe97-4483-91f4-bc4b6a97b4f3"},"vehicle_type_id":"4","last_reported":1734692826,"current_range_meters":4000,"station_id":"ce4bhip2rcd13ifvqft0","pricing_plan_id":"cebpf4jnsgd1na2vs0mg"},{"bike_id":"b44f9236-c33f-43b3-ab7e-0f32e9951c9e","system_id":"levelo_inurba_marseille","lat":43.23198,"lon":5.35563,"is_reserved":false,"is_disabled":false,"rental_uris":{"android":"levelo://app?vid=b44f9236-c33f-43b3-ab7e-0f32e9951c9e","ios":"levelo://app?vid=b44f9236-c33f-43b3-ab7e-0f32e9951c9e"},"vehicle_type_id":"4","last_reported":1734692826,"current_range_meters":7200,"station_id":"ce4bhu92rcd13ifvqi70","pricing_plan_id":"cebpf4jnsgd1na2vs0mg"},{"bike_id":"4620dcd9-c3a6-4871-8162-c4a28f6d33ca","system_id":"levelo_inurba_marseille","lat":43.318844,"lon":5.407328,"is_reserved":false,"is_disabled":true,"rental_uris":{"android":"levelo://app?vid=4620dcd9-c3a6-4871-8162-c4a28f6d33ca","ios":"levelo://app?vid=4620dcd9-c3a6-4871-8162-c4a28f6d33ca"},"vehicle_type_id":"4","last_reported":1734692826,"current_range_meters":38800,"station_id":"ce4bhq12rcd13ifvqhig","pricing_plan_id":"cebpf4jnsgd1na2vs0mg"},{"bike_id":"7cdaab41-d6a9-411c-91af-08e1cd111a45","system_id":"levelo_inurba_marseille","lat":43.30763,"lon":5.40263,"is_reserved":false,"is_disabled":false,"rental_uris":{"android":"levelo://app?vid=7cdaab41-d6a9-411c-91af-08e1cd111a45","ios":"levelo://app?vid=7cdaab41-d6a9-411c-91af-08e1cd111a45"},"vehicle_type_id":"4","last_reported":1734692826,"current_range_meters":12000,"station_id":"","pricing_plan_id":"cebpf4jnsgd1na2vs0mg"},{"bike_id":"b80aa4f1-65b3-480f-877a-64fe97a22d80","system_id":"levelo_inurba_marseille","lat":43.27972,"lon":5.38741,"is_reserved":false,"is_disabled":false,"rental_uris":{"android":"levelo://app?vid=b80aa4f1-65b3-480f-877a-64fe97a22d80","ios":"levelo://app?vid=b80aa4f1-65b3-480f-877a-64fe97a22d80"},"vehicle_type_id":"4","last_reported":1734692826,"current_range_meters":37600,"station_id":"ce4bhg12rcd13ifvqf80","pricing_plan_id":"cebpf4jnsgd1na2vs0mg"},{"bike_id":"8e8173aa-a37c-450a-a8fd-4f4388586531","system_id":"levelo_inurba_marseille","lat":43.26943,"lon":5.38635,"is_reserved":false,"is_disabled":false,"rental_uris":{"android":"levelo://app?vid=8e8173aa-a37c-450a-a8fd-4f4388586531","ios":"levelo://app?vid=8e8173aa-a37c-450a-a8fd-4f4388586531"},"vehicle_type_id":"4","last_reported":1734692826,"current_range_meters":38800,"station_id":"ce4bhh92rcd13ifvqfh0","pricing_plan_id":"cebpf4jnsgd1na2vs0mg"},{"bike_id":"b152beff-460f-416e-9e7c-554e402210ef","system_id":"levelo_inurba_marseille","lat":43.24668,"lon":5.38169,"is_reserved":false,"is_disabled":false,"rental_uris":{"android":"levelo://app?vid=b152beff-460f-416e-9e7c-554e402210ef","ios":"levelo://app?vid=b152beff-460f-416e-9e7c-554e402210ef"},"vehicle_type_id":"4","last_reported":1734692826,"current_range_meters":38800,"station_id":"ce4bhih2rcd13ifvqfr0","pricing_plan_id":"cebpf4jnsgd1na2vs0mg"},{"bike_id":"a75b08f1-37cc-41c5-95db-2b9ed81dc942","system_id":"levelo_inurba_marseille","lat":43.29727,"lon":5.37699,"is_reserved":false,"is_disabled":false,"rental_uris":{"android":"levelo://app?vid=a75b08f1-37cc-41c5-95db-2b9ed81dc942","ios":"levelo://app?vid=a75b08f1-37cc-41c5-95db-2b9ed81dc942"},"vehicle_type_id":"4","last_reported":1734692826,"current_range_meters":24800,"station_id":"ce4bgkh2rcd13ifvqbl0","pricing_plan_id":"cebpf4jnsgd1na2vs0mg"},{"bike_id":"7f26a9f5-a8ad-47b3-9fb1-698bff1dae74","system_id":"levelo_inurba_marseille","lat":43.30286,"lon":5.37704,"is_reserved":false,"is_disabled":false,"rental_uris":{"android":"levelo://app?vid=7f26a9f5-a8ad-47b3-9fb1-698bff1dae74","ios":"levelo://app?vid=7f26a9f5-a8ad-47b3-9fb1-698bff1dae74"},"vehicle_type_id":"4","last_reported":1734692826,"current_range_meters":38800,"station_id":"ce4bguh2rcd13ifvqcj0","pricing_plan_id":"cebpf4jnsgd1na2vs0mg"},{"bike_id":"aac82ba6-9c5e-4c0c-bcba-2f29bc9f30cd","system_id":"levelo_inurba_marseille","lat":43.29905,"lon":5.38146,"is_reserved":false,"is_disabled":false,"rental_uris":{"android":"levelo://app?vid=aac82ba6-9c5e-4c0c-bcba-2f29bc9f30cd","ios":"levelo://app?vid=aac82ba6-9c5e-4c0c-bcba-2f29bc9f30cd"},"vehicle_type_id":"4","last_reported":1734692826,"current_range_meters":38000,"station_id":"ce4bgj12rcd13ifvqbc0","pricing_plan_id":"cebpf4jnsgd1na2vs0mg"},{"bike_id":"9bb85159-9b97-48c7-8b70-a5ba1a6e19c5","system_id":"levelo_inurba_marseille","lat":43.3249,"lon":5.36555,"is_reserved":false,"is_disabled":false,"rental_uris":{"android":"levelo://app?vid=9bb85159-9b97-48c7-8b70-a5ba1a6e19c5","ios":"levelo://app?vid=9bb85159-9b97-48c7-8b70-a5ba1a6e19c5"},"vehicle_type_id":"4","last_reported":1734692826,"current_range_meters":24400,"station_id":"ce4bhs12rcd13ifvqhvg","pricing_plan_id":"cebpf4jnsgd1na2vs0mg"},{"bike_id":"59edd089-7379-4180-ab91-a07c47a59c06","system_id":"levelo_inurba_marseille","lat":43.31076,"lon":5.42438,"is_reserved":false,"is_disabled":false,"rental_uris":{"android":"levelo://app?vid=59edd089-7379-4180-ab91-a07c47a59c06","ios":"levelo://app?vid=59edd089-7379-4180-ab91-a07c47a59c06"},"vehicle_type_id":"4","last_reported":1734692826,"current_range_meters":26800,"station_id":"ce4bhp92rcd13ifvqhag","pricing_plan_id":"cebpf4jnsgd1na2vs0mg"},{"bike_id":"61d6996d-3290-4ff0-9ef3-387b57fcacbb","system_id":"levelo_inurba_marseille","lat":43.30143,"lon":5.37426,"is_reserved":false,"is_disabled":false,"rental_uris":{"android":"levelo://app?vid=61d6996d-3290-4ff0-9ef3-387b57fcacbb","ios":"levelo://app?vid=61d6996d-3290-4ff0-9ef3-387b57fcacbb"},"vehicle_type_id":"4","last_reported":1734692826,"current_range_meters":34000,"station_id":"ce4bgs92rcd13ifvqcc0","pricing_plan_id":"cebpf4jnsgd1na2vs0mg"},{"bike_id":"cf7ee5da-8f20-4e0c-9be2-887033ef8c21","system_id":"levelo_inurba_marseille","lat":43.29934,"lon":5.3654,"is_reserved":false,"is_disabled":false,"rental_uris":{"android":"levelo://app?vid=cf7ee5da-8f20-4e0c-9be2-887033ef8c21","ios":"levelo://app?vid=cf7ee5da-8f20-4e0c-9be2-887033ef8c21"},"vehicle_type_id":"4","last_reported":1734692826,"current_range_meters":29600,"station_id":"ce4bgm92rcd13ifvqbr0","pricing_plan_id":"cebpf4jnsgd1na2vs0mg"},{"bike_id":"b52c10f4-1f06-453c-bfdf-7d6729ecfe9c","system_id":"levelo_inurba_marseille","lat":43.23188,"lon":5.39983,"is_reserved":false,"is_disabled":false,"rental_uris":{"android":"levelo://app?vid=b52c10f4-1f06-453c-bfdf-7d6729ecfe9c","ios":"levelo://app?vid=b52c10f4-1f06-453c-bfdf-7d6729ecfe9c"},"vehicle_type_id":"4","last_reported":1734692826,"current_range_meters":36400,"station_id":"ce4bhn12rcd13ifvqgqg","pricing_plan_id":"cebpf4jnsgd1na2vs0mg"},{"bike_id":"845fdaad-d29e-4d47-92ae-651e3568e95b","system_id":"levelo_inurba_marseille","lat":43.27185,"lon":5.40987,"is_reserved":false,"is_disabled":false,"rental_uris":{"android":"levelo://app?vid=845fdaad-d29e-4d47-92ae-651e3568e95b","ios":"levelo://app?vid=845fdaad-d29e-4d47-92ae-651e3568e95b"},"vehicle_type_id":"4","last_reported":1734692826,"current_range_meters":25600,"station_id":"ce4bhl12rcd13ifvqgf0","pricing_plan_id":"cebpf4jnsgd1na2vs0mg"},{"bike_id":"87ea2282-7236-454a-a021-e08bfe13ea3d","system_id":"levelo_inurba_marseille","lat":43.28032,"lon":5.36956,"is_reserved":false,"is_disabled":false,"rental_uris":{"android":"levelo://app?vid=87ea2282-7236-454a-a021-e08bfe13ea3d","ios":"levelo://app?vid=87ea2282-7236-454a-a021-e08bfe13ea3d"},"vehicle_type_id":"4","last_reported":1734692826,"current_range_meters":38400,"station_id":"ce4bha12rcd13ifvqef0","pricing_plan_id":"cebpf4jnsgd1na2vs0mg"},{"bike_id":"11cf6976-be5e-477e-86ab-18d8b1dd5945","system_id":"levelo_inurba_marseille","lat":43.31495,"lon":5.37314,"is_reserved":false,"is_disabled":false,"rental_uris":{"android":"levelo://app?vid=11cf6976-be5e-477e-86ab-18d8b1dd5945","ios":"levelo://app?vid=11cf6976-be5e-477e-86ab-18d8b1dd5945"},"vehicle_type_id":"4","last_reported":1734692826,"current_range_meters":8400,"station_id":"ce4bgt12rcd13ifvqcd0","pricing_plan_id":"cebpf4jnsgd1na2vs0mg"},{"bike_id":"83bd33f2-81c1-4999-b4dc-8d2cd91edab9","system_id":"levelo_inurba_marseille","lat":43.30309,"lon":5.36901,"is_reserved":false,"is_disabled":false,"rental_uris":{"android":"levelo://app?vid=83bd33f2-81c1-4999-b4dc-8d2cd91edab9","ios":"levelo://app?vid=83bd33f2-81c1-4999-b4dc-8d2cd91edab9"},"vehicle_type_id":"4","last_reported":1734692826,"current_range_meters":38400,"station_id":"ce4bgqh2rcd13ifvqc5g","pricing_plan_id":"cebpf4jnsgd1na2vs0mg"},{"bike_id":"078605c1-a13d-4f27-b474-aebfbb9611d3","system_id":"levelo_inurba_marseille","lat":43.2781,"lon":5.40722,"is_reserved":false,"is_disabled":false,"rental_uris":{"android":"levelo://app?vid=078605c1-a13d-4f27-b474-aebfbb9611d3","ios":"levelo://app?vid=078605c1-a13d-4f27-b474-aebfbb9611d3"},"vehicle_type_id":"4","last_reported":1734692826,"current_range_meters":24800,"station_id":"ce4bhnh2rcd13ifvqgtg","pricing_plan_id":"cebpf4jnsgd1na2vs0mg"},{"bike_id":"9f499914-fd99-480e-87db-b2dc14f71ddc","system_id":"levelo_inurba_marseille","lat":43.25117,"lon":5.40321,"is_reserved":false,"is_disabled":false,"rental_uris":{"android":"levelo://app?vid=9f499914-fd99-480e-87db-b2dc14f71ddc","ios":"levelo://app?vid=9f499914-fd99-480e-87db-b2dc14f71ddc"},"vehicle_type_id":"4","last_reported":1734692826,"current_range_meters":12800,"station_id":"ce4bhlh2rcd13ifvqgig","pricing_plan_id":"cebpf4jnsgd1na2vs0mg"},{"bike_id":"2e0a4273-9b64-4eb1-8d1b-b8e55991eb0a","system_id":"levelo_inurba_marseille","lat":43.27258,"lon":5.40086,"is_reserved":false,"is_disabled":true,"rental_uris":{"android":"levelo://app?vid=2e0a4273-9b64-4eb1-8d1b-b8e55991eb0a","ios":"levelo://app?vid=2e0a4273-9b64-4eb1-8d1b-b8e55991eb0a"},"vehicle_type_id":"4","last_reported":1734692826,"current_range_meters":0,"station_id":"","pricing_plan_id":"cebpf4jnsgd1na2vs0mg"},{"bike_id":"d7dc678d-eb38-44c8-8258-0fa0627b8d3a","system_id":"levelo_inurba_marseille","lat":43.30538,"lon":5.36697,"is_reserved":false,"is_disabled":false,"rental_uris":{"android":"levelo://app?vid=d7dc678d-eb38-44c8-8258-0fa0627b8d3a","ios":"levelo://app?vid=d7dc678d-eb38-44c8-8258-0fa0627b8d3a"},"vehicle_type_id":"4","last_reported":1734692826,"current_range_meters":39200,"station_id":"ce4bgrp2rcd13ifvqc9g","pricing_plan_id":"cebpf4jnsgd1na2vs0mg"},{"bike_id":"f957ffa3-7b76-4b18-bb62-81627d313cf8","system_id":"levelo_inurba_marseille","lat":43.231973,"lon":5.355564,"is_reserved":false,"is_disabled":false,"rental_uris":{"android":"levelo://app?vid=f957ffa3-7b76-4b18-bb62-81627d313cf8","ios":"levelo://app?vid=f957ffa3-7b76-4b18-bb62-81627d313cf8"},"vehicle_type_id":"4","last_reported":1734692826,"current_range_meters":30000,"station_id":"ce4bhu92rcd13ifvqi70","pricing_plan_id":"cebpf4jnsgd1na2vs0mg"},{"bike_id":"8baa32a0-9e59-4ce4-aead-1ceeefc0bf36","system_id":"levelo_inurba_marseille","lat":43.27834,"lon":5.39211,"is_reserved":false,"is_disabled":false,"rental_uris":{"android":"levelo://app?vid=8baa32a0-9e59-4ce4-aead-1ceeefc0bf36","ios":"levelo://app?vid=8baa32a0-9e59-4ce4-aead-1ceeefc0bf36"},"vehicle_type_id":"4","last_reported":1734692826,"current_range_meters":36800,"station_id":"ce4bhjp2rcd13ifvqga0","pricing_plan_id":"cebpf4jnsgd1na2vs0mg"},{"bike_id":"5dd95ec7-a282-40a6-a0fe-4e2e61de4064","system_id":"levelo_inurba_marseille","lat":43.26357,"lon":5.40143,"is_reserved":false,"is_disabled":true,"rental_uris":{"android":"levelo://app?vid=5dd95ec7-a282-40a6-a0fe-4e2e61de4064","ios":"levelo://app?vid=5dd95ec7-a282-40a6-a0fe-4e2e61de4064"},"vehicle_type_id":"4","last_reported":1734692826,"current_range_meters":8400,"station_id":"","pricing_plan_id":"cebpf4jnsgd1na2vs0mg"},{"bike_id":"b7d7d650-d8e1-45de-a47d-bea02a1f41c3","system_id":"levelo_inurba_marseille","lat":43.29605,"lon":5.37149,"is_reserved":false,"is_disabled":false,"rental_uris":{"android":"levelo://app?vid=b7d7d650-d8e1-45de-a47d-bea02a1f41c3","ios":"levelo://app?vid=b7d7d650-d8e1-45de-a47d-bea02a1f41c3"},"vehicle_type_id":"4","last_reported":1734692826,"current_range_meters":37600,"station_id":"ce4bgnh2rcd13ifvqc0g","pricing_plan_id":"cebpf4jnsgd1na2vs0mg"},{"bike_id":"3c1b48d9-0ee0-4fb8-a73a-93122fd465f2","system_id":"levelo_inurba_marseille","lat":43.27949,"lon":5.41048,"is_reserved":false,"is_disabled":false,"rental_uris":{"android":"levelo://app?vid=3c1b48d9-0ee0-4fb8-a73a-93122fd465f2","ios":"levelo://app?vid=3c1b48d9-0ee0-4fb8-a73a-93122fd465f2"},"vehicle_type_id":"4","last_reported":1734692826,"current_range_meters":20000,"station_id":"ce4bhnp2rcd13ifvqh0g","pricing_plan_id":"cebpf4jnsgd1na2vs0mg"},{"bike_id":"6e703f86-544d-405a-a4b3-f5bb041ef417","system_id":"levelo_inurba_marseille","lat":43.27322,"lon":5.39105,"is_reserved":false,"is_disabled":false,"rental_uris":{"android":"levelo://app?vid=6e703f86-544d-405a-a4b3-f5bb041ef417","ios":"levelo://app?vid=6e703f86-544d-405a-a4b3-f5bb041ef417"},"vehicle_type_id":"4","last_reported":1734692826,"current_range_meters":26000,"station_id":"ce4bhgp2rcd13ifvqfe0","pricing_plan_id":"cebpf4jnsgd1na2vs0mg"},{"bike_id":"2256e953-e04c-4a1a-96b7-b03d74e4d2b6","system_id":"levelo_inurba_marseille","lat":43.24802,"lon":5.37465,"is_reserved":false,"is_disabled":false,"rental_uris":{"android":"levelo://app?vid=2256e953-e04c-4a1a-96b7-b03d74e4d2b6","ios":"levelo://app?vid=2256e953-e04c-4a1a-96b7-b03d74e4d2b6"},"vehicle_type_id":"4","last_reported":1734692826,"current_range_meters":38800,"station_id":"ce4bhgh2rcd13ifvqfb0","pricing_plan_id":"cebpf4jnsgd1na2vs0mg"},{"bike_id":"14f5645c-4671-4489-9fc1-a2cb84a26e3e","system_id":"levelo_inurba_marseille","lat":43.30473,"lon":5.379103,"is_reserved":false,"is_disabled":false,"rental_uris":{"android":"levelo://app?vid=14f5645c-4671-4489-9fc1-a2cb84a26e3e","ios":"levelo://app?vid=14f5645c-4671-4489-9fc1-a2cb84a26e3e"},"vehicle_type_id":"4","last_reported":1734692826,"current_range_meters":23200,"station_id":"ce4bgup2rcd13ifvqcn0","pricing_plan_id":"cebpf4jnsgd1na2vs0mg"},{"bike_id":"8a6612f6-9852-449e-b17a-540877032e81","system_id":"levelo_inurba_marseille","lat":43.28862,"lon":5.35884,"is_reserved":false,"is_disabled":false,"rental_uris":{"android":"levelo://app?vid=8a6612f6-9852-449e-b17a-540877032e81","ios":"levelo://app?vid=8a6612f6-9852-449e-b17a-540877032e81"},"vehicle_type_id":"4","last_reported":1734692826,"current_range_meters":8400,"station_id":"ce4bhb12rcd13ifvqem0","pricing_plan_id":"cebpf4jnsgd1na2vs0mg"},{"bike_id":"19f34006-1dba-4c03-b59a-0511830589aa","system_id":"levelo_inurba_marseille","lat":43.24797,"lon":5.37484,"is_reserved":false,"is_disabled":false,"rental_uris":{"android":"levelo://app?vid=19f34006-1dba-4c03-b59a-0511830589aa","ios":"levelo://app?vid=19f34006-1dba-4c03-b59a-0511830589aa"},"vehicle_type_id":"4","last_reported":1734692826,"current_range_meters":26000,"station_id":"ce4bhgh2rcd13ifvqfb0","pricing_plan_id":"cebpf4jnsgd1na2vs0mg"},{"bike_id":"ccebd55b-67dc-4fd7-ac81-d8eda7c40028","system_id":"levelo_inurba_marseille","lat":43.27377,"lon":5.3626,"is_reserved":false,"is_disabled":false,"rental_uris":{"android":"levelo://app?vid=ccebd55b-67dc-4fd7-ac81-d8eda7c40028","ios":"levelo://app?vid=ccebd55b-67dc-4fd7-ac81-d8eda7c40028"},"vehicle_type_id":"4","last_reported":1734692826,"current_range_meters":22800,"station_id":"ce4bhbh2rcd13ifvqeo0","pricing_plan_id":"cebpf4jnsgd1na2vs0mg"},{"bike_id":"9d6b51ab-fd14-4c6b-aa24-de45376f78a1","system_id":"levelo_inurba_marseille","lat":43.29911,"lon":5.38152,"is_reserved":false,"is_disabled":false,"rental_uris":{"android":"levelo://app?vid=9d6b51ab-fd14-4c6b-aa24-de45376f78a1","ios":"levelo://app?vid=9d6b51ab-fd14-4c6b-aa24-de45376f78a1"},"vehicle_type_id":"4","last_reported":1734692826,"current_range_meters":38800,"station_id":"ce4bgj12rcd13ifvqbc0","pricing_plan_id":"cebpf4jnsgd1na2vs0mg"},{"bike_id":"10e15e4e-f333-44c3-98bf-9643fdc1756a","system_id":"levelo_inurba_marseille","lat":43.30927,"lon":5.40145,"is_reserved":false,"is_disabled":false,"rental_uris":{"android":"levelo://app?vid=10e15e4e-f333-44c3-98bf-9643fdc1756a","ios":"levelo://app?vid=10e15e4e-f333-44c3-98bf-9643fdc1756a"},"vehicle_type_id":"4","last_reported":1734692826,"current_range_meters":17600,"station_id":"ce4bgvp2rcd13ifvqct0","pricing_plan_id":"cebpf4jnsgd1na2vs0mg"},{"bike_id":"e592292d-8432-4857-886c-3d06fc79ea90","system_id":"levelo_inurba_marseille","lat":43.26184,"lon":5.3745,"is_reserved":false,"is_disabled":false,"rental_uris":{"android":"levelo://app?vid=e592292d-8432-4857-886c-3d06fc79ea90","ios":"levelo://app?vid=e592292d-8432-4857-886c-3d06fc79ea90"},"vehicle_type_id":"4","last_reported":1734692826,"current_range_meters":35200,"station_id":"ce4bhgp2rcd13ifvqfc0","pricing_plan_id":"cebpf4jnsgd1na2vs0mg"},{"bike_id":"73089af4-8bef-4c4e-9573-8a8f768947b4","system_id":"levelo_inurba_marseille","lat":43.31075,"lon":5.42437,"is_reserved":false,"is_disabled":false,"rental_uris":{"android":"levelo://app?vid=73089af4-8bef-4c4e-9573-8a8f768947b4","ios":"levelo://app?vid=73089af4-8bef-4c4e-9573-8a8f768947b4"},"vehicle_type_id":"4","last_reported":1734692826,"current_range_meters":38800,"station_id":"ce4bhp92rcd13ifvqhag","pricing_plan_id":"cebpf4jnsgd1na2vs0mg"},{"bike_id":"01135f23-8f24-40dc-bcec-b4a361df26eb","system_id":"levelo_inurba_marseille","lat":43.30131,"lon":5.3878,"is_reserved":false,"is_disabled":true,"rental_uris":{"android":"levelo://app?vid=01135f23-8f24-40dc-bcec-b4a361df26eb","ios":"levelo://app?vid=01135f23-8f24-40dc-bcec-b4a361df26eb"},"vehicle_type_id":"4","last_reported":1734692826,"current_range_meters":0,"station_id":"ce4bghh2rcd13ifvqb60","pricing_plan_id":"cebpf4jnsgd1na2vs0mg"},{"bike_id":"27059578-53de-452d-8521-f93268e04e42","system_id":"levelo_inurba_marseille","lat":43.29048,"lon":5.37574,"is_reserved":false,"is_disabled":false,"rental_uris":{"android":"levelo://app?vid=27059578-53de-452d-8521-f93268e04e42","ios":"levelo://app?vid=27059578-53de-452d-8521-f93268e04e42"},"vehicle_type_id":"4","last_reported":1734692826,"current_range_meters":38800,"station_id":"ce4bh692rcd13ifvqe90","pricing_plan_id":"cebpf4jnsgd1na2vs0mg"},{"bike_id":"4ece3727-bc4d-432f-aad0-9226033de2af","system_id":"levelo_inurba_marseille","lat":43.29976,"lon":5.37161,"is_reserved":false,"is_disabled":false,"rental_uris":{"android":"levelo://app?vid=4ece3727-bc4d-432f-aad0-9226033de2af","ios":"levelo://app?vid=4ece3727-bc4d-432f-aad0-9226033de2af"},"vehicle_type_id":"4","last_reported":1734692826,"current_range_meters":19200,"station_id":"ce4bgr92rcd13ifvqc7g","pricing_plan_id":"cebpf4jnsgd1na2vs0mg"},{"bike_id":"eb26a513-bf7f-44fb-a2f3-328271f6f482","system_id":"levelo_inurba_marseille","lat":43.2868,"lon":5.38668,"is_reserved":false,"is_disabled":true,"rental_uris":{"android":"levelo://app?vid=eb26a513-bf7f-44fb-a2f3-328271f6f482","ios":"levelo://app?vid=eb26a513-bf7f-44fb-a2f3-328271f6f482"},"vehicle_type_id":"4","last_reported":1734692826,"current_range_meters":28000,"station_id":"ce4bh492rcd13ifvqdug","pricing_plan_id":"cebpf4jnsgd1na2vs0mg"},{"bike_id":"cc91e18c-31a1-4d61-8bec-2d478014f9b7","system_id":"levelo_inurba_marseille","lat":43.27379,"lon":5.36258,"is_reserved":false,"is_disabled":false,"rental_uris":{"android":"levelo://app?vid=cc91e18c-31a1-4d61-8bec-2d478014f9b7","ios":"levelo://app?vid=cc91e18c-31a1-4d61-8bec-2d478014f9b7"},"vehicle_type_id":"4","last_reported":1734692826,"current_range_meters":28800,"station_id":"ce4bhbh2rcd13ifvqeo0","pricing_plan_id":"cebpf4jnsgd1na2vs0mg"},{"bike_id":"d6988bbf-679a-48e5-9829-8a9a3f06159a","system_id":"levelo_inurba_marseille","lat":43.27684,"lon":5.38908,"is_reserved":false,"is_disabled":false,"rental_uris":{"android":"levelo://app?vid=d6988bbf-679a-48e5-9829-8a9a3f06159a","ios":"levelo://app?vid=d6988bbf-679a-48e5-9829-8a9a3f06159a"},"vehicle_type_id":"4","last_reported":1734692826,"current_range_meters":35200,"station_id":"ce4bhi12rcd13ifvqfo0","pricing_plan_id":"cebpf4jnsgd1na2vs0mg"},{"bike_id":"fdfb3580-1002-4881-8a39-36cd06d2a7b8","system_id":"levelo_inurba_marseille","lat":43.28273,"lon":5.35053,"is_reserved":false,"is_disabled":false,"rental_uris":{"android":"levelo://app?vid=fdfb3580-1002-4881-8a39-36cd06d2a7b8","ios":"levelo://app?vid=fdfb3580-1002-4881-8a39-36cd06d2a7b8"},"vehicle_type_id":"4","last_reported":1734692826,"current_range_meters":34800,"station_id":"ce4bhbp2rcd13ifvqerg","pricing_plan_id":"cebpf4jnsgd1na2vs0mg"},{"bike_id":"494c8398-822e-42ee-a7f1-dfd664d1fba7","system_id":"levelo_inurba_marseille","lat":43.2319,"lon":5.35542,"is_reserved":false,"is_disabled":false,"rental_uris":{"android":"levelo://app?vid=494c8398-822e-42ee-a7f1-dfd664d1fba7","ios":"levelo://app?vid=494c8398-822e-42ee-a7f1-dfd664d1fba7"},"vehicle_type_id":"4","last_reported":1734692826,"current_range_meters":35600,"station_id":"ce4bhu92rcd13ifvqi70","pricing_plan_id":"cebpf4jnsgd1na2vs0mg"},{"bike_id":"16efecaa-16ed-4479-b8de-a478145f7c22","system_id":"levelo_inurba_marseille","lat":43.29628,"lon":5.37158,"is_reserved":false,"is_disabled":false,"rental_uris":{"android":"levelo://app?vid=16efecaa-16ed-4479-b8de-a478145f7c22","ios":"levelo://app?vid=16efecaa-16ed-4479-b8de-a478145f7c22"},"vehicle_type_id":"4","last_reported":1734692826,"current_range_meters":35600,"station_id":"ce4bgnh2rcd13ifvqc0g","pricing_plan_id":"cebpf4jnsgd1na2vs0mg"},{"bike_id":"a9b5fc01-b9f0-411d-a119-66f942dad1c9","system_id":"levelo_inurba_marseille","lat":43.27812,"lon":5.40725,"is_reserved":false,"is_disabled":false,"rental_uris":{"android":"levelo://app?vid=a9b5fc01-b9f0-411d-a119-66f942dad1c9","ios":"levelo://app?vid=a9b5fc01-b9f0-411d-a119-66f942dad1c9"},"vehicle_type_id":"4","last_reported":1734692826,"current_range_meters":34000,"station_id":"ce4bhnh2rcd13ifvqgtg","pricing_plan_id":"cebpf4jnsgd1na2vs0mg"},{"bike_id":"830e5984-1d52-4113-8f81-b54152428241","system_id":"levelo_inurba_marseille","lat":43.26207,"lon":5.37439,"is_reserved":false,"is_disabled":false,"rental_uris":{"android":"levelo://app?vid=830e5984-1d52-4113-8f81-b54152428241","ios":"levelo://app?vid=830e5984-1d52-4113-8f81-b54152428241"},"vehicle_type_id":"4","last_reported":1734692826,"current_range_meters":34000,"station_id":"ce4bhgp2rcd13ifvqfc0","pricing_plan_id":"cebpf4jnsgd1na2vs0mg"},{"bike_id":"55fa967f-e3e3-42c4-9dd1-2bcbb5fc2d4d","system_id":"levelo_inurba_marseille","lat":43.27236,"lon":5.39065,"is_reserved":false,"is_disabled":false,"rental_uris":{"android":"levelo://app?vid=55fa967f-e3e3-42c4-9dd1-2bcbb5fc2d4d","ios":"levelo://app?vid=55fa967f-e3e3-42c4-9dd1-2bcbb5fc2d4d"},"vehicle_type_id":"4","last_reported":1734692826,"current_range_meters":24400,"station_id":"","pricing_plan_id":"cebpf4jnsgd1na2vs0mg"},{"bike_id":"9e0a9920-d1ae-4ccd-a58f-c78416388400","system_id":"levelo_inurba_marseille","lat":43.27316,"lon":5.39088,"is_reserved":false,"is_disabled":false,"rental_uris":{"android":"levelo://app?vid=9e0a9920-d1ae-4ccd-a58f-c78416388400","ios":"levelo://app?vid=9e0a9920-d1ae-4ccd-a58f-c78416388400"},"vehicle_type_id":"4","last_reported":1734692826,"current_range_meters":38800,"station_id":"ce4bhgp2rcd13ifvqfe0","pricing_plan_id":"cebpf4jnsgd1na2vs0mg"},{"bike_id":"93a82e60-314a-4cb0-a5cf-a19515d4fc75","system_id":"levelo_inurba_marseille","lat":43.29557,"lon":5.37507,"is_reserved":false,"is_disabled":false,"rental_uris":{"android":"levelo://app?vid=93a82e60-314a-4cb0-a5cf-a19515d4fc75","ios":"levelo://app?vid=93a82e60-314a-4cb0-a5cf-a19515d4fc75"},"vehicle_type_id":"4","last_reported":1734692826,"current_range_meters":25600,"station_id":"ce4bgh92rcd13ifvqb50","pricing_plan_id":"cebpf4jnsgd1na2vs0mg"},{"bike_id":"8a2599bc-02c6-49f7-8505-cf47cbe3ba55","system_id":"levelo_inurba_marseille","lat":43.29626,"lon":5.38118,"is_reserved":false,"is_disabled":false,"rental_uris":{"android":"levelo://app?vid=8a2599bc-02c6-49f7-8505-cf47cbe3ba55","ios":"levelo://app?vid=8a2599bc-02c6-49f7-8505-cf47cbe3ba55"},"vehicle_type_id":"4","last_reported":1734692826,"current_range_meters":38800,"station_id":"ce4bgl12rcd13ifvqbo0","pricing_plan_id":"cebpf4jnsgd1na2vs0mg"},{"bike_id":"ae6b5aa0-6eb6-4c58-9e43-f300ef41410c","system_id":"levelo_inurba_marseille","lat":43.2884,"lon":5.39321,"is_reserved":false,"is_disabled":false,"rental_uris":{"android":"levelo://app?vid=ae6b5aa0-6eb6-4c58-9e43-f300ef41410c","ios":"levelo://app?vid=ae6b5aa0-6eb6-4c58-9e43-f300ef41410c"},"vehicle_type_id":"4","last_reported":1734692826,"current_range_meters":23200,"station_id":"ce4bh2p2rcd13ifvqdi0","pricing_plan_id":"cebpf4jnsgd1na2vs0mg"},{"bike_id":"a2eba22b-b0ee-4005-9bf3-576bb458d391","system_id":"levelo_inurba_marseille","lat":43.279651,"lon":5.387544,"is_reserved":false,"is_disabled":true,"rental_uris":{"android":"levelo://app?vid=a2eba22b-b0ee-4005-9bf3-576bb458d391","ios":"levelo://app?vid=a2eba22b-b0ee-4005-9bf3-576bb458d391"},"vehicle_type_id":"4","last_reported":1734692826,"current_range_meters":0,"station_id":"","pricing_plan_id":"cebpf4jnsgd1na2vs0mg"},{"bike_id":"32356964-2718-4c67-9d60-df2cf70749d9","system_id":"levelo_inurba_marseille","lat":43.29175,"lon":5.37153,"is_reserved":false,"is_disabled":false,"rental_uris":{"android":"levelo://app?vid=32356964-2718-4c67-9d60-df2cf70749d9","ios":"levelo://app?vid=32356964-2718-4c67-9d60-df2cf70749d9"},"vehicle_type_id":"4","last_reported":1734692826,"current_range_meters":33200,"station_id":"ce4bha92rcd13ifvqeh0","pricing_plan_id":"cebpf4jnsgd1na2vs0mg"},{"bike_id":"fcf6f42c-9492-49dd-a9e6-322a50636e12","system_id":"levelo_inurba_marseille","lat":43.31708,"lon":5.37745,"is_reserved":false,"is_disabled":false,"rental_uris":{"android":"levelo://app?vid=fcf6f42c-9492-49dd-a9e6-322a50636e12","ios":"levelo://app?vid=fcf6f42c-9492-49dd-a9e6-322a50636e12"},"vehicle_type_id":"4","last_reported":1734692826,"current_range_meters":11200,"station_id":"ce4bgth2rcd13ifvqch0","pricing_plan_id":"cebpf4jnsgd1na2vs0mg"},{"bike_id":"41dc4270-068a-4b2a-bea1-90fac80234f3","system_id":"levelo_inurba_marseille","lat":43.2998,"lon":5.38491,"is_reserved":false,"is_disabled":false,"rental_uris":{"android":"levelo://app?vid=41dc4270-068a-4b2a-bea1-90fac80234f3","ios":"levelo://app?vid=41dc4270-068a-4b2a-bea1-90fac80234f3"},"vehicle_type_id":"4","last_reported":1734692826,"current_range_meters":38800,"station_id":"ce4bgj92rcd13ifvqbd0","pricing_plan_id":"cebpf4jnsgd1na2vs0mg"},{"bike_id":"6e868a60-9f88-474e-adb5-72cc44996f9b","system_id":"levelo_inurba_marseille","lat":43.29532,"lon":5.3749,"is_reserved":false,"is_disabled":false,"rental_uris":{"android":"levelo://app?vid=6e868a60-9f88-474e-adb5-72cc44996f9b","ios":"levelo://app?vid=6e868a60-9f88-474e-adb5-72cc44996f9b"},"vehicle_type_id":"4","last_reported":1734692826,"current_range_meters":36400,"station_id":"ce4bgkp2rcd13ifvqbmg","pricing_plan_id":"cebpf4jnsgd1na2vs0mg"},{"bike_id":"7d8ebeb0-09c5-49e0-a13e-f63ab3a3f1e2","system_id":"levelo_inurba_marseille","lat":43.30538,"lon":5.36553,"is_reserved":false,"is_disabled":false,"rental_uris":{"android":"levelo://app?vid=7d8ebeb0-09c5-49e0-a13e-f63ab3a3f1e2","ios":"levelo://app?vid=7d8ebeb0-09c5-49e0-a13e-f63ab3a3f1e2"},"vehicle_type_id":"4","last_reported":1734692826,"current_range_meters":38000,"station_id":"ce4bgs12rcd13ifvqcag","pricing_plan_id":"cebpf4jnsgd1na2vs0mg"},{"bike_id":"33053ff6-38ab-43c8-9125-f013294c4031","system_id":"levelo_inurba_marseille","lat":43.31336,"lon":5.39727,"is_reserved":false,"is_disabled":false,"rental_uris":{"android":"levelo://app?vid=33053ff6-38ab-43c8-9125-f013294c4031","ios":"levelo://app?vid=33053ff6-38ab-43c8-9125-f013294c4031"},"vehicle_type_id":"4","last_reported":1734692826,"current_range_meters":26000,"station_id":"ce4bgvp2rcd13ifvqcu0","pricing_plan_id":"cebpf4jnsgd1na2vs0mg"},{"bike_id":"f384362e-dca0-4d89-b509-4071c545130d","system_id":"levelo_inurba_marseille","lat":43.26561,"lon":5.37294,"is_reserved":false,"is_disabled":true,"rental_uris":{"android":"levelo://app?vid=f384362e-dca0-4d89-b509-4071c545130d","ios":"levelo://app?vid=f384362e-dca0-4d89-b509-4071c545130d"},"vehicle_type_id":"4","last_reported":1734692826,"current_range_meters":38800,"station_id":"ce4bhg12rcd13ifvqf70","pricing_plan_id":"cebpf4jnsgd1na2vs0mg"},{"bike_id":"666c322a-b567-45a8-a8b2-8c1dff5bb118","system_id":"levelo_inurba_marseille","lat":43.29973,"lon":5.37175,"is_reserved":false,"is_disabled":false,"rental_uris":{"android":"levelo://app?vid=666c322a-b567-45a8-a8b2-8c1dff5bb118","ios":"levelo://app?vid=666c322a-b567-45a8-a8b2-8c1dff5bb118"},"vehicle_type_id":"4","last_reported":1734692826,"current_range_meters":17600,"station_id":"ce4bgr92rcd13ifvqc7g","pricing_plan_id":"cebpf4jnsgd1na2vs0mg"},