{"last_updated":1732022420,"ttl":60,"version":"2.2","data":{"bikes":[{"bike_id":"cacde89c-5086-4b87-8bcd-a2b586b3345d","system_id":"levelo_inurba_marseille","lat":43.30159,"lon":5.38093,"is_reserved":false,"is_disabled":true,"rental_uris":{"android":"levelo://app?vid=cacde89c-5086-4b87-8bcd-a2b586b3345d","ios":"levelo://app?vid=cacde89c-5086-4b87-8bcd-a2b586b3345d"},"vehicle_type_id":"4","last_reported":1732022420,"current_range_meters":0,"station_id":"ce4bgjp2rcd13ifvqbh0","pricing_plan_id":"cebpf4jnsgd1na2vs0mg"},{"bike_id":"2e9bab8e-ab55-4691-9848-dd507e5d945b","system_id":"levelo_inurba_marseille","lat":43.25495,"lon":5.37648,"is_reserved":false,"is_disabled":false,"rental_uris":{"android":"levelo://app?vid=2e9bab8e-ab55-4691-9848-dd507e5d945b","ios":"levelo://app?vid=2e9bab8e-ab55-4691-9848-dd507e5d945b"},"vehicle_type_id":"4","last_reported":1732022420,"current_range_meters":39200,"station_id":"ce4bhh12rcd13ifvqff0","pricing_plan_id":"cebpf4jnsgd1na2vs0mg"},{"bike_id":"56b27107-97b6-4234-a27a-27284e2907fe","system_id":"levelo_inurba_marseille","lat":43.30462,"lon":5.37907,"is_reserved":false,"is_disabled":false,"rental_uris":{"android":"levelo://app?vid=56b27107-97b6-4234-a27a-27284e2907fe","ios":"levelo://app?vid=56b27107-97b6-4234-a27a-27284e2907fe"},"vehicle_type_id":"4","last_reported":1732022420,"current_range_meters":29600,"station_id":"ce4bgup2rcd13ifvqcn0","pricing_plan_id":"cebpf4jnsgd1na2vs0mg"},{"bike_id":"8693fd8f-f419-4616-8f8c-d6e089f7121e","system_id":"levelo_inurba_marseille","lat":43.30461,"lon":5.37911,"is_reserved":false,"is_disabled":false,"rental_uris":{"android":"levelo://app?vid=8693fd8f-f419-4616-8f8c-d6e089f7121e","ios":"levelo://app?vid=8693fd8f-f419-4616-8f8c-d6e089f7121e"},"vehicle_type_id":"4","last_reported":1732022420,"current_range_meters":9600,"station_id":"ce4bgup2rcd13ifvqcn0","pricing_plan_id":"cebpf4jnsgd1na2vs0mg"},{"bike_id":"7f51cb17-6f5b-4ee6-a2a5-2fef689a15a9","system_id":"levelo_inurba_marseille","lat":43.27943,"lon":5.41048,"is_reserved":false,"is_disabled":false,"rental_uris":{"android":"levelo://app?vid=7f51cb17-6f5b-4ee6-a2a5-2fef689a15a9","ios":"levelo://app?vid=7f51cb17-6f5b-4ee6-a2a5-2fef689a15a9"},"vehicle_type_id":"4","last_reported":1732022420,"current_range_meters":28800,"station_id":"ce4bhnp2rcd13ifvqh0g","pricing_plan_id":"cebpf4jnsgd1na2vs0mg"},{"bike_id":"56b1e23a-a8b6-4eed-a858-f200a5a0a62a","system_id":"levelo_inurba_marseille","lat":43.23148,"lon":5.43727,"is_reserved":false,"is_disabled":false,"rental_uris":{"android":"levelo://app?vid=56b1e23a-a8b6-4eed-a858-f200a5a0a62a","ios":"levelo://app?vid=56b1e23a-a8b6-4eed-a858-f200a5a0a62a"},"vehicle_type_id":"4","last_reported":1732022420,"current_range_meters":38400,"station_id":"ce4bhmp2rcd13ifvqgog","pricing_plan_id":"cebpf4jnsgd1na2vs0mg"},{"bike_id":"bb9ea763-6e93-4922-b0c2-ce9421dca49b","system_id":"levelo_inurba_marseille","lat":43.25932,"lon":5.40911,"is_reserved":false,"is_disabled":true,"rental_uris":{"android":"levelo://app?vid=bb9ea763-6e93-4922-b0c2-ce9421dca49b","ios":"levelo://app?vid=bb9ea763-6e93-4922-b0c2-ce9421dca49b"},"vehicle_type_id":"4","last_reported":1732022420,"current_range_meters":0,"station_id":"ce4bhm92rcd13ifvqglg","pricing_plan_id":"cebpf4jnsgd1na2vs0mg"},{"bike_id":"696dad62-b035-4843-b522-aad62f104751","system_id":"levelo_inurba_marseille","lat":43.34147,"lon":5.40914,"is_reserved":false,"is_disabled":false,"rental_uris":{"android":"levelo://app?vid=696dad62-b035-4843-b522-aad62f104751","ios":"levelo://app?vid=696dad62-b035-4843-b522-aad62f104751"},"vehicle_type_id":"4","last_reported":1732022420,"current_range_meters":25200,"station_id":"ce4bhqh2rcd13ifvqhlg","pricing_plan_id":"cebpf4jnsgd1na2vs0mg"},{"bike_id":"88ec678b-ecf3-4d70-b617-4cb5f3e2902d","system_id":"levelo_inurba_marseille","lat":43.29848,"lon":5.36288,"is_reserved":false,"is_disabled":false,"rental_uris":{"android":"levelo://app?vid=88ec678b-ecf3-4d70-b617-4cb5f3e2902d","ios":"levelo://app?vid=88ec678b-ecf3-4d70-b617-4cb5f3e2902d"},"vehicle_type_id":"4","last_reported":1732022420,"current_range_meters":17600,"station_id":"ce4bgpp2rcd13ifvqc3g","pricing_plan_id":"cebpf4jnsgd1na2vs0mg"},{"bike_id":"bd9ed099-582b-409c-b781-8c5bed8b30c8","system_id":"levelo_inurba_marseille","lat":43.29818,"lon":5.38091,"is_reserved":false,"is_disabled":false,"rental_uris":{"android":"levelo://app?vid=bd9ed099-582b-409c-b781-8c5bed8b30c8","ios":"levelo://app?vid=bd9ed099-582b-409c-b781-8c5bed8b30c8"},"vehicle_type_id":"4","last_reported":1732022420,"current_range_meters":24000,"station_id":"ce4bgip2rcd13ifvqbb0","pricing_plan_id":"cebpf4jnsgd1na2vs0mg"},{"bike_id":"ab8b3dcb-d33d-4854-a37e-2243fffa6f29","system_id":"levelo_inurba_marseille","lat":43.30146,"lon":5.38076,"is_reserved":false,"is_disabled":false,"rental_uris":{"android":"levelo://app?vid=ab8b3dcb-d33d-4854-a37e-2243fffa6f29","ios":"levelo://app?vid=ab8b3dcb-d33d-4854-a37e-2243fffa6f29"},"vehicle_type_id":"4","last_reported":1732022420,"current_range_meters":34800,"station_id":"ce4bgjp2rcd13ifvqbh0","pricing_plan_id":"cebpf4jnsgd1na2vs0mg"},{"bike_id":"045e4c5f-fd8d-464c-ba14-d131fac4aa19","system_id":"levelo_inurba_marseille","lat":43.29027,"lon":5.39974,"is_reserved":false,"is_disabled":false,"rental_uris":{"android":"levelo://app?vid=045e4c5f-fd8d-464c-ba14-d131fac4aa19","ios":"levelo://app?vid=045e4c5f-fd8d-464c-ba14-d131fac4aa19"},"vehicle_type_id":"4","last_reported":1732022420,"current_range_meters":8400,"station_id":"ce4bh392rcd13ifvqdm0","pricing_plan_id":"cebpf4jnsgd1na2vs0mg"},{"bike_id":"0f92e343-db52-4dba-bc6d-bb233e1b7914","system_id":"levelo_inurba_marseille","lat":43.30272,"lon":5.37702,"is_reserved":false,"is_disabled":false,"rental_uris":{"android":"levelo://app?vid=0f92e343-db52-4dba-bc6d-bb233e1b7914","ios":"levelo://app?vid=0f92e343-db52-4dba-bc6d-bb233e1b7914"},"vehicle_type_id":"4","last_reported":1732022420,"current_range_meters":16800,"station_id":"ce4bguh2rcd13ifvqcj0","pricing_plan_id":"cebpf4jnsgd1na2vs0mg"},{"bike_id":"ad462c4b-e81f-4e31-9bd9-51270a96d164","system_id":"levelo_inurba_marseille","lat":43.255,"lon":5.37649,"is_reserved":false,"is_disabled":false,"rental_uris":{"android":"levelo://app?vid=ad462c4b-e81f-4e31-9bd9-51270a96d164","ios":"levelo://app?vid=ad462c4b-e81f-4e31-9bd9-51270a96d164"},"vehicle_type_id":"4","last_reported":1732022420,"current_range_meters":23200,"station_id":"ce4bhh12rcd13ifvqff0","pricing_plan_id":"cebpf4jnsgd1na2vs0mg"},{"bike_id":"0ea93326-5034-4b5e-97b8-0a33b4d38611","system_id":"levelo_inurba_marseille","lat":43.30157,"lon":5.38092,"is_reserved":false,"is_disabled":true,"rental_uris":{"android":"levelo://app?vid=0ea93326-5034-4b5e-97b8-0a33b4d38611","ios":"levelo://app?vid=0ea93326-5034-4b5e-97b8-0a33b4d38611"},"vehicle_type_id":"4","last_reported":1732022420,"current_range_meters":0,"station_id":"ce4bgjp2rcd13ifvqbh0","pricing_plan_id":"cebpf4jnsgd1na2vs0mg"},{"bike_id":"e344fb4b-9f72-452d-88e7-ca8fb042e8dc","system_id":"levelo_inurba_marseille","lat":43.29259,"lon":5.38442,"is_reserved":false,"is_disabled":false,"rental_uris":{"android":"levelo://app?vid=e344fb4b-9f72-452d-88e7-ca8fb042e8dc","ios":"levelo://app?vid=e344fb4b-9f72-452d-88e7-ca8fb042e8dc"},"vehicle_type_id":"4","last_reported":1732022420,"current_range_meters":25200,"station_id":"ce4bh692rcd13ifvqea0","pricing_plan_id":"cebpf4jnsgd1na2vs0mg"},{"bike_id":"4da0d7ae-4ac3-4b4f-9fda-e97bef6cd5ed","system_id":"levelo_inurba_marseille","lat":43.29969,"lon":5.37198,"is_reserved":false,"is_disabled":false,"rental_uris":{"android":"levelo://app?vid=4da0d7ae-4ac3-4b4f-9fda-e97bef6cd5ed","ios":"levelo://app?vid=4da0d7ae-4ac3-4b4f-9fda-e97bef6cd5ed"},"vehicle_type_id":"4","last_reported":1732022420,"current_range_meters":38800,"station_id":"ce4bgr92rcd13ifvqc7g","pricing_plan_id":"cebpf4jnsgd1na2vs0mg"},{"bike_id":"2b36ced2-cd93-4f1e-bab4-b1fdac9aeaf6","system_id":"levelo_inurba_marseille","lat":43.303246,"lon":5.404317,"is_reserved":false,"is_disabled":false,"rental_uris":{"android":"levelo://app?vid=2b36ced2-cd93-4f1e-bab4-b1fdac9aeaf6","ios":"levelo://app?vid=2b36ced2-cd93-4f1e-bab4-b1fdac9aeaf6"},"vehicle_type_id":"4","last_reported":1732022420,"current_range_meters":27600,"station_id":"ce4bh012rcd13ifvqd10","pricing_plan_id":"cebpf4jnsgd1na2vs0mg"},{"bike_id":"e08875d1-5eda-43a9-a5b5-ee3ebd16c83c","system_id":"levelo_inurba_marseille","lat":43.25005,"lon":5.38919,"is_reserved":false,"is_disabled":false,"rental_uris":{"android":"levelo://app?vid=e08875d1-5eda-43a9-a5b5-ee3ebd16c83c","ios":"levelo://app?vid=e08875d1-5eda-43a9-a5b5-ee3ebd16c83c"},"vehicle_type_id":"4","last_reported":1732022420,"current_range_meters":36000,"station_id":"ce4bhgp2rcd13ifvqfd0","pricing_plan_id":"cebpf4jnsgd1na2vs0mg"},{"bike_id":"b1879da0-4952-4a10-8d90-fd2192536eda","system_id":"levelo_inurba_marseille","lat":43.23154,"lon":5.43719,"is_reserved":false,"is_disabled":false,"rental_uris":{"android":"levelo://app?vid=b1879da0-4952-4a10-8d90-fd2192536eda","ios":"levelo://app?vid=b1879da0-4952-4a10-8d90-fd2192536eda"},"vehicle_type_id":"4","last_reported":1732022420,"current_range_meters":39200,"station_id":"ce4bhmp2rcd13ifvqgog","pricing_plan_id":"cebpf4jnsgd1na2vs0mg"},{"bike_id":"a42947c2-80f2-4295-b755-4aed96b147a2","system_id":"levelo_inurba_marseille","lat":43.31177,"lon":5.38724,"is_reserved":false,"is_disabled":false,"rental_uris":{"android":"levelo://app?vid=a42947c2-80f2-4295-b755-4aed96b147a2","ios":"levelo://app?vid=a42947c2-80f2-4295-b755-4aed96b147a2"},"vehicle_type_id":"4","last_reported":1732022420,"current_range_meters":35600,"station_id":"ce4bgv12rcd13ifvqcp0","pricing_plan_id":"cebpf4jnsgd1na2vs0mg"},{"bike_id":"aad2e232-bbf9-4480-9ab6-6132870818e3","system_id":"levelo_inurba_marseille","lat":43.30534,"lon":5.3842,"is_reserved":false,"is_disabled":false,"rental_uris":{"android":"levelo://app?vid=aad2e232-bbf9-4480-9ab6-6132870818e3","ios":"levelo://app?vid=aad2e232-bbf9-4480-9ab6-6132870818e3"},"vehicle_type_id":"4","last_reported":1732022420,"current_range_meters":38000,"station_id":"ce4bgg92rcd13ifvqb30","pricing_plan_id":"cebpf4jnsgd1na2vs0mg"},{"bike_id":"8eea8234-74a1-48f8-a897-21aa39085d46","system_id":"levelo_inurba_marseille","lat":43.28271,"lon":5.35061,"is_reserved":false,"is_disabled":false,"rental_uris":{"android":"levelo://app?vid=8eea8234-74a1-48f8-a897-21aa39085d46","ios":"levelo://app?vid=8eea8234-74a1-48f8-a897-21aa39085d46"},"vehicle_type_id":"4","last_reported":1732022420,"current_range_meters":10800,"station_id":"ce4bhbp2rcd13ifvqerg","pricing_plan_id":"cebpf4jnsgd1na2vs0mg"},{"bike_id":"e33968d5-7b99-445f-b738-2548b1ca5f26","system_id":"levelo_inurba_marseille","lat":43.28148,"lon":5.42638,"is_reserved":false,"is_disabled":false,"rental_uris":{"android":"levelo://app?vid=e33968d5-7b99-445f-b738-2548b1ca5f26","ios":"levelo://app?vid=e33968d5-7b99-445f-b738-2548b1ca5f26"},"vehicle_type_id":"4","last_reported":1732022420,"current_range_meters":17600,"station_id":"ce4bhnh2rcd13ifvqgug","pricing_plan_id":"cebpf4jnsgd1na2vs0mg"},{"bike_id":"d01ce73b-17bb-475f-a47d-dba68d64132c","system_id":"levelo_inurba_marseille","lat":43.31231,"lon":5.36877,"is_reserved":false,"is_disabled":false,"rental_uris":{"android":"levelo://app?vid=d01ce73b-17bb-475f-a47d-dba68d64132c","ios":"levelo://app?vid=d01ce73b-17bb-475f-a47d-dba68d64132c"},"vehicle_type_id":"4","last_reported":1732022420,"current_range_meters":33600,"station_id":"ce4bgl92rcd13ifvqbq0","pricing_plan_id":"cebpf4jnsgd1na2vs0mg"},{"bike_id":"ccebe5cf-2c1f-4616-9818-dd870a925438","system_id":"levelo_inurba_marseille","lat":43.31886,"lon":5.40741,"is_reserved":false,"is_disabled":false,"rental_uris":{"android":"levelo://app?vid=ccebe5cf-2c1f-4616-9818-dd870a925438","ios":"levelo://app?vid=ccebe5cf-2c1f-4616-9818-dd870a925438"},"vehicle_type_id":"4","last_reported":1732022420,"current_range_meters":32400,"station_id":"ce4bhq12rcd13ifvqhig","pricing_plan_id":"cebpf4jnsgd1na2vs0mg"},{"bike_id":"6cd7b50d-b764-4c8a-a1e1-8711453a0e0d","system_id":"levelo_inurba_marseille","lat":43.29803,"lon":5.38087,"is_reserved":false,"is_disabled":false,"rental_uris":{"android":"levelo://app?vid=6cd7b50d-b764-4c8a-a1e1-8711453a0e0d","ios":"levelo://app?vid=6cd7b50d-b764-4c8a-a1e1-8711453a0e0d"},"vehicle_type_id":"4","last_reported":1732022420,"current_range_meters":38000,"station_id":"ce4bgip2rcd13ifvqbb0","pricing_plan_id":"cebpf4jnsgd1na2vs0mg"},{"bike_id":"4f17ca83-5b56-46c8-9eb1-44219ca2b9a0","system_id":"levelo_inurba_marseille","lat":43.29856,"lon":5.38353,"is_reserved":false,"is_disabled":false,"rental_uris":{"android":"levelo://app?vid=4f17ca83-5b56-46c8-9eb1-44219ca2b9a0","ios":"levelo://app?vid=4f17ca83-5b56-46c8-9eb1-44219ca2b9a0"},"vehicle_type_id":"4","last_reported":1732022420,"current_range_meters":22400,"station_id":"","pricing_plan_id":"cebpf4jnsgd1na2vs0mg"},{"bike_id":"57ca9be2-c925-4feb-9a68-7299c3a8a57e","system_id":"levelo_inurba_marseille","lat":43.28942,"lon":5.36638,"is_reserved":false,"is_disabled":false,"rental_uris":{"android":"levelo://app?vid=57ca9be2-c925-4feb-9a68-7299c3a8a57e","ios":"levelo://app?vid=57ca9be2-c925-4feb-9a68-7299c3a8a57e"},"vehicle_type_id":"4","last_reported":1732022420,"current_range_meters":9600,"station_id":"ce4bhap2rcd13ifvqek0","pricing_plan_id":"cebpf4jnsgd1na2vs0mg"},{"bike_id":"5eca787a-87c4-49eb-bf09-16ea60bae85f","system_id":"levelo_inurba_marseille","lat":43.2696,"lon":5.38635,"is_reserved":false,"is_disabled":false,"rental_uris":{"android":"levelo://app?vid=5eca787a-87c4-49eb-bf09-16ea60bae85f","ios":"levelo://app?vid=5eca787a-87c4-49eb-bf09-16ea60bae85f"},"vehicle_type_id":"4","last_reported":1732022420,"current_range_meters":16400,"station_id":"ce4bhh92rcd13ifvqfh0","pricing_plan_id":"cebpf4jnsgd1na2vs0mg"},{"bike_id":"d9b39b2f-08ad-4db7-9e1a-dd255edfa61f","system_id":"levelo_inurba_marseille","lat":43.29255,"lon":5.38432,"is_reserved":false,"is_disabled":false,"rental_uris":{"android":"levelo://app?vid=d9b39b2f-08ad-4db7-9e1a-dd255edfa61f","ios":"levelo://app?vid=d9b39b2f-08ad-4db7-9e1a-dd255edfa61f"},"vehicle_type_id":"4","last_reported":1732022420,"current_range_meters":36800,"station_id":"ce4bh692rcd13ifvqea0","pricing_plan_id":"cebpf4jnsgd1na2vs0mg"},{"bike_id":"e558fbe9-1349-4b04-9ba5-017d39440129","system_id":"levelo_inurba_marseille","lat":43.30156,"lon":5.38082,"is_reserved":false,"is_disabled":false,"rental_uris":{"android":"levelo://app?vid=e558fbe9-1349-4b04-9ba5-017d39440129","ios":"levelo://app?vid=e558fbe9-1349-4b04-9ba5-017d39440129"},"vehicle_type_id":"4","last_reported":1732022420,"current_range_meters":19200,"station_id":"ce4bgjp2rcd13ifvqbh0","pricing_plan_id":"cebpf4jnsgd1na2vs0mg"},{"bike_id":"1f28c99d-f14b-46b1-a2cd-f1a94e16d3c4","system_id":"levelo_inurba_marseille","lat":43.30554,"lon":5.36534,"is_reserved":false,"is_disabled":false,"rental_uris":{"android":"levelo://app?vid=1f28c99d-f14b-46b1-a2cd-f1a94e16d3c4","ios":"levelo://app?vid=1f28c99d-f14b-46b1-a2cd-f1a94e16d3c4"},"vehicle_type_id":"4","last_reported":1732022420,"current_range_meters":12400,"station_id":"ce4bgs12rcd13ifvqcag","pricing_plan_id":"cebpf4jnsgd1na2vs0mg"},{"bike_id":"dbccf259-6580-4077-8f20-0e17b25252ff","system_id":"levelo_inurba_marseille","lat":43.298,"lon":5.38102,"is_reserved":false,"is_disabled":false,"rental_uris":{"android":"levelo://app?vid=dbccf259-6580-4077-8f20-0e17b25252ff","ios":"levelo://app?vid=dbccf259-6580-4077-8f20-0e17b25252ff"},"vehicle_type_id":"4","last_reported":1732022420,"current_range_meters":38000,"station_id":"ce4bgip2rcd13ifvqbb0","pricing_plan_id":"cebpf4jnsgd1na2vs0mg"},{"bike_id":"dd791073-d84f-4f33-a863-d9df5006bf14","system_id":"levelo_inurba_marseille","lat":43.28713,"lon":5.3794,"is_reserved":false,"is_disabled":false,"rental_uris":{"android":"levelo://app?vid=dd791073-d84f-4f33-a863-d9df5006bf14","ios":"levelo://app?vid=dd791073-d84f-4f33-a863-d9df5006bf14"},"vehicle_type_id":"4","last_reported":1732022420,"current_range_meters":27600,"station_id":"ce4bh9p2rcd13ifvqec0","pricing_plan_id":"cebpf4jnsgd1na2vs0mg"},{"bike_id":"c05f2648-e437-4c26-996d-4e2ba6a9b628","system_id":"levelo_inurba_marseille","lat":43.28707,"lon":5.37946,"is_reserved":false,"is_disabled":false,"rental_uris":{"android":"levelo://app?vid=c05f2648-e437-4c26-996d-4e2ba6a9b628","ios":"levelo://app?vid=c05f2648-e437-4c26-996d-4e2ba6a9b628"},"vehicle_type_id":"4","last_reported":1732022420,"current_range_meters":27600,"station_id":"ce4bh9p2rcd13ifvqec0","pricing_plan_id":"cebpf4jnsgd1na2vs0mg"},{"bike_id":"02d39492-c26b-4108-b60e-00dc0361c13e","system_id":"levelo_inurba_marseille","lat":43.29788,"lon":5.38121,"is_reserved":false,"is_disabled":false,"rental_uris":{"android":"levelo://app?vid=02d39492-c26b-4108-b60e-00dc0361c13e","ios":"levelo://app?vid=02d39492-c26b-4108-b60e-00dc0361c13e"},"vehicle_type_id":"4","last_reported":1732022420,"current_range_meters":28000,"station_id":"ce4bgip2rcd13ifvqbb0","pricing_plan_id":"cebpf4jnsgd1na2vs0mg"},{"bike_id":"0f1ab65e-c052-478f-a427-02aa50a55217","system_id":"levelo_inurba_marseille","lat":43.30531,"lon":5.36712,"is_reserved":false,"is_disabled":false,"rental_uris":{"android":"levelo://app?vid=0f1ab65e-c052-478f-a427-02aa50a55217","ios":"levelo://app?vid=0f1ab65e-c052-478f-a427-02aa50a55217"},"vehicle_type_id":"4","last_reported":1732022420,"current_range_meters":17200,"station_id":"ce4bgrp2rcd13ifvqc9g","pricing_plan_id":"cebpf4jnsgd1na2vs0mg"},{"bike_id":"23d14fa6-d62f-4c65-93ca-ca5cb40bd53c","system_id":"levelo_inurba_marseille","lat":43.29516,"lon":5.37513,"is_reserved":false,"is_disabled":false,"rental_uris":{"android":"levelo://app?vid=23d14fa6-d62f-4c65-93ca-ca5cb40bd53c","ios":"levelo://app?vid=23d14fa6-d62f-4c65-93ca-ca5cb40bd53c"},"vehicle_type_id":"4","last_reported":1732022420,"current_range_meters":39200,"station_id":"ce4bgkp2rcd13ifvqbmg","pricing_plan_id":"cebpf4jnsgd1na2vs0mg"},{"bike_id":"1341a828-b981-4198-a789-8a5791ca7539","system_id":"levelo_inurba_marseille","lat":43.24997,"lon":5.38922,"is_reserved":false,"is_disabled":false,"rental_uris":{"android":"levelo://app?vid=1341a828-b981-4198-a789-8a5791ca7539","ios":"levelo://app?vid=1341a828-b981-4198-a789-8a5791ca7539"},"vehicle_type_id":"4","last_reported":1732022420,"current_range_meters":36400,"station_id":"ce4bhgp2rcd13ifvqfd0","pricing_plan_id":"cebpf4jnsgd1na2vs0mg"},{"bike_id":"2eb8bf07-c314-407a-b867-b5ba00bca695","system_id":"levelo_inurba_marseille","lat":43.30088,"lon":5.39076,"is_reserved":false,"is_disabled":false,"rental_uris":{"android":"levelo://app?vid=2eb8bf07-c314-407a-b867-b5ba00bca695","ios":"levelo://app?vid=2eb8bf07-c314-407a-b867-b5ba00bca695"},"vehicle_type_id":"4","last_reported":1732022420,"current_range_meters":38800,"station_id":"ce4bh192rcd13ifvqdb0","pricing_plan_id":"cebpf4jnsgd1na2vs0mg"},{"bike_id":"8ac1d2b7-20cf-4308-b0ae-f5927b24b9aa","system_id":"levelo_inurba_marseille","lat":43.30499,"lon":5.37896,"is_reserved":false,"is_disabled":false,"rental_uris":{"android":"levelo://app?vid=8ac1d2b7-20cf-4308-b0ae-f5927b24b9aa","ios":"levelo://app?vid=8ac1d2b7-20cf-4308-b0ae-f5927b24b9aa"},"vehicle_type_id":"4","last_reported":1732022420,"current_range_meters":38000,"station_id":"ce4bgup2rcd13ifvqcn0","pricing_plan_id":"cebpf4jnsgd1na2vs0mg"},{"bike_id":"e3511c0c-eb2b-4100-bb2d-c5ebcd644bea","system_id":"levelo_inurba_marseille","lat":43.23956,"lon":5.36636,"is_reserved":false,"is_disabled":true,"rental_uris":{"android":"levelo://app?vid=e3511c0c-eb2b-4100-bb2d-c5ebcd644bea","ios":"levelo://app?vid=e3511c0c-eb2b-4100-bb2d-c5ebcd644bea"},"vehicle_type_id":"4","last_reported":1732022420,"current_range_meters":36000,"station_id":"ce4bhi12rcd13ifvqfp0","pricing_plan_id":"cebpf4jnsgd1na2vs0mg"},{"bike_id":"5917a06d-1a89-42ee-9c96-70b3e49f2520","system_id":"levelo_inurba_marseille","lat":43.31699,"lon":5.40472,"is_reserved":false,"is_disabled":true,"rental_uris":{"android":"levelo://app?vid=5917a06d-1a89-42ee-9c96-70b3e49f2520","ios":"levelo://app?vid=5917a06d-1a89-42ee-9c96-70b3e49f2520"},"vehicle_type_id":"4","last_reported":1732022420,"current_range_meters":12000,"station_id":"ce4bh012rcd13ifvqd00","pricing_plan_id":"cebpf4jnsgd1na2vs0mg"},{"bike_id":"d58f2aab-4123-4cd3-aa22-c52eec990298","system_id":"levelo_inurba_marseille","lat":43.26557,"lon":5.39063,"is_reserved":false,"is_disabled":false,"rental_uris":{"android":"levelo://app?vid=d58f2aab-4123-4cd3-aa22-c52eec990298","ios":"levelo://app?vid=d58f2aab-4123-4cd3-aa22-c52eec990298"},"vehicle_type_id":"4","last_reported":1732022420,"current_range_meters":30400,"station_id":"ce4bhe12rcd13ifvqf30","pricing_plan_id":"cebpf4jnsgd1na2vs0mg"},{"bike_id":"e3a71ac4-f939-4cd8-9eb5-72328af89332","system_id":"levelo_inurba_marseille","lat":43.30319,"lon":5.40436,"is_reserved":false,"is_disabled":false,"rental_uris":{"android":"levelo://app?vid=e3a71ac4-f939-4cd8-9eb5-72328af89332","ios":"levelo://app?vid=e3a71ac4-f939-4cd8-9eb5-72328af89332"},"vehicle_type_id":"4","last_reported":1732022420,"current_range_meters":17200,"station_id":"ce4bh012rcd13ifvqd10","pricing_plan_id":"cebpf4jnsgd1na2vs0mg"},{"bike_id":"d68a992d-a759-476b-bd80-c515009a15ba","system_id":"levelo_inurba_marseille","lat":43.29285,"lon":5.40124,"is_reserved":false,"is_disabled":false,"rental_uris":{"android":"levelo://app?vid=d68a992d-a759-476b-bd80-c515009a15ba","ios":"levelo://app?vid=d68a992d-a759-476b-bd80-c515009a15ba"},"vehicle_type_id":"4","last_reported":1732022420,"current_range_meters":28800,"station_id":"ce4bh312rcd13ifvqdk0","pricing_plan_id":"cebpf4jnsgd1na2vs0mg"},{"bike_id":"0fb6b301-e635-4881-9960-1a49eb5a4618","system_id":"levelo_inurba_marseille","lat":43.28348,"lon":5.38115,"is_reserved":false,"is_disabled":false,"rental_uris":{"android":"levelo://app?vid=0fb6b301-e635-4881-9960-1a49eb5a4618","ios":"levelo://app?vid=0fb6b301-e635-4881-9960-1a49eb5a4618"},"vehicle_type_id":"4","last_reported":1732022420,"current_range_meters":19600,"station_id":"ce4bh412rcd13ifvqdr0","pricing_plan_id":"cebpf4jnsgd1na2vs0mg"},{"bike_id":"e4200a2f-51c9-4a2d-93c0-970a40d32e47","system_id":"levelo_inurba_marseille","lat":43.30157,"lon":5.38084,"is_reserved":false,"is_disabled":false,"rental_uris":{"android":"levelo://app?vid=e4200a2f-51c9-4a2d-93c0-970a40d32e47","ios":"levelo://app?vid=e4200a2f-51c9-4a2d-93c0-970a40d32e47"},"vehicle_type_id":"4","last_reported":1732022420,"current_range_meters":14400,"station_id":"ce4bgjp2rcd13ifvqbh0","pricing_plan_id":"cebpf4jnsgd1na2vs0mg"},{"bike_id":"ee9698c4-d276-4278-a62d-b0544af1d910","system_id":"levelo_inurba_marseille","lat":43.30217,"lon":5.39472,"is_reserved":false,"is_disabled":true,"rental_uris":{"android":"levelo://app?vid=ee9698c4-d276-4278-a62d-b0544af1d910","ios":"levelo://app?vid=ee9698c4-d276-4278-a62d-b0544af1d910"},"vehicle_type_id":"4","last_reported":1732022420,"current_range_meters":0,"station_id":"ce4bh0p2rcd13ifvqd70","pricing_plan_id":"cebpf4jnsgd1na2vs0mg"},{"bike_id":"1cc90608-5a84-4c67-ae6a-369c2355d020","system_id":"levelo_inurba_marseille","lat":43.2408,"lon":5.37754,"is_reserved":false,"is_disabled":false,"rental_uris":{"android":"levelo://app?vid=1cc90608-5a84-4c67-ae6a-369c2355d020","ios":"levelo://app?vid=1cc90608-5a84-4c67-ae6a-369c2355d020"},"vehicle_type_id":"4","last_reported":1732022420,"current_range_meters":28800,"station_id":"ce4bhnp2rcd13ifvqgvg","pricing_plan_id":"cebpf4jnsgd1na2vs0mg"},{"bike_id":"1a363d4a-50a0-4673-92cf-86b4f329e4cc","system_id":"levelo_inurba_marseille","lat":43.30277,"lon":5.37708,"is_reserved":false,"is_disabled":false,"rental_uris":{"android":"levelo://app?vid=1a363d4a-50a0-4673-92cf-86b4f329e4cc","ios":"levelo://app?vid=1a363d4a-50a0-4673-92cf-86b4f329e4cc"},"vehicle_type_id":"4","last_reported":1732022420,"current_range_meters":38000,"station_id":"ce4bguh2rcd13ifvqcj0","pricing_plan_id":"cebpf4jnsgd1na2vs0mg"},{"bike_id":"7b0a8de6-92f7-4a30-9829-ede5073a7db5","system_id":"levelo_inurba_marseille","lat":43.29573,"lon":5.39986,"is_reserved":false,"is_disabled":false,"rental_uris":{"android":"levelo://app?vid=7b0a8de6-92f7-4a30-9829-ede5073a7db5","ios":"levelo://app?vid=7b0a8de6-92f7-4a30-9829-ede5073a7db5"},"vehicle_type_id":"4","last_reported":1732022420,"current_range_meters":28400,"station_id":"ce4bh312rcd13ifvqdj0","pricing_plan_id":"cebpf4jnsgd1na2vs0mg"},{"bike_id":"2a6e3bd3-2962-4bca-bdae-e6807c60ac0a","system_id":"levelo_inurba_marseille","lat":43.32042,"lon":5.41592,"is_reserved":false,"is_disabled":false,"rental_uris":{"android":"levelo://app?vid=2a6e3bd3-2962-4bca-bdae-e6807c60ac0a","ios":"levelo://app?vid=2a6e3bd3-2962-4bca-bdae-e6807c60ac0a"},"vehicle_type_id":"4","last_reported":1732022420,"current_range_meters":38800,"station_id":"ce4bhq92rcd13ifvqhkg","pricing_plan_id":"cebpf4jnsgd1na2vs0mg"},{"bike_id":"3f095bc8-9af8-4b0b-a298-157d8e949f36","system_id":"levelo_inurba_marseille","lat":43.2768,"lon":5.38903,"is_reserved":false,"is_disabled":true,"rental_uris":{"android":"levelo://app?vid=3f095bc8-9af8-4b0b-a298-157d8e949f36","ios":"levelo://app?vid=3f095bc8-9af8-4b0b-a298-157d8e949f36"},"vehicle_type_id":"4","last_reported":1732022420,"current_range_meters":6400,"station_id":"ce4bhi12rcd13ifvqfo0","pricing_plan_id":"cebpf4jnsgd1na2vs0mg"},{"bike_id":"e4baddae-adcd-49e4-843c-b2c1ee1420bd","system_id":"levelo_inurba_marseille","lat":43.28722,"lon":5.37945,"is_reserved":false,"is_disabled":false,"rental_uris":{"android":"levelo://app?vid=e4baddae-adcd-49e4-843c-b2c1ee1420bd","ios":"levelo://app?vid=e4baddae-adcd-49e4-843c-b2c1ee1420bd"},"vehicle_type_id":"4","last_reported":1732022420,"current_range_meters":25600,"station_id":"ce4bh9p2rcd13ifvqec0","pricing_plan_id":"cebpf4jnsgd1na2vs0mg"},{"bike_id":"cff835d5-5bb5-49eb-bfe0-e84b2b1a58b7","system_id":"levelo_inurba_marseille","lat":43.29441,"lon":5.39748,"is_reserved":false,"is_disabled":false,"rental_uris":{"android":"levelo://app?vid=cff835d5-5bb5-49eb-bfe0-e84b2b1a58b7","ios":"levelo://app?vid=cff835d5-5bb5-49eb-bfe0-e84b2b1a58b7"},"vehicle_type_id":"4","last_reported":1732022420,"current_range_meters":36800,"station_id":"ce4bh3h2rcd13ifvqdo0","pricing_plan_id":"cebpf4jnsgd1na2vs0mg"},{"bike_id":"90a61bb8-2c5c-4c88-8028-f52b1c4df300","system_id":"levelo_inurba_marseille","lat":43.25502,"lon":5.37651,"is_reserved":false,"is_disabled":false,"rental_uris":{"android":"levelo://app?vid=90a61bb8-2c5c-4c88-8028-f52b1c4df300","ios":"levelo://app?vid=90a61bb8-2c5c-4c88-8028-f52b1c4df300"},"vehicle_type_id":"4","last_reported":1732022420,"current_range_meters":24400,"station_id":"ce4bhh12rcd13ifvqff0","pricing_plan_id":"cebpf4jnsgd1na2vs0mg"},{"bike_id":"88901e5c-eefe-4726-a965-0f600a356892","system_id":"levelo_inurba_marseille","lat":43.29715,"lon":5.37691,"is_reserved":false,"is_disabled":false,"rental_uris":{"android":"levelo://app?vid=88901e5c-eefe-4726-a965-0f600a356892","ios":"levelo://app?vid=88901e5c-eefe-4726-a965-0f600a356892"},"vehicle_type_id":"4","last_reported":1732022420,"current_range_meters":13600,"station_id":"ce4bgkh2rcd13ifvqbl0","pricing_plan_id":"cebpf4jnsgd1na2vs0mg"},{"bike_id":"d674a550-723f-4e20-a0c2-89aa344c2ade","system_id":"levelo_inurba_marseille","lat":43.28205,"lon":5.4438,"is_reserved":false,"is_disabled":false,"rental_uris":{"android":"levelo://app?vid=d674a550-723f-4e20-a0c2-89aa344c2ade","ios":"levelo://app?vid=d674a550-723f-4e20-a0c2-89aa344c2ade"},"vehicle_type_id":"4","last_reported":1732022420,"current_range_meters":2000,"station_id":"","pricing_plan_id":"cebpf4jnsgd1na2vs0mg"},{"bike_id":"f542b112-204e-4422-a866-9c7f8c2c4c4d","system_id":"levelo_inurba_marseille","lat":43.31494,"lon":5.37307,"is_reserved":false,"is_disabled":false,"rental_uris":{"android":"levelo://app?vid=f542b112-204e-4422-a866-9c7f8c2c4c4d","ios":"levelo://app?vid=f542b112-204e-4422-a866-9c7f8c2c4c4d"},"vehicle_type_id":"4","last_reported":1732022420,"current_range_meters":28800,"station_id":"ce4bgt12rcd13ifvqcd0","pricing_plan_id":"cebpf4jnsgd1na2vs0mg"},{"bike_id":"3ab7c33b-3bf5-407f-99c8-512b3882f47b","system_id":"levelo_inurba_marseille","lat":43.23957,"lon":5.3664,"is_reserved":false,"is_disabled":false,"rental_uris":{"android":"levelo://app?vid=3ab7c33b-3bf5-407f-99c8-512b3882f47b","ios":"levelo://app?vid=3ab7c33b-3bf5-407f-99c8-512b3882f47b"},"vehicle_type_id":"4","last_reported":1732022420,"current_range_meters":22800,"station_id":"ce4bhi12rcd13ifvqfp0","pricing_plan_id":"cebpf4jnsgd1na2vs0mg"},{"bike_id":"6e4700da-2223-4213-b156-7eedfb193e83","system_id":"levelo_inurba_marseille","lat":43.23191,"lon":5.35554,"is_reserved":false,"is_disabled":false,"rental_uris":{"android":"levelo://app?vid=6e4700da-2223-4213-b156-7eedfb193e83","ios":"levelo://app?vid=6e4700da-2223-4213-b156-7eedfb193e83"},"vehicle_type_id":"4","last_reported":1732022420,"current_range_meters":4400,"station_id":"ce4bhu92rcd13ifvqi70","pricing_plan_id":"cebpf4jnsgd1na2vs0mg"},{"bike_id":"736a9e28-9d44-4d20-87d3-cde0293b61e8","system_id":"levelo_inurba_marseille","lat":43.31687,"lon":5.4048,"is_reserved":false,"is_disabled":false,"rental_uris":{"android":"levelo://app?vid=736a9e28-9d44-4d20-87d3-cde0293b61e8","ios":"levelo://app?vid=736a9e28-9d44-4d20-87d3-cde0293b61e8"},"vehicle_type_id":"4","last_reported":1732022420,"current_range_meters":28400,"station_id":"ce4bh012rcd13ifvqd00","pricing_plan_id":"cebpf4jnsgd1na2vs0mg"},{"bike_id":"c92a29d8-512a-437b-9827-c1f875a402da","system_id":"levelo_inurba_marseille","lat":43.2893,"lon":5.36633,"is_reserved":false,"is_disabled":false,"rental_uris":{"android":"levelo://app?vid=c92a29d8-512a-437b-9827-c1f875a402da","ios":"levelo://app?vid=c92a29d8-512a-437b-9827-c1f875a402da"},"vehicle_type_id":"4","last_reported":1732022420,"current_range_meters":32000,"station_id":"ce4bhap2rcd13ifvqek0","pricing_plan_id":"cebpf4jnsgd1na2vs0mg"},{"bike_id":"296f79f1-41d6-4fec-a1e9-4f2f4d3dee49","system_id":"levelo_inurba_marseille","lat":43.3176,"lon":5.39012,"is_reserved":false,"is_disabled":false,"rental_uris":{"android":"levelo://app?vid=296f79f1-41d6-4fec-a1e9-4f2f4d3dee49","ios":"levelo://app?vid=296f79f1-41d6-4fec-a1e9-4f2f4d3dee49"},"vehicle_type_id":"4","last_reported":1732022420,"current_range_meters":38800,"station_id":"ce4bhqp2rcd13ifvqhng","pricing_plan_id":"cebpf4jnsgd1na2vs0mg"},{"bike_id":"76b26817-8a0e-47d4-9818-68227ec46540","system_id":"levelo_inurba_marseille","lat":43.29076,"lon":5.37161,"is_reserved":false,"is_disabled":true,"rental_uris":{"android":"levelo://app?vid=76b26817-8a0e-47d4-9818-68227ec46540","ios":"levelo://app?vid=76b26817-8a0e-47d4-9818-68227ec46540"},"vehicle_type_id":"4","last_reported":1732022420,"current_range_meters":36800,"station_id":"ce4bh5p2rcd13ifvqe4g","pricing_plan_id":"cebpf4jnsgd1na2vs0mg"},{"bike_id":"fc7685bc-12d2-4453-957c-236516983ef0","system_id":"levelo_inurba_marseille","lat":43.24389,"lon":5.37056,"is_reserved":false,"is_disabled":false,"rental_uris":{"android":"levelo://app?vid=fc7685bc-12d2-4453-957c-236516983ef0","ios":"levelo://app?vid=fc7685bc-12d2-4453-957c-236516983ef0"},"vehicle_type_id":"4","last_reported":1732022420,"current_range_meters":24800,"station_id":"ce4bhhh2rcd13ifvqfk0","pricing_plan_id":"cebpf4jnsgd1na2vs0mg"},{"bike_id":"5a04a6aa-f6f7-449f-be26-8613756d8d6a","system_id":"levelo_inurba_marseille","lat":43.3059,"lon":5.39363,"is_reserved":false,"is_disabled":false,"rental_uris":{"android":"levelo://app?vid=5a04a6aa-f6f7-449f-be26-8613756d8d6a","ios":"levelo://app?vid=5a04a6aa-f6f7-449f-be26-8613756d8d6a"},"vehicle_type_id":"4","last_reported":1732022420,"current_range_meters":28000,"station_id":"ce4bh0p2rcd13ifvqd80","pricing_plan_id":"cebpf4jnsgd1na2vs0mg"},{"bike_id":"5ca14896-576a-4839-a95f-1654aca8fa78","system_id":"levelo_inurba_marseille","lat":43.28715,"lon":5.37936,"is_reserved":false,"is_disabled":false,"rental_uris":{"android":"levelo://app?vid=5ca14896-576a-4839-a95f-1654aca8fa78","ios":"levelo://app?vid=5ca14896-576a-4839-a95f-1654aca8fa78"},"vehicle_type_id":"4","last_reported":1732022420,"current_range_meters":33600,"station_id":"ce4bh9p2rcd13ifvqec0","pricing_plan_id":"cebpf4jnsgd1na2vs0mg"},{"bike_id":"ec46118f-a8f4-4167-a4ab-95437a0cf605","system_id":"levelo_inurba_marseille","lat":43.2707,"lon":5.42276,"is_reserved":false,"is_disabled":false,"rental_uris":{"android":"levelo://app?vid=ec46118f-a8f4-4167-a4ab-95437a0cf605","ios":"levelo://app?vid=ec46118f-a8f4-4167-a4ab-95437a0cf605"},"vehicle_type_id":"4","last_reported":1732022420,"current_range_meters":24800,"station_id":"ce4bhk92rcd13ifvqgb0","pricing_plan_id":"cebpf4jnsgd1na2vs0mg"},{"bike_id":"31e6bd0b-c283-428e-a60e-39ea0d752798","system_id":"levelo_inurba_marseille","lat":43.26213,"lon":5.37442,"is_reserved":false,"is_disabled":false,"rental_uris":{"android":"levelo://app?vid=31e6bd0b-c283-428e-a60e-39ea0d752798","ios":"levelo://app?vid=31e6bd0b-c283-428e-a60e-39ea0d752798"},"vehicle_type_id":"4","last_reported":1732022420,"current_range_meters":14000,"station_id":"ce4bhgp2rcd13ifvqfc0","pricing_plan_id":"cebpf4jnsgd1na2vs0mg"},{"bike_id":"8242898a-f4dd-4ea9-b3d8-7337f0d65ebd","system_id":"levelo_inurba_marseille","lat":43.28659,"lon":5.36359,"is_reserved":false,"is_disabled":false,"rental_uris":{"android":"levelo://app?vid=8242898a-f4dd-4ea9-b3d8-7337f0d65ebd","ios":"levelo://app?vid=8242898a-f4dd-4ea9-b3d8-7337f0d65ebd"},"vehicle_type_id":"4","last_reported":1732022420,"current_range_meters":37600,"station_id":"ce4bhah2rcd13ifvqej0","pricing_plan_id":"cebpf4jnsgd1na2vs0mg"},{"bike_id":"645f785d-d770-4f54-bda9-cd566c73efdc","system_id":"levelo_inurba_marseille","lat":43.26888,"lon":5.36899,"is_reserved":false,"is_disabled":false,"rental_uris":{"android":"levelo://app?vid=645f785d-d770-4f54-bda9-cd566c73efdc","ios":"levelo://app?vid=645f785d-d770-4f54-bda9-cd566c73efdc"},"vehicle_type_id":"4","last_reported":1732022420,"current_range_meters":20000,"station_id":"ce4bgj92rcd13ifvqbe0","pricing_plan_id":"cebpf4jnsgd1na2vs0mg"},{"bike_id":"c965d922-041e-4314-8721-46b1ef5413d3","system_id":"levelo_inurba_marseille","lat":43.26203,"lon":5.37929,"is_reserved":false,"is_disabled":false,"rental_uris":{"android":"levelo://app?vid=c965d922-041e-4314-8721-46b1ef5413d3","ios":"levelo://app?vid=c965d922-041e-4314-8721-46b1ef5413d3"},"vehicle_type_id":"4","last_reported":1732022420,"current_range_meters":38800,"station_id":"ce4bhjp2rcd13ifvqg90","pricing_plan_id":"cebpf4jnsgd1na2vs0mg"},{"bike_id":"e01ff489-e7f8-44a9-9b0e-754d01c7f72d","system_id":"levelo_inurba_marseille","lat":43.29076,"lon":5.37175,"is_reserved":false,"is_disabled":false,"rental_uris":{"android":"levelo://app?vid=e01ff489-e7f8-44a9-9b0e-754d01c7f72d","ios":"levelo://app?vid=e01ff489-e7f8-44a9-9b0e-754d01c7f72d"},"vehicle_type_id":"4","last_reported":1732022420,"current_range_meters":38400,"station_id":"ce4bh5p2rcd13ifvqe4g","pricing_plan_id":"cebpf4jnsgd1na2vs0mg"},{"bike_id":"ffcefc05-d5a1-4b85-8074-62efb68d8ace","system_id":"levelo_inurba_marseille","lat":43.30121,"lon":5.39867,"is_reserved":false,"is_disabled":false,"rental_uris":{"android":"levelo://app?vid=ffcefc05-d5a1-4b85-8074-62efb68d8ace","ios":"levelo://app?vid=ffcefc05-d5a1-4b85-8074-62efb68d8ace"},"vehicle_type_id":"4","last_reported":1732022420,"current_range_meters":19200,"station_id":"ce4bh0h2rcd13ifvqd40","pricing_plan_id":"cebpf4jnsgd1na2vs0mg"},{"bike_id":"bc249293-6395-4334-b84a-652f70f197fc","system_id":"levelo_inurba_marseille","lat":43.27629,"lon":5.42644,"is_reserved":false,"is_disabled":true,"rental_uris":{"android":"levelo://app?vid=bc249293-6395-4334-b84a-652f70f197fc","ios":"levelo://app?vid=bc249293-6395-4334-b84a-652f70f197fc"},"vehicle_type_id":"4","last_reported":1732022420,"current_range_meters":0,"station_id":"","pricing_plan_id":"cebpf4jnsgd1na2vs0mg"},{"bike_id":"5d99237c-43fd-4199-9b06-53d7207472aa","system_id":"levelo_inurba_marseille","lat":43.31706,"lon":5.37731,"is_reserved":false,"is_disabled":false,"rental_uris":{"android":"levelo://app?vid=5d99237c-43fd-4199-9b06-53d7207472aa","ios":"levelo://app?vid=5d99237c-43fd-4199-9b06-53d7207472aa"},"vehicle_type_id":"4","last_reported":1732022420,"current_range_meters":24400,"station_id":"ce4bgth2rcd13ifvqch0","pricing_plan_id":"cebpf4jnsgd1na2vs0mg"},{"bike_id":"be1dd5f8-91fc-4786-8461-76cd869dae13","system_id":"levelo_inurba_marseille","lat":43.31982,"lon":5.41584,"is_reserved":false,"is_disabled":true,"rental_uris":{"android":"levelo://app?vid=be1dd5f8-91fc-4786-8461-76cd869dae13","ios":"levelo://app?vid=be1dd5f8-91fc-4786-8461-76cd869dae13"},"vehicle_type_id":"4","last_reported":1732022420,"current_range_meters":26000,"station_id":"","pricing_plan_id":"cebpf4jnsgd1na2vs0mg"},{"bike_id":"84d777cb-1af6-4064-bcd5-955f27bffe2a","system_id":"levelo_inurba_marseille","lat":43.28104,"lon":5.37855,"is_reserved":false,"is_disabled":false,"rental_uris":{"android":"levelo://app?vid=84d777cb-1af6-4064-bcd5-955f27bffe2a","ios":"levelo://app?vid=84d777cb-1af6-4064-bcd5-955f27bffe2a"},"vehicle_type_id":"4","last_reported":1732022420,"current_range_meters":26800,"station_id":"ce4bha12rcd13ifvqee0","pricing_plan_id":"cebpf4jnsgd1na2vs0mg"},{"bike_id":"35e74e42-a783-49cd-884d-8a241590c517","system_id":"levelo_inurba_marseille","lat":43.29551,"lon":5.4228,"is_reserved":false,"is_disabled":false,"rental_uris":{"android":"levelo://app?vid=35e74e42-a783-49cd-884d-8a241590c517","ios":"levelo://app?vid=35e74e42-a783-49cd-884d-8a241590c517"},"vehicle_type_id":"4","last_reported":1732022420,"current_range_meters":39200,"station_id":"ce4bhph2rcd13ifvqhdg","pricing_plan_id":"cebpf4jnsgd1na2vs0mg"},{"bike_id":"ee5ad2bc-dd93-4a60-9deb-ff629596020e","system_id":"levelo_inurba_marseille","lat":43.24171,"lon":5.3973,"is_reserved":false,"is_disabled":false,"rental_uris":{"android":"levelo://app?vid=ee5ad2bc-dd93-4a60-9deb-ff629596020e","ios":"levelo://app?vid=ee5ad2bc-dd93-4a60-9deb-ff629596020e"},"vehicle_type_id":"4","last_reported":1732022420,"current_range_meters":38800,"station_id":"ce4bhn12rcd13ifvqgpg","pricing_plan_id":"cebpf4jnsgd1na2vs0mg"},{"bike_id":"35114f41-e371-4dc4-a460-06d37579febc","system_id":"levelo_inurba_marseille","lat":43.29797,"lon":5.38091,"is_reserved":false,"is_disabled":false,"rental_uris":{"android":"levelo://app?vid=35114f41-e371-4dc4-a460-06d37579febc","ios":"levelo://app?vid=35114f41-e371-4dc4-a460-06d37579febc"},"vehicle_type_id":"4","last_reported":1732022420,"current_range_meters":30400,"station_id":"ce4bgip2rcd13ifvqbb0","pricing_plan_id":"cebpf4jnsgd1na2vs0mg"},{"bike_id":"e5e2248a-03d3-4b07-b4f7-fd61796e9419","system_id":"levelo_inurba_marseille","lat":43.29979,"lon":5.38085,"is_reserved":false,"is_disabled":true,"rental_uris":{"android":"levelo://app?vid=e5e2248a-03d3-4b07-b4f7-fd61796e9419","ios":"levelo://app?vid=e5e2248a-03d3-4b07-b4f7-fd61796e9419"},"vehicle_type_id":"4","last_reported":1732022420,"current_range_meters":0,"station_id":"","pricing_plan_id":"cebpf4jnsgd1na2vs0mg"},{"bike_id":"cef1c7e3-5a53-4d4b-92f5-e6e5d30becae","system_id":"levelo_inurba_marseille","lat":43.30135,"lon":5.38056,"is_reserved":false,"is_disabled":false,"rental_uris":{"android":"levelo://app?vid=cef1c7e3-5a53-4d4b-92f5-e6e5d30becae","ios":"levelo://app?vid=cef1c7e3-5a53-4d4b-92f5-e6e5d30becae"},"vehicle_type_id":"4","last_reported":1732022420,"current_range_meters":13600,"station_id":"ce4bgjp2rcd13ifvqbh0","pricing_plan_id":"cebpf4jnsgd1na2vs0mg"},{"bike_id":"915b0a65-afa2-46d2-a67f-f083cd6c3587","system_id":"levelo_inurba_marseille","lat":43.29969,"lon":5.37201,"is_reserved":false,"is_disabled":false,"rental_uris":{"android":"levelo://app?vid=915b0a65-afa2-46d2-a67f-f083cd6c3587","ios":"levelo://app?vid=915b0a65-afa2-46d2-a67f-f083cd6c3587"},"vehicle_type_id":"4","last_reported":1732022420,"current_range_meters":33200,"station_id":"ce4bgr92rcd13ifvqc7g","pricing_plan_id":"cebpf4jnsgd1na2vs0mg"},{"bike_id":"3593ee49-3616-4cc6-a1da-bdf5d3e7063d","system_id":"levelo_inurba_marseille","lat":43.30148,"lon":5.38073,"is_reserved":false,"is_disabled":false,"rental_uris":{"android":"levelo://app?vid=3593ee49-3616-4cc6-a1da-bdf5d3e7063d","ios":"levelo://app?vid=3593ee49-3616-4cc6-a1da-bdf5d3e7063d"},"vehicle_type_id":"4","last_reported":1732022420,"current_range_meters":19600,"station_id":"ce4bgjp2rcd13ifvqbh0","pricing_plan_id":"cebpf4jnsgd1na2vs0mg"},{"bike_id":"cfbed237-c79f-4f65-b311-be4997dd399e","system_id":"levelo_inurba_marseille","lat":43.27207,"lon":5.39195,"is_reserved":false,"is_disabled":true,"rental_uris":{"android":"levelo://app?vid=cfbed237-c79f-4f65-b311-be4997dd399e","ios":"levelo://app?vid=cfbed237-c79f-4f65-b311-be4997dd399e"},"vehicle_type_id":"4","last_reported":1732022420,"current_range_meters":0,"station_id":"ce4bhhp2rcd13ifvqfm0","pricing_plan_id":"cebpf4jnsgd1na2vs0mg"},{"bike_id":"4a994919-48b5-495b-a981-52d72fc93e55","system_id":"levelo_inurba_marseille","lat":43.29371,"lon":5.37833,"is_reserved":false,"is_disabled":false,"rental_uris":{"android":"levelo://app?vid=4a994919-48b5-495b-a981-52d72fc93e55","ios":"levelo://app?vid=4a994919-48b5-495b-a981-52d72fc93e55"},"vehicle_type_id":"4","last_reported":1732022420,"current_range_meters":30800,"station_id":"ce4bgjh2rcd13ifvqbf0","pricing_plan_id":"cebpf4jnsgd1na2vs0mg"},{"bike_id":"af01c2ae-704f-4a39-93f5-94e2211ba87c","system_id":"levelo_inurba_marseille","lat":43.24367,"lon":5.37191,"is_reserved":false,"is_disabled":false,"rental_uris":{"android":"levelo://app?vid=af01c2ae-704f-4a39-93f5-94e2211ba87c","ios":"levelo://app?vid=af01c2ae-704f-4a39-93f5-94e2211ba87c"},"vehicle_type_id":"4","last_reported":1732022420,"current_range_meters":24000,"station_id":"ce4bhhh2rcd13ifvqfk0","pricing_plan_id":"cebpf4jnsgd1na2vs0mg"},{"bike_id":"f5c37f85-820d-442f-8676-9250e1c2d5d8","system_id":"levelo_inurba_marseille","lat":43.29565,"lon":5.37522,"is_reserved":false,"is_disabled":false,"rental_uris":{"android":"levelo://app?vid=f5c37f85-820d-442f-8676-9250e1c2d5d8","ios":"levelo://app?vid=f5c37f85-820d-442f-8676-9250e1c2d5d8"},"vehicle_type_id":"4","last_reported":1732022420,"current_range_meters":31200,"station_id":"ce4bgh92rcd13ifvqb50","pricing_plan_id":"cebpf4jnsgd1na2vs0mg"},{"bike_id":"2a270517-9d5b-492f-a609-2bf32ee97d0e","system_id":"levelo_inurba_marseille","lat":43.29573,"lon":5.37501,"is_reserved":false,"is_disabled":true,"rental_uris":{"android":"levelo://app?vid=2a270517-9d5b-492f-a609-2bf32ee97d0e","ios":"levelo://app?vid=2a270517-9d5b-492f-a609-2bf32ee97d0e"},"vehicle_type_id":"4","last_reported":1732022420,"current_range_meters":32800,"station_id":"ce4bgh92rcd13ifvqb50","pricing_plan_id":"cebpf4jnsgd1na2vs0mg"},{"bike_id":"7289239c-a3b0-403c-b810-a6e7cb8c855e","system_id":"levelo_inurba_marseille","lat":43.29032,"lon":5.37561,"is_reserved":false,"is_disabled":true,"rental_uris":{"android":"levelo://app?vid=7289239c-a3b0-403c-b810-a6e7cb8c855e","ios":"levelo://app?vid=7289239c-a3b0-403c-b810-a6e7cb8c855e"},"vehicle_type_id":"4","last_reported":1732022420,"current_range_meters":28400,"station_id":"ce4bh692rcd13ifvqe90","pricing_plan_id":"cebpf4jnsgd1na2vs0mg"},{"bike_id":"c84fdc91-8b77-49c6-815e-27a830cc2078","system_id":"levelo_inurba_marseille","lat":43.29036,"lon":5.37554,"is_reserved":false,"is_disabled":false,"rental_uris":{"android":"levelo://app?vid=c84fdc91-8b77-49c6-815e-27a830cc2078","ios":"levelo://app?vid=c84fdc91-8b77-49c6-815e-27a830cc2078"},"vehicle_type_id":"4","last_reported":1732022420,"current_range_meters":18000,"station_id":"ce4bh692rcd13ifvqe90","pricing_plan_id":"cebpf4jnsgd1na2vs0mg"},{"bike_id":"9f42bc7d-33d7-49d6-b4d2-d0c86606d847","system_id":"levelo_inurba_marseille","lat":43.28711,"lon":5.39987,"is_reserved":false,"is_disabled":false,"rental_uris":{"android":"levelo://app?vid=9f42bc7d-33d7-49d6-b4d2-d0c86606d847","ios":"levelo://app?vid=9f42bc7d-33d7-49d6-b4d2-d0c86606d847"},"vehicle_type_id":"4","last_reported":1732022420,"current_range_meters":38800,"station_id":"ce4bho92rcd13ifvqh3g","pricing_plan_id":"cebpf4jnsgd1na2vs0mg"},{"bike_id":"1ff970a9-d231-4bbd-92a9-fc25fa1a5bc7","system_id":"levelo_inurba_marseille","lat":43.30153,"lon":5.38086,"is_reserved":false,"is_disabled":false,"rental_uris":{"android":"levelo://app?vid=1ff970a9-d231-4bbd-92a9-fc25fa1a5bc7","ios":"levelo://app?vid=1ff970a9-d231-4bbd-92a9-fc25fa1a5bc7"},"vehicle_type_id":"4","last_reported":1732022420,"current_range_meters":37600,"station_id":"ce4bgjp2rcd13ifvqbh0","pricing_plan_id":"cebpf4jnsgd1na2vs0mg"},{"bike_id":"f1888b1a-22ac-4f8d-8a07-bea9e3e6d605","system_id":"levelo_inurba_marseille","lat":43.30902,"lon":5.36853,"is_reserved":false,"is_disabled":true,"rental_uris":{"android":"levelo://app?vid=f1888b1a-22ac-4f8d-8a07-bea9e3e6d605","ios":"levelo://app?vid=f1888b1a-22ac-4f8d-8a07-bea9e3e6d605"},"vehicle_type_id":"4","last_reported":1732022420,"current_range_meters":1200,"station_id":"ce4bgn92rcd13ifvqbvg","pricing_plan_id":"cebpf4jnsgd1na2vs0mg"},{"bike_id":"24b2c3eb-8b9b-40a7-8aad-177c7a5a5f47","system_id":"levelo_inurba_marseille","lat":43.26934,"lon":5.38909,"is_reserved":false,"is_disabled":true,"rental_uris":{"android":"levelo://app?vid=24b2c3eb-8b9b-40a7-8aad-177c7a5a5f47","ios":"levelo://app?vid=24b2c3eb-8b9b-40a7-8aad-177c7a5a5f47"},"vehicle_type_id":"4","last_reported":1732022420,"current_range_meters":0,"station_id":"ce4bhhh2rcd13ifvqfl0","pricing_plan_id":"cebpf4jnsgd1na2vs0mg"},{"bike_id":"b80bc086-241e-444a-883b-f0b9cbe142b6","system_id":"levelo_inurba_marseille","lat":43.30155,"lon":5.38052,"is_reserved":false,"is_disabled":false,"rental_uris":{"android":"levelo://app?vid=b80bc086-241e-444a-883b-f0b9cbe142b6","ios":"levelo://app?vid=b80bc086-241e-444a-883b-f0b9cbe142b6"},"vehicle_type_id":"4","last_reported":1732022420,"current_range_meters":38800,"station_id":"ce4bgjp2rcd13ifvqbh0","pricing_plan_id":"cebpf4jnsgd1na2vs0mg"},{"bike_id":"0c21866d-64a6-48bd-84ec-2cdb016bb953","system_id":"levelo_inurba_marseille","lat":43.24391,"lon":5.37056,"is_reserved":false,"is_disabled":true,"rental_uris":{"android":"levelo://app?vid=0c21866d-64a6-48bd-84ec-2cdb016bb953","ios":"levelo://app?vid=0c21866d-64a6-48bd-84ec-2cdb016bb953"},"vehicle_type_id":"4","last_reported":1732022420,"current_range_meters":0,"station_id":"ce4bhhh2rcd13ifvqfk0","pricing_plan_id":"cebpf4jnsgd1na2vs0mg"},{"bike_id":"6b63788c-aa6e-48f1-bdf6-6825439f0077","system_id":"levelo_inurba_marseille","lat":43.322632,"lon":5.406497,"is_reserved":false,"is_disabled":false,"rental_uris":{"android":"levelo://app?vid=6b63788c-aa6e-48f1-bdf6-6825439f0077","ios":"levelo://app?vid=6b63788c-aa6e-48f1-bdf6-6825439f0077"},"vehicle_type_id":"4","last_reported":1732022420,"current_range_meters":38400,"station_id":"ce4bhq92rcd13ifvqhjg","pricing_plan_id":"cebpf4jnsgd1na2vs0mg"},{"bike_id":"8d9c7874-6ecd-4ea0-a9e8-ef53041c8d83","system_id":"levelo_inurba_marseille","lat":43.31362,"lon":5.38512,"is_reserved":false,"is_disabled":true,"rental_uris":{"android":"levelo://app?vid=8d9c7874-6ecd-4ea0-a9e8-ef53041c8d83","ios":"levelo://app?vid=8d9c7874-6ecd-4ea0-a9e8-ef53041c8d83"},"vehicle_type_id":"4","last_reported":1732022420,"current_range_meters":36000,"station_id":"ce4bgt92rcd13ifvqcf0","pricing_plan_id":"cebpf4jnsgd1na2vs0mg"},{"bike_id":"9b4d52a8-a22b-418c-a556-65afaca3a235","system_id":"levelo_inurba_marseille","lat":43.337444,"lon":5.374475,"is_reserved":false,"is_disabled":false,"rental_uris":{"android":"levelo://app?vid=9b4d52a8-a22b-418c-a556-65afaca3a235","ios":"levelo://app?vid=9b4d52a8-a22b-418c-a556-65afaca3a235"},"vehicle_type_id":"4","last_reported":1732022420,"current_range_meters":37600,"station_id":"","pricing_plan_id":"cebpf4jnsgd1na2vs0mg"},{"bike_id":"294a5539-05be-4371-aa35-6a3488552211","system_id":"levelo_inurba_marseille","lat":43.30097,"lon":5.39083,"is_reserved":false,"is_disabled":false,"rental_uris":{"android":"levelo://app?vid=294a5539-05be-4371-aa35-6a3488552211","ios":"levelo://app?vid=294a5539-05be-4371-aa35-6a3488552211"},"vehicle_type_id":"4","last_reported":1732022420,"current_range_meters":39200,"station_id":"ce4bh192rcd13ifvqdb0","pricing_plan_id":"cebpf4jnsgd1na2vs0mg"},{"bike_id":"d11f792a-d702-4584-a3d4-51714936f580","system_id":"levelo_inurba_marseille","lat":43.30605,"lon":5.37224,"is_reserved":false,"is_disabled":false,"rental_uris":{"android":"levelo://app?vid=d11f792a-d702-4584-a3d4-51714936f580","ios":"levelo://app?vid=d11f792a-d702-4584-a3d4-51714936f580"},"vehicle_type_id":"4","last_reported":1732022420,"current_range_meters":28000,"station_id":"ce4bgqh2rcd13ifvqc4g","pricing_plan_id":"cebpf4jnsgd1na2vs0mg"},{"bike_id":"d6e54eb8-b569-4670-b12b-fc7e345ccec9","system_id":"levelo_inurba_marseille","lat":43.29729,"lon":5.37689,"is_reserved":false,"is_disabled":false,"rental_uris":{"android":"levelo://app?vid=d6e54eb8-b569-4670-b12b-fc7e345ccec9","ios":"levelo://app?vid=d6e54eb8-b569-4670-b12b-fc7e345ccec9"},"vehicle_type_id":"4","last_reported":1732022420,"current_range_meters":36800,"station_id":"ce4bgkh2rcd13ifvqbl0","pricing_plan_id":"cebpf4jnsgd1na2vs0mg"},{"bike_id":"d1b604a8-334d-4cfc-ba9c-720d8061c18c","system_id":"levelo_inurba_marseille","lat":43.30603,"lon":5.37226,"is_reserved":false,"is_disabled":false,"rental_uris":{"android":"levelo://app?vid=d1b604a8-334d-4cfc-ba9c-720d8061c18c","ios":"levelo://app?vid=d1b604a8-334d-4cfc-ba9c-720d8061c18c"},"vehicle_type_id":"4","last_reported":1732022420,"current_range_meters":26800,"station_id":"ce4bgqh2rcd13ifvqc4g","pricing_plan_id":"cebpf4jnsgd1na2vs0mg"},{"bike_id":"ce393df3-8ef1-4575-b45f-1f5c9b7a18cd","system_id":"levelo_inurba_marseille","lat":43.29841,"lon":5.36273,"is_reserved":false,"is_disabled":false,"rental_uris":{"android":"levelo://app?vid=ce393df3-8ef1-4575-b45f-1f5c9b7a18cd","ios":"levelo://app?vid=ce393df3-8ef1-4575-b45f-1f5c9b7a18cd"},"vehicle_type_id":"4","last_reported":1732022420,"current_range_meters":22000,"station_id":"ce4bgpp2rcd13ifvqc3g","pricing_plan_id":"cebpf4jnsgd1na2vs0mg"},{"bike_id":"3b0c545d-4cf2-4e15-900f-03b6156ee277","system_id":"levelo_inurba_marseille","lat":43.30911,"lon":5.36856,"is_reserved":false,"is_disabled":false,"rental_uris":{"android":"levelo://app?vid=3b0c545d-4cf2-4e15-900f-03b6156ee277","ios":"levelo://app?vid=3b0c545d-4cf2-4e15-900f-03b6156ee277"},"vehicle_type_id":"4","last_reported":1732022420,"current_range_meters":26000,"station_id":"ce4bgn92rcd13ifvqbvg","pricing_plan_id":"cebpf4jnsgd1na2vs0mg"},{"bike_id":"d9171ca5-fbc7-431c-8fe9-0cb929df67cc","system_id":"levelo_inurba_marseille","lat":43.28272,"lon":5.35062,"is_reserved":false,"is_disabled":false,"rental_uris":{"android":"levelo://app?vid=d9171ca5-fbc7-431c-8fe9-0cb929df67cc","ios":"levelo://app?vid=d9171ca5-fbc7-431c-8fe9-0cb929df67cc"},"vehicle_type_id":"4","last_reported":1732022420,"current_range_meters":36800,"station_id":"ce4bhbp2rcd13ifvqerg","pricing_plan_id":"cebpf4jnsgd1na2vs0mg"},{"bike_id":"d0266dd6-ef49-4087-8ebb-3a1f27465cdf","system_id":"levelo_inurba_marseille","lat":43.29256,"lon":5.38429,"is_reserved":false,"is_disabled":false,"rental_uris":{"android":"levelo://app?vid=d0266dd6-ef49-4087-8ebb-3a1f27465cdf","ios":"levelo://app?vid=d0266dd6-ef49-4087-8ebb-3a1f27465cdf"},"vehicle_type_id":"4","last_reported":1732022420,"current_range_meters":14400,"station_id":"ce4bh692rcd13ifvqea0","pricing_plan_id":"cebpf4jnsgd1na2vs0mg"},{"bike_id":"adc56414-ff01-408b-87c1-1f9cbdadcf06","system_id":"levelo_inurba_marseille","lat":43.30457,"lon":5.37901,"is_reserved":false,"is_disabled":false,"rental_uris":{"android":"levelo://app?vid=adc56414-ff01-408b-87c1-1f9cbdadcf06","ios":"levelo://app?vid=adc56414-ff01-408b-87c1-1f9cbdadcf06"},"vehicle_type_id":"4","last_reported":1732022420,"current_range_meters":38800,"station_id":"ce4bgup2rcd13ifvqcn0","pricing_plan_id":"cebpf4jnsgd1na2vs0mg"},{"bike_id":"1030ffbf-ef47-46f0-ad42-87b2f253bc72","system_id":"levelo_inurba_marseille","lat":43.29273,"lon":5.40115,"is_reserved":false,"is_disabled":false,"rental_uris":{"android":"levelo://app?vid=1030ffbf-ef47-46f0-ad42-87b2f253bc72","ios":"levelo://app?vid=1030ffbf-ef47-46f0-ad42-87b2f253bc72"},"vehicle_type_id":"4","last_reported":1732022420,"current_range_meters":38400,"station_id":"ce4bh312rcd13ifvqdk0","pricing_plan_id":"cebpf4jnsgd1na2vs0mg"},{"bike_id":"1462f68e-113f-431d-9d5b-f4d7f987f2b8","system_id":"levelo_inurba_marseille","lat":43.28483,"lon":5.38433,"is_reserved":false,"is_disabled":true,"rental_uris":{"android":"levelo://app?vid=1462f68e-113f-431d-9d5b-f4d7f987f2b8","ios":"levelo://app?vid=1462f68e-113f-431d-9d5b-f4d7f987f2b8"},"vehicle_type_id":"4","last_reported":1732022420,"current_range_meters":14800,"station_id":"ce4bh512rcd13ifvqe3g","pricing_plan_id":"cebpf4jnsgd1na2vs0mg"},{"bike_id":"92265e91-c501-4b60-9c87-ba6c845ad6b3","system_id":"levelo_inurba_marseille","lat":43.23156,"lon":5.43712,"is_reserved":false,"is_disabled":false,"rental_uris":{"android":"levelo://app?vid=92265e91-c501-4b60-9c87-ba6c845ad6b3","ios":"levelo://app?vid=92265e91-c501-4b60-9c87-ba6c845ad6b3"},"vehicle_type_id":"4","last_reported":1732022420,"current_range_meters":3600,"station_id":"ce4bhmp2rcd13ifvqgog","pricing_plan_id":"cebpf4jnsgd1na2vs0mg"},{"bike_id":"b9f521ff-4210-48a8-86f2-695a4551af32","system_id":"levelo_inurba_marseille","lat":43.29164,"lon":5.37151,"is_reserved":false,"is_disabled":true,"rental_uris":{"android":"levelo://app?vid=b9f521ff-4210-48a8-86f2-695a4551af32","ios":"levelo://app?vid=b9f521ff-4210-48a8-86f2-695a4551af32"},"vehicle_type_id":"4","last_reported":1732022420,"current_range_meters":11600,"station_id":"ce4bha92rcd13ifvqeh0","pricing_plan_id":"cebpf4jnsgd1na2vs0mg"},{"bike_id":"0b733133-03c9-4766-961e-92b775b50bbc","system_id":"levelo_inurba_marseille","lat":43.28193,"lon":5.44263,"is_reserved":false,"is_disabled":true,"rental_uris":{"android":"levelo://app?vid=0b733133-03c9-4766-961e-92b775b50bbc","ios":"levelo://app?vid=0b733133-03c9-4766-961e-92b775b50bbc"},"vehicle_type_id":"4","last_reported":1732022420,"current_range_meters":0,"station_id":"","pricing_plan_id":"cebpf4jnsgd1na2vs0mg"},{"bike_id":"9ea5fa0f-fa87-4849-b59e-71d3ab8a1d43","system_id":"levelo_inurba_marseille","lat":43.29226,"lon":5.36066,"is_reserved":false,"is_disabled":false,"rental_uris":{"android":"levelo://app?vid=9ea5fa0f-fa87-4849-b59e-71d3ab8a1d43","ios":"levelo://app?vid=9ea5fa0f-fa87-4849-b59e-71d3ab8a1d43"},"vehicle_type_id":"4","last_reported":1732022420,"current_range_meters":29600,"station_id":"ce4bhbh2rcd13ifvqeqg","pricing_plan_id":"cebpf4jnsgd1na2vs0mg"},{"bike_id":"b5023e77-685c-4095-9285-63360c917af5","system_id":"levelo_inurba_marseille","lat":43.30132,"lon":5.38783,"is_reserved":false,"is_disabled":false,"rental_uris":{"android":"levelo://app?vid=b5023e77-685c-4095-9285-63360c917af5","ios":"levelo://app?vid=b5023e77-685c-4095-9285-63360c917af5"},"vehicle_type_id":"4","last_reported":1732022420,"current_range_meters":38800,"station_id":"ce4bghh2rcd13ifvqb60","pricing_plan_id":"cebpf4jnsgd1na2vs0mg"},{"bike_id":"4cba050b-d851-4ee5-8ce0-ea7f25d9c27b","system_id":"levelo_inurba_marseille","lat":43.27489,"lon":5.42459,"is_reserved":false,"is_disabled":false,"rental_uris":{"android":"levelo://app?vid=4cba050b-d851-4ee5-8ce0-ea7f25d9c27b","ios":"levelo://app?vid=4cba050b-d851-4ee5-8ce0-ea7f25d9c27b"},"vehicle_type_id":"4","last_reported":1732022420,"current_range_meters":37600,"station_id":"ce4bhn92rcd13ifvqgrg","pricing_plan_id":"cebpf4jnsgd1na2vs0mg"},{"bike_id":"c4c95739-ad31-423c-a98a-2aaceff657a2","system_id":"levelo_inurba_marseille","lat":43.30949,"lon":5.39048,"is_reserved":false,"is_disabled":true,"rental_uris":{"android":"levelo://app?vid=c4c95739-ad31-423c-a98a-2aaceff657a2","ios":"levelo://app?vid=c4c95739-ad31-423c-a98a-2aaceff657a2"},"vehicle_type_id":"4","last_reported":1732022420,"current_range_meters":11200,"station_id":"ce4bgup2rcd13ifvqco0","pricing_plan_id":"cebpf4jnsgd1na2vs0mg"},{"bike_id":"7a62bdc9-e634-46ba-b613-31b659662f35","system_id":"levelo_inurba_marseille","lat":43.2781,"lon":5.40714,"is_reserved":false,"is_disabled":false,"rental_uris":{"android":"levelo://app?vid=7a62bdc9-e634-46ba-b613-31b659662f35","ios":"levelo://app?vid=7a62bdc9-e634-46ba-b613-31b659662f35"},"vehicle_type_id":"4","last_reported":1732022420,"current_range_meters":38800,"station_id":"ce4bhnh2rcd13ifvqgtg","pricing_plan_id":"cebpf4jnsgd1na2vs0mg"},{"bike_id":"e65461e3-d425-4dee-a20c-933c7023442e","system_id":"levelo_inurba_marseille","lat":43.30253,"lon":5.40074,"is_reserved":false,"is_disabled":true,"rental_uris":{"android":"levelo://app?vid=e65461e3-d425-4dee-a20c-933c7023442e","ios":"levelo://app?vid=e65461e3-d425-4dee-a20c-933c7023442e"},"vehicle_type_id":"4","last_reported":1732022420,"current_range_meters":38000,"station_id":"ce4bgvh2rcd13ifvqcs0","pricing_plan_id":"cebpf4jnsgd1na2vs0mg"},{"bike_id":"1cb5b2e9-c45d-4b7d-9feb-af26d6fa3bf9","system_id":"levelo_inurba_marseille","lat":43.27317,"lon":5.39068,"is_reserved":false,"is_disabled":false,"rental_uris":{"android":"levelo://app?vid=1cb5b2e9-c45d-4b7d-9feb-af26d6fa3bf9","ios":"levelo://app?vid=1cb5b2e9-c45d-4b7d-9feb-af26d6fa3bf9"},"vehicle_type_id":"4","last_reported":1732022420,"current_range_meters":24000,"station_id":"ce4bhgp2rcd13ifvqfe0","pricing_plan_id":"cebpf4jnsgd1na2vs0mg"},{"bike_id":"bf616fda-0885-4bcf-8258-bc47aa3041a1","system_id":"levelo_inurba_marseille","lat":43.32478,"lon":5.36567,"is_reserved":false,"is_disabled":false,"rental_uris":{"android":"levelo://app?vid=bf616fda-0885-4bcf-8258-bc47aa3041a1","ios":"levelo://app?vid=bf616fda-0885-4bcf-8258-bc47aa3041a1"},"vehicle_type_id":"4","last_reported":1732022420,"current_range_meters":38800,"station_id":"ce4bhs12rcd13ifvqhvg","pricing_plan_id":"cebpf4jnsgd1na2vs0mg"},{"bike_id":"ab241146-8d68-400b-9cef-354922087bca","system_id":"levelo_inurba_marseille","lat":43.272077,"lon":5.391848,"is_reserved":false,"is_disabled":false,"rental_uris":{"android":"levelo://app?vid=ab241146-8d68-400b-9cef-354922087bca","ios":"levelo://app?vid=ab241146-8d68-400b-9cef-354922087bca"},"vehicle_type_id":"4","last_reported":1732022420,"current_range_meters":12400,"station_id":"ce4bhhp2rcd13ifvqfm0","pricing_plan_id":"cebpf4jnsgd1na2vs0mg"},{"bike_id":"bc6a19b9-da54-4fe5-945f-4babdc0bb535","system_id":"levelo_inurba_marseille","lat":43.30804,"lon":5.38152,"is_reserved":false,"is_disabled":false,"rental_uris":{"android":"levelo://app?vid=bc6a19b9-da54-4fe5-945f-4babdc0bb535","ios":"levelo://app?vid=bc6a19b9-da54-4fe5-945f-4babdc0bb535"},"vehicle_type_id":"4","last_reported":1732022420,"current_range_meters":28400,"station_id":"ce4bgt12rcd13ifvqce0","pricing_plan_id":"cebpf4jnsgd1na2vs0mg"},{"bike_id":"d24838ef-51f2-4a46-80c3-07ea5b39f777","system_id":"levelo_inurba_marseille","lat":43.24078,"lon":5.37757,"is_reserved":false,"is_disabled":false,"rental_uris":{"android":"levelo://app?vid=d24838ef-51f2-4a46-80c3-07ea5b39f777","ios":"levelo://app?vid=d24838ef-51f2-4a46-80c3-07ea5b39f777"},"vehicle_type_id":"4","last_reported":1732022420,"current_range_meters":39200,"station_id":"ce4bhnp2rcd13ifvqgvg","pricing_plan_id":"cebpf4jnsgd1na2vs0mg"},{"bike_id":"4b52e9da-9694-41f2-8a79-d9e1e8f3d9eb","system_id":"levelo_inurba_marseille","lat":43.26953,"lon":5.3863,"is_reserved":false,"is_disabled":false,"rental_uris":{"android":"levelo://app?vid=4b52e9da-9694-41f2-8a79-d9e1e8f3d9eb","ios":"levelo://app?vid=4b52e9da-9694-41f2-8a79-d9e1e8f3d9eb"},"vehicle_type_id":"4","last_reported":1732022420,"current_range_meters":4400,"station_id":"ce4bhh92rcd13ifvqfh0","pricing_plan_id":"cebpf4jnsgd1na2vs0mg"},{"bike_id":"20d43469-0b35-4110-9c40-be0f1a781705","system_id":"levelo_inurba_marseille","lat":43.26208,"lon":5.37449,"is_reserved":false,"is_disabled":false,"rental_uris":{"android":"levelo://app?vid=20d43469-0b35-4110-9c40-be0f1a781705","ios":"levelo://app?vid=20d43469-0b35-4110-9c40-be0f1a781705"},"vehicle_type_id":"4","last_reported":1732022420,"current_range_meters":27600,"station_id":"ce4bhgp2rcd13ifvqfc0","pricing_plan_id":"cebpf4jnsgd1na2vs0mg"},{"bike_id":"218b372f-fe88-4325-8035-22b8ac792ee5","system_id":"levelo_inurba_marseille","lat":43.255,"lon":5.37651,"is_reserved":false,"is_disabled":false,"rental_uris":{"android":"levelo://app?vid=218b372f-fe88-4325-8035-22b8ac792ee5","ios":"levelo://app?vid=218b372f-fe88-4325-8035-22b8ac792ee5"},"vehicle_type_id":"4","last_reported":1732022420,"current_range_meters":18800,"station_id":"ce4bhh12rcd13ifvqff0","pricing_plan_id":"cebpf4jnsgd1na2vs0mg"},{"bike_id":"f34c365c-22c3-4859-ae3e-c26c7079b980","system_id":"levelo_inurba_marseille","lat":43.25725,"lon":5.41118,"is_reserved":false,"is_disabled":false,"rental_uris":{"android":"levelo://app?vid=f34c365c-22c3-4859-ae3e-c26c7079b980","ios":"levelo://app?vid=f34c365c-22c3-4859-ae3e-c26c7079b980"},"vehicle_type_id":"4","last_reported":1732022420,"current_range_meters":24400,"station_id":"ce4bhkp2rcd13ifvqgd0","pricing_plan_id":"cebpf4jnsgd1na2vs0mg"},{"bike_id":"9f1dfffb-1213-4f6e-84d3-a2f0789a9ef3","system_id":"levelo_inurba_marseille","lat":43.27626,"lon":5.35892,"is_reserved":false,"is_disabled":true,"rental_uris":{"android":"levelo://app?vid=9f1dfffb-1213-4f6e-84d3-a2f0789a9ef3","ios":"levelo://app?vid=9f1dfffb-1213-4f6e-84d3-a2f0789a9ef3"},"vehicle_type_id":"4","last_reported":1732022420,"current_range_meters":0,"station_id":"","pricing_plan_id":"cebpf4jnsgd1na2vs0mg"},{"bike_id":"8dfe3502-1a44-41d0-93ec-2f8847296f61","system_id":"levelo_inurba_marseille","lat":43.29191,"lon":5.35804,"is_reserved":false,"is_disabled":true,"rental_uris":{"android":"levelo://app?vid=8dfe3502-1a44-41d0-93ec-2f8847296f61","ios":"levelo://app?vid=8dfe3502-1a44-41d0-93ec-2f8847296f61"},"vehicle_type_id":"4","last_reported":1732022420,"current_range_meters":39200,"station_id":"ce4bhb12rcd13ifvqel0","pricing_plan_id":"cebpf4jnsgd1na2vs0mg"},{"bike_id":"954054ad-77ac-46c3-a1b5-c8fc266a522b","system_id":"levelo_inurba_marseille","lat":43.31725,"lon":5.42397,"is_reserved":false,"is_disabled":false,"rental_uris":{"android":"levelo://app?vid=954054ad-77ac-46c3-a1b5-c8fc266a522b","ios":"levelo://app?vid=954054ad-77ac-46c3-a1b5-c8fc266a522b"},"vehicle_type_id":"4","last_reported":1732022420,"current_range_meters":39200,"station_id":"ce4bhp92rcd13ifvqhbg","pricing_plan_id":"cebpf4jnsgd1na2vs0mg"},{"bike_id":"a068dc40-1862-43fc-975c-c8329fcb1c80","system_id":"levelo_inurba_marseille","lat":43.27315,"lon":5.39079,"is_reserved":false,"is_disabled":false,"rental_uris":{"android":"levelo://app?vid=a068dc40-1862-43fc-975c-c8329fcb1c80","ios":"levelo://app?vid=a068dc40-1862-43fc-975c-c8329fcb1c80"},"vehicle_type_id":"4","last_reported":1732022420,"current_range_meters":1600,"station_id":"ce4bhgp2rcd13ifvqfe0","pricing_plan_id":"cebpf4jnsgd1na2vs0mg"},{"bike_id":"9c4a655e-2680-4a60-a844-6a2ea62fb4b1","system_id":"levelo_inurba_marseille","lat":43.26062,"lon":5.39404,"is_reserved":false,"is_disabled":true,"rental_uris":{"android":"levelo://app?vid=9c4a655e-2680-4a60-a844-6a2ea62fb4b1","ios":"levelo://app?vid=9c4a655e-2680-4a60-a844-6a2ea62fb4b1"},"vehicle_type_id":"4","last_reported":1732022420,"current_range_meters":28400,"station_id":"ce4bhh92rcd13ifvqfj0","pricing_plan_id":"cebpf4jnsgd1na2vs0mg"},{"bike_id":"2d983866-913c-4390-ae48-1873d10c9730","system_id":"levelo_inurba_marseille","lat":43.24813,"lon":5.37458,"is_reserved":false,"is_disabled":true,"rental_uris":{"android":"levelo://app?vid=2d983866-913c-4390-ae48-1873d10c9730","ios":"levelo://app?vid=2d983866-913c-4390-ae48-1873d10c9730"},"vehicle_type_id":"4","last_reported":1732022420,"current_range_meters":16400,"station_id":"ce4bhgh2rcd13ifvqfb0","pricing_plan_id":"cebpf4jnsgd1na2vs0mg"},{"bike_id":"92338745-504d-4f12-a1e8-87d252e5e9c9","system_id":"levelo_inurba_marseille","lat":43.28915,"lon":5.38404,"is_reserved":false,"is_disabled":false,"rental_uris":{"android":"levelo://app?vid=92338745-504d-4f12-a1e8-87d252e5e9c9","ios":"levelo://app?vid=92338745-504d-4f12-a1e8-87d252e5e9c9"},"vehicle_type_id":"4","last_reported":1732022420,"current_range_meters":37600,"station_id":"ce4bh612rcd13ifvqe6g","pricing_plan_id":"cebpf4jnsgd1na2vs0mg"},{"bike_id":"7f68a205-4c15-4be6-b00b-5b00fb5cc3c4","system_id":"levelo_inurba_marseille","lat":43.29195,"lon":5.39321,"is_reserved":false,"is_disabled":false,"rental_uris":{"android":"levelo://app?vid=7f68a205-4c15-4be6-b00b-5b00fb5cc3c4","ios":"levelo://app?vid=7f68a205-4c15-4be6-b00b-5b00fb5cc3c4"},"vehicle_type_id":"4","last_reported":1732022420,"current_range_meters":27200,"station_id":"ce4bh192rcd13ifvqdd0","pricing_plan_id":"cebpf4jnsgd1na2vs0mg"},{"bike_id":"88196073-5d79-4eef-8b98-5b6c67eee457","system_id":"levelo_inurba_marseille","lat":43.31083,"lon":5.4243,"is_reserved":false,"is_disabled":true,"rental_uris":{"android":"levelo://app?vid=88196073-5d79-4eef-8b98-5b6c67eee457","ios":"levelo://app?vid=88196073-5d79-4eef-8b98-5b6c67eee457"},"vehicle_type_id":"4","last_reported":1732022420,"current_range_meters":16400,"station_id":"ce4bhp92rcd13ifvqhag","pricing_plan_id":"cebpf4jnsgd1na2vs0mg"},{"bike_id":"0d3fddb3-866d-4429-b4bd-8f3b498b5dc4","system_id":"levelo_inurba_marseille","lat":43.29776,"lon":5.37113,"is_reserved":false,"is_disabled":false,"rental_uris":{"android":"levelo://app?vid=0d3fddb3-866d-4429-b4bd-8f3b498b5dc4","ios":"levelo://app?vid=0d3fddb3-866d-4429-b4bd-8f3b498b5dc4"},"vehicle_type_id":"4","last_reported":1732022420,"current_range_meters":28800,"station_id":"ce4bgop2rcd13ifvqc1g","pricing_plan_id":"cebpf4jnsgd1na2vs0mg"},{"bike_id":"26aa3350-5741-42f6-b56b-c117d943bdc0","system_id":"levelo_inurba_marseille","lat":43.32539,"lon":5.41437,"is_reserved":false,"is_disabled":false,"rental_uris":{"android":"levelo://app?vid=26aa3350-5741-42f6-b56b-c117d943bdc0","ios":"levelo://app?vid=26aa3350-5741-42f6-b56b-c117d943bdc0"},"vehicle_type_id":"4","last_reported":1732022420,"current_range_meters":31200,"station_id":"ce4bhq12rcd13ifvqhhg","pricing_plan_id":"cebpf4jnsgd1na2vs0mg"},{"bike_id":"4430c7fe-75c4-4750-ade5-2860cae79f17","system_id":"levelo_inurba_marseille","lat":43.23148,"lon":5.43706,"is_reserved":false,"is_disabled":false,"rental_uris":{"android":"levelo://app?vid=4430c7fe-75c4-4750-ade5-2860cae79f17","ios":"levelo://app?vid=4430c7fe-75c4-4750-ade5-2860cae79f17"},"vehicle_type_id":"4","last_reported":1732022420,"current_range_meters":38800,"station_id":"ce4bhmp2rcd13ifvqgog","pricing_plan_id":"cebpf4jnsgd1na2vs0mg"},{"bike_id":"d743009b-8dea-4309-8ae3-dd0156106950","system_id":"levelo_inurba_marseille","lat":43.30128,"lon":5.388,"is_reserved":false,"is_disabled":false,"rental_uris":{"android":"levelo://app?vid=d743009b-8dea-4309-8ae3-dd0156106950","ios":"levelo://app?vid=d743009b-8dea-4309-8ae3-dd0156106950"},"vehicle_type_id":"4","last_reported":1732022420,"current_range_meters":9200,"station_id":"ce4bghh2rcd13ifvqb60","pricing_plan_id":"cebpf4jnsgd1na2vs0mg"},{"bike_id":"e264033a-f915-4b27-a08a-2f42cfcf052a","system_id":"levelo_inurba_marseille","lat":43.33764,"lon":5.37429,"is_reserved":false,"is_disabled":false,"rental_uris":{"android":"levelo://app?vid=e264033a-f915-4b27-a08a-2f42cfcf052a","ios":"levelo://app?vid=e264033a-f915-4b27-a08a-2f42cfcf052a"},"vehicle_type_id":"4","last_reported":1732022420,"current_range_meters":32800,"station_id":"","pricing_plan_id":"cebpf4jnsgd1na2vs0mg"},{"bike_id":"affc6a42-c87f-4640-9297-4a4ea6bc3ad3","system_id":"levelo_inurba_marseille","lat":43.29557,"lon":5.42288,"is_reserved":false,"is_disabled":false,"rental_uris":{"android":"levelo://app?vid=affc6a42-c87f-4640-9297-4a4ea6bc3ad3","ios":"levelo://app?vid=affc6a42-c87f-4640-9297-4a4ea6bc3ad3"},"vehicle_type_id":"4","last_reported":1732022420,"current_range_meters":38800,"station_id":"ce4bhph2rcd13ifvqhdg","pricing_plan_id":"cebpf4jnsgd1na2vs0mg"},{"bike_id":"3b12fc55-9a5a-4f6e-b672-00e157dd6539","system_id":"levelo_inurba_marseille","lat":43.300912,"lon":5.390806,"is_reserved":false,"is_disabled":false,"rental_uris":{"android":"levelo://app?vid=3b12fc55-9a5a-4f6e-b672-00e157dd6539","ios":"levelo://app?vid=3b12fc55-9a5a-4f6e-b672-00e157dd6539"},"vehicle_type_id":"4","last_reported":1732022420,"current_range_meters":38400,"station_id":"ce4bh192rcd13ifvqdb0","pricing_plan_id":"cebpf4jnsgd1na2vs0mg"},{"bike_id":"123862ba-68e2-48f6-a477-31ab9dae8bd5","system_id":"levelo_inurba_marseille","lat":43.337444,"lon":5.374475,"is_reserved":false,"is_disabled":true,"rental_uris":{"android":"levelo://app?vid=123862ba-68e2-48f6-a477-31ab9dae8bd5","ios":"levelo://app?vid=123862ba-68e2-48f6-a477-31ab9dae8bd5"},"vehicle_type_id":"4","last_reported":1732022420,"current_range_meters":16000,"station_id":"","pricing_plan_id":"cebpf4jnsgd1na2vs0mg"},{"bike_id":"25ddf417-8230-4dbc-b38a-2b2cb1ba9d73","system_id":"levelo_inurba_marseille","lat":43.30285,"lon":5.377,"is_reserved":false,"is_disabled":false,"rental_uris":{"android":"levelo://app?vid=25ddf417-8230-4dbc-b38a-2b2cb1ba9d73","ios":"levelo://app?vid=25ddf417-8230-4dbc-b38a-2b2cb1ba9d73"},"vehicle_type_id":"4","last_reported":1732022420,"current_range_meters":38800,"station_id":"ce4bguh2rcd13ifvqcj0","pricing_plan_id":"cebpf4jnsgd1na2vs0mg"},{"bike_id":"3c880f4e-66d1-48ae-bc71-5a418335d036","system_id":"levelo_inurba_marseille","lat":43.29555,"lon":5.42296,"is_reserved":false,"is_disabled":false,"rental_uris":{"android":"levelo://app?vid=3c880f4e-66d1-48ae-bc71-5a418335d036","ios":"levelo://app?vid=3c880f4e-66d1-48ae-bc71-5a418335d036"},"vehicle_type_id":"4","last_reported":1732022420,"current_range_meters":18000,"station_id":"ce4bhph2rcd13ifvqhdg","pricing_plan_id":"cebpf4jnsgd1na2vs0mg"},{"bike_id":"c0414705-628e-4ecb-a390-6a6747dfe975","system_id":"levelo_inurba_marseille","lat":43.30427,"lon":5.36749,"is_reserved":false,"is_disabled":false,"rental_uris":{"android":"levelo://app?vid=c0414705-628e-4ecb-a390-6a6747dfe975","ios":"levelo://app?vid=c0414705-628e-4ecb-a390-6a6747dfe975"},"vehicle_type_id":"4","last_reported":1732022420,"current_range_meters":36000,"station_id":"","pricing_plan_id":"cebpf4jnsgd1na2vs0mg"},{"bike_id":"5c62cb52-7820-44a7-8c14-8ae70ccd75ae","system_id":"levelo_inurba_marseille","lat":43.27963,"lon":5.38726,"is_reserved":false,"is_disabled":false,"rental_uris":{"android":"levelo://app?vid=5c62cb52-7820-44a7-8c14-8ae70ccd75ae","ios":"levelo://app?vid=5c62cb52-7820-44a7-8c14-8ae70ccd75ae"},"vehicle_type_id":"4","last_reported":1732022420,"current_range_meters":35200,"station_id":"ce4bhg12rcd13ifvqf80","pricing_plan_id":"cebpf4jnsgd1na2vs0mg"},{"bike_id":"82b0d54c-2a7f-4f37-8989-121c374f3bd7","system_id":"levelo_inurba_marseille","lat":43.29912,"lon":5.38142,"is_reserved":false,"is_disabled":false,"rental_uris":{"android":"levelo://app?vid=82b0d54c-2a7f-4f37-8989-121c374f3bd7","ios":"levelo://app?vid=82b0d54c-2a7f-4f37-8989-121c374f3bd7"},"vehicle_type_id":"4","last_reported":1732022420,"current_range_meters":30400,"station_id":"ce4bgj12rcd13ifvqbc0","pricing_plan_id":"cebpf4jnsgd1na2vs0mg"},{"bike_id":"055ba1a4-32f7-4c6f-8725-2afa5c6b44f2","system_id":"levelo_inurba_marseille","lat":43.23181,"lon":5.39997,"is_reserved":false,"is_disabled":false,"rental_uris":{"android":"levelo://app?vid=055ba1a4-32f7-4c6f-8725-2afa5c6b44f2","ios":"levelo://app?vid=055ba1a4-32f7-4c6f-8725-2afa5c6b44f2"},"vehicle_type_id":"4","last_reported":1732022420,"current_range_meters":16400,"station_id":"ce4bhn12rcd13ifvqgqg","pricing_plan_id":"cebpf4jnsgd1na2vs0mg"},{"bike_id":"ec93ac56-7bc0-4cdf-815b-5a5b3f95e7c4","system_id":"levelo_inurba_marseille","lat":43.30534,"lon":5.36542,"is_reserved":false,"is_disabled":false,"rental_uris":{"android":"levelo://app?vid=ec93ac56-7bc0-4cdf-815b-5a5b3f95e7c4","ios":"levelo://app?vid=ec93ac56-7bc0-4cdf-815b-5a5b3f95e7c4"},"vehicle_type_id":"4","last_reported":1732022420,"current_range_meters":18800,"station_id":"ce4bgs12rcd13ifvqcag","pricing_plan_id":"cebpf4jnsgd1na2vs0mg"},{"bike_id":"cb966719-642f-47d6-87b3-cf98aa3e6af1","system_id":"levelo_inurba_marseille","lat":43.28342,"lon":5.38102,"is_reserved":false,"is_disabled":false,"rental_uris":{"android":"levelo://app?vid=cb966719-642f-47d6-87b3-cf98aa3e6af1","ios":"levelo://app?vid=cb966719-642f-47d6-87b3-cf98aa3e6af1"},"vehicle_type_id":"4","last_reported":1732022420,"current_range_meters":24400,"station_id":"ce4bh412rcd13ifvqdr0","pricing_plan_id":"cebpf4jnsgd1na2vs0mg"},{"bike_id":"efaa20f7-d2fb-4778-9ca3-b17e9193d440","system_id":"levelo_inurba_marseille","lat":43.3372,"lon":5.39171,"is_reserved":false,"is_disabled":false,"rental_uris":{"android":"levelo://app?vid=efaa20f7-d2fb-4778-9ca3-b17e9193d440","ios":"levelo://app?vid=efaa20f7-d2fb-4778-9ca3-b17e9193d440"},"vehicle_type_id":"4","last_reported":1732022420,"current_range_meters":38400,"station_id":"ce4bhr92rcd13ifvqhsg","pricing_plan_id":"cebpf4jnsgd1na2vs0mg"},{"bike_id":"4b1089fa-7b1e-4c9e-b4cc-042056d6026b","system_id":"levelo_inurba_marseille","lat":43.30209,"lon":5.39463,"is_reserved":false,"is_disabled":true,"rental_uris":{"android":"levelo://app?vid=4b1089fa-7b1e-4c9e-b4cc-042056d6026b","ios":"levelo://app?vid=4b1089fa-7b1e-4c9e-b4cc-042056d6026b"},"vehicle_type_id":"4","last_reported":1732022420,"current_range_meters":28000,"station_id":"ce4bh0p2rcd13ifvqd70","pricing_plan_id":"cebpf4jnsgd1na2vs0mg"},{"bike_id":"0af1d6ed-805a-43d7-b758-720642084494","system_id":"levelo_inurba_marseille","lat":43.32535,"lon":5.41434,"is_reserved":false,"is_disabled":false,"rental_uris":{"android":"levelo://app?vid=0af1d6ed-805a-43d7-b758-720642084494","ios":"levelo://app?vid=0af1d6ed-805a-43d7-b758-720642084494"},"vehicle_type_id":"4","last_reported":1732022420,"current_range_meters":14000,"station_id":"ce4bhq12rcd13ifvqhhg","pricing_plan_id":"cebpf4jnsgd1na2vs0mg"},{"bike_id":"d5d93423-8b59-49ff-a38f-f9112bad0624","system_id":"levelo_inurba_marseille","lat":43.23153,"lon":5.43707,"is_reserved":false,"is_disabled":true,"rental_uris":{"android":"levelo://app?vid=d5d93423-8b59-49ff-a38f-f9112bad0624","ios":"levelo://app?vid=d5d93423-8b59-49ff-a38f-f9112bad0624"},"vehicle_type_id":"4","last_reported":1732022420,"current_range_meters":18800,"station_id":"ce4bhmp2rcd13ifvqgog","pricing_plan_id":"cebpf4jnsgd1na2vs0mg"},{"bike_id":"e2f6a0a8-eb6e-492e-a17f-6bde58b9d768","system_id":"levelo_inurba_marseille","lat":43.29849,"lon":5.36276,"is_reserved":false,"is_disabled":false,"rental_uris":{"android":"levelo://app?vid=e2f6a0a8-eb6e-492e-a17f-6bde58b9d768","ios":"levelo://app?vid=e2f6a0a8-eb6e-492e-a17f-6bde58b9d768"},"vehicle_type_id":"4","last_reported":1732022420,"current_range_meters":36800,"station_id":"ce4bgpp2rcd13ifvqc3g","pricing_plan_id":"cebpf4jnsgd1na2vs0mg"},{"bike_id":"cda5d921-6da1-47fc-a138-92315e85d6fc","system_id":"levelo_inurba_marseille","lat":43.28077,"lon":5.39648,"is_reserved":false,"is_disabled":false,"rental_uris":{"android":"levelo://app?vid=cda5d921-6da1-47fc-a138-92315e85d6fc","ios":"levelo://app?vid=cda5d921-6da1-47fc-a138-92315e85d6fc"},"vehicle_type_id":"4","last_reported":1732022420,"current_range_meters":38800,"station_id":"ce4bho12rcd13ifvqh2g","pricing_plan_id":"cebpf4jnsgd1na2vs0mg"},{"bike_id":"fbf50743-a751-4d22-8d7f-9047b9d72787","system_id":"levelo_inurba_marseille","lat":43.33333,"lon":5.41865,"is_reserved":false,"is_disabled":false,"rental_uris":{"android":"levelo://app?vid=fbf50743-a751-4d22-8d7f-9047b9d72787","ios":"levelo://app?vid=fbf50743-a751-4d22-8d7f-9047b9d72787"},"vehicle_type_id":"4","last_reported":1732022420,"current_range_meters":27600,"station_id":"","pricing_plan_id":"cebpf4jnsgd1na2vs0mg"},{"bike_id":"0606d9a5-6a08-44ff-bae7-2c9775f261f2","system_id":"levelo_inurba_marseille","lat":43.2904,"lon":5.3995,"is_reserved":false,"is_disabled":false,"rental_uris":{"android":"levelo://app?vid=0606d9a5-6a08-44ff-bae7-2c9775f261f2","ios":"levelo://app?vid=0606d9a5-6a08-44ff-bae7-2c9775f261f2"},"vehicle_type_id":"4","last_reported":1732022420,"current_range_meters":19200,"station_id":"ce4bh392rcd13ifvqdm0","pricing_plan_id":"cebpf4jnsgd1na2vs0mg"},{"bike_id":"76f56c68-3a3a-4e2a-b27a-a67a2d3d30c6","system_id":"levelo_inurba_marseille","lat":43.30155,"lon":5.38083,"is_reserved":false,"is_disabled":false,"rental_uris":{"android":"levelo://app?vid=76f56c68-3a3a-4e2a-b27a-a67a2d3d30c6","ios":"levelo://app?vid=76f56c68-3a3a-4e2a-b27a-a67a2d3d30c6"},"vehicle_type_id":"4","last_reported":1732022420,"current_range_meters":9600,"station_id":"ce4bgjp2rcd13ifvqbh0","pricing_plan_id":"cebpf4jnsgd1na2vs0mg"},{"bike_id":"49b1faba-9f2c-4d38-8cd9-a346e386a361","system_id":"levelo_inurba_marseille","lat":43.29182,"lon":5.35805,"is_reserved":false,"is_disabled":false,"rental_uris":{"android":"levelo://app?vid=49b1faba-9f2c-4d38-8cd9-a346e386a361","ios":"levelo://app?vid=49b1faba-9f2c-4d38-8cd9-a346e386a361"},"vehicle_type_id":"4","last_reported":1732022420,"current_range_meters":35600,"station_id":"","pricing_plan_id":"cebpf4jnsgd1na2vs0mg"},{"bike_id":"823376cc-de15-4f61-9ede-6051b11b07d4","system_id":"levelo_inurba_marseille","lat":43.3203,"lon":5.41568,"is_reserved":false,"is_disabled":false,"rental_uris":{"android":"levelo://app?vid=823376cc-de15-4f61-9ede-6051b11b07d4","ios":"levelo://app?vid=823376cc-de15-4f61-9ede-6051b11b07d4"},"vehicle_type_id":"4","last_reported":1732022420,"current_range_meters":38800,"station_id":"ce4bhq92rcd13ifvqhkg","pricing_plan_id":"cebpf4jnsgd1na2vs0mg"},{"bike_id":"1ea9d202-7235-44ff-a808-1a87a3b9cfc1","system_id":"levelo_inurba_marseille","lat":43.25578,"lon":5.38228,"is_reserved":false,"is_disabled":false,"rental_uris":{"android":"levelo://app?vid=1ea9d202-7235-44ff-a808-1a87a3b9cfc1","ios":"levelo://app?vid=1ea9d202-7235-44ff-a808-1a87a3b9cfc1"},"vehicle_type_id":"4","last_reported":1732022420,"current_range_meters":14800,"station_id":"ce4bhih2rcd13ifvqfs0","pricing_plan_id":"cebpf4jnsgd1na2vs0mg"},{"bike_id":"d7b8e98b-7823-4af9-88bb-4e0450f2eba8","system_id":"levelo_inurba_marseille","lat":43.29958,"lon":5.384949,"is_reserved":false,"is_disabled":false,"rental_uris":{"android":"levelo://app?vid=d7b8e98b-7823-4af9-88bb-4e0450f2eba8","ios":"levelo://app?vid=d7b8e98b-7823-4af9-88bb-4e0450f2eba8"},"vehicle_type_id":"4","last_reported":1732022420,"current_range_meters":32400,"station_id":"ce4bgj92rcd13ifvqbd0","pricing_plan_id":"cebpf4jnsgd1na2vs0mg"},{"bike_id":"befd4fe4-a59b-405d-b479-acece378b2f2","system_id":"levelo_inurba_marseille","lat":43.26028,"lon":5.37551,"is_reserved":false,"is_disabled":false,"rental_uris":{"android":"levelo://app?vid=befd4fe4-a59b-405d-b479-acece378b2f2","ios":"levelo://app?vid=befd4fe4-a59b-405d-b479-acece378b2f2"},"vehicle_type_id":"4","last_reported":1732022420,"current_range_meters":26800,"station_id":"ce4bhgh2rcd13ifvqfa0","pricing_plan_id":"cebpf4jnsgd1na2vs0mg"},{"bike_id":"ec741505-8dd9-4072-9dfb-be4ddc149da6","system_id":"levelo_inurba_marseille","lat":43.28095,"lon":5.37837,"is_reserved":false,"is_disabled":false,"rental_uris":{"android":"levelo://app?vid=ec741505-8dd9-4072-9dfb-be4ddc149da6","ios":"levelo://app?vid=ec741505-8dd9-4072-9dfb-be4ddc149da6"},"vehicle_type_id":"4","last_reported":1732022420,"current_range_meters":12400,"station_id":"ce4bha12rcd13ifvqee0","pricing_plan_id":"cebpf4jnsgd1na2vs0mg"},{"bike_id":"e724f48d-7831-4a53-bd1c-2ddf0f9a9faa","system_id":"levelo_inurba_marseille","lat":43.30315,"lon":5.36907,"is_reserved":false,"is_disabled":false,"rental_uris":{"android":"levelo://app?vid=e724f48d-7831-4a53-bd1c-2ddf0f9a9faa","ios":"levelo://app?vid=e724f48d-7831-4a53-bd1c-2ddf0f9a9faa"},"vehicle_type_id":"4","last_reported":1732022420,"current_range_meters":8000,"station_id":"ce4bgqh2rcd13ifvqc5g","pricing_plan_id":"cebpf4jnsgd1na2vs0mg"},{"bike_id":"0c570cc6-6b4c-470d-ad07-6780abcc9bcb","system_id":"levelo_inurba_marseille","lat":43.30187,"lon":5.3663,"is_reserved":false,"is_disabled":false,"rental_uris":{"android":"levelo://app?vid=0c570cc6-6b4c-470d-ad07-6780abcc9bcb","ios":"levelo://app?vid=0c570cc6-6b4c-470d-ad07-6780abcc9bcb"},"vehicle_type_id":"4","last_reported":1732022420,"current_range_meters":35600,"station_id":"ce4bgrh2rcd13ifvqc8g","pricing_plan_id":"cebpf4jnsgd1na2vs0mg"},{"bike_id":"019450c6-b123-4e88-8762-c3e740067294","system_id":"levelo_inurba_marseille","lat":43.30215,"lon":5.39467,"is_reserved":false,"is_disabled":false,"rental_uris":{"android":"levelo://app?vid=019450c6-b123-4e88-8762-c3e740067294","ios":"levelo://app?vid=019450c6-b123-4e88-8762-c3e740067294"},"vehicle_type_id":"4","last_reported":1732022420,"current_range_meters":40000,"station_id":"ce4bh0p2rcd13ifvqd70","pricing_plan_id":"cebpf4jnsgd1na2vs0mg"},{"bike_id":"e5096cbe-7cf3-475a-bb0a-b81ff48b3b20","system_id":"levelo_inurba_marseille","lat":43.30138,"lon":5.37424,"is_reserved":false,"is_disabled":false,"rental_uris":{"android":"levelo://app?vid=e5096cbe-7cf3-475a-bb0a-b81ff48b3b20","ios":"levelo://app?vid=e5096cbe-7cf3-475a-bb0a-b81ff48b3b20"},"vehicle_type_id":"4","last_reported":1732022420,"current_range_meters":27600,"station_id":"ce4bgs92rcd13ifvqcc0","pricing_plan_id":"cebpf4jnsgd1na2vs0mg"},{"bike_id":"d2cd61e5-ddea-400d-806b-2d0378e6417b","system_id":"levelo_inurba_marseille","lat":43.30539,"lon":5.3656,"is_reserved":false,"is_disabled":false,"rental_uris":{"android":"levelo://app?vid=d2cd61e5-ddea-400d-806b-2d0378e6417b","ios":"levelo://app?vid=d2cd61e5-ddea-400d-806b-2d0378e6417b"},"vehicle_type_id":"4","last_reported":1732022420,"current_range_meters":8000,"station_id":"ce4bgs12rcd13ifvqcag","pricing_plan_id":"cebpf4jnsgd1na2vs0mg"},{"bike_id":"81f9fe4a-dfb3-4b4f-8aab-e637efb806dc","system_id":"levelo_inurba_marseille","lat":43.25861,"lon":5.39903,"is_reserved":false,"is_disabled":false,"rental_uris":{"android":"levelo://app?vid=81f9fe4a-dfb3-4b4f-8aab-e637efb806dc","ios":"levelo://app?vid=81f9fe4a-dfb3-4b4f-8aab-e637efb806dc"},"vehicle_type_id":"4","last_reported":1732022420,"current_range_meters":8400,"station_id":"ce4bhl92rcd13ifvqghg","pricing_plan_id":"cebpf4jnsgd1na2vs0mg"},{"bike_id":"6ddad546-0876-4bc4-b05c-92e9c54bedb6","system_id":"levelo_inurba_marseille","lat":43.32289,"lon":5.38275,"is_reserved":false,"is_disabled":false,"rental_uris":{"android":"levelo://app?vid=6ddad546-0876-4bc4-b05c-92e9c54bedb6","ios":"levelo://app?vid=6ddad546-0876-4bc4-b05c-92e9c54bedb6"},"vehicle_type_id":"4","last_reported":1732022420,"current_range_meters":14800,"station_id":"ce4bhr12rcd13ifvqhqg","pricing_plan_id":"cebpf4jnsgd1na2vs0mg"},{"bike_id":"03d81797-2d3e-41fb-83d2-92ced9838d9a","system_id":"levelo_inurba_marseille","lat":43.26801,"lon":5.40255,"is_reserved":false,"is_disabled":true,"rental_uris":{"android":"levelo://app?vid=03d81797-2d3e-41fb-83d2-92ced9838d9a","ios":"levelo://app?vid=03d81797-2d3e-41fb-83d2-92ced9838d9a"},"vehicle_type_id":"4","last_reported":1732022420,"current_range_meters":28000,"station_id":"ce501612rcd8frsf0b60","pricing_plan_id":"cebpf4jnsgd1na2vs0mg"},{"bike_id":"bea33c6f-298f-40b3-b388-db8f4ac8987a","system_id":"levelo_inurba_marseille","lat":43.23158,"lon":5.43705,"is_reserved":false,"is_disabled":false,"rental_uris":{"android":"levelo://app?vid=bea33c6f-298f-40b3-b388-db8f4ac8987a","ios":"levelo://app?vid=bea33c6f-298f-40b3-b388-db8f4ac8987a"},"vehicle_type_id":"4","last_reported":1732022420,"current_range_meters":22000,"station_id":"ce4bhmp2rcd13ifvqgog","pricing_plan_id":"cebpf4jnsgd1na2vs0mg"},{"bike_id":"86e852e5-e40d-4837-9de4-067fe7c8f2f5","system_id":"levelo_inurba_marseille","lat":43.26948,"lon":5.3864,"is_reserved":false,"is_disabled":false,"rental_uris":{"android":"levelo://app?vid=86e852e5-e40d-4837-9de4-067fe7c8f2f5","ios":"levelo://app?vid=86e852e5-e40d-4837-9de4-067fe7c8f2f5"},"vehicle_type_id":"4","last_reported":1732022420,"current_range_meters":8800,"station_id":"ce4bhh92rcd13ifvqfh0","pricing_plan_id":"cebpf4jnsgd1na2vs0mg"},{"bike_id":"ce4e74ac-0e20-40ab-a426-df9142f9771b","system_id":"levelo_inurba_marseille","lat":43.26199,"lon":5.37936,"is_reserved":false,"is_disabled":false,"rental_uris":{"android":"levelo://app?vid=ce4e74ac-0e20-40ab-a426-df9142f9771b","ios":"levelo://app?vid=ce4e74ac-0e20-40ab-a426-df9142f9771b"},"vehicle_type_id":"4","last_reported":1732022420,"current_range_meters":32800,"station_id":"ce4bhjp2rcd13ifvqg90","pricing_plan_id":"cebpf4jnsgd1na2vs0mg"},{"bike_id":"4de41581-3b4d-48da-b235-99669862c70a","system_id":"levelo_inurba_marseille","lat":43.29609,"lon":5.37714,"is_reserved":false,"is_disabled":true,"rental_uris":{"android":"levelo://app?vid=4de41581-3b4d-48da-b235-99669862c70a","ios":"levelo://app?vid=4de41581-3b4d-48da-b235-99669862c70a"},"vehicle_type_id":"4","last_reported":1732022420,"current_range_meters":28000,"station_id":"ce4bgi92rcd13ifvqb90","pricing_plan_id":"cebpf4jnsgd1na2vs0mg"},{"bike_id":"2910f69a-6dac-4d69-a60d-e4f1b8cce200","system_id":"levelo_inurba_marseille","lat":43.2781,"lon":5.40721,"is_reserved":false,"is_disabled":true,"rental_uris":{"android":"levelo://app?vid=2910f69a-6dac-4d69-a60d-e4f1b8cce200","ios":"levelo://app?vid=2910f69a-6dac-4d69-a60d-e4f1b8cce200"},"vehicle_type_id":"4","last_reported":1732022420,"current_range_meters":19200,"station_id":"ce4bhnh2rcd13ifvqgtg","pricing_plan_id":"cebpf4jnsgd1na2vs0mg"},{"bike_id":"3d4a8a11-cd8e-4217-a130-2b8f97253671","system_id":"levelo_inurba_marseille","lat":43.30275,"lon":5.37711,"is_reserved":false,"is_disabled":false,"rental_uris":{"android":"levelo://app?vid=3d4a8a11-cd8e-4217-a130-2b8f97253671","ios":"levelo://app?vid=3d4a8a11-cd8e-4217-a130-2b8f97253671"},"vehicle_type_id":"4","last_reported":1732022420,"current_range_meters":38400,"station_id":"ce4bguh2rcd13ifvqcj0","pricing_plan_id":"cebpf4jnsgd1na2vs0mg"},{"bike_id":"7391461a-629b-4171-9aca-93f1206091b1","system_id":"levelo_inurba_marseille","lat":43.29026,"lon":5.39977,"is_reserved":false,"is_disabled":false,"rental_uris":{"android":"levelo://app?vid=7391461a-629b-4171-9aca-93f1206091b1","ios":"levelo://app?vid=7391461a-629b-4171-9aca-93f1206091b1"},"vehicle_type_id":"4","last_reported":1732022420,"current_range_meters":28800,"station_id":"ce4bh392rcd13ifvqdm0","pricing_plan_id":"cebpf4jnsgd1na2vs0mg"},{"bike_id":"8a2ed286-482c-4f8a-a965-12c4bb2b2878","system_id":"levelo_inurba_marseille","lat":43.281,"lon":5.37834,"is_reserved":false,"is_disabled":false,"rental_uris":{"android":"levelo://app?vid=8a2ed286-482c-4f8a-a965-12c4bb2b2878","ios":"levelo://app?vid=8a2ed286-482c-4f8a-a965-12c4bb2b2878"},"vehicle_type_id":"4","last_reported":1732022420,"current_range_meters":16000,"station_id":"ce4bha12rcd13ifvqee0","pricing_plan_id":"cebpf4jnsgd1na2vs0mg"},{"bike_id":"4b6ed403-efdd-4ab1-b72d-fbfd8d37fff6","system_id":"levelo_inurba_marseille","lat":43.27538,"lon":5.35996,"is_reserved":false,"is_disabled":false,"rental_uris":{"android":"levelo://app?vid=4b6ed403-efdd-4ab1-b72d-fbfd8d37fff6","ios":"levelo://app?vid=4b6ed403-efdd-4ab1-b72d-fbfd8d37fff6"},"vehicle_type_id":"4","last_reported":1732022420,"current_range_meters":31200,"station_id":"ce4bgj92rcd13ifvqbe0","pricing_plan_id":"cebpf4jnsgd1na2vs0mg"},{"bike_id":"85782696-36f2-4c33-98b6-2d88f8670e2c","system_id":"levelo_inurba_marseille","lat":43.31081,"lon":5.42429,"is_reserved":false,"is_disabled":false,"rental_uris":{"android":"levelo://app?vid=85782696-36f2-4c33-98b6-2d88f8670e2c","ios":"levelo://app?vid=85782696-36f2-4c33-98b6-2d88f8670e2c"},"vehicle_type_id":"4","last_reported":1732022420,"current_range_meters":36000,"station_id":"ce4bhp92rcd13ifvqhag","pricing_plan_id":"cebpf4jnsgd1na2vs0mg"},{"bike_id":"66b5f170-8798-46f8-b411-dbaa4091eaa3","system_id":"levelo_inurba_marseille","lat":43.34143,"lon":5.40907,"is_reserved":false,"is_disabled":false,"rental_uris":{"android":"levelo://app?vid=66b5f170-8798-46f8-b411-dbaa4091eaa3","ios":"levelo://app?vid=66b5f170-8798-46f8-b411-dbaa4091eaa3"},"vehicle_type_id":"4","last_reported":1732022420,"current_range_meters":25600,"station_id":"ce4bhqh2rcd13ifvqhlg","pricing_plan_id":"cebpf4jnsgd1na2vs0mg"},{"bike_id":"800fea11-f496-4c18-9208-f2888c95692c","system_id":"levelo_inurba_marseille","lat":43.31229,"lon":5.3687,"is_reserved":false,"is_disabled":false,"rental_uris":{"android":"levelo://app?vid=800fea11-f496-4c18-9208-f2888c95692c","ios":"levelo://app?vid=800fea11-f496-4c18-9208-f2888c95692c"},"vehicle_type_id":"4","last_reported":1732022420,"current_range_meters":31200,"station_id":"ce4bgl92rcd13ifvqbq0","pricing_plan_id":"cebpf4jnsgd1na2vs0mg"},{"bike_id":"73f7e3ea-ec32-493a-85e2-e04e1909b2dd","system_id":"levelo_inurba_marseille","lat":43.27618,"lon":5.36112,"is_reserved":false,"is_disabled":false,"rental_uris":{"android":"levelo://app?vid=73f7e3ea-ec32-493a-85e2-e04e1909b2dd","ios":"levelo://app?vid=73f7e3ea-ec32-493a-85e2-e04e1909b2dd"},"vehicle_type_id":"4","last_reported":1732022420,"current_range_meters":24400,"station_id":"ce4bgj92rcd13ifvqbe0","pricing_plan_id":"cebpf4jnsgd1na2vs0mg"},{"bike_id":"7a1d8a89-2a7e-4939-ab1a-d9cdb7e81301","system_id":"levelo_inurba_marseille","lat":43.2986,"lon":5.36726,"is_reserved":false,"is_disabled":true,"rental_uris":{"android":"levelo://app?vid=7a1d8a89-2a7e-4939-ab1a-d9cdb7e81301","ios":"levelo://app?vid=7a1d8a89-2a7e-4939-ab1a-d9cdb7e81301"},"vehicle_type_id":"4","last_reported":1732022420,"current_range_meters":0,"station_id":"","pricing_plan_id":"cebpf4jnsgd1na2vs0mg"},{"bike_id":"c46435fb-ac45-4251-8f82-c93eda02ef2f","system_id":"levelo_inurba_marseille","lat":43.31077,"lon":5.42432,"is_reserved":false,"is_disabled":true,"rental_uris":{"android":"levelo://app?vid=c46435fb-ac45-4251-8f82-c93eda02ef2f","ios":"levelo://app?vid=c46435fb-ac45-4251-8f82-c93eda02ef2f"},"vehicle_type_id":"4","last_reported":1732022420,"current_range_meters":2000,"station_id":"ce4bhp92rcd13ifvqhag","pricing_plan_id":"cebpf4jnsgd1na2vs0mg"},{"bike_id":"35691e22-d763-41b8-b692-a1ffbd600e7f","system_id":"levelo_inurba_marseille","lat":43.28937,"lon":5.36633,"is_reserved":false,"is_disabled":false,"rental_uris":{"android":"levelo://app?vid=35691e22-d763-41b8-b692-a1ffbd600e7f","ios":"levelo://app?vid=35691e22-d763-41b8-b692-a1ffbd600e7f"},"vehicle_type_id":"4","last_reported":1732022420,"current_range_meters":29600,"station_id":"ce4bhap2rcd13ifvqek0","pricing_plan_id":"cebpf4jnsgd1na2vs0mg"},{"bike_id":"d3908787-94bf-4b04-a064-a2292f12dff7","system_id":"levelo_inurba_marseille","lat":43.29773,"lon":5.37095,"is_reserved":false,"is_disabled":false,"rental_uris":{"android":"levelo://app?vid=d3908787-94bf-4b04-a064-a2292f12dff7","ios":"levelo://app?vid=d3908787-94bf-4b04-a064-a2292f12dff7"},"vehicle_type_id":"4","last_reported":1732022420,"current_range_meters":30400,"station_id":"ce4bgop2rcd13ifvqc1g","pricing_plan_id":"cebpf4jnsgd1na2vs0mg"},{"bike_id":"ac9d2f49-8491-4f64-8df3-f15847cdf648","system_id":"levelo_inurba_marseille","lat":43.29902,"lon":5.38144,"is_reserved":false,"is_disabled":false,"rental_uris":{"android":"levelo://app?vid=ac9d2f49-8491-4f64-8df3-f15847cdf648","ios":"levelo://app?vid=ac9d2f49-8491-4f64-8df3-f15847cdf648"},"vehicle_type_id":"4","last_reported":1732022420,"current_range_meters":38400,"station_id":"ce4bgj12rcd13ifvqbc0","pricing_plan_id":"cebpf4jnsgd1na2vs0mg"},{"bike_id":"92450c3d-2142-44c9-8454-b2bb1dfc77ff","system_id":"levelo_inurba_marseille","lat":43.23194,"lon":5.35555,"is_reserved":false,"is_disabled":false,"rental_uris":{"android":"levelo://app?vid=92450c3d-2142-44c9-8454-b2bb1dfc77ff","ios":"levelo://app?vid=92450c3d-2142-44c9-8454-b2bb1dfc77ff"},"vehicle_type_id":"4","last_reported":1732022420,"current_range_meters":16400,"station_id":"ce4bhu92rcd13ifvqi70","pricing_plan_id":"cebpf4jnsgd1na2vs0mg"},{"bike_id":"7e35deb2-0950-494e-a5fc-48886e723f0a","system_id":"levelo_inurba_marseille","lat":43.290368,"lon":5.37561,"is_reserved":false,"is_disabled":true,"rental_uris":{"android":"levelo://app?vid=7e35deb2-0950-494e-a5fc-48886e723f0a","ios":"levelo://app?vid=7e35deb2-0950-494e-a5fc-48886e723f0a"},"vehicle_type_id":"4","last_reported":1732022420,"current_range_meters":9200,"station_id":"ce4bh692rcd13ifvqe90","pricing_plan_id":"cebpf4jnsgd1na2vs0mg"},{"bike_id":"0f908f24-4975-408e-9c8e-6e40b191299d","system_id":"levelo_inurba_marseille","lat":43.28937,"lon":5.39622,"is_reserved":false,"is_disabled":false,"rental_uris":{"android":"levelo://app?vid=0f908f24-4975-408e-9c8e-6e40b191299d","ios":"levelo://app?vid=0f908f24-4975-408e-9c8e-6e40b191299d"},"vehicle_type_id":"4","last_reported":1732022420,"current_range_meters":38800,"station_id":"ce4bh3h2rcd13ifvqdn0","pricing_plan_id":"cebpf4jnsgd1na2vs0mg"},{"bike_id":"d482b473-8011-43d1-9203-ef428f8af553","system_id":"levelo_inurba_marseille","lat":43.2955,"lon":5.42285,"is_reserved":false,"is_disabled":false,"rental_uris":{"android":"levelo://app?vid=d482b473-8011-43d1-9203-ef428f8af553","ios":"levelo://app?vid=d482b473-8011-43d1-9203-ef428f8af553"},"vehicle_type_id":"4","last_reported":1732022420,"current_range_meters":38800,"station_id":"ce4bhph2rcd13ifvqhdg","pricing_plan_id":"cebpf4jnsgd1na2vs0mg"},{"bike_id":"39fe7f4c-753f-4ff2-8898-a7e615c9b6d8","system_id":"levelo_inurba_marseille","lat":43.28615,"lon":5.35107,"is_reserved":false,"is_disabled":false,"rental_uris":{"android":"levelo://app?vid=39fe7f4c-753f-4ff2-8898-a7e615c9b6d8","ios":"levelo://app?vid=39fe7f4c-753f-4ff2-8898-a7e615c9b6d8"},"vehicle_type_id":"4","last_reported":1732022420,"current_range_meters":6800,"station_id":"ce4bhch2rcd13ifvqeug","pricing_plan_id":"cebpf4jnsgd1na2vs0mg"},{"bike_id":"cde5eb04-35f5-4971-aec4-8004f9b2dcd9","system_id":"levelo_inurba_marseille","lat":43.28265,"lon":5.35078,"is_reserved":false,"is_disabled":true,"rental_uris":{"android":"levelo://app?vid=cde5eb04-35f5-4971-aec4-8004f9b2dcd9","ios":"levelo://app?vid=cde5eb04-35f5-4971-aec4-8004f9b2dcd9"},"vehicle_type_id":"4","last_reported":1732022420,"current_range_meters":33600,"station_id":"ce4bhbp2rcd13ifvqerg","pricing_plan_id":"cebpf4jnsgd1na2vs0mg"},{"bike_id":"e63fa20f-859b-43dc-995d-a32935dd2a71","system_id":"levelo_inurba_marseille","lat":43.27615,"lon":5.36101,"is_reserved":false,"is_disabled":false,"rental_uris":{"android":"levelo://app?vid=e63fa20f-859b-43dc-995d-a32935dd2a71","ios":"levelo://app?vid=e63fa20f-859b-43dc-995d-a32935dd2a71"},"vehicle_type_id":"4","last_reported":1732022420,"current_range_meters":19600,"station_id":"ce4bgj92rcd13ifvqbe0","pricing_plan_id":"cebpf4jnsgd1na2vs0mg"},{"bike_id":"f32d4153-23c5-4492-971e-2b5afeb60de4","system_id":"levelo_inurba_marseille","lat":43.32291,"lon":5.38276,"is_reserved":false,"is_disabled":false,"rental_uris":{"android":"levelo://app?vid=f32d4153-23c5-4492-971e-2b5afeb60de4","ios":"levelo://app?vid=f32d4153-23c5-4492-971e-2b5afeb60de4"},"vehicle_type_id":"4","last_reported":1732022420,"current_range_meters":7200,"station_id":"ce4bhr12rcd13ifvqhqg","pricing_plan_id":"cebpf4jnsgd1na2vs0mg"},{"bike_id":"46d3fe02-0390-4d2e-a811-c72813eae60e","system_id":"levelo_inurba_marseille","lat":43.26949,"lon":5.38642,"is_reserved":false,"is_disabled":false,"rental_uris":{"android":"levelo://app?vid=46d3fe02-0390-4d2e-a811-c72813eae60e","ios":"levelo://app?vid=46d3fe02-0390-4d2e-a811-c72813eae60e"},"vehicle_type_id":"4","last_reported":1732022420,"current_range_meters":11600,"station_id":"ce4bhh92rcd13ifvqfh0","pricing_plan_id":"cebpf4jnsgd1na2vs0mg"},{"bike_id":"8900f549-cd7c-47eb-8777-83d4c4a7c47f","system_id":"levelo_inurba_marseille","lat":43.34138,"lon":5.40915,"is_reserved":false,"is_disabled":false,"rental_uris":{"android":"levelo://app?vid=8900f549-cd7c-47eb-8777-83d4c4a7c47f","ios":"levelo://app?vid=8900f549-cd7c-47eb-8777-83d4c4a7c47f"},"vehicle_type_id":"4","last_reported":1732022420,"current_range_meters":38000,"station_id":"ce4bhqh2rcd13ifvqhlg","pricing_plan_id":"cebpf4jnsgd1na2vs0mg"},{"bike_id":"dd1a4d05-d376-4fff-9b73-20b93c2f3d4d","system_id":"levelo_inurba_marseille","lat":43.31229,"lon":5.3689,"is_reserved":false,"is_disabled":false,"rental_uris":{"android":"levelo://app?vid=dd1a4d05-d376-4fff-9b73-20b93c2f3d4d","ios":"levelo://app?vid=dd1a4d05-d376-4fff-9b73-20b93c2f3d4d"},"vehicle_type_id":"4","last_reported":1732022420,"current_range_meters":28800,"station_id":"ce4bgl92rcd13ifvqbq0","pricing_plan_id":"cebpf4jnsgd1na2vs0mg"},{"bike_id":"0e2bbe61-8f31-47ba-b582-6a82d0b052e0","system_id":"levelo_inurba_marseille","lat":43.29029,"lon":5.38354,"is_reserved":false,"is_disabled":false,"rental_uris":{"android":"levelo://app?vid=0e2bbe61-8f31-47ba-b582-6a82d0b052e0","ios":"levelo://app?vid=0e2bbe61-8f31-47ba-b582-6a82d0b052e0"},"vehicle_type_id":"4","last_reported":1732022420,"current_range_meters":28800,"station_id":"ce4bgip2rcd13ifvqbb0","pricing_plan_id":"cebpf4jnsgd1na2vs0mg"},{"bike_id":"c3bc0f64-f384-48a7-9517-04f95522a7e3","system_id":"levelo_inurba_marseille","lat":43.318242,"lon":5.37611,"is_reserved":false,"is_disabled":true,"rental_uris":{"android":"levelo://app?vid=c3bc0f64-f384-48a7-9517-04f95522a7e3","ios":"levelo://app?vid=c3bc0f64-f384-48a7-9517-04f95522a7e3"},"vehicle_type_id":"4","last_reported":1732022420,"current_range_meters":15200,"station_id":"","pricing_plan_id":"cebpf4jnsgd1na2vs0mg"},{"bike_id":"c803fcee-b2d3-49e6-bd43-f341864a4297","system_id":"levelo_inurba_marseille","lat":43.2731,"lon":5.39095,"is_reserved":false,"is_disabled":false,"rental_uris":{"android":"levelo://app?vid=c803fcee-b2d3-49e6-bd43-f341864a4297","ios":"levelo://app?vid=c803fcee-b2d3-49e6-bd43-f341864a4297"},"vehicle_type_id":"4","last_reported":1732022420,"current_range_meters":22000,"station_id":"ce4bhgp2rcd13ifvqfe0","pricing_plan_id":"cebpf4jnsgd1na2vs0mg"},{"bike_id":"0f7d3f82-6b41-4aca-b79e-c6aaeac6d97f","system_id":"levelo_inurba_marseille","lat":43.30538,"lon":5.36702,"is_reserved":false,"is_disabled":true,"rental_uris":{"android":"levelo://app?vid=0f7d3f82-6b41-4aca-b79e-c6aaeac6d97f","ios":"levelo://app?vid=0f7d3f82-6b41-4aca-b79e-c6aaeac6d97f"},"vehicle_type_id":"4","last_reported":1732022420,"current_range_meters":39200,"station_id":"ce4bgrp2rcd13ifvqc9g","pricing_plan_id":"cebpf4jnsgd1na2vs0mg"},{"bike_id":"5418acad-e3ab-4b98-be4a-6d179037d4b7","system_id":"levelo_inurba_marseille","lat":43.2749,"lon":5.42457,"is_reserved":false,"is_disabled":false,"rental_uris":{"android":"levelo://app?vid=5418acad-e3ab-4b98-be4a-6d179037d4b7","ios":"levelo://app?vid=5418acad-e3ab-4b98-be4a-6d179037d4b7"},"vehicle_type_id":"4","last_reported":1732022420,"current_range_meters":16400,"station_id":"ce4bhn92rcd13ifvqgrg","pricing_plan_id":"cebpf4jnsgd1na2vs0mg"},{"bike_id":"a75d9edd-797a-4f9a-b7b7-a7c9fe9ba8d2","system_id":"levelo_inurba_marseille","lat":43.30906,"lon":5.36855,"is_reserved":false,"is_disabled":false,"rental_uris":{"android":"levelo://app?vid=a75d9edd-797a-4f9a-b7b7-a7c9fe9ba8d2","ios":"levelo://app?vid=a75d9edd-797a-4f9a-b7b7-a7c9fe9ba8d2"},"vehicle_type_id":"4","last_reported":1732022420,"current_range_meters":22800,"station_id":"ce4bgn92rcd13ifvqbvg","pricing_plan_id":"cebpf4jnsgd1na2vs0mg"},{"bike_id":"76d06047-6022-43bd-b1fc-c4ae5ef0c8b9","system_id":"levelo_inurba_marseille","lat":43.30275,"lon":5.37703,"is_reserved":false,"is_disabled":false,"rental_uris":{"android":"levelo://app?vid=76d06047-6022-43bd-b1fc-c4ae5ef0c8b9","ios":"levelo://app?vid=76d06047-6022-43bd-b1fc-c4ae5ef0c8b9"},"vehicle_type_id":"4","last_reported":1732022420,"current_range_meters":37600,"station_id":"ce4bguh2rcd13ifvqcj0","pricing_plan_id":"cebpf4jnsgd1na2vs0mg"},{"bike_id":"3cb9f144-4440-4d3e-9824-c5045ddfc590","system_id":"levelo_inurba_marseille","lat":43.29963,"lon":5.37189,"is_reserved":false,"is_disabled":false,"rental_uris":{"android":"levelo://app?vid=3cb9f144-4440-4d3e-9824-c5045ddfc590","ios":"levelo://app?vid=3cb9f144-4440-4d3e-9824-c5045ddfc590"},"vehicle_type_id":"4","last_reported":1732022420,"current_range_meters":27600,"station_id":"ce4bgr92rcd13ifvqc7g","pricing_plan_id":"cebpf4jnsgd1na2vs0mg"},{"bike_id":"729f081d-5184-4f31-801f-2b41f23e3a17","system_id":"levelo_inurba_marseille","lat":43.33114,"lon":5.38222,"is_reserved":false,"is_disabled":true,"rental_uris":{"android":"levelo://app?vid=729f081d-5184-4f31-801f-2b41f23e3a17","ios":"levelo://app?vid=729f081d-5184-4f31-801f-2b41f23e3a17"},"vehicle_type_id":"4","last_reported":1732022420,"current_range_meters":34000,"station_id":"","pricing_plan_id":"cebpf4jnsgd1na2vs0mg"},{"bike_id":"638f8d00-ceb3-4062-9f5f-ca647d7df496","system_id":"levelo_inurba_marseille","lat":43.27422,"lon":5.3941,"is_reserved":false,"is_disabled":true,"rental_uris":{"android":"levelo://app?vid=638f8d00-ceb3-4062-9f5f-ca647d7df496","ios":"levelo://app?vid=638f8d00-ceb3-4062-9f5f-ca647d7df496"},