{"last_updated":1753197118,"ttl":60,"version":"2.2","data":{"bikes":[{"bike_id":"6eba98d6-34a5-4af8-a7a1-b2c31029f10a","system_id":"levelo_inurba_marseille","lat":43.28939,"lon":5.39637,"is_reserved":false,"is_disabled":false,"rental_uris":{"android":"levelo://app?vid=6eba98d6-34a5-4af8-a7a1-b2c31029f10a","ios":"levelo://app?vid=6eba98d6-34a5-4af8-a7a1-b2c31029f10a"},"vehicle_type_id":"4","last_reported":1753197118,"current_range_meters":2000,"station_id":"ce4bh3h2rcd13ifvqdn0","pricing_plan_id":"cebpf4jnsgd1na2vs0mg"},{"bike_id":"2d14f003-b7aa-43d4-a9fc-63b26b2cedf9","system_id":"levelo_inurba_marseille","lat":43.29506,"lon":5.38191,"is_reserved":false,"is_disabled":false,"rental_uris":{"android":"levelo://app?vid=2d14f003-b7aa-43d4-a9fc-63b26b2cedf9","ios":"levelo://app?vid=2d14f003-b7aa-43d4-a9fc-63b26b2cedf9"},"vehicle_type_id":"4","last_reported":1753197118,"current_range_meters":3200,"station_id":"","pricing_plan_id":"cebpf4jnsgd1na2vs0mg"},{"bike_id":"df616303-2a92-4a19-b3b3-66a7c91cd4ef","system_id":"levelo_inurba_marseille","lat":43.31437,"lon":5.39302,"is_reserved":false,"is_disabled":false,"rental_uris":{"android":"levelo://app?vid=df616303-2a92-4a19-b3b3-66a7c91cd4ef","ios":"levelo://app?vid=df616303-2a92-4a19-b3b3-66a7c91cd4ef"},"vehicle_type_id":"4","last_reported":1753197118,"current_range_meters":3200,"station_id":"","pricing_plan_id":"cebpf4jnsgd1na2vs0mg"},{"bike_id":"61b57b03-9d69-4f1d-8c61-02663b682476","system_id":"levelo_inurba_marseille","lat":43.30378,"lon":5.42477,"is_reserved":false,"is_disabled":true,"rental_uris":{"android":"levelo://app?vid=61b57b03-9d69-4f1d-8c61-02663b682476","ios":"levelo://app?vid=61b57b03-9d69-4f1d-8c61-02663b682476"},"vehicle_type_id":"4","last_reported":1753197118,"current_range_meters":3200,"station_id":"ce4bhoh2rcd13ifvqh6g","pricing_plan_id":"cebpf4jnsgd1na2vs0mg"},{"bike_id":"075af0ac-817f-4405-89bf-9b736b3d7b03","system_id":"levelo_inurba_marseille","lat":43.29801,"lon":5.40412,"is_reserved":false,"is_disabled":false,"rental_uris":{"android":"levelo://app?vid=075af0ac-817f-4405-89bf-9b736b3d7b03","ios":"levelo://app?vid=075af0ac-817f-4405-89bf-9b736b3d7b03"},"vehicle_type_id":"4","last_reported":1753197118,"current_range_meters":4000,"station_id":"ce4bh112rcd13ifvqd90","pricing_plan_id":"cebpf4jnsgd1na2vs0mg"},{"bike_id":"6e502309-de0d-4066-bc01-97e29b166aaa","system_id":"levelo_inurba_marseille","lat":43.28354,"lon":5.38112,"is_reserved":false,"is_disabled":false,"rental_uris":{"android":"levelo://app?vid=6e502309-de0d-4066-bc01-97e29b166aaa","ios":"levelo://app?vid=6e502309-de0d-4066-bc01-97e29b166aaa"},"vehicle_type_id":"4","last_reported":1753197118,"current_range_meters":3600,"station_id":"ce4bh412rcd13ifvqdr0","pricing_plan_id":"cebpf4jnsgd1na2vs0mg"},{"bike_id":"ea06b397-ee01-475e-9f34-8fccd6129e23","system_id":"levelo_inurba_marseille","lat":43.32479,"lon":5.36572,"is_reserved":false,"is_disabled":false,"rental_uris":{"android":"levelo://app?vid=ea06b397-ee01-475e-9f34-8fccd6129e23","ios":"levelo://app?vid=ea06b397-ee01-475e-9f34-8fccd6129e23"},"vehicle_type_id":"4","last_reported":1753197118,"current_range_meters":4000,"station_id":"ce4bhs12rcd13ifvqhvg","pricing_plan_id":"cebpf4jnsgd1na2vs0mg"},{"bike_id":"b50efe3a-549e-4da2-b8f4-ab3b5f77f88f","system_id":"levelo_inurba_marseille","lat":43.303474,"lon":5.386106,"is_reserved":false,"is_disabled":false,"rental_uris":{"android":"levelo://app?vid=b50efe3a-549e-4da2-b8f4-ab3b5f77f88f","ios":"levelo://app?vid=b50efe3a-549e-4da2-b8f4-ab3b5f77f88f"},"vehicle_type_id":"4","last_reported":1753197118,"current_range_meters":4400,"station_id":"ce4bgg92rcd13ifvqb30","pricing_plan_id":"cebpf4jnsgd1na2vs0mg"},{"bike_id":"948bae00-ee24-49bb-af2d-7f3ee5c9d6fd","system_id":"levelo_inurba_marseille","lat":43.30549,"lon":5.36531,"is_reserved":false,"is_disabled":false,"rental_uris":{"android":"levelo://app?vid=948bae00-ee24-49bb-af2d-7f3ee5c9d6fd","ios":"levelo://app?vid=948bae00-ee24-49bb-af2d-7f3ee5c9d6fd"},"vehicle_type_id":"4","last_reported":1753197118,"current_range_meters":5600,"station_id":"ce4bgs12rcd13ifvqcag","pricing_plan_id":"cebpf4jnsgd1na2vs0mg"},{"bike_id":"e1f65d63-db30-49ce-8647-7e231df9ed74","system_id":"levelo_inurba_marseille","lat":43.324618,"lon":5.411692,"is_reserved":false,"is_disabled":false,"rental_uris":{"android":"levelo://app?vid=e1f65d63-db30-49ce-8647-7e231df9ed74","ios":"levelo://app?vid=e1f65d63-db30-49ce-8647-7e231df9ed74"},"vehicle_type_id":"4","last_reported":1753197118,"current_range_meters":6000,"station_id":"ce4bhpp2rcd13ifvqhgg","pricing_plan_id":"cebpf4jnsgd1na2vs0mg"},{"bike_id":"b654be04-d4f6-4659-aee3-af08ddb2c448","system_id":"levelo_inurba_marseille","lat":43.30812,"lon":5.38156,"is_reserved":false,"is_disabled":false,"rental_uris":{"android":"levelo://app?vid=b654be04-d4f6-4659-aee3-af08ddb2c448","ios":"levelo://app?vid=b654be04-d4f6-4659-aee3-af08ddb2c448"},"vehicle_type_id":"4","last_reported":1753197118,"current_range_meters":5600,"station_id":"ce4bgt12rcd13ifvqce0","pricing_plan_id":"cebpf4jnsgd1na2vs0mg"},{"bike_id":"26e70561-d6b2-4686-9987-bfb2b5a5f049","system_id":"levelo_inurba_marseille","lat":43.28844,"lon":5.35884,"is_reserved":false,"is_disabled":false,"rental_uris":{"android":"levelo://app?vid=26e70561-d6b2-4686-9987-bfb2b5a5f049","ios":"levelo://app?vid=26e70561-d6b2-4686-9987-bfb2b5a5f049"},"vehicle_type_id":"4","last_reported":1753197118,"current_range_meters":5600,"station_id":"ce4bhb12rcd13ifvqem0","pricing_plan_id":"cebpf4jnsgd1na2vs0mg"},{"bike_id":"f68e5de7-58a9-4ee6-a613-ffb7a5544cef","system_id":"levelo_inurba_marseille","lat":43.27803,"lon":5.35505,"is_reserved":false,"is_disabled":false,"rental_uris":{"android":"levelo://app?vid=f68e5de7-58a9-4ee6-a613-ffb7a5544cef","ios":"levelo://app?vid=f68e5de7-58a9-4ee6-a613-ffb7a5544cef"},"vehicle_type_id":"4","last_reported":1753197118,"current_range_meters":6400,"station_id":"","pricing_plan_id":"cebpf4jnsgd1na2vs0mg"},{"bike_id":"74d6cc88-d889-4ff3-8741-1259abbb9f48","system_id":"levelo_inurba_marseille","lat":43.31881,"lon":5.40746,"is_reserved":false,"is_disabled":false,"rental_uris":{"android":"levelo://app?vid=74d6cc88-d889-4ff3-8741-1259abbb9f48","ios":"levelo://app?vid=74d6cc88-d889-4ff3-8741-1259abbb9f48"},"vehicle_type_id":"4","last_reported":1753197118,"current_range_meters":6000,"station_id":"ce4bhq12rcd13ifvqhig","pricing_plan_id":"cebpf4jnsgd1na2vs0mg"},{"bike_id":"8a689878-81f4-44c3-8378-dfb28c533c24","system_id":"levelo_inurba_marseille","lat":43.292615,"lon":5.3844,"is_reserved":false,"is_disabled":false,"rental_uris":{"android":"levelo://app?vid=8a689878-81f4-44c3-8378-dfb28c533c24","ios":"levelo://app?vid=8a689878-81f4-44c3-8378-dfb28c533c24"},"vehicle_type_id":"4","last_reported":1753197118,"current_range_meters":6800,"station_id":"ce4bh692rcd13ifvqea0","pricing_plan_id":"cebpf4jnsgd1na2vs0mg"},{"bike_id":"d1cc09b0-7923-4f8e-9026-d136cc4298ec","system_id":"levelo_inurba_marseille","lat":43.278125,"lon":5.407051,"is_reserved":false,"is_disabled":false,"rental_uris":{"android":"levelo://app?vid=d1cc09b0-7923-4f8e-9026-d136cc4298ec","ios":"levelo://app?vid=d1cc09b0-7923-4f8e-9026-d136cc4298ec"},"vehicle_type_id":"4","last_reported":1753197118,"current_range_meters":6800,"station_id":"ce4bhnh2rcd13ifvqgtg","pricing_plan_id":"cebpf4jnsgd1na2vs0mg"},{"bike_id":"4b6a7b5f-d22f-4059-a27d-2e5dbfb8dce3","system_id":"levelo_inurba_marseille","lat":43.26212,"lon":5.37444,"is_reserved":false,"is_disabled":false,"rental_uris":{"android":"levelo://app?vid=4b6a7b5f-d22f-4059-a27d-2e5dbfb8dce3","ios":"levelo://app?vid=4b6a7b5f-d22f-4059-a27d-2e5dbfb8dce3"},"vehicle_type_id":"4","last_reported":1753197118,"current_range_meters":7200,"station_id":"ce4bhgp2rcd13ifvqfc0","pricing_plan_id":"cebpf4jnsgd1na2vs0mg"},{"bike_id":"c992cf84-43bb-4b6b-be22-8a31e438131c","system_id":"levelo_inurba_marseille","lat":43.29922,"lon":5.37471,"is_reserved":false,"is_disabled":false,"rental_uris":{"android":"levelo://app?vid=c992cf84-43bb-4b6b-be22-8a31e438131c","ios":"levelo://app?vid=c992cf84-43bb-4b6b-be22-8a31e438131c"},"vehicle_type_id":"4","last_reported":1753197118,"current_range_meters":7200,"station_id":"ce4bgjh2rcd13ifvqbg0","pricing_plan_id":"cebpf4jnsgd1na2vs0mg"},{"bike_id":"f3455578-e7a8-4866-a0fd-83640d71ec34","system_id":"levelo_inurba_marseille","lat":43.300906,"lon":5.39075,"is_reserved":false,"is_disabled":false,"rental_uris":{"android":"levelo://app?vid=f3455578-e7a8-4866-a0fd-83640d71ec34","ios":"levelo://app?vid=f3455578-e7a8-4866-a0fd-83640d71ec34"},"vehicle_type_id":"4","last_reported":1753197118,"current_range_meters":8000,"station_id":"ce4bh192rcd13ifvqdb0","pricing_plan_id":"cebpf4jnsgd1na2vs0mg"},{"bike_id":"938aaab8-fa24-48ee-9347-d79828d4fd82","system_id":"levelo_inurba_marseille","lat":43.30543,"lon":5.36548,"is_reserved":false,"is_disabled":false,"rental_uris":{"android":"levelo://app?vid=938aaab8-fa24-48ee-9347-d79828d4fd82","ios":"levelo://app?vid=938aaab8-fa24-48ee-9347-d79828d4fd82"},"vehicle_type_id":"4","last_reported":1753197118,"current_range_meters":8400,"station_id":"ce4bgs12rcd13ifvqcag","pricing_plan_id":"cebpf4jnsgd1na2vs0mg"},{"bike_id":"67d528bc-4d01-4c78-a248-7e85ee9096a5","system_id":"levelo_inurba_marseille","lat":43.29598,"lon":5.38106,"is_reserved":false,"is_disabled":false,"rental_uris":{"android":"levelo://app?vid=67d528bc-4d01-4c78-a248-7e85ee9096a5","ios":"levelo://app?vid=67d528bc-4d01-4c78-a248-7e85ee9096a5"},"vehicle_type_id":"4","last_reported":1753197118,"current_range_meters":8400,"station_id":"ce4bgl12rcd13ifvqbo0","pricing_plan_id":"cebpf4jnsgd1na2vs0mg"},{"bike_id":"e317c345-6f91-4624-94bb-aa46dc395d86","system_id":"levelo_inurba_marseille","lat":43.294422,"lon":5.397539,"is_reserved":false,"is_disabled":false,"rental_uris":{"android":"levelo://app?vid=e317c345-6f91-4624-94bb-aa46dc395d86","ios":"levelo://app?vid=e317c345-6f91-4624-94bb-aa46dc395d86"},"vehicle_type_id":"4","last_reported":1753197118,"current_range_meters":8400,"station_id":"ce4bh3h2rcd13ifvqdo0","pricing_plan_id":"cebpf4jnsgd1na2vs0mg"},{"bike_id":"39772d83-ed7f-4238-befb-f48acb41a4e1","system_id":"levelo_inurba_marseille","lat":43.21751,"lon":5.34602,"is_reserved":false,"is_disabled":false,"rental_uris":{"android":"levelo://app?vid=39772d83-ed7f-4238-befb-f48acb41a4e1","ios":"levelo://app?vid=39772d83-ed7f-4238-befb-f48acb41a4e1"},"vehicle_type_id":"4","last_reported":1753197118,"current_range_meters":8400,"station_id":"st_cvj6r9ubvosntc0bgbag","pricing_plan_id":"cebpf4jnsgd1na2vs0mg"},{"bike_id":"374764e9-1483-4c39-a939-2017d46b717a","system_id":"levelo_inurba_marseille","lat":43.2804,"lon":5.35001,"is_reserved":false,"is_disabled":false,"rental_uris":{"android":"levelo://app?vid=374764e9-1483-4c39-a939-2017d46b717a","ios":"levelo://app?vid=374764e9-1483-4c39-a939-2017d46b717a"},"vehicle_type_id":"4","last_reported":1753197118,"current_range_meters":8400,"station_id":"","pricing_plan_id":"cebpf4jnsgd1na2vs0mg"},{"bike_id":"4c768557-8dc7-4752-b71e-bbd0e28698a8","system_id":"levelo_inurba_marseille","lat":43.29429,"lon":5.43213,"is_reserved":false,"is_disabled":false,"rental_uris":{"android":"levelo://app?vid=4c768557-8dc7-4752-b71e-bbd0e28698a8","ios":"levelo://app?vid=4c768557-8dc7-4752-b71e-bbd0e28698a8"},"vehicle_type_id":"4","last_reported":1753197118,"current_range_meters":8800,"station_id":"","pricing_plan_id":"cebpf4jnsgd1na2vs0mg"},{"bike_id":"42413a25-16d1-4419-b44a-45580e0c6ac6","system_id":"levelo_inurba_marseille","lat":43.282171,"lon":5.395775,"is_reserved":false,"is_disabled":false,"rental_uris":{"android":"levelo://app?vid=42413a25-16d1-4419-b44a-45580e0c6ac6","ios":"levelo://app?vid=42413a25-16d1-4419-b44a-45580e0c6ac6"},"vehicle_type_id":"4","last_reported":1753197118,"current_range_meters":9200,"station_id":"","pricing_plan_id":"cebpf4jnsgd1na2vs0mg"},{"bike_id":"3b7181ea-5d3a-45c5-b42b-53c72962b3ee","system_id":"levelo_inurba_marseille","lat":43.22328,"lon":5.34626,"is_reserved":false,"is_disabled":false,"rental_uris":{"android":"levelo://app?vid=3b7181ea-5d3a-45c5-b42b-53c72962b3ee","ios":"levelo://app?vid=3b7181ea-5d3a-45c5-b42b-53c72962b3ee"},"vehicle_type_id":"4","last_reported":1753197118,"current_range_meters":9200,"station_id":"","pricing_plan_id":"cebpf4jnsgd1na2vs0mg"},{"bike_id":"60feeee7-ce46-4ff8-9345-7326c315aad5","system_id":"levelo_inurba_marseille","lat":43.29277,"lon":5.36852,"is_reserved":false,"is_disabled":false,"rental_uris":{"android":"levelo://app?vid=60feeee7-ce46-4ff8-9345-7326c315aad5","ios":"levelo://app?vid=60feeee7-ce46-4ff8-9345-7326c315aad5"},"vehicle_type_id":"4","last_reported":1753197118,"current_range_meters":9200,"station_id":"ce4bhbp2rcd13ifvqesg","pricing_plan_id":"cebpf4jnsgd1na2vs0mg"},{"bike_id":"6f0bcb77-dee8-40ab-812c-ed403c52a0df","system_id":"levelo_inurba_marseille","lat":43.317,"lon":5.37671,"is_reserved":false,"is_disabled":false,"rental_uris":{"android":"levelo://app?vid=6f0bcb77-dee8-40ab-812c-ed403c52a0df","ios":"levelo://app?vid=6f0bcb77-dee8-40ab-812c-ed403c52a0df"},"vehicle_type_id":"4","last_reported":1753197118,"current_range_meters":9200,"station_id":"","pricing_plan_id":"cebpf4jnsgd1na2vs0mg"},{"bike_id":"5ceff75e-999c-48bc-906c-52598179e12a","system_id":"levelo_inurba_marseille","lat":43.27834,"lon":5.39213,"is_reserved":false,"is_disabled":false,"rental_uris":{"android":"levelo://app?vid=5ceff75e-999c-48bc-906c-52598179e12a","ios":"levelo://app?vid=5ceff75e-999c-48bc-906c-52598179e12a"},"vehicle_type_id":"4","last_reported":1753197118,"current_range_meters":9600,"station_id":"ce4bhjp2rcd13ifvqga0","pricing_plan_id":"cebpf4jnsgd1na2vs0mg"},{"bike_id":"cfd499bf-06bb-4de5-b4ff-4805cfe53d05","system_id":"levelo_inurba_marseille","lat":43.307978,"lon":5.381577,"is_reserved":false,"is_disabled":false,"rental_uris":{"android":"levelo://app?vid=cfd499bf-06bb-4de5-b4ff-4805cfe53d05","ios":"levelo://app?vid=cfd499bf-06bb-4de5-b4ff-4805cfe53d05"},"vehicle_type_id":"4","last_reported":1753197118,"current_range_meters":9600,"station_id":"ce4bgt12rcd13ifvqce0","pricing_plan_id":"cebpf4jnsgd1na2vs0mg"},{"bike_id":"a468d5f5-b731-4c25-865d-b84946ae9c03","system_id":"levelo_inurba_marseille","lat":43.24167,"lon":5.36399,"is_reserved":false,"is_disabled":false,"rental_uris":{"android":"levelo://app?vid=a468d5f5-b731-4c25-865d-b84946ae9c03","ios":"levelo://app?vid=a468d5f5-b731-4c25-865d-b84946ae9c03"},"vehicle_type_id":"4","last_reported":1753197118,"current_range_meters":9600,"station_id":"cpo36qri1sfpv3e86is0","pricing_plan_id":"cebpf4jnsgd1na2vs0mg"},{"bike_id":"296caa36-be7d-4a88-8722-32ab0fe9e09a","system_id":"levelo_inurba_marseille","lat":43.32112,"lon":5.36763,"is_reserved":false,"is_disabled":false,"rental_uris":{"android":"levelo://app?vid=296caa36-be7d-4a88-8722-32ab0fe9e09a","ios":"levelo://app?vid=296caa36-be7d-4a88-8722-32ab0fe9e09a"},"vehicle_type_id":"4","last_reported":1753197118,"current_range_meters":9600,"station_id":"ce4bhrh2rcd13ifvqhug","pricing_plan_id":"cebpf4jnsgd1na2vs0mg"},{"bike_id":"2791a1cf-f8f1-4674-9084-f245d5cf3114","system_id":"levelo_inurba_marseille","lat":43.28417,"lon":5.34986,"is_reserved":false,"is_disabled":false,"rental_uris":{"android":"levelo://app?vid=2791a1cf-f8f1-4674-9084-f245d5cf3114","ios":"levelo://app?vid=2791a1cf-f8f1-4674-9084-f245d5cf3114"},"vehicle_type_id":"4","last_reported":1753197118,"current_range_meters":9600,"station_id":"ce4bhbh2rcd13ifvqepg","pricing_plan_id":"cebpf4jnsgd1na2vs0mg"},{"bike_id":"ed9d8c71-7f62-4b1f-8771-3513fee3ded6","system_id":"levelo_inurba_marseille","lat":43.27813,"lon":5.40713,"is_reserved":false,"is_disabled":false,"rental_uris":{"android":"levelo://app?vid=ed9d8c71-7f62-4b1f-8771-3513fee3ded6","ios":"levelo://app?vid=ed9d8c71-7f62-4b1f-8771-3513fee3ded6"},"vehicle_type_id":"4","last_reported":1753197118,"current_range_meters":10000,"station_id":"ce4bhnh2rcd13ifvqgtg","pricing_plan_id":"cebpf4jnsgd1na2vs0mg"},{"bike_id":"d85ec1a9-8ce8-4582-866f-e81b8010795f","system_id":"levelo_inurba_marseille","lat":43.28263,"lon":5.35086,"is_reserved":false,"is_disabled":false,"rental_uris":{"android":"levelo://app?vid=d85ec1a9-8ce8-4582-866f-e81b8010795f","ios":"levelo://app?vid=d85ec1a9-8ce8-4582-866f-e81b8010795f"},"vehicle_type_id":"4","last_reported":1753197118,"current_range_meters":10000,"station_id":"ce4bhbp2rcd13ifvqerg","pricing_plan_id":"cebpf4jnsgd1na2vs0mg"},{"bike_id":"02f62ba6-cb19-48be-956f-a91e18589f34","system_id":"levelo_inurba_marseille","lat":43.28277,"lon":5.35078,"is_reserved":false,"is_disabled":false,"rental_uris":{"android":"levelo://app?vid=02f62ba6-cb19-48be-956f-a91e18589f34","ios":"levelo://app?vid=02f62ba6-cb19-48be-956f-a91e18589f34"},"vehicle_type_id":"4","last_reported":1753197118,"current_range_meters":10000,"station_id":"ce4bhbp2rcd13ifvqerg","pricing_plan_id":"cebpf4jnsgd1na2vs0mg"},{"bike_id":"0b79a07d-7d12-4808-bc19-d353ecd13a5f","system_id":"levelo_inurba_marseille","lat":43.28441,"lon":5.39216,"is_reserved":false,"is_disabled":false,"rental_uris":{"android":"levelo://app?vid=0b79a07d-7d12-4808-bc19-d353ecd13a5f","ios":"levelo://app?vid=0b79a07d-7d12-4808-bc19-d353ecd13a5f"},"vehicle_type_id":"4","last_reported":1753197118,"current_range_meters":10800,"station_id":"ce4bhoh2rcd13ifvqh5g","pricing_plan_id":"cebpf4jnsgd1na2vs0mg"},{"bike_id":"aae1560a-1001-4332-bd57-c3f17d1965e7","system_id":"levelo_inurba_marseille","lat":43.32546,"lon":5.41485,"is_reserved":false,"is_disabled":false,"rental_uris":{"android":"levelo://app?vid=aae1560a-1001-4332-bd57-c3f17d1965e7","ios":"levelo://app?vid=aae1560a-1001-4332-bd57-c3f17d1965e7"},"vehicle_type_id":"4","last_reported":1753197118,"current_range_meters":10800,"station_id":"ce4bhq12rcd13ifvqhhg","pricing_plan_id":"cebpf4jnsgd1na2vs0mg"},{"bike_id":"4ee76a7b-1bb4-47c3-9188-2891fd5e9f45","system_id":"levelo_inurba_marseille","lat":43.28272,"lon":5.35079,"is_reserved":false,"is_disabled":false,"rental_uris":{"android":"levelo://app?vid=4ee76a7b-1bb4-47c3-9188-2891fd5e9f45","ios":"levelo://app?vid=4ee76a7b-1bb4-47c3-9188-2891fd5e9f45"},"vehicle_type_id":"4","last_reported":1753197118,"current_range_meters":10800,"station_id":"ce4bhbp2rcd13ifvqerg","pricing_plan_id":"cebpf4jnsgd1na2vs0mg"},{"bike_id":"862e6639-8024-40b3-b43c-e907135858be","system_id":"levelo_inurba_marseille","lat":43.27913,"lon":5.39593,"is_reserved":false,"is_disabled":false,"rental_uris":{"android":"levelo://app?vid=862e6639-8024-40b3-b43c-e907135858be","ios":"levelo://app?vid=862e6639-8024-40b3-b43c-e907135858be"},"vehicle_type_id":"4","last_reported":1753197118,"current_range_meters":10800,"station_id":"ce4bhf92rcd13ifvqf40","pricing_plan_id":"cebpf4jnsgd1na2vs0mg"},{"bike_id":"29281d26-e973-410b-97dd-b2384965095b","system_id":"levelo_inurba_marseille","lat":43.27632,"lon":5.36119,"is_reserved":false,"is_disabled":false,"rental_uris":{"android":"levelo://app?vid=29281d26-e973-410b-97dd-b2384965095b","ios":"levelo://app?vid=29281d26-e973-410b-97dd-b2384965095b"},"vehicle_type_id":"4","last_reported":1753197118,"current_range_meters":11200,"station_id":"ce4bgj92rcd13ifvqbe0","pricing_plan_id":"cebpf4jnsgd1na2vs0mg"},{"bike_id":"c304ea96-45f9-4ae7-b475-84bd022d6a73","system_id":"levelo_inurba_marseille","lat":43.29191,"lon":5.35809,"is_reserved":false,"is_disabled":false,"rental_uris":{"android":"levelo://app?vid=c304ea96-45f9-4ae7-b475-84bd022d6a73","ios":"levelo://app?vid=c304ea96-45f9-4ae7-b475-84bd022d6a73"},"vehicle_type_id":"4","last_reported":1753197118,"current_range_meters":11200,"station_id":"ce4bhb12rcd13ifvqel0","pricing_plan_id":"cebpf4jnsgd1na2vs0mg"},{"bike_id":"9048f95a-03a3-48f5-8421-df7685f0f6b4","system_id":"levelo_inurba_marseille","lat":43.323609,"lon":5.367578,"is_reserved":false,"is_disabled":false,"rental_uris":{"android":"levelo://app?vid=9048f95a-03a3-48f5-8421-df7685f0f6b4","ios":"levelo://app?vid=9048f95a-03a3-48f5-8421-df7685f0f6b4"},"vehicle_type_id":"4","last_reported":1753197118,"current_range_meters":11200,"station_id":"ce4bhsh2rcd13ifvqi2g","pricing_plan_id":"cebpf4jnsgd1na2vs0mg"},{"bike_id":"55d5c3a2-4528-4659-bb8e-d650f30ff565","system_id":"levelo_inurba_marseille","lat":43.29578,"lon":5.3752,"is_reserved":false,"is_disabled":false,"rental_uris":{"android":"levelo://app?vid=55d5c3a2-4528-4659-bb8e-d650f30ff565","ios":"levelo://app?vid=55d5c3a2-4528-4659-bb8e-d650f30ff565"},"vehicle_type_id":"4","last_reported":1753197118,"current_range_meters":11600,"station_id":"ce4bgh92rcd13ifvqb50","pricing_plan_id":"cebpf4jnsgd1na2vs0mg"},{"bike_id":"20a281eb-353f-4ce3-be36-127a9ce94c34","system_id":"levelo_inurba_marseille","lat":43.24803,"lon":5.37456,"is_reserved":false,"is_disabled":false,"rental_uris":{"android":"levelo://app?vid=20a281eb-353f-4ce3-be36-127a9ce94c34","ios":"levelo://app?vid=20a281eb-353f-4ce3-be36-127a9ce94c34"},"vehicle_type_id":"4","last_reported":1753197118,"current_range_meters":11600,"station_id":"ce4bhgh2rcd13ifvqfb0","pricing_plan_id":"cebpf4jnsgd1na2vs0mg"},{"bike_id":"4622107a-7f7f-4cc3-a1e3-817835e97873","system_id":"levelo_inurba_marseille","lat":43.29524,"lon":5.3903,"is_reserved":false,"is_disabled":false,"rental_uris":{"android":"levelo://app?vid=4622107a-7f7f-4cc3-a1e3-817835e97873","ios":"levelo://app?vid=4622107a-7f7f-4cc3-a1e3-817835e97873"},"vehicle_type_id":"4","last_reported":1753197118,"current_range_meters":11600,"station_id":"ce4bh3p2rcd13ifvqdp0","pricing_plan_id":"cebpf4jnsgd1na2vs0mg"},{"bike_id":"3a686e40-c09e-4ee1-8eb1-5a0a88737f7b","system_id":"levelo_inurba_marseille","lat":43.27199,"lon":5.39192,"is_reserved":false,"is_disabled":false,"rental_uris":{"android":"levelo://app?vid=3a686e40-c09e-4ee1-8eb1-5a0a88737f7b","ios":"levelo://app?vid=3a686e40-c09e-4ee1-8eb1-5a0a88737f7b"},"vehicle_type_id":"4","last_reported":1753197118,"current_range_meters":11600,"station_id":"ce4bhhp2rcd13ifvqfm0","pricing_plan_id":"cebpf4jnsgd1na2vs0mg"},{"bike_id":"5e9e2493-ddb8-4c0c-83fe-25fc80a1faee","system_id":"levelo_inurba_marseille","lat":43.29636,"lon":5.40599,"is_reserved":false,"is_disabled":false,"rental_uris":{"android":"levelo://app?vid=5e9e2493-ddb8-4c0c-83fe-25fc80a1faee","ios":"levelo://app?vid=5e9e2493-ddb8-4c0c-83fe-25fc80a1faee"},"vehicle_type_id":"4","last_reported":1753197118,"current_range_meters":11600,"station_id":"ce4bh0h2rcd13ifvqd60","pricing_plan_id":"cebpf4jnsgd1na2vs0mg"},{"bike_id":"93857376-d903-42e5-aaae-4f6c985581f6","system_id":"levelo_inurba_marseille","lat":43.27916,"lon":5.3958,"is_reserved":false,"is_disabled":false,"rental_uris":{"android":"levelo://app?vid=93857376-d903-42e5-aaae-4f6c985581f6","ios":"levelo://app?vid=93857376-d903-42e5-aaae-4f6c985581f6"},"vehicle_type_id":"4","last_reported":1753197118,"current_range_meters":11600,"station_id":"ce4bhf92rcd13ifvqf40","pricing_plan_id":"cebpf4jnsgd1na2vs0mg"},{"bike_id":"18712b40-aede-42c5-9cae-c856181e63a1","system_id":"levelo_inurba_marseille","lat":43.28271,"lon":5.3506,"is_reserved":false,"is_disabled":false,"rental_uris":{"android":"levelo://app?vid=18712b40-aede-42c5-9cae-c856181e63a1","ios":"levelo://app?vid=18712b40-aede-42c5-9cae-c856181e63a1"},"vehicle_type_id":"4","last_reported":1753197118,"current_range_meters":12000,"station_id":"ce4bhbp2rcd13ifvqerg","pricing_plan_id":"cebpf4jnsgd1na2vs0mg"},{"bike_id":"93a8b295-0442-42cd-9a09-5ad251943cf6","system_id":"levelo_inurba_marseille","lat":43.28432,"lon":5.35017,"is_reserved":false,"is_disabled":false,"rental_uris":{"android":"levelo://app?vid=93a8b295-0442-42cd-9a09-5ad251943cf6","ios":"levelo://app?vid=93a8b295-0442-42cd-9a09-5ad251943cf6"},"vehicle_type_id":"4","last_reported":1753197118,"current_range_meters":12000,"station_id":"ce4bhbh2rcd13ifvqepg","pricing_plan_id":"cebpf4jnsgd1na2vs0mg"},{"bike_id":"14bfe123-f8e8-44fc-bbe3-440808c69a8b","system_id":"levelo_inurba_marseille","lat":43.284214,"lon":5.349881,"is_reserved":false,"is_disabled":false,"rental_uris":{"android":"levelo://app?vid=14bfe123-f8e8-44fc-bbe3-440808c69a8b","ios":"levelo://app?vid=14bfe123-f8e8-44fc-bbe3-440808c69a8b"},"vehicle_type_id":"4","last_reported":1753197118,"current_range_meters":12000,"station_id":"ce4bhbh2rcd13ifvqepg","pricing_plan_id":"cebpf4jnsgd1na2vs0mg"},{"bike_id":"a5f1f0d6-c678-45f4-9b29-96eaa29a3e36","system_id":"levelo_inurba_marseille","lat":43.2517,"lon":5.37311,"is_reserved":false,"is_disabled":false,"rental_uris":{"android":"levelo://app?vid=a5f1f0d6-c678-45f4-9b29-96eaa29a3e36","ios":"levelo://app?vid=a5f1f0d6-c678-45f4-9b29-96eaa29a3e36"},"vehicle_type_id":"4","last_reported":1753197118,"current_range_meters":12000,"station_id":"","pricing_plan_id":"cebpf4jnsgd1na2vs0mg"},{"bike_id":"06410ab7-646b-4a92-8c67-9be9379422d4","system_id":"levelo_inurba_marseille","lat":43.33033,"lon":5.41283,"is_reserved":false,"is_disabled":false,"rental_uris":{"android":"levelo://app?vid=06410ab7-646b-4a92-8c67-9be9379422d4","ios":"levelo://app?vid=06410ab7-646b-4a92-8c67-9be9379422d4"},"vehicle_type_id":"4","last_reported":1753197118,"current_range_meters":12400,"station_id":"","pricing_plan_id":"cebpf4jnsgd1na2vs0mg"},{"bike_id":"aab822e4-3e32-4fdd-bb1b-fbb9386fb9c0","system_id":"levelo_inurba_marseille","lat":43.27068,"lon":5.4027,"is_reserved":false,"is_disabled":false,"rental_uris":{"android":"levelo://app?vid=aab822e4-3e32-4fdd-bb1b-fbb9386fb9c0","ios":"levelo://app?vid=aab822e4-3e32-4fdd-bb1b-fbb9386fb9c0"},"vehicle_type_id":"4","last_reported":1753197118,"current_range_meters":12400,"station_id":"ce4bhk92rcd13ifvqgc0","pricing_plan_id":"cebpf4jnsgd1na2vs0mg"},{"bike_id":"63e367c8-10c3-4236-9825-5800ef476841","system_id":"levelo_inurba_marseille","lat":43.27378,"lon":5.36259,"is_reserved":false,"is_disabled":false,"rental_uris":{"android":"levelo://app?vid=63e367c8-10c3-4236-9825-5800ef476841","ios":"levelo://app?vid=63e367c8-10c3-4236-9825-5800ef476841"},"vehicle_type_id":"4","last_reported":1753197118,"current_range_meters":12400,"station_id":"ce4bhbh2rcd13ifvqeo0","pricing_plan_id":"cebpf4jnsgd1na2vs0mg"},{"bike_id":"3195efb4-565d-4a60-85ed-43d710dbd26d","system_id":"levelo_inurba_marseille","lat":43.27206,"lon":5.39188,"is_reserved":false,"is_disabled":false,"rental_uris":{"android":"levelo://app?vid=3195efb4-565d-4a60-85ed-43d710dbd26d","ios":"levelo://app?vid=3195efb4-565d-4a60-85ed-43d710dbd26d"},"vehicle_type_id":"4","last_reported":1753197118,"current_range_meters":12400,"station_id":"ce4bhhp2rcd13ifvqfm0","pricing_plan_id":"cebpf4jnsgd1na2vs0mg"},{"bike_id":"47f8f673-30a6-404a-b883-29c8dd09c50c","system_id":"levelo_inurba_marseille","lat":43.25117,"lon":5.403153,"is_reserved":false,"is_disabled":false,"rental_uris":{"android":"levelo://app?vid=47f8f673-30a6-404a-b883-29c8dd09c50c","ios":"levelo://app?vid=47f8f673-30a6-404a-b883-29c8dd09c50c"},"vehicle_type_id":"4","last_reported":1753197118,"current_range_meters":12400,"station_id":"ce4bhlh2rcd13ifvqgig","pricing_plan_id":"cebpf4jnsgd1na2vs0mg"},{"bike_id":"0082530e-bede-4c25-a59b-99f14518d4f6","system_id":"levelo_inurba_marseille","lat":43.32367,"lon":5.36766,"is_reserved":false,"is_disabled":false,"rental_uris":{"android":"levelo://app?vid=0082530e-bede-4c25-a59b-99f14518d4f6","ios":"levelo://app?vid=0082530e-bede-4c25-a59b-99f14518d4f6"},"vehicle_type_id":"4","last_reported":1753197118,"current_range_meters":12800,"station_id":"ce4bhsh2rcd13ifvqi2g","pricing_plan_id":"cebpf4jnsgd1na2vs0mg"},{"bike_id":"365bc9b2-68bd-4764-ad7a-4ff9aa780715","system_id":"levelo_inurba_marseille","lat":43.299012,"lon":5.436676,"is_reserved":false,"is_disabled":false,"rental_uris":{"android":"levelo://app?vid=365bc9b2-68bd-4764-ad7a-4ff9aa780715","ios":"levelo://app?vid=365bc9b2-68bd-4764-ad7a-4ff9aa780715"},"vehicle_type_id":"4","last_reported":1753197118,"current_range_meters":12800,"station_id":"ce4bhpp2rcd13ifvqhfg","pricing_plan_id":"cebpf4jnsgd1na2vs0mg"},{"bike_id":"7a68fc80-fd07-4ff6-82c8-3bde5bb6bbd6","system_id":"levelo_inurba_marseille","lat":43.27508,"lon":5.42476,"is_reserved":false,"is_disabled":false,"rental_uris":{"android":"levelo://app?vid=7a68fc80-fd07-4ff6-82c8-3bde5bb6bbd6","ios":"levelo://app?vid=7a68fc80-fd07-4ff6-82c8-3bde5bb6bbd6"},"vehicle_type_id":"4","last_reported":1753197118,"current_range_meters":12800,"station_id":"ce4bhn92rcd13ifvqgrg","pricing_plan_id":"cebpf4jnsgd1na2vs0mg"},{"bike_id":"2532f685-6f3a-4c90-bb5b-1968c16961d3","system_id":"levelo_inurba_marseille","lat":43.29619,"lon":5.37166,"is_reserved":false,"is_disabled":false,"rental_uris":{"android":"levelo://app?vid=2532f685-6f3a-4c90-bb5b-1968c16961d3","ios":"levelo://app?vid=2532f685-6f3a-4c90-bb5b-1968c16961d3"},"vehicle_type_id":"4","last_reported":1753197118,"current_range_meters":12400,"station_id":"ce4bgnh2rcd13ifvqc0g","pricing_plan_id":"cebpf4jnsgd1na2vs0mg"},{"bike_id":"b2cde23e-f061-454e-9280-8b07da9edd7e","system_id":"levelo_inurba_marseille","lat":43.240692,"lon":5.377619,"is_reserved":false,"is_disabled":false,"rental_uris":{"android":"levelo://app?vid=b2cde23e-f061-454e-9280-8b07da9edd7e","ios":"levelo://app?vid=b2cde23e-f061-454e-9280-8b07da9edd7e"},"vehicle_type_id":"4","last_reported":1753197118,"current_range_meters":12800,"station_id":"ce4bhnp2rcd13ifvqgvg","pricing_plan_id":"cebpf4jnsgd1na2vs0mg"},{"bike_id":"ae15adc6-b25d-40a8-91e6-7dd6b4993440","system_id":"levelo_inurba_marseille","lat":43.3014,"lon":5.38783,"is_reserved":false,"is_disabled":false,"rental_uris":{"android":"levelo://app?vid=ae15adc6-b25d-40a8-91e6-7dd6b4993440","ios":"levelo://app?vid=ae15adc6-b25d-40a8-91e6-7dd6b4993440"},"vehicle_type_id":"4","last_reported":1753197118,"current_range_meters":12800,"station_id":"ce4bghh2rcd13ifvqb60","pricing_plan_id":"cebpf4jnsgd1na2vs0mg"},{"bike_id":"c05f8a9b-b11a-421b-bf54-758864ba593c","system_id":"levelo_inurba_marseille","lat":43.25935,"lon":5.40918,"is_reserved":false,"is_disabled":true,"rental_uris":{"android":"levelo://app?vid=c05f8a9b-b11a-421b-bf54-758864ba593c","ios":"levelo://app?vid=c05f8a9b-b11a-421b-bf54-758864ba593c"},"vehicle_type_id":"4","last_reported":1753197118,"current_range_meters":12800,"station_id":"ce4bhm92rcd13ifvqglg","pricing_plan_id":"cebpf4jnsgd1na2vs0mg"},{"bike_id":"20b9d723-9149-4587-ae80-b38f405e5269","system_id":"levelo_inurba_marseille","lat":43.29973,"lon":5.37172,"is_reserved":false,"is_disabled":false,"rental_uris":{"android":"levelo://app?vid=20b9d723-9149-4587-ae80-b38f405e5269","ios":"levelo://app?vid=20b9d723-9149-4587-ae80-b38f405e5269"},"vehicle_type_id":"4","last_reported":1753197118,"current_range_meters":12800,"station_id":"ce4bgr92rcd13ifvqc7g","pricing_plan_id":"cebpf4jnsgd1na2vs0mg"},{"bike_id":"c5e3bc4a-9bdf-46b0-a2e8-916eb9af5837","system_id":"levelo_inurba_marseille","lat":43.32659,"lon":5.40996,"is_reserved":false,"is_disabled":false,"rental_uris":{"android":"levelo://app?vid=c5e3bc4a-9bdf-46b0-a2e8-916eb9af5837","ios":"levelo://app?vid=c5e3bc4a-9bdf-46b0-a2e8-916eb9af5837"},"vehicle_type_id":"4","last_reported":1753197118,"current_range_meters":12800,"station_id":"ce4bhpp2rcd13ifvqhgg","pricing_plan_id":"cebpf4jnsgd1na2vs0mg"},{"bike_id":"79b507a4-6b69-4862-bc07-d60efb691c7d","system_id":"levelo_inurba_marseille","lat":43.28485,"lon":5.38536,"is_reserved":false,"is_disabled":false,"rental_uris":{"android":"levelo://app?vid=79b507a4-6b69-4862-bc07-d60efb691c7d","ios":"levelo://app?vid=79b507a4-6b69-4862-bc07-d60efb691c7d"},"vehicle_type_id":"4","last_reported":1753197118,"current_range_meters":13600,"station_id":"","pricing_plan_id":"cebpf4jnsgd1na2vs0mg"},{"bike_id":"e5e218f9-e1ab-4f2b-9bc5-f3c391442e17","system_id":"levelo_inurba_marseille","lat":43.29612,"lon":5.37729,"is_reserved":false,"is_disabled":false,"rental_uris":{"android":"levelo://app?vid=e5e218f9-e1ab-4f2b-9bc5-f3c391442e17","ios":"levelo://app?vid=e5e218f9-e1ab-4f2b-9bc5-f3c391442e17"},"vehicle_type_id":"4","last_reported":1753197118,"current_range_meters":13600,"station_id":"ce4bgi92rcd13ifvqb90","pricing_plan_id":"cebpf4jnsgd1na2vs0mg"},{"bike_id":"72024e02-0ccc-45ec-87c8-bfd123ae2fcf","system_id":"levelo_inurba_marseille","lat":43.303906,"lon":5.424949,"is_reserved":false,"is_disabled":false,"rental_uris":{"android":"levelo://app?vid=72024e02-0ccc-45ec-87c8-bfd123ae2fcf","ios":"levelo://app?vid=72024e02-0ccc-45ec-87c8-bfd123ae2fcf"},"vehicle_type_id":"4","last_reported":1753197118,"current_range_meters":14000,"station_id":"ce4bhoh2rcd13ifvqh6g","pricing_plan_id":"cebpf4jnsgd1na2vs0mg"},{"bike_id":"4301a3cc-f753-4ead-bd7c-4cc45a5b05e7","system_id":"levelo_inurba_marseille","lat":43.30304,"lon":5.39206,"is_reserved":false,"is_disabled":false,"rental_uris":{"android":"levelo://app?vid=4301a3cc-f753-4ead-bd7c-4cc45a5b05e7","ios":"levelo://app?vid=4301a3cc-f753-4ead-bd7c-4cc45a5b05e7"},"vehicle_type_id":"4","last_reported":1753197118,"current_range_meters":14000,"station_id":"ce4bgkh2rcd13ifvqbk0","pricing_plan_id":"cebpf4jnsgd1na2vs0mg"},{"bike_id":"31198700-1cc1-4c89-862e-74b56a98340b","system_id":"levelo_inurba_marseille","lat":43.29055,"lon":5.35921,"is_reserved":false,"is_disabled":false,"rental_uris":{"android":"levelo://app?vid=31198700-1cc1-4c89-862e-74b56a98340b","ios":"levelo://app?vid=31198700-1cc1-4c89-862e-74b56a98340b"},"vehicle_type_id":"4","last_reported":1753197118,"current_range_meters":14400,"station_id":"ce4bha92rcd13ifvqeg0","pricing_plan_id":"cebpf4jnsgd1na2vs0mg"},{"bike_id":"6ee298a9-4e26-44ba-936c-cc66be0f2d6f","system_id":"levelo_inurba_marseille","lat":43.28033,"lon":5.36949,"is_reserved":false,"is_disabled":false,"rental_uris":{"android":"levelo://app?vid=6ee298a9-4e26-44ba-936c-cc66be0f2d6f","ios":"levelo://app?vid=6ee298a9-4e26-44ba-936c-cc66be0f2d6f"},"vehicle_type_id":"4","last_reported":1753197118,"current_range_meters":14400,"station_id":"ce4bha12rcd13ifvqef0","pricing_plan_id":"cebpf4jnsgd1na2vs0mg"},{"bike_id":"89e5300e-f524-48d1-8669-762241baab60","system_id":"levelo_inurba_marseille","lat":43.22926,"lon":5.35383,"is_reserved":false,"is_disabled":false,"rental_uris":{"android":"levelo://app?vid=89e5300e-f524-48d1-8669-762241baab60","ios":"levelo://app?vid=89e5300e-f524-48d1-8669-762241baab60"},"vehicle_type_id":"4","last_reported":1753197118,"current_range_meters":14400,"station_id":"cpo3532slgdg3j2ikp40","pricing_plan_id":"cebpf4jnsgd1na2vs0mg"},{"bike_id":"f3b52797-52c0-4f08-b705-8cb190cf0cdc","system_id":"levelo_inurba_marseille","lat":43.27837,"lon":5.39199,"is_reserved":false,"is_disabled":false,"rental_uris":{"android":"levelo://app?vid=f3b52797-52c0-4f08-b705-8cb190cf0cdc","ios":"levelo://app?vid=f3b52797-52c0-4f08-b705-8cb190cf0cdc"},"vehicle_type_id":"4","last_reported":1753197118,"current_range_meters":14400,"station_id":"ce4bhjp2rcd13ifvqga0","pricing_plan_id":"cebpf4jnsgd1na2vs0mg"},{"bike_id":"05d42747-d0a7-485b-804a-c208d042127e","system_id":"levelo_inurba_marseille","lat":43.24164,"lon":5.36413,"is_reserved":false,"is_disabled":false,"rental_uris":{"android":"levelo://app?vid=05d42747-d0a7-485b-804a-c208d042127e","ios":"levelo://app?vid=05d42747-d0a7-485b-804a-c208d042127e"},"vehicle_type_id":"4","last_reported":1753197118,"current_range_meters":14400,"station_id":"cpo36qri1sfpv3e86is0","pricing_plan_id":"cebpf4jnsgd1na2vs0mg"},{"bike_id":"cbccf468-5b5f-4e0a-a364-0f984309ccb1","system_id":"levelo_inurba_marseille","lat":43.310763,"lon":5.383531,"is_reserved":false,"is_disabled":false,"rental_uris":{"android":"levelo://app?vid=cbccf468-5b5f-4e0a-a364-0f984309ccb1","ios":"levelo://app?vid=cbccf468-5b5f-4e0a-a364-0f984309ccb1"},"vehicle_type_id":"4","last_reported":1753197118,"current_range_meters":14800,"station_id":"ce4bgh92rcd13ifvqb40","pricing_plan_id":"cebpf4jnsgd1na2vs0mg"},{"bike_id":"13e8d40a-1535-45e1-919d-9be64f10ad03","system_id":"levelo_inurba_marseille","lat":43.3057,"lon":5.3652,"is_reserved":false,"is_disabled":false,"rental_uris":{"android":"levelo://app?vid=13e8d40a-1535-45e1-919d-9be64f10ad03","ios":"levelo://app?vid=13e8d40a-1535-45e1-919d-9be64f10ad03"},"vehicle_type_id":"4","last_reported":1753197118,"current_range_meters":14800,"station_id":"ce4bgs12rcd13ifvqcag","pricing_plan_id":"cebpf4jnsgd1na2vs0mg"},{"bike_id":"73995655-1f23-4957-a22a-bb9b7000d3a3","system_id":"levelo_inurba_marseille","lat":43.25015,"lon":5.38918,"is_reserved":false,"is_disabled":false,"rental_uris":{"android":"levelo://app?vid=73995655-1f23-4957-a22a-bb9b7000d3a3","ios":"levelo://app?vid=73995655-1f23-4957-a22a-bb9b7000d3a3"},"vehicle_type_id":"4","last_reported":1753197118,"current_range_meters":14800,"station_id":"ce4bhgp2rcd13ifvqfd0","pricing_plan_id":"cebpf4jnsgd1na2vs0mg"},{"bike_id":"c9dbd36b-479c-4a5c-b200-3aa7673340d9","system_id":"levelo_inurba_marseille","lat":43.241448,"lon":5.363743,"is_reserved":false,"is_disabled":false,"rental_uris":{"android":"levelo://app?vid=c9dbd36b-479c-4a5c-b200-3aa7673340d9","ios":"levelo://app?vid=c9dbd36b-479c-4a5c-b200-3aa7673340d9"},"vehicle_type_id":"4","last_reported":1753197118,"current_range_meters":14800,"station_id":"","pricing_plan_id":"cebpf4jnsgd1na2vs0mg"},{"bike_id":"2de94f63-9808-4d21-a12c-c3a7bc80a5ed","system_id":"levelo_inurba_marseille","lat":43.29058,"lon":5.3717,"is_reserved":false,"is_disabled":false,"rental_uris":{"android":"levelo://app?vid=2de94f63-9808-4d21-a12c-c3a7bc80a5ed","ios":"levelo://app?vid=2de94f63-9808-4d21-a12c-c3a7bc80a5ed"},"vehicle_type_id":"4","last_reported":1753197118,"current_range_meters":14800,"station_id":"ce4bgh92rcd13ifvqb40","pricing_plan_id":"cebpf4jnsgd1na2vs0mg"},{"bike_id":"911c78cb-34d5-44b1-a60e-8e3e2bb9a5f4","system_id":"levelo_inurba_marseille","lat":43.24168,"lon":5.36394,"is_reserved":false,"is_disabled":false,"rental_uris":{"android":"levelo://app?vid=911c78cb-34d5-44b1-a60e-8e3e2bb9a5f4","ios":"levelo://app?vid=911c78cb-34d5-44b1-a60e-8e3e2bb9a5f4"},"vehicle_type_id":"4","last_reported":1753197118,"current_range_meters":14800,"station_id":"cpo36qri1sfpv3e86is0","pricing_plan_id":"cebpf4jnsgd1na2vs0mg"},{"bike_id":"51b5f6e9-56b8-43dc-9ef5-ed465eec8208","system_id":"levelo_inurba_marseille","lat":43.285,"lon":5.38568,"is_reserved":false,"is_disabled":false,"rental_uris":{"android":"levelo://app?vid=51b5f6e9-56b8-43dc-9ef5-ed465eec8208","ios":"levelo://app?vid=51b5f6e9-56b8-43dc-9ef5-ed465eec8208"},"vehicle_type_id":"4","last_reported":1753197118,"current_range_meters":14800,"station_id":"ce4bh8p2rcd13ifvqeb0","pricing_plan_id":"cebpf4jnsgd1na2vs0mg"},{"bike_id":"9e35f87b-92fc-4ad1-8892-b7e25a0e8789","system_id":"levelo_inurba_marseille","lat":43.2582,"lon":5.39438,"is_reserved":false,"is_disabled":false,"rental_uris":{"android":"levelo://app?vid=9e35f87b-92fc-4ad1-8892-b7e25a0e8789","ios":"levelo://app?vid=9e35f87b-92fc-4ad1-8892-b7e25a0e8789"},"vehicle_type_id":"4","last_reported":1753197118,"current_range_meters":14800,"station_id":"ce4bhih2rcd13ifvqfr0","pricing_plan_id":"cebpf4jnsgd1na2vs0mg"},{"bike_id":"aa5097b6-6968-4aec-b711-e7780938924b","system_id":"levelo_inurba_marseille","lat":43.32963,"lon":5.35896,"is_reserved":false,"is_disabled":false,"rental_uris":{"android":"levelo://app?vid=aa5097b6-6968-4aec-b711-e7780938924b","ios":"levelo://app?vid=aa5097b6-6968-4aec-b711-e7780938924b"},"vehicle_type_id":"4","last_reported":1753197118,"current_range_meters":14800,"station_id":"","pricing_plan_id":"cebpf4jnsgd1na2vs0mg"},{"bike_id":"41f0759b-d3a0-4658-bd9a-7658d27cb7a3","system_id":"levelo_inurba_marseille","lat":43.30597,"lon":5.39355,"is_reserved":false,"is_disabled":false,"rental_uris":{"android":"levelo://app?vid=41f0759b-d3a0-4658-bd9a-7658d27cb7a3","ios":"levelo://app?vid=41f0759b-d3a0-4658-bd9a-7658d27cb7a3"},"vehicle_type_id":"4","last_reported":1753197118,"current_range_meters":15200,"station_id":"ce4bh0p2rcd13ifvqd80","pricing_plan_id":"cebpf4jnsgd1na2vs0mg"},{"bike_id":"01963c35-0b11-400b-bac1-a05772463bdd","system_id":"levelo_inurba_marseille","lat":43.295306,"lon":5.385381,"is_reserved":false,"is_disabled":false,"rental_uris":{"android":"levelo://app?vid=01963c35-0b11-400b-bac1-a05772463bdd","ios":"levelo://app?vid=01963c35-0b11-400b-bac1-a05772463bdd"},"vehicle_type_id":"4","last_reported":1753197118,"current_range_meters":15200,"station_id":"ce4bgih2rcd13ifvqba0","pricing_plan_id":"cebpf4jnsgd1na2vs0mg"},{"bike_id":"85b65ca0-7365-40fb-8905-5a0638bc8593","system_id":"levelo_inurba_marseille","lat":43.22927,"lon":5.3537,"is_reserved":false,"is_disabled":false,"rental_uris":{"android":"levelo://app?vid=85b65ca0-7365-40fb-8905-5a0638bc8593","ios":"levelo://app?vid=85b65ca0-7365-40fb-8905-5a0638bc8593"},"vehicle_type_id":"4","last_reported":1753197118,"current_range_meters":15200,"station_id":"cpo3532slgdg3j2ikp40","pricing_plan_id":"cebpf4jnsgd1na2vs0mg"},{"bike_id":"a1c6406f-4554-4834-bee1-a8a215693e33","system_id":"levelo_inurba_marseille","lat":43.240749,"lon":5.377615,"is_reserved":false,"is_disabled":false,"rental_uris":{"android":"levelo://app?vid=a1c6406f-4554-4834-bee1-a8a215693e33","ios":"levelo://app?vid=a1c6406f-4554-4834-bee1-a8a215693e33"},"vehicle_type_id":"4","last_reported":1753197118,"current_range_meters":16000,"station_id":"ce4bhnp2rcd13ifvqgvg","pricing_plan_id":"cebpf4jnsgd1na2vs0mg"},{"bike_id":"e98317a9-59d1-4035-a22a-3f15a041ffdf","system_id":"levelo_inurba_marseille","lat":43.24652,"lon":5.38178,"is_reserved":false,"is_disabled":false,"rental_uris":{"android":"levelo://app?vid=e98317a9-59d1-4035-a22a-3f15a041ffdf","ios":"levelo://app?vid=e98317a9-59d1-4035-a22a-3f15a041ffdf"},"vehicle_type_id":"4","last_reported":1753197118,"current_range_meters":16000,"station_id":"ce4bhih2rcd13ifvqfr0","pricing_plan_id":"cebpf4jnsgd1na2vs0mg"},{"bike_id":"f7d24d79-fb73-44fe-a579-eccbe39a5e1e","system_id":"levelo_inurba_marseille","lat":43.24169,"lon":5.36406,"is_reserved":false,"is_disabled":false,"rental_uris":{"android":"levelo://app?vid=f7d24d79-fb73-44fe-a579-eccbe39a5e1e","ios":"levelo://app?vid=f7d24d79-fb73-44fe-a579-eccbe39a5e1e"},"vehicle_type_id":"4","last_reported":1753197118,"current_range_meters":16000,"station_id":"cpo36qri1sfpv3e86is0","pricing_plan_id":"cebpf4jnsgd1na2vs0mg"},{"bike_id":"a2dd6018-6620-4bad-8da2-59900f365943","system_id":"levelo_inurba_marseille","lat":43.28254,"lon":5.35066,"is_reserved":false,"is_disabled":false,"rental_uris":{"android":"levelo://app?vid=a2dd6018-6620-4bad-8da2-59900f365943","ios":"levelo://app?vid=a2dd6018-6620-4bad-8da2-59900f365943"},"vehicle_type_id":"4","last_reported":1753197118,"current_range_meters":16000,"station_id":"ce4bhbp2rcd13ifvqerg","pricing_plan_id":"cebpf4jnsgd1na2vs0mg"},{"bike_id":"9e161f5a-7d58-407f-a8ae-ad1eae3a2d16","system_id":"levelo_inurba_marseille","lat":43.33722,"lon":5.39194,"is_reserved":false,"is_disabled":false,"rental_uris":{"android":"levelo://app?vid=9e161f5a-7d58-407f-a8ae-ad1eae3a2d16","ios":"levelo://app?vid=9e161f5a-7d58-407f-a8ae-ad1eae3a2d16"},"vehicle_type_id":"4","last_reported":1753197118,"current_range_meters":16000,"station_id":"ce4bhr92rcd13ifvqhsg","pricing_plan_id":"cebpf4jnsgd1na2vs0mg"},{"bike_id":"3c21b9e1-b296-4844-a6d5-b8d19c7f36c9","system_id":"levelo_inurba_marseille","lat":43.29171,"lon":5.38436,"is_reserved":false,"is_disabled":false,"rental_uris":{"android":"levelo://app?vid=3c21b9e1-b296-4844-a6d5-b8d19c7f36c9","ios":"levelo://app?vid=3c21b9e1-b296-4844-a6d5-b8d19c7f36c9"},"vehicle_type_id":"4","last_reported":1753197118,"current_range_meters":16000,"station_id":"","pricing_plan_id":"cebpf4jnsgd1na2vs0mg"},{"bike_id":"9b588286-6435-4c69-8e0c-33192cc3fcbf","system_id":"levelo_inurba_marseille","lat":43.290358,"lon":5.375519,"is_reserved":false,"is_disabled":true,"rental_uris":{"android":"levelo://app?vid=9b588286-6435-4c69-8e0c-33192cc3fcbf","ios":"levelo://app?vid=9b588286-6435-4c69-8e0c-33192cc3fcbf"},"vehicle_type_id":"4","last_reported":1753197118,"current_range_meters":16000,"station_id":"ce4bh692rcd13ifvqe90","pricing_plan_id":"cebpf4jnsgd1na2vs0mg"},{"bike_id":"1e6792f6-e23b-4a70-9f0d-cfc180638578","system_id":"levelo_inurba_marseille","lat":43.27413,"lon":5.39416,"is_reserved":false,"is_disabled":false,"rental_uris":{"android":"levelo://app?vid=1e6792f6-e23b-4a70-9f0d-cfc180638578","ios":"levelo://app?vid=1e6792f6-e23b-4a70-9f0d-cfc180638578"},"vehicle_type_id":"4","last_reported":1753197118,"current_range_meters":16000,"station_id":"ce4bhgp2rcd13ifvqfe0","pricing_plan_id":"cebpf4jnsgd1na2vs0mg"},{"bike_id":"c774f4c2-bc5f-4cf6-9563-a432097878f3","system_id":"levelo_inurba_marseille","lat":43.2919,"lon":5.35793,"is_reserved":false,"is_disabled":false,"rental_uris":{"android":"levelo://app?vid=c774f4c2-bc5f-4cf6-9563-a432097878f3","ios":"levelo://app?vid=c774f4c2-bc5f-4cf6-9563-a432097878f3"},"vehicle_type_id":"4","last_reported":1753197118,"current_range_meters":16000,"station_id":"ce4bhb12rcd13ifvqel0","pricing_plan_id":"cebpf4jnsgd1na2vs0mg"},{"bike_id":"56d29d7b-0840-4d8c-8300-f08d40064ddb","system_id":"levelo_inurba_marseille","lat":43.22502,"lon":5.34775,"is_reserved":false,"is_disabled":false,"rental_uris":{"android":"levelo://app?vid=56d29d7b-0840-4d8c-8300-f08d40064ddb","ios":"levelo://app?vid=56d29d7b-0840-4d8c-8300-f08d40064ddb"},"vehicle_type_id":"4","last_reported":1753197118,"current_range_meters":16000,"station_id":"","pricing_plan_id":"cebpf4jnsgd1na2vs0mg"},{"bike_id":"68e44529-121b-4f9e-8d82-54c9f374aa3c","system_id":"levelo_inurba_marseille","lat":43.30428,"lon":5.39739,"is_reserved":false,"is_disabled":false,"rental_uris":{"android":"levelo://app?vid=68e44529-121b-4f9e-8d82-54c9f374aa3c","ios":"levelo://app?vid=68e44529-121b-4f9e-8d82-54c9f374aa3c"},"vehicle_type_id":"4","last_reported":1753197118,"current_range_meters":16000,"station_id":"ce4bh092rcd13ifvqd20","pricing_plan_id":"cebpf4jnsgd1na2vs0mg"},{"bike_id":"bd03cea5-43da-4bb4-9573-64e11acf65c7","system_id":"levelo_inurba_marseille","lat":43.32477,"lon":5.36578,"is_reserved":false,"is_disabled":false,"rental_uris":{"android":"levelo://app?vid=bd03cea5-43da-4bb4-9573-64e11acf65c7","ios":"levelo://app?vid=bd03cea5-43da-4bb4-9573-64e11acf65c7"},"vehicle_type_id":"4","last_reported":1753197118,"current_range_meters":16400,"station_id":"ce4bhs12rcd13ifvqhvg","pricing_plan_id":"cebpf4jnsgd1na2vs0mg"},{"bike_id":"d3eea4a0-76ba-4059-ba6b-c1ecd6270925","system_id":"levelo_inurba_marseille","lat":43.21248,"lon":5.35079,"is_reserved":false,"is_disabled":false,"rental_uris":{"android":"levelo://app?vid=d3eea4a0-76ba-4059-ba6b-c1ecd6270925","ios":"levelo://app?vid=d3eea4a0-76ba-4059-ba6b-c1ecd6270925"},"vehicle_type_id":"4","last_reported":1753197118,"current_range_meters":16800,"station_id":"","pricing_plan_id":"cebpf4jnsgd1na2vs0mg"},{"bike_id":"a08dfd63-fca8-4db3-a935-3512aac7f22b","system_id":"levelo_inurba_marseille","lat":43.21751,"lon":5.34593,"is_reserved":false,"is_disabled":false,"rental_uris":{"android":"levelo://app?vid=a08dfd63-fca8-4db3-a935-3512aac7f22b","ios":"levelo://app?vid=a08dfd63-fca8-4db3-a935-3512aac7f22b"},"vehicle_type_id":"4","last_reported":1753197118,"current_range_meters":16400,"station_id":"st_cvj6r9ubvosntc0bgbag","pricing_plan_id":"cebpf4jnsgd1na2vs0mg"},{"bike_id":"ae39aef5-4489-480e-ab12-bb50d99f64eb","system_id":"levelo_inurba_marseille","lat":43.29026,"lon":5.38134,"is_reserved":false,"is_disabled":false,"rental_uris":{"android":"levelo://app?vid=ae39aef5-4489-480e-ab12-bb50d99f64eb","ios":"levelo://app?vid=ae39aef5-4489-480e-ab12-bb50d99f64eb"},"vehicle_type_id":"4","last_reported":1753197118,"current_range_meters":16000,"station_id":"ce4bh4p2rcd13ifvqe1g","pricing_plan_id":"cebpf4jnsgd1na2vs0mg"},{"bike_id":"de3675fa-c77f-4be3-9586-a3073bd197c1","system_id":"levelo_inurba_marseille","lat":43.250135,"lon":5.389162,"is_reserved":false,"is_disabled":false,"rental_uris":{"android":"levelo://app?vid=de3675fa-c77f-4be3-9586-a3073bd197c1","ios":"levelo://app?vid=de3675fa-c77f-4be3-9586-a3073bd197c1"},"vehicle_type_id":"4","last_reported":1753197118,"current_range_meters":16400,"station_id":"ce4bhgp2rcd13ifvqfd0","pricing_plan_id":"cebpf4jnsgd1na2vs0mg"},{"bike_id":"87a25bf9-60ea-48cf-a8dd-7937449bef54","system_id":"levelo_inurba_marseille","lat":43.23066,"lon":5.35474,"is_reserved":false,"is_disabled":false,"rental_uris":{"android":"levelo://app?vid=87a25bf9-60ea-48cf-a8dd-7937449bef54","ios":"levelo://app?vid=87a25bf9-60ea-48cf-a8dd-7937449bef54"},"vehicle_type_id":"4","last_reported":1753197118,"current_range_meters":16400,"station_id":"cpo3342slgdg3j2ifvpg","pricing_plan_id":"cebpf4jnsgd1na2vs0mg"},{"bike_id":"1d46de9d-1074-4bbb-ba0d-38867406f627","system_id":"levelo_inurba_marseille","lat":43.21217,"lon":5.35028,"is_reserved":false,"is_disabled":false,"rental_uris":{"android":"levelo://app?vid=1d46de9d-1074-4bbb-ba0d-38867406f627","ios":"levelo://app?vid=1d46de9d-1074-4bbb-ba0d-38867406f627"},"vehicle_type_id":"4","last_reported":1753197118,"current_range_meters":16400,"station_id":"","pricing_plan_id":"cebpf4jnsgd1na2vs0mg"},{"bike_id":"0e9a85c6-06d2-4670-b0e5-8e2dcf7e625f","system_id":"levelo_inurba_marseille","lat":43.30148,"lon":5.38082,"is_reserved":false,"is_disabled":false,"rental_uris":{"android":"levelo://app?vid=0e9a85c6-06d2-4670-b0e5-8e2dcf7e625f","ios":"levelo://app?vid=0e9a85c6-06d2-4670-b0e5-8e2dcf7e625f"},"vehicle_type_id":"4","last_reported":1753197118,"current_range_meters":16400,"station_id":"ce4bgjp2rcd13ifvqbh0","pricing_plan_id":"cebpf4jnsgd1na2vs0mg"},{"bike_id":"78319bf2-ede5-4a49-91b7-f6267170e0d4","system_id":"levelo_inurba_marseille","lat":43.2549,"lon":5.37632,"is_reserved":false,"is_disabled":false,"rental_uris":{"android":"levelo://app?vid=78319bf2-ede5-4a49-91b7-f6267170e0d4","ios":"levelo://app?vid=78319bf2-ede5-4a49-91b7-f6267170e0d4"},"vehicle_type_id":"4","last_reported":1753197118,"current_range_meters":16400,"station_id":"ce4bhh12rcd13ifvqff0","pricing_plan_id":"cebpf4jnsgd1na2vs0mg"},{"bike_id":"fe50cf1d-fc61-4e48-98f2-ea42037cc2b3","system_id":"levelo_inurba_marseille","lat":43.22924,"lon":5.35373,"is_reserved":false,"is_disabled":false,"rental_uris":{"android":"levelo://app?vid=fe50cf1d-fc61-4e48-98f2-ea42037cc2b3","ios":"levelo://app?vid=fe50cf1d-fc61-4e48-98f2-ea42037cc2b3"},"vehicle_type_id":"4","last_reported":1753197118,"current_range_meters":16400,"station_id":"cpo3532slgdg3j2ikp40","pricing_plan_id":"cebpf4jnsgd1na2vs0mg"},{"bike_id":"e44893bb-5cdf-4921-b4e8-39ee578180a1","system_id":"levelo_inurba_marseille","lat":43.24081,"lon":5.37761,"is_reserved":false,"is_disabled":false,"rental_uris":{"android":"levelo://app?vid=e44893bb-5cdf-4921-b4e8-39ee578180a1","ios":"levelo://app?vid=e44893bb-5cdf-4921-b4e8-39ee578180a1"},"vehicle_type_id":"4","last_reported":1753197118,"current_range_meters":16400,"station_id":"ce4bhnp2rcd13ifvqgvg","pricing_plan_id":"cebpf4jnsgd1na2vs0mg"},{"bike_id":"194e348e-1696-4be5-b40d-bcccaabbbbd9","system_id":"levelo_inurba_marseille","lat":43.28278,"lon":5.35066,"is_reserved":false,"is_disabled":false,"rental_uris":{"android":"levelo://app?vid=194e348e-1696-4be5-b40d-bcccaabbbbd9","ios":"levelo://app?vid=194e348e-1696-4be5-b40d-bcccaabbbbd9"},"vehicle_type_id":"4","last_reported":1753197118,"current_range_meters":16800,"station_id":"ce4bhbp2rcd13ifvqerg","pricing_plan_id":"cebpf4jnsgd1na2vs0mg"},{"bike_id":"86b9a1ca-49f8-48d5-b26f-4b4d7f99c901","system_id":"levelo_inurba_marseille","lat":43.28598,"lon":5.35091,"is_reserved":false,"is_disabled":false,"rental_uris":{"android":"levelo://app?vid=86b9a1ca-49f8-48d5-b26f-4b4d7f99c901","ios":"levelo://app?vid=86b9a1ca-49f8-48d5-b26f-4b4d7f99c901"},"vehicle_type_id":"4","last_reported":1753197118,"current_range_meters":17200,"station_id":"","pricing_plan_id":"cebpf4jnsgd1na2vs0mg"},{"bike_id":"2e5ef04c-4df5-41c9-a777-96f999cc932c","system_id":"levelo_inurba_marseille","lat":43.265,"lon":5.39536,"is_reserved":false,"is_disabled":false,"rental_uris":{"android":"levelo://app?vid=2e5ef04c-4df5-41c9-a777-96f999cc932c","ios":"levelo://app?vid=2e5ef04c-4df5-41c9-a777-96f999cc932c"},"vehicle_type_id":"4","last_reported":1753197118,"current_range_meters":16800,"station_id":"ce4bhi12rcd13ifvqfq0","pricing_plan_id":"cebpf4jnsgd1na2vs0mg"},{"bike_id":"c1264928-f9f2-4fac-8788-f6f3be590192","system_id":"levelo_inurba_marseille","lat":43.29531,"lon":5.38551,"is_reserved":false,"is_disabled":false,"rental_uris":{"android":"levelo://app?vid=c1264928-f9f2-4fac-8788-f6f3be590192","ios":"levelo://app?vid=c1264928-f9f2-4fac-8788-f6f3be590192"},"vehicle_type_id":"4","last_reported":1753197118,"current_range_meters":16800,"station_id":"ce4bgih2rcd13ifvqba0","pricing_plan_id":"cebpf4jnsgd1na2vs0mg"},{"bike_id":"768a6774-6f88-4d8b-b7a7-29c2587ddd57","system_id":"levelo_inurba_marseille","lat":43.271733,"lon":5.409975,"is_reserved":false,"is_disabled":false,"rental_uris":{"android":"levelo://app?vid=768a6774-6f88-4d8b-b7a7-29c2587ddd57","ios":"levelo://app?vid=768a6774-6f88-4d8b-b7a7-29c2587ddd57"},"vehicle_type_id":"4","last_reported":1753197118,"current_range_meters":16800,"station_id":"","pricing_plan_id":"cebpf4jnsgd1na2vs0mg"},{"bike_id":"8bab44a7-c50d-4f7a-b207-e4c2d1ae0cc2","system_id":"levelo_inurba_marseille","lat":43.29713,"lon":5.36596,"is_reserved":false,"is_disabled":false,"rental_uris":{"android":"levelo://app?vid=8bab44a7-c50d-4f7a-b207-e4c2d1ae0cc2","ios":"levelo://app?vid=8bab44a7-c50d-4f7a-b207-e4c2d1ae0cc2"},"vehicle_type_id":"4","last_reported":1753197118,"current_range_meters":16800,"station_id":"ce4bgn12rcd13ifvqbt0","pricing_plan_id":"cebpf4jnsgd1na2vs0mg"},{"bike_id":"4be8ab13-53fe-4991-84b7-8c8e15d8b8c8","system_id":"levelo_inurba_marseille","lat":43.28425,"lon":5.3497,"is_reserved":false,"is_disabled":false,"rental_uris":{"android":"levelo://app?vid=4be8ab13-53fe-4991-84b7-8c8e15d8b8c8","ios":"levelo://app?vid=4be8ab13-53fe-4991-84b7-8c8e15d8b8c8"},"vehicle_type_id":"4","last_reported":1753197118,"current_range_meters":16800,"station_id":"ce4bhbh2rcd13ifvqepg","pricing_plan_id":"cebpf4jnsgd1na2vs0mg"},{"bike_id":"e994e617-94a9-4f70-80af-aa0d430faf3d","system_id":"levelo_inurba_marseille","lat":43.26932,"lon":5.38915,"is_reserved":false,"is_disabled":false,"rental_uris":{"android":"levelo://app?vid=e994e617-94a9-4f70-80af-aa0d430faf3d","ios":"levelo://app?vid=e994e617-94a9-4f70-80af-aa0d430faf3d"},"vehicle_type_id":"4","last_reported":1753197118,"current_range_meters":16800,"station_id":"ce4bhhh2rcd13ifvqfl0","pricing_plan_id":"cebpf4jnsgd1na2vs0mg"},{"bike_id":"2c7bce45-eb44-4f7c-b9a1-007313299745","system_id":"levelo_inurba_marseille","lat":43.30608,"lon":5.37211,"is_reserved":false,"is_disabled":false,"rental_uris":{"android":"levelo://app?vid=2c7bce45-eb44-4f7c-b9a1-007313299745","ios":"levelo://app?vid=2c7bce45-eb44-4f7c-b9a1-007313299745"},"vehicle_type_id":"4","last_reported":1753197118,"current_range_meters":17200,"station_id":"ce4bgqh2rcd13ifvqc4g","pricing_plan_id":"cebpf4jnsgd1na2vs0mg"},{"bike_id":"9a143ed1-a3c7-421c-a22c-84e79d27e230","system_id":"levelo_inurba_marseille","lat":43.28438,"lon":5.35009,"is_reserved":false,"is_disabled":true,"rental_uris":{"android":"levelo://app?vid=9a143ed1-a3c7-421c-a22c-84e79d27e230","ios":"levelo://app?vid=9a143ed1-a3c7-421c-a22c-84e79d27e230"},"vehicle_type_id":"4","last_reported":1753197118,"current_range_meters":17200,"station_id":"ce4bhbh2rcd13ifvqepg","pricing_plan_id":"cebpf4jnsgd1na2vs0mg"},{"bike_id":"6a354c9f-e5b1-4629-a81b-736eb34d194c","system_id":"levelo_inurba_marseille","lat":43.25125,"lon":5.40328,"is_reserved":false,"is_disabled":false,"rental_uris":{"android":"levelo://app?vid=6a354c9f-e5b1-4629-a81b-736eb34d194c","ios":"levelo://app?vid=6a354c9f-e5b1-4629-a81b-736eb34d194c"},"vehicle_type_id":"4","last_reported":1753197118,"current_range_meters":17200,"station_id":"ce4bhlh2rcd13ifvqgig","pricing_plan_id":"cebpf4jnsgd1na2vs0mg"},{"bike_id":"eba47e0d-7af1-4ee2-938f-61df42e82608","system_id":"levelo_inurba_marseille","lat":43.290408,"lon":5.369838,"is_reserved":false,"is_disabled":false,"rental_uris":{"android":"levelo://app?vid=eba47e0d-7af1-4ee2-938f-61df42e82608","ios":"levelo://app?vid=eba47e0d-7af1-4ee2-938f-61df42e82608"},"vehicle_type_id":"4","last_reported":1753197118,"current_range_meters":16800,"station_id":"ce4bh392rcd13ifvqdl0","pricing_plan_id":"cebpf4jnsgd1na2vs0mg"},{"bike_id":"911c3e66-c4b4-4e9c-bf6d-21f121179e38","system_id":"levelo_inurba_marseille","lat":43.29903,"lon":5.37974,"is_reserved":false,"is_disabled":false,"rental_uris":{"android":"levelo://app?vid=911c3e66-c4b4-4e9c-bf6d-21f121179e38","ios":"levelo://app?vid=911c3e66-c4b4-4e9c-bf6d-21f121179e38"},"vehicle_type_id":"4","last_reported":1753197118,"current_range_meters":17200,"station_id":"","pricing_plan_id":"cebpf4jnsgd1na2vs0mg"},{"bike_id":"91f826d2-458c-44a4-8895-96bc0fd333a0","system_id":"levelo_inurba_marseille","lat":43.27206,"lon":5.39191,"is_reserved":false,"is_disabled":false,"rental_uris":{"android":"levelo://app?vid=91f826d2-458c-44a4-8895-96bc0fd333a0","ios":"levelo://app?vid=91f826d2-458c-44a4-8895-96bc0fd333a0"},"vehicle_type_id":"4","last_reported":1753197118,"current_range_meters":17200,"station_id":"ce4bhhp2rcd13ifvqfm0","pricing_plan_id":"cebpf4jnsgd1na2vs0mg"},{"bike_id":"1ec3ecd8-80d2-4d78-a518-7b853ef28ae4","system_id":"levelo_inurba_marseille","lat":43.23189,"lon":5.35558,"is_reserved":false,"is_disabled":false,"rental_uris":{"android":"levelo://app?vid=1ec3ecd8-80d2-4d78-a518-7b853ef28ae4","ios":"levelo://app?vid=1ec3ecd8-80d2-4d78-a518-7b853ef28ae4"},"vehicle_type_id":"4","last_reported":1753197118,"current_range_meters":17200,"station_id":"ce4bhu92rcd13ifvqi70","pricing_plan_id":"cebpf4jnsgd1na2vs0mg"},{"bike_id":"fe07410f-2ac3-4d42-a644-c798c7a25a84","system_id":"levelo_inurba_marseille","lat":43.26571,"lon":5.372879,"is_reserved":false,"is_disabled":false,"rental_uris":{"android":"levelo://app?vid=fe07410f-2ac3-4d42-a644-c798c7a25a84","ios":"levelo://app?vid=fe07410f-2ac3-4d42-a644-c798c7a25a84"},"vehicle_type_id":"4","last_reported":1753197118,"current_range_meters":17200,"station_id":"","pricing_plan_id":"cebpf4jnsgd1na2vs0mg"},{"bike_id":"ee5b3c26-9f03-4693-8484-d66daff728e8","system_id":"levelo_inurba_marseille","lat":43.3236,"lon":5.36766,"is_reserved":false,"is_disabled":false,"rental_uris":{"android":"levelo://app?vid=ee5b3c26-9f03-4693-8484-d66daff728e8","ios":"levelo://app?vid=ee5b3c26-9f03-4693-8484-d66daff728e8"},"vehicle_type_id":"4","last_reported":1753197118,"current_range_meters":17200,"station_id":"ce4bhsh2rcd13ifvqi2g","pricing_plan_id":"cebpf4jnsgd1na2vs0mg"},{"bike_id":"d2a114c8-b5c6-4001-a89b-810cecf12420","system_id":"levelo_inurba_marseille","lat":43.28272,"lon":5.35061,"is_reserved":false,"is_disabled":false,"rental_uris":{"android":"levelo://app?vid=d2a114c8-b5c6-4001-a89b-810cecf12420","ios":"levelo://app?vid=d2a114c8-b5c6-4001-a89b-810cecf12420"},"vehicle_type_id":"4","last_reported":1753197118,"current_range_meters":17200,"station_id":"ce4bhbp2rcd13ifvqerg","pricing_plan_id":"cebpf4jnsgd1na2vs0mg"},{"bike_id":"6a0d8c74-7780-4136-9266-0b57b4a44a57","system_id":"levelo_inurba_marseille","lat":43.2894,"lon":5.38389,"is_reserved":false,"is_disabled":false,"rental_uris":{"android":"levelo://app?vid=6a0d8c74-7780-4136-9266-0b57b4a44a57","ios":"levelo://app?vid=6a0d8c74-7780-4136-9266-0b57b4a44a57"},"vehicle_type_id":"4","last_reported":1753197118,"current_range_meters":17200,"station_id":"ce4bh612rcd13ifvqe6g","pricing_plan_id":"cebpf4jnsgd1na2vs0mg"},{"bike_id":"54d63ab7-c3d7-458b-9b8e-a64391151a65","system_id":"levelo_inurba_marseille","lat":43.25859,"lon":5.39907,"is_reserved":false,"is_disabled":false,"rental_uris":{"android":"levelo://app?vid=54d63ab7-c3d7-458b-9b8e-a64391151a65","ios":"levelo://app?vid=54d63ab7-c3d7-458b-9b8e-a64391151a65"},"vehicle_type_id":"4","last_reported":1753197118,"current_range_meters":17200,"station_id":"ce4bhl92rcd13ifvqghg","pricing_plan_id":"cebpf4jnsgd1na2vs0mg"},{"bike_id":"e9ab50a6-b622-4377-a55c-7ae7daaf10fa","system_id":"levelo_inurba_marseille","lat":43.29005,"lon":5.35612,"is_reserved":false,"is_disabled":false,"rental_uris":{"android":"levelo://app?vid=e9ab50a6-b622-4377-a55c-7ae7daaf10fa","ios":"levelo://app?vid=e9ab50a6-b622-4377-a55c-7ae7daaf10fa"},"vehicle_type_id":"4","last_reported":1753197118,"current_range_meters":17200,"station_id":"ce4bhb92rcd13ifvqen0","pricing_plan_id":"cebpf4jnsgd1na2vs0mg"},{"bike_id":"cc926983-7496-48df-9677-b8723ddc96b9","system_id":"levelo_inurba_marseille","lat":43.22959,"lon":5.354,"is_reserved":false,"is_disabled":false,"rental_uris":{"android":"levelo://app?vid=cc926983-7496-48df-9677-b8723ddc96b9","ios":"levelo://app?vid=cc926983-7496-48df-9677-b8723ddc96b9"},"vehicle_type_id":"4","last_reported":1753197118,"current_range_meters":17600,"station_id":"cpo3532slgdg3j2ikp40","pricing_plan_id":"cebpf4jnsgd1na2vs0mg"},{"bike_id":"1a2751da-031a-4246-8d2c-dd848ee0e802","system_id":"levelo_inurba_marseille","lat":43.29545,"lon":5.38552,"is_reserved":false,"is_disabled":true,"rental_uris":{"android":"levelo://app?vid=1a2751da-031a-4246-8d2c-dd848ee0e802","ios":"levelo://app?vid=1a2751da-031a-4246-8d2c-dd848ee0e802"},"vehicle_type_id":"4","last_reported":1753197118,"current_range_meters":17600,"station_id":"ce4bgih2rcd13ifvqba0","pricing_plan_id":"cebpf4jnsgd1na2vs0mg"},{"bike_id":"fb81ee79-6688-4d05-be53-1ac881d0c7b8","system_id":"levelo_inurba_marseille","lat":43.23198,"lon":5.35545,"is_reserved":false,"is_disabled":false,"rental_uris":{"android":"levelo://app?vid=fb81ee79-6688-4d05-be53-1ac881d0c7b8","ios":"levelo://app?vid=fb81ee79-6688-4d05-be53-1ac881d0c7b8"},"vehicle_type_id":"4","last_reported":1753197118,"current_range_meters":17600,"station_id":"ce4bhu92rcd13ifvqi70","pricing_plan_id":"cebpf4jnsgd1na2vs0mg"},{"bike_id":"bb74e696-d878-4d41-b7f0-3b9df9bd212d","system_id":"levelo_inurba_marseille","lat":43.25006,"lon":5.3892,"is_reserved":false,"is_disabled":false,"rental_uris":{"android":"levelo://app?vid=bb74e696-d878-4d41-b7f0-3b9df9bd212d","ios":"levelo://app?vid=bb74e696-d878-4d41-b7f0-3b9df9bd212d"},"vehicle_type_id":"4","last_reported":1753197118,"current_range_meters":17600,"station_id":"ce4bhgp2rcd13ifvqfd0","pricing_plan_id":"cebpf4jnsgd1na2vs0mg"},{"bike_id":"9951451f-27b6-4552-a1a0-175304197a78","system_id":"levelo_inurba_marseille","lat":43.21749,"lon":5.34603,"is_reserved":false,"is_disabled":false,"rental_uris":{"android":"levelo://app?vid=9951451f-27b6-4552-a1a0-175304197a78","ios":"levelo://app?vid=9951451f-27b6-4552-a1a0-175304197a78"},"vehicle_type_id":"4","last_reported":1753197118,"current_range_meters":17600,"station_id":"st_cvj6r9ubvosntc0bgbag","pricing_plan_id":"cebpf4jnsgd1na2vs0mg"},{"bike_id":"94e16ff7-ca9b-4267-ab62-e8cb02481ce0","system_id":"levelo_inurba_marseille","lat":43.294158,"lon":5.406474,"is_reserved":false,"is_disabled":false,"rental_uris":{"android":"levelo://app?vid=94e16ff7-ca9b-4267-ab62-e8cb02481ce0","ios":"levelo://app?vid=94e16ff7-ca9b-4267-ab62-e8cb02481ce0"},"vehicle_type_id":"4","last_reported":1753197118,"current_range_meters":17600,"station_id":"ce4bh192rcd13ifvqdc0","pricing_plan_id":"cebpf4jnsgd1na2vs0mg"},{"bike_id":"d3ed952d-bc25-48dd-b193-241fd0c32bd6","system_id":"levelo_inurba_marseille","lat":43.28418,"lon":5.349795,"is_reserved":false,"is_disabled":false,"rental_uris":{"android":"levelo://app?vid=d3ed952d-bc25-48dd-b193-241fd0c32bd6","ios":"levelo://app?vid=d3ed952d-bc25-48dd-b193-241fd0c32bd6"},"vehicle_type_id":"4","last_reported":1753197118,"current_range_meters":18000,"station_id":"","pricing_plan_id":"cebpf4jnsgd1na2vs0mg"},{"bike_id":"d6d71e64-13b7-486f-8d67-6dc921d44f67","system_id":"levelo_inurba_marseille","lat":43.282652,"lon":5.350579,"is_reserved":false,"is_disabled":false,"rental_uris":{"android":"levelo://app?vid=d6d71e64-13b7-486f-8d67-6dc921d44f67","ios":"levelo://app?vid=d6d71e64-13b7-486f-8d67-6dc921d44f67"},"vehicle_type_id":"4","last_reported":1753197118,"current_range_meters":17600,"station_id":"ce4bhbp2rcd13ifvqerg","pricing_plan_id":"cebpf4jnsgd1na2vs0mg"},{"bike_id":"164edc38-1d3d-439d-b804-12c0b72655b0","system_id":"levelo_inurba_marseille","lat":43.31224,"lon":5.36871,"is_reserved":false,"is_disabled":false,"rental_uris":{"android":"levelo://app?vid=164edc38-1d3d-439d-b804-12c0b72655b0","ios":"levelo://app?vid=164edc38-1d3d-439d-b804-12c0b72655b0"},"vehicle_type_id":"4","last_reported":1753197118,"current_range_meters":17600,"station_id":"ce4bgl92rcd13ifvqbq0","pricing_plan_id":"cebpf4jnsgd1na2vs0mg"},{"bike_id":"174defda-86ed-4ab6-8980-30fdbefb1a63","system_id":"levelo_inurba_marseille","lat":43.299761,"lon":5.371821,"is_reserved":false,"is_disabled":false,"rental_uris":{"android":"levelo://app?vid=174defda-86ed-4ab6-8980-30fdbefb1a63","ios":"levelo://app?vid=174defda-86ed-4ab6-8980-30fdbefb1a63"},"vehicle_type_id":"4","last_reported":1753197118,"current_range_meters":17600,"station_id":"ce4bgr92rcd13ifvqc7g","pricing_plan_id":"cebpf4jnsgd1na2vs0mg"},{"bike_id":"5984b2a9-df08-472f-9972-51a1ce9935d3","system_id":"levelo_inurba_marseille","lat":43.21748,"lon":5.34606,"is_reserved":false,"is_disabled":false,"rental_uris":{"android":"levelo://app?vid=5984b2a9-df08-472f-9972-51a1ce9935d3","ios":"levelo://app?vid=5984b2a9-df08-472f-9972-51a1ce9935d3"},"vehicle_type_id":"4","last_reported":1753197118,"current_range_meters":17600,"station_id":"st_cvj6r9ubvosntc0bgbag","pricing_plan_id":"cebpf4jnsgd1na2vs0mg"},{"bike_id":"1b157667-a24b-4926-b77e-0fcab1475f45","system_id":"levelo_inurba_marseille","lat":43.30431,"lon":5.38892,"is_reserved":false,"is_disabled":false,"rental_uris":{"android":"levelo://app?vid=1b157667-a24b-4926-b77e-0fcab1475f45","ios":"levelo://app?vid=1b157667-a24b-4926-b77e-0fcab1475f45"},"vehicle_type_id":"4","last_reported":1753197118,"current_range_meters":19200,"station_id":"ce4bgk12rcd13ifvqbi0","pricing_plan_id":"cebpf4jnsgd1na2vs0mg"},{"bike_id":"6093672b-1e9a-4299-b920-36e4f293a348","system_id":"levelo_inurba_marseille","lat":43.22947,"lon":5.35398,"is_reserved":false,"is_disabled":false,"rental_uris":{"android":"levelo://app?vid=6093672b-1e9a-4299-b920-36e4f293a348","ios":"levelo://app?vid=6093672b-1e9a-4299-b920-36e4f293a348"},"vehicle_type_id":"4","last_reported":1753197118,"current_range_meters":18000,"station_id":"cpo3532slgdg3j2ikp40","pricing_plan_id":"cebpf4jnsgd1na2vs0mg"},{"bike_id":"25a1aabf-393f-4959-9d0c-79c1ac606318","system_id":"levelo_inurba_marseille","lat":43.23967,"lon":5.36639,"is_reserved":false,"is_disabled":false,"rental_uris":{"android":"levelo://app?vid=25a1aabf-393f-4959-9d0c-79c1ac606318","ios":"levelo://app?vid=25a1aabf-393f-4959-9d0c-79c1ac606318"},"vehicle_type_id":"4","last_reported":1753197118,"current_range_meters":18000,"station_id":"ce4bhi12rcd13ifvqfp0","pricing_plan_id":"cebpf4jnsgd1na2vs0mg"},{"bike_id":"a1b0b122-6e21-4460-9358-18ef2a002ce1","system_id":"levelo_inurba_marseille","lat":43.28404,"lon":5.34978,"is_reserved":false,"is_disabled":false,"rental_uris":{"android":"levelo://app?vid=a1b0b122-6e21-4460-9358-18ef2a002ce1","ios":"levelo://app?vid=a1b0b122-6e21-4460-9358-18ef2a002ce1"},"vehicle_type_id":"4","last_reported":1753197118,"current_range_meters":18000,"station_id":"ce4bhbh2rcd13ifvqepg","pricing_plan_id":"cebpf4jnsgd1na2vs0mg"},{"bike_id":"a87328a1-9225-4419-b45d-c275e4739a6a","system_id":"levelo_inurba_marseille","lat":43.21188,"lon":5.35077,"is_reserved":false,"is_disabled":false,"rental_uris":{"android":"levelo://app?vid=a87328a1-9225-4419-b45d-c275e4739a6a","ios":"levelo://app?vid=a87328a1-9225-4419-b45d-c275e4739a6a"},"vehicle_type_id":"4","last_reported":1753197118,"current_range_meters":18000,"station_id":"st_cvj6sg6p6f1abm77japg","pricing_plan_id":"cebpf4jnsgd1na2vs0mg"},{"bike_id":"0328809f-87e4-43d4-9881-2db7d232e7fc","system_id":"levelo_inurba_marseille","lat":43.28959,"lon":5.36628,"is_reserved":false,"is_disabled":false,"rental_uris":{"android":"levelo://app?vid=0328809f-87e4-43d4-9881-2db7d232e7fc","ios":"levelo://app?vid=0328809f-87e4-43d4-9881-2db7d232e7fc"},"vehicle_type_id":"4","last_reported":1753197118,"current_range_meters":18000,"station_id":"ce4bhap2rcd13ifvqek0","pricing_plan_id":"cebpf4jnsgd1na2vs0mg"},{"bike_id":"0dd0314a-12b6-49fc-bfa7-5a67dd238f96","system_id":"levelo_inurba_marseille","lat":43.287,"lon":5.39988,"is_reserved":false,"is_disabled":false,"rental_uris":{"android":"levelo://app?vid=0dd0314a-12b6-49fc-bfa7-5a67dd238f96","ios":"levelo://app?vid=0dd0314a-12b6-49fc-bfa7-5a67dd238f96"},"vehicle_type_id":"4","last_reported":1753197118,"current_range_meters":18000,"station_id":"ce4bho92rcd13ifvqh3g","pricing_plan_id":"cebpf4jnsgd1na2vs0mg"},{"bike_id":"eb9ca644-aee8-47bb-a8ed-053332a8d838","system_id":"levelo_inurba_marseille","lat":43.26542,"lon":5.37319,"is_reserved":false,"is_disabled":false,"rental_uris":{"android":"levelo://app?vid=eb9ca644-aee8-47bb-a8ed-053332a8d838","ios":"levelo://app?vid=eb9ca644-aee8-47bb-a8ed-053332a8d838"},"vehicle_type_id":"4","last_reported":1753197118,"current_range_meters":18800,"station_id":"ce4bhg12rcd13ifvqf70","pricing_plan_id":"cebpf4jnsgd1na2vs0mg"},{"bike_id":"dd602369-1910-4209-bb75-19b7f940fc97","system_id":"levelo_inurba_marseille","lat":43.21757,"lon":5.34616,"is_reserved":false,"is_disabled":false,"rental_uris":{"android":"levelo://app?vid=dd602369-1910-4209-bb75-19b7f940fc97","ios":"levelo://app?vid=dd602369-1910-4209-bb75-19b7f940fc97"},"vehicle_type_id":"4","last_reported":1753197118,"current_range_meters":18800,"station_id":"st_cvj6r9ubvosntc0bgbag","pricing_plan_id":"cebpf4jnsgd1na2vs0mg"},{"bike_id":"378529d2-baf2-47df-b557-10b4b0fca26c","system_id":"levelo_inurba_marseille","lat":43.3236,"lon":5.38891,"is_reserved":false,"is_disabled":false,"rental_uris":{"android":"levelo://app?vid=378529d2-baf2-47df-b557-10b4b0fca26c","ios":"levelo://app?vid=378529d2-baf2-47df-b557-10b4b0fca26c"},"vehicle_type_id":"4","last_reported":1753197118,"current_range_meters":18800,"station_id":"ce4bhqp2rcd13ifvqhog","pricing_plan_id":"cebpf4jnsgd1na2vs0mg"},{"bike_id":"5ab192d6-d6cf-4880-b572-31cd24c0cead","system_id":"levelo_inurba_marseille","lat":43.29009,"lon":5.35612,"is_reserved":false,"is_disabled":false,"rental_uris":{"android":"levelo://app?vid=5ab192d6-d6cf-4880-b572-31cd24c0cead","ios":"levelo://app?vid=5ab192d6-d6cf-4880-b572-31cd24c0cead"},"vehicle_type_id":"4","last_reported":1753197118,"current_range_meters":18800,"station_id":"ce4bhb92rcd13ifvqen0","pricing_plan_id":"cebpf4jnsgd1na2vs0mg"},{"bike_id":"248219e7-14bb-4f0e-9e02-0501bea0b7b4","system_id":"levelo_inurba_marseille","lat":43.241689,"lon":5.363991,"is_reserved":false,"is_disabled":false,"rental_uris":{"android":"levelo://app?vid=248219e7-14bb-4f0e-9e02-0501bea0b7b4","ios":"levelo://app?vid=248219e7-14bb-4f0e-9e02-0501bea0b7b4"},"vehicle_type_id":"4","last_reported":1753197118,"current_range_meters":18800,"station_id":"cpo36qri1sfpv3e86is0","pricing_plan_id":"cebpf4jnsgd1na2vs0mg"},{"bike_id":"e3a9e6d1-788b-4774-babe-289560a0bee7","system_id":"levelo_inurba_marseille","lat":43.29972,"lon":5.37441,"is_reserved":false,"is_disabled":false,"rental_uris":{"android":"levelo://app?vid=e3a9e6d1-788b-4774-babe-289560a0bee7","ios":"levelo://app?vid=e3a9e6d1-788b-4774-babe-289560a0bee7"},"vehicle_type_id":"4","last_reported":1753197118,"current_range_meters":18800,"station_id":"","pricing_plan_id":"cebpf4jnsgd1na2vs0mg"},{"bike_id":"177aa1e7-e7c1-4e92-bc28-5c7f8fd3ca86","system_id":"levelo_inurba_marseille","lat":43.21204,"lon":5.35087,"is_reserved":false,"is_disabled":false,"rental_uris":{"android":"levelo://app?vid=177aa1e7-e7c1-4e92-bc28-5c7f8fd3ca86","ios":"levelo://app?vid=177aa1e7-e7c1-4e92-bc28-5c7f8fd3ca86"},"vehicle_type_id":"4","last_reported":1753197118,"current_range_meters":18800,"station_id":"st_cvj6sg6p6f1abm77japg","pricing_plan_id":"cebpf4jnsgd1na2vs0mg"},{"bike_id":"e2cef874-f6ba-4388-9fb1-db3ce1da8f5c","system_id":"levelo_inurba_marseille","lat":43.23201,"lon":5.35553,"is_reserved":false,"is_disabled":false,"rental_uris":{"android":"levelo://app?vid=e2cef874-f6ba-4388-9fb1-db3ce1da8f5c","ios":"levelo://app?vid=e2cef874-f6ba-4388-9fb1-db3ce1da8f5c"},"vehicle_type_id":"4","last_reported":1753197118,"current_range_meters":18800,"station_id":"ce4bhu92rcd13ifvqi70","pricing_plan_id":"cebpf4jnsgd1na2vs0mg"},{"bike_id":"2926e178-6436-4ad4-a9a0-63631e890abe","system_id":"levelo_inurba_marseille","lat":43.21788,"lon":5.34591,"is_reserved":false,"is_disabled":false,"rental_uris":{"android":"levelo://app?vid=2926e178-6436-4ad4-a9a0-63631e890abe","ios":"levelo://app?vid=2926e178-6436-4ad4-a9a0-63631e890abe"},"vehicle_type_id":"4","last_reported":1753197118,"current_range_meters":18800,"station_id":"st_cvj6r9ubvosntc0bgbag","pricing_plan_id":"cebpf4jnsgd1na2vs0mg"},{"bike_id":"ded11646-09b7-4dbc-8f9e-7334ebbd506e","system_id":"levelo_inurba_marseille","lat":43.28271,"lon":5.35069,"is_reserved":false,"is_disabled":false,"rental_uris":{"android":"levelo://app?vid=ded11646-09b7-4dbc-8f9e-7334ebbd506e","ios":"levelo://app?vid=ded11646-09b7-4dbc-8f9e-7334ebbd506e"},"vehicle_type_id":"4","last_reported":1753197118,"current_range_meters":18800,"station_id":"ce4bhbp2rcd13ifvqerg","pricing_plan_id":"cebpf4jnsgd1na2vs0mg"},{"bike_id":"d509b331-e799-4503-90e7-40b1e687c26f","system_id":"levelo_inurba_marseille","lat":43.28598,"lon":5.3707,"is_reserved":false,"is_disabled":true,"rental_uris":{"android":"levelo://app?vid=d509b331-e799-4503-90e7-40b1e687c26f","ios":"levelo://app?vid=d509b331-e799-4503-90e7-40b1e687c26f"},"vehicle_type_id":"4","last_reported":1753197118,"current_range_meters":18800,"station_id":"ce4bht12rcd13ifvqi60","pricing_plan_id":"cebpf4jnsgd1na2vs0mg"},{"bike_id":"69350320-3f56-4cd3-9a11-611e875f4a1f","system_id":"levelo_inurba_marseille","lat":43.31708,"lon":5.3774,"is_reserved":false,"is_disabled":false,"rental_uris":{"android":"levelo://app?vid=69350320-3f56-4cd3-9a11-611e875f4a1f","ios":"levelo://app?vid=69350320-3f56-4cd3-9a11-611e875f4a1f"},"vehicle_type_id":"4","last_reported":1753197118,"current_range_meters":18000,"station_id":"ce4bgth2rcd13ifvqch0","pricing_plan_id":"cebpf4jnsgd1na2vs0mg"},{"bike_id":"8b17c266-0757-4274-b3d1-57f39e942814","system_id":"levelo_inurba_marseille","lat":43.28565,"lon":5.39492,"is_reserved":false,"is_disabled":false,"rental_uris":{"android":"levelo://app?vid=8b17c266-0757-4274-b3d1-57f39e942814","ios":"levelo://app?vid=8b17c266-0757-4274-b3d1-57f39e942814"},"vehicle_type_id":"4","last_reported":1753197118,"current_range_meters":18800,"station_id":"ce4bh292rcd13ifvqdg0","pricing_plan_id":"cebpf4jnsgd1na2vs0mg"},{"bike_id":"3f486dec-f17e-4a3a-8404-dce448eaaa26","system_id":"levelo_inurba_marseille","lat":43.32109,"lon":5.36792,"is_reserved":false,"is_disabled":false,"rental_uris":{"android":"levelo://app?vid=3f486dec-f17e-4a3a-8404-dce448eaaa26","ios":"levelo://app?vid=3f486dec-f17e-4a3a-8404-dce448eaaa26"},"vehicle_type_id":"4","last_reported":1753197118,"current_range_meters":18800,"station_id":"ce4bhrh2rcd13ifvqhug","pricing_plan_id":"cebpf4jnsgd1na2vs0mg"},{"bike_id":"c850df63-8d8b-490d-a711-4a05d01b3fff","system_id":"levelo_inurba_marseille","lat":43.28418,"lon":5.349806,"is_reserved":false,"is_disabled":false,"rental_uris":{"android":"levelo://app?vid=c850df63-8d8b-490d-a711-4a05d01b3fff","ios":"levelo://app?vid=c850df63-8d8b-490d-a711-4a05d01b3fff"},"vehicle_type_id":"4","last_reported":1753197118,"current_range_meters":18800,"station_id":"ce4bhbh2rcd13ifvqepg","pricing_plan_id":"cebpf4jnsgd1na2vs0mg"},{"bike_id":"b304cf20-8bfb-49c6-a586-601ec14197ae","system_id":"levelo_inurba_marseille","lat":43.30572,"lon":5.36716,"is_reserved":false,"is_disabled":false,"rental_uris":{"android":"levelo://app?vid=b304cf20-8bfb-49c6-a586-601ec14197ae","ios":"levelo://app?vid=b304cf20-8bfb-49c6-a586-601ec14197ae"},"vehicle_type_id":"4","last_reported":1753197118,"current_range_meters":19200,"station_id":"ce4bgrp2rcd13ifvqc9g","pricing_plan_id":"cebpf4jnsgd1na2vs0mg"},{"bike_id":"35724039-7f87-4c8b-9981-9137ab21326b","system_id":"levelo_inurba_marseille","lat":43.270584,"lon":5.402678,"is_reserved":false,"is_disabled":false,"rental_uris":{"android":"levelo://app?vid=35724039-7f87-4c8b-9981-9137ab21326b","ios":"levelo://app?vid=35724039-7f87-4c8b-9981-9137ab21326b"},"vehicle_type_id":"4","last_reported":1753197118,"current_range_meters":19200,"station_id":"ce4bhk92rcd13ifvqgc0","pricing_plan_id":"cebpf4jnsgd1na2vs0mg"},{"bike_id":"9493f442-5d7a-42ca-94ed-23d2d0946f95","system_id":"levelo_inurba_marseille","lat":43.267916,"lon":5.394145,"is_reserved":false,"is_disabled":false,"rental_uris":{"android":"levelo://app?vid=9493f442-5d7a-42ca-94ed-23d2d0946f95","ios":"levelo://app?vid=9493f442-5d7a-42ca-94ed-23d2d0946f95"},"vehicle_type_id":"4","last_reported":1753197118,"current_range_meters":19200,"station_id":"ce4bho12rcd13ifvqh1g","pricing_plan_id":"cebpf4jnsgd1na2vs0mg"},{"bike_id":"4f1dd806-4cc0-4731-a103-d84b6076bb8f","system_id":"levelo_inurba_marseille","lat":43.25586,"lon":5.38217,"is_reserved":false,"is_disabled":true,"rental_uris":{"android":"levelo://app?vid=4f1dd806-4cc0-4731-a103-d84b6076bb8f","ios":"levelo://app?vid=4f1dd806-4cc0-4731-a103-d84b6076bb8f"},"vehicle_type_id":"4","last_reported":1753197118,"current_range_meters":19200,"station_id":"ce4bhih2rcd13ifvqfs0","pricing_plan_id":"cebpf4jnsgd1na2vs0mg"},{"bike_id":"87efb87e-9c1b-48bc-9816-65bf93d44e2c","system_id":"levelo_inurba_marseille","lat":43.276176,"lon":5.361005,"is_reserved":false,"is_disabled":false,"rental_uris":{"android":"levelo://app?vid=87efb87e-9c1b-48bc-9816-65bf93d44e2c","ios":"levelo://app?vid=87efb87e-9c1b-48bc-9816-65bf93d44e2c"},"vehicle_type_id":"4","last_reported":1753197118,"current_range_meters":19200,"station_id":"","pricing_plan_id":"cebpf4jnsgd1na2vs0mg"},{"bike_id":"23c29e00-ece7-4cf5-8159-4b8848728223","system_id":"levelo_inurba_marseille","lat":43.28424,"lon":5.34997,"is_reserved":false,"is_disabled":false,"rental_uris":{"android":"levelo://app?vid=23c29e00-ece7-4cf5-8159-4b8848728223","ios":"levelo://app?vid=23c29e00-ece7-4cf5-8159-4b8848728223"},"vehicle_type_id":"4","last_reported":1753197118,"current_range_meters":19200,"station_id":"ce4bhbh2rcd13ifvqepg","pricing_plan_id":"cebpf4jnsgd1na2vs0mg"},{"bike_id":"1037e2b0-5159-4ab5-8ab8-3ca01c76ac4b","system_id":"levelo_inurba_marseille","lat":43.21752,"lon":5.34598,"is_reserved":false,"is_disabled":false,"rental_uris":{"android":"levelo://app?vid=1037e2b0-5159-4ab5-8ab8-3ca01c76ac4b","ios":"levelo://app?vid=1037e2b0-5159-4ab5-8ab8-3ca01c76ac4b"},"vehicle_type_id":"4","last_reported":1753197118,"current_range_meters":19200,"station_id":"st_cvj6r9ubvosntc0bgbag","pricing_plan_id":"cebpf4jnsgd1na2vs0mg"},{"bike_id":"4fd2ce6e-422e-48af-9a87-09d327424c2e","system_id":"levelo_inurba_marseille","lat":43.27617,"lon":5.36142,"is_reserved":false,"is_disabled":false,"rental_uris":{"android":"levelo://app?vid=4fd2ce6e-422e-48af-9a87-09d327424c2e","ios":"levelo://app?vid=4fd2ce6e-422e-48af-9a87-09d327424c2e"},"vehicle_type_id":"4","last_reported":1753197118,"current_range_meters":19200,"station_id":"ce4bgj92rcd13ifvqbe0","pricing_plan_id":"cebpf4jnsgd1na2vs0mg"},{"bike_id":"b8bfa5de-b4d6-4d38-8e40-510ea441fe00","system_id":"levelo_inurba_marseille","lat":43.28417,"lon":5.34994,"is_reserved":false,"is_disabled":false,"rental_uris":{"android":"levelo://app?vid=b8bfa5de-b4d6-4d38-8e40-510ea441fe00","ios":"levelo://app?vid=b8bfa5de-b4d6-4d38-8e40-510ea441fe00"},"vehicle_type_id":"4","last_reported":1753197118,"current_range_meters":19200,"station_id":"ce4bhbh2rcd13ifvqepg","pricing_plan_id":"cebpf4jnsgd1na2vs0mg"},{"bike_id":"9bb5d30e-7a3b-416b-8265-fcc7d15a3375","system_id":"levelo_inurba_marseille","lat":43.28416,"lon":5.34996,"is_reserved":false,"is_disabled":false,"rental_uris":{"android":"levelo://app?vid=9bb5d30e-7a3b-416b-8265-fcc7d15a3375","ios":"levelo://app?vid=9bb5d30e-7a3b-416b-8265-fcc7d15a3375"},"vehicle_type_id":"4","last_reported":1753197118,"current_range_meters":19200,"station_id":"ce4bhbh2rcd13ifvqepg","pricing_plan_id":"cebpf4jnsgd1na2vs0mg"},{"bike_id":"743a90b8-556b-497e-ae30-b2d47d51b687","system_id":"levelo_inurba_marseille","lat":43.25107,"lon":5.40305,"is_reserved":false,"is_disabled":false,"rental_uris":{"android":"levelo://app?vid=743a90b8-556b-497e-ae30-b2d47d51b687","ios":"levelo://app?vid=743a90b8-556b-497e-ae30-b2d47d51b687"},"vehicle_type_id":"4","last_reported":1753197118,"current_range_meters":19200,"station_id":"ce4bhlh2rcd13ifvqgig","pricing_plan_id":"cebpf4jnsgd1na2vs0mg"},{"bike_id":"8639fd84-c349-4ade-9679-6910fe2cbb0b","system_id":"levelo_inurba_marseille","lat":43.21754,"lon":5.34609,"is_reserved":false,"is_disabled":false,"rental_uris":{"android":"levelo://app?vid=8639fd84-c349-4ade-9679-6910fe2cbb0b","ios":"levelo://app?vid=8639fd84-c349-4ade-9679-6910fe2cbb0b"},"vehicle_type_id":"4","last_reported":1753197118,"current_range_meters":19200,"station_id":"st_cvj6r9ubvosntc0bgbag","pricing_plan_id":"cebpf4jnsgd1na2vs0mg"},{"bike_id":"0a7e2862-d8ec-4c77-89d9-cfcdd51f8d75","system_id":"levelo_inurba_marseille","lat":43.318493,"lon":5.368107,"is_reserved":false,"is_disabled":false,"rental_uris":{"android":"levelo://app?vid=0a7e2862-d8ec-4c77-89d9-cfcdd51f8d75","ios":"levelo://app?vid=0a7e2862-d8ec-4c77-89d9-cfcdd51f8d75"},"vehicle_type_id":"4","last_reported":1753197118,"current_range_meters":19200,"station_id":"","pricing_plan_id":"cebpf4jnsgd1na2vs0mg"},{"bike_id":"b7090036-c932-4c6f-9bb7-45576b6f8d79","system_id":"levelo_inurba_marseille","lat":43.278381,"lon":5.392085,"is_reserved":false,"is_disabled":false,"rental_uris":{"android":"levelo://app?vid=b7090036-c932-4c6f-9bb7-45576b6f8d79","ios":"levelo://app?vid=b7090036-c932-4c6f-9bb7-45576b6f8d79"},"vehicle_type_id":"4","last_reported":1753197118,"current_range_meters":19200,"station_id":"ce4bhjp2rcd13ifvqga0","pricing_plan_id":"cebpf4jnsgd1na2vs0mg"},{"bike_id":"4b7b5be6-0a5b-41a1-8516-a13df95ad868","system_id":"levelo_inurba_marseille","lat":43.33761,"lon":5.37471,"is_reserved":false,"is_disabled":false,"rental_uris":{"android":"levelo://app?vid=4b7b5be6-0a5b-41a1-8516-a13df95ad868","ios":"levelo://app?vid=4b7b5be6-0a5b-41a1-8516-a13df95ad868"},"vehicle_type_id":"4","last_reported":1753197118,"current_range_meters":19600,"station_id":"","pricing_plan_id":"cebpf4jnsgd1na2vs0mg"},{"bike_id":"2a1f2403-152b-47d3-8001-ec26c6a37468","system_id":"levelo_inurba_marseille","lat":43.23149,"lon":5.4372,"is_reserved":false,"is_disabled":false,"rental_uris":{"android":"levelo://app?vid=2a1f2403-152b-47d3-8001-ec26c6a37468","ios":"levelo://app?vid=2a1f2403-152b-47d3-8001-ec26c6a37468"},"vehicle_type_id":"4","last_reported":1753197118,"current_range_meters":19600,"station_id":"ce4bhmp2rcd13ifvqgog","pricing_plan_id":"cebpf4jnsgd1na2vs0mg"},{"bike_id":"9b3bc160-f51b-4823-99cc-fac83e31e09e","system_id":"levelo_inurba_marseille","lat":43.32118,"lon":5.36757,"is_reserved":false,"is_disabled":false,"rental_uris":{"android":"levelo://app?vid=9b3bc160-f51b-4823-99cc-fac83e31e09e","ios":"levelo://app?vid=9b3bc160-f51b-4823-99cc-fac83e31e09e"},"vehicle_type_id":"4","last_reported":1753197118,"current_range_meters":19600,"station_id":"ce4bhrh2rcd13ifvqhug","pricing_plan_id":"cebpf4jnsgd1na2vs0mg"},{"bike_id":"1e59ecb6-20a5-42b7-a417-bfabebb7c070","system_id":"levelo_inurba_marseille","lat":43.270401,"lon":5.402786,"is_reserved":false,"is_disabled":false,"rental_uris":{"android":"levelo://app?vid=1e59ecb6-20a5-42b7-a417-bfabebb7c070","ios":"levelo://app?vid=1e59ecb6-20a5-42b7-a417-bfabebb7c070"},"vehicle_type_id":"4","last_reported":1753197118,"current_range_meters":19600,"station_id":"ce4bhk92rcd13ifvqgc0","pricing_plan_id":"cebpf4jnsgd1na2vs0mg"},{"bike_id":"f66855e1-18fe-470f-8fec-4e5be71eaad5","system_id":"levelo_inurba_marseille","lat":43.259309,"lon":5.409065,"is_reserved":false,"is_disabled":false,"rental_uris":{"android":"levelo://app?vid=f66855e1-18fe-470f-8fec-4e5be71eaad5","ios":"levelo://app?vid=f66855e1-18fe-470f-8fec-4e5be71eaad5"},"vehicle_type_id":"4","last_reported":1753197118,"current_range_meters":19600,"station_id":"ce4bhm92rcd13ifvqglg","pricing_plan_id":"cebpf4jnsgd1na2vs0mg"},{"bike_id":"957634bc-79de-4b4c-b452-d0169c4affe9","system_id":"levelo_inurba_marseille","lat":43.32358,"lon":5.36772,"is_reserved":false,"is_disabled":false,"rental_uris":{"android":"levelo://app?vid=957634bc-79de-4b4c-b452-d0169c4affe9","ios":"levelo://app?vid=957634bc-79de-4b4c-b452-d0169c4affe9"},"vehicle_type_id":"4","last_reported":1753197118,"current_range_meters":19600,"station_id":"ce4bhsh2rcd13ifvqi2g","pricing_plan_id":"cebpf4jnsgd1na2vs0mg"},{"bike_id":"06101cf9-8ecc-4c54-9850-330545d2ec08","system_id":"levelo_inurba_marseille","lat":43.30796,"lon":5.379577,"is_reserved":false,"is_disabled":false,"rental_uris":{"android":"levelo://app?vid=06101cf9-8ecc-4c54-9850-330545d2ec08","ios":"levelo://app?vid=06101cf9-8ecc-4c54-9850-330545d2ec08"},"vehicle_type_id":"4","last_reported":1753197118,"current_range_meters":19600,"station_id":"","pricing_plan_id":"cebpf4jnsgd1na2vs0mg"},{"bike_id":"0314e0aa-353a-40b3-a7b0-fcaedeb554b2","system_id":"levelo_inurba_marseille","lat":43.2417,"lon":5.36399,"is_reserved":false,"is_disabled":false,"rental_uris":{"android":"levelo://app?vid=0314e0aa-353a-40b3-a7b0-fcaedeb554b2","ios":"levelo://app?vid=0314e0aa-353a-40b3-a7b0-fcaedeb554b2"},"vehicle_type_id":"4","last_reported":1753197118,"current_range_meters":19600,"station_id":"cpo36qri1sfpv3e86is0","pricing_plan_id":"cebpf4jnsgd1na2vs0mg"},{"bike_id":"92133d7b-ad1e-4f1e-a91d-96bd2866a80c","system_id":"levelo_inurba_marseille","lat":43.23065,"lon":5.35492,"is_reserved":false,"is_disabled":false,"rental_uris":{"android":"levelo://app?vid=92133d7b-ad1e-4f1e-a91d-96bd2866a80c","ios":"levelo://app?vid=92133d7b-ad1e-4f1e-a91d-96bd2866a80c"},"vehicle_type_id":"4","last_reported":1753197118,"current_range_meters":19200,"station_id":"cpo3342slgdg3j2ifvpg","pricing_plan_id":"cebpf4jnsgd1na2vs0mg"},{"bike_id":"bfa5cd92-f491-45a0-95fe-6103d1bc2ff3","system_id":"levelo_inurba_marseille","lat":43.28466,"lon":5.35037,"is_reserved":false,"is_disabled":false,"rental_uris":{"android":"levelo://app?vid=bfa5cd92-f491-45a0-95fe-6103d1bc2ff3","ios":"levelo://app?vid=bfa5cd92-f491-45a0-95fe-6103d1bc2ff3"},"vehicle_type_id":"4","last_reported":1753197118,"current_range_meters":20000,"station_id":"ce4bhbh2rcd13ifvqepg","pricing_plan_id":"cebpf4jnsgd1na2vs0mg"},{"bike_id":"5e02988e-7d55-4766-a24e-5a79183357cb","system_id":"levelo_inurba_marseille","lat":43.211958,"lon":5.350796,"is_reserved":false,"is_disabled":false,"rental_uris":{"android":"levelo://app?vid=5e02988e-7d55-4766-a24e-5a79183357cb","ios":"levelo://app?vid=5e02988e-7d55-4766-a24e-5a79183357cb"},"vehicle_type_id":"4","last_reported":1753197118,"current_range_meters":20000,"station_id":"st_cvj6sg6p6f1abm77japg","pricing_plan_id":"cebpf4jnsgd1na2vs0mg"},{"bike_id":"cffcc51c-152a-47c2-8e33-82c26e2349c9","system_id":"levelo_inurba_marseille","lat":43.305388,"lon":5.366988,"is_reserved":false,"is_disabled":false,"rental_uris":{"android":"levelo://app?vid=cffcc51c-152a-47c2-8e33-82c26e2349c9","ios":"levelo://app?vid=cffcc51c-152a-47c2-8e33-82c26e2349c9"},"vehicle_type_id":"4","last_reported":1753197118,"current_range_meters":20000,"station_id":"ce4bgrp2rcd13ifvqc9g","pricing_plan_id":"cebpf4jnsgd1na2vs0mg"},{"bike_id":"f178caad-6a21-458d-b019-c5c938ce4a92","system_id":"levelo_inurba_marseille","lat":43.29868,"lon":5.38916,"is_reserved":false,"is_disabled":false,"rental_uris":{"android":"levelo://app?vid=f178caad-6a21-458d-b019-c5c938ce4a92","ios":"levelo://app?vid=f178caad-6a21-458d-b019-c5c938ce4a92"},"vehicle_type_id":"4","last_reported":1753197118,"current_range_meters":20000,"station_id":"ce4bh392rcd13ifvqdl0","pricing_plan_id":"cebpf4jnsgd1na2vs0mg"},{"bike_id":"8ade27bd-5392-4406-be92-fe054698551a","system_id":"levelo_inurba_marseille","lat":43.30548,"lon":5.36557,"is_reserved":false,"is_disabled":false,"rental_uris":{"android":"levelo://app?vid=8ade27bd-5392-4406-be92-fe054698551a","ios":"levelo://app?vid=8ade27bd-5392-4406-be92-fe054698551a"},"vehicle_type_id":"4","last_reported":1753197118,"current_range_meters":20000,"station_id":"ce4bgs12rcd13ifvqcag","pricing_plan_id":"cebpf4jnsgd1na2vs0mg"},{"bike_id":"e4182196-e252-4e25-966f-ca82789e0ac3","system_id":"levelo_inurba_marseille","lat":43.27065,"lon":5.40274,"is_reserved":false,"is_disabled":false,"rental_uris":{"android":"levelo://app?vid=e4182196-e252-4e25-966f-ca82789e0ac3","ios":"levelo://app?vid=e4182196-e252-4e25-966f-ca82789e0ac3"},"vehicle_type_id":"4","last_reported":1753197118,"current_range_meters":20000,"station_id":"ce4bhk92rcd13ifvqgc0","pricing_plan_id":"cebpf4jnsgd1na2vs0mg"},{"bike_id":"a0de01aa-cd68-4a4d-8bab-65fa167b8610","system_id":"levelo_inurba_marseille","lat":43.23272,"lon":5.35585,"is_reserved":false,"is_disabled":false,"rental_uris":{"android":"levelo://app?vid=a0de01aa-cd68-4a4d-8bab-65fa167b8610","ios":"levelo://app?vid=a0de01aa-cd68-4a4d-8bab-65fa167b8610"},"vehicle_type_id":"4","last_reported":1753197118,"current_range_meters":20000,"station_id":"ce4bhu92rcd13ifvqi70","pricing_plan_id":"cebpf4jnsgd1na2vs0mg"},{"bike_id":"b270637b-2eb6-49a1-8c47-775176ae915c","system_id":"levelo_inurba_marseille","lat":43.28464,"lon":5.38562,"is_reserved":false,"is_disabled":false,"rental_uris":{"android":"levelo://app?vid=b270637b-2eb6-49a1-8c47-775176ae915c","ios":"levelo://app?vid=b270637b-2eb6-49a1-8c47-775176ae915c"},"vehicle_type_id":"4","last_reported":1753197118,"current_range_meters":20000,"station_id":"ce4bh8p2rcd13ifvqeb0","pricing_plan_id":"cebpf4jnsgd1na2vs0mg"},{"bike_id":"3c609212-cf39-4403-8257-217becc84b40","system_id":"levelo_inurba_marseille","lat":43.28265,"lon":5.35071,"is_reserved":false,"is_disabled":false,"rental_uris":{"android":"levelo://app?vid=3c609212-cf39-4403-8257-217becc84b40","ios":"levelo://app?vid=3c609212-cf39-4403-8257-217becc84b40"},"vehicle_type_id":"4","last_reported":1753197118,"current_range_meters":20000,"station_id":"ce4bhbp2rcd13ifvqerg","pricing_plan_id":"cebpf4jnsgd1na2vs0mg"},{"bike_id":"40e54211-e1d8-42d6-998e-6743dd440837","system_id":"levelo_inurba_marseille","lat":43.211946,"lon":5.350762,"is_reserved":false,"is_disabled":false,"rental_uris":{"android":"levelo://app?vid=40e54211-e1d8-42d6-998e-6743dd440837","ios":"levelo://app?vid=40e54211-e1d8-42d6-998e-6743dd440837"},"vehicle_type_id":"4","last_reported":1753197118,"current_range_meters":20000,"station_id":"st_cvj6sg6p6f1abm77japg","pricing_plan_id":"cebpf4jnsgd1na2vs0mg"},{"bike_id":"5852fb24-002a-478f-8f94-97d04ec82aee","system_id":"levelo_inurba_marseille","lat":43.29209,"lon":5.36032,"is_reserved":false,"is_disabled":false,"rental_uris":{"android":"levelo://app?vid=5852fb24-002a-478f-8f94-97d04ec82aee","ios":"levelo://app?vid=5852fb24-002a-478f-8f94-97d04ec82aee"},"vehicle_type_id":"4","last_reported":1753197118,"current_range_meters":20400,"station_id":"ce4bhbh2rcd13ifvqeqg","pricing_plan_id":"cebpf4jnsgd1na2vs0mg"},{"bike_id":"4f4d2c97-613c-4453-b9b5-2d9a5b09a687","system_id":"levelo_inurba_marseille","lat":43.23239,"lon":5.3556,"is_reserved":false,"is_disabled":false,"rental_uris":{"android":"levelo://app?vid=4f4d2c97-613c-4453-b9b5-2d9a5b09a687","ios":"levelo://app?vid=4f4d2c97-613c-4453-b9b5-2d9a5b09a687"},"vehicle_type_id":"4","last_reported":1753197118,"current_range_meters":20400,"station_id":"ce4bhu92rcd13ifvqi70","pricing_plan_id":"cebpf4jnsgd1na2vs0mg"},{"bike_id":"14d39c77-9ec8-453a-bda4-a3e979ae2a0d","system_id":"levelo_inurba_marseille","lat":43.2293,"lon":5.35378,"is_reserved":false,"is_disabled":false,"rental_uris":{"android":"levelo://app?vid=14d39c77-9ec8-453a-bda4-a3e979ae2a0d","ios":"levelo://app?vid=14d39c77-9ec8-453a-bda4-a3e979ae2a0d"},"vehicle_type_id":"4","last_reported":1753197118,"current_range_meters":20400,"station_id":"cpo3532slgdg3j2ikp40","pricing_plan_id":"cebpf4jnsgd1na2vs0mg"},{"bike_id":"89931edf-a11f-479e-b39e-64b126945102","system_id":"levelo_inurba_marseille","lat":43.23967,"lon":5.36634,"is_reserved":false,"is_disabled":false,"rental_uris":{"android":"levelo://app?vid=89931edf-a11f-479e-b39e-64b126945102","ios":"levelo://app?vid=89931edf-a11f-479e-b39e-64b126945102"},"vehicle_type_id":"4","last_reported":1753197118,"current_range_meters":20000,"station_id":"ce4bhi12rcd13ifvqfp0","pricing_plan_id":"cebpf4jnsgd1na2vs0mg"},{"bike_id":"ec6ea80c-5222-4033-ae54-b25fd0d9a2b0","system_id":"levelo_inurba_marseille","lat":43.28607,"lon":5.350983,"is_reserved":false,"is_disabled":false,"rental_uris":{"android":"levelo://app?vid=ec6ea80c-5222-4033-ae54-b25fd0d9a2b0","ios":"levelo://app?vid=ec6ea80c-5222-4033-ae54-b25fd0d9a2b0"},"vehicle_type_id":"4","last_reported":1753197118,"current_range_meters":20400,"station_id":"ce4bhch2rcd13ifvqeug","pricing_plan_id":"cebpf4jnsgd1na2vs0mg"},{"bike_id":"b5ce8d93-17c0-45a5-b2b1-eefce45c2d79","system_id":"levelo_inurba_marseille","lat":43.31721,"lon":5.43703,"is_reserved":false,"is_disabled":false,"rental_uris":{"android":"levelo://app?vid=b5ce8d93-17c0-45a5-b2b1-eefce45c2d79","ios":"levelo://app?vid=b5ce8d93-17c0-45a5-b2b1-eefce45c2d79"},"vehicle_type_id":"4","last_reported":1753197118,"current_range_meters":20400,"station_id":"ce4bhp92rcd13ifvqhcg","pricing_plan_id":"cebpf4jnsgd1na2vs0mg"},{"bike_id":"6c242a4a-6008-4408-bfe3-1b0d35f6b39c","system_id":"levelo_inurba_marseille","lat":43.28266,"lon":5.35062,"is_reserved":false,"is_disabled":false,"rental_uris":{"android":"levelo://app?vid=6c242a4a-6008-4408-bfe3-1b0d35f6b39c","ios":"levelo://app?vid=6c242a4a-6008-4408-bfe3-1b0d35f6b39c"},"vehicle_type_id":"4","last_reported":1753197118,"current_range_meters":20400,"station_id":"ce4bhbp2rcd13ifvqerg","pricing_plan_id":"cebpf4jnsgd1na2vs0mg"},{"bike_id":"6bb1f31c-9335-4f39-9585-31374a4775f9","system_id":"levelo_inurba_marseille","lat":43.3255,"lon":5.3791,"is_reserved":false,"is_disabled":false,"rental_uris":{"android":"levelo://app?vid=6bb1f31c-9335-4f39-9585-31374a4775f9","ios":"levelo://app?vid=6bb1f31c-9335-4f39-9585-31374a4775f9"},"vehicle_type_id":"4","last_reported":1753197118,"current_range_meters":20400,"station_id":"","pricing_plan_id":"cebpf4jnsgd1na2vs0mg"},{"bike_id":"d9d909ba-8396-4273-96e4-0799c730e581","system_id":"levelo_inurba_marseille","lat":43.29035,"lon":5.38653,"is_reserved":false,"is_disabled":false,"rental_uris":{"android":"levelo://app?vid=d9d909ba-8396-4273-96e4-0799c730e581","ios":"levelo://app?vid=d9d909ba-8396-4273-96e4-0799c730e581"},"vehicle_type_id":"4","last_reported":1753197118,"current_range_meters":20400,"station_id":"ce4bh4p2rcd13ifvqe0g","pricing_plan_id":"cebpf4jnsgd1na2vs0mg"},{"bike_id":"1295e20d-414c-4793-988e-8871e0ce5094","system_id":"levelo_inurba_marseille","lat":43.28279,"lon":5.35077,"is_reserved":false,"is_disabled":false,"rental_uris":{"android":"levelo://app?vid=1295e20d-414c-4793-988e-8871e0ce5094","ios":"levelo://app?vid=1295e20d-414c-4793-988e-8871e0ce5094"},"vehicle_type_id":"4","last_reported":1753197118,"current_range_meters":20400,"station_id":"ce4bhbp2rcd13ifvqerg","pricing_plan_id":"cebpf4jnsgd1na2vs0mg"},{"bike_id":"16558bf7-e0f7-422d-9a02-23bf29f60802","system_id":"levelo_inurba_marseille","lat":43.28272,"lon":5.35069,"is_reserved":false,"is_disabled":false,"rental_uris":{"android":"levelo://app?vid=16558bf7-e0f7-422d-9a02-23bf29f60802","ios":"levelo://app?vid=16558bf7-e0f7-422d-9a02-23bf29f60802"},"vehicle_type_id":"4","last_reported":1753197118,"current_range_meters":20400,"station_id":"ce4bhbp2rcd13ifvqerg","pricing_plan_id":"cebpf4jnsgd1na2vs0mg"},{"bike_id":"36f2232a-7e33-4b83-b371-e432834d1f61","system_id":"levelo_inurba_marseille","lat":43.2573,"lon":5.41117,"is_reserved":false,"is_disabled":false,"rental_uris":{"android":"levelo://app?vid=36f2232a-7e33-4b83-b371-e432834d1f61","ios":"levelo://app?vid=36f2232a-7e33-4b83-b371-e432834d1f61"},"vehicle_type_id":"4","last_reported":1753197118,"current_range_meters":20400,"station_id":"ce4bhkp2rcd13ifvqgd0","pricing_plan_id":"cebpf4jnsgd1na2vs0mg"},{"bike_id":"36bc7bc3-d34f-4c9d-b6e0-ddc1f9649a5f","system_id":"levelo_inurba_marseille","lat":43.27181,"lon":5.40998,"is_reserved":false,"is_disabled":false,"rental_uris":{"android":"levelo://app?vid=36bc7bc3-d34f-4c9d-b6e0-ddc1f9649a5f","ios":"levelo://app?vid=36bc7bc3-d34f-4c9d-b6e0-ddc1f9649a5f"},"vehicle_type_id":"4","last_reported":1753197118,"current_range_meters":20400,"station_id":"ce4bhl12rcd13ifvqgf0","pricing_plan_id":"cebpf4jnsgd1na2vs0mg"},{"bike_id":"b220b67f-ca48-464c-9282-68e481b9e412","system_id":"levelo_inurba_marseille","lat":43.28851,"lon":5.3586,"is_reserved":false,"is_disabled":false,"rental_uris":{"android":"levelo://app?vid=b220b67f-ca48-464c-9282-68e481b9e412","ios":"levelo://app?vid=b220b67f-ca48-464c-9282-68e481b9e412"},"vehicle_type_id":"4","last_reported":1753197118,"current_range_meters":20800,"station_id":"ce4bhb12rcd13ifvqem0","pricing_plan_id":"cebpf4jnsgd1na2vs0mg"},{"bike_id":"df1abf48-7452-4644-804a-d51ca4f8f139","system_id":"levelo_inurba_marseille","lat":43.217473,"lon":5.346058,"is_reserved":false,"is_disabled":false,"rental_uris":{"android":"levelo://app?vid=df1abf48-7452-4644-804a-d51ca4f8f139","ios":"levelo://app?vid=df1abf48-7452-4644-804a-d51ca4f8f139"},"vehicle_type_id":"4","last_reported":1753197118,"current_range_meters":20800,"station_id":"","pricing_plan_id":"cebpf4jnsgd1na2vs0mg"},{"bike_id":"1f355007-d086-4bdc-8735-1d7b44c708fa","system_id":"levelo_inurba_marseille","lat":43.29224,"lon":5.36029,"is_reserved":false,"is_disabled":false,"rental_uris":{"android":"levelo://app?vid=1f355007-d086-4bdc-8735-1d7b44c708fa","ios":"levelo://app?vid=1f355007-d086-4bdc-8735-1d7b44c708fa"},"vehicle_type_id":"4","last_reported":1753197118,"current_range_meters":20800,"station_id":"","pricing_plan_id":"cebpf4jnsgd1na2vs0mg"},{"bike_id":"1fb8789c-7595-4a13-9fa6-ba6baf426294","system_id":"levelo_inurba_marseille","lat":43.290758,"lon":5.371575,"is_reserved":false,"is_disabled":false,"rental_uris":{"android":"levelo://app?vid=1fb8789c-7595-4a13-9fa6-ba6baf426294","ios":"levelo://app?vid=1fb8789c-7595-4a13-9fa6-ba6baf426294"},"vehicle_type_id":"4","last_reported":1753197118,"current_range_meters":20800,"station_id":"ce4bhap2rcd13ifvqek0","pricing_plan_id":"cebpf4jnsgd1na2vs0mg"},{"bike_id":"28b7c574-4a8d-47ea-9743-58c42da860d1","system_id":"levelo_inurba_marseille","lat":43.269449,"lon":5.402802,"is_reserved":false,"is_disabled":false,"rental_uris":{"android":"levelo://app?vid=28b7c574-4a8d-47ea-9743-58c42da860d1","ios":"levelo://app?vid=28b7c574-4a8d-47ea-9743-58c42da860d1"},"vehicle_type_id":"4","last_reported":1753197118,"current_range_meters":20800,"station_id":"cjm6bp8fraef2m0cb0m0","pricing_plan_id":"cebpf4jnsgd1na2vs0mg"},{"bike_id":"bdbffd52-b55a-4485-9359-ce98ee4aff33","system_id":"levelo_inurba_marseille","lat":43.241627,"lon":5.364017,"is_reserved":false,"is_disabled":false,"rental_uris":{"android":"levelo://app?vid=bdbffd52-b55a-4485-9359-ce98ee4aff33","ios":"levelo://app?vid=bdbffd52-b55a-4485-9359-ce98ee4aff33"},"vehicle_type_id":"4","last_reported":1753197118,"current_range_meters":20800,"station_id":"cpo36qri1sfpv3e86is0","pricing_plan_id":"cebpf4jnsgd1na2vs0mg"},{"bike_id":"0b7d18a7-9bda-4fbc-b039-838a10444466","system_id":"levelo_inurba_marseille","lat":43.2293,"lon":5.353835,"is_reserved":false,"is_disabled":false,"rental_uris":{"android":"levelo://app?vid=0b7d18a7-9bda-4fbc-b039-838a10444466","ios":"levelo://app?vid=0b7d18a7-9bda-4fbc-b039-838a10444466"},"vehicle_type_id":"4","last_reported":1753197118,"current_range_meters":20800,"station_id":"cpo3532slgdg3j2ikp40","pricing_plan_id":"cebpf4jnsgd1na2vs0mg"},{"bike_id":"c662ac49-654e-4cfb-a99e-6e6a58c34a87","system_id":"levelo_inurba_marseille","lat":43.24167,"lon":5.36397,"is_reserved":false,"is_disabled":false,"rental_uris":{"android":"levelo://app?vid=c662ac49-654e-4cfb-a99e-6e6a58c34a87","ios":"levelo://app?vid=c662ac49-654e-4cfb-a99e-6e6a58c34a87"},"vehicle_type_id":"4","last_reported":1753197118,"current_range_meters":21600,"station_id":"cpo36qri1sfpv3e86is0","pricing_plan_id":"cebpf4jnsgd1na2vs0mg"},{"bike_id":"60c35352-2b74-47eb-b92e-f3bcdd466afa","system_id":"levelo_inurba_marseille","lat":43.30422,"lon":5.42469,"is_reserved":false,"is_disabled":false,"rental_uris":{"android":"levelo://app?vid=60c35352-2b74-47eb-b92e-f3bcdd466afa","ios":"levelo://app?vid=60c35352-2b74-47eb-b92e-f3bcdd466afa"},