{"last_updated":1752668591,"ttl":60,"version":"2.2","data":{"bikes":[{"bike_id":"53b742a7-31ae-4272-9bba-7740339e2a2f","system_id":"levelo_inurba_marseille","lat":43.33747,"lon":5.37463,"is_reserved":false,"is_disabled":false,"rental_uris":{"android":"levelo://app?vid=53b742a7-31ae-4272-9bba-7740339e2a2f","ios":"levelo://app?vid=53b742a7-31ae-4272-9bba-7740339e2a2f"},"vehicle_type_id":"1","last_reported":1752668591,"current_range_meters":28800,"station_id":"","pricing_plan_id":"cebpf4jnsgd1na2vs0mg"},{"bike_id":"1584093e-b9ad-47d2-b132-dd032a85bed7","system_id":"levelo_inurba_marseille","lat":43.29265,"lon":5.40904,"is_reserved":false,"is_disabled":false,"rental_uris":{"android":"levelo://app?vid=1584093e-b9ad-47d2-b132-dd032a85bed7","ios":"levelo://app?vid=1584093e-b9ad-47d2-b132-dd032a85bed7"},"vehicle_type_id":"4","last_reported":1752668591,"current_range_meters":1600,"station_id":"ce4bh192rcd13ifvqdc0","pricing_plan_id":"cebpf4jnsgd1na2vs0mg"},{"bike_id":"61452905-ce03-4017-bb66-999807f0f370","system_id":"levelo_inurba_marseille","lat":43.225071,"lon":5.347815,"is_reserved":false,"is_disabled":false,"rental_uris":{"android":"levelo://app?vid=61452905-ce03-4017-bb66-999807f0f370","ios":"levelo://app?vid=61452905-ce03-4017-bb66-999807f0f370"},"vehicle_type_id":"4","last_reported":1752668591,"current_range_meters":3200,"station_id":"st_cvj5dfep6f1abm77gieg","pricing_plan_id":"cebpf4jnsgd1na2vs0mg"},{"bike_id":"4e0e5301-281f-449b-bb00-833d3799de26","system_id":"levelo_inurba_marseille","lat":43.22929,"lon":5.35379,"is_reserved":false,"is_disabled":false,"rental_uris":{"android":"levelo://app?vid=4e0e5301-281f-449b-bb00-833d3799de26","ios":"levelo://app?vid=4e0e5301-281f-449b-bb00-833d3799de26"},"vehicle_type_id":"4","last_reported":1752668591,"current_range_meters":3200,"station_id":"cpo3532slgdg3j2ikp40","pricing_plan_id":"cebpf4jnsgd1na2vs0mg"},{"bike_id":"ecc5169b-a562-4a34-8187-907fec38ee0e","system_id":"levelo_inurba_marseille","lat":43.28269,"lon":5.35059,"is_reserved":false,"is_disabled":false,"rental_uris":{"android":"levelo://app?vid=ecc5169b-a562-4a34-8187-907fec38ee0e","ios":"levelo://app?vid=ecc5169b-a562-4a34-8187-907fec38ee0e"},"vehicle_type_id":"4","last_reported":1752668591,"current_range_meters":3200,"station_id":"ce4bhbp2rcd13ifvqerg","pricing_plan_id":"cebpf4jnsgd1na2vs0mg"},{"bike_id":"2ecc4f9e-2b47-47d9-8313-518cca8a5cd3","system_id":"levelo_inurba_marseille","lat":43.267449,"lon":5.397966,"is_reserved":false,"is_disabled":true,"rental_uris":{"android":"levelo://app?vid=2ecc4f9e-2b47-47d9-8313-518cca8a5cd3","ios":"levelo://app?vid=2ecc4f9e-2b47-47d9-8313-518cca8a5cd3"},"vehicle_type_id":"4","last_reported":1752668591,"current_range_meters":3200,"station_id":"","pricing_plan_id":"cebpf4jnsgd1na2vs0mg"},{"bike_id":"0517f226-9c35-473e-b2c6-52179b326362","system_id":"levelo_inurba_marseille","lat":43.282639,"lon":5.350543,"is_reserved":false,"is_disabled":false,"rental_uris":{"android":"levelo://app?vid=0517f226-9c35-473e-b2c6-52179b326362","ios":"levelo://app?vid=0517f226-9c35-473e-b2c6-52179b326362"},"vehicle_type_id":"4","last_reported":1752668591,"current_range_meters":3600,"station_id":"","pricing_plan_id":"cebpf4jnsgd1na2vs0mg"},{"bike_id":"6368de16-d144-4f73-833e-ca19d2aeee12","system_id":"levelo_inurba_marseille","lat":43.22531,"lon":5.34767,"is_reserved":false,"is_disabled":false,"rental_uris":{"android":"levelo://app?vid=6368de16-d144-4f73-833e-ca19d2aeee12","ios":"levelo://app?vid=6368de16-d144-4f73-833e-ca19d2aeee12"},"vehicle_type_id":"4","last_reported":1752668591,"current_range_meters":4000,"station_id":"st_cvj5dfep6f1abm77gieg","pricing_plan_id":"cebpf4jnsgd1na2vs0mg"},{"bike_id":"17c934c0-f0d3-4eb2-aeff-ba8dd88e16b8","system_id":"levelo_inurba_marseille","lat":43.292534,"lon":5.376396,"is_reserved":false,"is_disabled":false,"rental_uris":{"android":"levelo://app?vid=17c934c0-f0d3-4eb2-aeff-ba8dd88e16b8","ios":"levelo://app?vid=17c934c0-f0d3-4eb2-aeff-ba8dd88e16b8"},"vehicle_type_id":"4","last_reported":1752668591,"current_range_meters":4400,"station_id":"","pricing_plan_id":"cebpf4jnsgd1na2vs0mg"},{"bike_id":"09064178-0783-4346-bf8f-e70e0289c7ab","system_id":"levelo_inurba_marseille","lat":43.26679,"lon":5.38264,"is_reserved":false,"is_disabled":false,"rental_uris":{"android":"levelo://app?vid=09064178-0783-4346-bf8f-e70e0289c7ab","ios":"levelo://app?vid=09064178-0783-4346-bf8f-e70e0289c7ab"},"vehicle_type_id":"4","last_reported":1752668591,"current_range_meters":4400,"station_id":"ce4bhg92rcd13ifvqf90","pricing_plan_id":"cebpf4jnsgd1na2vs0mg"},{"bike_id":"395997f2-8b08-4638-9c62-a9d7a4cc682d","system_id":"levelo_inurba_marseille","lat":43.28619,"lon":5.3511,"is_reserved":false,"is_disabled":false,"rental_uris":{"android":"levelo://app?vid=395997f2-8b08-4638-9c62-a9d7a4cc682d","ios":"levelo://app?vid=395997f2-8b08-4638-9c62-a9d7a4cc682d"},"vehicle_type_id":"4","last_reported":1752668591,"current_range_meters":4400,"station_id":"ce4bhch2rcd13ifvqeug","pricing_plan_id":"cebpf4jnsgd1na2vs0mg"},{"bike_id":"d61d062e-4676-4822-972f-6e40633e0387","system_id":"levelo_inurba_marseille","lat":43.30596,"lon":5.37227,"is_reserved":false,"is_disabled":false,"rental_uris":{"android":"levelo://app?vid=d61d062e-4676-4822-972f-6e40633e0387","ios":"levelo://app?vid=d61d062e-4676-4822-972f-6e40633e0387"},"vehicle_type_id":"4","last_reported":1752668591,"current_range_meters":4400,"station_id":"ce4bgqh2rcd13ifvqc4g","pricing_plan_id":"cebpf4jnsgd1na2vs0mg"},{"bike_id":"6b559cb3-041c-45ee-93ae-4d2229ff3438","system_id":"levelo_inurba_marseille","lat":43.28038,"lon":5.36942,"is_reserved":false,"is_disabled":false,"rental_uris":{"android":"levelo://app?vid=6b559cb3-041c-45ee-93ae-4d2229ff3438","ios":"levelo://app?vid=6b559cb3-041c-45ee-93ae-4d2229ff3438"},"vehicle_type_id":"4","last_reported":1752668591,"current_range_meters":5600,"station_id":"ce4bha12rcd13ifvqef0","pricing_plan_id":"cebpf4jnsgd1na2vs0mg"},{"bike_id":"56fdb07c-396f-4a09-a265-bd87c6e1d174","system_id":"levelo_inurba_marseille","lat":43.33507,"lon":5.4097,"is_reserved":false,"is_disabled":false,"rental_uris":{"android":"levelo://app?vid=56fdb07c-396f-4a09-a265-bd87c6e1d174","ios":"levelo://app?vid=56fdb07c-396f-4a09-a265-bd87c6e1d174"},"vehicle_type_id":"4","last_reported":1752668591,"current_range_meters":5600,"station_id":"","pricing_plan_id":"cebpf4jnsgd1na2vs0mg"},{"bike_id":"171b4ee5-50df-4a8e-89b1-8b83c27baaf4","system_id":"levelo_inurba_marseille","lat":43.24166,"lon":5.36397,"is_reserved":false,"is_disabled":false,"rental_uris":{"android":"levelo://app?vid=171b4ee5-50df-4a8e-89b1-8b83c27baaf4","ios":"levelo://app?vid=171b4ee5-50df-4a8e-89b1-8b83c27baaf4"},"vehicle_type_id":"4","last_reported":1752668591,"current_range_meters":5600,"station_id":"cpo36qri1sfpv3e86is0","pricing_plan_id":"cebpf4jnsgd1na2vs0mg"},{"bike_id":"e1a76524-e56f-459a-8ae7-1b4f7571e617","system_id":"levelo_inurba_marseille","lat":43.21747,"lon":5.34613,"is_reserved":false,"is_disabled":false,"rental_uris":{"android":"levelo://app?vid=e1a76524-e56f-459a-8ae7-1b4f7571e617","ios":"levelo://app?vid=e1a76524-e56f-459a-8ae7-1b4f7571e617"},"vehicle_type_id":"4","last_reported":1752668591,"current_range_meters":5600,"station_id":"st_cvj6r9ubvosntc0bgbag","pricing_plan_id":"cebpf4jnsgd1na2vs0mg"},{"bike_id":"341f58a5-f645-4381-b890-a22a4e35b702","system_id":"levelo_inurba_marseille","lat":43.27172,"lon":5.41,"is_reserved":false,"is_disabled":false,"rental_uris":{"android":"levelo://app?vid=341f58a5-f645-4381-b890-a22a4e35b702","ios":"levelo://app?vid=341f58a5-f645-4381-b890-a22a4e35b702"},"vehicle_type_id":"4","last_reported":1752668591,"current_range_meters":6000,"station_id":"ce4bhl12rcd13ifvqgf0","pricing_plan_id":"cebpf4jnsgd1na2vs0mg"},{"bike_id":"8d8df80c-cef6-4e97-8383-f31265393b9a","system_id":"levelo_inurba_marseille","lat":43.26791,"lon":5.39416,"is_reserved":false,"is_disabled":false,"rental_uris":{"android":"levelo://app?vid=8d8df80c-cef6-4e97-8383-f31265393b9a","ios":"levelo://app?vid=8d8df80c-cef6-4e97-8383-f31265393b9a"},"vehicle_type_id":"4","last_reported":1752668591,"current_range_meters":6000,"station_id":"ce4bhh12rcd13ifvqfg0","pricing_plan_id":"cebpf4jnsgd1na2vs0mg"},{"bike_id":"b59868dc-73de-4587-b0f1-1e30dc37c829","system_id":"levelo_inurba_marseille","lat":43.21755,"lon":5.34609,"is_reserved":false,"is_disabled":false,"rental_uris":{"android":"levelo://app?vid=b59868dc-73de-4587-b0f1-1e30dc37c829","ios":"levelo://app?vid=b59868dc-73de-4587-b0f1-1e30dc37c829"},"vehicle_type_id":"4","last_reported":1752668591,"current_range_meters":6400,"station_id":"st_cvj6r9ubvosntc0bgbag","pricing_plan_id":"cebpf4jnsgd1na2vs0mg"},{"bike_id":"40b17240-44dd-4291-acf1-60cc182c1ff2","system_id":"levelo_inurba_marseille","lat":43.24648,"lon":5.38152,"is_reserved":false,"is_disabled":false,"rental_uris":{"android":"levelo://app?vid=40b17240-44dd-4291-acf1-60cc182c1ff2","ios":"levelo://app?vid=40b17240-44dd-4291-acf1-60cc182c1ff2"},"vehicle_type_id":"4","last_reported":1752668591,"current_range_meters":6400,"station_id":"ce4bhih2rcd13ifvqfr0","pricing_plan_id":"cebpf4jnsgd1na2vs0mg"},{"bike_id":"6c80601b-38ed-4ad9-b09b-408724cc78f3","system_id":"levelo_inurba_marseille","lat":43.305346,"lon":5.365532,"is_reserved":false,"is_disabled":false,"rental_uris":{"android":"levelo://app?vid=6c80601b-38ed-4ad9-b09b-408724cc78f3","ios":"levelo://app?vid=6c80601b-38ed-4ad9-b09b-408724cc78f3"},"vehicle_type_id":"4","last_reported":1752668591,"current_range_meters":6400,"station_id":"ce4bgs12rcd13ifvqcag","pricing_plan_id":"cebpf4jnsgd1na2vs0mg"},{"bike_id":"047759e6-22e1-4bd3-a4b9-9d3f2851d6c9","system_id":"levelo_inurba_marseille","lat":43.30312,"lon":5.36903,"is_reserved":false,"is_disabled":false,"rental_uris":{"android":"levelo://app?vid=047759e6-22e1-4bd3-a4b9-9d3f2851d6c9","ios":"levelo://app?vid=047759e6-22e1-4bd3-a4b9-9d3f2851d6c9"},"vehicle_type_id":"4","last_reported":1752668591,"current_range_meters":6800,"station_id":"ce4bgqh2rcd13ifvqc5g","pricing_plan_id":"cebpf4jnsgd1na2vs0mg"},{"bike_id":"19aa427c-af28-4982-9225-b28cf6a3f1a3","system_id":"levelo_inurba_marseille","lat":43.32665,"lon":5.39238,"is_reserved":false,"is_disabled":false,"rental_uris":{"android":"levelo://app?vid=19aa427c-af28-4982-9225-b28cf6a3f1a3","ios":"levelo://app?vid=19aa427c-af28-4982-9225-b28cf6a3f1a3"},"vehicle_type_id":"4","last_reported":1752668591,"current_range_meters":6800,"station_id":"","pricing_plan_id":"cebpf4jnsgd1na2vs0mg"},{"bike_id":"d9b61e07-1253-4980-89f2-006c9da8aa3c","system_id":"levelo_inurba_marseille","lat":43.30255,"lon":5.40059,"is_reserved":false,"is_disabled":false,"rental_uris":{"android":"levelo://app?vid=d9b61e07-1253-4980-89f2-006c9da8aa3c","ios":"levelo://app?vid=d9b61e07-1253-4980-89f2-006c9da8aa3c"},"vehicle_type_id":"4","last_reported":1752668591,"current_range_meters":6400,"station_id":"ce4bgvh2rcd13ifvqcs0","pricing_plan_id":"cebpf4jnsgd1na2vs0mg"},{"bike_id":"5c45cf5e-22b0-4bf5-83b5-366fccb7856f","system_id":"levelo_inurba_marseille","lat":43.29581,"lon":5.3677,"is_reserved":false,"is_disabled":false,"rental_uris":{"android":"levelo://app?vid=5c45cf5e-22b0-4bf5-83b5-366fccb7856f","ios":"levelo://app?vid=5c45cf5e-22b0-4bf5-83b5-366fccb7856f"},"vehicle_type_id":"4","last_reported":1752668591,"current_range_meters":6800,"station_id":"ce4bgph2rcd13ifvqc2g","pricing_plan_id":"cebpf4jnsgd1na2vs0mg"},{"bike_id":"5d8c54b6-f935-4965-a2f7-8c1767a0c171","system_id":"levelo_inurba_marseille","lat":43.29415,"lon":5.38612,"is_reserved":false,"is_disabled":true,"rental_uris":{"android":"levelo://app?vid=5d8c54b6-f935-4965-a2f7-8c1767a0c171","ios":"levelo://app?vid=5d8c54b6-f935-4965-a2f7-8c1767a0c171"},"vehicle_type_id":"4","last_reported":1752668591,"current_range_meters":6800,"station_id":"ce4bh2h2rcd13ifvqdh0","pricing_plan_id":"cebpf4jnsgd1na2vs0mg"},{"bike_id":"e2f2f893-16c7-42e5-8c51-893940a1136e","system_id":"levelo_inurba_marseille","lat":43.30123,"lon":5.36838,"is_reserved":false,"is_disabled":false,"rental_uris":{"android":"levelo://app?vid=e2f2f893-16c7-42e5-8c51-893940a1136e","ios":"levelo://app?vid=e2f2f893-16c7-42e5-8c51-893940a1136e"},"vehicle_type_id":"4","last_reported":1752668591,"current_range_meters":7200,"station_id":"","pricing_plan_id":"cebpf4jnsgd1na2vs0mg"},{"bike_id":"892165f6-25a5-4f0a-a9a6-cf4efe50c3be","system_id":"levelo_inurba_marseille","lat":43.24853,"lon":5.42527,"is_reserved":false,"is_disabled":false,"rental_uris":{"android":"levelo://app?vid=892165f6-25a5-4f0a-a9a6-cf4efe50c3be","ios":"levelo://app?vid=892165f6-25a5-4f0a-a9a6-cf4efe50c3be"},"vehicle_type_id":"4","last_reported":1752668591,"current_range_meters":7200,"station_id":"","pricing_plan_id":"cebpf4jnsgd1na2vs0mg"},{"bike_id":"5ff06d2e-1fcb-4f7f-b26f-494ef01051e2","system_id":"levelo_inurba_marseille","lat":43.26587,"lon":5.39483,"is_reserved":false,"is_disabled":true,"rental_uris":{"android":"levelo://app?vid=5ff06d2e-1fcb-4f7f-b26f-494ef01051e2","ios":"levelo://app?vid=5ff06d2e-1fcb-4f7f-b26f-494ef01051e2"},"vehicle_type_id":"4","last_reported":1752668591,"current_range_meters":7200,"station_id":"","pricing_plan_id":"cebpf4jnsgd1na2vs0mg"},{"bike_id":"b41f73a6-ae78-48b0-819e-26d14f2b6796","system_id":"levelo_inurba_marseille","lat":43.30139,"lon":5.38791,"is_reserved":false,"is_disabled":false,"rental_uris":{"android":"levelo://app?vid=b41f73a6-ae78-48b0-819e-26d14f2b6796","ios":"levelo://app?vid=b41f73a6-ae78-48b0-819e-26d14f2b6796"},"vehicle_type_id":"4","last_reported":1752668591,"current_range_meters":7200,"station_id":"ce4bghh2rcd13ifvqb60","pricing_plan_id":"cebpf4jnsgd1na2vs0mg"},{"bike_id":"45dd7a3f-bb5c-42a7-b86e-d49c17c5e1ab","system_id":"levelo_inurba_marseille","lat":43.32367,"lon":5.38892,"is_reserved":false,"is_disabled":false,"rental_uris":{"android":"levelo://app?vid=45dd7a3f-bb5c-42a7-b86e-d49c17c5e1ab","ios":"levelo://app?vid=45dd7a3f-bb5c-42a7-b86e-d49c17c5e1ab"},"vehicle_type_id":"4","last_reported":1752668591,"current_range_meters":7200,"station_id":"ce4bhqp2rcd13ifvqhog","pricing_plan_id":"cebpf4jnsgd1na2vs0mg"},{"bike_id":"cdb8fe65-2e3a-473d-9a11-0a87d9823698","system_id":"levelo_inurba_marseille","lat":43.2922,"lon":5.38345,"is_reserved":false,"is_disabled":false,"rental_uris":{"android":"levelo://app?vid=cdb8fe65-2e3a-473d-9a11-0a87d9823698","ios":"levelo://app?vid=cdb8fe65-2e3a-473d-9a11-0a87d9823698"},"vehicle_type_id":"4","last_reported":1752668591,"current_range_meters":8000,"station_id":"","pricing_plan_id":"cebpf4jnsgd1na2vs0mg"},{"bike_id":"2425fd24-a9e5-455c-b3de-c715c70015ff","system_id":"levelo_inurba_marseille","lat":43.24078,"lon":5.37762,"is_reserved":false,"is_disabled":false,"rental_uris":{"android":"levelo://app?vid=2425fd24-a9e5-455c-b3de-c715c70015ff","ios":"levelo://app?vid=2425fd24-a9e5-455c-b3de-c715c70015ff"},"vehicle_type_id":"4","last_reported":1752668591,"current_range_meters":8000,"station_id":"ce4bhnp2rcd13ifvqgvg","pricing_plan_id":"cebpf4jnsgd1na2vs0mg"},{"bike_id":"eb21ecee-1db8-4ed9-a88f-7add66869f0d","system_id":"levelo_inurba_marseille","lat":43.2418,"lon":5.39733,"is_reserved":false,"is_disabled":false,"rental_uris":{"android":"levelo://app?vid=eb21ecee-1db8-4ed9-a88f-7add66869f0d","ios":"levelo://app?vid=eb21ecee-1db8-4ed9-a88f-7add66869f0d"},"vehicle_type_id":"4","last_reported":1752668591,"current_range_meters":8400,"station_id":"ce4bhn12rcd13ifvqgpg","pricing_plan_id":"cebpf4jnsgd1na2vs0mg"},{"bike_id":"a38bba0b-a5be-4700-a4d0-32ef416de23b","system_id":"levelo_inurba_marseille","lat":43.28617,"lon":5.35108,"is_reserved":false,"is_disabled":false,"rental_uris":{"android":"levelo://app?vid=a38bba0b-a5be-4700-a4d0-32ef416de23b","ios":"levelo://app?vid=a38bba0b-a5be-4700-a4d0-32ef416de23b"},"vehicle_type_id":"4","last_reported":1752668591,"current_range_meters":8400,"station_id":"ce4bhch2rcd13ifvqeug","pricing_plan_id":"cebpf4jnsgd1na2vs0mg"},{"bike_id":"e5ec4b25-dbcc-42eb-bf86-2cca309a0b15","system_id":"levelo_inurba_marseille","lat":43.264945,"lon":5.395365,"is_reserved":false,"is_disabled":true,"rental_uris":{"android":"levelo://app?vid=e5ec4b25-dbcc-42eb-bf86-2cca309a0b15","ios":"levelo://app?vid=e5ec4b25-dbcc-42eb-bf86-2cca309a0b15"},"vehicle_type_id":"4","last_reported":1752668591,"current_range_meters":8400,"station_id":"","pricing_plan_id":"cebpf4jnsgd1na2vs0mg"},{"bike_id":"5df2d5f3-b404-433f-af34-7d8db65b99bc","system_id":"levelo_inurba_marseille","lat":43.32327,"lon":5.40626,"is_reserved":false,"is_disabled":false,"rental_uris":{"android":"levelo://app?vid=5df2d5f3-b404-433f-af34-7d8db65b99bc","ios":"levelo://app?vid=5df2d5f3-b404-433f-af34-7d8db65b99bc"},"vehicle_type_id":"4","last_reported":1752668591,"current_range_meters":8400,"station_id":"ce4bhq92rcd13ifvqhjg","pricing_plan_id":"cebpf4jnsgd1na2vs0mg"},{"bike_id":"adc41a31-855a-4edd-8ff6-15a94254e774","system_id":"levelo_inurba_marseille","lat":43.3172,"lon":5.42397,"is_reserved":false,"is_disabled":false,"rental_uris":{"android":"levelo://app?vid=adc41a31-855a-4edd-8ff6-15a94254e774","ios":"levelo://app?vid=adc41a31-855a-4edd-8ff6-15a94254e774"},"vehicle_type_id":"4","last_reported":1752668591,"current_range_meters":8800,"station_id":"ce4bhp92rcd13ifvqhbg","pricing_plan_id":"cebpf4jnsgd1na2vs0mg"},{"bike_id":"43e10770-4666-4a18-afb3-f231a204057f","system_id":"levelo_inurba_marseille","lat":43.31329,"lon":5.39685,"is_reserved":false,"is_disabled":false,"rental_uris":{"android":"levelo://app?vid=43e10770-4666-4a18-afb3-f231a204057f","ios":"levelo://app?vid=43e10770-4666-4a18-afb3-f231a204057f"},"vehicle_type_id":"4","last_reported":1752668591,"current_range_meters":8800,"station_id":"ce4bgvp2rcd13ifvqcu0","pricing_plan_id":"cebpf4jnsgd1na2vs0mg"},{"bike_id":"10029cdf-3407-449d-bad1-41d78cb89833","system_id":"levelo_inurba_marseille","lat":43.31359,"lon":5.38488,"is_reserved":false,"is_disabled":false,"rental_uris":{"android":"levelo://app?vid=10029cdf-3407-449d-bad1-41d78cb89833","ios":"levelo://app?vid=10029cdf-3407-449d-bad1-41d78cb89833"},"vehicle_type_id":"4","last_reported":1752668591,"current_range_meters":8800,"station_id":"ce4bgt92rcd13ifvqcf0","pricing_plan_id":"cebpf4jnsgd1na2vs0mg"},{"bike_id":"ac7c6219-cada-4724-9296-b90102dc1c6a","system_id":"levelo_inurba_marseille","lat":43.246711,"lon":5.39558,"is_reserved":false,"is_disabled":false,"rental_uris":{"android":"levelo://app?vid=ac7c6219-cada-4724-9296-b90102dc1c6a","ios":"levelo://app?vid=ac7c6219-cada-4724-9296-b90102dc1c6a"},"vehicle_type_id":"4","last_reported":1752668591,"current_range_meters":8400,"station_id":"ce4bhg12rcd13ifvqf60","pricing_plan_id":"cebpf4jnsgd1na2vs0mg"},{"bike_id":"54eb4063-9fe7-4967-93d7-a9a30bb06ef6","system_id":"levelo_inurba_marseille","lat":43.25967,"lon":5.413755,"is_reserved":false,"is_disabled":false,"rental_uris":{"android":"levelo://app?vid=54eb4063-9fe7-4967-93d7-a9a30bb06ef6","ios":"levelo://app?vid=54eb4063-9fe7-4967-93d7-a9a30bb06ef6"},"vehicle_type_id":"4","last_reported":1752668591,"current_range_meters":8000,"station_id":"ce4bhkp2rcd13ifvqgd0","pricing_plan_id":"cebpf4jnsgd1na2vs0mg"},{"bike_id":"91e3cd57-20ed-4aba-87da-b31a06ec9e67","system_id":"levelo_inurba_marseille","lat":43.30184,"lon":5.36612,"is_reserved":false,"is_disabled":false,"rental_uris":{"android":"levelo://app?vid=91e3cd57-20ed-4aba-87da-b31a06ec9e67","ios":"levelo://app?vid=91e3cd57-20ed-4aba-87da-b31a06ec9e67"},"vehicle_type_id":"4","last_reported":1752668591,"current_range_meters":8400,"station_id":"ce4bgrh2rcd13ifvqc8g","pricing_plan_id":"cebpf4jnsgd1na2vs0mg"},{"bike_id":"50c4d741-13c1-4ed1-baf4-13137c650cb7","system_id":"levelo_inurba_marseille","lat":43.28108,"lon":5.37843,"is_reserved":false,"is_disabled":false,"rental_uris":{"android":"levelo://app?vid=50c4d741-13c1-4ed1-baf4-13137c650cb7","ios":"levelo://app?vid=50c4d741-13c1-4ed1-baf4-13137c650cb7"},"vehicle_type_id":"4","last_reported":1752668591,"current_range_meters":8800,"station_id":"ce4bha12rcd13ifvqee0","pricing_plan_id":"cebpf4jnsgd1na2vs0mg"},{"bike_id":"cad19182-eee3-4d8d-bf14-2124842b26b7","system_id":"levelo_inurba_marseille","lat":43.30334,"lon":5.40435,"is_reserved":false,"is_disabled":false,"rental_uris":{"android":"levelo://app?vid=cad19182-eee3-4d8d-bf14-2124842b26b7","ios":"levelo://app?vid=cad19182-eee3-4d8d-bf14-2124842b26b7"},"vehicle_type_id":"4","last_reported":1752668591,"current_range_meters":9200,"station_id":"ce4bh012rcd13ifvqd10","pricing_plan_id":"cebpf4jnsgd1na2vs0mg"},{"bike_id":"b6cc6d7e-774e-47ba-95f0-c25506ad7f78","system_id":"levelo_inurba_marseille","lat":43.31275,"lon":5.40174,"is_reserved":false,"is_disabled":false,"rental_uris":{"android":"levelo://app?vid=b6cc6d7e-774e-47ba-95f0-c25506ad7f78","ios":"levelo://app?vid=b6cc6d7e-774e-47ba-95f0-c25506ad7f78"},"vehicle_type_id":"4","last_reported":1752668591,"current_range_meters":9200,"station_id":"ce4bh092rcd13ifvqd30","pricing_plan_id":"cebpf4jnsgd1na2vs0mg"},{"bike_id":"ab1f02ab-7d0b-4c06-a80b-416eedcd2b08","system_id":"levelo_inurba_marseille","lat":43.28414,"lon":5.34987,"is_reserved":false,"is_disabled":false,"rental_uris":{"android":"levelo://app?vid=ab1f02ab-7d0b-4c06-a80b-416eedcd2b08","ios":"levelo://app?vid=ab1f02ab-7d0b-4c06-a80b-416eedcd2b08"},"vehicle_type_id":"4","last_reported":1752668591,"current_range_meters":9200,"station_id":"ce4bhbh2rcd13ifvqepg","pricing_plan_id":"cebpf4jnsgd1na2vs0mg"},{"bike_id":"b37a966c-6dd5-46ce-ac93-19caa182e375","system_id":"levelo_inurba_marseille","lat":43.298827,"lon":5.389033,"is_reserved":false,"is_disabled":false,"rental_uris":{"android":"levelo://app?vid=b37a966c-6dd5-46ce-ac93-19caa182e375","ios":"levelo://app?vid=b37a966c-6dd5-46ce-ac93-19caa182e375"},"vehicle_type_id":"4","last_reported":1752668591,"current_range_meters":9200,"station_id":"ce4bh392rcd13ifvqdl0","pricing_plan_id":"cebpf4jnsgd1na2vs0mg"},{"bike_id":"94edcc67-6e14-493c-a2d3-e805ed0a5038","system_id":"levelo_inurba_marseille","lat":43.280398,"lon":5.369398,"is_reserved":false,"is_disabled":false,"rental_uris":{"android":"levelo://app?vid=94edcc67-6e14-493c-a2d3-e805ed0a5038","ios":"levelo://app?vid=94edcc67-6e14-493c-a2d3-e805ed0a5038"},"vehicle_type_id":"4","last_reported":1752668591,"current_range_meters":9200,"station_id":"ce4bha12rcd13ifvqef0","pricing_plan_id":"cebpf4jnsgd1na2vs0mg"},{"bike_id":"a8ce6efe-50ae-4699-a953-570b09452efb","system_id":"levelo_inurba_marseille","lat":43.25008,"lon":5.38909,"is_reserved":false,"is_disabled":true,"rental_uris":{"android":"levelo://app?vid=a8ce6efe-50ae-4699-a953-570b09452efb","ios":"levelo://app?vid=a8ce6efe-50ae-4699-a953-570b09452efb"},"vehicle_type_id":"4","last_reported":1752668591,"current_range_meters":9200,"station_id":"ce4bhgp2rcd13ifvqfd0","pricing_plan_id":"cebpf4jnsgd1na2vs0mg"},{"bike_id":"1a40174b-d6f1-4f1a-92b6-f9d929d17a94","system_id":"levelo_inurba_marseille","lat":43.28416,"lon":5.3499,"is_reserved":false,"is_disabled":false,"rental_uris":{"android":"levelo://app?vid=1a40174b-d6f1-4f1a-92b6-f9d929d17a94","ios":"levelo://app?vid=1a40174b-d6f1-4f1a-92b6-f9d929d17a94"},"vehicle_type_id":"4","last_reported":1752668591,"current_range_meters":9200,"station_id":"ce4bhbh2rcd13ifvqepg","pricing_plan_id":"cebpf4jnsgd1na2vs0mg"},{"bike_id":"080b0f22-14dd-4044-a18f-ee7f74366cea","system_id":"levelo_inurba_marseille","lat":43.32021,"lon":5.38148,"is_reserved":false,"is_disabled":true,"rental_uris":{"android":"levelo://app?vid=080b0f22-14dd-4044-a18f-ee7f74366cea","ios":"levelo://app?vid=080b0f22-14dd-4044-a18f-ee7f74366cea"},"vehicle_type_id":"4","last_reported":1752668591,"current_range_meters":9200,"station_id":"ce4bhr12rcd13ifvqhpg","pricing_plan_id":"cebpf4jnsgd1na2vs0mg"},{"bike_id":"4409158c-0e42-4505-b036-6f038dda32f6","system_id":"levelo_inurba_marseille","lat":43.30555,"lon":5.36532,"is_reserved":false,"is_disabled":false,"rental_uris":{"android":"levelo://app?vid=4409158c-0e42-4505-b036-6f038dda32f6","ios":"levelo://app?vid=4409158c-0e42-4505-b036-6f038dda32f6"},"vehicle_type_id":"4","last_reported":1752668591,"current_range_meters":9600,"station_id":"ce4bgs12rcd13ifvqcag","pricing_plan_id":"cebpf4jnsgd1na2vs0mg"},{"bike_id":"38193aff-d8cf-464e-98b9-b38895efd882","system_id":"levelo_inurba_marseille","lat":43.21753,"lon":5.34624,"is_reserved":false,"is_disabled":false,"rental_uris":{"android":"levelo://app?vid=38193aff-d8cf-464e-98b9-b38895efd882","ios":"levelo://app?vid=38193aff-d8cf-464e-98b9-b38895efd882"},"vehicle_type_id":"4","last_reported":1752668591,"current_range_meters":9600,"station_id":"","pricing_plan_id":"cebpf4jnsgd1na2vs0mg"},{"bike_id":"51396765-9ad0-4d1d-a813-68fff86b2907","system_id":"levelo_inurba_marseille","lat":43.30452,"lon":5.36712,"is_reserved":false,"is_disabled":false,"rental_uris":{"android":"levelo://app?vid=51396765-9ad0-4d1d-a813-68fff86b2907","ios":"levelo://app?vid=51396765-9ad0-4d1d-a813-68fff86b2907"},"vehicle_type_id":"4","last_reported":1752668591,"current_range_meters":9600,"station_id":"","pricing_plan_id":"cebpf4jnsgd1na2vs0mg"},{"bike_id":"f4072507-a62f-4a2c-a6b5-44b6fb574e02","system_id":"levelo_inurba_marseille","lat":43.24183,"lon":5.39734,"is_reserved":false,"is_disabled":false,"rental_uris":{"android":"levelo://app?vid=f4072507-a62f-4a2c-a6b5-44b6fb574e02","ios":"levelo://app?vid=f4072507-a62f-4a2c-a6b5-44b6fb574e02"},"vehicle_type_id":"4","last_reported":1752668591,"current_range_meters":9600,"station_id":"ce4bhn12rcd13ifvqgpg","pricing_plan_id":"cebpf4jnsgd1na2vs0mg"},{"bike_id":"89bf8736-0e4c-436e-8b7f-a90286b4886b","system_id":"levelo_inurba_marseille","lat":43.33162,"lon":5.3817,"is_reserved":false,"is_disabled":false,"rental_uris":{"android":"levelo://app?vid=89bf8736-0e4c-436e-8b7f-a90286b4886b","ios":"levelo://app?vid=89bf8736-0e4c-436e-8b7f-a90286b4886b"},"vehicle_type_id":"4","last_reported":1752668591,"current_range_meters":10000,"station_id":"","pricing_plan_id":"cebpf4jnsgd1na2vs0mg"},{"bike_id":"d98ef30e-38a0-41ef-a00a-304afa979a1e","system_id":"levelo_inurba_marseille","lat":43.298952,"lon":5.436613,"is_reserved":false,"is_disabled":true,"rental_uris":{"android":"levelo://app?vid=d98ef30e-38a0-41ef-a00a-304afa979a1e","ios":"levelo://app?vid=d98ef30e-38a0-41ef-a00a-304afa979a1e"},"vehicle_type_id":"4","last_reported":1752668591,"current_range_meters":10000,"station_id":"ce4bhpp2rcd13ifvqhfg","pricing_plan_id":"cebpf4jnsgd1na2vs0mg"},{"bike_id":"f8e88d89-c6a8-409c-b0bc-54943a0331bb","system_id":"levelo_inurba_marseille","lat":43.28417,"lon":5.35003,"is_reserved":false,"is_disabled":false,"rental_uris":{"android":"levelo://app?vid=f8e88d89-c6a8-409c-b0bc-54943a0331bb","ios":"levelo://app?vid=f8e88d89-c6a8-409c-b0bc-54943a0331bb"},"vehicle_type_id":"4","last_reported":1752668591,"current_range_meters":10000,"station_id":"ce4bhbh2rcd13ifvqepg","pricing_plan_id":"cebpf4jnsgd1na2vs0mg"},{"bike_id":"0011b263-5856-466d-abb3-7dcc94ac73d0","system_id":"levelo_inurba_marseille","lat":43.28945,"lon":5.36402,"is_reserved":false,"is_disabled":true,"rental_uris":{"android":"levelo://app?vid=0011b263-5856-466d-abb3-7dcc94ac73d0","ios":"levelo://app?vid=0011b263-5856-466d-abb3-7dcc94ac73d0"},"vehicle_type_id":"4","last_reported":1752668591,"current_range_meters":10000,"station_id":"ce4bhc92rcd13ifvqetg","pricing_plan_id":"cebpf4jnsgd1na2vs0mg"},{"bike_id":"bc27a26e-b398-431b-881e-997fea45a2ad","system_id":"levelo_inurba_marseille","lat":43.28005,"lon":5.40027,"is_reserved":false,"is_disabled":false,"rental_uris":{"android":"levelo://app?vid=bc27a26e-b398-431b-881e-997fea45a2ad","ios":"levelo://app?vid=bc27a26e-b398-431b-881e-997fea45a2ad"},"vehicle_type_id":"4","last_reported":1752668591,"current_range_meters":10000,"station_id":"ce4bho92rcd13ifvqh4g","pricing_plan_id":"cebpf4jnsgd1na2vs0mg"},{"bike_id":"62ea36a4-5616-4449-b25c-40ac4b4da1b2","system_id":"levelo_inurba_marseille","lat":43.3091,"lon":5.36846,"is_reserved":false,"is_disabled":false,"rental_uris":{"android":"levelo://app?vid=62ea36a4-5616-4449-b25c-40ac4b4da1b2","ios":"levelo://app?vid=62ea36a4-5616-4449-b25c-40ac4b4da1b2"},"vehicle_type_id":"4","last_reported":1752668591,"current_range_meters":10000,"station_id":"ce4bgn92rcd13ifvqbvg","pricing_plan_id":"cebpf4jnsgd1na2vs0mg"},{"bike_id":"43683228-9f34-4c19-8675-04f06906bc6d","system_id":"levelo_inurba_marseille","lat":43.27815,"lon":5.407,"is_reserved":false,"is_disabled":false,"rental_uris":{"android":"levelo://app?vid=43683228-9f34-4c19-8675-04f06906bc6d","ios":"levelo://app?vid=43683228-9f34-4c19-8675-04f06906bc6d"},"vehicle_type_id":"4","last_reported":1752668591,"current_range_meters":10800,"station_id":"ce4bhnh2rcd13ifvqgtg","pricing_plan_id":"cebpf4jnsgd1na2vs0mg"},{"bike_id":"7b471b8f-fcaa-4d3c-948e-6e2482d5491d","system_id":"levelo_inurba_marseille","lat":43.24661,"lon":5.38161,"is_reserved":false,"is_disabled":false,"rental_uris":{"android":"levelo://app?vid=7b471b8f-fcaa-4d3c-948e-6e2482d5491d","ios":"levelo://app?vid=7b471b8f-fcaa-4d3c-948e-6e2482d5491d"},"vehicle_type_id":"4","last_reported":1752668591,"current_range_meters":10800,"station_id":"ce4bhih2rcd13ifvqfr0","pricing_plan_id":"cebpf4jnsgd1na2vs0mg"},{"bike_id":"8d59b38e-0628-4678-834d-881fb78f576d","system_id":"levelo_inurba_marseille","lat":43.30278,"lon":5.37709,"is_reserved":false,"is_disabled":false,"rental_uris":{"android":"levelo://app?vid=8d59b38e-0628-4678-834d-881fb78f576d","ios":"levelo://app?vid=8d59b38e-0628-4678-834d-881fb78f576d"},"vehicle_type_id":"4","last_reported":1752668591,"current_range_meters":10800,"station_id":"ce4bguh2rcd13ifvqcj0","pricing_plan_id":"cebpf4jnsgd1na2vs0mg"},{"bike_id":"adfe475e-4fad-42ce-985f-b88b312e5e64","system_id":"levelo_inurba_marseille","lat":43.29466,"lon":5.37543,"is_reserved":false,"is_disabled":false,"rental_uris":{"android":"levelo://app?vid=adfe475e-4fad-42ce-985f-b88b312e5e64","ios":"levelo://app?vid=adfe475e-4fad-42ce-985f-b88b312e5e64"},"vehicle_type_id":"4","last_reported":1752668591,"current_range_meters":10800,"station_id":"","pricing_plan_id":"cebpf4jnsgd1na2vs0mg"},{"bike_id":"cab0f093-9e6d-4252-abc1-cecd712bcfdd","system_id":"levelo_inurba_marseille","lat":43.23189,"lon":5.35552,"is_reserved":false,"is_disabled":false,"rental_uris":{"android":"levelo://app?vid=cab0f093-9e6d-4252-abc1-cecd712bcfdd","ios":"levelo://app?vid=cab0f093-9e6d-4252-abc1-cecd712bcfdd"},"vehicle_type_id":"4","last_reported":1752668591,"current_range_meters":10800,"station_id":"ce4bhu92rcd13ifvqi70","pricing_plan_id":"cebpf4jnsgd1na2vs0mg"},{"bike_id":"a2a22a4e-2ced-490f-93e9-72cb5d45bea8","system_id":"levelo_inurba_marseille","lat":43.29575,"lon":5.37517,"is_reserved":false,"is_disabled":false,"rental_uris":{"android":"levelo://app?vid=a2a22a4e-2ced-490f-93e9-72cb5d45bea8","ios":"levelo://app?vid=a2a22a4e-2ced-490f-93e9-72cb5d45bea8"},"vehicle_type_id":"4","last_reported":1752668591,"current_range_meters":10800,"station_id":"ce4bgh92rcd13ifvqb50","pricing_plan_id":"cebpf4jnsgd1na2vs0mg"},{"bike_id":"63352cbb-ab13-4643-be00-5fc26cb4d2c3","system_id":"levelo_inurba_marseille","lat":43.22934,"lon":5.35377,"is_reserved":false,"is_disabled":false,"rental_uris":{"android":"levelo://app?vid=63352cbb-ab13-4643-be00-5fc26cb4d2c3","ios":"levelo://app?vid=63352cbb-ab13-4643-be00-5fc26cb4d2c3"},"vehicle_type_id":"4","last_reported":1752668591,"current_range_meters":10800,"station_id":"cpo3532slgdg3j2ikp40","pricing_plan_id":"cebpf4jnsgd1na2vs0mg"},{"bike_id":"b5886712-827e-4e42-ae0a-fd111ae9e64f","system_id":"levelo_inurba_marseille","lat":43.30422,"lon":5.41298,"is_reserved":false,"is_disabled":false,"rental_uris":{"android":"levelo://app?vid=b5886712-827e-4e42-ae0a-fd111ae9e64f","ios":"levelo://app?vid=b5886712-827e-4e42-ae0a-fd111ae9e64f"},"vehicle_type_id":"4","last_reported":1752668591,"current_range_meters":10800,"station_id":"ce4bhop2rcd13ifvqh8g","pricing_plan_id":"cebpf4jnsgd1na2vs0mg"},{"bike_id":"74b4390d-0242-429b-b32a-0523a3e24ef3","system_id":"levelo_inurba_marseille","lat":43.254471,"lon":5.37592,"is_reserved":false,"is_disabled":false,"rental_uris":{"android":"levelo://app?vid=74b4390d-0242-429b-b32a-0523a3e24ef3","ios":"levelo://app?vid=74b4390d-0242-429b-b32a-0523a3e24ef3"},"vehicle_type_id":"4","last_reported":1752668591,"current_range_meters":11200,"station_id":"","pricing_plan_id":"cebpf4jnsgd1na2vs0mg"},{"bike_id":"b733d901-5f75-4493-9960-b987b87cd8f7","system_id":"levelo_inurba_marseille","lat":43.22544,"lon":5.34833,"is_reserved":false,"is_disabled":false,"rental_uris":{"android":"levelo://app?vid=b733d901-5f75-4493-9960-b987b87cd8f7","ios":"levelo://app?vid=b733d901-5f75-4493-9960-b987b87cd8f7"},"vehicle_type_id":"4","last_reported":1752668591,"current_range_meters":11200,"station_id":"","pricing_plan_id":"cebpf4jnsgd1na2vs0mg"},{"bike_id":"f117ade6-8b24-447f-9b54-96e3e403e8b4","system_id":"levelo_inurba_marseille","lat":43.29568,"lon":5.37545,"is_reserved":false,"is_disabled":false,"rental_uris":{"android":"levelo://app?vid=f117ade6-8b24-447f-9b54-96e3e403e8b4","ios":"levelo://app?vid=f117ade6-8b24-447f-9b54-96e3e403e8b4"},"vehicle_type_id":"4","last_reported":1752668591,"current_range_meters":11200,"station_id":"ce4bgh92rcd13ifvqb50","pricing_plan_id":"cebpf4jnsgd1na2vs0mg"},{"bike_id":"a6d698b7-5121-4989-867f-fe72d33072b2","system_id":"levelo_inurba_marseille","lat":43.28352,"lon":5.38639,"is_reserved":false,"is_disabled":false,"rental_uris":{"android":"levelo://app?vid=a6d698b7-5121-4989-867f-fe72d33072b2","ios":"levelo://app?vid=a6d698b7-5121-4989-867f-fe72d33072b2"},"vehicle_type_id":"4","last_reported":1752668591,"current_range_meters":11200,"station_id":"ce4bh492rcd13ifvqdvg","pricing_plan_id":"cebpf4jnsgd1na2vs0mg"},{"bike_id":"931ec3ed-9544-4921-9587-3d38f4f1f105","system_id":"levelo_inurba_marseille","lat":43.2418,"lon":5.39735,"is_reserved":false,"is_disabled":false,"rental_uris":{"android":"levelo://app?vid=931ec3ed-9544-4921-9587-3d38f4f1f105","ios":"levelo://app?vid=931ec3ed-9544-4921-9587-3d38f4f1f105"},"vehicle_type_id":"4","last_reported":1752668591,"current_range_meters":11200,"station_id":"ce4bhn12rcd13ifvqgpg","pricing_plan_id":"cebpf4jnsgd1na2vs0mg"},{"bike_id":"2bddf4a9-8e3f-4955-b473-c500c7a2aa09","system_id":"levelo_inurba_marseille","lat":43.25,"lon":5.38934,"is_reserved":false,"is_disabled":false,"rental_uris":{"android":"levelo://app?vid=2bddf4a9-8e3f-4955-b473-c500c7a2aa09","ios":"levelo://app?vid=2bddf4a9-8e3f-4955-b473-c500c7a2aa09"},"vehicle_type_id":"4","last_reported":1752668591,"current_range_meters":11200,"station_id":"ce4bhgp2rcd13ifvqfd0","pricing_plan_id":"cebpf4jnsgd1na2vs0mg"},{"bike_id":"5cde9e68-0b1a-4128-bdca-c73db29e24e3","system_id":"levelo_inurba_marseille","lat":43.26226,"lon":5.40468,"is_reserved":false,"is_disabled":false,"rental_uris":{"android":"levelo://app?vid=5cde9e68-0b1a-4128-bdca-c73db29e24e3","ios":"levelo://app?vid=5cde9e68-0b1a-4128-bdca-c73db29e24e3"},"vehicle_type_id":"4","last_reported":1752668591,"current_range_meters":11200,"station_id":"ce4bhmh2rcd13ifvqgmg","pricing_plan_id":"cebpf4jnsgd1na2vs0mg"},{"bike_id":"54917bc2-082f-47aa-af64-996bee533802","system_id":"levelo_inurba_marseille","lat":43.25827,"lon":5.39439,"is_reserved":false,"is_disabled":false,"rental_uris":{"android":"levelo://app?vid=54917bc2-082f-47aa-af64-996bee533802","ios":"levelo://app?vid=54917bc2-082f-47aa-af64-996bee533802"},"vehicle_type_id":"4","last_reported":1752668591,"current_range_meters":11200,"station_id":"ce4bhip2rcd13ifvqft0","pricing_plan_id":"cebpf4jnsgd1na2vs0mg"},{"bike_id":"982f63f5-3a1a-40b4-b555-5f850db23f79","system_id":"levelo_inurba_marseille","lat":43.24075,"lon":5.37761,"is_reserved":false,"is_disabled":false,"rental_uris":{"android":"levelo://app?vid=982f63f5-3a1a-40b4-b555-5f850db23f79","ios":"levelo://app?vid=982f63f5-3a1a-40b4-b555-5f850db23f79"},"vehicle_type_id":"4","last_reported":1752668591,"current_range_meters":11600,"station_id":"ce4bhnp2rcd13ifvqgvg","pricing_plan_id":"cebpf4jnsgd1na2vs0mg"},{"bike_id":"2dea1e72-5f49-4f71-8334-0b7b1b4fb68f","system_id":"levelo_inurba_marseille","lat":43.3053,"lon":5.36546,"is_reserved":false,"is_disabled":false,"rental_uris":{"android":"levelo://app?vid=2dea1e72-5f49-4f71-8334-0b7b1b4fb68f","ios":"levelo://app?vid=2dea1e72-5f49-4f71-8334-0b7b1b4fb68f"},"vehicle_type_id":"4","last_reported":1752668591,"current_range_meters":11600,"station_id":"ce4bgs12rcd13ifvqcag","pricing_plan_id":"cebpf4jnsgd1na2vs0mg"},{"bike_id":"18e63307-2e2f-4b10-807e-7a8ed91df0e5","system_id":"levelo_inurba_marseille","lat":43.30549,"lon":5.36536,"is_reserved":false,"is_disabled":false,"rental_uris":{"android":"levelo://app?vid=18e63307-2e2f-4b10-807e-7a8ed91df0e5","ios":"levelo://app?vid=18e63307-2e2f-4b10-807e-7a8ed91df0e5"},"vehicle_type_id":"4","last_reported":1752668591,"current_range_meters":12000,"station_id":"ce4bgs12rcd13ifvqcag","pricing_plan_id":"cebpf4jnsgd1na2vs0mg"},{"bike_id":"11953d4b-0909-479a-86c6-84ac4f5effe5","system_id":"levelo_inurba_marseille","lat":43.243854,"lon":5.37061,"is_reserved":false,"is_disabled":false,"rental_uris":{"android":"levelo://app?vid=11953d4b-0909-479a-86c6-84ac4f5effe5","ios":"levelo://app?vid=11953d4b-0909-479a-86c6-84ac4f5effe5"},"vehicle_type_id":"4","last_reported":1752668591,"current_range_meters":12000,"station_id":"ce4bhhh2rcd13ifvqfk0","pricing_plan_id":"cebpf4jnsgd1na2vs0mg"},{"bike_id":"54b283c6-c314-444c-b492-3e78ed7f2d30","system_id":"levelo_inurba_marseille","lat":43.32942,"lon":5.39026,"is_reserved":false,"is_disabled":false,"rental_uris":{"android":"levelo://app?vid=54b283c6-c314-444c-b492-3e78ed7f2d30","ios":"levelo://app?vid=54b283c6-c314-444c-b492-3e78ed7f2d30"},"vehicle_type_id":"4","last_reported":1752668591,"current_range_meters":12400,"station_id":"","pricing_plan_id":"cebpf4jnsgd1na2vs0mg"},{"bike_id":"84c12fd3-ea87-412d-9926-1e7c4046fef1","system_id":"levelo_inurba_marseille","lat":43.23962,"lon":5.36679,"is_reserved":false,"is_disabled":false,"rental_uris":{"android":"levelo://app?vid=84c12fd3-ea87-412d-9926-1e7c4046fef1","ios":"levelo://app?vid=84c12fd3-ea87-412d-9926-1e7c4046fef1"},"vehicle_type_id":"4","last_reported":1752668591,"current_range_meters":12800,"station_id":"ce4bhi12rcd13ifvqfp0","pricing_plan_id":"cebpf4jnsgd1na2vs0mg"},{"bike_id":"91f3fff4-5c51-4587-a326-90435e9dc3b2","system_id":"levelo_inurba_marseille","lat":43.29627,"lon":5.37172,"is_reserved":false,"is_disabled":false,"rental_uris":{"android":"levelo://app?vid=91f3fff4-5c51-4587-a326-90435e9dc3b2","ios":"levelo://app?vid=91f3fff4-5c51-4587-a326-90435e9dc3b2"},"vehicle_type_id":"4","last_reported":1752668591,"current_range_meters":12800,"station_id":"ce4bgnh2rcd13ifvqc0g","pricing_plan_id":"cebpf4jnsgd1na2vs0mg"},{"bike_id":"a34613f5-07e3-43b2-af92-2346c6bfcccb","system_id":"levelo_inurba_marseille","lat":43.29228,"lon":5.36068,"is_reserved":false,"is_disabled":false,"rental_uris":{"android":"levelo://app?vid=a34613f5-07e3-43b2-af92-2346c6bfcccb","ios":"levelo://app?vid=a34613f5-07e3-43b2-af92-2346c6bfcccb"},"vehicle_type_id":"4","last_reported":1752668591,"current_range_meters":12800,"station_id":"ce4bhbh2rcd13ifvqeqg","pricing_plan_id":"cebpf4jnsgd1na2vs0mg"},{"bike_id":"794b998d-7e45-4d53-b270-ae51136a9420","system_id":"levelo_inurba_marseille","lat":43.31606,"lon":5.38181,"is_reserved":false,"is_disabled":false,"rental_uris":{"android":"levelo://app?vid=794b998d-7e45-4d53-b270-ae51136a9420","ios":"levelo://app?vid=794b998d-7e45-4d53-b270-ae51136a9420"},"vehicle_type_id":"4","last_reported":1752668591,"current_range_meters":12800,"station_id":"","pricing_plan_id":"cebpf4jnsgd1na2vs0mg"},{"bike_id":"748a9d52-2037-49d5-8461-2cb1abbb06a2","system_id":"levelo_inurba_marseille","lat":43.25726,"lon":5.4111,"is_reserved":false,"is_disabled":false,"rental_uris":{"android":"levelo://app?vid=748a9d52-2037-49d5-8461-2cb1abbb06a2","ios":"levelo://app?vid=748a9d52-2037-49d5-8461-2cb1abbb06a2"},"vehicle_type_id":"4","last_reported":1752668591,"current_range_meters":12800,"station_id":"ce4bhkp2rcd13ifvqgd0","pricing_plan_id":"cebpf4jnsgd1na2vs0mg"},{"bike_id":"c3ae7d25-674b-46b7-9c26-eec7812f322f","system_id":"levelo_inurba_marseille","lat":43.30311,"lon":5.36923,"is_reserved":false,"is_disabled":true,"rental_uris":{"android":"levelo://app?vid=c3ae7d25-674b-46b7-9c26-eec7812f322f","ios":"levelo://app?vid=c3ae7d25-674b-46b7-9c26-eec7812f322f"},"vehicle_type_id":"4","last_reported":1752668591,"current_range_meters":14000,"station_id":"","pricing_plan_id":"cebpf4jnsgd1na2vs0mg"},{"bike_id":"0f47a07f-39c5-4fea-a0ee-56d71688ebb3","system_id":"levelo_inurba_marseille","lat":43.242464,"lon":5.369326,"is_reserved":false,"is_disabled":false,"rental_uris":{"android":"levelo://app?vid=0f47a07f-39c5-4fea-a0ee-56d71688ebb3","ios":"levelo://app?vid=0f47a07f-39c5-4fea-a0ee-56d71688ebb3"},"vehicle_type_id":"4","last_reported":1752668591,"current_range_meters":13600,"station_id":"","pricing_plan_id":"cebpf4jnsgd1na2vs0mg"},{"bike_id":"0fe1510c-6e20-4ef0-97f6-2c66be79bd9c","system_id":"levelo_inurba_marseille","lat":43.2794,"lon":5.41048,"is_reserved":false,"is_disabled":false,"rental_uris":{"android":"levelo://app?vid=0fe1510c-6e20-4ef0-97f6-2c66be79bd9c","ios":"levelo://app?vid=0fe1510c-6e20-4ef0-97f6-2c66be79bd9c"},"vehicle_type_id":"4","last_reported":1752668591,"current_range_meters":13600,"station_id":"ce4bhnp2rcd13ifvqh0g","pricing_plan_id":"cebpf4jnsgd1na2vs0mg"},{"bike_id":"0b0f32fa-e494-4c91-8e71-b8202a4bed03","system_id":"levelo_inurba_marseille","lat":43.29286,"lon":5.36833,"is_reserved":false,"is_disabled":false,"rental_uris":{"android":"levelo://app?vid=0b0f32fa-e494-4c91-8e71-b8202a4bed03","ios":"levelo://app?vid=0b0f32fa-e494-4c91-8e71-b8202a4bed03"},"vehicle_type_id":"4","last_reported":1752668591,"current_range_meters":13600,"station_id":"ce4bhbp2rcd13ifvqesg","pricing_plan_id":"cebpf4jnsgd1na2vs0mg"},{"bike_id":"517aa78b-7dcc-44ad-a90c-22a2bcdd3136","system_id":"levelo_inurba_marseille","lat":43.299677,"lon":5.384938,"is_reserved":false,"is_disabled":false,"rental_uris":{"android":"levelo://app?vid=517aa78b-7dcc-44ad-a90c-22a2bcdd3136","ios":"levelo://app?vid=517aa78b-7dcc-44ad-a90c-22a2bcdd3136"},"vehicle_type_id":"4","last_reported":1752668591,"current_range_meters":14000,"station_id":"ce4bgj92rcd13ifvqbd0","pricing_plan_id":"cebpf4jnsgd1na2vs0mg"},{"bike_id":"c723100b-09b5-490f-b8ed-bbe494a3ba4d","system_id":"levelo_inurba_marseille","lat":43.28416,"lon":5.35073,"is_reserved":false,"is_disabled":false,"rental_uris":{"android":"levelo://app?vid=c723100b-09b5-490f-b8ed-bbe494a3ba4d","ios":"levelo://app?vid=c723100b-09b5-490f-b8ed-bbe494a3ba4d"},"vehicle_type_id":"4","last_reported":1752668591,"current_range_meters":14000,"station_id":"","pricing_plan_id":"cebpf4jnsgd1na2vs0mg"},{"bike_id":"0d14f441-7cc4-44b1-abf4-bbb5d100780b","system_id":"levelo_inurba_marseille","lat":43.32112,"lon":5.36775,"is_reserved":false,"is_disabled":false,"rental_uris":{"android":"levelo://app?vid=0d14f441-7cc4-44b1-abf4-bbb5d100780b","ios":"levelo://app?vid=0d14f441-7cc4-44b1-abf4-bbb5d100780b"},"vehicle_type_id":"4","last_reported":1752668591,"current_range_meters":14000,"station_id":"ce4bhrh2rcd13ifvqhug","pricing_plan_id":"cebpf4jnsgd1na2vs0mg"},{"bike_id":"f53ab926-2de1-4f3c-a7d9-6743ca1bfb1f","system_id":"levelo_inurba_marseille","lat":43.2119,"lon":5.35073,"is_reserved":false,"is_disabled":false,"rental_uris":{"android":"levelo://app?vid=f53ab926-2de1-4f3c-a7d9-6743ca1bfb1f","ios":"levelo://app?vid=f53ab926-2de1-4f3c-a7d9-6743ca1bfb1f"},"vehicle_type_id":"4","last_reported":1752668591,"current_range_meters":14000,"station_id":"st_cvj6sg6p6f1abm77japg","pricing_plan_id":"cebpf4jnsgd1na2vs0mg"},{"bike_id":"1fc7ba43-795e-4d4d-b4b4-3da29eb47bcf","system_id":"levelo_inurba_marseille","lat":43.27566,"lon":5.38435,"is_reserved":false,"is_disabled":false,"rental_uris":{"android":"levelo://app?vid=1fc7ba43-795e-4d4d-b4b4-3da29eb47bcf","ios":"levelo://app?vid=1fc7ba43-795e-4d4d-b4b4-3da29eb47bcf"},"vehicle_type_id":"4","last_reported":1752668591,"current_range_meters":14000,"station_id":"ce4bhh92rcd13ifvqfi0","pricing_plan_id":"cebpf4jnsgd1na2vs0mg"},{"bike_id":"23ca4323-126c-4612-b3fc-2cbe37cc80c0","system_id":"levelo_inurba_marseille","lat":43.30912,"lon":5.36854,"is_reserved":false,"is_disabled":false,"rental_uris":{"android":"levelo://app?vid=23ca4323-126c-4612-b3fc-2cbe37cc80c0","ios":"levelo://app?vid=23ca4323-126c-4612-b3fc-2cbe37cc80c0"},"vehicle_type_id":"4","last_reported":1752668591,"current_range_meters":14000,"station_id":"ce4bgn92rcd13ifvqbvg","pricing_plan_id":"cebpf4jnsgd1na2vs0mg"},{"bike_id":"171aaacc-b106-450f-b4b7-ed543414886b","system_id":"levelo_inurba_marseille","lat":43.29572,"lon":5.37523,"is_reserved":false,"is_disabled":false,"rental_uris":{"android":"levelo://app?vid=171aaacc-b106-450f-b4b7-ed543414886b","ios":"levelo://app?vid=171aaacc-b106-450f-b4b7-ed543414886b"},"vehicle_type_id":"4","last_reported":1752668591,"current_range_meters":14400,"station_id":"ce4bgh92rcd13ifvqb50","pricing_plan_id":"cebpf4jnsgd1na2vs0mg"},{"bike_id":"dfa794c6-d41e-427e-8fa0-46cee168fd66","system_id":"levelo_inurba_marseille","lat":43.239633,"lon":5.366225,"is_reserved":false,"is_disabled":false,"rental_uris":{"android":"levelo://app?vid=dfa794c6-d41e-427e-8fa0-46cee168fd66","ios":"levelo://app?vid=dfa794c6-d41e-427e-8fa0-46cee168fd66"},"vehicle_type_id":"4","last_reported":1752668591,"current_range_meters":14400,"station_id":"ce4bhi12rcd13ifvqfp0","pricing_plan_id":"cebpf4jnsgd1na2vs0mg"},{"bike_id":"725b17e9-38de-4374-9932-cb3da545c83d","system_id":"levelo_inurba_marseille","lat":43.30887,"lon":5.39662,"is_reserved":false,"is_disabled":false,"rental_uris":{"android":"levelo://app?vid=725b17e9-38de-4374-9932-cb3da545c83d","ios":"levelo://app?vid=725b17e9-38de-4374-9932-cb3da545c83d"},"vehicle_type_id":"4","last_reported":1752668591,"current_range_meters":14400,"station_id":"ce4bh012rcd13ifvqcv0","pricing_plan_id":"cebpf4jnsgd1na2vs0mg"},{"bike_id":"31163e06-9eb6-4167-9929-cc7d1dbb89d7","system_id":"levelo_inurba_marseille","lat":43.29516,"lon":5.375023,"is_reserved":false,"is_disabled":false,"rental_uris":{"android":"levelo://app?vid=31163e06-9eb6-4167-9929-cc7d1dbb89d7","ios":"levelo://app?vid=31163e06-9eb6-4167-9929-cc7d1dbb89d7"},"vehicle_type_id":"4","last_reported":1752668591,"current_range_meters":14400,"station_id":"ce4bgkp2rcd13ifvqbmg","pricing_plan_id":"cebpf4jnsgd1na2vs0mg"},{"bike_id":"4b4819bc-d02d-416f-917b-f9521294df7e","system_id":"levelo_inurba_marseille","lat":43.30543,"lon":5.36549,"is_reserved":false,"is_disabled":false,"rental_uris":{"android":"levelo://app?vid=4b4819bc-d02d-416f-917b-f9521294df7e","ios":"levelo://app?vid=4b4819bc-d02d-416f-917b-f9521294df7e"},"vehicle_type_id":"4","last_reported":1752668591,"current_range_meters":14800,"station_id":"ce4bgs12rcd13ifvqcag","pricing_plan_id":"cebpf4jnsgd1na2vs0mg"},{"bike_id":"ca779787-698d-4902-9c86-2533e9a955d5","system_id":"levelo_inurba_marseille","lat":43.24176,"lon":5.36393,"is_reserved":false,"is_disabled":false,"rental_uris":{"android":"levelo://app?vid=ca779787-698d-4902-9c86-2533e9a955d5","ios":"levelo://app?vid=ca779787-698d-4902-9c86-2533e9a955d5"},"vehicle_type_id":"4","last_reported":1752668591,"current_range_meters":14800,"station_id":"cpo36qri1sfpv3e86is0","pricing_plan_id":"cebpf4jnsgd1na2vs0mg"},{"bike_id":"d8c43a0c-4e6e-4b70-a9cf-bd881ca273ff","system_id":"levelo_inurba_marseille","lat":43.26032,"lon":5.37548,"is_reserved":false,"is_disabled":false,"rental_uris":{"android":"levelo://app?vid=d8c43a0c-4e6e-4b70-a9cf-bd881ca273ff","ios":"levelo://app?vid=d8c43a0c-4e6e-4b70-a9cf-bd881ca273ff"},"vehicle_type_id":"4","last_reported":1752668591,"current_range_meters":15200,"station_id":"ce4bhgh2rcd13ifvqfa0","pricing_plan_id":"cebpf4jnsgd1na2vs0mg"},{"bike_id":"a37d9495-6556-4138-8ff8-e2ca82375175","system_id":"levelo_inurba_marseille","lat":43.21753,"lon":5.34614,"is_reserved":false,"is_disabled":false,"rental_uris":{"android":"levelo://app?vid=a37d9495-6556-4138-8ff8-e2ca82375175","ios":"levelo://app?vid=a37d9495-6556-4138-8ff8-e2ca82375175"},"vehicle_type_id":"4","last_reported":1752668591,"current_range_meters":14800,"station_id":"st_cvj6r9ubvosntc0bgbag","pricing_plan_id":"cebpf4jnsgd1na2vs0mg"},{"bike_id":"ebb9abe2-4f0f-4695-9a01-8c1fe2e6f5ed","system_id":"levelo_inurba_marseille","lat":43.295232,"lon":5.394075,"is_reserved":false,"is_disabled":false,"rental_uris":{"android":"levelo://app?vid=ebb9abe2-4f0f-4695-9a01-8c1fe2e6f5ed","ios":"levelo://app?vid=ebb9abe2-4f0f-4695-9a01-8c1fe2e6f5ed"},"vehicle_type_id":"4","last_reported":1752668591,"current_range_meters":14800,"station_id":"","pricing_plan_id":"cebpf4jnsgd1na2vs0mg"},{"bike_id":"8179b31c-ce3a-4f1d-9f38-de069ea9ffb5","system_id":"levelo_inurba_marseille","lat":43.32112,"lon":5.36815,"is_reserved":false,"is_disabled":false,"rental_uris":{"android":"levelo://app?vid=8179b31c-ce3a-4f1d-9f38-de069ea9ffb5","ios":"levelo://app?vid=8179b31c-ce3a-4f1d-9f38-de069ea9ffb5"},"vehicle_type_id":"4","last_reported":1752668591,"current_range_meters":15200,"station_id":"ce4bhrh2rcd13ifvqhug","pricing_plan_id":"cebpf4jnsgd1na2vs0mg"},{"bike_id":"229a51b8-d35a-46ef-90d9-099d3d4f556b","system_id":"levelo_inurba_marseille","lat":43.294205,"lon":5.386235,"is_reserved":false,"is_disabled":true,"rental_uris":{"android":"levelo://app?vid=229a51b8-d35a-46ef-90d9-099d3d4f556b","ios":"levelo://app?vid=229a51b8-d35a-46ef-90d9-099d3d4f556b"},"vehicle_type_id":"4","last_reported":1752668591,"current_range_meters":15200,"station_id":"ce4bh2h2rcd13ifvqdh0","pricing_plan_id":"cebpf4jnsgd1na2vs0mg"},{"bike_id":"6c4607da-40fb-41c6-ba74-5975c73a7e9c","system_id":"levelo_inurba_marseille","lat":43.26791,"lon":5.39418,"is_reserved":false,"is_disabled":false,"rental_uris":{"android":"levelo://app?vid=6c4607da-40fb-41c6-ba74-5975c73a7e9c","ios":"levelo://app?vid=6c4607da-40fb-41c6-ba74-5975c73a7e9c"},"vehicle_type_id":"4","last_reported":1752668591,"current_range_meters":15200,"station_id":"ce4bhh12rcd13ifvqfg0","pricing_plan_id":"cebpf4jnsgd1na2vs0mg"},{"bike_id":"8ea49610-13f1-4e9b-b7eb-41a7831cc933","system_id":"levelo_inurba_marseille","lat":43.30913,"lon":5.36844,"is_reserved":false,"is_disabled":false,"rental_uris":{"android":"levelo://app?vid=8ea49610-13f1-4e9b-b7eb-41a7831cc933","ios":"levelo://app?vid=8ea49610-13f1-4e9b-b7eb-41a7831cc933"},"vehicle_type_id":"4","last_reported":1752668591,"current_range_meters":16000,"station_id":"ce4bgn92rcd13ifvqbvg","pricing_plan_id":"cebpf4jnsgd1na2vs0mg"},{"bike_id":"e5bec6b1-43e6-46f2-9810-affd93766dd8","system_id":"levelo_inurba_marseille","lat":43.21771,"lon":5.34601,"is_reserved":false,"is_disabled":true,"rental_uris":{"android":"levelo://app?vid=e5bec6b1-43e6-46f2-9810-affd93766dd8","ios":"levelo://app?vid=e5bec6b1-43e6-46f2-9810-affd93766dd8"},"vehicle_type_id":"4","last_reported":1752668591,"current_range_meters":16000,"station_id":"st_cvj6r9ubvosntc0bgbag","pricing_plan_id":"cebpf4jnsgd1na2vs0mg"},{"bike_id":"324608da-fbd8-440f-867a-c8c6c7ddbd0d","system_id":"levelo_inurba_marseille","lat":43.29008,"lon":5.35618,"is_reserved":false,"is_disabled":false,"rental_uris":{"android":"levelo://app?vid=324608da-fbd8-440f-867a-c8c6c7ddbd0d","ios":"levelo://app?vid=324608da-fbd8-440f-867a-c8c6c7ddbd0d"},"vehicle_type_id":"4","last_reported":1752668591,"current_range_meters":16400,"station_id":"ce4bhb92rcd13ifvqen0","pricing_plan_id":"cebpf4jnsgd1na2vs0mg"},{"bike_id":"2b35441d-be12-43e5-8f1c-c4924e3cdace","system_id":"levelo_inurba_marseille","lat":43.24806,"lon":5.37454,"is_reserved":false,"is_disabled":false,"rental_uris":{"android":"levelo://app?vid=2b35441d-be12-43e5-8f1c-c4924e3cdace","ios":"levelo://app?vid=2b35441d-be12-43e5-8f1c-c4924e3cdace"},"vehicle_type_id":"4","last_reported":1752668591,"current_range_meters":16000,"station_id":"ce4bhgh2rcd13ifvqfb0","pricing_plan_id":"cebpf4jnsgd1na2vs0mg"},{"bike_id":"5eed72d0-bb46-4ff2-bed1-683174a51fcc","system_id":"levelo_inurba_marseille","lat":43.32065,"lon":5.415536,"is_reserved":false,"is_disabled":false,"rental_uris":{"android":"levelo://app?vid=5eed72d0-bb46-4ff2-bed1-683174a51fcc","ios":"levelo://app?vid=5eed72d0-bb46-4ff2-bed1-683174a51fcc"},"vehicle_type_id":"4","last_reported":1752668591,"current_range_meters":16000,"station_id":"ce4bhq92rcd13ifvqhkg","pricing_plan_id":"cebpf4jnsgd1na2vs0mg"},{"bike_id":"bb91fdfd-e2e6-4861-a682-9985a5c5d97b","system_id":"levelo_inurba_marseille","lat":43.23185,"lon":5.39985,"is_reserved":false,"is_disabled":false,"rental_uris":{"android":"levelo://app?vid=bb91fdfd-e2e6-4861-a682-9985a5c5d97b","ios":"levelo://app?vid=bb91fdfd-e2e6-4861-a682-9985a5c5d97b"},"vehicle_type_id":"4","last_reported":1752668591,"current_range_meters":16000,"station_id":"ce4bhn12rcd13ifvqgqg","pricing_plan_id":"cebpf4jnsgd1na2vs0mg"},{"bike_id":"7dee92bf-5b07-4927-aa41-9e9493644eeb","system_id":"levelo_inurba_marseille","lat":43.21191,"lon":5.35066,"is_reserved":false,"is_disabled":false,"rental_uris":{"android":"levelo://app?vid=7dee92bf-5b07-4927-aa41-9e9493644eeb","ios":"levelo://app?vid=7dee92bf-5b07-4927-aa41-9e9493644eeb"},"vehicle_type_id":"4","last_reported":1752668591,"current_range_meters":16000,"station_id":"st_cvj6sg6p6f1abm77japg","pricing_plan_id":"cebpf4jnsgd1na2vs0mg"},{"bike_id":"f2b5273e-88ec-4ec3-bf34-9d57642ad4a1","system_id":"levelo_inurba_marseille","lat":43.27994,"lon":5.40016,"is_reserved":false,"is_disabled":false,"rental_uris":{"android":"levelo://app?vid=f2b5273e-88ec-4ec3-bf34-9d57642ad4a1","ios":"levelo://app?vid=f2b5273e-88ec-4ec3-bf34-9d57642ad4a1"},"vehicle_type_id":"4","last_reported":1752668591,"current_range_meters":16400,"station_id":"ce4bho92rcd13ifvqh4g","pricing_plan_id":"cebpf4jnsgd1na2vs0mg"},{"bike_id":"84536aa9-7a3a-4baf-ad03-b8e16bcbbd9c","system_id":"levelo_inurba_marseille","lat":43.25926,"lon":5.40888,"is_reserved":false,"is_disabled":false,"rental_uris":{"android":"levelo://app?vid=84536aa9-7a3a-4baf-ad03-b8e16bcbbd9c","ios":"levelo://app?vid=84536aa9-7a3a-4baf-ad03-b8e16bcbbd9c"},"vehicle_type_id":"4","last_reported":1752668591,"current_range_meters":16400,"station_id":"ce4bhm92rcd13ifvqglg","pricing_plan_id":"cebpf4jnsgd1na2vs0mg"},{"bike_id":"d647170c-f548-45c4-bf20-d1db5fe65144","system_id":"levelo_inurba_marseille","lat":43.26211,"lon":5.3744,"is_reserved":false,"is_disabled":false,"rental_uris":{"android":"levelo://app?vid=d647170c-f548-45c4-bf20-d1db5fe65144","ios":"levelo://app?vid=d647170c-f548-45c4-bf20-d1db5fe65144"},"vehicle_type_id":"4","last_reported":1752668591,"current_range_meters":16400,"station_id":"ce4bhgp2rcd13ifvqfc0","pricing_plan_id":"cebpf4jnsgd1na2vs0mg"},{"bike_id":"931f5d36-a2a6-4652-b3d1-8bfdab672c9e","system_id":"levelo_inurba_marseille","lat":43.239552,"lon":5.366288,"is_reserved":false,"is_disabled":false,"rental_uris":{"android":"levelo://app?vid=931f5d36-a2a6-4652-b3d1-8bfdab672c9e","ios":"levelo://app?vid=931f5d36-a2a6-4652-b3d1-8bfdab672c9e"},"vehicle_type_id":"4","last_reported":1752668591,"current_range_meters":16400,"station_id":"ce4bhi12rcd13ifvqfp0","pricing_plan_id":"cebpf4jnsgd1na2vs0mg"},{"bike_id":"45c94baa-0833-4e8a-a743-3806c6c72ada","system_id":"levelo_inurba_marseille","lat":43.32362,"lon":5.3887,"is_reserved":false,"is_disabled":false,"rental_uris":{"android":"levelo://app?vid=45c94baa-0833-4e8a-a743-3806c6c72ada","ios":"levelo://app?vid=45c94baa-0833-4e8a-a743-3806c6c72ada"},"vehicle_type_id":"4","last_reported":1752668591,"current_range_meters":16400,"station_id":"ce4bhqp2rcd13ifvqhog","pricing_plan_id":"cebpf4jnsgd1na2vs0mg"},{"bike_id":"a95debef-4b13-4c7a-84e8-3ec6ed75e1f7","system_id":"levelo_inurba_marseille","lat":43.30528,"lon":5.38432,"is_reserved":false,"is_disabled":false,"rental_uris":{"android":"levelo://app?vid=a95debef-4b13-4c7a-84e8-3ec6ed75e1f7","ios":"levelo://app?vid=a95debef-4b13-4c7a-84e8-3ec6ed75e1f7"},"vehicle_type_id":"4","last_reported":1752668591,"current_range_meters":16400,"station_id":"ce4bgg92rcd13ifvqb30","pricing_plan_id":"cebpf4jnsgd1na2vs0mg"},{"bike_id":"eb86ccdf-eb08-4d83-8bb4-db7d3853281b","system_id":"levelo_inurba_marseille","lat":43.33624,"lon":5.41005,"is_reserved":false,"is_disabled":false,"rental_uris":{"android":"levelo://app?vid=eb86ccdf-eb08-4d83-8bb4-db7d3853281b","ios":"levelo://app?vid=eb86ccdf-eb08-4d83-8bb4-db7d3853281b"},"vehicle_type_id":"4","last_reported":1752668591,"current_range_meters":16800,"station_id":"ce4bhqh2rcd13ifvqhmg","pricing_plan_id":"cebpf4jnsgd1na2vs0mg"},{"bike_id":"b18c91ed-1137-464d-b9f6-22606474f7bb","system_id":"levelo_inurba_marseille","lat":43.31663,"lon":5.36819,"is_reserved":false,"is_disabled":false,"rental_uris":{"android":"levelo://app?vid=b18c91ed-1137-464d-b9f6-22606474f7bb","ios":"levelo://app?vid=b18c91ed-1137-464d-b9f6-22606474f7bb"},"vehicle_type_id":"4","last_reported":1752668591,"current_range_meters":16800,"station_id":"","pricing_plan_id":"cebpf4jnsgd1na2vs0mg"},{"bike_id":"c91d3380-4eaa-4957-98ab-7eb82306a2b7","system_id":"levelo_inurba_marseille","lat":43.28464,"lon":5.35891,"is_reserved":false,"is_disabled":false,"rental_uris":{"android":"levelo://app?vid=c91d3380-4eaa-4957-98ab-7eb82306a2b7","ios":"levelo://app?vid=c91d3380-4eaa-4957-98ab-7eb82306a2b7"},"vehicle_type_id":"4","last_reported":1752668591,"current_range_meters":16800,"station_id":"ce4bhah2rcd13ifvqei0","pricing_plan_id":"cebpf4jnsgd1na2vs0mg"},{"bike_id":"38dc51e8-02da-41e4-b7b1-6d24c0077617","system_id":"levelo_inurba_marseille","lat":43.29313,"lon":5.37189,"is_reserved":false,"is_disabled":false,"rental_uris":{"android":"levelo://app?vid=38dc51e8-02da-41e4-b7b1-6d24c0077617","ios":"levelo://app?vid=38dc51e8-02da-41e4-b7b1-6d24c0077617"},"vehicle_type_id":"4","last_reported":1752668591,"current_range_meters":16800,"station_id":"ce4bgh92rcd13ifvqb40","pricing_plan_id":"cebpf4jnsgd1na2vs0mg"},{"bike_id":"742922c9-1b61-4753-a73c-0d5b4b131484","system_id":"levelo_inurba_marseille","lat":43.2827,"lon":5.35107,"is_reserved":false,"is_disabled":false,"rental_uris":{"android":"levelo://app?vid=742922c9-1b61-4753-a73c-0d5b4b131484","ios":"levelo://app?vid=742922c9-1b61-4753-a73c-0d5b4b131484"},"vehicle_type_id":"4","last_reported":1752668591,"current_range_meters":16800,"station_id":"ce4bhbp2rcd13ifvqerg","pricing_plan_id":"cebpf4jnsgd1na2vs0mg"},{"bike_id":"e787cbf7-83b4-4454-9d52-298350e47a37","system_id":"levelo_inurba_marseille","lat":43.30954,"lon":5.39072,"is_reserved":false,"is_disabled":false,"rental_uris":{"android":"levelo://app?vid=e787cbf7-83b4-4454-9d52-298350e47a37","ios":"levelo://app?vid=e787cbf7-83b4-4454-9d52-298350e47a37"},"vehicle_type_id":"4","last_reported":1752668591,"current_range_meters":16400,"station_id":"ce4bgup2rcd13ifvqco0","pricing_plan_id":"cebpf4jnsgd1na2vs0mg"},{"bike_id":"0d23704c-6cdb-46c3-86b1-c63a9af9ca15","system_id":"levelo_inurba_marseille","lat":43.27377,"lon":5.3626,"is_reserved":false,"is_disabled":false,"rental_uris":{"android":"levelo://app?vid=0d23704c-6cdb-46c3-86b1-c63a9af9ca15","ios":"levelo://app?vid=0d23704c-6cdb-46c3-86b1-c63a9af9ca15"},"vehicle_type_id":"4","last_reported":1752668591,"current_range_meters":16800,"station_id":"ce4bhbh2rcd13ifvqeo0","pricing_plan_id":"cebpf4jnsgd1na2vs0mg"},{"bike_id":"aa6ae9db-dee7-4a9a-bf97-14fd9cddacf5","system_id":"levelo_inurba_marseille","lat":43.30519,"lon":5.36654,"is_reserved":false,"is_disabled":false,"rental_uris":{"android":"levelo://app?vid=aa6ae9db-dee7-4a9a-bf97-14fd9cddacf5","ios":"levelo://app?vid=aa6ae9db-dee7-4a9a-bf97-14fd9cddacf5"},"vehicle_type_id":"4","last_reported":1752668591,"current_range_meters":16800,"station_id":"","pricing_plan_id":"cebpf4jnsgd1na2vs0mg"},{"bike_id":"0c71301d-6b1f-472f-adf1-52c09906df08","system_id":"levelo_inurba_marseille","lat":43.2623,"lon":5.37475,"is_reserved":false,"is_disabled":false,"rental_uris":{"android":"levelo://app?vid=0c71301d-6b1f-472f-adf1-52c09906df08","ios":"levelo://app?vid=0c71301d-6b1f-472f-adf1-52c09906df08"},"vehicle_type_id":"4","last_reported":1752668591,"current_range_meters":16800,"station_id":"ce4bhgp2rcd13ifvqfc0","pricing_plan_id":"cebpf4jnsgd1na2vs0mg"},{"bike_id":"c2437f44-59b1-4a11-be4c-45990fc66ea7","system_id":"levelo_inurba_marseille","lat":43.24168,"lon":5.36396,"is_reserved":false,"is_disabled":false,"rental_uris":{"android":"levelo://app?vid=c2437f44-59b1-4a11-be4c-45990fc66ea7","ios":"levelo://app?vid=c2437f44-59b1-4a11-be4c-45990fc66ea7"},"vehicle_type_id":"4","last_reported":1752668591,"current_range_meters":16800,"station_id":"cpo36qri1sfpv3e86is0","pricing_plan_id":"cebpf4jnsgd1na2vs0mg"},{"bike_id":"dd43e045-6313-4536-a083-812e1484d634","system_id":"levelo_inurba_marseille","lat":43.21745,"lon":5.34595,"is_reserved":false,"is_disabled":false,"rental_uris":{"android":"levelo://app?vid=dd43e045-6313-4536-a083-812e1484d634","ios":"levelo://app?vid=dd43e045-6313-4536-a083-812e1484d634"},"vehicle_type_id":"4","last_reported":1752668591,"current_range_meters":16800,"station_id":"st_cvj6r9ubvosntc0bgbag","pricing_plan_id":"cebpf4jnsgd1na2vs0mg"},{"bike_id":"d697e4f3-cf7d-45e9-b67b-45ee6d3593f5","system_id":"levelo_inurba_marseille","lat":43.286067,"lon":5.35115,"is_reserved":false,"is_disabled":false,"rental_uris":{"android":"levelo://app?vid=d697e4f3-cf7d-45e9-b67b-45ee6d3593f5","ios":"levelo://app?vid=d697e4f3-cf7d-45e9-b67b-45ee6d3593f5"},"vehicle_type_id":"4","last_reported":1752668591,"current_range_meters":16800,"station_id":"ce4bhch2rcd13ifvqeug","pricing_plan_id":"cebpf4jnsgd1na2vs0mg"},{"bike_id":"22b3ed57-0e08-4cc7-807f-e7b3a304b34f","system_id":"levelo_inurba_marseille","lat":43.313193,"lon":5.368306,"is_reserved":false,"is_disabled":false,"rental_uris":{"android":"levelo://app?vid=22b3ed57-0e08-4cc7-807f-e7b3a304b34f","ios":"levelo://app?vid=22b3ed57-0e08-4cc7-807f-e7b3a304b34f"},"vehicle_type_id":"4","last_reported":1752668591,"current_range_meters":17600,"station_id":"ce4bgl92rcd13ifvqbq0","pricing_plan_id":"cebpf4jnsgd1na2vs0mg"},{"bike_id":"bad83075-a5cc-4780-8421-043d80fcc1bb","system_id":"levelo_inurba_marseille","lat":43.28462,"lon":5.358936,"is_reserved":false,"is_disabled":true,"rental_uris":{"android":"levelo://app?vid=bad83075-a5cc-4780-8421-043d80fcc1bb","ios":"levelo://app?vid=bad83075-a5cc-4780-8421-043d80fcc1bb"},"vehicle_type_id":"4","last_reported":1752668591,"current_range_meters":17200,"station_id":"ce4bhah2rcd13ifvqei0","pricing_plan_id":"cebpf4jnsgd1na2vs0mg"},{"bike_id":"285aaa26-07be-4c4a-9be9-3c0873597bc5","system_id":"levelo_inurba_marseille","lat":43.29584,"lon":5.36759,"is_reserved":false,"is_disabled":false,"rental_uris":{"android":"levelo://app?vid=285aaa26-07be-4c4a-9be9-3c0873597bc5","ios":"levelo://app?vid=285aaa26-07be-4c4a-9be9-3c0873597bc5"},"vehicle_type_id":"4","last_reported":1752668591,"current_range_meters":17200,"station_id":"ce4bgph2rcd13ifvqc2g","pricing_plan_id":"cebpf4jnsgd1na2vs0mg"},{"bike_id":"b399da78-cf63-4de2-b505-0740a1d1e170","system_id":"levelo_inurba_marseille","lat":43.22511,"lon":5.3478,"is_reserved":false,"is_disabled":false,"rental_uris":{"android":"levelo://app?vid=b399da78-cf63-4de2-b505-0740a1d1e170","ios":"levelo://app?vid=b399da78-cf63-4de2-b505-0740a1d1e170"},"vehicle_type_id":"4","last_reported":1752668591,"current_range_meters":17200,"station_id":"st_cvj5dfep6f1abm77gieg","pricing_plan_id":"cebpf4jnsgd1na2vs0mg"},{"bike_id":"39c6203f-25ee-487c-9399-b36ef495fc6b","system_id":"levelo_inurba_marseille","lat":43.24101,"lon":5.37747,"is_reserved":false,"is_disabled":false,"rental_uris":{"android":"levelo://app?vid=39c6203f-25ee-487c-9399-b36ef495fc6b","ios":"levelo://app?vid=39c6203f-25ee-487c-9399-b36ef495fc6b"},"vehicle_type_id":"4","last_reported":1752668591,"current_range_meters":17200,"station_id":"ce4bhnp2rcd13ifvqgvg","pricing_plan_id":"cebpf4jnsgd1na2vs0mg"},{"bike_id":"54ee7e4b-2ad4-45cd-9c55-f5774b85b8fb","system_id":"levelo_inurba_marseille","lat":43.25936,"lon":5.40913,"is_reserved":false,"is_disabled":false,"rental_uris":{"android":"levelo://app?vid=54ee7e4b-2ad4-45cd-9c55-f5774b85b8fb","ios":"levelo://app?vid=54ee7e4b-2ad4-45cd-9c55-f5774b85b8fb"},"vehicle_type_id":"4","last_reported":1752668591,"current_range_meters":17200,"station_id":"ce4bhm92rcd13ifvqglg","pricing_plan_id":"cebpf4jnsgd1na2vs0mg"},{"bike_id":"1551a6c3-1b84-4090-8a5d-37ceed9104c7","system_id":"levelo_inurba_marseille","lat":43.30086,"lon":5.39074,"is_reserved":false,"is_disabled":false,"rental_uris":{"android":"levelo://app?vid=1551a6c3-1b84-4090-8a5d-37ceed9104c7","ios":"levelo://app?vid=1551a6c3-1b84-4090-8a5d-37ceed9104c7"},"vehicle_type_id":"4","last_reported":1752668591,"current_range_meters":17200,"station_id":"ce4bh192rcd13ifvqdb0","pricing_plan_id":"cebpf4jnsgd1na2vs0mg"},{"bike_id":"0398468c-6c0f-49fd-b525-08c45b6a4cd9","system_id":"levelo_inurba_marseille","lat":43.225,"lon":5.34786,"is_reserved":false,"is_disabled":false,"rental_uris":{"android":"levelo://app?vid=0398468c-6c0f-49fd-b525-08c45b6a4cd9","ios":"levelo://app?vid=0398468c-6c0f-49fd-b525-08c45b6a4cd9"},"vehicle_type_id":"4","last_reported":1752668591,"current_range_meters":17600,"station_id":"st_cvj5dfep6f1abm77gieg","pricing_plan_id":"cebpf4jnsgd1na2vs0mg"},{"bike_id":"0225df2e-bee4-445b-87d9-507b02fc0fcb","system_id":"levelo_inurba_marseille","lat":43.32354,"lon":5.36759,"is_reserved":false,"is_disabled":false,"rental_uris":{"android":"levelo://app?vid=0225df2e-bee4-445b-87d9-507b02fc0fcb","ios":"levelo://app?vid=0225df2e-bee4-445b-87d9-507b02fc0fcb"},"vehicle_type_id":"4","last_reported":1752668591,"current_range_meters":17600,"station_id":"ce4bhsh2rcd13ifvqi2g","pricing_plan_id":"cebpf4jnsgd1na2vs0mg"},{"bike_id":"46b084b0-eb8b-4075-9346-f1061f12ac7a","system_id":"levelo_inurba_marseille","lat":43.292719,"lon":5.368377,"is_reserved":false,"is_disabled":false,"rental_uris":{"android":"levelo://app?vid=46b084b0-eb8b-4075-9346-f1061f12ac7a","ios":"levelo://app?vid=46b084b0-eb8b-4075-9346-f1061f12ac7a"},"vehicle_type_id":"4","last_reported":1752668591,"current_range_meters":17600,"station_id":"","pricing_plan_id":"cebpf4jnsgd1na2vs0mg"},{"bike_id":"3444bdc6-514a-4ba6-9650-f9073305e33d","system_id":"levelo_inurba_marseille","lat":43.29682,"lon":5.3698,"is_reserved":false,"is_disabled":false,"rental_uris":{"android":"levelo://app?vid=3444bdc6-514a-4ba6-9650-f9073305e33d","ios":"levelo://app?vid=3444bdc6-514a-4ba6-9650-f9073305e33d"},"vehicle_type_id":"4","last_reported":1752668591,"current_range_meters":17600,"station_id":"","pricing_plan_id":"cebpf4jnsgd1na2vs0mg"},{"bike_id":"34e62ee5-3131-428c-842a-9ad03de94ba5","system_id":"levelo_inurba_marseille","lat":43.22521,"lon":5.34776,"is_reserved":false,"is_disabled":false,"rental_uris":{"android":"levelo://app?vid=34e62ee5-3131-428c-842a-9ad03de94ba5","ios":"levelo://app?vid=34e62ee5-3131-428c-842a-9ad03de94ba5"},"vehicle_type_id":"4","last_reported":1752668591,"current_range_meters":17600,"station_id":"st_cvj5dfep6f1abm77gieg","pricing_plan_id":"cebpf4jnsgd1na2vs0mg"},{"bike_id":"f037781a-08bc-4746-8a4c-4bc939a127ba","system_id":"levelo_inurba_marseille","lat":43.26215,"lon":5.37451,"is_reserved":false,"is_disabled":false,"rental_uris":{"android":"levelo://app?vid=f037781a-08bc-4746-8a4c-4bc939a127ba","ios":"levelo://app?vid=f037781a-08bc-4746-8a4c-4bc939a127ba"},"vehicle_type_id":"4","last_reported":1752668591,"current_range_meters":17600,"station_id":"ce4bhgp2rcd13ifvqfc0","pricing_plan_id":"cebpf4jnsgd1na2vs0mg"},{"bike_id":"9fab3324-0e38-452a-b9c0-b8c91be3e410","system_id":"levelo_inurba_marseille","lat":43.25929,"lon":5.40893,"is_reserved":false,"is_disabled":false,"rental_uris":{"android":"levelo://app?vid=9fab3324-0e38-452a-b9c0-b8c91be3e410","ios":"levelo://app?vid=9fab3324-0e38-452a-b9c0-b8c91be3e410"},"vehicle_type_id":"4","last_reported":1752668591,"current_range_meters":17600,"station_id":"ce4bhm92rcd13ifvqglg","pricing_plan_id":"cebpf4jnsgd1na2vs0mg"},{"bike_id":"8acdf02c-787e-4a1e-956a-5c94a3dff06a","system_id":"levelo_inurba_marseille","lat":43.28541,"lon":5.4056,"is_reserved":false,"is_disabled":false,"rental_uris":{"android":"levelo://app?vid=8acdf02c-787e-4a1e-956a-5c94a3dff06a","ios":"levelo://app?vid=8acdf02c-787e-4a1e-956a-5c94a3dff06a"},"vehicle_type_id":"4","last_reported":1752668591,"current_range_meters":17600,"station_id":"","pricing_plan_id":"cebpf4jnsgd1na2vs0mg"},{"bike_id":"96645f66-d166-46c0-b357-ce454714975e","system_id":"levelo_inurba_marseille","lat":43.28271,"lon":5.35082,"is_reserved":false,"is_disabled":false,"rental_uris":{"android":"levelo://app?vid=96645f66-d166-46c0-b357-ce454714975e","ios":"levelo://app?vid=96645f66-d166-46c0-b357-ce454714975e"},"vehicle_type_id":"4","last_reported":1752668591,"current_range_meters":17600,"station_id":"ce4bhbp2rcd13ifvqerg","pricing_plan_id":"cebpf4jnsgd1na2vs0mg"},{"bike_id":"def589f8-1927-40c7-bbb8-81631032d093","system_id":"levelo_inurba_marseille","lat":43.22512,"lon":5.3479,"is_reserved":false,"is_disabled":false,"rental_uris":{"android":"levelo://app?vid=def589f8-1927-40c7-bbb8-81631032d093","ios":"levelo://app?vid=def589f8-1927-40c7-bbb8-81631032d093"},"vehicle_type_id":"4","last_reported":1752668591,"current_range_meters":17600,"station_id":"st_cvj5dfep6f1abm77gieg","pricing_plan_id":"cebpf4jnsgd1na2vs0mg"},{"bike_id":"07f5ae19-0925-43ef-aab4-48ec58bc62b9","system_id":"levelo_inurba_marseille","lat":43.314526,"lon":5.374431,"is_reserved":false,"is_disabled":false,"rental_uris":{"android":"levelo://app?vid=07f5ae19-0925-43ef-aab4-48ec58bc62b9","ios":"levelo://app?vid=07f5ae19-0925-43ef-aab4-48ec58bc62b9"},"vehicle_type_id":"4","last_reported":1752668591,"current_range_meters":17600,"station_id":"","pricing_plan_id":"cebpf4jnsgd1na2vs0mg"},{"bike_id":"243ff24d-c224-4f6c-8766-a9a443123038","system_id":"levelo_inurba_marseille","lat":43.23961,"lon":5.36645,"is_reserved":false,"is_disabled":false,"rental_uris":{"android":"levelo://app?vid=243ff24d-c224-4f6c-8766-a9a443123038","ios":"levelo://app?vid=243ff24d-c224-4f6c-8766-a9a443123038"},"vehicle_type_id":"4","last_reported":1752668591,"current_range_meters":17600,"station_id":"ce4bhi12rcd13ifvqfp0","pricing_plan_id":"cebpf4jnsgd1na2vs0mg"},{"bike_id":"f5613936-10ea-46e9-89a1-55ca6d839f90","system_id":"levelo_inurba_marseille","lat":43.21192,"lon":5.35026,"is_reserved":false,"is_disabled":false,"rental_uris":{"android":"levelo://app?vid=f5613936-10ea-46e9-89a1-55ca6d839f90","ios":"levelo://app?vid=f5613936-10ea-46e9-89a1-55ca6d839f90"},"vehicle_type_id":"4","last_reported":1752668591,"current_range_meters":18000,"station_id":"","pricing_plan_id":"cebpf4jnsgd1na2vs0mg"},{"bike_id":"8c0cf0ea-7e5e-4596-a514-79f4c02bba37","system_id":"levelo_inurba_marseille","lat":43.29846,"lon":5.36247,"is_reserved":false,"is_disabled":false,"rental_uris":{"android":"levelo://app?vid=8c0cf0ea-7e5e-4596-a514-79f4c02bba37","ios":"levelo://app?vid=8c0cf0ea-7e5e-4596-a514-79f4c02bba37"},"vehicle_type_id":"4","last_reported":1752668591,"current_range_meters":18000,"station_id":"ce4bgpp2rcd13ifvqc3g","pricing_plan_id":"cebpf4jnsgd1na2vs0mg"},{"bike_id":"fcbba696-6ed3-47f5-9ef6-270235a4f6ea","system_id":"levelo_inurba_marseille","lat":43.23193,"lon":5.35554,"is_reserved":false,"is_disabled":false,"rental_uris":{"android":"levelo://app?vid=fcbba696-6ed3-47f5-9ef6-270235a4f6ea","ios":"levelo://app?vid=fcbba696-6ed3-47f5-9ef6-270235a4f6ea"},"vehicle_type_id":"4","last_reported":1752668591,"current_range_meters":18000,"station_id":"ce4bhu92rcd13ifvqi70","pricing_plan_id":"cebpf4jnsgd1na2vs0mg"},{"bike_id":"2f785381-3b92-46fe-9574-a614b6784d40","system_id":"levelo_inurba_marseille","lat":43.30148,"lon":5.37418,"is_reserved":false,"is_disabled":false,"rental_uris":{"android":"levelo://app?vid=2f785381-3b92-46fe-9574-a614b6784d40","ios":"levelo://app?vid=2f785381-3b92-46fe-9574-a614b6784d40"},"vehicle_type_id":"4","last_reported":1752668591,"current_range_meters":18000,"station_id":"ce4bgs92rcd13ifvqcc0","pricing_plan_id":"cebpf4jnsgd1na2vs0mg"},{"bike_id":"631eec43-16e0-4959-8d8e-280b46153e19","system_id":"levelo_inurba_marseille","lat":43.29529,"lon":5.37502,"is_reserved":false,"is_disabled":false,"rental_uris":{"android":"levelo://app?vid=631eec43-16e0-4959-8d8e-280b46153e19","ios":"levelo://app?vid=631eec43-16e0-4959-8d8e-280b46153e19"},"vehicle_type_id":"4","last_reported":1752668591,"current_range_meters":18000,"station_id":"ce4bgkp2rcd13ifvqbmg","pricing_plan_id":"cebpf4jnsgd1na2vs0mg"},{"bike_id":"ff745b74-a13a-4e6c-b726-e9d323c1a548","system_id":"levelo_inurba_marseille","lat":43.29036,"lon":5.39963,"is_reserved":false,"is_disabled":false,"rental_uris":{"android":"levelo://app?vid=ff745b74-a13a-4e6c-b726-e9d323c1a548","ios":"levelo://app?vid=ff745b74-a13a-4e6c-b726-e9d323c1a548"},"vehicle_type_id":"4","last_reported":1752668591,"current_range_meters":19200,"station_id":"ce4bh392rcd13ifvqdm0","pricing_plan_id":"cebpf4jnsgd1na2vs0mg"},{"bike_id":"f6e67167-3686-4cae-82da-4610049996dc","system_id":"levelo_inurba_marseille","lat":43.26923,"lon":5.38518,"is_reserved":false,"is_disabled":false,"rental_uris":{"android":"levelo://app?vid=f6e67167-3686-4cae-82da-4610049996dc","ios":"levelo://app?vid=f6e67167-3686-4cae-82da-4610049996dc"},"vehicle_type_id":"4","last_reported":1752668591,"current_range_meters":18800,"station_id":"","pricing_plan_id":"cebpf4jnsgd1na2vs0mg"},{"bike_id":"96011392-f348-4771-9fad-d43e460a9c38","system_id":"levelo_inurba_marseille","lat":43.24175,"lon":5.36399,"is_reserved":false,"is_disabled":false,"rental_uris":{"android":"levelo://app?vid=96011392-f348-4771-9fad-d43e460a9c38","ios":"levelo://app?vid=96011392-f348-4771-9fad-d43e460a9c38"},"vehicle_type_id":"4","last_reported":1752668591,"current_range_meters":18800,"station_id":"cpo36qri1sfpv3e86is0","pricing_plan_id":"cebpf4jnsgd1na2vs0mg"},{"bike_id":"51463e2c-09cf-4fa5-a440-4b95eeeb90ab","system_id":"levelo_inurba_marseille","lat":43.237481,"lon":5.36639,"is_reserved":false,"is_disabled":false,"rental_uris":{"android":"levelo://app?vid=51463e2c-09cf-4fa5-a440-4b95eeeb90ab","ios":"levelo://app?vid=51463e2c-09cf-4fa5-a440-4b95eeeb90ab"},"vehicle_type_id":"4","last_reported":1752668591,"current_range_meters":18800,"station_id":"","pricing_plan_id":"cebpf4jnsgd1na2vs0mg"},{"bike_id":"9bafdc35-d4f9-4adf-b430-76595cda9ed5","system_id":"levelo_inurba_marseille","lat":43.24804,"lon":5.37457,"is_reserved":false,"is_disabled":false,"rental_uris":{"android":"levelo://app?vid=9bafdc35-d4f9-4adf-b430-76595cda9ed5","ios":"levelo://app?vid=9bafdc35-d4f9-4adf-b430-76595cda9ed5"},"vehicle_type_id":"4","last_reported":1752668591,"current_range_meters":18800,"station_id":"ce4bhgh2rcd13ifvqfb0","pricing_plan_id":"cebpf4jnsgd1na2vs0mg"},{"bike_id":"1da7929e-d1d9-4147-a7cc-6a8b3faa7341","system_id":"levelo_inurba_marseille","lat":43.30367,"lon":5.42454,"is_reserved":false,"is_disabled":false,"rental_uris":{"android":"levelo://app?vid=1da7929e-d1d9-4147-a7cc-6a8b3faa7341","ios":"levelo://app?vid=1da7929e-d1d9-4147-a7cc-6a8b3faa7341"},"vehicle_type_id":"4","last_reported":1752668591,"current_range_meters":18800,"station_id":"ce4bhoh2rcd13ifvqh6g","pricing_plan_id":"cebpf4jnsgd1na2vs0mg"},{"bike_id":"03568c5d-aa64-4cbc-b7c7-dd33f8c4750d","system_id":"levelo_inurba_marseille","lat":43.30503,"lon":5.36734,"is_reserved":false,"is_disabled":true,"rental_uris":{"android":"levelo://app?vid=03568c5d-aa64-4cbc-b7c7-dd33f8c4750d","ios":"levelo://app?vid=03568c5d-aa64-4cbc-b7c7-dd33f8c4750d"},"vehicle_type_id":"4","last_reported":1752668591,"current_range_meters":18800,"station_id":"ce4bgrp2rcd13ifvqc9g","pricing_plan_id":"cebpf4jnsgd1na2vs0mg"},{"bike_id":"5ba961a8-8c4b-4d31-9d66-00f006125347","system_id":"levelo_inurba_marseille","lat":43.27833,"lon":5.40721,"is_reserved":false,"is_disabled":false,"rental_uris":{"android":"levelo://app?vid=5ba961a8-8c4b-4d31-9d66-00f006125347","ios":"levelo://app?vid=5ba961a8-8c4b-4d31-9d66-00f006125347"},"vehicle_type_id":"4","last_reported":1752668591,"current_range_meters":18800,"station_id":"ce4bhnh2rcd13ifvqgtg","pricing_plan_id":"cebpf4jnsgd1na2vs0mg"},{"bike_id":"b4f0f905-7c7c-4d7b-91ba-391d052ca313","system_id":"levelo_inurba_marseille","lat":43.314876,"lon":5.37298,"is_reserved":false,"is_disabled":false,"rental_uris":{"android":"levelo://app?vid=b4f0f905-7c7c-4d7b-91ba-391d052ca313","ios":"levelo://app?vid=b4f0f905-7c7c-4d7b-91ba-391d052ca313"},"vehicle_type_id":"4","last_reported":1752668591,"current_range_meters":18800,"station_id":"ce4bgt12rcd13ifvqcd0","pricing_plan_id":"cebpf4jnsgd1na2vs0mg"},{"bike_id":"e39cc58a-1456-488b-9a56-380c85356e57","system_id":"levelo_inurba_marseille","lat":43.26681,"lon":5.38271,"is_reserved":false,"is_disabled":false,"rental_uris":{"android":"levelo://app?vid=e39cc58a-1456-488b-9a56-380c85356e57","ios":"levelo://app?vid=e39cc58a-1456-488b-9a56-380c85356e57"},"vehicle_type_id":"4","last_reported":1752668591,"current_range_meters":19200,"station_id":"ce4bhg92rcd13ifvqf90","pricing_plan_id":"cebpf4jnsgd1na2vs0mg"},{"bike_id":"8716a6dc-edc9-4ce8-b2db-da4e68c247be","system_id":"levelo_inurba_marseille","lat":43.29536,"lon":5.38558,"is_reserved":false,"is_disabled":true,"rental_uris":{"android":"levelo://app?vid=8716a6dc-edc9-4ce8-b2db-da4e68c247be","ios":"levelo://app?vid=8716a6dc-edc9-4ce8-b2db-da4e68c247be"},"vehicle_type_id":"4","last_reported":1752668591,"current_range_meters":19200,"station_id":"ce4bgih2rcd13ifvqba0","pricing_plan_id":"cebpf4jnsgd1na2vs0mg"},{"bike_id":"1a1de22c-864f-4087-990e-227151d55abc","system_id":"levelo_inurba_marseille","lat":43.21191,"lon":5.35115,"is_reserved":false,"is_disabled":false,"rental_uris":{"android":"levelo://app?vid=1a1de22c-864f-4087-990e-227151d55abc","ios":"levelo://app?vid=1a1de22c-864f-4087-990e-227151d55abc"},"vehicle_type_id":"4","last_reported":1752668591,"current_range_meters":19200,"station_id":"st_cvj6sg6p6f1abm77japg","pricing_plan_id":"cebpf4jnsgd1na2vs0mg"},{"bike_id":"8a279f60-3e24-428c-8165-c9a76bdb616c","system_id":"levelo_inurba_marseille","lat":43.2767,"lon":5.3897,"is_reserved":false,"is_disabled":false,"rental_uris":{"android":"levelo://app?vid=8a279f60-3e24-428c-8165-c9a76bdb616c","ios":"levelo://app?vid=8a279f60-3e24-428c-8165-c9a76bdb616c"},"vehicle_type_id":"4","last_reported":1752668591,"current_range_meters":19200,"station_id":"ce4bhi12rcd13ifvqfo0","pricing_plan_id":"cebpf4jnsgd1na2vs0mg"},{"bike_id":"c4d7c0d3-3fa0-42f9-a775-3626a94c8e22","system_id":"levelo_inurba_marseille","lat":43.27371,"lon":5.36255,"is_reserved":false,"is_disabled":false,"rental_uris":{"android":"levelo://app?vid=c4d7c0d3-3fa0-42f9-a775-3626a94c8e22","ios":"levelo://app?vid=c4d7c0d3-3fa0-42f9-a775-3626a94c8e22"},"vehicle_type_id":"4","last_reported":1752668591,"current_range_meters":19200,"station_id":"ce4bhbh2rcd13ifvqeo0","pricing_plan_id":"cebpf4jnsgd1na2vs0mg"},{"bike_id":"90493794-6f43-46af-b617-9b54832654db","system_id":"levelo_inurba_marseille","lat":43.31339,"lon":5.36741,"is_reserved":false,"is_disabled":false,"rental_uris":{"android":"levelo://app?vid=90493794-6f43-46af-b617-9b54832654db","ios":"levelo://app?vid=90493794-6f43-46af-b617-9b54832654db"},"vehicle_type_id":"4","last_reported":1752668591,"current_range_meters":19200,"station_id":"ce4bgr92rcd13ifvqc6g","pricing_plan_id":"cebpf4jnsgd1na2vs0mg"},{"bike_id":"3c62cddd-39e4-464a-87a2-4ce2b2ce5820","system_id":"levelo_inurba_marseille","lat":43.29167,"lon":5.37149,"is_reserved":false,"is_disabled":false,"rental_uris":{"android":"levelo://app?vid=3c62cddd-39e4-464a-87a2-4ce2b2ce5820","ios":"levelo://app?vid=3c62cddd-39e4-464a-87a2-4ce2b2ce5820"},"vehicle_type_id":"4","last_reported":1752668591,"current_range_meters":19200,"station_id":"ce4bha92rcd13ifvqeh0","pricing_plan_id":"cebpf4jnsgd1na2vs0mg"},{"bike_id":"3b4a2838-c5dc-4963-9eb2-0ed264a6f8ac","system_id":"levelo_inurba_marseille","lat":43.32049,"lon":5.41537,"is_reserved":false,"is_disabled":false,"rental_uris":{"android":"levelo://app?vid=3b4a2838-c5dc-4963-9eb2-0ed264a6f8ac","ios":"levelo://app?vid=3b4a2838-c5dc-4963-9eb2-0ed264a6f8ac"},"vehicle_type_id":"4","last_reported":1752668591,"current_range_meters":19200,"station_id":"","pricing_plan_id":"cebpf4jnsgd1na2vs0mg"},{"bike_id":"01162d63-eee9-44aa-b940-853d9bbeb099","system_id":"levelo_inurba_marseille","lat":43.32096,"lon":5.36809,"is_reserved":false,"is_disabled":false,"rental_uris":{"android":"levelo://app?vid=01162d63-eee9-44aa-b940-853d9bbeb099","ios":"levelo://app?vid=01162d63-eee9-44aa-b940-853d9bbeb099"},"vehicle_type_id":"4","last_reported":1752668591,"current_range_meters":19200,"station_id":"ce4bhrh2rcd13ifvqhug","pricing_plan_id":"cebpf4jnsgd1na2vs0mg"},{"bike_id":"8485f4e2-5b47-4505-8d9b-c36e850b53b7","system_id":"levelo_inurba_marseille","lat":43.28475,"lon":5.38415,"is_reserved":false,"is_disabled":false,"rental_uris":{"android":"levelo://app?vid=8485f4e2-5b47-4505-8d9b-c36e850b53b7","ios":"levelo://app?vid=8485f4e2-5b47-4505-8d9b-c36e850b53b7"},"vehicle_type_id":"4","last_reported":1752668591,"current_range_meters":20400,"station_id":"ce4bh512rcd13ifvqe3g","pricing_plan_id":"cebpf4jnsgd1na2vs0mg"},{"bike_id":"601d63f5-45ba-444b-ae10-7d4ee6339f76","system_id":"levelo_inurba_marseille","lat":43.29901,"lon":5.43666,"is_reserved":false,"is_disabled":false,"rental_uris":{"android":"levelo://app?vid=601d63f5-45ba-444b-ae10-7d4ee6339f76","ios":"levelo://app?vid=601d63f5-45ba-444b-ae10-7d4ee6339f76"},"vehicle_type_id":"4","last_reported":1752668591,"current_range_meters":19600,"station_id":"ce4bhpp2rcd13ifvqhfg","pricing_plan_id":"cebpf4jnsgd1na2vs0mg"},{"bike_id":"7889b704-b301-4414-b00b-fe99422cbed4","system_id":"levelo_inurba_marseille","lat":43.32348,"lon":5.40631,"is_reserved":false,"is_disabled":false,"rental_uris":{"android":"levelo://app?vid=7889b704-b301-4414-b00b-fe99422cbed4","ios":"levelo://app?vid=7889b704-b301-4414-b00b-fe99422cbed4"},"vehicle_type_id":"4","last_reported":1752668591,"current_range_meters":19600,"station_id":"ce4bhq92rcd13ifvqhjg","pricing_plan_id":"cebpf4jnsgd1na2vs0mg"},{"bike_id":"855ff8f9-641c-41af-8e00-5d71e1a04e0f","system_id":"levelo_inurba_marseille","lat":43.22501,"lon":5.34797,"is_reserved":false,"is_disabled":false,"rental_uris":{"android":"levelo://app?vid=855ff8f9-641c-41af-8e00-5d71e1a04e0f","ios":"levelo://app?vid=855ff8f9-641c-41af-8e00-5d71e1a04e0f"},"vehicle_type_id":"4","last_reported":1752668591,"current_range_meters":19600,"station_id":"st_cvj5dfep6f1abm77gieg","pricing_plan_id":"cebpf4jnsgd1na2vs0mg"},{"bike_id":"1d396b60-14e2-4e1e-9d50-fff9f9653c53","system_id":"levelo_inurba_marseille","lat":43.26564,"lon":5.39043,"is_reserved":false,"is_disabled":false,"rental_uris":{"android":"levelo://app?vid=1d396b60-14e2-4e1e-9d50-fff9f9653c53","ios":"levelo://app?vid=1d396b60-14e2-4e1e-9d50-fff9f9653c53"},"vehicle_type_id":"4","last_reported":1752668591,"current_range_meters":19600,"station_id":"ce4bhe12rcd13ifvqf30","pricing_plan_id":"cebpf4jnsgd1na2vs0mg"},{"bike_id":"63362215-e6b0-499c-9a27-42bef6c7836f","system_id":"levelo_inurba_marseille","lat":43.217634,"lon":5.345999,"is_reserved":false,"is_disabled":false,"rental_uris":{"android":"levelo://app?vid=63362215-e6b0-499c-9a27-42bef6c7836f","ios":"levelo://app?vid=63362215-e6b0-499c-9a27-42bef6c7836f"},"vehicle_type_id":"4","last_reported":1752668591,"current_range_meters":19600,"station_id":"st_cvj6r9ubvosntc0bgbag","pricing_plan_id":"cebpf4jnsgd1na2vs0mg"},{"bike_id":"11e1fe48-fdff-4616-97ed-c556ff378edd","system_id":"levelo_inurba_marseille","lat":43.29855,"lon":5.36282,"is_reserved":false,"is_disabled":false,"rental_uris":{"android":"levelo://app?vid=11e1fe48-fdff-4616-97ed-c556ff378edd","ios":"levelo://app?vid=11e1fe48-fdff-4616-97ed-c556ff378edd"},"vehicle_type_id":"4","last_reported":1752668591,"current_range_meters":19600,"station_id":"ce4bgpp2rcd13ifvqc3g","pricing_plan_id":"cebpf4jnsgd1na2vs0mg"},{"bike_id":"e0b5d196-2f71-49fb-8402-6f9e1c0ab9fb","system_id":"levelo_inurba_marseille","lat":43.27365,"lon":5.36252,"is_reserved":false,"is_disabled":false,"rental_uris":{"android":"levelo://app?vid=e0b5d196-2f71-49fb-8402-6f9e1c0ab9fb","ios":"levelo://app?vid=e0b5d196-2f71-49fb-8402-6f9e1c0ab9fb"},"vehicle_type_id":"4","last_reported":1752668591,"current_range_meters":19600,"station_id":"ce4bhbh2rcd13ifvqeo0","pricing_plan_id":"cebpf4jnsgd1na2vs0mg"},{"bike_id":"212b6478-b9ed-4aa5-9e5d-82daadbf0ed6","system_id":"levelo_inurba_marseille","lat":43.30547,"lon":5.36697,"is_reserved":false,"is_disabled":false,"rental_uris":{"android":"levelo://app?vid=212b6478-b9ed-4aa5-9e5d-82daadbf0ed6","ios":"levelo://app?vid=212b6478-b9ed-4aa5-9e5d-82daadbf0ed6"},"vehicle_type_id":"4","last_reported":1752668591,"current_range_meters":19200,"station_id":"ce4bgrp2rcd13ifvqc9g","pricing_plan_id":"cebpf4jnsgd1na2vs0mg"},{"bike_id":"33cfb75e-0a10-4832-bd8a-58f02f8f14f8","system_id":"levelo_inurba_marseille","lat":43.26204,"lon":5.3793,"is_reserved":false,"is_disabled":false,"rental_uris":{"android":"levelo://app?vid=33cfb75e-0a10-4832-bd8a-58f02f8f14f8","ios":"levelo://app?vid=33cfb75e-0a10-4832-bd8a-58f02f8f14f8"},"vehicle_type_id":"4","last_reported":1752668591,"current_range_meters":20000,"station_id":"ce4bhjp2rcd13ifvqg90","pricing_plan_id":"cebpf4jnsgd1na2vs0mg"},{"bike_id":"93bbeab2-f70e-405b-b5b8-afd6f1e39470","system_id":"levelo_inurba_marseille","lat":43.26219,"lon":5.40459,"is_reserved":false,"is_disabled":false,"rental_uris":{"android":"levelo://app?vid=93bbeab2-f70e-405b-b5b8-afd6f1e39470","ios":"levelo://app?vid=93bbeab2-f70e-405b-b5b8-afd6f1e39470"},"vehicle_type_id":"4","last_reported":1752668591,"current_range_meters":20000,"station_id":"ce4bhmh2rcd13ifvqgmg","pricing_plan_id":"cebpf4jnsgd1na2vs0mg"},{"bike_id":"da24c495-bf0f-494f-9521-4e687db6d329","system_id":"levelo_inurba_marseille","lat":43.22512,"lon":5.34798,"is_reserved":false,"is_disabled":false,"rental_uris":{"android":"levelo://app?vid=da24c495-bf0f-494f-9521-4e687db6d329","ios":"levelo://app?vid=da24c495-bf0f-494f-9521-4e687db6d329"},"vehicle_type_id":"4","last_reported":1752668591,"current_range_meters":20000,"station_id":"st_cvj5dfep6f1abm77gieg","pricing_plan_id":"cebpf4jnsgd1na2vs0mg"},{"bike_id":"00d3221a-1dbf-44a0-9207-f4ecc41dde2a","system_id":"levelo_inurba_marseille","lat":43.29265,"lon":5.38424,"is_reserved":false,"is_disabled":false,"rental_uris":{"android":"levelo://app?vid=00d3221a-1dbf-44a0-9207-f4ecc41dde2a","ios":"levelo://app?vid=00d3221a-1dbf-44a0-9207-f4ecc41dde2a"},"vehicle_type_id":"4","last_reported":1752668591,"current_range_meters":20000,"station_id":"ce4bh692rcd13ifvqea0","pricing_plan_id":"cebpf4jnsgd1na2vs0mg"},{"bike_id":"2ac93549-5c94-4228-8eea-782a21384d10","system_id":"levelo_inurba_marseille","lat":43.29634,"lon":5.37793,"is_reserved":false,"is_disabled":false,"rental_uris":{"android":"levelo://app?vid=2ac93549-5c94-4228-8eea-782a21384d10","ios":"levelo://app?vid=2ac93549-5c94-4228-8eea-782a21384d10"},"vehicle_type_id":"4","last_reported":1752668591,"current_range_meters":20000,"station_id":"","pricing_plan_id":"cebpf4jnsgd1na2vs0mg"},{"bike_id":"1af876d9-6e0a-45cc-bed9-deae0b87ca9c","system_id":"levelo_inurba_marseille","lat":43.211904,"lon":5.350708,"is_reserved":false,"is_disabled":false,"rental_uris":{"android":"levelo://app?vid=1af876d9-6e0a-45cc-bed9-deae0b87ca9c","ios":"levelo://app?vid=1af876d9-6e0a-45cc-bed9-deae0b87ca9c"},"vehicle_type_id":"4","last_reported":1752668591,"current_range_meters":20000,"station_id":"st_cvj6sg6p6f1abm77japg","pricing_plan_id":"cebpf4jnsgd1na2vs0mg"},{"bike_id":"531dca68-8617-41b0-a6cd-abffc94e1d45","system_id":"levelo_inurba_marseille","lat":43.31205,"lon":5.37318,"is_reserved":false,"is_disabled":false,"rental_uris":{"android":"levelo://app?vid=531dca68-8617-41b0-a6cd-abffc94e1d45","ios":"levelo://app?vid=531dca68-8617-41b0-a6cd-abffc94e1d45"},"vehicle_type_id":"4","last_reported":1752668591,"current_range_meters":20000,"station_id":"","pricing_plan_id":"cebpf4jnsgd1na2vs0mg"},{"bike_id":"1d0e8fea-b1f6-4230-a2bb-fcc9f19a8b41","system_id":"levelo_inurba_marseille","lat":43.29526,"lon":5.37501,"is_reserved":false,"is_disabled":false,"rental_uris":{"android":"levelo://app?vid=1d0e8fea-b1f6-4230-a2bb-fcc9f19a8b41","ios":"levelo://app?vid=1d0e8fea-b1f6-4230-a2bb-fcc9f19a8b41"},"vehicle_type_id":"4","last_reported":1752668591,"current_range_meters":20000,"station_id":"ce4bgkp2rcd13ifvqbmg","pricing_plan_id":"cebpf4jnsgd1na2vs0mg"},{"bike_id":"72ea4dbd-1898-4412-8439-4f1a76cb20b2","system_id":"levelo_inurba_marseille","lat":43.3046,"lon":5.37905,"is_reserved":false,"is_disabled":false,"rental_uris":{"android":"levelo://app?vid=72ea4dbd-1898-4412-8439-4f1a76cb20b2","ios":"levelo://app?vid=72ea4dbd-1898-4412-8439-4f1a76cb20b2"},"vehicle_type_id":"4","last_reported":1752668591,"current_range_meters":20000,"station_id":"ce4bgup2rcd13ifvqcn0","pricing_plan_id":"cebpf4jnsgd1na2vs0mg"},{"bike_id":"684e4ecc-10cc-422b-8660-9c93d92b5181","system_id":"levelo_inurba_marseille","lat":43.260299,"lon":5.375507,"is_reserved":false,"is_disabled":false,"rental_uris":{"android":"levelo://app?vid=684e4ecc-10cc-422b-8660-9c93d92b5181","ios":"levelo://app?vid=684e4ecc-10cc-422b-8660-9c93d92b5181"},"vehicle_type_id":"4","last_reported":1752668591,"current_range_meters":21600,"station_id":"ce4bhgh2rcd13ifvqfa0","pricing_plan_id":"cebpf4jnsgd1na2vs0mg"},{"bike_id":"4c1f8ab7-fb44-4c98-84be-c2aedb83d489","system_id":"levelo_inurba_marseille","lat":43.25496,"lon":5.3765,"is_reserved":false,"is_disabled":false,"rental_uris":{"android":"levelo://app?vid=4c1f8ab7-fb44-4c98-84be-c2aedb83d489","ios":"levelo://app?vid=4c1f8ab7-fb44-4c98-84be-c2aedb83d489"},"vehicle_type_id":"4","last_reported":1752668591,"current_range_meters":20400,"station_id":"ce4bhh12rcd13ifvqff0","pricing_plan_id":"cebpf4jnsgd1na2vs0mg"},{"bike_id":"79806c3a-6c29-4913-9ec9-93da135cc77d","system_id":"levelo_inurba_marseille","lat":43.33772,"lon":5.37434,"is_reserved":false,"is_disabled":false,"rental_uris":{"android":"levelo://app?vid=79806c3a-6c29-4913-9ec9-93da135cc77d","ios":"levelo://app?vid=79806c3a-6c29-4913-9ec9-93da135cc77d"},"vehicle_type_id":"4","last_reported":1752668591,"current_range_meters":20400,"station_id":"","pricing_plan_id":"cebpf4jnsgd1na2vs0mg"},{"bike_id":"da891840-0cec-4ccc-961c-48903736c6fa","system_id":"levelo_inurba_marseille","lat":43.31139,"lon":5.37692,"is_reserved":false,"is_disabled":false,"rental_uris":{"android":"levelo://app?vid=da891840-0cec-4ccc-961c-48903736c6fa","ios":"levelo://app?vid=da891840-0cec-4ccc-961c-48903736c6fa"},"vehicle_type_id":"4","last_reported":1752668591,"current_range_meters":20400,"station_id":"","pricing_plan_id":"cebpf4jnsgd1na2vs0mg"},{"bike_id":"5dd6ba39-4a83-4791-a933-1004b1fb810d","system_id":"levelo_inurba_marseille","lat":43.295723,"lon":5.375196,"is_reserved":false,"is_disabled":false,"rental_uris":{"android":"levelo://app?vid=5dd6ba39-4a83-4791-a933-1004b1fb810d","ios":"levelo://app?vid=5dd6ba39-4a83-4791-a933-1004b1fb810d"},"vehicle_type_id":"4","last_reported":1752668591,"current_range_meters":20400,"station_id":"","pricing_plan_id":"cebpf4jnsgd1na2vs0mg"},{"bike_id":"e5f51449-327c-4a36-b1e4-9180e51f9b99","system_id":"levelo_inurba_marseille","lat":43.21752,"lon":5.34603,"is_reserved":false,"is_disabled":false,"rental_uris":{"android":"levelo://app?vid=e5f51449-327c-4a36-b1e4-9180e51f9b99","ios":"levelo://app?vid=e5f51449-327c-4a36-b1e4-9180e51f9b99"},"vehicle_type_id":"4","last_reported":1752668591,"current_range_meters":20400,"station_id":"st_cvj6r9ubvosntc0bgbag","pricing_plan_id":"cebpf4jnsgd1na2vs0mg"},{"bike_id":"e55362a2-ece8-4d4e-a317-b4f4a200898f","system_id":"levelo_inurba_marseille","lat":43.27427,"lon":5.39419,"is_reserved":false,"is_disabled":false,"rental_uris":{"android":"levelo://app?vid=e55362a2-ece8-4d4e-a317-b4f4a200898f","ios":"levelo://app?vid=e55362a2-ece8-4d4e-a317-b4f4a200898f"},"vehicle_type_id":"4","last_reported":1752668591,"current_range_meters":20400,"station_id":"ce4bhdp2rcd13ifvqf20","pricing_plan_id":"cebpf4jnsgd1na2vs0mg"},{"bike_id":"81f88721-00d0-431c-83bf-446e11578408","system_id":"levelo_inurba_marseille","lat":43.22498,"lon":5.34777,"is_reserved":false,"is_disabled":false,"rental_uris":{"android":"levelo://app?vid=81f88721-00d0-431c-83bf-446e11578408","ios":"levelo://app?vid=81f88721-00d0-431c-83bf-446e11578408"},"vehicle_type_id":"4","last_reported":1752668591,"current_range_meters":20400,"station_id":"st_cvj5dfep6f1abm77gieg","pricing_plan_id":"cebpf4jnsgd1na2vs0mg"},{"bike_id":"d99e04f4-3241-405d-89cd-f3343974609d","system_id":"levelo_inurba_marseille","lat":43.29836,"lon":5.36263,"is_reserved":false,"is_disabled":false,"rental_uris":{"android":"levelo://app?vid=d99e04f4-3241-405d-89cd-f3343974609d","ios":"levelo://app?vid=d99e04f4-3241-405d-89cd-f3343974609d"},"vehicle_type_id":"4","last_reported":1752668591,"current_range_meters":20800,"station_id":"ce4bgpp2rcd13ifvqc3g","pricing_plan_id":"cebpf4jnsgd1na2vs0mg"},{"bike_id":"bcbd9b77-f6dd-4aed-b568-12a5079f2642","system_id":"levelo_inurba_marseille","lat":43.29608,"lon":5.38099,"is_reserved":false,"is_disabled":false,"rental_uris":{"android":"levelo://app?vid=bcbd9b77-f6dd-4aed-b568-12a5079f2642","ios":"levelo://app?vid=bcbd9b77-f6dd-4aed-b568-12a5079f2642"},"vehicle_type_id":"4","last_reported":1752668591,"current_range_meters":20800,"station_id":"ce4bgl12rcd13ifvqbo0","pricing_plan_id":"cebpf4jnsgd1na2vs0mg"},{"bike_id":"dd2dc8a3-a276-4710-a199-3e90d5e5f60b","system_id":"levelo_inurba_marseille","lat":43.24731,"lon":5.41179,"is_reserved":false,"is_disabled":false,"rental_uris":{"android":"levelo://app?vid=dd2dc8a3-a276-4710-a199-3e90d5e5f60b","ios":"levelo://app?vid=dd2dc8a3-a276-4710-a199-3e90d5e5f60b"},"vehicle_type_id":"4","last_reported":1752668591,"current_range_meters":20800,"station_id":"","pricing_plan_id":"cebpf4jnsgd1na2vs0mg"},{"bike_id":"9381a1c2-9d5b-4d9c-a4f9-621d0831b916","system_id":"levelo_inurba_marseille","lat":43.29918,"lon":5.37476,"is_reserved":false,"is_disabled":false,"rental_uris":{"android":"levelo://app?vid=9381a1c2-9d5b-4d9c-a4f9-621d0831b916","ios":"levelo://app?vid=9381a1c2-9d5b-4d9c-a4f9-621d0831b916"},"vehicle_type_id":"4","last_reported":1752668591,"current_range_meters":20800,"station_id":"ce4bgjh2rcd13ifvqbg0","pricing_plan_id":"cebpf4jnsgd1na2vs0mg"},{"bike_id":"1c807684-63cc-4a73-81c2-4e7a1b1b87f8","system_id":"levelo_inurba_marseille","lat":43.30551,"lon":5.36532,"is_reserved":false,"is_disabled":false,"rental_uris":{"android":"levelo://app?vid=1c807684-63cc-4a73-81c2-4e7a1b1b87f8","ios":"levelo://app?vid=1c807684-63cc-4a73-81c2-4e7a1b1b87f8"},"vehicle_type_id":"4","last_reported":1752668591,"current_range_meters":20800,"station_id":"ce4bgs12rcd13ifvqcag","pricing_plan_id":"cebpf4jnsgd1na2vs0mg"},{"bike_id":"df397764-c2da-4e1a-9de3-2d9ab3ed4546","system_id":"levelo_inurba_marseille","lat":43.29896,"lon":5.43668,"is_reserved":false,"is_disabled":false,"rental_uris":{"android":"levelo://app?vid=df397764-c2da-4e1a-9de3-2d9ab3ed4546","ios":"levelo://app?vid=df397764-c2da-4e1a-9de3-2d9ab3ed4546"},"vehicle_type_id":"4","last_reported":1752668591,"current_range_meters":28800,"station_id":"ce4bhpp2rcd13ifvqhfg","pricing_plan_id":"cebpf4jnsgd1na2vs0mg"},{"bike_id":"a092d05c-8017-44f5-ba8a-35792463d6a3","system_id":"levelo_inurba_marseille","lat":43.22498,"lon":5.34786,"is_reserved":false,"is_disabled":false,"rental_uris":{"android":"levelo://app?vid=a092d05c-8017-44f5-ba8a-35792463d6a3","ios":"levelo://app?vid=a092d05c-8017-44f5-ba8a-35792463d6a3"},"vehicle_type_id":"4","last_reported":1752668591,"current_range_meters":20800,"station_id":"st_cvj5dfep6f1abm77gieg","pricing_plan_id":"cebpf4jnsgd1na2vs0mg"},{"bike_id":"38264f39-519e-431d-a8e7-327e430cfc9f","system_id":"levelo_inurba_marseille","lat":43.25525,"lon":5.37304,"is_reserved":false,"is_disabled":false,"rental_uris":{"android":"levelo://app?vid=38264f39-519e-431d-a8e7-327e430cfc9f","ios":"levelo://app?vid=38264f39-519e-431d-a8e7-327e430cfc9f"},"vehicle_type_id":"4","last_reported":1752668591,"current_range_meters":20800,"station_id":"","pricing_plan_id":"cebpf4jnsgd1na2vs0mg"},{"bike_id":"7e5466eb-e538-4487-a9fc-27a4444ad3c1","system_id":"levelo_inurba_marseille","lat":43.21759,"lon":5.34605,"is_reserved":false,"is_disabled":false,"rental_uris":{"android":"levelo://app?vid=7e5466eb-e538-4487-a9fc-27a4444ad3c1","ios":"levelo://app?vid=7e5466eb-e538-4487-a9fc-27a4444ad3c1"},"vehicle_type_id":"4","last_reported":1752668591,"current_range_meters":20800,"station_id":"st_cvj6r9ubvosntc0bgbag","pricing_plan_id":"cebpf4jnsgd1na2vs0mg"},{"bike_id":"e706c0fb-54a0-4328-8e36-914401fd45e2","system_id":"levelo_inurba_marseille","lat":43.2175,"lon":5.34603,"is_reserved":false,"is_disabled":false,"rental_uris":{"android":"levelo://app?vid=e706c0fb-54a0-4328-8e36-914401fd45e2","ios":"levelo://app?vid=e706c0fb-54a0-4328-8e36-914401fd45e2"},"vehicle_type_id":"4","last_reported":1752668591,"current_range_meters":20800,"station_id":"st_cvj6r9ubvosntc0bgbag","pricing_plan_id":"cebpf4jnsgd1na2vs0mg"},{"bike_id":"c29a8db5-19b5-4d6b-9c78-d71842723f79","system_id":"levelo_inurba_marseille","lat":43.31705,"lon":5.37765,"is_reserved":false,"is_disabled":false,"rental_uris":{"android":"levelo://app?vid=c29a8db5-19b5-4d6b-9c78-d71842723f79","ios":"levelo://app?vid=c29a8db5-19b5-4d6b-9c78-d71842723f79"},"vehicle_type_id":"4","last_reported":1752668591,"current_range_meters":20800,"station_id":"ce4bgth2rcd13ifvqch0","pricing_plan_id":"cebpf4jnsgd1na2vs0mg"},{"bike_id":"a1c938fb-7c8e-459f-87a0-8ac2ee104fb0","system_id":"levelo_inurba_marseille","lat":43.30569,"lon":5.36543,"is_reserved":false,"is_disabled":false,"rental_uris":{"android":"levelo://app?vid=a1c938fb-7c8e-459f-87a0-8ac2ee104fb0","ios":"levelo://app?vid=a1c938fb-7c8e-459f-87a0-8ac2ee104fb0"},"vehicle_type_id":"4","last_reported":1752668591,"current_range_meters":20800,"station_id":"ce4bgs12rcd13ifvqcag","pricing_plan_id":"cebpf4jnsgd1na2vs0mg"},{"bike_id":"6080ed21-5b67-46a9-a9fa-fe5671071008","system_id":"levelo_inurba_marseille","lat":43.28439,"lon":5.38272,"is_reserved":false,"is_disabled":false,"rental_uris":{"android":"levelo://app?vid=6080ed21-5b67-46a9-a9fa-fe5671071008","ios":"levelo://app?vid=6080ed21-5b67-46a9-a9fa-fe5671071008"},"vehicle_type_id":"4","last_reported":1752668591,"current_range_meters":20800,"station_id":"","pricing_plan_id":"cebpf4jnsgd1na2vs0mg"},{"bike_id":"a75d2eae-2284-4a25-8af0-ebc4b5fb32ca","system_id":"levelo_inurba_marseille","lat":43.21756,"lon":5.346,"is_reserved":false,"is_disabled":false,"rental_uris":{"android":"levelo://app?vid=a75d2eae-2284-4a25-8af0-ebc4b5fb32ca","ios":"levelo://app?vid=a75d2eae-2284-4a25-8af0-ebc4b5fb32ca"},"vehicle_type_id":"4","last_reported":1752668591,"current_range_meters":21600,"station_id":"st_cvj6r9ubvosntc0bgbag","pricing_plan_id":"cebpf4jnsgd1na2vs0mg"},{"bike_id":"248c8c71-a626-4dab-bfe9-35ccef006482","system_id":"levelo_inurba_marseille","lat":43.2842,"lon":5.34996,"is_reserved":false,"is_disabled":false,"rental_uris":{"android":"levelo://app?vid=248c8c71-a626-4dab-bfe9-35ccef006482","ios":"levelo://app?vid=248c8c71-a626-4dab-bfe9-35ccef006482"},"vehicle_type_id":"4","last_reported":1752668591,"current_range_meters":21600,"station_id":"ce4bhbh2rcd13ifvqepg","pricing_plan_id":"cebpf4jnsgd1na2vs0mg"},{"bike_id":"7a94053c-7f41-48e9-8e1c-b4b23f6be8b0","system_id":"levelo_inurba_marseille","lat":43.27835,"lon":5.3921,"is_reserved":false,"is_disabled":false,"rental_uris":{"android":"levelo://app?vid=7a94053c-7f41-48e9-8e1c-b4b23f6be8b0","ios":"levelo://app?vid=7a94053c-7f41-48e9-8e1c-b4b23f6be8b0"},"vehicle_type_id":"4","last_reported":1752668591,"current_range_meters":21600,"station_id":"ce4bhjp2rcd13ifvqga0","pricing_plan_id":"cebpf4jnsgd1na2vs0mg"},{"bike_id":"4a37be45-ec55-437f-bc55-cffe99624f69","system_id":"levelo_inurba_marseille","lat":43.28159,"lon":5.42651,"is_reserved":false,"is_disabled":false,"rental_uris":{"android":"levelo://app?vid=4a37be45-ec55-437f-bc55-cffe99624f69","ios":"levelo://app?vid=4a37be45-ec55-437f-bc55-cffe99624f69"},"vehicle_type_id":"4","last_reported":1752668591,"current_range_meters":20800,"station_id":"ce4bhnh2rcd13ifvqgug","pricing_plan_id":"cebpf4jnsgd1na2vs0mg"},