{"last_updated":1742900920,"ttl":60,"version":"2.2","data":{"bikes":[{"bike_id":"9de4e7f7-5494-4080-828b-3ee9a14b4e2a","system_id":"levelo_inurba_marseille","lat":43.31367,"lon":5.38501,"is_reserved":false,"is_disabled":false,"rental_uris":{"android":"levelo://app?vid=9de4e7f7-5494-4080-828b-3ee9a14b4e2a","ios":"levelo://app?vid=9de4e7f7-5494-4080-828b-3ee9a14b4e2a"},"vehicle_type_id":"4","last_reported":1742900920,"current_range_meters":2800,"station_id":"ce4bgt92rcd13ifvqcf0","pricing_plan_id":"cebpf4jnsgd1na2vs0mg"},{"bike_id":"85e3b648-8dd7-4edc-a13f-7b859fabecbd","system_id":"levelo_inurba_marseille","lat":43.25728,"lon":5.41108,"is_reserved":false,"is_disabled":false,"rental_uris":{"android":"levelo://app?vid=85e3b648-8dd7-4edc-a13f-7b859fabecbd","ios":"levelo://app?vid=85e3b648-8dd7-4edc-a13f-7b859fabecbd"},"vehicle_type_id":"4","last_reported":1742900920,"current_range_meters":2800,"station_id":"ce4bhkp2rcd13ifvqgd0","pricing_plan_id":"cebpf4jnsgd1na2vs0mg"},{"bike_id":"abd212ef-7821-43c0-9759-c71e062504ef","system_id":"levelo_inurba_marseille","lat":43.27334,"lon":5.39119,"is_reserved":false,"is_disabled":false,"rental_uris":{"android":"levelo://app?vid=abd212ef-7821-43c0-9759-c71e062504ef","ios":"levelo://app?vid=abd212ef-7821-43c0-9759-c71e062504ef"},"vehicle_type_id":"4","last_reported":1742900920,"current_range_meters":2800,"station_id":"ce4bhgp2rcd13ifvqfe0","pricing_plan_id":"cebpf4jnsgd1na2vs0mg"},{"bike_id":"72e6f7e8-81c8-4f38-8375-85a7eb5bbb85","system_id":"levelo_inurba_marseille","lat":43.31649,"lon":5.37153,"is_reserved":false,"is_disabled":false,"rental_uris":{"android":"levelo://app?vid=72e6f7e8-81c8-4f38-8375-85a7eb5bbb85","ios":"levelo://app?vid=72e6f7e8-81c8-4f38-8375-85a7eb5bbb85"},"vehicle_type_id":"4","last_reported":1742900920,"current_range_meters":2800,"station_id":"","pricing_plan_id":"cebpf4jnsgd1na2vs0mg"},{"bike_id":"d1257018-446a-4772-b636-eb92013c3d00","system_id":"levelo_inurba_marseille","lat":43.295229,"lon":5.375042,"is_reserved":false,"is_disabled":true,"rental_uris":{"android":"levelo://app?vid=d1257018-446a-4772-b636-eb92013c3d00","ios":"levelo://app?vid=d1257018-446a-4772-b636-eb92013c3d00"},"vehicle_type_id":"4","last_reported":1742900920,"current_range_meters":3600,"station_id":"","pricing_plan_id":"cebpf4jnsgd1na2vs0mg"},{"bike_id":"3756756b-cd1e-43cd-99a0-c85cf83b666a","system_id":"levelo_inurba_marseille","lat":43.28403,"lon":5.37516,"is_reserved":false,"is_disabled":false,"rental_uris":{"android":"levelo://app?vid=3756756b-cd1e-43cd-99a0-c85cf83b666a","ios":"levelo://app?vid=3756756b-cd1e-43cd-99a0-c85cf83b666a"},"vehicle_type_id":"4","last_reported":1742900920,"current_range_meters":3200,"station_id":"ce4bh412rcd13ifvqds0","pricing_plan_id":"cebpf4jnsgd1na2vs0mg"},{"bike_id":"bebbaaa4-9324-461e-b685-01f74c9202e0","system_id":"levelo_inurba_marseille","lat":43.23961,"lon":5.36634,"is_reserved":false,"is_disabled":false,"rental_uris":{"android":"levelo://app?vid=bebbaaa4-9324-461e-b685-01f74c9202e0","ios":"levelo://app?vid=bebbaaa4-9324-461e-b685-01f74c9202e0"},"vehicle_type_id":"4","last_reported":1742900920,"current_range_meters":3200,"station_id":"ce4bhi12rcd13ifvqfp0","pricing_plan_id":"cebpf4jnsgd1na2vs0mg"},{"bike_id":"0814c752-717d-4d82-8dc2-7eb7f3b777fb","system_id":"levelo_inurba_marseille","lat":43.23153,"lon":5.43721,"is_reserved":false,"is_disabled":false,"rental_uris":{"android":"levelo://app?vid=0814c752-717d-4d82-8dc2-7eb7f3b777fb","ios":"levelo://app?vid=0814c752-717d-4d82-8dc2-7eb7f3b777fb"},"vehicle_type_id":"4","last_reported":1742900920,"current_range_meters":3200,"station_id":"ce4bhmp2rcd13ifvqgog","pricing_plan_id":"cebpf4jnsgd1na2vs0mg"},{"bike_id":"634c433d-3db3-4fd8-8be9-8b653dae530e","system_id":"levelo_inurba_marseille","lat":43.28069,"lon":5.39001,"is_reserved":false,"is_disabled":true,"rental_uris":{"android":"levelo://app?vid=634c433d-3db3-4fd8-8be9-8b653dae530e","ios":"levelo://app?vid=634c433d-3db3-4fd8-8be9-8b653dae530e"},"vehicle_type_id":"4","last_reported":1742900920,"current_range_meters":3200,"station_id":"","pricing_plan_id":"cebpf4jnsgd1na2vs0mg"},{"bike_id":"ee76f485-8702-4e90-9e35-964836194e17","system_id":"levelo_inurba_marseille","lat":43.23193,"lon":5.35548,"is_reserved":false,"is_disabled":false,"rental_uris":{"android":"levelo://app?vid=ee76f485-8702-4e90-9e35-964836194e17","ios":"levelo://app?vid=ee76f485-8702-4e90-9e35-964836194e17"},"vehicle_type_id":"4","last_reported":1742900920,"current_range_meters":3200,"station_id":"ce4bhu92rcd13ifvqi70","pricing_plan_id":"cebpf4jnsgd1na2vs0mg"},{"bike_id":"b89d5c58-0d7b-4f4f-8e36-d3e693accc3c","system_id":"levelo_inurba_marseille","lat":43.3236,"lon":5.36762,"is_reserved":false,"is_disabled":false,"rental_uris":{"android":"levelo://app?vid=b89d5c58-0d7b-4f4f-8e36-d3e693accc3c","ios":"levelo://app?vid=b89d5c58-0d7b-4f4f-8e36-d3e693accc3c"},"vehicle_type_id":"4","last_reported":1742900920,"current_range_meters":3600,"station_id":"ce4bhsh2rcd13ifvqi2g","pricing_plan_id":"cebpf4jnsgd1na2vs0mg"},{"bike_id":"11e68639-5706-4da4-afc2-242897f38300","system_id":"levelo_inurba_marseille","lat":43.28488,"lon":5.38427,"is_reserved":false,"is_disabled":false,"rental_uris":{"android":"levelo://app?vid=11e68639-5706-4da4-afc2-242897f38300","ios":"levelo://app?vid=11e68639-5706-4da4-afc2-242897f38300"},"vehicle_type_id":"4","last_reported":1742900920,"current_range_meters":3600,"station_id":"ce4bh512rcd13ifvqe3g","pricing_plan_id":"cebpf4jnsgd1na2vs0mg"},{"bike_id":"6f215761-e3c1-4670-9c14-c1e4afb855cb","system_id":"levelo_inurba_marseille","lat":43.2669,"lon":5.3828,"is_reserved":false,"is_disabled":false,"rental_uris":{"android":"levelo://app?vid=6f215761-e3c1-4670-9c14-c1e4afb855cb","ios":"levelo://app?vid=6f215761-e3c1-4670-9c14-c1e4afb855cb"},"vehicle_type_id":"4","last_reported":1742900920,"current_range_meters":3600,"station_id":"ce4bhg92rcd13ifvqf90","pricing_plan_id":"cebpf4jnsgd1na2vs0mg"},{"bike_id":"1f1db52c-ed5a-46ac-8031-25fe48c51581","system_id":"levelo_inurba_marseille","lat":43.23065,"lon":5.35488,"is_reserved":false,"is_disabled":false,"rental_uris":{"android":"levelo://app?vid=1f1db52c-ed5a-46ac-8031-25fe48c51581","ios":"levelo://app?vid=1f1db52c-ed5a-46ac-8031-25fe48c51581"},"vehicle_type_id":"4","last_reported":1742900920,"current_range_meters":3600,"station_id":"cpo3342slgdg3j2ifvpg","pricing_plan_id":"cebpf4jnsgd1na2vs0mg"},{"bike_id":"99808593-bcfb-40db-8f08-a47e52fbe3f2","system_id":"levelo_inurba_marseille","lat":43.298704,"lon":5.3973,"is_reserved":false,"is_disabled":false,"rental_uris":{"android":"levelo://app?vid=99808593-bcfb-40db-8f08-a47e52fbe3f2","ios":"levelo://app?vid=99808593-bcfb-40db-8f08-a47e52fbe3f2"},"vehicle_type_id":"4","last_reported":1742900920,"current_range_meters":4000,"station_id":"ce4bhs12rcd13ifvqhvg","pricing_plan_id":"cebpf4jnsgd1na2vs0mg"},{"bike_id":"b329756d-0764-4fd1-90ae-22bfd128f86b","system_id":"levelo_inurba_marseille","lat":43.31208,"lon":5.36889,"is_reserved":false,"is_disabled":false,"rental_uris":{"android":"levelo://app?vid=b329756d-0764-4fd1-90ae-22bfd128f86b","ios":"levelo://app?vid=b329756d-0764-4fd1-90ae-22bfd128f86b"},"vehicle_type_id":"4","last_reported":1742900920,"current_range_meters":4000,"station_id":"ce4bgl92rcd13ifvqbq0","pricing_plan_id":"cebpf4jnsgd1na2vs0mg"},{"bike_id":"e8a8681a-90be-4ab3-80a0-95a4b8b4cbd9","system_id":"levelo_inurba_marseille","lat":43.31159,"lon":5.36841,"is_reserved":false,"is_disabled":false,"rental_uris":{"android":"levelo://app?vid=e8a8681a-90be-4ab3-80a0-95a4b8b4cbd9","ios":"levelo://app?vid=e8a8681a-90be-4ab3-80a0-95a4b8b4cbd9"},"vehicle_type_id":"4","last_reported":1742900920,"current_range_meters":4000,"station_id":"ce4bgl92rcd13ifvqbq0","pricing_plan_id":"cebpf4jnsgd1na2vs0mg"},{"bike_id":"763cfa5b-c33b-448e-9f64-07102448a732","system_id":"levelo_inurba_marseille","lat":43.24173,"lon":5.39703,"is_reserved":false,"is_disabled":true,"rental_uris":{"android":"levelo://app?vid=763cfa5b-c33b-448e-9f64-07102448a732","ios":"levelo://app?vid=763cfa5b-c33b-448e-9f64-07102448a732"},"vehicle_type_id":"4","last_reported":1742900920,"current_range_meters":4000,"station_id":"","pricing_plan_id":"cebpf4jnsgd1na2vs0mg"},{"bike_id":"9fc87cb3-4f61-4e11-a37d-bb25cfffc8b7","system_id":"levelo_inurba_marseille","lat":43.2315,"lon":5.43714,"is_reserved":false,"is_disabled":false,"rental_uris":{"android":"levelo://app?vid=9fc87cb3-4f61-4e11-a37d-bb25cfffc8b7","ios":"levelo://app?vid=9fc87cb3-4f61-4e11-a37d-bb25cfffc8b7"},"vehicle_type_id":"4","last_reported":1742900920,"current_range_meters":4400,"station_id":"ce4bhmp2rcd13ifvqgog","pricing_plan_id":"cebpf4jnsgd1na2vs0mg"},{"bike_id":"03fe869c-7476-4e89-a27e-7ed9229c81bb","system_id":"levelo_inurba_marseille","lat":43.28724,"lon":5.3582,"is_reserved":false,"is_disabled":false,"rental_uris":{"android":"levelo://app?vid=03fe869c-7476-4e89-a27e-7ed9229c81bb","ios":"levelo://app?vid=03fe869c-7476-4e89-a27e-7ed9229c81bb"},"vehicle_type_id":"4","last_reported":1742900920,"current_range_meters":4400,"station_id":"","pricing_plan_id":"cebpf4jnsgd1na2vs0mg"},{"bike_id":"74d5caef-4f0a-4dd1-8ccd-cedd3cd8ec58","system_id":"levelo_inurba_marseille","lat":43.23148,"lon":5.43689,"is_reserved":false,"is_disabled":false,"rental_uris":{"android":"levelo://app?vid=74d5caef-4f0a-4dd1-8ccd-cedd3cd8ec58","ios":"levelo://app?vid=74d5caef-4f0a-4dd1-8ccd-cedd3cd8ec58"},"vehicle_type_id":"4","last_reported":1742900920,"current_range_meters":4800,"station_id":"ce4bhmp2rcd13ifvqgog","pricing_plan_id":"cebpf4jnsgd1na2vs0mg"},{"bike_id":"a12928e8-2ec5-48bb-9fe6-e4726f6a2ad5","system_id":"levelo_inurba_marseille","lat":43.23062,"lon":5.35488,"is_reserved":false,"is_disabled":false,"rental_uris":{"android":"levelo://app?vid=a12928e8-2ec5-48bb-9fe6-e4726f6a2ad5","ios":"levelo://app?vid=a12928e8-2ec5-48bb-9fe6-e4726f6a2ad5"},"vehicle_type_id":"4","last_reported":1742900920,"current_range_meters":4800,"station_id":"cpo3342slgdg3j2ifvpg","pricing_plan_id":"cebpf4jnsgd1na2vs0mg"},{"bike_id":"38c86b9d-9dd3-4ede-a2a3-f44b312eecca","system_id":"levelo_inurba_marseille","lat":43.31219,"lon":5.36865,"is_reserved":false,"is_disabled":false,"rental_uris":{"android":"levelo://app?vid=38c86b9d-9dd3-4ede-a2a3-f44b312eecca","ios":"levelo://app?vid=38c86b9d-9dd3-4ede-a2a3-f44b312eecca"},"vehicle_type_id":"4","last_reported":1742900920,"current_range_meters":4800,"station_id":"ce4bgl92rcd13ifvqbq0","pricing_plan_id":"cebpf4jnsgd1na2vs0mg"},{"bike_id":"b62ed4f9-8fc3-41b3-8b99-24e47f5c6850","system_id":"levelo_inurba_marseille","lat":43.306,"lon":5.3936,"is_reserved":false,"is_disabled":false,"rental_uris":{"android":"levelo://app?vid=b62ed4f9-8fc3-41b3-8b99-24e47f5c6850","ios":"levelo://app?vid=b62ed4f9-8fc3-41b3-8b99-24e47f5c6850"},"vehicle_type_id":"4","last_reported":1742900920,"current_range_meters":5600,"station_id":"ce4bh0p2rcd13ifvqd80","pricing_plan_id":"cebpf4jnsgd1na2vs0mg"},{"bike_id":"a0a460eb-34d7-43d6-85ef-87b30455cbf0","system_id":"levelo_inurba_marseille","lat":43.23958,"lon":5.36641,"is_reserved":false,"is_disabled":false,"rental_uris":{"android":"levelo://app?vid=a0a460eb-34d7-43d6-85ef-87b30455cbf0","ios":"levelo://app?vid=a0a460eb-34d7-43d6-85ef-87b30455cbf0"},"vehicle_type_id":"4","last_reported":1742900920,"current_range_meters":5600,"station_id":"ce4bhi12rcd13ifvqfp0","pricing_plan_id":"cebpf4jnsgd1na2vs0mg"},{"bike_id":"ebf86de8-a3f7-4563-b9cd-62f5316ef4ec","system_id":"levelo_inurba_marseille","lat":43.30933,"lon":5.40152,"is_reserved":false,"is_disabled":true,"rental_uris":{"android":"levelo://app?vid=ebf86de8-a3f7-4563-b9cd-62f5316ef4ec","ios":"levelo://app?vid=ebf86de8-a3f7-4563-b9cd-62f5316ef4ec"},"vehicle_type_id":"4","last_reported":1742900920,"current_range_meters":6000,"station_id":"ce4bgvp2rcd13ifvqct0","pricing_plan_id":"cebpf4jnsgd1na2vs0mg"},{"bike_id":"f02a77b8-f810-41ff-bf5b-5ab742b469a7","system_id":"levelo_inurba_marseille","lat":43.23152,"lon":5.4371,"is_reserved":false,"is_disabled":false,"rental_uris":{"android":"levelo://app?vid=f02a77b8-f810-41ff-bf5b-5ab742b469a7","ios":"levelo://app?vid=f02a77b8-f810-41ff-bf5b-5ab742b469a7"},"vehicle_type_id":"4","last_reported":1742900920,"current_range_meters":6000,"station_id":"ce4bhmp2rcd13ifvqgog","pricing_plan_id":"cebpf4jnsgd1na2vs0mg"},{"bike_id":"ed445230-2d21-4498-afb7-fd4aa4bf3d47","system_id":"levelo_inurba_marseille","lat":43.26708,"lon":5.38255,"is_reserved":false,"is_disabled":false,"rental_uris":{"android":"levelo://app?vid=ed445230-2d21-4498-afb7-fd4aa4bf3d47","ios":"levelo://app?vid=ed445230-2d21-4498-afb7-fd4aa4bf3d47"},"vehicle_type_id":"4","last_reported":1742900920,"current_range_meters":6000,"station_id":"ce4bhg92rcd13ifvqf90","pricing_plan_id":"cebpf4jnsgd1na2vs0mg"},{"bike_id":"9e98dd5b-24d0-40b4-b7f1-b2bce7ea64a0","system_id":"levelo_inurba_marseille","lat":43.26946,"lon":5.40251,"is_reserved":false,"is_disabled":false,"rental_uris":{"android":"levelo://app?vid=9e98dd5b-24d0-40b4-b7f1-b2bce7ea64a0","ios":"levelo://app?vid=9e98dd5b-24d0-40b4-b7f1-b2bce7ea64a0"},"vehicle_type_id":"4","last_reported":1742900920,"current_range_meters":6000,"station_id":"cjm6bp8fraef2m0cb0m0","pricing_plan_id":"cebpf4jnsgd1na2vs0mg"},{"bike_id":"fe169d6f-c4af-40c4-a0ed-d64b7be3ab7c","system_id":"levelo_inurba_marseille","lat":43.2923,"lon":5.36074,"is_reserved":false,"is_disabled":false,"rental_uris":{"android":"levelo://app?vid=fe169d6f-c4af-40c4-a0ed-d64b7be3ab7c","ios":"levelo://app?vid=fe169d6f-c4af-40c4-a0ed-d64b7be3ab7c"},"vehicle_type_id":"4","last_reported":1742900920,"current_range_meters":6000,"station_id":"ce4bhbh2rcd13ifvqeqg","pricing_plan_id":"cebpf4jnsgd1na2vs0mg"},{"bike_id":"31827dec-d061-4d0b-937a-be83bf5f745f","system_id":"levelo_inurba_marseille","lat":43.32337,"lon":5.40623,"is_reserved":false,"is_disabled":false,"rental_uris":{"android":"levelo://app?vid=31827dec-d061-4d0b-937a-be83bf5f745f","ios":"levelo://app?vid=31827dec-d061-4d0b-937a-be83bf5f745f"},"vehicle_type_id":"4","last_reported":1742900920,"current_range_meters":6000,"station_id":"ce4bhq92rcd13ifvqhjg","pricing_plan_id":"cebpf4jnsgd1na2vs0mg"},{"bike_id":"7fe9a385-3cb1-429e-bc3b-abab1a23a3a2","system_id":"levelo_inurba_marseille","lat":43.2306,"lon":5.35495,"is_reserved":false,"is_disabled":false,"rental_uris":{"android":"levelo://app?vid=7fe9a385-3cb1-429e-bc3b-abab1a23a3a2","ios":"levelo://app?vid=7fe9a385-3cb1-429e-bc3b-abab1a23a3a2"},"vehicle_type_id":"4","last_reported":1742900920,"current_range_meters":6400,"station_id":"cpo3342slgdg3j2ifvpg","pricing_plan_id":"cebpf4jnsgd1na2vs0mg"},{"bike_id":"df632c8e-92f6-4b8a-9524-6d142d68aad1","system_id":"levelo_inurba_marseille","lat":43.25577,"lon":5.3823,"is_reserved":false,"is_disabled":false,"rental_uris":{"android":"levelo://app?vid=df632c8e-92f6-4b8a-9524-6d142d68aad1","ios":"levelo://app?vid=df632c8e-92f6-4b8a-9524-6d142d68aad1"},"vehicle_type_id":"4","last_reported":1742900920,"current_range_meters":6400,"station_id":"ce4bhih2rcd13ifvqfs0","pricing_plan_id":"cebpf4jnsgd1na2vs0mg"},{"bike_id":"3fa5413d-efeb-488c-a228-1e96c5192e26","system_id":"levelo_inurba_marseille","lat":43.293692,"lon":5.378526,"is_reserved":false,"is_disabled":true,"rental_uris":{"android":"levelo://app?vid=3fa5413d-efeb-488c-a228-1e96c5192e26","ios":"levelo://app?vid=3fa5413d-efeb-488c-a228-1e96c5192e26"},"vehicle_type_id":"4","last_reported":1742900920,"current_range_meters":6800,"station_id":"ce4bgjh2rcd13ifvqbf0","pricing_plan_id":"cebpf4jnsgd1na2vs0mg"},{"bike_id":"efd5ecc6-2af8-45b3-82c9-d95220f81efa","system_id":"levelo_inurba_marseille","lat":43.29036,"lon":5.39983,"is_reserved":false,"is_disabled":false,"rental_uris":{"android":"levelo://app?vid=efd5ecc6-2af8-45b3-82c9-d95220f81efa","ios":"levelo://app?vid=efd5ecc6-2af8-45b3-82c9-d95220f81efa"},"vehicle_type_id":"4","last_reported":1742900920,"current_range_meters":6800,"station_id":"ce4bh392rcd13ifvqdm0","pricing_plan_id":"cebpf4jnsgd1na2vs0mg"},{"bike_id":"19c4d38c-721f-4a6d-8de0-ad162aee3dc3","system_id":"levelo_inurba_marseille","lat":43.29879,"lon":5.38926,"is_reserved":false,"is_disabled":true,"rental_uris":{"android":"levelo://app?vid=19c4d38c-721f-4a6d-8de0-ad162aee3dc3","ios":"levelo://app?vid=19c4d38c-721f-4a6d-8de0-ad162aee3dc3"},"vehicle_type_id":"4","last_reported":1742900920,"current_range_meters":6800,"station_id":"ce4bh392rcd13ifvqdl0","pricing_plan_id":"cebpf4jnsgd1na2vs0mg"},{"bike_id":"1c238f89-ce86-4c50-91fb-20afecd3b082","system_id":"levelo_inurba_marseille","lat":43.26954,"lon":5.38626,"is_reserved":false,"is_disabled":false,"rental_uris":{"android":"levelo://app?vid=1c238f89-ce86-4c50-91fb-20afecd3b082","ios":"levelo://app?vid=1c238f89-ce86-4c50-91fb-20afecd3b082"},"vehicle_type_id":"4","last_reported":1742900920,"current_range_meters":6800,"station_id":"ce4bhh92rcd13ifvqfh0","pricing_plan_id":"cebpf4jnsgd1na2vs0mg"},{"bike_id":"3a83a154-6e51-4ed8-a9be-111b5ef61fa4","system_id":"levelo_inurba_marseille","lat":43.2757,"lon":5.38416,"is_reserved":false,"is_disabled":false,"rental_uris":{"android":"levelo://app?vid=3a83a154-6e51-4ed8-a9be-111b5ef61fa4","ios":"levelo://app?vid=3a83a154-6e51-4ed8-a9be-111b5ef61fa4"},"vehicle_type_id":"4","last_reported":1742900920,"current_range_meters":6800,"station_id":"ce4bhh92rcd13ifvqfi0","pricing_plan_id":"cebpf4jnsgd1na2vs0mg"},{"bike_id":"8723922e-320e-4649-af0a-8190d390afa0","system_id":"levelo_inurba_marseille","lat":43.32103,"lon":5.36762,"is_reserved":false,"is_disabled":false,"rental_uris":{"android":"levelo://app?vid=8723922e-320e-4649-af0a-8190d390afa0","ios":"levelo://app?vid=8723922e-320e-4649-af0a-8190d390afa0"},"vehicle_type_id":"4","last_reported":1742900920,"current_range_meters":6800,"station_id":"ce4bhrh2rcd13ifvqhug","pricing_plan_id":"cebpf4jnsgd1na2vs0mg"},{"bike_id":"60a4bfdd-976f-4f2f-a21a-68c4e333ecd6","system_id":"levelo_inurba_marseille","lat":43.23058,"lon":5.35491,"is_reserved":false,"is_disabled":false,"rental_uris":{"android":"levelo://app?vid=60a4bfdd-976f-4f2f-a21a-68c4e333ecd6","ios":"levelo://app?vid=60a4bfdd-976f-4f2f-a21a-68c4e333ecd6"},"vehicle_type_id":"4","last_reported":1742900920,"current_range_meters":6800,"station_id":"cpo3342slgdg3j2ifvpg","pricing_plan_id":"cebpf4jnsgd1na2vs0mg"},{"bike_id":"358862d4-9506-4a22-bee8-92c799d169f6","system_id":"levelo_inurba_marseille","lat":43.289226,"lon":5.381897,"is_reserved":false,"is_disabled":false,"rental_uris":{"android":"levelo://app?vid=358862d4-9506-4a22-bee8-92c799d169f6","ios":"levelo://app?vid=358862d4-9506-4a22-bee8-92c799d169f6"},"vehicle_type_id":"4","last_reported":1742900920,"current_range_meters":6800,"station_id":"ce4bh4p2rcd13ifvqe1g","pricing_plan_id":"cebpf4jnsgd1na2vs0mg"},{"bike_id":"2aa0d563-b84e-403f-b228-6fdaa25d30cb","system_id":"levelo_inurba_marseille","lat":43.29894,"lon":5.4367,"is_reserved":false,"is_disabled":false,"rental_uris":{"android":"levelo://app?vid=2aa0d563-b84e-403f-b228-6fdaa25d30cb","ios":"levelo://app?vid=2aa0d563-b84e-403f-b228-6fdaa25d30cb"},"vehicle_type_id":"4","last_reported":1742900920,"current_range_meters":7200,"station_id":"ce4bhpp2rcd13ifvqhfg","pricing_plan_id":"cebpf4jnsgd1na2vs0mg"},{"bike_id":"1b8779ee-15bd-411f-8230-66fb3b9d06b8","system_id":"levelo_inurba_marseille","lat":43.29896,"lon":5.43641,"is_reserved":false,"is_disabled":false,"rental_uris":{"android":"levelo://app?vid=1b8779ee-15bd-411f-8230-66fb3b9d06b8","ios":"levelo://app?vid=1b8779ee-15bd-411f-8230-66fb3b9d06b8"},"vehicle_type_id":"4","last_reported":1742900920,"current_range_meters":7200,"station_id":"ce4bhpp2rcd13ifvqhfg","pricing_plan_id":"cebpf4jnsgd1na2vs0mg"},{"bike_id":"1cdb5e5f-6bda-4e07-b645-0554ed59cc39","system_id":"levelo_inurba_marseille","lat":43.2583,"lon":5.39421,"is_reserved":false,"is_disabled":false,"rental_uris":{"android":"levelo://app?vid=1cdb5e5f-6bda-4e07-b645-0554ed59cc39","ios":"levelo://app?vid=1cdb5e5f-6bda-4e07-b645-0554ed59cc39"},"vehicle_type_id":"4","last_reported":1742900920,"current_range_meters":7200,"station_id":"ce4bhip2rcd13ifvqft0","pricing_plan_id":"cebpf4jnsgd1na2vs0mg"},{"bike_id":"a1467c8d-d458-48fa-ae2a-398452ffafde","system_id":"levelo_inurba_marseille","lat":43.31765,"lon":5.39016,"is_reserved":false,"is_disabled":false,"rental_uris":{"android":"levelo://app?vid=a1467c8d-d458-48fa-ae2a-398452ffafde","ios":"levelo://app?vid=a1467c8d-d458-48fa-ae2a-398452ffafde"},"vehicle_type_id":"4","last_reported":1742900920,"current_range_meters":7200,"station_id":"ce4bhqp2rcd13ifvqhng","pricing_plan_id":"cebpf4jnsgd1na2vs0mg"},{"bike_id":"f28c0c94-d4e7-41d2-bcc2-de39a5af2bd0","system_id":"levelo_inurba_marseille","lat":43.31352,"lon":5.3674,"is_reserved":false,"is_disabled":false,"rental_uris":{"android":"levelo://app?vid=f28c0c94-d4e7-41d2-bcc2-de39a5af2bd0","ios":"levelo://app?vid=f28c0c94-d4e7-41d2-bcc2-de39a5af2bd0"},"vehicle_type_id":"4","last_reported":1742900920,"current_range_meters":7200,"station_id":"ce4bgr92rcd13ifvqc6g","pricing_plan_id":"cebpf4jnsgd1na2vs0mg"},{"bike_id":"097a64f8-f023-4097-8d92-d9dc1a7b3534","system_id":"levelo_inurba_marseille","lat":43.28618,"lon":5.35102,"is_reserved":false,"is_disabled":false,"rental_uris":{"android":"levelo://app?vid=097a64f8-f023-4097-8d92-d9dc1a7b3534","ios":"levelo://app?vid=097a64f8-f023-4097-8d92-d9dc1a7b3534"},"vehicle_type_id":"4","last_reported":1742900920,"current_range_meters":7200,"station_id":"ce4bhch2rcd13ifvqeug","pricing_plan_id":"cebpf4jnsgd1na2vs0mg"},{"bike_id":"2462aff4-312c-46a9-ae18-d864ef42c20c","system_id":"levelo_inurba_marseille","lat":43.24169,"lon":5.36399,"is_reserved":false,"is_disabled":false,"rental_uris":{"android":"levelo://app?vid=2462aff4-312c-46a9-ae18-d864ef42c20c","ios":"levelo://app?vid=2462aff4-312c-46a9-ae18-d864ef42c20c"},"vehicle_type_id":"4","last_reported":1742900920,"current_range_meters":8000,"station_id":"cpo36qri1sfpv3e86is0","pricing_plan_id":"cebpf4jnsgd1na2vs0mg"},{"bike_id":"3db50893-67a3-44ca-8b6d-9cbedead82bf","system_id":"levelo_inurba_marseille","lat":43.29187,"lon":5.35804,"is_reserved":false,"is_disabled":false,"rental_uris":{"android":"levelo://app?vid=3db50893-67a3-44ca-8b6d-9cbedead82bf","ios":"levelo://app?vid=3db50893-67a3-44ca-8b6d-9cbedead82bf"},"vehicle_type_id":"4","last_reported":1742900920,"current_range_meters":8000,"station_id":"ce4bhb12rcd13ifvqel0","pricing_plan_id":"cebpf4jnsgd1na2vs0mg"},{"bike_id":"f1681b6a-7497-4c7b-a00f-0c281574068a","system_id":"levelo_inurba_marseille","lat":43.31005,"lon":5.37507,"is_reserved":false,"is_disabled":false,"rental_uris":{"android":"levelo://app?vid=f1681b6a-7497-4c7b-a00f-0c281574068a","ios":"levelo://app?vid=f1681b6a-7497-4c7b-a00f-0c281574068a"},"vehicle_type_id":"4","last_reported":1742900920,"current_range_meters":8000,"station_id":"","pricing_plan_id":"cebpf4jnsgd1na2vs0mg"},{"bike_id":"2307e763-747a-4c32-8236-db9f47a00252","system_id":"levelo_inurba_marseille","lat":43.30401,"lon":5.41269,"is_reserved":false,"is_disabled":false,"rental_uris":{"android":"levelo://app?vid=2307e763-747a-4c32-8236-db9f47a00252","ios":"levelo://app?vid=2307e763-747a-4c32-8236-db9f47a00252"},"vehicle_type_id":"4","last_reported":1742900920,"current_range_meters":8000,"station_id":"ce4bhop2rcd13ifvqh8g","pricing_plan_id":"cebpf4jnsgd1na2vs0mg"},{"bike_id":"fa2163d0-3cba-4357-82a7-f9c2698a7a81","system_id":"levelo_inurba_marseille","lat":43.28834,"lon":5.3576,"is_reserved":false,"is_disabled":false,"rental_uris":{"android":"levelo://app?vid=fa2163d0-3cba-4357-82a7-f9c2698a7a81","ios":"levelo://app?vid=fa2163d0-3cba-4357-82a7-f9c2698a7a81"},"vehicle_type_id":"4","last_reported":1742900920,"current_range_meters":8000,"station_id":"","pricing_plan_id":"cebpf4jnsgd1na2vs0mg"},{"bike_id":"4075fbb0-db6f-4f21-ad0f-ce3333c2a347","system_id":"levelo_inurba_marseille","lat":43.29255,"lon":5.3764,"is_reserved":false,"is_disabled":false,"rental_uris":{"android":"levelo://app?vid=4075fbb0-db6f-4f21-ad0f-ce3333c2a347","ios":"levelo://app?vid=4075fbb0-db6f-4f21-ad0f-ce3333c2a347"},"vehicle_type_id":"4","last_reported":1742900920,"current_range_meters":8000,"station_id":"ce4bgi12rcd13ifvqb80","pricing_plan_id":"cebpf4jnsgd1na2vs0mg"},{"bike_id":"fbfecbb6-5794-4d9a-9176-1810e4b4a7ef","system_id":"levelo_inurba_marseille","lat":43.230613,"lon":5.354945,"is_reserved":false,"is_disabled":false,"rental_uris":{"android":"levelo://app?vid=fbfecbb6-5794-4d9a-9176-1810e4b4a7ef","ios":"levelo://app?vid=fbfecbb6-5794-4d9a-9176-1810e4b4a7ef"},"vehicle_type_id":"4","last_reported":1742900920,"current_range_meters":8000,"station_id":"cpo3342slgdg3j2ifvpg","pricing_plan_id":"cebpf4jnsgd1na2vs0mg"},{"bike_id":"9793ea8d-53fd-4c45-85b2-43ecaa7d1285","system_id":"levelo_inurba_marseille","lat":43.28619,"lon":5.35103,"is_reserved":false,"is_disabled":false,"rental_uris":{"android":"levelo://app?vid=9793ea8d-53fd-4c45-85b2-43ecaa7d1285","ios":"levelo://app?vid=9793ea8d-53fd-4c45-85b2-43ecaa7d1285"},"vehicle_type_id":"4","last_reported":1742900920,"current_range_meters":8000,"station_id":"ce4bhch2rcd13ifvqeug","pricing_plan_id":"cebpf4jnsgd1na2vs0mg"},{"bike_id":"3e089a20-86d8-4244-979c-5b7762bbd749","system_id":"levelo_inurba_marseille","lat":43.32371,"lon":5.38881,"is_reserved":false,"is_disabled":false,"rental_uris":{"android":"levelo://app?vid=3e089a20-86d8-4244-979c-5b7762bbd749","ios":"levelo://app?vid=3e089a20-86d8-4244-979c-5b7762bbd749"},"vehicle_type_id":"4","last_reported":1742900920,"current_range_meters":8400,"station_id":"ce4bhqp2rcd13ifvqhog","pricing_plan_id":"cebpf4jnsgd1na2vs0mg"},{"bike_id":"11146d89-280c-4ffa-9e2e-3ca463658b6b","system_id":"levelo_inurba_marseille","lat":43.26954,"lon":5.38642,"is_reserved":false,"is_disabled":false,"rental_uris":{"android":"levelo://app?vid=11146d89-280c-4ffa-9e2e-3ca463658b6b","ios":"levelo://app?vid=11146d89-280c-4ffa-9e2e-3ca463658b6b"},"vehicle_type_id":"4","last_reported":1742900920,"current_range_meters":8400,"station_id":"ce4bhh92rcd13ifvqfh0","pricing_plan_id":"cebpf4jnsgd1na2vs0mg"},{"bike_id":"21be2ddd-a33f-4821-9edb-0782de7ee7c9","system_id":"levelo_inurba_marseille","lat":43.23132,"lon":5.43734,"is_reserved":false,"is_disabled":false,"rental_uris":{"android":"levelo://app?vid=21be2ddd-a33f-4821-9edb-0782de7ee7c9","ios":"levelo://app?vid=21be2ddd-a33f-4821-9edb-0782de7ee7c9"},"vehicle_type_id":"4","last_reported":1742900920,"current_range_meters":8400,"station_id":"ce4bhmp2rcd13ifvqgog","pricing_plan_id":"cebpf4jnsgd1na2vs0mg"},{"bike_id":"e7853343-9487-4047-bc37-370ec1d3ce6e","system_id":"levelo_inurba_marseille","lat":43.32486,"lon":5.36554,"is_reserved":false,"is_disabled":false,"rental_uris":{"android":"levelo://app?vid=e7853343-9487-4047-bc37-370ec1d3ce6e","ios":"levelo://app?vid=e7853343-9487-4047-bc37-370ec1d3ce6e"},"vehicle_type_id":"4","last_reported":1742900920,"current_range_meters":8400,"station_id":"ce4bhs12rcd13ifvqhvg","pricing_plan_id":"cebpf4jnsgd1na2vs0mg"},{"bike_id":"c9c19aa6-3fe4-401b-ab2c-9612f3df5e72","system_id":"levelo_inurba_marseille","lat":43.30959,"lon":5.39036,"is_reserved":false,"is_disabled":true,"rental_uris":{"android":"levelo://app?vid=c9c19aa6-3fe4-401b-ab2c-9612f3df5e72","ios":"levelo://app?vid=c9c19aa6-3fe4-401b-ab2c-9612f3df5e72"},"vehicle_type_id":"4","last_reported":1742900920,"current_range_meters":8400,"station_id":"ce4bgup2rcd13ifvqco0","pricing_plan_id":"cebpf4jnsgd1na2vs0mg"},{"bike_id":"fb3b824d-795a-42be-bc31-8d2626d140fe","system_id":"levelo_inurba_marseille","lat":43.28001,"lon":5.41665,"is_reserved":false,"is_disabled":false,"rental_uris":{"android":"levelo://app?vid=fb3b824d-795a-42be-bc31-8d2626d140fe","ios":"levelo://app?vid=fb3b824d-795a-42be-bc31-8d2626d140fe"},"vehicle_type_id":"4","last_reported":1742900920,"current_range_meters":8400,"station_id":"ce4bho12rcd13ifvqh1g","pricing_plan_id":"cebpf4jnsgd1na2vs0mg"},{"bike_id":"0dfb0d89-73f2-49b8-91e9-15d856e46939","system_id":"levelo_inurba_marseille","lat":43.24182,"lon":5.39734,"is_reserved":false,"is_disabled":false,"rental_uris":{"android":"levelo://app?vid=0dfb0d89-73f2-49b8-91e9-15d856e46939","ios":"levelo://app?vid=0dfb0d89-73f2-49b8-91e9-15d856e46939"},"vehicle_type_id":"4","last_reported":1742900920,"current_range_meters":8400,"station_id":"ce4bhn12rcd13ifvqgpg","pricing_plan_id":"cebpf4jnsgd1na2vs0mg"},{"bike_id":"dfdb1004-b08e-4427-8e7a-33078c9ca5eb","system_id":"levelo_inurba_marseille","lat":43.28494,"lon":5.3842,"is_reserved":false,"is_disabled":false,"rental_uris":{"android":"levelo://app?vid=dfdb1004-b08e-4427-8e7a-33078c9ca5eb","ios":"levelo://app?vid=dfdb1004-b08e-4427-8e7a-33078c9ca5eb"},"vehicle_type_id":"4","last_reported":1742900920,"current_range_meters":8400,"station_id":"ce4bh512rcd13ifvqe3g","pricing_plan_id":"cebpf4jnsgd1na2vs0mg"},{"bike_id":"8284de5c-d227-47cd-b1ac-1bc2e0170d0f","system_id":"levelo_inurba_marseille","lat":43.27839,"lon":5.40711,"is_reserved":false,"is_disabled":false,"rental_uris":{"android":"levelo://app?vid=8284de5c-d227-47cd-b1ac-1bc2e0170d0f","ios":"levelo://app?vid=8284de5c-d227-47cd-b1ac-1bc2e0170d0f"},"vehicle_type_id":"4","last_reported":1742900920,"current_range_meters":8800,"station_id":"ce4bhnh2rcd13ifvqgtg","pricing_plan_id":"cebpf4jnsgd1na2vs0mg"},{"bike_id":"a0d4632a-7a87-4031-aeeb-061ca0feaca6","system_id":"levelo_inurba_marseille","lat":43.23959,"lon":5.366327,"is_reserved":false,"is_disabled":false,"rental_uris":{"android":"levelo://app?vid=a0d4632a-7a87-4031-aeeb-061ca0feaca6","ios":"levelo://app?vid=a0d4632a-7a87-4031-aeeb-061ca0feaca6"},"vehicle_type_id":"4","last_reported":1742900920,"current_range_meters":8800,"station_id":"ce4bhi12rcd13ifvqfp0","pricing_plan_id":"cebpf4jnsgd1na2vs0mg"},{"bike_id":"8e464060-9156-475e-a14c-9379cfa26f77","system_id":"levelo_inurba_marseille","lat":43.28153,"lon":5.42647,"is_reserved":false,"is_disabled":false,"rental_uris":{"android":"levelo://app?vid=8e464060-9156-475e-a14c-9379cfa26f77","ios":"levelo://app?vid=8e464060-9156-475e-a14c-9379cfa26f77"},"vehicle_type_id":"4","last_reported":1742900920,"current_range_meters":8800,"station_id":"ce4bhnh2rcd13ifvqgug","pricing_plan_id":"cebpf4jnsgd1na2vs0mg"},{"bike_id":"e5ca58cd-4fb3-46c9-8884-d446cccfbc30","system_id":"levelo_inurba_marseille","lat":43.25939,"lon":5.40864,"is_reserved":false,"is_disabled":false,"rental_uris":{"android":"levelo://app?vid=e5ca58cd-4fb3-46c9-8884-d446cccfbc30","ios":"levelo://app?vid=e5ca58cd-4fb3-46c9-8884-d446cccfbc30"},"vehicle_type_id":"4","last_reported":1742900920,"current_range_meters":8800,"station_id":"ce4bhm92rcd13ifvqglg","pricing_plan_id":"cebpf4jnsgd1na2vs0mg"},{"bike_id":"ef43d9bd-e531-4a59-b8a9-fdc80b41fa34","system_id":"levelo_inurba_marseille","lat":43.31276,"lon":5.40167,"is_reserved":false,"is_disabled":true,"rental_uris":{"android":"levelo://app?vid=ef43d9bd-e531-4a59-b8a9-fdc80b41fa34","ios":"levelo://app?vid=ef43d9bd-e531-4a59-b8a9-fdc80b41fa34"},"vehicle_type_id":"4","last_reported":1742900920,"current_range_meters":8800,"station_id":"ce4bh092rcd13ifvqd30","pricing_plan_id":"cebpf4jnsgd1na2vs0mg"},{"bike_id":"11371cd9-623e-443e-9cdb-b0cb313e3930","system_id":"levelo_inurba_marseille","lat":43.29032,"lon":5.3997,"is_reserved":false,"is_disabled":false,"rental_uris":{"android":"levelo://app?vid=11371cd9-623e-443e-9cdb-b0cb313e3930","ios":"levelo://app?vid=11371cd9-623e-443e-9cdb-b0cb313e3930"},"vehicle_type_id":"4","last_reported":1742900920,"current_range_meters":8800,"station_id":"ce4bh392rcd13ifvqdm0","pricing_plan_id":"cebpf4jnsgd1na2vs0mg"},{"bike_id":"16d1a1e8-6833-46ef-8ac2-dd05daf383fb","system_id":"levelo_inurba_marseille","lat":43.23153,"lon":5.43707,"is_reserved":false,"is_disabled":false,"rental_uris":{"android":"levelo://app?vid=16d1a1e8-6833-46ef-8ac2-dd05daf383fb","ios":"levelo://app?vid=16d1a1e8-6833-46ef-8ac2-dd05daf383fb"},"vehicle_type_id":"4","last_reported":1742900920,"current_range_meters":8800,"station_id":"ce4bhmp2rcd13ifvqgog","pricing_plan_id":"cebpf4jnsgd1na2vs0mg"},{"bike_id":"fa26e38e-2a38-40ed-a6cc-e5d10177240e","system_id":"levelo_inurba_marseille","lat":43.30296,"lon":5.39218,"is_reserved":false,"is_disabled":false,"rental_uris":{"android":"levelo://app?vid=fa26e38e-2a38-40ed-a6cc-e5d10177240e","ios":"levelo://app?vid=fa26e38e-2a38-40ed-a6cc-e5d10177240e"},"vehicle_type_id":"4","last_reported":1742900920,"current_range_meters":8800,"station_id":"ce4bgkh2rcd13ifvqbk0","pricing_plan_id":"cebpf4jnsgd1na2vs0mg"},{"bike_id":"60bc2be6-51ca-4cc8-abd3-a3280bd0ca47","system_id":"levelo_inurba_marseille","lat":43.31365,"lon":5.38497,"is_reserved":false,"is_disabled":false,"rental_uris":{"android":"levelo://app?vid=60bc2be6-51ca-4cc8-abd3-a3280bd0ca47","ios":"levelo://app?vid=60bc2be6-51ca-4cc8-abd3-a3280bd0ca47"},"vehicle_type_id":"4","last_reported":1742900920,"current_range_meters":8800,"station_id":"ce4bgt92rcd13ifvqcf0","pricing_plan_id":"cebpf4jnsgd1na2vs0mg"},{"bike_id":"ee1afb34-efc9-438b-ba79-e0d3a98ee4f3","system_id":"levelo_inurba_marseille","lat":43.28664,"lon":5.36349,"is_reserved":false,"is_disabled":false,"rental_uris":{"android":"levelo://app?vid=ee1afb34-efc9-438b-ba79-e0d3a98ee4f3","ios":"levelo://app?vid=ee1afb34-efc9-438b-ba79-e0d3a98ee4f3"},"vehicle_type_id":"4","last_reported":1742900920,"current_range_meters":8800,"station_id":"ce4bhah2rcd13ifvqej0","pricing_plan_id":"cebpf4jnsgd1na2vs0mg"},{"bike_id":"938c0f4e-65bf-479a-ba6e-fe7a68ff9b08","system_id":"levelo_inurba_marseille","lat":43.26513,"lon":5.37308,"is_reserved":false,"is_disabled":false,"rental_uris":{"android":"levelo://app?vid=938c0f4e-65bf-479a-ba6e-fe7a68ff9b08","ios":"levelo://app?vid=938c0f4e-65bf-479a-ba6e-fe7a68ff9b08"},"vehicle_type_id":"4","last_reported":1742900920,"current_range_meters":9200,"station_id":"","pricing_plan_id":"cebpf4jnsgd1na2vs0mg"},{"bike_id":"c1a551eb-6828-452d-a6b2-2805a63e2e92","system_id":"levelo_inurba_marseille","lat":43.26557,"lon":5.37283,"is_reserved":false,"is_disabled":false,"rental_uris":{"android":"levelo://app?vid=c1a551eb-6828-452d-a6b2-2805a63e2e92","ios":"levelo://app?vid=c1a551eb-6828-452d-a6b2-2805a63e2e92"},"vehicle_type_id":"4","last_reported":1742900920,"current_range_meters":9200,"station_id":"ce4bhg12rcd13ifvqf70","pricing_plan_id":"cebpf4jnsgd1na2vs0mg"},{"bike_id":"c353c957-fbb8-408a-9097-46c8d6b68074","system_id":"levelo_inurba_marseille","lat":43.24177,"lon":5.39725,"is_reserved":false,"is_disabled":false,"rental_uris":{"android":"levelo://app?vid=c353c957-fbb8-408a-9097-46c8d6b68074","ios":"levelo://app?vid=c353c957-fbb8-408a-9097-46c8d6b68074"},"vehicle_type_id":"4","last_reported":1742900920,"current_range_meters":9200,"station_id":"ce4bhn12rcd13ifvqgpg","pricing_plan_id":"cebpf4jnsgd1na2vs0mg"},{"bike_id":"b0bc3509-c0b2-4259-bc66-5e2864c1aba7","system_id":"levelo_inurba_marseille","lat":43.29899,"lon":5.43672,"is_reserved":false,"is_disabled":false,"rental_uris":{"android":"levelo://app?vid=b0bc3509-c0b2-4259-bc66-5e2864c1aba7","ios":"levelo://app?vid=b0bc3509-c0b2-4259-bc66-5e2864c1aba7"},"vehicle_type_id":"4","last_reported":1742900920,"current_range_meters":9600,"station_id":"ce4bhpp2rcd13ifvqhfg","pricing_plan_id":"cebpf4jnsgd1na2vs0mg"},{"bike_id":"2a99ecb7-4bf0-4c00-89bb-11ff019b8a6d","system_id":"levelo_inurba_marseille","lat":43.22939,"lon":5.35384,"is_reserved":false,"is_disabled":false,"rental_uris":{"android":"levelo://app?vid=2a99ecb7-4bf0-4c00-89bb-11ff019b8a6d","ios":"levelo://app?vid=2a99ecb7-4bf0-4c00-89bb-11ff019b8a6d"},"vehicle_type_id":"4","last_reported":1742900920,"current_range_meters":9600,"station_id":"cpo3532slgdg3j2ikp40","pricing_plan_id":"cebpf4jnsgd1na2vs0mg"},{"bike_id":"fe2c28f7-1685-468e-8353-7090cfb68445","system_id":"levelo_inurba_marseille","lat":43.24548,"lon":5.39521,"is_reserved":false,"is_disabled":false,"rental_uris":{"android":"levelo://app?vid=fe2c28f7-1685-468e-8353-7090cfb68445","ios":"levelo://app?vid=fe2c28f7-1685-468e-8353-7090cfb68445"},"vehicle_type_id":"4","last_reported":1742900920,"current_range_meters":9600,"station_id":"ce4bhlp2rcd13ifvqgjg","pricing_plan_id":"cebpf4jnsgd1na2vs0mg"},{"bike_id":"0accb7fb-5f16-43fe-acbe-e093ae1cc81b","system_id":"levelo_inurba_marseille","lat":43.25499,"lon":5.3765,"is_reserved":false,"is_disabled":false,"rental_uris":{"android":"levelo://app?vid=0accb7fb-5f16-43fe-acbe-e093ae1cc81b","ios":"levelo://app?vid=0accb7fb-5f16-43fe-acbe-e093ae1cc81b"},"vehicle_type_id":"4","last_reported":1742900920,"current_range_meters":9600,"station_id":"ce4bhh12rcd13ifvqff0","pricing_plan_id":"cebpf4jnsgd1na2vs0mg"},{"bike_id":"6002513d-b636-48a3-bf9e-ded200f3e2c5","system_id":"levelo_inurba_marseille","lat":43.30872,"lon":5.37782,"is_reserved":false,"is_disabled":false,"rental_uris":{"android":"levelo://app?vid=6002513d-b636-48a3-bf9e-ded200f3e2c5","ios":"levelo://app?vid=6002513d-b636-48a3-bf9e-ded200f3e2c5"},"vehicle_type_id":"4","last_reported":1742900920,"current_range_meters":9600,"station_id":"","pricing_plan_id":"cebpf4jnsgd1na2vs0mg"},{"bike_id":"324ac744-0939-44b0-9d31-93160d66cb65","system_id":"levelo_inurba_marseille","lat":43.30561,"lon":5.36528,"is_reserved":false,"is_disabled":false,"rental_uris":{"android":"levelo://app?vid=324ac744-0939-44b0-9d31-93160d66cb65","ios":"levelo://app?vid=324ac744-0939-44b0-9d31-93160d66cb65"},"vehicle_type_id":"4","last_reported":1742900920,"current_range_meters":9600,"station_id":"ce4bgs12rcd13ifvqcag","pricing_plan_id":"cebpf4jnsgd1na2vs0mg"},{"bike_id":"8eefde25-af04-4206-8672-1d6b97905cd3","system_id":"levelo_inurba_marseille","lat":43.26119,"lon":5.41474,"is_reserved":false,"is_disabled":false,"rental_uris":{"android":"levelo://app?vid=8eefde25-af04-4206-8672-1d6b97905cd3","ios":"levelo://app?vid=8eefde25-af04-4206-8672-1d6b97905cd3"},"vehicle_type_id":"4","last_reported":1742900920,"current_range_meters":9600,"station_id":"","pricing_plan_id":"cebpf4jnsgd1na2vs0mg"},{"bike_id":"072ba0bb-b661-4d5f-8486-64c950c586a5","system_id":"levelo_inurba_marseille","lat":43.28779,"lon":5.35794,"is_reserved":false,"is_disabled":false,"rental_uris":{"android":"levelo://app?vid=072ba0bb-b661-4d5f-8486-64c950c586a5","ios":"levelo://app?vid=072ba0bb-b661-4d5f-8486-64c950c586a5"},"vehicle_type_id":"4","last_reported":1742900920,"current_range_meters":10000,"station_id":"","pricing_plan_id":"cebpf4jnsgd1na2vs0mg"},{"bike_id":"17e74052-fed6-430f-bd20-0cd014fae766","system_id":"levelo_inurba_marseille","lat":43.31086,"lon":5.42432,"is_reserved":false,"is_disabled":false,"rental_uris":{"android":"levelo://app?vid=17e74052-fed6-430f-bd20-0cd014fae766","ios":"levelo://app?vid=17e74052-fed6-430f-bd20-0cd014fae766"},"vehicle_type_id":"4","last_reported":1742900920,"current_range_meters":9600,"station_id":"ce4bhp92rcd13ifvqhag","pricing_plan_id":"cebpf4jnsgd1na2vs0mg"},{"bike_id":"d0ce6a4c-8c1a-4117-b620-bb8816808dbc","system_id":"levelo_inurba_marseille","lat":43.23962,"lon":5.36633,"is_reserved":false,"is_disabled":false,"rental_uris":{"android":"levelo://app?vid=d0ce6a4c-8c1a-4117-b620-bb8816808dbc","ios":"levelo://app?vid=d0ce6a4c-8c1a-4117-b620-bb8816808dbc"},"vehicle_type_id":"4","last_reported":1742900920,"current_range_meters":9600,"station_id":"ce4bhi12rcd13ifvqfp0","pricing_plan_id":"cebpf4jnsgd1na2vs0mg"},{"bike_id":"52ca5f14-96bf-443d-9f11-3638e990ef24","system_id":"levelo_inurba_marseille","lat":43.26209,"lon":5.37439,"is_reserved":false,"is_disabled":false,"rental_uris":{"android":"levelo://app?vid=52ca5f14-96bf-443d-9f11-3638e990ef24","ios":"levelo://app?vid=52ca5f14-96bf-443d-9f11-3638e990ef24"},"vehicle_type_id":"4","last_reported":1742900920,"current_range_meters":9600,"station_id":"ce4bhgp2rcd13ifvqfc0","pricing_plan_id":"cebpf4jnsgd1na2vs0mg"},{"bike_id":"dcf25736-b23c-4ced-81ab-c3eadf3b4ff0","system_id":"levelo_inurba_marseille","lat":43.26271,"lon":5.4038,"is_reserved":false,"is_disabled":false,"rental_uris":{"android":"levelo://app?vid=dcf25736-b23c-4ced-81ab-c3eadf3b4ff0","ios":"levelo://app?vid=dcf25736-b23c-4ced-81ab-c3eadf3b4ff0"},"vehicle_type_id":"4","last_reported":1742900920,"current_range_meters":9600,"station_id":"ce4bhmh2rcd13ifvqgmg","pricing_plan_id":"cebpf4jnsgd1na2vs0mg"},{"bike_id":"9c6d3ffa-1fc9-404c-9dc5-4837e1233b7c","system_id":"levelo_inurba_marseille","lat":43.31353,"lon":5.36724,"is_reserved":false,"is_disabled":false,"rental_uris":{"android":"levelo://app?vid=9c6d3ffa-1fc9-404c-9dc5-4837e1233b7c","ios":"levelo://app?vid=9c6d3ffa-1fc9-404c-9dc5-4837e1233b7c"},"vehicle_type_id":"4","last_reported":1742900920,"current_range_meters":9600,"station_id":"ce4bgr92rcd13ifvqc6g","pricing_plan_id":"cebpf4jnsgd1na2vs0mg"},{"bike_id":"8871fee1-c30f-4721-bb9f-022f22051a94","system_id":"levelo_inurba_marseille","lat":43.2416,"lon":5.39727,"is_reserved":false,"is_disabled":false,"rental_uris":{"android":"levelo://app?vid=8871fee1-c30f-4721-bb9f-022f22051a94","ios":"levelo://app?vid=8871fee1-c30f-4721-bb9f-022f22051a94"},"vehicle_type_id":"4","last_reported":1742900920,"current_range_meters":10000,"station_id":"ce4bhn12rcd13ifvqgpg","pricing_plan_id":"cebpf4jnsgd1na2vs0mg"},{"bike_id":"e3f76d45-4904-44a7-aac2-e04832e991bb","system_id":"levelo_inurba_marseille","lat":43.29961,"lon":5.41323,"is_reserved":false,"is_disabled":true,"rental_uris":{"android":"levelo://app?vid=e3f76d45-4904-44a7-aac2-e04832e991bb","ios":"levelo://app?vid=e3f76d45-4904-44a7-aac2-e04832e991bb"},"vehicle_type_id":"4","last_reported":1742900920,"current_range_meters":10000,"station_id":"ce4bhp12rcd13ifvqh9g","pricing_plan_id":"cebpf4jnsgd1na2vs0mg"},{"bike_id":"2f3e2a92-1301-4a27-8eaa-7b0ea525530e","system_id":"levelo_inurba_marseille","lat":43.31782,"lon":5.43785,"is_reserved":false,"is_disabled":false,"rental_uris":{"android":"levelo://app?vid=2f3e2a92-1301-4a27-8eaa-7b0ea525530e","ios":"levelo://app?vid=2f3e2a92-1301-4a27-8eaa-7b0ea525530e"},"vehicle_type_id":"4","last_reported":1742900920,"current_range_meters":10000,"station_id":"","pricing_plan_id":"cebpf4jnsgd1na2vs0mg"},{"bike_id":"69c37b85-792c-471f-afcd-cc8862cd50d8","system_id":"levelo_inurba_marseille","lat":43.270571,"lon":5.402549,"is_reserved":false,"is_disabled":false,"rental_uris":{"android":"levelo://app?vid=69c37b85-792c-471f-afcd-cc8862cd50d8","ios":"levelo://app?vid=69c37b85-792c-471f-afcd-cc8862cd50d8"},"vehicle_type_id":"4","last_reported":1742900920,"current_range_meters":10000,"station_id":"ce4bhk92rcd13ifvqgc0","pricing_plan_id":"cebpf4jnsgd1na2vs0mg"},{"bike_id":"b6fd1ec3-47b2-486f-8b84-f71e2b87ecef","system_id":"levelo_inurba_marseille","lat":43.31084,"lon":5.42439,"is_reserved":false,"is_disabled":true,"rental_uris":{"android":"levelo://app?vid=b6fd1ec3-47b2-486f-8b84-f71e2b87ecef","ios":"levelo://app?vid=b6fd1ec3-47b2-486f-8b84-f71e2b87ecef"},"vehicle_type_id":"4","last_reported":1742900920,"current_range_meters":10000,"station_id":"ce4bhp92rcd13ifvqhag","pricing_plan_id":"cebpf4jnsgd1na2vs0mg"},{"bike_id":"99b62de1-e4e5-4ac1-bdb3-0151eef10974","system_id":"levelo_inurba_marseille","lat":43.231801,"lon":5.399915,"is_reserved":false,"is_disabled":false,"rental_uris":{"android":"levelo://app?vid=99b62de1-e4e5-4ac1-bdb3-0151eef10974","ios":"levelo://app?vid=99b62de1-e4e5-4ac1-bdb3-0151eef10974"},"vehicle_type_id":"4","last_reported":1742900920,"current_range_meters":10000,"station_id":"ce4bhn12rcd13ifvqgqg","pricing_plan_id":"cebpf4jnsgd1na2vs0mg"},{"bike_id":"8f208df7-81e0-45c5-bd98-a49c85a38fa2","system_id":"levelo_inurba_marseille","lat":43.30308,"lon":5.36903,"is_reserved":false,"is_disabled":false,"rental_uris":{"android":"levelo://app?vid=8f208df7-81e0-45c5-bd98-a49c85a38fa2","ios":"levelo://app?vid=8f208df7-81e0-45c5-bd98-a49c85a38fa2"},"vehicle_type_id":"4","last_reported":1742900920,"current_range_meters":10000,"station_id":"ce4bgqh2rcd13ifvqc5g","pricing_plan_id":"cebpf4jnsgd1na2vs0mg"},{"bike_id":"bf9315d0-8503-43cc-be5d-2a0d8d6ed54e","system_id":"levelo_inurba_marseille","lat":43.2557,"lon":5.38234,"is_reserved":false,"is_disabled":false,"rental_uris":{"android":"levelo://app?vid=bf9315d0-8503-43cc-be5d-2a0d8d6ed54e","ios":"levelo://app?vid=bf9315d0-8503-43cc-be5d-2a0d8d6ed54e"},"vehicle_type_id":"4","last_reported":1742900920,"current_range_meters":10000,"station_id":"ce4bhih2rcd13ifvqfs0","pricing_plan_id":"cebpf4jnsgd1na2vs0mg"},{"bike_id":"dd23823f-d8a5-4298-a77c-b8f932b25830","system_id":"levelo_inurba_marseille","lat":43.2706,"lon":5.4227,"is_reserved":false,"is_disabled":false,"rental_uris":{"android":"levelo://app?vid=dd23823f-d8a5-4298-a77c-b8f932b25830","ios":"levelo://app?vid=dd23823f-d8a5-4298-a77c-b8f932b25830"},"vehicle_type_id":"4","last_reported":1742900920,"current_range_meters":10000,"station_id":"ce4bhk92rcd13ifvqgb0","pricing_plan_id":"cebpf4jnsgd1na2vs0mg"},{"bike_id":"6bb6f1fc-5b4f-4f3d-97c1-f093e7e9a8ef","system_id":"levelo_inurba_marseille","lat":43.230562,"lon":5.355129,"is_reserved":false,"is_disabled":false,"rental_uris":{"android":"levelo://app?vid=6bb6f1fc-5b4f-4f3d-97c1-f093e7e9a8ef","ios":"levelo://app?vid=6bb6f1fc-5b4f-4f3d-97c1-f093e7e9a8ef"},"vehicle_type_id":"4","last_reported":1742900920,"current_range_meters":10000,"station_id":"cpo3342slgdg3j2ifvpg","pricing_plan_id":"cebpf4jnsgd1na2vs0mg"},{"bike_id":"6adb5407-e228-44f4-a1da-80d9852b3164","system_id":"levelo_inurba_marseille","lat":43.25009,"lon":5.38924,"is_reserved":false,"is_disabled":false,"rental_uris":{"android":"levelo://app?vid=6adb5407-e228-44f4-a1da-80d9852b3164","ios":"levelo://app?vid=6adb5407-e228-44f4-a1da-80d9852b3164"},"vehicle_type_id":"4","last_reported":1742900920,"current_range_meters":10000,"station_id":"ce4bhgp2rcd13ifvqfd0","pricing_plan_id":"cebpf4jnsgd1na2vs0mg"},{"bike_id":"f8d9e271-1395-4359-b702-1bb66f9e2939","system_id":"levelo_inurba_marseille","lat":43.25577,"lon":5.38242,"is_reserved":false,"is_disabled":false,"rental_uris":{"android":"levelo://app?vid=f8d9e271-1395-4359-b702-1bb66f9e2939","ios":"levelo://app?vid=f8d9e271-1395-4359-b702-1bb66f9e2939"},"vehicle_type_id":"4","last_reported":1742900920,"current_range_meters":10800,"station_id":"ce4bhih2rcd13ifvqfs0","pricing_plan_id":"cebpf4jnsgd1na2vs0mg"},{"bike_id":"011be59f-3f7f-4a16-aece-1ff4bbdf6e60","system_id":"levelo_inurba_marseille","lat":43.30132,"lon":5.37394,"is_reserved":false,"is_disabled":false,"rental_uris":{"android":"levelo://app?vid=011be59f-3f7f-4a16-aece-1ff4bbdf6e60","ios":"levelo://app?vid=011be59f-3f7f-4a16-aece-1ff4bbdf6e60"},"vehicle_type_id":"4","last_reported":1742900920,"current_range_meters":10800,"station_id":"ce4bgs92rcd13ifvqcc0","pricing_plan_id":"cebpf4jnsgd1na2vs0mg"},{"bike_id":"e8fbf938-2f30-405f-b6ea-88cb94a9aae3","system_id":"levelo_inurba_marseille","lat":43.29929,"lon":5.38197,"is_reserved":false,"is_disabled":false,"rental_uris":{"android":"levelo://app?vid=e8fbf938-2f30-405f-b6ea-88cb94a9aae3","ios":"levelo://app?vid=e8fbf938-2f30-405f-b6ea-88cb94a9aae3"},"vehicle_type_id":"4","last_reported":1742900920,"current_range_meters":10800,"station_id":"ce4bgj12rcd13ifvqbc0","pricing_plan_id":"cebpf4jnsgd1na2vs0mg"},{"bike_id":"1cea0345-5203-450f-a795-3f854fd4a8ad","system_id":"levelo_inurba_marseille","lat":43.28421,"lon":5.34977,"is_reserved":false,"is_disabled":false,"rental_uris":{"android":"levelo://app?vid=1cea0345-5203-450f-a795-3f854fd4a8ad","ios":"levelo://app?vid=1cea0345-5203-450f-a795-3f854fd4a8ad"},"vehicle_type_id":"4","last_reported":1742900920,"current_range_meters":10800,"station_id":"ce4bhbh2rcd13ifvqepg","pricing_plan_id":"cebpf4jnsgd1na2vs0mg"},{"bike_id":"2b60856e-c0e6-4865-8699-341cc1216c76","system_id":"levelo_inurba_marseille","lat":43.23155,"lon":5.43704,"is_reserved":false,"is_disabled":false,"rental_uris":{"android":"levelo://app?vid=2b60856e-c0e6-4865-8699-341cc1216c76","ios":"levelo://app?vid=2b60856e-c0e6-4865-8699-341cc1216c76"},"vehicle_type_id":"4","last_reported":1742900920,"current_range_meters":10800,"station_id":"ce4bhmp2rcd13ifvqgog","pricing_plan_id":"cebpf4jnsgd1na2vs0mg"},{"bike_id":"74406c35-ee35-437d-be26-2d7711378046","system_id":"levelo_inurba_marseille","lat":43.32358,"lon":5.36717,"is_reserved":false,"is_disabled":false,"rental_uris":{"android":"levelo://app?vid=74406c35-ee35-437d-be26-2d7711378046","ios":"levelo://app?vid=74406c35-ee35-437d-be26-2d7711378046"},"vehicle_type_id":"4","last_reported":1742900920,"current_range_meters":10800,"station_id":"ce4bhsh2rcd13ifvqi2g","pricing_plan_id":"cebpf4jnsgd1na2vs0mg"},{"bike_id":"0ead97df-461c-400f-8188-6f4148e09277","system_id":"levelo_inurba_marseille","lat":43.30149,"lon":5.37416,"is_reserved":false,"is_disabled":false,"rental_uris":{"android":"levelo://app?vid=0ead97df-461c-400f-8188-6f4148e09277","ios":"levelo://app?vid=0ead97df-461c-400f-8188-6f4148e09277"},"vehicle_type_id":"4","last_reported":1742900920,"current_range_meters":10800,"station_id":"ce4bgs92rcd13ifvqcc0","pricing_plan_id":"cebpf4jnsgd1na2vs0mg"},{"bike_id":"d7c9b119-99cc-4acd-80c4-6ecaf67a26b1","system_id":"levelo_inurba_marseille","lat":43.230718,"lon":5.354986,"is_reserved":false,"is_disabled":false,"rental_uris":{"android":"levelo://app?vid=d7c9b119-99cc-4acd-80c4-6ecaf67a26b1","ios":"levelo://app?vid=d7c9b119-99cc-4acd-80c4-6ecaf67a26b1"},"vehicle_type_id":"4","last_reported":1742900920,"current_range_meters":10800,"station_id":"cpo3342slgdg3j2ifvpg","pricing_plan_id":"cebpf4jnsgd1na2vs0mg"},{"bike_id":"f08e122d-1df8-4fab-a66c-9a961da99f32","system_id":"levelo_inurba_marseille","lat":43.30464,"lon":5.37904,"is_reserved":false,"is_disabled":false,"rental_uris":{"android":"levelo://app?vid=f08e122d-1df8-4fab-a66c-9a961da99f32","ios":"levelo://app?vid=f08e122d-1df8-4fab-a66c-9a961da99f32"},"vehicle_type_id":"4","last_reported":1742900920,"current_range_meters":10800,"station_id":"ce4bgup2rcd13ifvqcn0","pricing_plan_id":"cebpf4jnsgd1na2vs0mg"},{"bike_id":"e8eec122-897f-4919-9ee8-6b5e49b87083","system_id":"levelo_inurba_marseille","lat":43.25933,"lon":5.40907,"is_reserved":false,"is_disabled":false,"rental_uris":{"android":"levelo://app?vid=e8eec122-897f-4919-9ee8-6b5e49b87083","ios":"levelo://app?vid=e8eec122-897f-4919-9ee8-6b5e49b87083"},"vehicle_type_id":"4","last_reported":1742900920,"current_range_meters":10800,"station_id":"ce4bhm92rcd13ifvqglg","pricing_plan_id":"cebpf4jnsgd1na2vs0mg"},{"bike_id":"bb58f931-d39b-4674-bcbc-5096c1d815e7","system_id":"levelo_inurba_marseille","lat":43.2418,"lon":5.3973,"is_reserved":false,"is_disabled":false,"rental_uris":{"android":"levelo://app?vid=bb58f931-d39b-4674-bcbc-5096c1d815e7","ios":"levelo://app?vid=bb58f931-d39b-4674-bcbc-5096c1d815e7"},"vehicle_type_id":"4","last_reported":1742900920,"current_range_meters":10800,"station_id":"ce4bhn12rcd13ifvqgpg","pricing_plan_id":"cebpf4jnsgd1na2vs0mg"},{"bike_id":"0a418044-5f5f-4cc3-aacf-46c320775d4b","system_id":"levelo_inurba_marseille","lat":43.30133,"lon":5.37429,"is_reserved":false,"is_disabled":false,"rental_uris":{"android":"levelo://app?vid=0a418044-5f5f-4cc3-aacf-46c320775d4b","ios":"levelo://app?vid=0a418044-5f5f-4cc3-aacf-46c320775d4b"},"vehicle_type_id":"4","last_reported":1742900920,"current_range_meters":10800,"station_id":"ce4bgs92rcd13ifvqcc0","pricing_plan_id":"cebpf4jnsgd1na2vs0mg"},{"bike_id":"0ff5c1b1-7832-4431-921a-f9e33b47c9ed","system_id":"levelo_inurba_marseille","lat":43.26942,"lon":5.38651,"is_reserved":false,"is_disabled":false,"rental_uris":{"android":"levelo://app?vid=0ff5c1b1-7832-4431-921a-f9e33b47c9ed","ios":"levelo://app?vid=0ff5c1b1-7832-4431-921a-f9e33b47c9ed"},"vehicle_type_id":"4","last_reported":1742900920,"current_range_meters":10800,"station_id":"ce4bhh92rcd13ifvqfh0","pricing_plan_id":"cebpf4jnsgd1na2vs0mg"},{"bike_id":"89e75ed9-7f20-48f7-ad37-e0033e47c633","system_id":"levelo_inurba_marseille","lat":43.24645,"lon":5.38882,"is_reserved":false,"is_disabled":false,"rental_uris":{"android":"levelo://app?vid=89e75ed9-7f20-48f7-ad37-e0033e47c633","ios":"levelo://app?vid=89e75ed9-7f20-48f7-ad37-e0033e47c633"},"vehicle_type_id":"4","last_reported":1742900920,"current_range_meters":10800,"station_id":"ce4bhg12rcd13ifvqf60","pricing_plan_id":"cebpf4jnsgd1na2vs0mg"},{"bike_id":"4e869eb8-1857-4cad-8495-3753ef47d3ee","system_id":"levelo_inurba_marseille","lat":43.29933,"lon":5.36556,"is_reserved":false,"is_disabled":false,"rental_uris":{"android":"levelo://app?vid=4e869eb8-1857-4cad-8495-3753ef47d3ee","ios":"levelo://app?vid=4e869eb8-1857-4cad-8495-3753ef47d3ee"},"vehicle_type_id":"4","last_reported":1742900920,"current_range_meters":11200,"station_id":"ce4bgm92rcd13ifvqbr0","pricing_plan_id":"cebpf4jnsgd1na2vs0mg"},{"bike_id":"fdcc714d-c762-4a16-91da-437181feabf2","system_id":"levelo_inurba_marseille","lat":43.26675,"lon":5.38264,"is_reserved":false,"is_disabled":false,"rental_uris":{"android":"levelo://app?vid=fdcc714d-c762-4a16-91da-437181feabf2","ios":"levelo://app?vid=fdcc714d-c762-4a16-91da-437181feabf2"},"vehicle_type_id":"4","last_reported":1742900920,"current_range_meters":11200,"station_id":"ce4bhg92rcd13ifvqf90","pricing_plan_id":"cebpf4jnsgd1na2vs0mg"},{"bike_id":"46774e41-cc26-42e2-8ed3-a8ea17d2f850","system_id":"levelo_inurba_marseille","lat":43.31342,"lon":5.36723,"is_reserved":false,"is_disabled":false,"rental_uris":{"android":"levelo://app?vid=46774e41-cc26-42e2-8ed3-a8ea17d2f850","ios":"levelo://app?vid=46774e41-cc26-42e2-8ed3-a8ea17d2f850"},"vehicle_type_id":"4","last_reported":1742900920,"current_range_meters":11200,"station_id":"ce4bgr92rcd13ifvqc6g","pricing_plan_id":"cebpf4jnsgd1na2vs0mg"},{"bike_id":"0db522cf-6931-4040-96e3-e6dc59dc2856","system_id":"levelo_inurba_marseille","lat":43.25502,"lon":5.37652,"is_reserved":false,"is_disabled":false,"rental_uris":{"android":"levelo://app?vid=0db522cf-6931-4040-96e3-e6dc59dc2856","ios":"levelo://app?vid=0db522cf-6931-4040-96e3-e6dc59dc2856"},"vehicle_type_id":"4","last_reported":1742900920,"current_range_meters":11200,"station_id":"ce4bhh12rcd13ifvqff0","pricing_plan_id":"cebpf4jnsgd1na2vs0mg"},{"bike_id":"ecf547fc-ed5d-4785-bb78-85faa97e7afb","system_id":"levelo_inurba_marseille","lat":43.22943,"lon":5.35384,"is_reserved":false,"is_disabled":false,"rental_uris":{"android":"levelo://app?vid=ecf547fc-ed5d-4785-bb78-85faa97e7afb","ios":"levelo://app?vid=ecf547fc-ed5d-4785-bb78-85faa97e7afb"},"vehicle_type_id":"4","last_reported":1742900920,"current_range_meters":11200,"station_id":"cpo3532slgdg3j2ikp40","pricing_plan_id":"cebpf4jnsgd1na2vs0mg"},{"bike_id":"670214b8-0c1a-44c6-9ec1-e4e7883cf534","system_id":"levelo_inurba_marseille","lat":43.30545,"lon":5.36542,"is_reserved":false,"is_disabled":false,"rental_uris":{"android":"levelo://app?vid=670214b8-0c1a-44c6-9ec1-e4e7883cf534","ios":"levelo://app?vid=670214b8-0c1a-44c6-9ec1-e4e7883cf534"},"vehicle_type_id":"4","last_reported":1742900920,"current_range_meters":11600,"station_id":"ce4bgs12rcd13ifvqcag","pricing_plan_id":"cebpf4jnsgd1na2vs0mg"},{"bike_id":"a5ca290f-218e-46e5-af6f-1aadaf555e0a","system_id":"levelo_inurba_marseille","lat":43.25582,"lon":5.38223,"is_reserved":false,"is_disabled":false,"rental_uris":{"android":"levelo://app?vid=a5ca290f-218e-46e5-af6f-1aadaf555e0a","ios":"levelo://app?vid=a5ca290f-218e-46e5-af6f-1aadaf555e0a"},"vehicle_type_id":"4","last_reported":1742900920,"current_range_meters":11600,"station_id":"ce4bhih2rcd13ifvqfs0","pricing_plan_id":"cebpf4jnsgd1na2vs0mg"},{"bike_id":"6633349b-54ae-41b8-88d5-61ec5d012302","system_id":"levelo_inurba_marseille","lat":43.32105,"lon":5.36785,"is_reserved":false,"is_disabled":false,"rental_uris":{"android":"levelo://app?vid=6633349b-54ae-41b8-88d5-61ec5d012302","ios":"levelo://app?vid=6633349b-54ae-41b8-88d5-61ec5d012302"},"vehicle_type_id":"4","last_reported":1742900920,"current_range_meters":11600,"station_id":"ce4bhrh2rcd13ifvqhug","pricing_plan_id":"cebpf4jnsgd1na2vs0mg"},{"bike_id":"008c8db6-be2b-43ce-8a53-8af51fd8b577","system_id":"levelo_inurba_marseille","lat":43.24179,"lon":5.39731,"is_reserved":false,"is_disabled":false,"rental_uris":{"android":"levelo://app?vid=008c8db6-be2b-43ce-8a53-8af51fd8b577","ios":"levelo://app?vid=008c8db6-be2b-43ce-8a53-8af51fd8b577"},"vehicle_type_id":"4","last_reported":1742900920,"current_range_meters":11600,"station_id":"ce4bhn12rcd13ifvqgpg","pricing_plan_id":"cebpf4jnsgd1na2vs0mg"},{"bike_id":"50e3359a-15f1-4f66-bbc8-eed7afb5cb08","system_id":"levelo_inurba_marseille","lat":43.25944,"lon":5.40903,"is_reserved":false,"is_disabled":false,"rental_uris":{"android":"levelo://app?vid=50e3359a-15f1-4f66-bbc8-eed7afb5cb08","ios":"levelo://app?vid=50e3359a-15f1-4f66-bbc8-eed7afb5cb08"},"vehicle_type_id":"4","last_reported":1742900920,"current_range_meters":11600,"station_id":"ce4bhm92rcd13ifvqglg","pricing_plan_id":"cebpf4jnsgd1na2vs0mg"},{"bike_id":"fbad057e-534a-4c43-bb30-ffe637e4bcfc","system_id":"levelo_inurba_marseille","lat":43.24396,"lon":5.37059,"is_reserved":false,"is_disabled":false,"rental_uris":{"android":"levelo://app?vid=fbad057e-534a-4c43-bb30-ffe637e4bcfc","ios":"levelo://app?vid=fbad057e-534a-4c43-bb30-ffe637e4bcfc"},"vehicle_type_id":"4","last_reported":1742900920,"current_range_meters":11600,"station_id":"ce4bhhh2rcd13ifvqfk0","pricing_plan_id":"cebpf4jnsgd1na2vs0mg"},{"bike_id":"8583bcae-e817-4db7-ab92-448c595780ea","system_id":"levelo_inurba_marseille","lat":43.33004,"lon":5.39046,"is_reserved":false,"is_disabled":false,"rental_uris":{"android":"levelo://app?vid=8583bcae-e817-4db7-ab92-448c595780ea","ios":"levelo://app?vid=8583bcae-e817-4db7-ab92-448c595780ea"},"vehicle_type_id":"4","last_reported":1742900920,"current_range_meters":11600,"station_id":"ce4bhr92rcd13ifvqhrg","pricing_plan_id":"cebpf4jnsgd1na2vs0mg"},{"bike_id":"60f65e09-390c-400f-9737-d490d5270c71","system_id":"levelo_inurba_marseille","lat":43.31089,"lon":5.42439,"is_reserved":false,"is_disabled":false,"rental_uris":{"android":"levelo://app?vid=60f65e09-390c-400f-9737-d490d5270c71","ios":"levelo://app?vid=60f65e09-390c-400f-9737-d490d5270c71"},"vehicle_type_id":"4","last_reported":1742900920,"current_range_meters":12000,"station_id":"ce4bhp92rcd13ifvqhag","pricing_plan_id":"cebpf4jnsgd1na2vs0mg"},{"bike_id":"90893ed3-8704-48a0-89a5-cc402c5801f6","system_id":"levelo_inurba_marseille","lat":43.24384,"lon":5.37058,"is_reserved":false,"is_disabled":false,"rental_uris":{"android":"levelo://app?vid=90893ed3-8704-48a0-89a5-cc402c5801f6","ios":"levelo://app?vid=90893ed3-8704-48a0-89a5-cc402c5801f6"},"vehicle_type_id":"4","last_reported":1742900920,"current_range_meters":12000,"station_id":"ce4bhhh2rcd13ifvqfk0","pricing_plan_id":"cebpf4jnsgd1na2vs0mg"},{"bike_id":"5aeb641c-8c67-430e-bd09-77076d22412d","system_id":"levelo_inurba_marseille","lat":43.31049,"lon":5.37568,"is_reserved":false,"is_disabled":false,"rental_uris":{"android":"levelo://app?vid=5aeb641c-8c67-430e-bd09-77076d22412d","ios":"levelo://app?vid=5aeb641c-8c67-430e-bd09-77076d22412d"},"vehicle_type_id":"4","last_reported":1742900920,"current_range_meters":12000,"station_id":"","pricing_plan_id":"cebpf4jnsgd1na2vs0mg"},{"bike_id":"844d3370-21e5-4de2-9d45-2b091e1157d6","system_id":"levelo_inurba_marseille","lat":43.2397,"lon":5.36644,"is_reserved":false,"is_disabled":false,"rental_uris":{"android":"levelo://app?vid=844d3370-21e5-4de2-9d45-2b091e1157d6","ios":"levelo://app?vid=844d3370-21e5-4de2-9d45-2b091e1157d6"},"vehicle_type_id":"4","last_reported":1742900920,"current_range_meters":12000,"station_id":"ce4bhi12rcd13ifvqfp0","pricing_plan_id":"cebpf4jnsgd1na2vs0mg"},{"bike_id":"b599ec8c-9116-4cb3-980c-d0a7d1e83114","system_id":"levelo_inurba_marseille","lat":43.32472,"lon":5.36584,"is_reserved":false,"is_disabled":false,"rental_uris":{"android":"levelo://app?vid=b599ec8c-9116-4cb3-980c-d0a7d1e83114","ios":"levelo://app?vid=b599ec8c-9116-4cb3-980c-d0a7d1e83114"},"vehicle_type_id":"4","last_reported":1742900920,"current_range_meters":12000,"station_id":"ce4bhs12rcd13ifvqhvg","pricing_plan_id":"cebpf4jnsgd1na2vs0mg"},{"bike_id":"875d5884-1bc0-4dae-9b37-585b3d5004e4","system_id":"levelo_inurba_marseille","lat":43.24549,"lon":5.3952,"is_reserved":false,"is_disabled":false,"rental_uris":{"android":"levelo://app?vid=875d5884-1bc0-4dae-9b37-585b3d5004e4","ios":"levelo://app?vid=875d5884-1bc0-4dae-9b37-585b3d5004e4"},"vehicle_type_id":"4","last_reported":1742900920,"current_range_meters":12000,"station_id":"ce4bhlp2rcd13ifvqgjg","pricing_plan_id":"cebpf4jnsgd1na2vs0mg"},{"bike_id":"14a7fa2c-fac1-4321-b2bc-58f9d1899727","system_id":"levelo_inurba_marseille","lat":43.31373,"lon":5.36702,"is_reserved":false,"is_disabled":false,"rental_uris":{"android":"levelo://app?vid=14a7fa2c-fac1-4321-b2bc-58f9d1899727","ios":"levelo://app?vid=14a7fa2c-fac1-4321-b2bc-58f9d1899727"},"vehicle_type_id":"4","last_reported":1742900920,"current_range_meters":12000,"station_id":"ce4bgr92rcd13ifvqc6g","pricing_plan_id":"cebpf4jnsgd1na2vs0mg"},{"bike_id":"e5fa9c82-a436-462b-a8cb-456c5ce6e379","system_id":"levelo_inurba_marseille","lat":43.29167,"lon":5.37161,"is_reserved":false,"is_disabled":false,"rental_uris":{"android":"levelo://app?vid=e5fa9c82-a436-462b-a8cb-456c5ce6e379","ios":"levelo://app?vid=e5fa9c82-a436-462b-a8cb-456c5ce6e379"},"vehicle_type_id":"4","last_reported":1742900920,"current_range_meters":12400,"station_id":"ce4bha92rcd13ifvqeh0","pricing_plan_id":"cebpf4jnsgd1na2vs0mg"},{"bike_id":"9857a641-1dcd-4536-a84c-e4b72e43e4e0","system_id":"levelo_inurba_marseille","lat":43.281,"lon":5.37835,"is_reserved":false,"is_disabled":false,"rental_uris":{"android":"levelo://app?vid=9857a641-1dcd-4536-a84c-e4b72e43e4e0","ios":"levelo://app?vid=9857a641-1dcd-4536-a84c-e4b72e43e4e0"},"vehicle_type_id":"4","last_reported":1742900920,"current_range_meters":12400,"station_id":"ce4bha12rcd13ifvqee0","pricing_plan_id":"cebpf4jnsgd1na2vs0mg"},{"bike_id":"38351309-2dec-417c-a558-74c8bc991036","system_id":"levelo_inurba_marseille","lat":43.30839,"lon":5.40623,"is_reserved":false,"is_disabled":true,"rental_uris":{"android":"levelo://app?vid=38351309-2dec-417c-a558-74c8bc991036","ios":"levelo://app?vid=38351309-2dec-417c-a558-74c8bc991036"},"vehicle_type_id":"4","last_reported":1742900920,"current_range_meters":12400,"station_id":"","pricing_plan_id":"cebpf4jnsgd1na2vs0mg"},{"bike_id":"98d38a64-15b2-410c-b614-5635d097b9ba","system_id":"levelo_inurba_marseille","lat":43.30288,"lon":5.39199,"is_reserved":false,"is_disabled":true,"rental_uris":{"android":"levelo://app?vid=98d38a64-15b2-410c-b614-5635d097b9ba","ios":"levelo://app?vid=98d38a64-15b2-410c-b614-5635d097b9ba"},"vehicle_type_id":"4","last_reported":1742900920,"current_range_meters":12400,"station_id":"ce4bgkh2rcd13ifvqbk0","pricing_plan_id":"cebpf4jnsgd1na2vs0mg"},{"bike_id":"9c8dcf9f-f646-4929-86e8-34184a18211d","system_id":"levelo_inurba_marseille","lat":43.28158,"lon":5.42644,"is_reserved":false,"is_disabled":false,"rental_uris":{"android":"levelo://app?vid=9c8dcf9f-f646-4929-86e8-34184a18211d","ios":"levelo://app?vid=9c8dcf9f-f646-4929-86e8-34184a18211d"},"vehicle_type_id":"4","last_reported":1742900920,"current_range_meters":12400,"station_id":"ce4bhnh2rcd13ifvqgug","pricing_plan_id":"cebpf4jnsgd1na2vs0mg"},{"bike_id":"19f5c6f1-a62f-4a9b-b898-c356fef0f71a","system_id":"levelo_inurba_marseille","lat":43.26227,"lon":5.40463,"is_reserved":false,"is_disabled":false,"rental_uris":{"android":"levelo://app?vid=19f5c6f1-a62f-4a9b-b898-c356fef0f71a","ios":"levelo://app?vid=19f5c6f1-a62f-4a9b-b898-c356fef0f71a"},"vehicle_type_id":"4","last_reported":1742900920,"current_range_meters":12400,"station_id":"ce4bhmh2rcd13ifvqgmg","pricing_plan_id":"cebpf4jnsgd1na2vs0mg"},{"bike_id":"4eed3e31-6eb0-42ec-9598-e702774b439e","system_id":"levelo_inurba_marseille","lat":43.26681,"lon":5.38269,"is_reserved":false,"is_disabled":false,"rental_uris":{"android":"levelo://app?vid=4eed3e31-6eb0-42ec-9598-e702774b439e","ios":"levelo://app?vid=4eed3e31-6eb0-42ec-9598-e702774b439e"},"vehicle_type_id":"4","last_reported":1742900920,"current_range_meters":12800,"station_id":"ce4bhg92rcd13ifvqf90","pricing_plan_id":"cebpf4jnsgd1na2vs0mg"},{"bike_id":"ce5cf291-b2de-459d-85cd-725c73a8218c","system_id":"levelo_inurba_marseille","lat":43.29103,"lon":5.38133,"is_reserved":false,"is_disabled":false,"rental_uris":{"android":"levelo://app?vid=ce5cf291-b2de-459d-85cd-725c73a8218c","ios":"levelo://app?vid=ce5cf291-b2de-459d-85cd-725c73a8218c"},"vehicle_type_id":"4","last_reported":1742900920,"current_range_meters":12800,"station_id":"ce4bh512rcd13ifvqe2g","pricing_plan_id":"cebpf4jnsgd1na2vs0mg"},{"bike_id":"2d4f394c-4025-4246-8fdd-ff0bac3a8135","system_id":"levelo_inurba_marseille","lat":43.269034,"lon":5.406881,"is_reserved":false,"is_disabled":false,"rental_uris":{"android":"levelo://app?vid=2d4f394c-4025-4246-8fdd-ff0bac3a8135","ios":"levelo://app?vid=2d4f394c-4025-4246-8fdd-ff0bac3a8135"},"vehicle_type_id":"4","last_reported":1742900920,"current_range_meters":12800,"station_id":"ce4bhl12rcd13ifvqgf0","pricing_plan_id":"cebpf4jnsgd1na2vs0mg"},{"bike_id":"4a3cef67-7854-486a-96a1-875577c9d100","system_id":"levelo_inurba_marseille","lat":43.28076,"lon":5.39673,"is_reserved":false,"is_disabled":true,"rental_uris":{"android":"levelo://app?vid=4a3cef67-7854-486a-96a1-875577c9d100","ios":"levelo://app?vid=4a3cef67-7854-486a-96a1-875577c9d100"},"vehicle_type_id":"4","last_reported":1742900920,"current_range_meters":12800,"station_id":"ce4bho12rcd13ifvqh2g","pricing_plan_id":"cebpf4jnsgd1na2vs0mg"},{"bike_id":"ead805a4-cd5d-4559-bd47-d60ff90a718d","system_id":"levelo_inurba_marseille","lat":43.295563,"lon":5.422964,"is_reserved":false,"is_disabled":false,"rental_uris":{"android":"levelo://app?vid=ead805a4-cd5d-4559-bd47-d60ff90a718d","ios":"levelo://app?vid=ead805a4-cd5d-4559-bd47-d60ff90a718d"},"vehicle_type_id":"4","last_reported":1742900920,"current_range_meters":12800,"station_id":"ce4bhpp2rcd13ifvqhfg","pricing_plan_id":"cebpf4jnsgd1na2vs0mg"},{"bike_id":"348aafb6-710f-4f70-a308-412fbd7b5b6c","system_id":"levelo_inurba_marseille","lat":43.31347,"lon":5.36703,"is_reserved":false,"is_disabled":false,"rental_uris":{"android":"levelo://app?vid=348aafb6-710f-4f70-a308-412fbd7b5b6c","ios":"levelo://app?vid=348aafb6-710f-4f70-a308-412fbd7b5b6c"},"vehicle_type_id":"4","last_reported":1742900920,"current_range_meters":12800,"station_id":"ce4bgr92rcd13ifvqc6g","pricing_plan_id":"cebpf4jnsgd1na2vs0mg"},{"bike_id":"bf959d6a-423c-404f-9fb1-a7d4a44ad0e0","system_id":"levelo_inurba_marseille","lat":43.28665,"lon":5.36354,"is_reserved":false,"is_disabled":false,"rental_uris":{"android":"levelo://app?vid=bf959d6a-423c-404f-9fb1-a7d4a44ad0e0","ios":"levelo://app?vid=bf959d6a-423c-404f-9fb1-a7d4a44ad0e0"},"vehicle_type_id":"4","last_reported":1742900920,"current_range_meters":12800,"station_id":"ce4bhah2rcd13ifvqej0","pricing_plan_id":"cebpf4jnsgd1na2vs0mg"},{"bike_id":"c7e4f9b6-ef9d-4c18-93a6-9d7c570d7304","system_id":"levelo_inurba_marseille","lat":43.25916,"lon":5.4089,"is_reserved":false,"is_disabled":false,"rental_uris":{"android":"levelo://app?vid=c7e4f9b6-ef9d-4c18-93a6-9d7c570d7304","ios":"levelo://app?vid=c7e4f9b6-ef9d-4c18-93a6-9d7c570d7304"},"vehicle_type_id":"4","last_reported":1742900920,"current_range_meters":13600,"station_id":"ce4bhm92rcd13ifvqglg","pricing_plan_id":"cebpf4jnsgd1na2vs0mg"},{"bike_id":"736f241e-a390-46a6-ba4e-91d7dad6aeac","system_id":"levelo_inurba_marseille","lat":43.23156,"lon":5.43707,"is_reserved":false,"is_disabled":false,"rental_uris":{"android":"levelo://app?vid=736f241e-a390-46a6-ba4e-91d7dad6aeac","ios":"levelo://app?vid=736f241e-a390-46a6-ba4e-91d7dad6aeac"},"vehicle_type_id":"4","last_reported":1742900920,"current_range_meters":13600,"station_id":"ce4bhmp2rcd13ifvqgog","pricing_plan_id":"cebpf4jnsgd1na2vs0mg"},{"bike_id":"cbcdfb9f-4e22-4ae9-a009-db17ab394bbc","system_id":"levelo_inurba_marseille","lat":43.29807,"lon":5.40397,"is_reserved":false,"is_disabled":false,"rental_uris":{"android":"levelo://app?vid=cbcdfb9f-4e22-4ae9-a009-db17ab394bbc","ios":"levelo://app?vid=cbcdfb9f-4e22-4ae9-a009-db17ab394bbc"},"vehicle_type_id":"4","last_reported":1742900920,"current_range_meters":13600,"station_id":"ce4bh112rcd13ifvqd90","pricing_plan_id":"cebpf4jnsgd1na2vs0mg"},{"bike_id":"fccb3d1f-d221-460d-8e7e-96b944966360","system_id":"levelo_inurba_marseille","lat":43.268,"lon":5.40261,"is_reserved":false,"is_disabled":false,"rental_uris":{"android":"levelo://app?vid=fccb3d1f-d221-460d-8e7e-96b944966360","ios":"levelo://app?vid=fccb3d1f-d221-460d-8e7e-96b944966360"},"vehicle_type_id":"4","last_reported":1742900920,"current_range_meters":13600,"station_id":"ce501612rcd8frsf0b60","pricing_plan_id":"cebpf4jnsgd1na2vs0mg"},{"bike_id":"8c800b00-3d65-4e3b-bb2e-24fda6a64f5a","system_id":"levelo_inurba_marseille","lat":43.2794,"lon":5.41043,"is_reserved":false,"is_disabled":false,"rental_uris":{"android":"levelo://app?vid=8c800b00-3d65-4e3b-bb2e-24fda6a64f5a","ios":"levelo://app?vid=8c800b00-3d65-4e3b-bb2e-24fda6a64f5a"},"vehicle_type_id":"4","last_reported":1742900920,"current_range_meters":13600,"station_id":"ce4bhnp2rcd13ifvqh0g","pricing_plan_id":"cebpf4jnsgd1na2vs0mg"},{"bike_id":"6a8888b8-5ce5-4037-b671-3518439e8005","system_id":"levelo_inurba_marseille","lat":43.29262,"lon":5.40902,"is_reserved":false,"is_disabled":false,"rental_uris":{"android":"levelo://app?vid=6a8888b8-5ce5-4037-b671-3518439e8005","ios":"levelo://app?vid=6a8888b8-5ce5-4037-b671-3518439e8005"},"vehicle_type_id":"4","last_reported":1742900920,"current_range_meters":13600,"station_id":"ce4bh012rcd13ifvqd00","pricing_plan_id":"cebpf4jnsgd1na2vs0mg"},{"bike_id":"e58835a3-f480-40f6-b839-4b6984e93851","system_id":"levelo_inurba_marseille","lat":43.2794,"lon":5.41046,"is_reserved":false,"is_disabled":false,"rental_uris":{"android":"levelo://app?vid=e58835a3-f480-40f6-b839-4b6984e93851","ios":"levelo://app?vid=e58835a3-f480-40f6-b839-4b6984e93851"},"vehicle_type_id":"4","last_reported":1742900920,"current_range_meters":14000,"station_id":"ce4bhnp2rcd13ifvqh0g","pricing_plan_id":"cebpf4jnsgd1na2vs0mg"},{"bike_id":"1697d1ce-8d8b-44cc-8fbe-26493ede4c93","system_id":"levelo_inurba_marseille","lat":43.25912,"lon":5.40872,"is_reserved":false,"is_disabled":false,"rental_uris":{"android":"levelo://app?vid=1697d1ce-8d8b-44cc-8fbe-26493ede4c93","ios":"levelo://app?vid=1697d1ce-8d8b-44cc-8fbe-26493ede4c93"},"vehicle_type_id":"4","last_reported":1742900920,"current_range_meters":14000,"station_id":"ce4bhm92rcd13ifvqglg","pricing_plan_id":"cebpf4jnsgd1na2vs0mg"},{"bike_id":"4bf82290-6c34-4724-be7a-fccc387df49e","system_id":"levelo_inurba_marseille","lat":43.31452,"lon":5.37344,"is_reserved":false,"is_disabled":false,"rental_uris":{"android":"levelo://app?vid=4bf82290-6c34-4724-be7a-fccc387df49e","ios":"levelo://app?vid=4bf82290-6c34-4724-be7a-fccc387df49e"},"vehicle_type_id":"4","last_reported":1742900920,"current_range_meters":14000,"station_id":"ce4bgt12rcd13ifvqcd0","pricing_plan_id":"cebpf4jnsgd1na2vs0mg"},{"bike_id":"746e2bd3-9852-498b-a6da-9fd8586d3bde","system_id":"levelo_inurba_marseille","lat":43.29527,"lon":5.38548,"is_reserved":false,"is_disabled":false,"rental_uris":{"android":"levelo://app?vid=746e2bd3-9852-498b-a6da-9fd8586d3bde","ios":"levelo://app?vid=746e2bd3-9852-498b-a6da-9fd8586d3bde"},"vehicle_type_id":"4","last_reported":1742900920,"current_range_meters":14000,"station_id":"ce4bgih2rcd13ifvqba0","pricing_plan_id":"cebpf4jnsgd1na2vs0mg"},{"bike_id":"3b126420-415c-43e2-a0df-cabcec7e3f4d","system_id":"levelo_inurba_marseille","lat":43.279,"lon":5.38005,"is_reserved":false,"is_disabled":false,"rental_uris":{"android":"levelo://app?vid=3b126420-415c-43e2-a0df-cabcec7e3f4d","ios":"levelo://app?vid=3b126420-415c-43e2-a0df-cabcec7e3f4d"},"vehicle_type_id":"4","last_reported":1742900920,"current_range_meters":14000,"station_id":"ce4bhf92rcd13ifvqf50","pricing_plan_id":"cebpf4jnsgd1na2vs0mg"},{"bike_id":"fc3eec86-5c89-461a-b54f-15ec4ee366fd","system_id":"levelo_inurba_marseille","lat":43.265808,"lon":5.390012,"is_reserved":false,"is_disabled":true,"rental_uris":{"android":"levelo://app?vid=fc3eec86-5c89-461a-b54f-15ec4ee366fd","ios":"levelo://app?vid=fc3eec86-5c89-461a-b54f-15ec4ee366fd"},"vehicle_type_id":"4","last_reported":1742900920,"current_range_meters":14000,"station_id":"ce4bhe12rcd13ifvqf30","pricing_plan_id":"cebpf4jnsgd1na2vs0mg"},{"bike_id":"04412040-5067-4afc-81ec-5218ad1de0ed","system_id":"levelo_inurba_marseille","lat":43.29528,"lon":5.39399,"is_reserved":false,"is_disabled":false,"rental_uris":{"android":"levelo://app?vid=04412040-5067-4afc-81ec-5218ad1de0ed","ios":"levelo://app?vid=04412040-5067-4afc-81ec-5218ad1de0ed"},"vehicle_type_id":"4","last_reported":1742900920,"current_range_meters":14000,"station_id":"ce4bh292rcd13ifvqdf0","pricing_plan_id":"cebpf4jnsgd1na2vs0mg"},{"bike_id":"f1d2d99c-b311-4cf9-b668-d69769b03a7e","system_id":"levelo_inurba_marseille","lat":43.30642,"lon":5.40098,"is_reserved":false,"is_disabled":false,"rental_uris":{"android":"levelo://app?vid=f1d2d99c-b311-4cf9-b668-d69769b03a7e","ios":"levelo://app?vid=f1d2d99c-b311-4cf9-b668-d69769b03a7e"},"vehicle_type_id":"4","last_reported":1742900920,"current_range_meters":14000,"station_id":"ce4bh112rcd13ifvqda0","pricing_plan_id":"cebpf4jnsgd1na2vs0mg"},{"bike_id":"a664c280-0f85-4300-8ddf-2ac4585f71ba","system_id":"levelo_inurba_marseille","lat":43.25909,"lon":5.40893,"is_reserved":false,"is_disabled":false,"rental_uris":{"android":"levelo://app?vid=a664c280-0f85-4300-8ddf-2ac4585f71ba","ios":"levelo://app?vid=a664c280-0f85-4300-8ddf-2ac4585f71ba"},"vehicle_type_id":"4","last_reported":1742900920,"current_range_meters":14400,"station_id":"ce4bhm92rcd13ifvqglg","pricing_plan_id":"cebpf4jnsgd1na2vs0mg"},{"bike_id":"7ce11575-e97f-4612-b902-072bfedc7f4e","system_id":"levelo_inurba_marseille","lat":43.30322,"lon":5.36897,"is_reserved":false,"is_disabled":false,"rental_uris":{"android":"levelo://app?vid=7ce11575-e97f-4612-b902-072bfedc7f4e","ios":"levelo://app?vid=7ce11575-e97f-4612-b902-072bfedc7f4e"},"vehicle_type_id":"4","last_reported":1742900920,"current_range_meters":14400,"station_id":"ce4bgqh2rcd13ifvqc5g","pricing_plan_id":"cebpf4jnsgd1na2vs0mg"},{"bike_id":"af387820-e7bf-4766-a261-57ea7920811c","system_id":"levelo_inurba_marseille","lat":43.30139,"lon":5.38088,"is_reserved":false,"is_disabled":false,"rental_uris":{"android":"levelo://app?vid=af387820-e7bf-4766-a261-57ea7920811c","ios":"levelo://app?vid=af387820-e7bf-4766-a261-57ea7920811c"},"vehicle_type_id":"4","last_reported":1742900920,"current_range_meters":14400,"station_id":"ce4bgjp2rcd13ifvqbh0","pricing_plan_id":"cebpf4jnsgd1na2vs0mg"},{"bike_id":"a2c2e16a-ece3-4bfc-89cc-3b5c3c902bf4","system_id":"levelo_inurba_marseille","lat":43.23149,"lon":5.43711,"is_reserved":false,"is_disabled":false,"rental_uris":{"android":"levelo://app?vid=a2c2e16a-ece3-4bfc-89cc-3b5c3c902bf4","ios":"levelo://app?vid=a2c2e16a-ece3-4bfc-89cc-3b5c3c902bf4"},"vehicle_type_id":"4","last_reported":1742900920,"current_range_meters":14400,"station_id":"ce4bhmp2rcd13ifvqgog","pricing_plan_id":"cebpf4jnsgd1na2vs0mg"},{"bike_id":"7955c63a-7365-402f-bd5c-0f6460ac413a","system_id":"levelo_inurba_marseille","lat":43.25085,"lon":5.39534,"is_reserved":false,"is_disabled":false,"rental_uris":{"android":"levelo://app?vid=7955c63a-7365-402f-bd5c-0f6460ac413a","ios":"levelo://app?vid=7955c63a-7365-402f-bd5c-0f6460ac413a"},"vehicle_type_id":"4","last_reported":1742900920,"current_range_meters":14400,"station_id":"ce4bhm12rcd13ifvqgkg","pricing_plan_id":"cebpf4jnsgd1na2vs0mg"},{"bike_id":"d6ffce50-7851-42d0-addb-5c830e0d0cd8","system_id":"levelo_inurba_marseille","lat":43.288355,"lon":5.39313,"is_reserved":false,"is_disabled":true,"rental_uris":{"android":"levelo://app?vid=d6ffce50-7851-42d0-addb-5c830e0d0cd8","ios":"levelo://app?vid=d6ffce50-7851-42d0-addb-5c830e0d0cd8"},"vehicle_type_id":"4","last_reported":1742900920,"current_range_meters":14800,"station_id":"","pricing_plan_id":"cebpf4jnsgd1na2vs0mg"},{"bike_id":"b052d2e2-e875-4904-a7e7-4c54f441a36b","system_id":"levelo_inurba_marseille","lat":43.31208,"lon":5.36868,"is_reserved":false,"is_disabled":false,"rental_uris":{"android":"levelo://app?vid=b052d2e2-e875-4904-a7e7-4c54f441a36b","ios":"levelo://app?vid=b052d2e2-e875-4904-a7e7-4c54f441a36b"},"vehicle_type_id":"4","last_reported":1742900920,"current_range_meters":14800,"station_id":"ce4bgl92rcd13ifvqbq0","pricing_plan_id":"cebpf4jnsgd1na2vs0mg"},{"bike_id":"a7ba97f8-94fd-49ae-9006-ab2c383704cb","system_id":"levelo_inurba_marseille","lat":43.30125,"lon":5.3745,"is_reserved":false,"is_disabled":false,"rental_uris":{"android":"levelo://app?vid=a7ba97f8-94fd-49ae-9006-ab2c383704cb","ios":"levelo://app?vid=a7ba97f8-94fd-49ae-9006-ab2c383704cb"},"vehicle_type_id":"4","last_reported":1742900920,"current_range_meters":14800,"station_id":"ce4bgs92rcd13ifvqcc0","pricing_plan_id":"cebpf4jnsgd1na2vs0mg"},{"bike_id":"55602079-9092-4fa2-9f1c-807369a4bd41","system_id":"levelo_inurba_marseille","lat":43.29598,"lon":5.38108,"is_reserved":false,"is_disabled":false,"rental_uris":{"android":"levelo://app?vid=55602079-9092-4fa2-9f1c-807369a4bd41","ios":"levelo://app?vid=55602079-9092-4fa2-9f1c-807369a4bd41"},"vehicle_type_id":"4","last_reported":1742900920,"current_range_meters":14800,"station_id":"ce4bgl12rcd13ifvqbo0","pricing_plan_id":"cebpf4jnsgd1na2vs0mg"},{"bike_id":"a818961d-5f1c-4a77-8216-5fd27d2d139f","system_id":"levelo_inurba_marseille","lat":43.31353,"lon":5.36685,"is_reserved":false,"is_disabled":false,"rental_uris":{"android":"levelo://app?vid=a818961d-5f1c-4a77-8216-5fd27d2d139f","ios":"levelo://app?vid=a818961d-5f1c-4a77-8216-5fd27d2d139f"},"vehicle_type_id":"4","last_reported":1742900920,"current_range_meters":14800,"station_id":"ce4bgr92rcd13ifvqc6g","pricing_plan_id":"cebpf4jnsgd1na2vs0mg"},{"bike_id":"0b540e94-dc53-4a35-bbb0-09d2a4ca4d37","system_id":"levelo_inurba_marseille","lat":43.3134,"lon":5.36715,"is_reserved":false,"is_disabled":false,"rental_uris":{"android":"levelo://app?vid=0b540e94-dc53-4a35-bbb0-09d2a4ca4d37","ios":"levelo://app?vid=0b540e94-dc53-4a35-bbb0-09d2a4ca4d37"},"vehicle_type_id":"4","last_reported":1742900920,"current_range_meters":14800,"station_id":"ce4bgr92rcd13ifvqc6g","pricing_plan_id":"cebpf4jnsgd1na2vs0mg"},{"bike_id":"f7d630ab-464c-4b77-a6e3-d48c110c7e85","system_id":"levelo_inurba_marseille","lat":43.30276,"lon":5.37707,"is_reserved":false,"is_disabled":false,"rental_uris":{"android":"levelo://app?vid=f7d630ab-464c-4b77-a6e3-d48c110c7e85","ios":"levelo://app?vid=f7d630ab-464c-4b77-a6e3-d48c110c7e85"},"vehicle_type_id":"4","last_reported":1742900920,"current_range_meters":15200,"station_id":"ce4bguh2rcd13ifvqcj0","pricing_plan_id":"cebpf4jnsgd1na2vs0mg"},{"bike_id":"da43d894-069e-486e-a738-14255c3635ad","system_id":"levelo_inurba_marseille","lat":43.26069,"lon":5.394,"is_reserved":false,"is_disabled":false,"rental_uris":{"android":"levelo://app?vid=da43d894-069e-486e-a738-14255c3635ad","ios":"levelo://app?vid=da43d894-069e-486e-a738-14255c3635ad"},"vehicle_type_id":"4","last_reported":1742900920,"current_range_meters":15200,"station_id":"ce4bhh92rcd13ifvqfj0","pricing_plan_id":"cebpf4jnsgd1na2vs0mg"},{"bike_id":"4c2d390b-dd02-452a-b439-73d7800da70f","system_id":"levelo_inurba_marseille","lat":43.25941,"lon":5.4089,"is_reserved":false,"is_disabled":false,"rental_uris":{"android":"levelo://app?vid=4c2d390b-dd02-452a-b439-73d7800da70f","ios":"levelo://app?vid=4c2d390b-dd02-452a-b439-73d7800da70f"},"vehicle_type_id":"4","last_reported":1742900920,"current_range_meters":15200,"station_id":"ce4bhm92rcd13ifvqglg","pricing_plan_id":"cebpf4jnsgd1na2vs0mg"},{"bike_id":"7aac1fa6-8563-4483-89a1-e00634e9c45b","system_id":"levelo_inurba_marseille","lat":43.30305,"lon":5.36901,"is_reserved":false,"is_disabled":false,"rental_uris":{"android":"levelo://app?vid=7aac1fa6-8563-4483-89a1-e00634e9c45b","ios":"levelo://app?vid=7aac1fa6-8563-4483-89a1-e00634e9c45b"},"vehicle_type_id":"4","last_reported":1742900920,"current_range_meters":15200,"station_id":"ce4bgqh2rcd13ifvqc5g","pricing_plan_id":"cebpf4jnsgd1na2vs0mg"},{"bike_id":"37b165fc-d9f9-497b-a2df-abcccfe9569e","system_id":"levelo_inurba_marseille","lat":43.29269,"lon":5.36879,"is_reserved":false,"is_disabled":false,"rental_uris":{"android":"levelo://app?vid=37b165fc-d9f9-497b-a2df-abcccfe9569e","ios":"levelo://app?vid=37b165fc-d9f9-497b-a2df-abcccfe9569e"},"vehicle_type_id":"4","last_reported":1742900920,"current_range_meters":15200,"station_id":"ce4bhbp2rcd13ifvqesg","pricing_plan_id":"cebpf4jnsgd1na2vs0mg"},{"bike_id":"0aea2c8b-a3f7-47d3-88d0-95fbd5fe692b","system_id":"levelo_inurba_marseille","lat":43.26679,"lon":5.38282,"is_reserved":false,"is_disabled":false,"rental_uris":{"android":"levelo://app?vid=0aea2c8b-a3f7-47d3-88d0-95fbd5fe692b","ios":"levelo://app?vid=0aea2c8b-a3f7-47d3-88d0-95fbd5fe692b"},"vehicle_type_id":"4","last_reported":1742900920,"current_range_meters":15200,"station_id":"ce4bhg92rcd13ifvqf90","pricing_plan_id":"cebpf4jnsgd1na2vs0mg"},{"bike_id":"f3715645-7588-4751-80f5-1c49ef03e4ad","system_id":"levelo_inurba_marseille","lat":43.24655,"lon":5.38898,"is_reserved":false,"is_disabled":false,"rental_uris":{"android":"levelo://app?vid=f3715645-7588-4751-80f5-1c49ef03e4ad","ios":"levelo://app?vid=f3715645-7588-4751-80f5-1c49ef03e4ad"},"vehicle_type_id":"4","last_reported":1742900920,"current_range_meters":16000,"station_id":"ce4bhg12rcd13ifvqf60","pricing_plan_id":"cebpf4jnsgd1na2vs0mg"},{"bike_id":"a81cdb96-c37a-4012-98fe-c3a7d84d6dd8","system_id":"levelo_inurba_marseille","lat":43.30905,"lon":5.36836,"is_reserved":false,"is_disabled":false,"rental_uris":{"android":"levelo://app?vid=a81cdb96-c37a-4012-98fe-c3a7d84d6dd8","ios":"levelo://app?vid=a81cdb96-c37a-4012-98fe-c3a7d84d6dd8"},"vehicle_type_id":"4","last_reported":1742900920,"current_range_meters":16000,"station_id":"ce4bgn92rcd13ifvqbvg","pricing_plan_id":"cebpf4jnsgd1na2vs0mg"},{"bike_id":"84a7a785-5392-42bc-8088-fb903bcc7f5c","system_id":"levelo_inurba_marseille","lat":43.23076,"lon":5.35485,"is_reserved":false,"is_disabled":false,"rental_uris":{"android":"levelo://app?vid=84a7a785-5392-42bc-8088-fb903bcc7f5c","ios":"levelo://app?vid=84a7a785-5392-42bc-8088-fb903bcc7f5c"},"vehicle_type_id":"4","last_reported":1742900920,"current_range_meters":16000,"station_id":"cpo3342slgdg3j2ifvpg","pricing_plan_id":"cebpf4jnsgd1na2vs0mg"},{"bike_id":"56cdda37-ce98-40ee-a8cf-1237548ad2ed","system_id":"levelo_inurba_marseille","lat":43.23973,"lon":5.36632,"is_reserved":false,"is_disabled":false,"rental_uris":{"android":"levelo://app?vid=56cdda37-ce98-40ee-a8cf-1237548ad2ed","ios":"levelo://app?vid=56cdda37-ce98-40ee-a8cf-1237548ad2ed"},"vehicle_type_id":"4","last_reported":1742900920,"current_range_meters":16000,"station_id":"ce4bhi12rcd13ifvqfp0","pricing_plan_id":"cebpf4jnsgd1na2vs0mg"},{"bike_id":"3c76f96e-e03d-47a7-af49-799ad95a5675","system_id":"levelo_inurba_marseille","lat":43.29596,"lon":5.38102,"is_reserved":false,"is_disabled":false,"rental_uris":{"android":"levelo://app?vid=3c76f96e-e03d-47a7-af49-799ad95a5675","ios":"levelo://app?vid=3c76f96e-e03d-47a7-af49-799ad95a5675"},"vehicle_type_id":"4","last_reported":1742900920,"current_range_meters":16000,"station_id":"ce4bgl12rcd13ifvqbo0","pricing_plan_id":"cebpf4jnsgd1na2vs0mg"},{"bike_id":"b6b09f1e-aff5-4874-9bcf-607b083d39df","system_id":"levelo_inurba_marseille","lat":43.29044,"lon":5.35921,"is_reserved":false,"is_disabled":true,"rental_uris":{"android":"levelo://app?vid=b6b09f1e-aff5-4874-9bcf-607b083d39df","ios":"levelo://app?vid=b6b09f1e-aff5-4874-9bcf-607b083d39df"},"vehicle_type_id":"4","last_reported":1742900920,"current_range_meters":16000,"station_id":"ce4bha92rcd13ifvqeg0","pricing_plan_id":"cebpf4jnsgd1na2vs0mg"},{"bike_id":"9883b535-4588-4305-9d7f-c2582f0bdbde","system_id":"levelo_inurba_marseille","lat":43.23152,"lon":5.43725,"is_reserved":false,"is_disabled":false,"rental_uris":{"android":"levelo://app?vid=9883b535-4588-4305-9d7f-c2582f0bdbde","ios":"levelo://app?vid=9883b535-4588-4305-9d7f-c2582f0bdbde"},"vehicle_type_id":"4","last_reported":1742900920,"current_range_meters":16000,"station_id":"ce4bhmp2rcd13ifvqgog","pricing_plan_id":"cebpf4jnsgd1na2vs0mg"},{"bike_id":"974f5876-effd-44d0-911c-76ea7a107a8c","system_id":"levelo_inurba_marseille","lat":43.33293,"lon":5.35875,"is_reserved":false,"is_disabled":false,"rental_uris":{"android":"levelo://app?vid=974f5876-effd-44d0-911c-76ea7a107a8c","ios":"levelo://app?vid=974f5876-effd-44d0-911c-76ea7a107a8c"},"vehicle_type_id":"4","last_reported":1742900920,"current_range_meters":16000,"station_id":"","pricing_plan_id":"cebpf4jnsgd1na2vs0mg"},{"bike_id":"82219511-549c-4b63-baf5-ff8405cca9d7","system_id":"levelo_inurba_marseille","lat":43.31717,"lon":5.43704,"is_reserved":false,"is_disabled":false,"rental_uris":{"android":"levelo://app?vid=82219511-549c-4b63-baf5-ff8405cca9d7","ios":"levelo://app?vid=82219511-549c-4b63-baf5-ff8405cca9d7"},"vehicle_type_id":"4","last_reported":1742900920,"current_range_meters":16000,"station_id":"ce4bhp92rcd13ifvqhcg","pricing_plan_id":"cebpf4jnsgd1na2vs0mg"},{"bike_id":"1216b1c4-da57-4374-9499-d425aa59021f","system_id":"levelo_inurba_marseille","lat":43.27988,"lon":5.41659,"is_reserved":false,"is_disabled":false,"rental_uris":{"android":"levelo://app?vid=1216b1c4-da57-4374-9499-d425aa59021f","ios":"levelo://app?vid=1216b1c4-da57-4374-9499-d425aa59021f"},"vehicle_type_id":"4","last_reported":1742900920,"current_range_meters":16400,"station_id":"ce4bho12rcd13ifvqh1g","pricing_plan_id":"cebpf4jnsgd1na2vs0mg"},{"bike_id":"5d4199de-8ab8-4d41-9036-2533d82e1cab","system_id":"levelo_inurba_marseille","lat":43.2801,"lon":5.41668,"is_reserved":false,"is_disabled":false,"rental_uris":{"android":"levelo://app?vid=5d4199de-8ab8-4d41-9036-2533d82e1cab","ios":"levelo://app?vid=5d4199de-8ab8-4d41-9036-2533d82e1cab"},"vehicle_type_id":"4","last_reported":1742900920,"current_range_meters":16400,"station_id":"ce4bho12rcd13ifvqh1g","pricing_plan_id":"cebpf4jnsgd1na2vs0mg"},{"bike_id":"0d20b273-875a-432a-ba76-d960497c4a6a","system_id":"levelo_inurba_marseille","lat":43.30546,"lon":5.36541,"is_reserved":false,"is_disabled":false,"rental_uris":{"android":"levelo://app?vid=0d20b273-875a-432a-ba76-d960497c4a6a","ios":"levelo://app?vid=0d20b273-875a-432a-ba76-d960497c4a6a"},"vehicle_type_id":"4","last_reported":1742900920,"current_range_meters":16400,"station_id":"ce4bgs12rcd13ifvqcag","pricing_plan_id":"cebpf4jnsgd1na2vs0mg"},{"bike_id":"0c9cada4-2764-4013-a528-15089818cb84","system_id":"levelo_inurba_marseille","lat":43.27708,"lon":5.41161,"is_reserved":false,"is_disabled":false,"rental_uris":{"android":"levelo://app?vid=0c9cada4-2764-4013-a528-15089818cb84","ios":"levelo://app?vid=0c9cada4-2764-4013-a528-15089818cb84"},"vehicle_type_id":"4","last_reported":1742900920,"current_range_meters":16400,"station_id":"","pricing_plan_id":"cebpf4jnsgd1na2vs0mg"},{"bike_id":"8ba11d0e-dc45-4bc3-a15d-ccf081ccb3e7","system_id":"levelo_inurba_marseille","lat":43.23071,"lon":5.35513,"is_reserved":false,"is_disabled":false,"rental_uris":{"android":"levelo://app?vid=8ba11d0e-dc45-4bc3-a15d-ccf081ccb3e7","ios":"levelo://app?vid=8ba11d0e-dc45-4bc3-a15d-ccf081ccb3e7"},"vehicle_type_id":"4","last_reported":1742900920,"current_range_meters":16400,"station_id":"","pricing_plan_id":"cebpf4jnsgd1na2vs0mg"},{"bike_id":"ed1fc10d-16ff-45af-bff2-4310e145d4e5","system_id":"levelo_inurba_marseille","lat":43.25119,"lon":5.40353,"is_reserved":false,"is_disabled":false,"rental_uris":{"android":"levelo://app?vid=ed1fc10d-16ff-45af-bff2-4310e145d4e5","ios":"levelo://app?vid=ed1fc10d-16ff-45af-bff2-4310e145d4e5"},"vehicle_type_id":"4","last_reported":1742900920,"current_range_meters":16400,"station_id":"ce4bhlh2rcd13ifvqgig","pricing_plan_id":"cebpf4jnsgd1na2vs0mg"},{"bike_id":"32da8814-a7b5-4ece-930c-22fa04b7c80b","system_id":"levelo_inurba_marseille","lat":43.30898,"lon":5.36861,"is_reserved":false,"is_disabled":false,"rental_uris":{"android":"levelo://app?vid=32da8814-a7b5-4ece-930c-22fa04b7c80b","ios":"levelo://app?vid=32da8814-a7b5-4ece-930c-22fa04b7c80b"},"vehicle_type_id":"4","last_reported":1742900920,"current_range_meters":16400,"station_id":"ce4bgn92rcd13ifvqbvg","pricing_plan_id":"cebpf4jnsgd1na2vs0mg"},{"bike_id":"1be1b1b5-c3ab-4438-88e5-44142c879c45","system_id":"levelo_inurba_marseille","lat":43.30158,"lon":5.38087,"is_reserved":false,"is_disabled":false,"rental_uris":{"android":"levelo://app?vid=1be1b1b5-c3ab-4438-88e5-44142c879c45","ios":"levelo://app?vid=1be1b1b5-c3ab-4438-88e5-44142c879c45"},"vehicle_type_id":"4","last_reported":1742900920,"current_range_meters":16400,"station_id":"ce4bgjp2rcd13ifvqbh0","pricing_plan_id":"cebpf4jnsgd1na2vs0mg"},{"bike_id":"dee5fe67-e62d-465a-89b1-1ce8fbf7d166","system_id":"levelo_inurba_marseille","lat":43.31758,"lon":5.39027,"is_reserved":false,"is_disabled":false,"rental_uris":{"android":"levelo://app?vid=dee5fe67-e62d-465a-89b1-1ce8fbf7d166","ios":"levelo://app?vid=dee5fe67-e62d-465a-89b1-1ce8fbf7d166"},"vehicle_type_id":"4","last_reported":1742900920,"current_range_meters":16400,"station_id":"ce4bhqp2rcd13ifvqhng","pricing_plan_id":"cebpf4jnsgd1na2vs0mg"},{"bike_id":"0e8f3a49-5655-4969-89d3-2f6ec0c2032c","system_id":"levelo_inurba_marseille","lat":43.26121,"lon":5.37504,"is_reserved":false,"is_disabled":false,"rental_uris":{"android":"levelo://app?vid=0e8f3a49-5655-4969-89d3-2f6ec0c2032c","ios":"levelo://app?vid=0e8f3a49-5655-4969-89d3-2f6ec0c2032c"},"vehicle_type_id":"4","last_reported":1742900920,"current_range_meters":16400,"station_id":"","pricing_plan_id":"cebpf4jnsgd1na2vs0mg"},{"bike_id":"c8a1e177-73de-4b43-a9b4-ccd574c0c2dc","system_id":"levelo_inurba_marseille","lat":43.31115,"lon":5.37763,"is_reserved":false,"is_disabled":false,"rental_uris":{"android":"levelo://app?vid=c8a1e177-73de-4b43-a9b4-ccd574c0c2dc","ios":"levelo://app?vid=c8a1e177-73de-4b43-a9b4-ccd574c0c2dc"},"vehicle_type_id":"4","last_reported":1742900920,"current_range_meters":16400,"station_id":"ce4bgt92rcd13ifvqcg0","pricing_plan_id":"cebpf4jnsgd1na2vs0mg"},{"bike_id":"58a5cc3a-eafb-44cf-af75-a70bd12704f3","system_id":"levelo_inurba_marseille","lat":43.30905,"lon":5.36855,"is_reserved":false,"is_disabled":false,"rental_uris":{"android":"levelo://app?vid=58a5cc3a-eafb-44cf-af75-a70bd12704f3","ios":"levelo://app?vid=58a5cc3a-eafb-44cf-af75-a70bd12704f3"},"vehicle_type_id":"4","last_reported":1742900920,"current_range_meters":16400,"station_id":"ce4bgn92rcd13ifvqbvg","pricing_plan_id":"cebpf4jnsgd1na2vs0mg"},{"bike_id":"a64eca05-3523-4ad6-8739-fc5ea1131094","system_id":"levelo_inurba_marseille","lat":43.30963,"lon":5.3905,"is_reserved":false,"is_disabled":true,"rental_uris":{"android":"levelo://app?vid=a64eca05-3523-4ad6-8739-fc5ea1131094","ios":"levelo://app?vid=a64eca05-3523-4ad6-8739-fc5ea1131094"},"vehicle_type_id":"4","last_reported":1742900920,"current_range_meters":16800,"station_id":"ce4bgup2rcd13ifvqco0","pricing_plan_id":"cebpf4jnsgd1na2vs0mg"},{"bike_id":"57a696fa-b94c-41be-9356-3a2a0b58ad02","system_id":"levelo_inurba_marseille","lat":43.32288,"lon":5.3828,"is_reserved":false,"is_disabled":false,"rental_uris":{"android":"levelo://app?vid=57a696fa-b94c-41be-9356-3a2a0b58ad02","ios":"levelo://app?vid=57a696fa-b94c-41be-9356-3a2a0b58ad02"},"vehicle_type_id":"4","last_reported":1742900920,"current_range_meters":16800,"station_id":"ce4bhr12rcd13ifvqhqg","pricing_plan_id":"cebpf4jnsgd1na2vs0mg"},{"bike_id":"3721b4cb-71aa-4e30-b609-90ee53c26d0d","system_id":"levelo_inurba_marseille","lat":43.24061,"lon":5.37717,"is_reserved":false,"is_disabled":false,"rental_uris":{"android":"levelo://app?vid=3721b4cb-71aa-4e30-b609-90ee53c26d0d","ios":"levelo://app?vid=3721b4cb-71aa-4e30-b609-90ee53c26d0d"},"vehicle_type_id":"4","last_reported":1742900920,"current_range_meters":16800,"station_id":"ce4bhnp2rcd13ifvqgvg","pricing_plan_id":"cebpf4jnsgd1na2vs0mg"},{"bike_id":"c541ef1a-225b-4ae1-9d71-6b3636c2d42f","system_id":"levelo_inurba_marseille","lat":43.23173,"lon":5.39942,"is_reserved":false,"is_disabled":false,"rental_uris":{"android":"levelo://app?vid=c541ef1a-225b-4ae1-9d71-6b3636c2d42f","ios":"levelo://app?vid=c541ef1a-225b-4ae1-9d71-6b3636c2d42f"},"vehicle_type_id":"4","last_reported":1742900920,"current_range_meters":16800,"station_id":"","pricing_plan_id":"cebpf4jnsgd1na2vs0mg"},{"bike_id":"ff82bccc-10a6-4644-85e0-34f17a5eba0a","system_id":"levelo_inurba_marseille","lat":43.28936,"lon":5.3665,"is_reserved":false,"is_disabled":false,"rental_uris":{"android":"levelo://app?vid=ff82bccc-10a6-4644-85e0-34f17a5eba0a","ios":"levelo://app?vid=ff82bccc-10a6-4644-85e0-34f17a5eba0a"},"vehicle_type_id":"4","last_reported":1742900920,"current_range_meters":16800,"station_id":"ce4bhap2rcd13ifvqek0","pricing_plan_id":"cebpf4jnsgd1na2vs0mg"},{"bike_id":"2349ea78-e5ff-44c1-8a9d-5755df83b4b0","system_id":"levelo_inurba_marseille","lat":43.28132,"lon":5.42702,"is_reserved":false,"is_disabled":false,"rental_uris":{"android":"levelo://app?vid=2349ea78-e5ff-44c1-8a9d-5755df83b4b0","ios":"levelo://app?vid=2349ea78-e5ff-44c1-8a9d-5755df83b4b0"},"vehicle_type_id":"4","last_reported":1742900920,"current_range_meters":16800,"station_id":"","pricing_plan_id":"cebpf4jnsgd1na2vs0mg"},{"bike_id":"1bfb707a-47e2-41d5-beaa-11dd438698a9","system_id":"levelo_inurba_marseille","lat":43.24179,"lon":5.39733,"is_reserved":false,"is_disabled":false,"rental_uris":{"android":"levelo://app?vid=1bfb707a-47e2-41d5-beaa-11dd438698a9","ios":"levelo://app?vid=1bfb707a-47e2-41d5-beaa-11dd438698a9"},"vehicle_type_id":"4","last_reported":1742900920,"current_range_meters":16800,"station_id":"ce4bhn12rcd13ifvqgpg","pricing_plan_id":"cebpf4jnsgd1na2vs0mg"},{"bike_id":"3e4ce8fc-d1a8-47e5-8b1e-c64006bac375","system_id":"levelo_inurba_marseille","lat":43.31085,"lon":5.42436,"is_reserved":false,"is_disabled":false,"rental_uris":{"android":"levelo://app?vid=3e4ce8fc-d1a8-47e5-8b1e-c64006bac375","ios":"levelo://app?vid=3e4ce8fc-d1a8-47e5-8b1e-c64006bac375"},"vehicle_type_id":"4","last_reported":1742900920,"current_range_meters":16800,"station_id":"ce4bhp92rcd13ifvqhag","pricing_plan_id":"cebpf4jnsgd1na2vs0mg"},{"bike_id":"9c23b3c2-c990-4dbf-aa18-6e694601de23","system_id":"levelo_inurba_marseille","lat":43.304206,"lon":5.412957,"is_reserved":false,"is_disabled":true,"rental_uris":{"android":"levelo://app?vid=9c23b3c2-c990-4dbf-aa18-6e694601de23","ios":"levelo://app?vid=9c23b3c2-c990-4dbf-aa18-6e694601de23"},"vehicle_type_id":"4","last_reported":1742900920,"current_range_meters":17200,"station_id":"ce4bhop2rcd13ifvqh8g","pricing_plan_id":"cebpf4jnsgd1na2vs0mg"},{"bike_id":"3bde2974-afd7-41e3-b055-4558bdf6f248","system_id":"levelo_inurba_marseille","lat":43.28931,"lon":5.36648,"is_reserved":false,"is_disabled":false,"rental_uris":{"android":"levelo://app?vid=3bde2974-afd7-41e3-b055-4558bdf6f248","ios":"levelo://app?vid=3bde2974-afd7-41e3-b055-4558bdf6f248"},"vehicle_type_id":"4","last_reported":1742900920,"current_range_meters":17200,"station_id":"ce4bhap2rcd13ifvqek0","pricing_plan_id":"cebpf4jnsgd1na2vs0mg"},{"bike_id":"046f982b-769b-4f96-b14f-4e8ec294fd36","system_id":"levelo_inurba_marseille","lat":43.24539,"lon":5.39522,"is_reserved":false,"is_disabled":false,"rental_uris":{"android":"levelo://app?vid=046f982b-769b-4f96-b14f-4e8ec294fd36","ios":"levelo://app?vid=046f982b-769b-4f96-b14f-4e8ec294fd36"},"vehicle_type_id":"4","last_reported":1742900920,"current_range_meters":17200,"station_id":"ce4bhlp2rcd13ifvqgjg","pricing_plan_id":"cebpf4jnsgd1na2vs0mg"},{"bike_id":"2977ef85-d964-435f-842a-da416d5aa7e7","system_id":"levelo_inurba_marseille","lat":43.30134,"lon":5.37422,"is_reserved":false,"is_disabled":false,"rental_uris":{"android":"levelo://app?vid=2977ef85-d964-435f-842a-da416d5aa7e7","ios":"levelo://app?vid=2977ef85-d964-435f-842a-da416d5aa7e7"},"vehicle_type_id":"4","last_reported":1742900920,"current_range_meters":17200,"station_id":"ce4bgs92rcd13ifvqcc0","pricing_plan_id":"cebpf4jnsgd1na2vs0mg"},{"bike_id":"898c4e21-725a-4835-a03f-e159dd0090c3","system_id":"levelo_inurba_marseille","lat":43.2927,"lon":5.36861,"is_reserved":false,"is_disabled":true,"rental_uris":{"android":"levelo://app?vid=898c4e21-725a-4835-a03f-e159dd0090c3","ios":"levelo://app?vid=898c4e21-725a-4835-a03f-e159dd0090c3"},"vehicle_type_id":"4","last_reported":1742900920,"current_range_meters":17200,"station_id":"ce4bhbp2rcd13ifvqesg","pricing_plan_id":"cebpf4jnsgd1na2vs0mg"},{"bike_id":"fdb545a4-587d-4e26-8333-a781f54cc7b0","system_id":"levelo_inurba_marseille","lat":43.30916,"lon":5.36842,"is_reserved":false,"is_disabled":false,"rental_uris":{"android":"levelo://app?vid=fdb545a4-587d-4e26-8333-a781f54cc7b0","ios":"levelo://app?vid=fdb545a4-587d-4e26-8333-a781f54cc7b0"},"vehicle_type_id":"4","last_reported":1742900920,"current_range_meters":17200,"station_id":"ce4bgn92rcd13ifvqbvg","pricing_plan_id":"cebpf4jnsgd1na2vs0mg"},{"bike_id":"d8983e51-5663-47e8-90db-b66c429aea06","system_id":"levelo_inurba_marseille","lat":43.30128,"lon":5.39885,"is_reserved":false,"is_disabled":false,"rental_uris":{"android":"levelo://app?vid=d8983e51-5663-47e8-90db-b66c429aea06","ios":"levelo://app?vid=d8983e51-5663-47e8-90db-b66c429aea06"},"vehicle_type_id":"4","last_reported":1742900920,"current_range_meters":17200,"station_id":"ce4bh0h2rcd13ifvqd40","pricing_plan_id":"cebpf4jnsgd1na2vs0mg"},{"bike_id":"64b3a60a-b10f-4cae-ac5f-cd772cf83593","system_id":"levelo_inurba_marseille","lat":43.25932,"lon":5.40897,"is_reserved":false,"is_disabled":false,"rental_uris":{"android":"levelo://app?vid=64b3a60a-b10f-4cae-ac5f-cd772cf83593","ios":"levelo://app?vid=64b3a60a-b10f-4cae-ac5f-cd772cf83593"},"vehicle_type_id":"4","last_reported":1742900920,"current_range_meters":17200,"station_id":"ce4bhm92rcd13ifvqglg","pricing_plan_id":"cebpf4jnsgd1na2vs0mg"},{"bike_id":"56586a75-9919-40fe-9025-2a8232ec3238","system_id":"levelo_inurba_marseille","lat":43.29552,"lon":5.42295,"is_reserved":false,"is_disabled":false,"rental_uris":{"android":"levelo://app?vid=56586a75-9919-40fe-9025-2a8232ec3238","ios":"levelo://app?vid=56586a75-9919-40fe-9025-2a8232ec3238"},"vehicle_type_id":"4","last_reported":1742900920,"current_range_meters":17200,"station_id":"ce4bhph2rcd13ifvqhdg","pricing_plan_id":"cebpf4jnsgd1na2vs0mg"},{"bike_id":"1f8eb693-fa65-437d-a974-6f47973f68d7","system_id":"levelo_inurba_marseille","lat":43.25914,"lon":5.40874,"is_reserved":false,"is_disabled":false,"rental_uris":{"android":"levelo://app?vid=1f8eb693-fa65-437d-a974-6f47973f68d7","ios":"levelo://app?vid=1f8eb693-fa65-437d-a974-6f47973f68d7"},"vehicle_type_id":"4","last_reported":1742900920,"current_range_meters":17200,"station_id":"ce4bhm92rcd13ifvqglg","pricing_plan_id":"cebpf4jnsgd1na2vs0mg"},{"bike_id":"a0988ee5-6315-49eb-afc7-cc7f612369b3","system_id":"levelo_inurba_marseille","lat":43.26955,"lon":5.3863,"is_reserved":false,"is_disabled":false,"rental_uris":{"android":"levelo://app?vid=a0988ee5-6315-49eb-afc7-cc7f612369b3","ios":"levelo://app?vid=a0988ee5-6315-49eb-afc7-cc7f612369b3"},"vehicle_type_id":"4","last_reported":1742900920,"current_range_meters":17200,"station_id":"ce4bhh92rcd13ifvqfh0","pricing_plan_id":"cebpf4jnsgd1na2vs0mg"},{"bike_id":"0d1d247c-8cc2-44c4-8c79-b5be401da8a7","system_id":"levelo_inurba_marseille","lat":43.2707,"lon":5.42277,"is_reserved":false,"is_disabled":false,"rental_uris":{"android":"levelo://app?vid=0d1d247c-8cc2-44c4-8c79-b5be401da8a7","ios":"levelo://app?vid=0d1d247c-8cc2-44c4-8c79-b5be401da8a7"},"vehicle_type_id":"4","last_reported":1742900920,"current_range_meters":17200,"station_id":"ce4bhk92rcd13ifvqgb0","pricing_plan_id":"cebpf4jnsgd1na2vs0mg"},{"bike_id":"9605c692-1761-4d4c-b419-4c7e74b4b411","system_id":"levelo_inurba_marseille","lat":43.27934,"lon":5.41046,"is_reserved":false,"is_disabled":false,"rental_uris":{"android":"levelo://app?vid=9605c692-1761-4d4c-b419-4c7e74b4b411","ios":"levelo://app?vid=9605c692-1761-4d4c-b419-4c7e74b4b411"},"vehicle_type_id":"4","last_reported":1742900920,"current_range_meters":17200,"station_id":"ce4bhnp2rcd13ifvqh0g","pricing_plan_id":"cebpf4jnsgd1na2vs0mg"},{"bike_id":"cbd73c7c-0f51-4e44-a559-4814faf49b03","system_id":"levelo_inurba_marseille","lat":43.24181,"lon":5.39717,"is_reserved":false,"is_disabled":false,"rental_uris":{"android":"levelo://app?vid=cbd73c7c-0f51-4e44-a559-4814faf49b03","ios":"levelo://app?vid=cbd73c7c-0f51-4e44-a559-4814faf49b03"},