{"last_updated":1727097509,"ttl":30,"version":"2.2","data":{"bikes":[{"bike_id":"2390c6ea-128f-4a43-813b-42ca85d21a18","system_id":"levelo_inurba_marseille","lat":43.29006,"lon":5.35606,"is_reserved":false,"is_disabled":false,"rental_uris":{"android":"levelo://app?vid=2390c6ea-128f-4a43-813b-42ca85d21a18","ios":"levelo://app?vid=2390c6ea-128f-4a43-813b-42ca85d21a18"},"vehicle_type_id":"4","last_reported":1727097509,"current_range_meters":6800,"station_id":"ce4bhb92rcd13ifvqen0","pricing_plan_id":"cebpf4jnsgd1na2vs0mg"},{"bike_id":"df7767e0-cc98-4237-9d87-3ad00d1f130b","system_id":"levelo_inurba_marseille","lat":43.31489,"lon":5.37298,"is_reserved":false,"is_disabled":false,"rental_uris":{"android":"levelo://app?vid=df7767e0-cc98-4237-9d87-3ad00d1f130b","ios":"levelo://app?vid=df7767e0-cc98-4237-9d87-3ad00d1f130b"},"vehicle_type_id":"4","last_reported":1727097509,"current_range_meters":28000,"station_id":"ce4bgt12rcd13ifvqcd0","pricing_plan_id":"cebpf4jnsgd1na2vs0mg"},{"bike_id":"c675adb9-4676-4014-8c2b-027c9e7e7f36","system_id":"levelo_inurba_marseille","lat":43.27325,"lon":5.39085,"is_reserved":false,"is_disabled":false,"rental_uris":{"android":"levelo://app?vid=c675adb9-4676-4014-8c2b-027c9e7e7f36","ios":"levelo://app?vid=c675adb9-4676-4014-8c2b-027c9e7e7f36"},"vehicle_type_id":"4","last_reported":1727097509,"current_range_meters":31200,"station_id":"ce4bhgp2rcd13ifvqfe0","pricing_plan_id":"cebpf4jnsgd1na2vs0mg"},{"bike_id":"16b5379b-2948-43c0-812f-c359eab15e56","system_id":"levelo_inurba_marseille","lat":43.3266,"lon":5.40994,"is_reserved":false,"is_disabled":false,"rental_uris":{"android":"levelo://app?vid=16b5379b-2948-43c0-812f-c359eab15e56","ios":"levelo://app?vid=16b5379b-2948-43c0-812f-c359eab15e56"},"vehicle_type_id":"4","last_reported":1727097509,"current_range_meters":38800,"station_id":"ce4bhpp2rcd13ifvqhgg","pricing_plan_id":"cebpf4jnsgd1na2vs0mg"},{"bike_id":"44e561a1-b9d1-4802-83a3-8a00e98253a3","system_id":"levelo_inurba_marseille","lat":43.30216,"lon":5.39475,"is_reserved":false,"is_disabled":false,"rental_uris":{"android":"levelo://app?vid=44e561a1-b9d1-4802-83a3-8a00e98253a3","ios":"levelo://app?vid=44e561a1-b9d1-4802-83a3-8a00e98253a3"},"vehicle_type_id":"4","last_reported":1727097509,"current_range_meters":37600,"station_id":"ce4bh0p2rcd13ifvqd70","pricing_plan_id":"cebpf4jnsgd1na2vs0mg"},{"bike_id":"3b656c4c-0157-4a44-9b1b-93c0481a2ce6","system_id":"levelo_inurba_marseille","lat":43.28454,"lon":5.35888,"is_reserved":false,"is_disabled":false,"rental_uris":{"android":"levelo://app?vid=3b656c4c-0157-4a44-9b1b-93c0481a2ce6","ios":"levelo://app?vid=3b656c4c-0157-4a44-9b1b-93c0481a2ce6"},"vehicle_type_id":"4","last_reported":1727097509,"current_range_meters":28000,"station_id":"ce4bhah2rcd13ifvqei0","pricing_plan_id":"cebpf4jnsgd1na2vs0mg"},{"bike_id":"c08b357b-8782-4b03-9ce1-0341d8e1d7b6","system_id":"levelo_inurba_marseille","lat":43.27173,"lon":5.40998,"is_reserved":false,"is_disabled":false,"rental_uris":{"android":"levelo://app?vid=c08b357b-8782-4b03-9ce1-0341d8e1d7b6","ios":"levelo://app?vid=c08b357b-8782-4b03-9ce1-0341d8e1d7b6"},"vehicle_type_id":"4","last_reported":1727097509,"current_range_meters":32400,"station_id":"ce4bhl12rcd13ifvqgf0","pricing_plan_id":"cebpf4jnsgd1na2vs0mg"},{"bike_id":"3110f79b-3de2-48d9-8928-15ecd9050df5","system_id":"levelo_inurba_marseille","lat":43.337444,"lon":5.374475,"is_reserved":false,"is_disabled":false,"rental_uris":{"android":"levelo://app?vid=3110f79b-3de2-48d9-8928-15ecd9050df5","ios":"levelo://app?vid=3110f79b-3de2-48d9-8928-15ecd9050df5"},"vehicle_type_id":"4","last_reported":1727097509,"current_range_meters":39200,"station_id":"ce4bhop2rcd13ifvqh7g","pricing_plan_id":"cebpf4jnsgd1na2vs0mg"},{"bike_id":"ea4ac0f6-392e-49fd-95e2-1267211ff93f","system_id":"levelo_inurba_marseille","lat":43.27967,"lon":5.38745,"is_reserved":false,"is_disabled":false,"rental_uris":{"android":"levelo://app?vid=ea4ac0f6-392e-49fd-95e2-1267211ff93f","ios":"levelo://app?vid=ea4ac0f6-392e-49fd-95e2-1267211ff93f"},"vehicle_type_id":"4","last_reported":1727097509,"current_range_meters":10800,"station_id":"ce4bhg12rcd13ifvqf80","pricing_plan_id":"cebpf4jnsgd1na2vs0mg"},{"bike_id":"d5eb0b04-bc07-43d9-8ab6-56616e30eadb","system_id":"levelo_inurba_marseille","lat":43.30203,"lon":5.39457,"is_reserved":false,"is_disabled":false,"rental_uris":{"android":"levelo://app?vid=d5eb0b04-bc07-43d9-8ab6-56616e30eadb","ios":"levelo://app?vid=d5eb0b04-bc07-43d9-8ab6-56616e30eadb"},"vehicle_type_id":"4","last_reported":1727097509,"current_range_meters":37600,"station_id":"ce4bh0p2rcd13ifvqd70","pricing_plan_id":"cebpf4jnsgd1na2vs0mg"},{"bike_id":"dfecea0a-0422-4bc0-a57a-bf86bc071c86","system_id":"levelo_inurba_marseille","lat":43.25933,"lon":5.40908,"is_reserved":false,"is_disabled":false,"rental_uris":{"android":"levelo://app?vid=dfecea0a-0422-4bc0-a57a-bf86bc071c86","ios":"levelo://app?vid=dfecea0a-0422-4bc0-a57a-bf86bc071c86"},"vehicle_type_id":"4","last_reported":1727097509,"current_range_meters":24800,"station_id":"ce4bhm92rcd13ifvqglg","pricing_plan_id":"cebpf4jnsgd1na2vs0mg"},{"bike_id":"18ec8830-6b01-48f2-a7d7-2188544ece93","system_id":"levelo_inurba_marseille","lat":43.29825,"lon":5.38095,"is_reserved":false,"is_disabled":false,"rental_uris":{"android":"levelo://app?vid=18ec8830-6b01-48f2-a7d7-2188544ece93","ios":"levelo://app?vid=18ec8830-6b01-48f2-a7d7-2188544ece93"},"vehicle_type_id":"4","last_reported":1727097509,"current_range_meters":34000,"station_id":"","pricing_plan_id":"cebpf4jnsgd1na2vs0mg"},{"bike_id":"9e491187-6eae-4713-bd6c-e99251300247","system_id":"levelo_inurba_marseille","lat":43.2594,"lon":5.40901,"is_reserved":false,"is_disabled":false,"rental_uris":{"android":"levelo://app?vid=9e491187-6eae-4713-bd6c-e99251300247","ios":"levelo://app?vid=9e491187-6eae-4713-bd6c-e99251300247"},"vehicle_type_id":"4","last_reported":1727097509,"current_range_meters":28400,"station_id":"ce4bhm92rcd13ifvqglg","pricing_plan_id":"cebpf4jnsgd1na2vs0mg"},{"bike_id":"20a042f1-81aa-4cde-8548-4f002e395336","system_id":"levelo_inurba_marseille","lat":43.30197,"lon":5.39821,"is_reserved":false,"is_disabled":false,"rental_uris":{"android":"levelo://app?vid=20a042f1-81aa-4cde-8548-4f002e395336","ios":"levelo://app?vid=20a042f1-81aa-4cde-8548-4f002e395336"},"vehicle_type_id":"4","last_reported":1727097509,"current_range_meters":30400,"station_id":"ce4bgvp2rcd13ifvqct0","pricing_plan_id":"cebpf4jnsgd1na2vs0mg"},{"bike_id":"dc398505-6983-4a61-af49-e9e3eed0c864","system_id":"levelo_inurba_marseille","lat":43.30901,"lon":5.37181,"is_reserved":false,"is_disabled":false,"rental_uris":{"android":"levelo://app?vid=dc398505-6983-4a61-af49-e9e3eed0c864","ios":"levelo://app?vid=dc398505-6983-4a61-af49-e9e3eed0c864"},"vehicle_type_id":"4","last_reported":1727097509,"current_range_meters":14000,"station_id":"ce4bguh2rcd13ifvqckg","pricing_plan_id":"cebpf4jnsgd1na2vs0mg"},{"bike_id":"8caa57b5-327a-46e9-9e2b-d0d662b2674f","system_id":"levelo_inurba_marseille","lat":43.257187,"lon":5.411133,"is_reserved":false,"is_disabled":false,"rental_uris":{"android":"levelo://app?vid=8caa57b5-327a-46e9-9e2b-d0d662b2674f","ios":"levelo://app?vid=8caa57b5-327a-46e9-9e2b-d0d662b2674f"},"vehicle_type_id":"4","last_reported":1727097509,"current_range_meters":17600,"station_id":"ce4bhkp2rcd13ifvqgd0","pricing_plan_id":"cebpf4jnsgd1na2vs0mg"},{"bike_id":"e530e72e-eaad-4199-b9f2-a9441e40bfa6","system_id":"levelo_inurba_marseille","lat":43.2866,"lon":5.36362,"is_reserved":false,"is_disabled":false,"rental_uris":{"android":"levelo://app?vid=e530e72e-eaad-4199-b9f2-a9441e40bfa6","ios":"levelo://app?vid=e530e72e-eaad-4199-b9f2-a9441e40bfa6"},"vehicle_type_id":"4","last_reported":1727097509,"current_range_meters":38000,"station_id":"ce4bhah2rcd13ifvqej0","pricing_plan_id":"cebpf4jnsgd1na2vs0mg"},{"bike_id":"3d192633-044a-4cb5-934c-f0a9047dbc7d","system_id":"levelo_inurba_marseille","lat":43.27504,"lon":5.42452,"is_reserved":false,"is_disabled":false,"rental_uris":{"android":"levelo://app?vid=3d192633-044a-4cb5-934c-f0a9047dbc7d","ios":"levelo://app?vid=3d192633-044a-4cb5-934c-f0a9047dbc7d"},"vehicle_type_id":"4","last_reported":1727097509,"current_range_meters":7200,"station_id":"ce4bhn92rcd13ifvqgrg","pricing_plan_id":"cebpf4jnsgd1na2vs0mg"},{"bike_id":"f24c4d1a-598f-443a-afcb-0fa3525299ef","system_id":"levelo_inurba_marseille","lat":43.26955,"lon":5.38624,"is_reserved":false,"is_disabled":false,"rental_uris":{"android":"levelo://app?vid=f24c4d1a-598f-443a-afcb-0fa3525299ef","ios":"levelo://app?vid=f24c4d1a-598f-443a-afcb-0fa3525299ef"},"vehicle_type_id":"4","last_reported":1727097509,"current_range_meters":30000,"station_id":"ce4bhh92rcd13ifvqfh0","pricing_plan_id":"cebpf4jnsgd1na2vs0mg"},{"bike_id":"97dc549c-66f7-45d1-ac91-d851ce1f3cf2","system_id":"levelo_inurba_marseille","lat":43.26213,"lon":5.37438,"is_reserved":false,"is_disabled":false,"rental_uris":{"android":"levelo://app?vid=97dc549c-66f7-45d1-ac91-d851ce1f3cf2","ios":"levelo://app?vid=97dc549c-66f7-45d1-ac91-d851ce1f3cf2"},"vehicle_type_id":"4","last_reported":1727097509,"current_range_meters":7200,"station_id":"ce4bhgp2rcd13ifvqfc0","pricing_plan_id":"cebpf4jnsgd1na2vs0mg"},{"bike_id":"f7adb0ea-e195-40b9-9d71-9b4f032c7ddb","system_id":"levelo_inurba_marseille","lat":43.23151,"lon":5.43707,"is_reserved":false,"is_disabled":false,"rental_uris":{"android":"levelo://app?vid=f7adb0ea-e195-40b9-9d71-9b4f032c7ddb","ios":"levelo://app?vid=f7adb0ea-e195-40b9-9d71-9b4f032c7ddb"},"vehicle_type_id":"4","last_reported":1727097509,"current_range_meters":38000,"station_id":"ce4bhmp2rcd13ifvqgog","pricing_plan_id":"cebpf4jnsgd1na2vs0mg"},{"bike_id":"d807ad9d-58d0-427c-8d84-4f142777dc28","system_id":"levelo_inurba_marseille","lat":43.27491,"lon":5.42459,"is_reserved":false,"is_disabled":false,"rental_uris":{"android":"levelo://app?vid=d807ad9d-58d0-427c-8d84-4f142777dc28","ios":"levelo://app?vid=d807ad9d-58d0-427c-8d84-4f142777dc28"},"vehicle_type_id":"4","last_reported":1727097509,"current_range_meters":4800,"station_id":"ce4bhn92rcd13ifvqgrg","pricing_plan_id":"cebpf4jnsgd1na2vs0mg"},{"bike_id":"80eca223-4a73-4a65-a903-bcf7afbbc7bd","system_id":"levelo_inurba_marseille","lat":43.23151,"lon":5.43709,"is_reserved":false,"is_disabled":false,"rental_uris":{"android":"levelo://app?vid=80eca223-4a73-4a65-a903-bcf7afbbc7bd","ios":"levelo://app?vid=80eca223-4a73-4a65-a903-bcf7afbbc7bd"},"vehicle_type_id":"4","last_reported":1727097509,"current_range_meters":38800,"station_id":"ce4bhmp2rcd13ifvqgog","pricing_plan_id":"cebpf4jnsgd1na2vs0mg"},{"bike_id":"1f1f13cc-72ab-45bc-92d5-7872d5d302ee","system_id":"levelo_inurba_marseille","lat":43.337583,"lon":5.374568,"is_reserved":false,"is_disabled":false,"rental_uris":{"android":"levelo://app?vid=1f1f13cc-72ab-45bc-92d5-7872d5d302ee","ios":"levelo://app?vid=1f1f13cc-72ab-45bc-92d5-7872d5d302ee"},"vehicle_type_id":"4","last_reported":1727097509,"current_range_meters":34000,"station_id":"","pricing_plan_id":"cebpf4jnsgd1na2vs0mg"},{"bike_id":"4117225d-fbf7-489f-a9f9-a7903758f15d","system_id":"levelo_inurba_marseille","lat":43.337444,"lon":5.374475,"is_reserved":false,"is_disabled":false,"rental_uris":{"android":"levelo://app?vid=4117225d-fbf7-489f-a9f9-a7903758f15d","ios":"levelo://app?vid=4117225d-fbf7-489f-a9f9-a7903758f15d"},"vehicle_type_id":"4","last_reported":1727097509,"current_range_meters":26000,"station_id":"","pricing_plan_id":"cebpf4jnsgd1na2vs0mg"},{"bike_id":"96bba420-4282-4fe4-894f-bc1c72461062","system_id":"levelo_inurba_marseille","lat":43.31752,"lon":5.39013,"is_reserved":false,"is_disabled":false,"rental_uris":{"android":"levelo://app?vid=96bba420-4282-4fe4-894f-bc1c72461062","ios":"levelo://app?vid=96bba420-4282-4fe4-894f-bc1c72461062"},"vehicle_type_id":"4","last_reported":1727097509,"current_range_meters":24800,"station_id":"ce4bhqp2rcd13ifvqhng","pricing_plan_id":"cebpf4jnsgd1na2vs0mg"},{"bike_id":"5dcc3442-7ff9-4a7f-9efc-ef31a88f0810","system_id":"levelo_inurba_marseille","lat":43.30275,"lon":5.4013,"is_reserved":false,"is_disabled":false,"rental_uris":{"android":"levelo://app?vid=5dcc3442-7ff9-4a7f-9efc-ef31a88f0810","ios":"levelo://app?vid=5dcc3442-7ff9-4a7f-9efc-ef31a88f0810"},"vehicle_type_id":"4","last_reported":1727097509,"current_range_meters":35600,"station_id":"ce4bh392rcd13ifvqdl0","pricing_plan_id":"cebpf4jnsgd1na2vs0mg"},{"bike_id":"fb393e0c-478d-4b6e-9798-120a64d86fcc","system_id":"levelo_inurba_marseille","lat":43.24176,"lon":5.364,"is_reserved":false,"is_disabled":false,"rental_uris":{"android":"levelo://app?vid=fb393e0c-478d-4b6e-9798-120a64d86fcc","ios":"levelo://app?vid=fb393e0c-478d-4b6e-9798-120a64d86fcc"},"vehicle_type_id":"4","last_reported":1727097509,"current_range_meters":36800,"station_id":"cpo36qri1sfpv3e86is0","pricing_plan_id":"cebpf4jnsgd1na2vs0mg"},{"bike_id":"685bc964-56df-43c5-84a4-6b3023273951","system_id":"levelo_inurba_marseille","lat":43.29637,"lon":5.40595,"is_reserved":false,"is_disabled":false,"rental_uris":{"android":"levelo://app?vid=685bc964-56df-43c5-84a4-6b3023273951","ios":"levelo://app?vid=685bc964-56df-43c5-84a4-6b3023273951"},"vehicle_type_id":"4","last_reported":1727097509,"current_range_meters":29600,"station_id":"ce4bh0h2rcd13ifvqd60","pricing_plan_id":"cebpf4jnsgd1na2vs0mg"},{"bike_id":"bb5ae66c-4144-423b-a10e-dff9a425ecd4","system_id":"levelo_inurba_marseille","lat":43.337444,"lon":5.374475,"is_reserved":false,"is_disabled":false,"rental_uris":{"android":"levelo://app?vid=bb5ae66c-4144-423b-a10e-dff9a425ecd4","ios":"levelo://app?vid=bb5ae66c-4144-423b-a10e-dff9a425ecd4"},"vehicle_type_id":"4","last_reported":1727097509,"current_range_meters":38800,"station_id":"ce4bhp12rcd13ifvqh9g","pricing_plan_id":"cebpf4jnsgd1na2vs0mg"},{"bike_id":"2fc34bba-a2b4-4632-bf54-64bcff937e6e","system_id":"levelo_inurba_marseille","lat":43.32487,"lon":5.36555,"is_reserved":false,"is_disabled":false,"rental_uris":{"android":"levelo://app?vid=2fc34bba-a2b4-4632-bf54-64bcff937e6e","ios":"levelo://app?vid=2fc34bba-a2b4-4632-bf54-64bcff937e6e"},"vehicle_type_id":"4","last_reported":1727097509,"current_range_meters":32800,"station_id":"ce4bhs12rcd13ifvqhvg","pricing_plan_id":"cebpf4jnsgd1na2vs0mg"},{"bike_id":"d02269f0-3bdf-410a-913c-0817b08c438c","system_id":"levelo_inurba_marseille","lat":43.26938,"lon":5.38917,"is_reserved":false,"is_disabled":false,"rental_uris":{"android":"levelo://app?vid=d02269f0-3bdf-410a-913c-0817b08c438c","ios":"levelo://app?vid=d02269f0-3bdf-410a-913c-0817b08c438c"},"vehicle_type_id":"4","last_reported":1727097509,"current_range_meters":25600,"station_id":"ce4bhhh2rcd13ifvqfl0","pricing_plan_id":"cebpf4jnsgd1na2vs0mg"},{"bike_id":"871791f5-4996-49ed-959c-fec73316daea","system_id":"levelo_inurba_marseille","lat":43.29036,"lon":5.39964,"is_reserved":false,"is_disabled":false,"rental_uris":{"android":"levelo://app?vid=871791f5-4996-49ed-959c-fec73316daea","ios":"levelo://app?vid=871791f5-4996-49ed-959c-fec73316daea"},"vehicle_type_id":"4","last_reported":1727097509,"current_range_meters":14400,"station_id":"ce4bh392rcd13ifvqdm0","pricing_plan_id":"cebpf4jnsgd1na2vs0mg"},{"bike_id":"eb538566-03d2-46d3-83a8-2d4cbde7414c","system_id":"levelo_inurba_marseille","lat":43.31172,"lon":5.38706,"is_reserved":false,"is_disabled":false,"rental_uris":{"android":"levelo://app?vid=eb538566-03d2-46d3-83a8-2d4cbde7414c","ios":"levelo://app?vid=eb538566-03d2-46d3-83a8-2d4cbde7414c"},"vehicle_type_id":"4","last_reported":1727097509,"current_range_meters":7200,"station_id":"ce4bgv12rcd13ifvqcp0","pricing_plan_id":"cebpf4jnsgd1na2vs0mg"},{"bike_id":"a0edd235-9112-4738-ae17-f58c690ab2f4","system_id":"levelo_inurba_marseille","lat":43.32492,"lon":5.36555,"is_reserved":false,"is_disabled":false,"rental_uris":{"android":"levelo://app?vid=a0edd235-9112-4738-ae17-f58c690ab2f4","ios":"levelo://app?vid=a0edd235-9112-4738-ae17-f58c690ab2f4"},"vehicle_type_id":"4","last_reported":1727097509,"current_range_meters":39200,"station_id":"ce4bhs12rcd13ifvqhvg","pricing_plan_id":"cebpf4jnsgd1na2vs0mg"},{"bike_id":"92ac5fd4-73ae-4afa-81dd-7a7709b3d49a","system_id":"levelo_inurba_marseille","lat":43.3117,"lon":5.38714,"is_reserved":false,"is_disabled":false,"rental_uris":{"android":"levelo://app?vid=92ac5fd4-73ae-4afa-81dd-7a7709b3d49a","ios":"levelo://app?vid=92ac5fd4-73ae-4afa-81dd-7a7709b3d49a"},"vehicle_type_id":"4","last_reported":1727097509,"current_range_meters":26000,"station_id":"ce4bgv12rcd13ifvqcp0","pricing_plan_id":"cebpf4jnsgd1na2vs0mg"},{"bike_id":"3c079497-4f0f-4dd3-8bef-c3f7cdf08ea0","system_id":"levelo_inurba_marseille","lat":43.24075,"lon":5.37753,"is_reserved":false,"is_disabled":false,"rental_uris":{"android":"levelo://app?vid=3c079497-4f0f-4dd3-8bef-c3f7cdf08ea0","ios":"levelo://app?vid=3c079497-4f0f-4dd3-8bef-c3f7cdf08ea0"},"vehicle_type_id":"4","last_reported":1727097509,"current_range_meters":36800,"station_id":"ce4bhnp2rcd13ifvqgvg","pricing_plan_id":"cebpf4jnsgd1na2vs0mg"},{"bike_id":"eb854808-7c92-46c5-957f-652344786cca","system_id":"levelo_inurba_marseille","lat":43.24177,"lon":5.39728,"is_reserved":false,"is_disabled":false,"rental_uris":{"android":"levelo://app?vid=eb854808-7c92-46c5-957f-652344786cca","ios":"levelo://app?vid=eb854808-7c92-46c5-957f-652344786cca"},"vehicle_type_id":"4","last_reported":1727097509,"current_range_meters":11600,"station_id":"ce4bhn12rcd13ifvqgpg","pricing_plan_id":"cebpf4jnsgd1na2vs0mg"},{"bike_id":"860c8e9d-4001-4aaa-b1f1-ab02b2cccfa4","system_id":"levelo_inurba_marseille","lat":43.32494,"lon":5.36563,"is_reserved":false,"is_disabled":false,"rental_uris":{"android":"levelo://app?vid=860c8e9d-4001-4aaa-b1f1-ab02b2cccfa4","ios":"levelo://app?vid=860c8e9d-4001-4aaa-b1f1-ab02b2cccfa4"},"vehicle_type_id":"4","last_reported":1727097509,"current_range_meters":25200,"station_id":"ce4bhs12rcd13ifvqhvg","pricing_plan_id":"cebpf4jnsgd1na2vs0mg"},{"bike_id":"11658d4c-2567-4b0f-8e71-8ec83d6896ed","system_id":"levelo_inurba_marseille","lat":43.30533,"lon":5.3653,"is_reserved":false,"is_disabled":false,"rental_uris":{"android":"levelo://app?vid=11658d4c-2567-4b0f-8e71-8ec83d6896ed","ios":"levelo://app?vid=11658d4c-2567-4b0f-8e71-8ec83d6896ed"},"vehicle_type_id":"4","last_reported":1727097509,"current_range_meters":39200,"station_id":"ce4bgs12rcd13ifvqcag","pricing_plan_id":"cebpf4jnsgd1na2vs0mg"},{"bike_id":"84daa11a-5876-4f90-8c91-9e2c87df8f28","system_id":"levelo_inurba_marseille","lat":43.28154,"lon":5.42645,"is_reserved":false,"is_disabled":false,"rental_uris":{"android":"levelo://app?vid=84daa11a-5876-4f90-8c91-9e2c87df8f28","ios":"levelo://app?vid=84daa11a-5876-4f90-8c91-9e2c87df8f28"},"vehicle_type_id":"4","last_reported":1727097509,"current_range_meters":8400,"station_id":"ce4bhnh2rcd13ifvqgug","pricing_plan_id":"cebpf4jnsgd1na2vs0mg"},{"bike_id":"9454cd7f-44cf-48b3-b1e0-aeeb43be71ee","system_id":"levelo_inurba_marseille","lat":43.287018,"lon":5.373833,"is_reserved":false,"is_disabled":false,"rental_uris":{"android":"levelo://app?vid=9454cd7f-44cf-48b3-b1e0-aeeb43be71ee","ios":"levelo://app?vid=9454cd7f-44cf-48b3-b1e0-aeeb43be71ee"},"vehicle_type_id":"4","last_reported":1727097509,"current_range_meters":24400,"station_id":"ce4bh3p2rcd13ifvqdq0","pricing_plan_id":"cebpf4jnsgd1na2vs0mg"},{"bike_id":"3ebaaaec-15d2-494c-ab9e-13e8bcbe1874","system_id":"levelo_inurba_marseille","lat":43.29276,"lon":5.3686,"is_reserved":false,"is_disabled":false,"rental_uris":{"android":"levelo://app?vid=3ebaaaec-15d2-494c-ab9e-13e8bcbe1874","ios":"levelo://app?vid=3ebaaaec-15d2-494c-ab9e-13e8bcbe1874"},"vehicle_type_id":"4","last_reported":1727097509,"current_range_meters":30400,"station_id":"ce4bhbp2rcd13ifvqesg","pricing_plan_id":"cebpf4jnsgd1na2vs0mg"},{"bike_id":"624e3f94-9568-469c-ab6c-878c70b3a213","system_id":"levelo_inurba_marseille","lat":43.31493,"lon":5.37297,"is_reserved":false,"is_disabled":false,"rental_uris":{"android":"levelo://app?vid=624e3f94-9568-469c-ab6c-878c70b3a213","ios":"levelo://app?vid=624e3f94-9568-469c-ab6c-878c70b3a213"},"vehicle_type_id":"4","last_reported":1727097509,"current_range_meters":24000,"station_id":"ce4bgt12rcd13ifvqcd0","pricing_plan_id":"cebpf4jnsgd1na2vs0mg"},{"bike_id":"5632390e-03af-4541-960f-fec03f55a325","system_id":"levelo_inurba_marseille","lat":43.2707,"lon":5.4228,"is_reserved":false,"is_disabled":false,"rental_uris":{"android":"levelo://app?vid=5632390e-03af-4541-960f-fec03f55a325","ios":"levelo://app?vid=5632390e-03af-4541-960f-fec03f55a325"},"vehicle_type_id":"4","last_reported":1727097509,"current_range_meters":12000,"station_id":"ce4bhk92rcd13ifvqgb0","pricing_plan_id":"cebpf4jnsgd1na2vs0mg"},{"bike_id":"2b26ac36-e341-4854-a9d6-915450d3500a","system_id":"levelo_inurba_marseille","lat":43.2707,"lon":5.42275,"is_reserved":false,"is_disabled":false,"rental_uris":{"android":"levelo://app?vid=2b26ac36-e341-4854-a9d6-915450d3500a","ios":"levelo://app?vid=2b26ac36-e341-4854-a9d6-915450d3500a"},"vehicle_type_id":"4","last_reported":1727097509,"current_range_meters":37600,"station_id":"ce4bhk92rcd13ifvqgb0","pricing_plan_id":"cebpf4jnsgd1na2vs0mg"},{"bike_id":"eb1aba1b-6a2d-4540-8752-dfff945bafa7","system_id":"levelo_inurba_marseille","lat":43.32038,"lon":5.41579,"is_reserved":false,"is_disabled":false,"rental_uris":{"android":"levelo://app?vid=eb1aba1b-6a2d-4540-8752-dfff945bafa7","ios":"levelo://app?vid=eb1aba1b-6a2d-4540-8752-dfff945bafa7"},"vehicle_type_id":"4","last_reported":1727097509,"current_range_meters":28800,"station_id":"ce4bhq92rcd13ifvqhkg","pricing_plan_id":"cebpf4jnsgd1na2vs0mg"},{"bike_id":"5ac02ac5-91f4-4bb5-a9b4-f7275115ed59","system_id":"levelo_inurba_marseille","lat":43.23159,"lon":5.43702,"is_reserved":false,"is_disabled":false,"rental_uris":{"android":"levelo://app?vid=5ac02ac5-91f4-4bb5-a9b4-f7275115ed59","ios":"levelo://app?vid=5ac02ac5-91f4-4bb5-a9b4-f7275115ed59"},"vehicle_type_id":"4","last_reported":1727097509,"current_range_meters":23200,"station_id":"ce4bhmp2rcd13ifvqgog","pricing_plan_id":"cebpf4jnsgd1na2vs0mg"},{"bike_id":"5a7a150b-23bd-4942-8ebd-6bf1eaac4778","system_id":"levelo_inurba_marseille","lat":43.289124,"lon":5.384104,"is_reserved":false,"is_disabled":false,"rental_uris":{"android":"levelo://app?vid=5a7a150b-23bd-4942-8ebd-6bf1eaac4778","ios":"levelo://app?vid=5a7a150b-23bd-4942-8ebd-6bf1eaac4778"},"vehicle_type_id":"4","last_reported":1727097509,"current_range_meters":28400,"station_id":"ce4bh612rcd13ifvqe6g","pricing_plan_id":"cebpf4jnsgd1na2vs0mg"},{"bike_id":"fd993244-2500-456b-abb0-d1cb72d741ce","system_id":"levelo_inurba_marseille","lat":43.23197,"lon":5.35552,"is_reserved":false,"is_disabled":false,"rental_uris":{"android":"levelo://app?vid=fd993244-2500-456b-abb0-d1cb72d741ce","ios":"levelo://app?vid=fd993244-2500-456b-abb0-d1cb72d741ce"},"vehicle_type_id":"4","last_reported":1727097509,"current_range_meters":26000,"station_id":"ce4bhu92rcd13ifvqi70","pricing_plan_id":"cebpf4jnsgd1na2vs0mg"},{"bike_id":"0ba2cc93-d70c-4d15-b4be-a0351ddeb414","system_id":"levelo_inurba_marseille","lat":43.27071,"lon":5.42273,"is_reserved":false,"is_disabled":false,"rental_uris":{"android":"levelo://app?vid=0ba2cc93-d70c-4d15-b4be-a0351ddeb414","ios":"levelo://app?vid=0ba2cc93-d70c-4d15-b4be-a0351ddeb414"},"vehicle_type_id":"4","last_reported":1727097509,"current_range_meters":5600,"station_id":"ce4bhk92rcd13ifvqgb0","pricing_plan_id":"cebpf4jnsgd1na2vs0mg"},{"bike_id":"69ffd764-a097-4dcc-974a-30fa38c15e71","system_id":"levelo_inurba_marseille","lat":43.31228,"lon":5.36868,"is_reserved":false,"is_disabled":false,"rental_uris":{"android":"levelo://app?vid=69ffd764-a097-4dcc-974a-30fa38c15e71","ios":"levelo://app?vid=69ffd764-a097-4dcc-974a-30fa38c15e71"},"vehicle_type_id":"4","last_reported":1727097509,"current_range_meters":16000,"station_id":"ce4bgl92rcd13ifvqbq0","pricing_plan_id":"cebpf4jnsgd1na2vs0mg"},{"bike_id":"36c416da-9158-44af-aa3a-06b103bea7bf","system_id":"levelo_inurba_marseille","lat":43.337444,"lon":5.374475,"is_reserved":false,"is_disabled":false,"rental_uris":{"android":"levelo://app?vid=36c416da-9158-44af-aa3a-06b103bea7bf","ios":"levelo://app?vid=36c416da-9158-44af-aa3a-06b103bea7bf"},"vehicle_type_id":"4","last_reported":1727097509,"current_range_meters":23200,"station_id":"","pricing_plan_id":"cebpf4jnsgd1na2vs0mg"},{"bike_id":"18fae2e4-2399-43e9-ae57-8d2c1d0079a0","system_id":"levelo_inurba_marseille","lat":43.2408,"lon":5.37744,"is_reserved":false,"is_disabled":false,"rental_uris":{"android":"levelo://app?vid=18fae2e4-2399-43e9-ae57-8d2c1d0079a0","ios":"levelo://app?vid=18fae2e4-2399-43e9-ae57-8d2c1d0079a0"},"vehicle_type_id":"4","last_reported":1727097509,"current_range_meters":26000,"station_id":"ce4bhnp2rcd13ifvqgvg","pricing_plan_id":"cebpf4jnsgd1na2vs0mg"},{"bike_id":"084f1e75-b61b-49be-b147-6f8cb1d55397","system_id":"levelo_inurba_marseille","lat":43.305359,"lon":5.367027,"is_reserved":false,"is_disabled":false,"rental_uris":{"android":"levelo://app?vid=084f1e75-b61b-49be-b147-6f8cb1d55397","ios":"levelo://app?vid=084f1e75-b61b-49be-b147-6f8cb1d55397"},"vehicle_type_id":"4","last_reported":1727097509,"current_range_meters":33600,"station_id":"ce4bh2p2rcd13ifvqdi0","pricing_plan_id":"cebpf4jnsgd1na2vs0mg"},{"bike_id":"61c12e93-9dfb-4e31-bdea-d1348e0cf022","system_id":"levelo_inurba_marseille","lat":43.24417,"lon":5.37043,"is_reserved":false,"is_disabled":false,"rental_uris":{"android":"levelo://app?vid=61c12e93-9dfb-4e31-bdea-d1348e0cf022","ios":"levelo://app?vid=61c12e93-9dfb-4e31-bdea-d1348e0cf022"},"vehicle_type_id":"4","last_reported":1727097509,"current_range_meters":24800,"station_id":"ce4bhhh2rcd13ifvqfk0","pricing_plan_id":"cebpf4jnsgd1na2vs0mg"},{"bike_id":"14bcbdfd-0044-4414-82b7-c589790b3645","system_id":"levelo_inurba_marseille","lat":43.29548,"lon":5.42276,"is_reserved":false,"is_disabled":false,"rental_uris":{"android":"levelo://app?vid=14bcbdfd-0044-4414-82b7-c589790b3645","ios":"levelo://app?vid=14bcbdfd-0044-4414-82b7-c589790b3645"},"vehicle_type_id":"4","last_reported":1727097509,"current_range_meters":37600,"station_id":"ce4bhph2rcd13ifvqhdg","pricing_plan_id":"cebpf4jnsgd1na2vs0mg"},{"bike_id":"947ef012-f9a7-48e8-ab03-8122fefa91e2","system_id":"levelo_inurba_marseille","lat":43.29296,"lon":5.37469,"is_reserved":false,"is_disabled":false,"rental_uris":{"android":"levelo://app?vid=947ef012-f9a7-48e8-ab03-8122fefa91e2","ios":"levelo://app?vid=947ef012-f9a7-48e8-ab03-8122fefa91e2"},"vehicle_type_id":"4","last_reported":1727097509,"current_range_meters":30400,"station_id":"ce4bgi12rcd13ifvqb70","pricing_plan_id":"cebpf4jnsgd1na2vs0mg"},{"bike_id":"5abf3738-3056-45d0-ad36-b5f63eb6c7bd","system_id":"levelo_inurba_marseille","lat":43.31713,"lon":5.43699,"is_reserved":false,"is_disabled":false,"rental_uris":{"android":"levelo://app?vid=5abf3738-3056-45d0-ad36-b5f63eb6c7bd","ios":"levelo://app?vid=5abf3738-3056-45d0-ad36-b5f63eb6c7bd"},"vehicle_type_id":"4","last_reported":1727097509,"current_range_meters":20400,"station_id":"ce4bhp92rcd13ifvqhcg","pricing_plan_id":"cebpf4jnsgd1na2vs0mg"},{"bike_id":"bcfab92a-dc6c-4038-8477-18be1eec815d","system_id":"levelo_inurba_marseille","lat":43.28158,"lon":5.42648,"is_reserved":false,"is_disabled":false,"rental_uris":{"android":"levelo://app?vid=bcfab92a-dc6c-4038-8477-18be1eec815d","ios":"levelo://app?vid=bcfab92a-dc6c-4038-8477-18be1eec815d"},"vehicle_type_id":"4","last_reported":1727097509,"current_range_meters":6800,"station_id":"ce4bhnh2rcd13ifvqgug","pricing_plan_id":"cebpf4jnsgd1na2vs0mg"},{"bike_id":"9535c4c1-db43-4da9-bd59-0e6bec13b4df","system_id":"levelo_inurba_marseille","lat":43.23151,"lon":5.43707,"is_reserved":false,"is_disabled":false,"rental_uris":{"android":"levelo://app?vid=9535c4c1-db43-4da9-bd59-0e6bec13b4df","ios":"levelo://app?vid=9535c4c1-db43-4da9-bd59-0e6bec13b4df"},"vehicle_type_id":"4","last_reported":1727097509,"current_range_meters":15200,"station_id":"ce4bhmp2rcd13ifvqgog","pricing_plan_id":"cebpf4jnsgd1na2vs0mg"},{"bike_id":"8261812b-44ce-44d0-8542-1f5eb0d4e986","system_id":"levelo_inurba_marseille","lat":43.2398,"lon":5.36622,"is_reserved":false,"is_disabled":false,"rental_uris":{"android":"levelo://app?vid=8261812b-44ce-44d0-8542-1f5eb0d4e986","ios":"levelo://app?vid=8261812b-44ce-44d0-8542-1f5eb0d4e986"},"vehicle_type_id":"4","last_reported":1727097509,"current_range_meters":11200,"station_id":"ce4bhi12rcd13ifvqfp0","pricing_plan_id":"cebpf4jnsgd1na2vs0mg"},{"bike_id":"bc78acc6-6216-44d8-b0bc-793f48228be7","system_id":"levelo_inurba_marseille","lat":43.296204,"lon":5.371695,"is_reserved":false,"is_disabled":false,"rental_uris":{"android":"levelo://app?vid=bc78acc6-6216-44d8-b0bc-793f48228be7","ios":"levelo://app?vid=bc78acc6-6216-44d8-b0bc-793f48228be7"},"vehicle_type_id":"4","last_reported":1727097509,"current_range_meters":38800,"station_id":"ce4bgnh2rcd13ifvqc0g","pricing_plan_id":"cebpf4jnsgd1na2vs0mg"},{"bike_id":"149779fc-bc45-458a-857f-33707eedaf6a","system_id":"levelo_inurba_marseille","lat":43.23196,"lon":5.3555,"is_reserved":false,"is_disabled":false,"rental_uris":{"android":"levelo://app?vid=149779fc-bc45-458a-857f-33707eedaf6a","ios":"levelo://app?vid=149779fc-bc45-458a-857f-33707eedaf6a"},"vehicle_type_id":"4","last_reported":1727097509,"current_range_meters":9200,"station_id":"ce4bhu92rcd13ifvqi70","pricing_plan_id":"cebpf4jnsgd1na2vs0mg"},{"bike_id":"dcd9b5d2-0de8-47f5-a370-a19a6ea66e01","system_id":"levelo_inurba_marseille","lat":43.28267,"lon":5.35072,"is_reserved":false,"is_disabled":false,"rental_uris":{"android":"levelo://app?vid=dcd9b5d2-0de8-47f5-a370-a19a6ea66e01","ios":"levelo://app?vid=dcd9b5d2-0de8-47f5-a370-a19a6ea66e01"},"vehicle_type_id":"4","last_reported":1727097509,"current_range_meters":32400,"station_id":"ce4bhbp2rcd13ifvqerg","pricing_plan_id":"cebpf4jnsgd1na2vs0mg"},{"bike_id":"8620dcac-2c9a-44f0-8283-969c0a44894d","system_id":"levelo_inurba_marseille","lat":43.24081,"lon":5.37744,"is_reserved":false,"is_disabled":false,"rental_uris":{"android":"levelo://app?vid=8620dcac-2c9a-44f0-8283-969c0a44894d","ios":"levelo://app?vid=8620dcac-2c9a-44f0-8283-969c0a44894d"},"vehicle_type_id":"4","last_reported":1727097509,"current_range_meters":28000,"station_id":"ce4bhnp2rcd13ifvqgvg","pricing_plan_id":"cebpf4jnsgd1na2vs0mg"},{"bike_id":"099449d1-8e46-49a4-8788-adade637820c","system_id":"levelo_inurba_marseille","lat":43.302184,"lon":5.397485,"is_reserved":false,"is_disabled":false,"rental_uris":{"android":"levelo://app?vid=099449d1-8e46-49a4-8788-adade637820c","ios":"levelo://app?vid=099449d1-8e46-49a4-8788-adade637820c"},"vehicle_type_id":"4","last_reported":1727097509,"current_range_meters":30400,"station_id":"ce4bgt92rcd13ifvqcf0","pricing_plan_id":"cebpf4jnsgd1na2vs0mg"},{"bike_id":"9cbc7e14-b507-4a3c-bc52-f4aa151b5236","system_id":"levelo_inurba_marseille","lat":43.30782,"lon":5.3765,"is_reserved":false,"is_disabled":false,"rental_uris":{"android":"levelo://app?vid=9cbc7e14-b507-4a3c-bc52-f4aa151b5236","ios":"levelo://app?vid=9cbc7e14-b507-4a3c-bc52-f4aa151b5236"},"vehicle_type_id":"4","last_reported":1727097509,"current_range_meters":28800,"station_id":"ce4bgv92rcd13ifvqcq0","pricing_plan_id":"cebpf4jnsgd1na2vs0mg"},{"bike_id":"edd382d6-9f76-42e1-b9cf-88738a1f6b1a","system_id":"levelo_inurba_marseille","lat":43.24545,"lon":5.395219,"is_reserved":false,"is_disabled":false,"rental_uris":{"android":"levelo://app?vid=edd382d6-9f76-42e1-b9cf-88738a1f6b1a","ios":"levelo://app?vid=edd382d6-9f76-42e1-b9cf-88738a1f6b1a"},"vehicle_type_id":"4","last_reported":1727097509,"current_range_meters":17600,"station_id":"ce4bhlp2rcd13ifvqgjg","pricing_plan_id":"cebpf4jnsgd1na2vs0mg"},{"bike_id":"5d848626-f327-4779-85e1-7575ec48443c","system_id":"levelo_inurba_marseille","lat":43.30182,"lon":5.36606,"is_reserved":false,"is_disabled":false,"rental_uris":{"android":"levelo://app?vid=5d848626-f327-4779-85e1-7575ec48443c","ios":"levelo://app?vid=5d848626-f327-4779-85e1-7575ec48443c"},"vehicle_type_id":"4","last_reported":1727097509,"current_range_meters":38800,"station_id":"ce4bgrh2rcd13ifvqc8g","pricing_plan_id":"cebpf4jnsgd1na2vs0mg"},{"bike_id":"5e0960b3-5ac4-4497-b4a1-ff8a3f37f64c","system_id":"levelo_inurba_marseille","lat":43.24082,"lon":5.37737,"is_reserved":false,"is_disabled":false,"rental_uris":{"android":"levelo://app?vid=5e0960b3-5ac4-4497-b4a1-ff8a3f37f64c","ios":"levelo://app?vid=5e0960b3-5ac4-4497-b4a1-ff8a3f37f64c"},"vehicle_type_id":"4","last_reported":1727097509,"current_range_meters":38800,"station_id":"ce4bhnp2rcd13ifvqgvg","pricing_plan_id":"cebpf4jnsgd1na2vs0mg"},{"bike_id":"a48efcca-ce90-4c97-9f53-23dd983d4745","system_id":"levelo_inurba_marseille","lat":43.29879,"lon":5.38905,"is_reserved":false,"is_disabled":false,"rental_uris":{"android":"levelo://app?vid=a48efcca-ce90-4c97-9f53-23dd983d4745","ios":"levelo://app?vid=a48efcca-ce90-4c97-9f53-23dd983d4745"},"vehicle_type_id":"4","last_reported":1727097509,"current_range_meters":20000,"station_id":"ce4bh392rcd13ifvqdl0","pricing_plan_id":"cebpf4jnsgd1na2vs0mg"},{"bike_id":"7ed9469a-049f-493b-8999-12319b70e133","system_id":"levelo_inurba_marseille","lat":43.27492,"lon":5.42454,"is_reserved":false,"is_disabled":false,"rental_uris":{"android":"levelo://app?vid=7ed9469a-049f-493b-8999-12319b70e133","ios":"levelo://app?vid=7ed9469a-049f-493b-8999-12319b70e133"},"vehicle_type_id":"4","last_reported":1727097509,"current_range_meters":3200,"station_id":"ce4bhn92rcd13ifvqgrg","pricing_plan_id":"cebpf4jnsgd1na2vs0mg"},{"bike_id":"a1130285-14c1-471d-a411-fb2eed577eff","system_id":"levelo_inurba_marseille","lat":43.23149,"lon":5.43729,"is_reserved":false,"is_disabled":false,"rental_uris":{"android":"levelo://app?vid=a1130285-14c1-471d-a411-fb2eed577eff","ios":"levelo://app?vid=a1130285-14c1-471d-a411-fb2eed577eff"},"vehicle_type_id":"4","last_reported":1727097509,"current_range_meters":28000,"station_id":"ce4bhmp2rcd13ifvqgog","pricing_plan_id":"cebpf4jnsgd1na2vs0mg"},{"bike_id":"fab8e638-97d9-4126-8704-0b690ee1156c","system_id":"levelo_inurba_marseille","lat":43.29061,"lon":5.37808,"is_reserved":false,"is_disabled":false,"rental_uris":{"android":"levelo://app?vid=fab8e638-97d9-4126-8704-0b690ee1156c","ios":"levelo://app?vid=fab8e638-97d9-4126-8704-0b690ee1156c"},"vehicle_type_id":"4","last_reported":1727097509,"current_range_meters":6800,"station_id":"ce4bhjp2rcd13ifvqga0","pricing_plan_id":"cebpf4jnsgd1na2vs0mg"},{"bike_id":"320cc2ab-e32a-4a17-aa9c-41e07b7e6b23","system_id":"levelo_inurba_marseille","lat":43.28867,"lon":5.3598,"is_reserved":false,"is_disabled":false,"rental_uris":{"android":"levelo://app?vid=320cc2ab-e32a-4a17-aa9c-41e07b7e6b23","ios":"levelo://app?vid=320cc2ab-e32a-4a17-aa9c-41e07b7e6b23"},"vehicle_type_id":"4","last_reported":1727097509,"current_range_meters":12000,"station_id":"ce4bhbh2rcd13ifvqepg","pricing_plan_id":"cebpf4jnsgd1na2vs0mg"},{"bike_id":"6dcdaff4-6423-41db-9e42-e3406283e1f3","system_id":"levelo_inurba_marseille","lat":43.2767,"lon":5.38879,"is_reserved":false,"is_disabled":false,"rental_uris":{"android":"levelo://app?vid=6dcdaff4-6423-41db-9e42-e3406283e1f3","ios":"levelo://app?vid=6dcdaff4-6423-41db-9e42-e3406283e1f3"},"vehicle_type_id":"4","last_reported":1727097509,"current_range_meters":6800,"station_id":"ce4bhi12rcd13ifvqfo0","pricing_plan_id":"cebpf4jnsgd1na2vs0mg"},{"bike_id":"86cb50cd-da02-42c9-8119-1605bac6d754","system_id":"levelo_inurba_marseille","lat":43.29637,"lon":5.40598,"is_reserved":false,"is_disabled":false,"rental_uris":{"android":"levelo://app?vid=86cb50cd-da02-42c9-8119-1605bac6d754","ios":"levelo://app?vid=86cb50cd-da02-42c9-8119-1605bac6d754"},"vehicle_type_id":"4","last_reported":1727097509,"current_range_meters":16400,"station_id":"ce4bh0h2rcd13ifvqd60","pricing_plan_id":"cebpf4jnsgd1na2vs0mg"},{"bike_id":"2a58cdfb-f240-4535-8c96-efa17ae0387f","system_id":"levelo_inurba_marseille","lat":43.28439,"lon":5.39185,"is_reserved":false,"is_disabled":false,"rental_uris":{"android":"levelo://app?vid=2a58cdfb-f240-4535-8c96-efa17ae0387f","ios":"levelo://app?vid=2a58cdfb-f240-4535-8c96-efa17ae0387f"},"vehicle_type_id":"4","last_reported":1727097509,"current_range_meters":38800,"station_id":"ce4bhoh2rcd13ifvqh5g","pricing_plan_id":"cebpf4jnsgd1na2vs0mg"},{"bike_id":"75c228dd-5d22-472e-8a3b-5da67fad73ae","system_id":"levelo_inurba_marseille","lat":43.30538,"lon":5.36697,"is_reserved":false,"is_disabled":false,"rental_uris":{"android":"levelo://app?vid=75c228dd-5d22-472e-8a3b-5da67fad73ae","ios":"levelo://app?vid=75c228dd-5d22-472e-8a3b-5da67fad73ae"},"vehicle_type_id":"4","last_reported":1727097509,"current_range_meters":16800,"station_id":"ce4bgrp2rcd13ifvqc9g","pricing_plan_id":"cebpf4jnsgd1na2vs0mg"},{"bike_id":"af42854d-7200-46bf-962e-0dbd93fed0e6","system_id":"levelo_inurba_marseille","lat":43.26561,"lon":5.37284,"is_reserved":false,"is_disabled":false,"rental_uris":{"android":"levelo://app?vid=af42854d-7200-46bf-962e-0dbd93fed0e6","ios":"levelo://app?vid=af42854d-7200-46bf-962e-0dbd93fed0e6"},"vehicle_type_id":"4","last_reported":1727097509,"current_range_meters":38800,"station_id":"ce4bhg12rcd13ifvqf70","pricing_plan_id":"cebpf4jnsgd1na2vs0mg"},{"bike_id":"c0bf08f8-39b8-43bf-8302-ac2a4dd5ad58","system_id":"levelo_inurba_marseille","lat":43.29553,"lon":5.42281,"is_reserved":false,"is_disabled":false,"rental_uris":{"android":"levelo://app?vid=c0bf08f8-39b8-43bf-8302-ac2a4dd5ad58","ios":"levelo://app?vid=c0bf08f8-39b8-43bf-8302-ac2a4dd5ad58"},"vehicle_type_id":"4","last_reported":1727097509,"current_range_meters":27600,"station_id":"ce4bhph2rcd13ifvqhdg","pricing_plan_id":"cebpf4jnsgd1na2vs0mg"},{"bike_id":"511981f4-d76c-4eb8-9f26-0d0c3fe53544","system_id":"levelo_inurba_marseille","lat":43.27977,"lon":5.38736,"is_reserved":false,"is_disabled":false,"rental_uris":{"android":"levelo://app?vid=511981f4-d76c-4eb8-9f26-0d0c3fe53544","ios":"levelo://app?vid=511981f4-d76c-4eb8-9f26-0d0c3fe53544"},"vehicle_type_id":"4","last_reported":1727097509,"current_range_meters":12000,"station_id":"ce4bhg12rcd13ifvqf80","pricing_plan_id":"cebpf4jnsgd1na2vs0mg"},{"bike_id":"88e4c0fa-72f1-440f-996a-774d6383e494","system_id":"levelo_inurba_marseille","lat":43.29844,"lon":5.36272,"is_reserved":false,"is_disabled":false,"rental_uris":{"android":"levelo://app?vid=88e4c0fa-72f1-440f-996a-774d6383e494","ios":"levelo://app?vid=88e4c0fa-72f1-440f-996a-774d6383e494"},"vehicle_type_id":"4","last_reported":1727097509,"current_range_meters":39200,"station_id":"ce4bgpp2rcd13ifvqc3g","pricing_plan_id":"cebpf4jnsgd1na2vs0mg"},{"bike_id":"44b50cd5-9fec-40b7-88e0-c89ccba3762c","system_id":"levelo_inurba_marseille","lat":43.2315,"lon":5.43707,"is_reserved":false,"is_disabled":false,"rental_uris":{"android":"levelo://app?vid=44b50cd5-9fec-40b7-88e0-c89ccba3762c","ios":"levelo://app?vid=44b50cd5-9fec-40b7-88e0-c89ccba3762c"},"vehicle_type_id":"4","last_reported":1727097509,"current_range_meters":39200,"station_id":"ce4bhmp2rcd13ifvqgog","pricing_plan_id":"cebpf4jnsgd1na2vs0mg"},{"bike_id":"063dca6e-6eb8-46ef-af7f-523f85db002f","system_id":"levelo_inurba_marseille","lat":43.24077,"lon":5.37752,"is_reserved":false,"is_disabled":false,"rental_uris":{"android":"levelo://app?vid=063dca6e-6eb8-46ef-af7f-523f85db002f","ios":"levelo://app?vid=063dca6e-6eb8-46ef-af7f-523f85db002f"},"vehicle_type_id":"4","last_reported":1727097509,"current_range_meters":37600,"station_id":"ce4bhnp2rcd13ifvqgvg","pricing_plan_id":"cebpf4jnsgd1na2vs0mg"},{"bike_id":"45b239bd-ddc1-4849-a223-afba4bdbdcbc","system_id":"levelo_inurba_marseille","lat":43.23188,"lon":5.39979,"is_reserved":false,"is_disabled":false,"rental_uris":{"android":"levelo://app?vid=45b239bd-ddc1-4849-a223-afba4bdbdcbc","ios":"levelo://app?vid=45b239bd-ddc1-4849-a223-afba4bdbdcbc"},"vehicle_type_id":"4","last_reported":1727097509,"current_range_meters":10800,"station_id":"ce4bhn12rcd13ifvqgqg","pricing_plan_id":"cebpf4jnsgd1na2vs0mg"},{"bike_id":"920dc299-22b6-456e-abb1-5b4cb0167a16","system_id":"levelo_inurba_marseille","lat":43.30421,"lon":5.41288,"is_reserved":false,"is_disabled":false,"rental_uris":{"android":"levelo://app?vid=920dc299-22b6-456e-abb1-5b4cb0167a16","ios":"levelo://app?vid=920dc299-22b6-456e-abb1-5b4cb0167a16"},"vehicle_type_id":"4","last_reported":1727097509,"current_range_meters":25200,"station_id":"ce4bhop2rcd13ifvqh8g","pricing_plan_id":"cebpf4jnsgd1na2vs0mg"},{"bike_id":"3c62f824-7506-4c44-a7ff-d78b1c251a88","system_id":"levelo_inurba_marseille","lat":43.23194,"lon":5.35549,"is_reserved":false,"is_disabled":false,"rental_uris":{"android":"levelo://app?vid=3c62f824-7506-4c44-a7ff-d78b1c251a88","ios":"levelo://app?vid=3c62f824-7506-4c44-a7ff-d78b1c251a88"},"vehicle_type_id":"4","last_reported":1727097509,"current_range_meters":26000,"station_id":"ce4bhu92rcd13ifvqi70","pricing_plan_id":"cebpf4jnsgd1na2vs0mg"},{"bike_id":"6cbc2fdc-96a1-4bca-b822-56394ecb85a1","system_id":"levelo_inurba_marseille","lat":43.29557,"lon":5.42283,"is_reserved":false,"is_disabled":false,"rental_uris":{"android":"levelo://app?vid=6cbc2fdc-96a1-4bca-b822-56394ecb85a1","ios":"levelo://app?vid=6cbc2fdc-96a1-4bca-b822-56394ecb85a1"},"vehicle_type_id":"4","last_reported":1727097509,"current_range_meters":37600,"station_id":"ce4bhph2rcd13ifvqhdg","pricing_plan_id":"cebpf4jnsgd1na2vs0mg"},{"bike_id":"35909c8d-5481-401b-bf28-ace7ac383edb","system_id":"levelo_inurba_marseille","lat":43.23069,"lon":5.35493,"is_reserved":false,"is_disabled":false,"rental_uris":{"android":"levelo://app?vid=35909c8d-5481-401b-bf28-ace7ac383edb","ios":"levelo://app?vid=35909c8d-5481-401b-bf28-ace7ac383edb"},"vehicle_type_id":"4","last_reported":1727097509,"current_range_meters":9600,"station_id":"cpo3342slgdg3j2ifvpg","pricing_plan_id":"cebpf4jnsgd1na2vs0mg"},{"bike_id":"47582e93-95c9-4fa0-b589-7df1e3f081a5","system_id":"levelo_inurba_marseille","lat":43.28266,"lon":5.35069,"is_reserved":false,"is_disabled":false,"rental_uris":{"android":"levelo://app?vid=47582e93-95c9-4fa0-b589-7df1e3f081a5","ios":"levelo://app?vid=47582e93-95c9-4fa0-b589-7df1e3f081a5"},"vehicle_type_id":"4","last_reported":1727097509,"current_range_meters":38800,"station_id":"ce4bhbp2rcd13ifvqerg","pricing_plan_id":"cebpf4jnsgd1na2vs0mg"},{"bike_id":"c9e8d291-8260-4d65-af6f-0b9dd072d6f1","system_id":"levelo_inurba_marseille","lat":43.30139,"lon":5.3987,"is_reserved":false,"is_disabled":false,"rental_uris":{"android":"levelo://app?vid=c9e8d291-8260-4d65-af6f-0b9dd072d6f1","ios":"levelo://app?vid=c9e8d291-8260-4d65-af6f-0b9dd072d6f1"},"vehicle_type_id":"4","last_reported":1727097509,"current_range_meters":10800,"station_id":"ce4bh0h2rcd13ifvqd40","pricing_plan_id":"cebpf4jnsgd1na2vs0mg"},{"bike_id":"1cd34231-e1e8-434c-abad-c03953d418ff","system_id":"levelo_inurba_marseille","lat":43.29562,"lon":5.42297,"is_reserved":false,"is_disabled":false,"rental_uris":{"android":"levelo://app?vid=1cd34231-e1e8-434c-abad-c03953d418ff","ios":"levelo://app?vid=1cd34231-e1e8-434c-abad-c03953d418ff"},"vehicle_type_id":"4","last_reported":1727097509,"current_range_meters":32400,"station_id":"ce4bhph2rcd13ifvqhdg","pricing_plan_id":"cebpf4jnsgd1na2vs0mg"},{"bike_id":"5524e161-1116-48ae-a9c2-520fcecf51a9","system_id":"levelo_inurba_marseille","lat":43.24079,"lon":5.37755,"is_reserved":false,"is_disabled":false,"rental_uris":{"android":"levelo://app?vid=5524e161-1116-48ae-a9c2-520fcecf51a9","ios":"levelo://app?vid=5524e161-1116-48ae-a9c2-520fcecf51a9"},"vehicle_type_id":"4","last_reported":1727097509,"current_range_meters":28000,"station_id":"ce4bhnp2rcd13ifvqgvg","pricing_plan_id":"cebpf4jnsgd1na2vs0mg"},{"bike_id":"44099741-035e-4534-8c91-80464f84937f","system_id":"levelo_inurba_marseille","lat":43.26029,"lon":5.37548,"is_reserved":false,"is_disabled":false,"rental_uris":{"android":"levelo://app?vid=44099741-035e-4534-8c91-80464f84937f","ios":"levelo://app?vid=44099741-035e-4534-8c91-80464f84937f"},"vehicle_type_id":"4","last_reported":1727097509,"current_range_meters":16800,"station_id":"ce4bhgh2rcd13ifvqfa0","pricing_plan_id":"cebpf4jnsgd1na2vs0mg"},{"bike_id":"a1ca7949-8e6b-4c31-8a8a-7b7dac2043d6","system_id":"levelo_inurba_marseille","lat":43.29569,"lon":5.37508,"is_reserved":false,"is_disabled":false,"rental_uris":{"android":"levelo://app?vid=a1ca7949-8e6b-4c31-8a8a-7b7dac2043d6","ios":"levelo://app?vid=a1ca7949-8e6b-4c31-8a8a-7b7dac2043d6"},"vehicle_type_id":"4","last_reported":1727097509,"current_range_meters":7200,"station_id":"ce4bgh92rcd13ifvqb50","pricing_plan_id":"cebpf4jnsgd1na2vs0mg"},{"bike_id":"9f5d2443-8596-4e20-829d-c760505e966c","system_id":"levelo_inurba_marseille","lat":43.2594,"lon":5.409,"is_reserved":false,"is_disabled":false,"rental_uris":{"android":"levelo://app?vid=9f5d2443-8596-4e20-829d-c760505e966c","ios":"levelo://app?vid=9f5d2443-8596-4e20-829d-c760505e966c"},"vehicle_type_id":"4","last_reported":1727097509,"current_range_meters":9600,"station_id":"ce4bhm92rcd13ifvqglg","pricing_plan_id":"cebpf4jnsgd1na2vs0mg"},{"bike_id":"3b2b32b1-081b-464a-b5e2-ce0b7792839b","system_id":"levelo_inurba_marseille","lat":43.26828,"lon":5.38023,"is_reserved":false,"is_disabled":false,"rental_uris":{"android":"levelo://app?vid=3b2b32b1-081b-464a-b5e2-ce0b7792839b","ios":"levelo://app?vid=3b2b32b1-081b-464a-b5e2-ce0b7792839b"},"vehicle_type_id":"4","last_reported":1727097509,"current_range_meters":24400,"station_id":"","pricing_plan_id":"cebpf4jnsgd1na2vs0mg"},{"bike_id":"e1749dfe-2710-40de-9b0b-4caf0aa58164","system_id":"levelo_inurba_marseille","lat":43.31541,"lon":5.38022,"is_reserved":false,"is_disabled":false,"rental_uris":{"android":"levelo://app?vid=e1749dfe-2710-40de-9b0b-4caf0aa58164","ios":"levelo://app?vid=e1749dfe-2710-40de-9b0b-4caf0aa58164"},"vehicle_type_id":"4","last_reported":1727097509,"current_range_meters":20400,"station_id":"ce4bhsp2rcd13ifvqi50","pricing_plan_id":"cebpf4jnsgd1na2vs0mg"},{"bike_id":"b3b3de83-c6a6-4b88-80cb-6c2d8b94d934","system_id":"levelo_inurba_marseille","lat":43.29008,"lon":5.35616,"is_reserved":false,"is_disabled":false,"rental_uris":{"android":"levelo://app?vid=b3b3de83-c6a6-4b88-80cb-6c2d8b94d934","ios":"levelo://app?vid=b3b3de83-c6a6-4b88-80cb-6c2d8b94d934"},"vehicle_type_id":"4","last_reported":1727097509,"current_range_meters":9600,"station_id":"ce4bhb92rcd13ifvqen0","pricing_plan_id":"cebpf4jnsgd1na2vs0mg"},{"bike_id":"37cfea08-a4a9-4194-96d9-f325f70d9e4d","system_id":"levelo_inurba_marseille","lat":43.2559,"lon":5.38239,"is_reserved":false,"is_disabled":false,"rental_uris":{"android":"levelo://app?vid=37cfea08-a4a9-4194-96d9-f325f70d9e4d","ios":"levelo://app?vid=37cfea08-a4a9-4194-96d9-f325f70d9e4d"},"vehicle_type_id":"4","last_reported":1727097509,"current_range_meters":7200,"station_id":"ce4bhih2rcd13ifvqfs0","pricing_plan_id":"cebpf4jnsgd1na2vs0mg"},{"bike_id":"20888a67-c010-4ba8-a0ea-b4f704449232","system_id":"levelo_inurba_marseille","lat":43.231555,"lon":5.43698,"is_reserved":false,"is_disabled":false,"rental_uris":{"android":"levelo://app?vid=20888a67-c010-4ba8-a0ea-b4f704449232","ios":"levelo://app?vid=20888a67-c010-4ba8-a0ea-b4f704449232"},"vehicle_type_id":"4","last_reported":1727097509,"current_range_meters":25200,"station_id":"ce4bhmp2rcd13ifvqgog","pricing_plan_id":"cebpf4jnsgd1na2vs0mg"},{"bike_id":"fea683b7-0b42-4db3-b2c4-48550e41f392","system_id":"levelo_inurba_marseille","lat":43.31486,"lon":5.37298,"is_reserved":false,"is_disabled":false,"rental_uris":{"android":"levelo://app?vid=fea683b7-0b42-4db3-b2c4-48550e41f392","ios":"levelo://app?vid=fea683b7-0b42-4db3-b2c4-48550e41f392"},"vehicle_type_id":"4","last_reported":1727097509,"current_range_meters":38800,"station_id":"ce4bgt12rcd13ifvqcd0","pricing_plan_id":"cebpf4jnsgd1na2vs0mg"},{"bike_id":"715c4804-6a86-4398-98ec-b57358573177","system_id":"levelo_inurba_marseille","lat":43.22931,"lon":5.35374,"is_reserved":false,"is_disabled":false,"rental_uris":{"android":"levelo://app?vid=715c4804-6a86-4398-98ec-b57358573177","ios":"levelo://app?vid=715c4804-6a86-4398-98ec-b57358573177"},"vehicle_type_id":"4","last_reported":1727097509,"current_range_meters":35200,"station_id":"cpo3532slgdg3j2ikp40","pricing_plan_id":"cebpf4jnsgd1na2vs0mg"},{"bike_id":"c2e0a82a-d759-495f-8efb-0e986c5a7e53","system_id":"levelo_inurba_marseille","lat":43.31767,"lon":5.39016,"is_reserved":false,"is_disabled":false,"rental_uris":{"android":"levelo://app?vid=c2e0a82a-d759-495f-8efb-0e986c5a7e53","ios":"levelo://app?vid=c2e0a82a-d759-495f-8efb-0e986c5a7e53"},"vehicle_type_id":"4","last_reported":1727097509,"current_range_meters":38400,"station_id":"ce4bhqp2rcd13ifvqhng","pricing_plan_id":"cebpf4jnsgd1na2vs0mg"},{"bike_id":"9d31e420-f692-4538-a30b-06b7e0546666","system_id":"levelo_inurba_marseille","lat":43.29621,"lon":5.3715,"is_reserved":false,"is_disabled":false,"rental_uris":{"android":"levelo://app?vid=9d31e420-f692-4538-a30b-06b7e0546666","ios":"levelo://app?vid=9d31e420-f692-4538-a30b-06b7e0546666"},"vehicle_type_id":"4","last_reported":1727097509,"current_range_meters":38400,"station_id":"ce4bgnh2rcd13ifvqc0g","pricing_plan_id":"cebpf4jnsgd1na2vs0mg"},{"bike_id":"ba2542eb-4a30-47aa-b57a-68ac954d789a","system_id":"levelo_inurba_marseille","lat":43.23194,"lon":5.35557,"is_reserved":false,"is_disabled":false,"rental_uris":{"android":"levelo://app?vid=ba2542eb-4a30-47aa-b57a-68ac954d789a","ios":"levelo://app?vid=ba2542eb-4a30-47aa-b57a-68ac954d789a"},"vehicle_type_id":"4","last_reported":1727097509,"current_range_meters":18000,"station_id":"ce4bhu92rcd13ifvqi70","pricing_plan_id":"cebpf4jnsgd1na2vs0mg"},{"bike_id":"a2d3faf4-b282-4fa3-b4c8-567a9f539c1c","system_id":"levelo_inurba_marseille","lat":43.24077,"lon":5.37747,"is_reserved":false,"is_disabled":false,"rental_uris":{"android":"levelo://app?vid=a2d3faf4-b282-4fa3-b4c8-567a9f539c1c","ios":"levelo://app?vid=a2d3faf4-b282-4fa3-b4c8-567a9f539c1c"},"vehicle_type_id":"4","last_reported":1727097509,"current_range_meters":2800,"station_id":"ce4bhnp2rcd13ifvqgvg","pricing_plan_id":"cebpf4jnsgd1na2vs0mg"},{"bike_id":"cc3ddff0-82f0-4b1e-af91-f9c8fb85b899","system_id":"levelo_inurba_marseille","lat":43.31484,"lon":5.37301,"is_reserved":false,"is_disabled":false,"rental_uris":{"android":"levelo://app?vid=cc3ddff0-82f0-4b1e-af91-f9c8fb85b899","ios":"levelo://app?vid=cc3ddff0-82f0-4b1e-af91-f9c8fb85b899"},"vehicle_type_id":"4","last_reported":1727097509,"current_range_meters":14800,"station_id":"ce4bgt12rcd13ifvqcd0","pricing_plan_id":"cebpf4jnsgd1na2vs0mg"},{"bike_id":"248789c2-b5e7-4e42-a3f3-cce9a0523119","system_id":"levelo_inurba_marseille","lat":43.28703,"lon":5.37386,"is_reserved":false,"is_disabled":false,"rental_uris":{"android":"levelo://app?vid=248789c2-b5e7-4e42-a3f3-cce9a0523119","ios":"levelo://app?vid=248789c2-b5e7-4e42-a3f3-cce9a0523119"},"vehicle_type_id":"4","last_reported":1727097509,"current_range_meters":18000,"station_id":"ce4bh3p2rcd13ifvqdq0","pricing_plan_id":"cebpf4jnsgd1na2vs0mg"},{"bike_id":"6dd65d0e-8b7a-4b77-9bf9-ede98b693613","system_id":"levelo_inurba_marseille","lat":43.30312,"lon":5.36918,"is_reserved":false,"is_disabled":false,"rental_uris":{"android":"levelo://app?vid=6dd65d0e-8b7a-4b77-9bf9-ede98b693613","ios":"levelo://app?vid=6dd65d0e-8b7a-4b77-9bf9-ede98b693613"},"vehicle_type_id":"4","last_reported":1727097509,"current_range_meters":32000,"station_id":"ce4bgqh2rcd13ifvqc5g","pricing_plan_id":"cebpf4jnsgd1na2vs0mg"},{"bike_id":"9ab84b17-eb9b-4fc9-9b75-8115dd9a0898","system_id":"levelo_inurba_marseille","lat":43.28275,"lon":5.35058,"is_reserved":false,"is_disabled":false,"rental_uris":{"android":"levelo://app?vid=9ab84b17-eb9b-4fc9-9b75-8115dd9a0898","ios":"levelo://app?vid=9ab84b17-eb9b-4fc9-9b75-8115dd9a0898"},"vehicle_type_id":"4","last_reported":1727097509,"current_range_meters":16400,"station_id":"ce4bhbp2rcd13ifvqerg","pricing_plan_id":"cebpf4jnsgd1na2vs0mg"},{"bike_id":"e574e701-2117-450f-934e-7daa52836b16","system_id":"levelo_inurba_marseille","lat":43.29283,"lon":5.40119,"is_reserved":false,"is_disabled":false,"rental_uris":{"android":"levelo://app?vid=e574e701-2117-450f-934e-7daa52836b16","ios":"levelo://app?vid=e574e701-2117-450f-934e-7daa52836b16"},"vehicle_type_id":"4","last_reported":1727097509,"current_range_meters":28000,"station_id":"ce4bh312rcd13ifvqdk0","pricing_plan_id":"cebpf4jnsgd1na2vs0mg"},{"bike_id":"6c1b457e-fb32-401b-8d63-f6965417de07","system_id":"levelo_inurba_marseille","lat":43.24295,"lon":5.396746,"is_reserved":false,"is_disabled":false,"rental_uris":{"android":"levelo://app?vid=6c1b457e-fb32-401b-8d63-f6965417de07","ios":"levelo://app?vid=6c1b457e-fb32-401b-8d63-f6965417de07"},"vehicle_type_id":"4","last_reported":1727097509,"current_range_meters":30400,"station_id":"ce4bhn12rcd13ifvqgpg","pricing_plan_id":"cebpf4jnsgd1na2vs0mg"},{"bike_id":"ee1f9b0f-dd8b-4d52-9818-385c51c4ad5f","system_id":"levelo_inurba_marseille","lat":43.26034,"lon":5.37553,"is_reserved":false,"is_disabled":false,"rental_uris":{"android":"levelo://app?vid=ee1f9b0f-dd8b-4d52-9818-385c51c4ad5f","ios":"levelo://app?vid=ee1f9b0f-dd8b-4d52-9818-385c51c4ad5f"},"vehicle_type_id":"4","last_reported":1727097509,"current_range_meters":28400,"station_id":"ce4bhgh2rcd13ifvqfa0","pricing_plan_id":"cebpf4jnsgd1na2vs0mg"},{"bike_id":"3f1f21e6-f7ba-4e4f-a030-4d5b41f037e7","system_id":"levelo_inurba_marseille","lat":43.24087,"lon":5.37747,"is_reserved":false,"is_disabled":false,"rental_uris":{"android":"levelo://app?vid=3f1f21e6-f7ba-4e4f-a030-4d5b41f037e7","ios":"levelo://app?vid=3f1f21e6-f7ba-4e4f-a030-4d5b41f037e7"},"vehicle_type_id":"4","last_reported":1727097509,"current_range_meters":8400,"station_id":"ce4bhnp2rcd13ifvqgvg","pricing_plan_id":"cebpf4jnsgd1na2vs0mg"},{"bike_id":"2c3baefd-e174-4a0f-b3c0-c1acdaa422ad","system_id":"levelo_inurba_marseille","lat":43.25936,"lon":5.40912,"is_reserved":false,"is_disabled":false,"rental_uris":{"android":"levelo://app?vid=2c3baefd-e174-4a0f-b3c0-c1acdaa422ad","ios":"levelo://app?vid=2c3baefd-e174-4a0f-b3c0-c1acdaa422ad"},"vehicle_type_id":"4","last_reported":1727097509,"current_range_meters":33200,"station_id":"ce4bhm92rcd13ifvqglg","pricing_plan_id":"cebpf4jnsgd1na2vs0mg"},{"bike_id":"6383ba2e-6dac-4d3f-8759-2463c921fee7","system_id":"levelo_inurba_marseille","lat":43.295319,"lon":5.390441,"is_reserved":false,"is_disabled":false,"rental_uris":{"android":"levelo://app?vid=6383ba2e-6dac-4d3f-8759-2463c921fee7","ios":"levelo://app?vid=6383ba2e-6dac-4d3f-8759-2463c921fee7"},"vehicle_type_id":"4","last_reported":1727097509,"current_range_meters":28400,"station_id":"ce4bh0h2rcd13ifvqd40","pricing_plan_id":"cebpf4jnsgd1na2vs0mg"},{"bike_id":"54db8160-556f-4838-beec-11d78ced79da","system_id":"levelo_inurba_marseille","lat":43.28153,"lon":5.4264,"is_reserved":false,"is_disabled":false,"rental_uris":{"android":"levelo://app?vid=54db8160-556f-4838-beec-11d78ced79da","ios":"levelo://app?vid=54db8160-556f-4838-beec-11d78ced79da"},"vehicle_type_id":"4","last_reported":1727097509,"current_range_meters":11200,"station_id":"ce4bhnh2rcd13ifvqgug","pricing_plan_id":"cebpf4jnsgd1na2vs0mg"},{"bike_id":"cf904d8e-dd56-4449-9634-5ec8fcd061ab","system_id":"levelo_inurba_marseille","lat":43.3375,"lon":5.37453,"is_reserved":false,"is_disabled":false,"rental_uris":{"android":"levelo://app?vid=cf904d8e-dd56-4449-9634-5ec8fcd061ab","ios":"levelo://app?vid=cf904d8e-dd56-4449-9634-5ec8fcd061ab"},"vehicle_type_id":"4","last_reported":1727097509,"current_range_meters":38400,"station_id":"","pricing_plan_id":"cebpf4jnsgd1na2vs0mg"},{"bike_id":"567c1d1a-885b-42b6-bd84-b4d37a5a7454","system_id":"levelo_inurba_marseille","lat":43.24082,"lon":5.37743,"is_reserved":false,"is_disabled":false,"rental_uris":{"android":"levelo://app?vid=567c1d1a-885b-42b6-bd84-b4d37a5a7454","ios":"levelo://app?vid=567c1d1a-885b-42b6-bd84-b4d37a5a7454"},"vehicle_type_id":"4","last_reported":1727097509,"current_range_meters":25200,"station_id":"ce4bhnp2rcd13ifvqgvg","pricing_plan_id":"cebpf4jnsgd1na2vs0mg"},{"bike_id":"7b73b428-3f20-4790-a66b-76c9e11c0d10","system_id":"levelo_inurba_marseille","lat":43.282684,"lon":5.350563,"is_reserved":false,"is_disabled":false,"rental_uris":{"android":"levelo://app?vid=7b73b428-3f20-4790-a66b-76c9e11c0d10","ios":"levelo://app?vid=7b73b428-3f20-4790-a66b-76c9e11c0d10"},"vehicle_type_id":"4","last_reported":1727097509,"current_range_meters":10800,"station_id":"ce4bhbp2rcd13ifvqerg","pricing_plan_id":"cebpf4jnsgd1na2vs0mg"},{"bike_id":"87065035-6189-472e-9aed-e122651b879b","system_id":"levelo_inurba_marseille","lat":43.289246,"lon":5.383843,"is_reserved":false,"is_disabled":false,"rental_uris":{"android":"levelo://app?vid=87065035-6189-472e-9aed-e122651b879b","ios":"levelo://app?vid=87065035-6189-472e-9aed-e122651b879b"},"vehicle_type_id":"4","last_reported":1727097509,"current_range_meters":16800,"station_id":"ce4bh612rcd13ifvqe6g","pricing_plan_id":"cebpf4jnsgd1na2vs0mg"},{"bike_id":"39ea2a17-2530-483c-bd7f-2fa2442969a3","system_id":"levelo_inurba_marseille","lat":43.25578,"lon":5.38239,"is_reserved":false,"is_disabled":false,"rental_uris":{"android":"levelo://app?vid=39ea2a17-2530-483c-bd7f-2fa2442969a3","ios":"levelo://app?vid=39ea2a17-2530-483c-bd7f-2fa2442969a3"},"vehicle_type_id":"4","last_reported":1727097509,"current_range_meters":38000,"station_id":"ce4bhih2rcd13ifvqfs0","pricing_plan_id":"cebpf4jnsgd1na2vs0mg"},{"bike_id":"3ccedb89-e60b-4314-a9fc-b337464aec61","system_id":"levelo_inurba_marseille","lat":43.2964,"lon":5.40596,"is_reserved":false,"is_disabled":false,"rental_uris":{"android":"levelo://app?vid=3ccedb89-e60b-4314-a9fc-b337464aec61","ios":"levelo://app?vid=3ccedb89-e60b-4314-a9fc-b337464aec61"},"vehicle_type_id":"4","last_reported":1727097509,"current_range_meters":33600,"station_id":"ce4bh0h2rcd13ifvqd60","pricing_plan_id":"cebpf4jnsgd1na2vs0mg"},{"bike_id":"feb42740-c719-4916-9efa-d99f861e0e6d","system_id":"levelo_inurba_marseille","lat":43.32492,"lon":5.36572,"is_reserved":false,"is_disabled":false,"rental_uris":{"android":"levelo://app?vid=feb42740-c719-4916-9efa-d99f861e0e6d","ios":"levelo://app?vid=feb42740-c719-4916-9efa-d99f861e0e6d"},"vehicle_type_id":"4","last_reported":1727097509,"current_range_meters":30000,"station_id":"ce4bhs12rcd13ifvqhvg","pricing_plan_id":"cebpf4jnsgd1na2vs0mg"},{"bike_id":"914ae7ef-1ebe-4882-be25-0c3aa3dad21f","system_id":"levelo_inurba_marseille","lat":43.30532,"lon":5.36701,"is_reserved":false,"is_disabled":false,"rental_uris":{"android":"levelo://app?vid=914ae7ef-1ebe-4882-be25-0c3aa3dad21f","ios":"levelo://app?vid=914ae7ef-1ebe-4882-be25-0c3aa3dad21f"},"vehicle_type_id":"4","last_reported":1727097509,"current_range_meters":26000,"station_id":"ce4bgrp2rcd13ifvqc9g","pricing_plan_id":"cebpf4jnsgd1na2vs0mg"},{"bike_id":"5112c659-31b3-4fa2-be0c-7fc6e6b6271e","system_id":"levelo_inurba_marseille","lat":43.29369,"lon":5.37858,"is_reserved":false,"is_disabled":false,"rental_uris":{"android":"levelo://app?vid=5112c659-31b3-4fa2-be0c-7fc6e6b6271e","ios":"levelo://app?vid=5112c659-31b3-4fa2-be0c-7fc6e6b6271e"},"vehicle_type_id":"4","last_reported":1727097509,"current_range_meters":34000,"station_id":"ce4bgjh2rcd13ifvqbf0","pricing_plan_id":"cebpf4jnsgd1na2vs0mg"},{"bike_id":"3b7312f9-6244-4b71-a8bc-65ca3c008c21","system_id":"levelo_inurba_marseille","lat":43.30607,"lon":5.37227,"is_reserved":false,"is_disabled":false,"rental_uris":{"android":"levelo://app?vid=3b7312f9-6244-4b71-a8bc-65ca3c008c21","ios":"levelo://app?vid=3b7312f9-6244-4b71-a8bc-65ca3c008c21"},"vehicle_type_id":"4","last_reported":1727097509,"current_range_meters":22000,"station_id":"ce4bgqh2rcd13ifvqc4g","pricing_plan_id":"cebpf4jnsgd1na2vs0mg"},{"bike_id":"2cb4d48c-c41a-4327-844b-c5c0fd6c0242","system_id":"levelo_inurba_marseille","lat":43.31485,"lon":5.37297,"is_reserved":false,"is_disabled":false,"rental_uris":{"android":"levelo://app?vid=2cb4d48c-c41a-4327-844b-c5c0fd6c0242","ios":"levelo://app?vid=2cb4d48c-c41a-4327-844b-c5c0fd6c0242"},"vehicle_type_id":"4","last_reported":1727097509,"current_range_meters":16000,"station_id":"ce4bgt12rcd13ifvqcd0","pricing_plan_id":"cebpf4jnsgd1na2vs0mg"},{"bike_id":"fce734b4-6c36-4cb6-983c-c95238702258","system_id":"levelo_inurba_marseille","lat":43.3108,"lon":5.38115,"is_reserved":false,"is_disabled":false,"rental_uris":{"android":"levelo://app?vid=fce734b4-6c36-4cb6-983c-c95238702258","ios":"levelo://app?vid=fce734b4-6c36-4cb6-983c-c95238702258"},"vehicle_type_id":"4","last_reported":1727097509,"current_range_meters":8000,"station_id":"","pricing_plan_id":"cebpf4jnsgd1na2vs0mg"},{"bike_id":"fd0edd85-66aa-4295-8fb7-5b1f06dcdcaf","system_id":"levelo_inurba_marseille","lat":43.28268,"lon":5.35075,"is_reserved":false,"is_disabled":false,"rental_uris":{"android":"levelo://app?vid=fd0edd85-66aa-4295-8fb7-5b1f06dcdcaf","ios":"levelo://app?vid=fd0edd85-66aa-4295-8fb7-5b1f06dcdcaf"},"vehicle_type_id":"4","last_reported":1727097509,"current_range_meters":23200,"station_id":"ce4bhbp2rcd13ifvqerg","pricing_plan_id":"cebpf4jnsgd1na2vs0mg"},{"bike_id":"f016c4e5-040b-46b4-82fe-a434be5816a8","system_id":"levelo_inurba_marseille","lat":43.3019,"lon":5.36608,"is_reserved":false,"is_disabled":false,"rental_uris":{"android":"levelo://app?vid=f016c4e5-040b-46b4-82fe-a434be5816a8","ios":"levelo://app?vid=f016c4e5-040b-46b4-82fe-a434be5816a8"},"vehicle_type_id":"4","last_reported":1727097509,"current_range_meters":38800,"station_id":"ce4bgrh2rcd13ifvqc8g","pricing_plan_id":"cebpf4jnsgd1na2vs0mg"},{"bike_id":"56c9a565-5309-4191-8087-1f6ab03a11d7","system_id":"levelo_inurba_marseille","lat":43.284546,"lon":5.358959,"is_reserved":false,"is_disabled":false,"rental_uris":{"android":"levelo://app?vid=56c9a565-5309-4191-8087-1f6ab03a11d7","ios":"levelo://app?vid=56c9a565-5309-4191-8087-1f6ab03a11d7"},"vehicle_type_id":"4","last_reported":1727097509,"current_range_meters":16400,"station_id":"ce4bhbh2rcd13ifvqepg","pricing_plan_id":"cebpf4jnsgd1na2vs0mg"},{"bike_id":"e5afe0f9-2845-4770-8a8a-1f97c66f27dc","system_id":"levelo_inurba_marseille","lat":43.25934,"lon":5.40915,"is_reserved":false,"is_disabled":false,"rental_uris":{"android":"levelo://app?vid=e5afe0f9-2845-4770-8a8a-1f97c66f27dc","ios":"levelo://app?vid=e5afe0f9-2845-4770-8a8a-1f97c66f27dc"},"vehicle_type_id":"4","last_reported":1727097509,"current_range_meters":28800,"station_id":"ce4bhm92rcd13ifvqglg","pricing_plan_id":"cebpf4jnsgd1na2vs0mg"},{"bike_id":"c371314f-2cd1-4a92-8738-0c7ece0f5842","system_id":"levelo_inurba_marseille","lat":43.26808,"lon":5.40261,"is_reserved":false,"is_disabled":false,"rental_uris":{"android":"levelo://app?vid=c371314f-2cd1-4a92-8738-0c7ece0f5842","ios":"levelo://app?vid=c371314f-2cd1-4a92-8738-0c7ece0f5842"},"vehicle_type_id":"4","last_reported":1727097509,"current_range_meters":38800,"station_id":"ce501612rcd8frsf0b60","pricing_plan_id":"cebpf4jnsgd1na2vs0mg"},{"bike_id":"8808c221-dae8-4c3c-9aaf-b049fdd07712","system_id":"levelo_inurba_marseille","lat":43.27994,"lon":5.41662,"is_reserved":false,"is_disabled":false,"rental_uris":{"android":"levelo://app?vid=8808c221-dae8-4c3c-9aaf-b049fdd07712","ios":"levelo://app?vid=8808c221-dae8-4c3c-9aaf-b049fdd07712"},"vehicle_type_id":"4","last_reported":1727097509,"current_range_meters":22000,"station_id":"ce4bho12rcd13ifvqh1g","pricing_plan_id":"cebpf4jnsgd1na2vs0mg"},{"bike_id":"c5761cb0-3ad0-409f-b263-5e692c153c5c","system_id":"levelo_inurba_marseille","lat":43.30208,"lon":5.3946,"is_reserved":false,"is_disabled":false,"rental_uris":{"android":"levelo://app?vid=c5761cb0-3ad0-409f-b263-5e692c153c5c","ios":"levelo://app?vid=c5761cb0-3ad0-409f-b263-5e692c153c5c"},"vehicle_type_id":"4","last_reported":1727097509,"current_range_meters":37600,"station_id":"ce4bh0p2rcd13ifvqd70","pricing_plan_id":"cebpf4jnsgd1na2vs0mg"},{"bike_id":"5d04256a-e679-4059-83c6-0ae42b4a755b","system_id":"levelo_inurba_marseille","lat":43.29314,"lon":5.36943,"is_reserved":false,"is_disabled":false,"rental_uris":{"android":"levelo://app?vid=5d04256a-e679-4059-83c6-0ae42b4a755b","ios":"levelo://app?vid=5d04256a-e679-4059-83c6-0ae42b4a755b"},"vehicle_type_id":"4","last_reported":1727097509,"current_range_meters":18000,"station_id":"","pricing_plan_id":"cebpf4jnsgd1na2vs0mg"},{"bike_id":"fdf5d164-299c-44e2-a769-07be2e8ce2c2","system_id":"levelo_inurba_marseille","lat":43.24666,"lon":5.38163,"is_reserved":false,"is_disabled":false,"rental_uris":{"android":"levelo://app?vid=fdf5d164-299c-44e2-a769-07be2e8ce2c2","ios":"levelo://app?vid=fdf5d164-299c-44e2-a769-07be2e8ce2c2"},"vehicle_type_id":"4","last_reported":1727097509,"current_range_meters":11600,"station_id":"ce4bhih2rcd13ifvqfr0","pricing_plan_id":"cebpf4jnsgd1na2vs0mg"},{"bike_id":"6e3f1c76-110c-4206-8065-75afc7d2fd09","system_id":"levelo_inurba_marseille","lat":43.24665,"lon":5.38173,"is_reserved":false,"is_disabled":false,"rental_uris":{"android":"levelo://app?vid=6e3f1c76-110c-4206-8065-75afc7d2fd09","ios":"levelo://app?vid=6e3f1c76-110c-4206-8065-75afc7d2fd09"},"vehicle_type_id":"4","last_reported":1727097509,"current_range_meters":9200,"station_id":"ce4bhih2rcd13ifvqfr0","pricing_plan_id":"cebpf4jnsgd1na2vs0mg"},{"bike_id":"5a2a2237-3d0e-4c1d-aea9-3dc6b00ef709","system_id":"levelo_inurba_marseille","lat":43.30532,"lon":5.36707,"is_reserved":false,"is_disabled":false,"rental_uris":{"android":"levelo://app?vid=5a2a2237-3d0e-4c1d-aea9-3dc6b00ef709","ios":"levelo://app?vid=5a2a2237-3d0e-4c1d-aea9-3dc6b00ef709"},"vehicle_type_id":"4","last_reported":1727097509,"current_range_meters":38800,"station_id":"ce4bgrp2rcd13ifvqc9g","pricing_plan_id":"cebpf4jnsgd1na2vs0mg"},{"bike_id":"792ff2f7-c377-489e-8842-0a279001b119","system_id":"levelo_inurba_marseille","lat":43.27501,"lon":5.42459,"is_reserved":false,"is_disabled":false,"rental_uris":{"android":"levelo://app?vid=792ff2f7-c377-489e-8842-0a279001b119","ios":"levelo://app?vid=792ff2f7-c377-489e-8842-0a279001b119"},"vehicle_type_id":"4","last_reported":1727097509,"current_range_meters":40000,"station_id":"ce4bhn92rcd13ifvqgrg","pricing_plan_id":"cebpf4jnsgd1na2vs0mg"},{"bike_id":"25bded0a-c47c-4a72-b798-2244bb7a3a57","system_id":"levelo_inurba_marseille","lat":43.27331,"lon":5.39092,"is_reserved":false,"is_disabled":false,"rental_uris":{"android":"levelo://app?vid=25bded0a-c47c-4a72-b798-2244bb7a3a57","ios":"levelo://app?vid=25bded0a-c47c-4a72-b798-2244bb7a3a57"},"vehicle_type_id":"4","last_reported":1727097509,"current_range_meters":20400,"station_id":"ce4bhgp2rcd13ifvqfe0","pricing_plan_id":"cebpf4jnsgd1na2vs0mg"},{"bike_id":"06e75df7-04cc-4889-97c6-7eb2e91c1c61","system_id":"levelo_inurba_marseille","lat":43.259491,"lon":5.375113,"is_reserved":false,"is_disabled":false,"rental_uris":{"android":"levelo://app?vid=06e75df7-04cc-4889-97c6-7eb2e91c1c61","ios":"levelo://app?vid=06e75df7-04cc-4889-97c6-7eb2e91c1c61"},"vehicle_type_id":"4","last_reported":1727097509,"current_range_meters":18800,"station_id":"ce4bhgh2rcd13ifvqfa0","pricing_plan_id":"cebpf4jnsgd1na2vs0mg"},{"bike_id":"66f080c3-431a-433b-a6f4-f0f83cfe5345","system_id":"levelo_inurba_marseille","lat":43.2919,"lon":5.35809,"is_reserved":false,"is_disabled":false,"rental_uris":{"android":"levelo://app?vid=66f080c3-431a-433b-a6f4-f0f83cfe5345","ios":"levelo://app?vid=66f080c3-431a-433b-a6f4-f0f83cfe5345"},"vehicle_type_id":"4","last_reported":1727097509,"current_range_meters":22400,"station_id":"ce4bhb12rcd13ifvqel0","pricing_plan_id":"cebpf4jnsgd1na2vs0mg"},{"bike_id":"7f41fee8-6658-44d0-a5c8-37f96ff88950","system_id":"levelo_inurba_marseille","lat":43.27959,"lon":5.3871,"is_reserved":false,"is_disabled":false,"rental_uris":{"android":"levelo://app?vid=7f41fee8-6658-44d0-a5c8-37f96ff88950","ios":"levelo://app?vid=7f41fee8-6658-44d0-a5c8-37f96ff88950"},"vehicle_type_id":"4","last_reported":1727097509,"current_range_meters":33600,"station_id":"ce4bhg12rcd13ifvqf80","pricing_plan_id":"cebpf4jnsgd1na2vs0mg"},{"bike_id":"b3e19263-4064-422d-9927-129f67d09a60","system_id":"levelo_inurba_marseille","lat":43.28474,"lon":5.38411,"is_reserved":false,"is_disabled":false,"rental_uris":{"android":"levelo://app?vid=b3e19263-4064-422d-9927-129f67d09a60","ios":"levelo://app?vid=b3e19263-4064-422d-9927-129f67d09a60"},"vehicle_type_id":"4","last_reported":1727097509,"current_range_meters":20000,"station_id":"ce4bh512rcd13ifvqe3g","pricing_plan_id":"cebpf4jnsgd1na2vs0mg"},{"bike_id":"4fbb5250-9647-470b-8d93-052750ba4685","system_id":"levelo_inurba_marseille","lat":43.287806,"lon":5.373697,"is_reserved":false,"is_disabled":false,"rental_uris":{"android":"levelo://app?vid=4fbb5250-9647-470b-8d93-052750ba4685","ios":"levelo://app?vid=4fbb5250-9647-470b-8d93-052750ba4685"},"vehicle_type_id":"4","last_reported":1727097509,"current_range_meters":19200,"station_id":"ce4bh692rcd13ifvqe90","pricing_plan_id":"cebpf4jnsgd1na2vs0mg"},{"bike_id":"c4d81431-ee19-4b2b-9a19-a027dc40bf9b","system_id":"levelo_inurba_marseille","lat":43.27069,"lon":5.42272,"is_reserved":false,"is_disabled":false,"rental_uris":{"android":"levelo://app?vid=c4d81431-ee19-4b2b-9a19-a027dc40bf9b","ios":"levelo://app?vid=c4d81431-ee19-4b2b-9a19-a027dc40bf9b"},"vehicle_type_id":"4","last_reported":1727097509,"current_range_meters":28400,"station_id":"ce4bhk92rcd13ifvqgb0","pricing_plan_id":"cebpf4jnsgd1na2vs0mg"},{"bike_id":"7efff0bf-418d-4879-81c8-5157ce11a026","system_id":"levelo_inurba_marseille","lat":43.2842,"lon":5.3752,"is_reserved":false,"is_disabled":false,"rental_uris":{"android":"levelo://app?vid=7efff0bf-418d-4879-81c8-5157ce11a026","ios":"levelo://app?vid=7efff0bf-418d-4879-81c8-5157ce11a026"},"vehicle_type_id":"4","last_reported":1727097509,"current_range_meters":25200,"station_id":"ce4bh412rcd13ifvqds0","pricing_plan_id":"cebpf4jnsgd1na2vs0mg"},{"bike_id":"fa690805-233a-4a70-a9f3-33f1b67cdb1f","system_id":"levelo_inurba_marseille","lat":43.32299,"lon":5.38265,"is_reserved":false,"is_disabled":false,"rental_uris":{"android":"levelo://app?vid=fa690805-233a-4a70-a9f3-33f1b67cdb1f","ios":"levelo://app?vid=fa690805-233a-4a70-a9f3-33f1b67cdb1f"},"vehicle_type_id":"4","last_reported":1727097509,"current_range_meters":37600,"station_id":"ce4bhr12rcd13ifvqhqg","pricing_plan_id":"cebpf4jnsgd1na2vs0mg"},{"bike_id":"2ebbd72f-5e41-48a6-b6a0-53156252042a","system_id":"levelo_inurba_marseille","lat":43.29538,"lon":5.38543,"is_reserved":false,"is_disabled":false,"rental_uris":{"android":"levelo://app?vid=2ebbd72f-5e41-48a6-b6a0-53156252042a","ios":"levelo://app?vid=2ebbd72f-5e41-48a6-b6a0-53156252042a"},"vehicle_type_id":"4","last_reported":1727097509,"current_range_meters":31200,"station_id":"ce4bgih2rcd13ifvqba0","pricing_plan_id":"cebpf4jnsgd1na2vs0mg"},{"bike_id":"257eba54-06ac-4de0-ad66-0369f90a3034","system_id":"levelo_inurba_marseille","lat":43.30315,"lon":5.36899,"is_reserved":false,"is_disabled":false,"rental_uris":{"android":"levelo://app?vid=257eba54-06ac-4de0-ad66-0369f90a3034","ios":"levelo://app?vid=257eba54-06ac-4de0-ad66-0369f90a3034"},"vehicle_type_id":"4","last_reported":1727097509,"current_range_meters":33200,"station_id":"ce4bgqh2rcd13ifvqc5g","pricing_plan_id":"cebpf4jnsgd1na2vs0mg"},{"bike_id":"cb6f5245-af44-45f0-a415-dc7d5990293b","system_id":"levelo_inurba_marseille","lat":43.260312,"lon":5.375442,"is_reserved":false,"is_disabled":false,"rental_uris":{"android":"levelo://app?vid=cb6f5245-af44-45f0-a415-dc7d5990293b","ios":"levelo://app?vid=cb6f5245-af44-45f0-a415-dc7d5990293b"},"vehicle_type_id":"4","last_reported":1727097509,"current_range_meters":36800,"station_id":"ce4bhgh2rcd13ifvqfa0","pricing_plan_id":"cebpf4jnsgd1na2vs0mg"},{"bike_id":"fabae1c0-477c-4eea-b73a-aff8d3245068","system_id":"levelo_inurba_marseille","lat":43.29615,"lon":5.37711,"is_reserved":false,"is_disabled":false,"rental_uris":{"android":"levelo://app?vid=fabae1c0-477c-4eea-b73a-aff8d3245068","ios":"levelo://app?vid=fabae1c0-477c-4eea-b73a-aff8d3245068"},"vehicle_type_id":"4","last_reported":1727097509,"current_range_meters":28400,"station_id":"ce4bgi92rcd13ifvqb90","pricing_plan_id":"cebpf4jnsgd1na2vs0mg"},{"bike_id":"cb0c9ea0-43ab-4552-a425-6e23b3421c3c","system_id":"levelo_inurba_marseille","lat":43.23155,"lon":5.43723,"is_reserved":false,"is_disabled":false,"rental_uris":{"android":"levelo://app?vid=cb0c9ea0-43ab-4552-a425-6e23b3421c3c","ios":"levelo://app?vid=cb0c9ea0-43ab-4552-a425-6e23b3421c3c"},"vehicle_type_id":"4","last_reported":1727097509,"current_range_meters":20000,"station_id":"ce4bhmp2rcd13ifvqgog","pricing_plan_id":"cebpf4jnsgd1na2vs0mg"},{"bike_id":"f24673b6-28dd-4e9b-a052-27bdbe7ed3ec","system_id":"levelo_inurba_marseille","lat":43.26557,"lon":5.37285,"is_reserved":false,"is_disabled":false,"rental_uris":{"android":"levelo://app?vid=f24673b6-28dd-4e9b-a052-27bdbe7ed3ec","ios":"levelo://app?vid=f24673b6-28dd-4e9b-a052-27bdbe7ed3ec"},"vehicle_type_id":"4","last_reported":1727097509,"current_range_meters":26000,"station_id":"ce4bhg12rcd13ifvqf70","pricing_plan_id":"cebpf4jnsgd1na2vs0mg"},{"bike_id":"63837e2f-9e9e-4ca3-8127-3738fe4726e5","system_id":"levelo_inurba_marseille","lat":43.27494,"lon":5.42454,"is_reserved":false,"is_disabled":false,"rental_uris":{"android":"levelo://app?vid=63837e2f-9e9e-4ca3-8127-3738fe4726e5","ios":"levelo://app?vid=63837e2f-9e9e-4ca3-8127-3738fe4726e5"},"vehicle_type_id":"4","last_reported":1727097509,"current_range_meters":37600,"station_id":"ce4bhn92rcd13ifvqgrg","pricing_plan_id":"cebpf4jnsgd1na2vs0mg"},{"bike_id":"8ea3df62-89ee-4615-817f-9bee95924d8f","system_id":"levelo_inurba_marseille","lat":43.31353,"lon":5.3672,"is_reserved":false,"is_disabled":false,"rental_uris":{"android":"levelo://app?vid=8ea3df62-89ee-4615-817f-9bee95924d8f","ios":"levelo://app?vid=8ea3df62-89ee-4615-817f-9bee95924d8f"},"vehicle_type_id":"4","last_reported":1727097509,"current_range_meters":36800,"station_id":"ce4bgr92rcd13ifvqc6g","pricing_plan_id":"cebpf4jnsgd1na2vs0mg"},{"bike_id":"c2f5ca2d-e916-45c2-8f87-8a958b8cf5bb","system_id":"levelo_inurba_marseille","lat":43.26571,"lon":5.38998,"is_reserved":false,"is_disabled":false,"rental_uris":{"android":"levelo://app?vid=c2f5ca2d-e916-45c2-8f87-8a958b8cf5bb","ios":"levelo://app?vid=c2f5ca2d-e916-45c2-8f87-8a958b8cf5bb"},"vehicle_type_id":"4","last_reported":1727097509,"current_range_meters":20000,"station_id":"ce4bhe12rcd13ifvqf30","pricing_plan_id":"cebpf4jnsgd1na2vs0mg"},{"bike_id":"7ee89815-3f87-4dc0-ac87-de45448091bf","system_id":"levelo_inurba_marseille","lat":43.26038,"lon":5.37548,"is_reserved":false,"is_disabled":false,"rental_uris":{"android":"levelo://app?vid=7ee89815-3f87-4dc0-ac87-de45448091bf","ios":"levelo://app?vid=7ee89815-3f87-4dc0-ac87-de45448091bf"},"vehicle_type_id":"4","last_reported":1727097509,"current_range_meters":39200,"station_id":"ce4bhgh2rcd13ifvqfa0","pricing_plan_id":"cebpf4jnsgd1na2vs0mg"},{"bike_id":"81bd6cc0-2105-456f-9faf-e4b066662c88","system_id":"levelo_inurba_marseille","lat":43.28421,"lon":5.34994,"is_reserved":false,"is_disabled":false,"rental_uris":{"android":"levelo://app?vid=81bd6cc0-2105-456f-9faf-e4b066662c88","ios":"levelo://app?vid=81bd6cc0-2105-456f-9faf-e4b066662c88"},"vehicle_type_id":"4","last_reported":1727097509,"current_range_meters":21600,"station_id":"ce4bhbh2rcd13ifvqepg","pricing_plan_id":"cebpf4jnsgd1na2vs0mg"},{"bike_id":"bb3b22f1-91eb-4f20-ab74-c8337dd41991","system_id":"levelo_inurba_marseille","lat":43.28364,"lon":5.38631,"is_reserved":false,"is_disabled":false,"rental_uris":{"android":"levelo://app?vid=bb3b22f1-91eb-4f20-ab74-c8337dd41991","ios":"levelo://app?vid=bb3b22f1-91eb-4f20-ab74-c8337dd41991"},"vehicle_type_id":"4","last_reported":1727097509,"current_range_meters":20000,"station_id":"ce4bh492rcd13ifvqdvg","pricing_plan_id":"cebpf4jnsgd1na2vs0mg"},{"bike_id":"85d649fa-68c6-4dd0-8e34-0988c7e58de8","system_id":"levelo_inurba_marseille","lat":43.30539,"lon":5.36693,"is_reserved":false,"is_disabled":false,"rental_uris":{"android":"levelo://app?vid=85d649fa-68c6-4dd0-8e34-0988c7e58de8","ios":"levelo://app?vid=85d649fa-68c6-4dd0-8e34-0988c7e58de8"},"vehicle_type_id":"4","last_reported":1727097509,"current_range_meters":9200,"station_id":"ce4bgrp2rcd13ifvqc9g","pricing_plan_id":"cebpf4jnsgd1na2vs0mg"},{"bike_id":"9bc1be1d-3d30-46b9-92a3-bceef644d1b2","system_id":"levelo_inurba_marseille","lat":43.2572,"lon":5.4111,"is_reserved":false,"is_disabled":false,"rental_uris":{"android":"levelo://app?vid=9bc1be1d-3d30-46b9-92a3-bceef644d1b2","ios":"levelo://app?vid=9bc1be1d-3d30-46b9-92a3-bceef644d1b2"},"vehicle_type_id":"4","last_reported":1727097509,"current_range_meters":21600,"station_id":"ce4bhkp2rcd13ifvqgd0","pricing_plan_id":"cebpf4jnsgd1na2vs0mg"},{"bike_id":"6d28bdf8-40f9-44db-b9d4-1fc04afaa575","system_id":"levelo_inurba_marseille","lat":43.30178,"lon":5.366196,"is_reserved":false,"is_disabled":false,"rental_uris":{"android":"levelo://app?vid=6d28bdf8-40f9-44db-b9d4-1fc04afaa575","ios":"levelo://app?vid=6d28bdf8-40f9-44db-b9d4-1fc04afaa575"},"vehicle_type_id":"4","last_reported":1727097509,"current_range_meters":17200,"station_id":"ce4bgop2rcd13ifvqc1g","pricing_plan_id":"cebpf4jnsgd1na2vs0mg"},{"bike_id":"9b632e8a-c450-4de6-9b5d-cc84e83f086f","system_id":"levelo_inurba_marseille","lat":43.27492,"lon":5.4245,"is_reserved":false,"is_disabled":false,"rental_uris":{"android":"levelo://app?vid=9b632e8a-c450-4de6-9b5d-cc84e83f086f","ios":"levelo://app?vid=9b632e8a-c450-4de6-9b5d-cc84e83f086f"},"vehicle_type_id":"4","last_reported":1727097509,"current_range_meters":15200,"station_id":"ce4bhn92rcd13ifvqgrg","pricing_plan_id":"cebpf4jnsgd1na2vs0mg"},{"bike_id":"9c844e65-77b9-4ef2-9931-3de5a1904d24","system_id":"levelo_inurba_marseille","lat":43.32545,"lon":5.41439,"is_reserved":false,"is_disabled":false,"rental_uris":{"android":"levelo://app?vid=9c844e65-77b9-4ef2-9931-3de5a1904d24","ios":"levelo://app?vid=9c844e65-77b9-4ef2-9931-3de5a1904d24"},"vehicle_type_id":"4","last_reported":1727097509,"current_range_meters":16000,"station_id":"ce4bhq12rcd13ifvqhhg","pricing_plan_id":"cebpf4jnsgd1na2vs0mg"},{"bike_id":"e2ea9cef-4113-496e-ae63-85cae6f24f6a","system_id":"levelo_inurba_marseille","lat":43.24163,"lon":5.36399,"is_reserved":false,"is_disabled":false,"rental_uris":{"android":"levelo://app?vid=e2ea9cef-4113-496e-ae63-85cae6f24f6a","ios":"levelo://app?vid=e2ea9cef-4113-496e-ae63-85cae6f24f6a"},"vehicle_type_id":"4","last_reported":1727097509,"current_range_meters":30800,"station_id":"cpo36qri1sfpv3e86is0","pricing_plan_id":"cebpf4jnsgd1na2vs0mg"},{"bike_id":"3687c953-e98b-4f0d-91b5-57d2abb17dea","system_id":"levelo_inurba_marseille","lat":43.28456,"lon":5.35893,"is_reserved":false,"is_disabled":false,"rental_uris":{"android":"levelo://app?vid=3687c953-e98b-4f0d-91b5-57d2abb17dea","ios":"levelo://app?vid=3687c953-e98b-4f0d-91b5-57d2abb17dea"},"vehicle_type_id":"4","last_reported":1727097509,"current_range_meters":28000,"station_id":"ce4bhah2rcd13ifvqei0","pricing_plan_id":"cebpf4jnsgd1na2vs0mg"},{"bike_id":"0074696f-e649-4639-9210-689b92842bdc","system_id":"levelo_inurba_marseille","lat":43.30807,"lon":5.43527,"is_reserved":false,"is_disabled":false,"rental_uris":{"android":"levelo://app?vid=0074696f-e649-4639-9210-689b92842bdc","ios":"levelo://app?vid=0074696f-e649-4639-9210-689b92842bdc"},"vehicle_type_id":"4","last_reported":1727097509,"current_range_meters":36400,"station_id":"ce4bhph2rcd13ifvqheg","pricing_plan_id":"cebpf4jnsgd1na2vs0mg"},{"bike_id":"c0ad9925-98d6-46f3-8db0-78e7b08411f3","system_id":"levelo_inurba_marseille","lat":43.32549,"lon":5.41445,"is_reserved":false,"is_disabled":false,"rental_uris":{"android":"levelo://app?vid=c0ad9925-98d6-46f3-8db0-78e7b08411f3","ios":"levelo://app?vid=c0ad9925-98d6-46f3-8db0-78e7b08411f3"},"vehicle_type_id":"4","last_reported":1727097509,"current_range_meters":3200,"station_id":"ce4bhq12rcd13ifvqhhg","pricing_plan_id":"cebpf4jnsgd1na2vs0mg"},{"bike_id":"6a9f45df-04c5-44d5-b656-eb73494e9cef","system_id":"levelo_inurba_marseille","lat":43.23974,"lon":5.36624,"is_reserved":false,"is_disabled":false,"rental_uris":{"android":"levelo://app?vid=6a9f45df-04c5-44d5-b656-eb73494e9cef","ios":"levelo://app?vid=6a9f45df-04c5-44d5-b656-eb73494e9cef"},"vehicle_type_id":"4","last_reported":1727097509,"current_range_meters":12400,"station_id":"ce4bhi12rcd13ifvqfp0","pricing_plan_id":"cebpf4jnsgd1na2vs0mg"},{"bike_id":"4252bd9d-e4ca-4ccc-8904-29395bd96ce9","system_id":"levelo_inurba_marseille","lat":43.30225,"lon":5.39466,"is_reserved":false,"is_disabled":false,"rental_uris":{"android":"levelo://app?vid=4252bd9d-e4ca-4ccc-8904-29395bd96ce9","ios":"levelo://app?vid=4252bd9d-e4ca-4ccc-8904-29395bd96ce9"},"vehicle_type_id":"4","last_reported":1727097509,"current_range_meters":32800,"station_id":"ce4bh0p2rcd13ifvqd70","pricing_plan_id":"cebpf4jnsgd1na2vs0mg"},{"bike_id":"5e2f72d5-4559-41b2-b3d0-9bec673a16db","system_id":"levelo_inurba_marseille","lat":43.28277,"lon":5.35064,"is_reserved":false,"is_disabled":false,"rental_uris":{"android":"levelo://app?vid=5e2f72d5-4559-41b2-b3d0-9bec673a16db","ios":"levelo://app?vid=5e2f72d5-4559-41b2-b3d0-9bec673a16db"},"vehicle_type_id":"4","last_reported":1727097509,"current_range_meters":38800,"station_id":"ce4bhbp2rcd13ifvqerg","pricing_plan_id":"cebpf4jnsgd1na2vs0mg"},{"bike_id":"455be24a-1729-4e8b-9592-9af52218f198","system_id":"levelo_inurba_marseille","lat":43.26566,"lon":5.39007,"is_reserved":false,"is_disabled":false,"rental_uris":{"android":"levelo://app?vid=455be24a-1729-4e8b-9592-9af52218f198","ios":"levelo://app?vid=455be24a-1729-4e8b-9592-9af52218f198"},"vehicle_type_id":"4","last_reported":1727097509,"current_range_meters":26000,"station_id":"ce4bhe12rcd13ifvqf30","pricing_plan_id":"cebpf4jnsgd1na2vs0mg"},{"bike_id":"45df9051-e725-4f5a-af06-a6afcf9ece7e","system_id":"levelo_inurba_marseille","lat":43.268107,"lon":5.402634,"is_reserved":false,"is_disabled":false,"rental_uris":{"android":"levelo://app?vid=45df9051-e725-4f5a-af06-a6afcf9ece7e","ios":"levelo://app?vid=45df9051-e725-4f5a-af06-a6afcf9ece7e"},"vehicle_type_id":"4","last_reported":1727097509,"current_range_meters":21600,"station_id":"ce501612rcd8frsf0b60","pricing_plan_id":"cebpf4jnsgd1na2vs0mg"},{"bike_id":"5d646be7-6f08-4485-8caa-430922346353","system_id":"levelo_inurba_marseille","lat":43.32477,"lon":5.36574,"is_reserved":false,"is_disabled":false,"rental_uris":{"android":"levelo://app?vid=5d646be7-6f08-4485-8caa-430922346353","ios":"levelo://app?vid=5d646be7-6f08-4485-8caa-430922346353"},"vehicle_type_id":"4","last_reported":1727097509,"current_range_meters":38800,"station_id":"ce4bhs12rcd13ifvqhvg","pricing_plan_id":"cebpf4jnsgd1na2vs0mg"},{"bike_id":"fa389a28-fbc0-443d-ae17-61deeb7eddc4","system_id":"levelo_inurba_marseille","lat":43.29806,"lon":5.39347,"is_reserved":false,"is_disabled":false,"rental_uris":{"android":"levelo://app?vid=fa389a28-fbc0-443d-ae17-61deeb7eddc4","ios":"levelo://app?vid=fa389a28-fbc0-443d-ae17-61deeb7eddc4"},"vehicle_type_id":"4","last_reported":1727097509,"current_range_meters":36800,"station_id":"chh1huq6cuj3fo74tm60","pricing_plan_id":"cebpf4jnsgd1na2vs0mg"},{"bike_id":"bb50ee9e-a671-44c6-aba5-ed4a077aaa6b","system_id":"levelo_inurba_marseille","lat":43.27494,"lon":5.4245,"is_reserved":false,"is_disabled":false,"rental_uris":{"android":"levelo://app?vid=bb50ee9e-a671-44c6-aba5-ed4a077aaa6b","ios":"levelo://app?vid=bb50ee9e-a671-44c6-aba5-ed4a077aaa6b"},"vehicle_type_id":"4","last_reported":1727097509,"current_range_meters":20400,"station_id":"ce4bhn92rcd13ifvqgrg","pricing_plan_id":"cebpf4jnsgd1na2vs0mg"},{"bike_id":"bda42faf-0743-4195-a253-11b2919f756c","system_id":"levelo_inurba_marseille","lat":43.24074,"lon":5.37752,"is_reserved":false,"is_disabled":false,"rental_uris":{"android":"levelo://app?vid=bda42faf-0743-4195-a253-11b2919f756c","ios":"levelo://app?vid=bda42faf-0743-4195-a253-11b2919f756c"},"vehicle_type_id":"4","last_reported":1727097509,"current_range_meters":24400,"station_id":"ce4bhnp2rcd13ifvqgvg","pricing_plan_id":"cebpf4jnsgd1na2vs0mg"},{"bike_id":"42ada5c9-53e3-40cd-a203-cc0dcb89861a","system_id":"levelo_inurba_marseille","lat":43.30213,"lon":5.39457,"is_reserved":false,"is_disabled":false,"rental_uris":{"android":"levelo://app?vid=42ada5c9-53e3-40cd-a203-cc0dcb89861a","ios":"levelo://app?vid=42ada5c9-53e3-40cd-a203-cc0dcb89861a"},"vehicle_type_id":"4","last_reported":1727097509,"current_range_meters":33600,"station_id":"ce4bh0p2rcd13ifvqd70","pricing_plan_id":"cebpf4jnsgd1na2vs0mg"},{"bike_id":"d65e9956-795e-43be-8fa8-4bf3303658b4","system_id":"levelo_inurba_marseille","lat":43.28341,"lon":5.38103,"is_reserved":false,"is_disabled":false,"rental_uris":{"android":"levelo://app?vid=d65e9956-795e-43be-8fa8-4bf3303658b4","ios":"levelo://app?vid=d65e9956-795e-43be-8fa8-4bf3303658b4"},"vehicle_type_id":"4","last_reported":1727097509,"current_range_meters":24800,"station_id":"ce4bh412rcd13ifvqdr0","pricing_plan_id":"cebpf4jnsgd1na2vs0mg"},{"bike_id":"3e2895b4-cf31-4932-aa45-b63bdcb8b899","system_id":"levelo_inurba_marseille","lat":43.28075,"lon":5.39659,"is_reserved":false,"is_disabled":false,"rental_uris":{"android":"levelo://app?vid=3e2895b4-cf31-4932-aa45-b63bdcb8b899","ios":"levelo://app?vid=3e2895b4-cf31-4932-aa45-b63bdcb8b899"},"vehicle_type_id":"4","last_reported":1727097509,"current_range_meters":28000,"station_id":"ce4bho12rcd13ifvqh2g","pricing_plan_id":"cebpf4jnsgd1na2vs0mg"},{"bike_id":"1b428e47-bf6b-4458-aa35-202dcb7f1aa6","system_id":"levelo_inurba_marseille","lat":43.28609,"lon":5.37064,"is_reserved":false,"is_disabled":false,"rental_uris":{"android":"levelo://app?vid=1b428e47-bf6b-4458-aa35-202dcb7f1aa6","ios":"levelo://app?vid=1b428e47-bf6b-4458-aa35-202dcb7f1aa6"},"vehicle_type_id":"4","last_reported":1727097509,"current_range_meters":6400,"station_id":"ce4bht12rcd13ifvqi60","pricing_plan_id":"cebpf4jnsgd1na2vs0mg"},{"bike_id":"ef80ef96-f0ae-47f4-a656-30940101fb28","system_id":"levelo_inurba_marseille","lat":43.26203,"lon":5.37922,"is_reserved":false,"is_disabled":false,"rental_uris":{"android":"levelo://app?vid=ef80ef96-f0ae-47f4-a656-30940101fb28","ios":"levelo://app?vid=ef80ef96-f0ae-47f4-a656-30940101fb28"},"vehicle_type_id":"4","last_reported":1727097509,"current_range_meters":21600,"station_id":"ce4bhjp2rcd13ifvqg90","pricing_plan_id":"cebpf4jnsgd1na2vs0mg"},{"bike_id":"973963d7-cd5f-4c62-aa49-892fbc9f75f4","system_id":"levelo_inurba_marseille","lat":43.25499,"lon":5.37651,"is_reserved":false,"is_disabled":false,"rental_uris":{"android":"levelo://app?vid=973963d7-cd5f-4c62-aa49-892fbc9f75f4","ios":"levelo://app?vid=973963d7-cd5f-4c62-aa49-892fbc9f75f4"},"vehicle_type_id":"4","last_reported":1727097509,"current_range_meters":24000,"station_id":"ce4bhh12rcd13ifvqff0","pricing_plan_id":"cebpf4jnsgd1na2vs0mg"},{"bike_id":"26e43ab1-84b6-40bf-9271-f47129192d7e","system_id":"levelo_inurba_marseille","lat":43.24389,"lon":5.37054,"is_reserved":false,"is_disabled":false,"rental_uris":{"android":"levelo://app?vid=26e43ab1-84b6-40bf-9271-f47129192d7e","ios":"levelo://app?vid=26e43ab1-84b6-40bf-9271-f47129192d7e"},"vehicle_type_id":"4","last_reported":1727097509,"current_range_meters":37600,"station_id":"ce4bhhh2rcd13ifvqfk0","pricing_plan_id":"cebpf4jnsgd1na2vs0mg"},{"bike_id":"98317e9d-9c27-46f9-a4da-cf59250e8820","system_id":"levelo_inurba_marseille","lat":43.24074,"lon":5.37758,"is_reserved":false,"is_disabled":false,"rental_uris":{"android":"levelo://app?vid=98317e9d-9c27-46f9-a4da-cf59250e8820","ios":"levelo://app?vid=98317e9d-9c27-46f9-a4da-cf59250e8820"},"vehicle_type_id":"4","last_reported":1727097509,"current_range_meters":39200,"station_id":"ce4bhnp2rcd13ifvqgvg","pricing_plan_id":"cebpf4jnsgd1na2vs0mg"},{"bike_id":"554ca606-33cd-4d70-a04d-0834b7693654","system_id":"levelo_inurba_marseille","lat":43.337444,"lon":5.374475,"is_reserved":false,"is_disabled":false,"rental_uris":{"android":"levelo://app?vid=554ca606-33cd-4d70-a04d-0834b7693654","ios":"levelo://app?vid=554ca606-33cd-4d70-a04d-0834b7693654"},"vehicle_type_id":"4","last_reported":1727097509,"current_range_meters":38000,"station_id":"","pricing_plan_id":"cebpf4jnsgd1na2vs0mg"},{"bike_id":"9327b15d-2365-4849-b0e4-af37adad04b2","system_id":"levelo_inurba_marseille","lat":43.323395,"lon":5.406221,"is_reserved":false,"is_disabled":false,"rental_uris":{"android":"levelo://app?vid=9327b15d-2365-4849-b0e4-af37adad04b2","ios":"levelo://app?vid=9327b15d-2365-4849-b0e4-af37adad04b2"},"vehicle_type_id":"4","last_reported":1727097509,"current_range_meters":4800,"station_id":"ce4bhq92rcd13ifvqhjg","pricing_plan_id":"cebpf4jnsgd1na2vs0mg"},{"bike_id":"b0c026c4-6b5c-44b9-9520-6006d4edfefc","system_id":"levelo_inurba_marseille","lat":43.262299,"lon":5.393237,"is_reserved":false,"is_disabled":false,"rental_uris":{"android":"levelo://app?vid=b0c026c4-6b5c-44b9-9520-6006d4edfefc","ios":"levelo://app?vid=b0c026c4-6b5c-44b9-9520-6006d4edfefc"},"vehicle_type_id":"4","last_reported":1727097509,"current_range_meters":24400,"station_id":"ce4bhh92rcd13ifvqfj0","pricing_plan_id":"cebpf4jnsgd1na2vs0mg"},{"bike_id":"06f450f4-638a-4956-b91e-9e37e8452c74","system_id":"levelo_inurba_marseille","lat":43.30951,"lon":5.39027,"is_reserved":false,"is_disabled":false,"rental_uris":{"android":"levelo://app?vid=06f450f4-638a-4956-b91e-9e37e8452c74","ios":"levelo://app?vid=06f450f4-638a-4956-b91e-9e37e8452c74"},"vehicle_type_id":"4","last_reported":1727097509,"current_range_meters":2000,"station_id":"ce4bgup2rcd13ifvqco0","pricing_plan_id":"cebpf4jnsgd1na2vs0mg"},{"bike_id":"9e8482d9-fe3e-4171-95bb-94487a5f8f6e","system_id":"levelo_inurba_marseille","lat":43.30547,"lon":5.36699,"is_reserved":false,"is_disabled":false,"rental_uris":{"android":"levelo://app?vid=9e8482d9-fe3e-4171-95bb-94487a5f8f6e","ios":"levelo://app?vid=9e8482d9-fe3e-4171-95bb-94487a5f8f6e"},"vehicle_type_id":"4","last_reported":1727097509,"current_range_meters":22400,"station_id":"ce4bgrp2rcd13ifvqc9g","pricing_plan_id":"cebpf4jnsgd1na2vs0mg"},{"bike_id":"840f3e47-074d-4b22-ab80-8cfe985e5e84","system_id":"levelo_inurba_marseille","lat":43.24081,"lon":5.3775,"is_reserved":false,"is_disabled":false,"rental_uris":{"android":"levelo://app?vid=840f3e47-074d-4b22-ab80-8cfe985e5e84","ios":"levelo://app?vid=840f3e47-074d-4b22-ab80-8cfe985e5e84"},"vehicle_type_id":"4","last_reported":1727097509,"current_range_meters":29600,"station_id":"ce4bhnp2rcd13ifvqgvg","pricing_plan_id":"cebpf4jnsgd1na2vs0mg"},{"bike_id":"80832710-bb98-4351-bade-e1cdcdd3bb1c","system_id":"levelo_inurba_marseille","lat":43.30319,"lon":5.39212,"is_reserved":false,"is_disabled":false,"rental_uris":{"android":"levelo://app?vid=80832710-bb98-4351-bade-e1cdcdd3bb1c","ios":"levelo://app?vid=80832710-bb98-4351-bade-e1cdcdd3bb1c"},"vehicle_type_id":"4","last_reported":1727097509,"current_range_meters":38400,"station_id":"ce4bgkh2rcd13ifvqbk0","pricing_plan_id":"cebpf4jnsgd1na2vs0mg"},{"bike_id":"48289d9a-d1cc-407e-8ef9-a685e4fc6c92","system_id":"levelo_inurba_marseille","lat":43.31281,"lon":5.40175,"is_reserved":false,"is_disabled":false,"rental_uris":{"android":"levelo://app?vid=48289d9a-d1cc-407e-8ef9-a685e4fc6c92","ios":"levelo://app?vid=48289d9a-d1cc-407e-8ef9-a685e4fc6c92"},"vehicle_type_id":"4","last_reported":1727097509,"current_range_meters":28400,"station_id":"ce4bh092rcd13ifvqd30","pricing_plan_id":"cebpf4jnsgd1na2vs0mg"},{"bike_id":"176f5c85-c02e-47de-9ace-bfb9204b8b3c","system_id":"levelo_inurba_marseille","lat":43.27968,"lon":5.38723,"is_reserved":false,"is_disabled":false,"rental_uris":{"android":"levelo://app?vid=176f5c85-c02e-47de-9ace-bfb9204b8b3c","ios":"levelo://app?vid=176f5c85-c02e-47de-9ace-bfb9204b8b3c"},"vehicle_type_id":"4","last_reported":1727097509,"current_range_meters":26800,"station_id":"ce4bhg12rcd13ifvqf80","pricing_plan_id":"cebpf4jnsgd1na2vs0mg"},{"bike_id":"6b998741-740a-4166-bfd2-cb4b54357787","system_id":"levelo_inurba_marseille","lat":43.30603,"lon":5.37224,"is_reserved":false,"is_disabled":false,"rental_uris":{"android":"levelo://app?vid=6b998741-740a-4166-bfd2-cb4b54357787","ios":"levelo://app?vid=6b998741-740a-4166-bfd2-cb4b54357787"},"vehicle_type_id":"4","last_reported":1727097509,"current_range_meters":36000,"station_id":"ce4bgqh2rcd13ifvqc4g","pricing_plan_id":"cebpf4jnsgd1na2vs0mg"},{"bike_id":"b32b7998-9389-446d-a0d9-9cd0c927f775","system_id":"levelo_inurba_marseille","lat":43.23063,"lon":5.35492,"is_reserved":false,"is_disabled":false,"rental_uris":{"android":"levelo://app?vid=b32b7998-9389-446d-a0d9-9cd0c927f775","ios":"levelo://app?vid=b32b7998-9389-446d-a0d9-9cd0c927f775"},"vehicle_type_id":"4","last_reported":1727097509,"current_range_meters":22800,"station_id":"cpo3342slgdg3j2ifvpg","pricing_plan_id":"cebpf4jnsgd1na2vs0mg"},{"bike_id":"7a4e1ad6-f113-41aa-aca7-643f5542ebc8","system_id":"levelo_inurba_marseille","lat":43.3021,"lon":5.3947,"is_reserved":false,"is_disabled":false,"rental_uris":{"android":"levelo://app?vid=7a4e1ad6-f113-41aa-aca7-643f5542ebc8","ios":"levelo://app?vid=7a4e1ad6-f113-41aa-aca7-643f5542ebc8"},"vehicle_type_id":"4","last_reported":1727097509,"current_range_meters":28400,"station_id":"ce4bh0p2rcd13ifvqd70","pricing_plan_id":"cebpf4jnsgd1na2vs0mg"},{"bike_id":"028f4f40-6a07-4bbe-a0b9-de5bfd98b752","system_id":"levelo_inurba_marseille","lat":43.31542,"lon":5.38022,"is_reserved":false,"is_disabled":false,"rental_uris":{"android":"levelo://app?vid=028f4f40-6a07-4bbe-a0b9-de5bfd98b752","ios":"levelo://app?vid=028f4f40-6a07-4bbe-a0b9-de5bfd98b752"},"vehicle_type_id":"4","last_reported":1727097509,"current_range_meters":11600,"station_id":"ce4bhsp2rcd13ifvqi50","pricing_plan_id":"cebpf4jnsgd1na2vs0mg"},{"bike_id":"c2c47866-5fbb-4670-a2dc-749394e03696","system_id":"levelo_inurba_marseille","lat":43.30539,"lon":5.36533,"is_reserved":false,"is_disabled":false,"rental_uris":{"android":"levelo://app?vid=c2c47866-5fbb-4670-a2dc-749394e03696","ios":"levelo://app?vid=c2c47866-5fbb-4670-a2dc-749394e03696"},"vehicle_type_id":"4","last_reported":1727097509,"current_range_meters":18800,"station_id":"ce4bgs12rcd13ifvqcag","pricing_plan_id":"cebpf4jnsgd1na2vs0mg"},{"bike_id":"36dc71fe-bfc9-4a4d-b2ef-39ebb067c458","system_id":"levelo_inurba_marseille","lat":43.29554,"lon":5.42284,"is_reserved":false,"is_disabled":false,"rental_uris":{"android":"levelo://app?vid=36dc71fe-bfc9-4a4d-b2ef-39ebb067c458","ios":"levelo://app?vid=36dc71fe-bfc9-4a4d-b2ef-39ebb067c458"},"vehicle_type_id":"4","last_reported":1727097509,"current_range_meters":39200,"station_id":"ce4bhph2rcd13ifvqhdg","pricing_plan_id":"cebpf4jnsgd1na2vs0mg"},{"bike_id":"4e442a34-1c41-4d3c-9b65-5b0b3be50276","system_id":"levelo_inurba_marseille","lat":43.33734,"lon":5.3919,"is_reserved":false,"is_disabled":false,"rental_uris":{"android":"levelo://app?vid=4e442a34-1c41-4d3c-9b65-5b0b3be50276","ios":"levelo://app?vid=4e442a34-1c41-4d3c-9b65-5b0b3be50276"},"vehicle_type_id":"4","last_reported":1727097509,"current_range_meters":37600,"station_id":"ce4bhr92rcd13ifvqhsg","pricing_plan_id":"cebpf4jnsgd1na2vs0mg"},{"bike_id":"ed881089-22f1-477f-ba0f-3b7d29c98a07","system_id":"levelo_inurba_marseille","lat":43.26558,"lon":5.3728,"is_reserved":false,"is_disabled":false,"rental_uris":{"android":"levelo://app?vid=ed881089-22f1-477f-ba0f-3b7d29c98a07","ios":"levelo://app?vid=ed881089-22f1-477f-ba0f-3b7d29c98a07"},"vehicle_type_id":"4","last_reported":1727097509,"current_range_meters":8000,"station_id":"ce4bhg12rcd13ifvqf70","pricing_plan_id":"cebpf4jnsgd1na2vs0mg"},{"bike_id":"d3f8bee1-ee9a-4565-b174-8c07c2f4164f","system_id":"levelo_inurba_marseille","lat":43.30869,"lon":5.37176,"is_reserved":false,"is_disabled":false,"rental_uris":{"android":"levelo://app?vid=d3f8bee1-ee9a-4565-b174-8c07c2f4164f","ios":"levelo://app?vid=d3f8bee1-ee9a-4565-b174-8c07c2f4164f"},"vehicle_type_id":"4","last_reported":1727097509,"current_range_meters":33200,"station_id":"ce4bguh2rcd13ifvqckg","pricing_plan_id":"cebpf4jnsgd1na2vs0mg"},{"bike_id":"6aaa7330-6a5a-4948-8955-4c7f7740c446","system_id":"levelo_inurba_marseille","lat":43.286559,"lon":5.386593,"is_reserved":false,"is_disabled":false,"rental_uris":{"android":"levelo://app?vid=6aaa7330-6a5a-4948-8955-4c7f7740c446","ios":"levelo://app?vid=6aaa7330-6a5a-4948-8955-4c7f7740c446"},"vehicle_type_id":"4","last_reported":1727097509,"current_range_meters":34800,"station_id":"ce4bh492rcd13ifvqdug","pricing_plan_id":"cebpf4jnsgd1na2vs0mg"},{"bike_id":"3cb2a005-89e8-4d38-9475-40c4b103d835","system_id":"levelo_inurba_marseille","lat":43.283701,"lon":5.38636,"is_reserved":false,"is_disabled":false,"rental_uris":{"android":"levelo://app?vid=3cb2a005-89e8-4d38-9475-40c4b103d835","ios":"levelo://app?vid=3cb2a005-89e8-4d38-9475-40c4b103d835"},"vehicle_type_id":"4","last_reported":1727097509,"current_range_meters":11600,"station_id":"ce4bh492rcd13ifvqdvg","pricing_plan_id":"cebpf4jnsgd1na2vs0mg"},{"bike_id":"0f4f3afb-5aec-429e-8b88-af3d49ba0d7b","system_id":"levelo_inurba_marseille","lat":43.30212,"lon":5.39478,"is_reserved":false,"is_disabled":false,"rental_uris":{"android":"levelo://app?vid=0f4f3afb-5aec-429e-8b88-af3d49ba0d7b","ios":"levelo://app?vid=0f4f3afb-5aec-429e-8b88-af3d49ba0d7b"},"vehicle_type_id":"4","last_reported":1727097509,"current_range_meters":24400,"station_id":"ce4bh0p2rcd13ifvqd70","pricing_plan_id":"cebpf4jnsgd1na2vs0mg"},{"bike_id":"ce1e6d58-cfb7-4ec4-bb20-35c51d94ff24","system_id":"levelo_inurba_marseille","lat":43.28275,"lon":5.35079,"is_reserved":false,"is_disabled":false,"rental_uris":{"android":"levelo://app?vid=ce1e6d58-cfb7-4ec4-bb20-35c51d94ff24","ios":"levelo://app?vid=ce1e6d58-cfb7-4ec4-bb20-35c51d94ff24"},"vehicle_type_id":"4","last_reported":1727097509,"current_range_meters":37600,"station_id":"ce4bhbp2rcd13ifvqerg","pricing_plan_id":"cebpf4jnsgd1na2vs0mg"},{"bike_id":"93489d1f-6901-45a9-80ea-600326ac4362","system_id":"levelo_inurba_marseille","lat":43.29196,"lon":5.35805,"is_reserved":false,"is_disabled":false,"rental_uris":{"android":"levelo://app?vid=93489d1f-6901-45a9-80ea-600326ac4362","ios":"levelo://app?vid=93489d1f-6901-45a9-80ea-600326ac4362"},"vehicle_type_id":"4","last_reported":1727097509,"current_range_meters":38800,"station_id":"ce4bhb12rcd13ifvqel0","pricing_plan_id":"cebpf4jnsgd1na2vs0mg"},{"bike_id":"7ae379da-9440-4378-a690-86693789de4b","system_id":"levelo_inurba_marseille","lat":43.29557,"lon":5.42272,"is_reserved":false,"is_disabled":false,"rental_uris":{"android":"levelo://app?vid=7ae379da-9440-4378-a690-86693789de4b","ios":"levelo://app?vid=7ae379da-9440-4378-a690-86693789de4b"},"vehicle_type_id":"4","last_reported":1727097509,"current_range_meters":10800,"station_id":"ce4bhph2rcd13ifvqhdg","pricing_plan_id":"cebpf4jnsgd1na2vs0mg"},{"bike_id":"02552a84-93ac-4f47-9115-b594cbf16674","system_id":"levelo_inurba_marseille","lat":43.29552,"lon":5.42278,"is_reserved":false,"is_disabled":false,"rental_uris":{"android":"levelo://app?vid=02552a84-93ac-4f47-9115-b594cbf16674","ios":"levelo://app?vid=02552a84-93ac-4f47-9115-b594cbf16674"},"vehicle_type_id":"4","last_reported":1727097509,"current_range_meters":39200,"station_id":"ce4bhph2rcd13ifvqhdg","pricing_plan_id":"cebpf4jnsgd1na2vs0mg"},{"bike_id":"9919d03d-32e2-48a5-b92b-cabc7cd44052","system_id":"levelo_inurba_marseille","lat":43.30418,"lon":5.37834,"is_reserved":false,"is_disabled":false,"rental_uris":{"android":"levelo://app?vid=9919d03d-32e2-48a5-b92b-cabc7cd44052","ios":"levelo://app?vid=9919d03d-32e2-48a5-b92b-cabc7cd44052"},"vehicle_type_id":"4","last_reported":1727097509,"current_range_meters":17200,"station_id":"","pricing_plan_id":"cebpf4jnsgd1na2vs0mg"},{"bike_id":"661b64ad-c48a-4a6f-bf68-7b5230298c96","system_id":"levelo_inurba_marseille","lat":43.23153,"lon":5.43701,"is_reserved":false,"is_disabled":false,"rental_uris":{"android":"levelo://app?vid=661b64ad-c48a-4a6f-bf68-7b5230298c96","ios":"levelo://app?vid=661b64ad-c48a-4a6f-bf68-7b5230298c96"},"vehicle_type_id":"4","last_reported":1727097509,"current_range_meters":38400,"station_id":"ce4bhmp2rcd13ifvqgog","pricing_plan_id":"cebpf4jnsgd1na2vs0mg"},{"bike_id":"b49e8aa4-b4d7-4f9d-a437-8d1bbdfe618a","system_id":"levelo_inurba_marseille","lat":43.29557,"lon":5.4229,"is_reserved":false,"is_disabled":false,"rental_uris":{"android":"levelo://app?vid=b49e8aa4-b4d7-4f9d-a437-8d1bbdfe618a","ios":"levelo://app?vid=b49e8aa4-b4d7-4f9d-a437-8d1bbdfe618a"},"vehicle_type_id":"4","last_reported":1727097509,"current_range_meters":38800,"station_id":"ce4bhph2rcd13ifvqhdg","pricing_plan_id":"cebpf4jnsgd1na2vs0mg"},