{"last_updated":1745511185,"ttl":60,"version":"2.2","data":{"bikes":[{"bike_id":"f11e811f-b968-4ffe-853b-927beb722a08","system_id":"levelo_inurba_marseille","lat":43.27991,"lon":5.41663,"is_reserved":false,"is_disabled":false,"rental_uris":{"android":"levelo://app?vid=f11e811f-b968-4ffe-853b-927beb722a08","ios":"levelo://app?vid=f11e811f-b968-4ffe-853b-927beb722a08"},"vehicle_type_id":"4","last_reported":1745511185,"current_range_meters":2800,"station_id":"ce4bho12rcd13ifvqh1g","pricing_plan_id":"cebpf4jnsgd1na2vs0mg"},{"bike_id":"9021f5d0-24f8-4256-a448-83b4948afec3","system_id":"levelo_inurba_marseille","lat":43.28043,"lon":5.36942,"is_reserved":false,"is_disabled":false,"rental_uris":{"android":"levelo://app?vid=9021f5d0-24f8-4256-a448-83b4948afec3","ios":"levelo://app?vid=9021f5d0-24f8-4256-a448-83b4948afec3"},"vehicle_type_id":"4","last_reported":1745511185,"current_range_meters":2800,"station_id":"ce4bha12rcd13ifvqef0","pricing_plan_id":"cebpf4jnsgd1na2vs0mg"},{"bike_id":"934500ab-fdfe-459f-91cc-beac4c3bc6bd","system_id":"levelo_inurba_marseille","lat":43.289429,"lon":5.363906,"is_reserved":false,"is_disabled":false,"rental_uris":{"android":"levelo://app?vid=934500ab-fdfe-459f-91cc-beac4c3bc6bd","ios":"levelo://app?vid=934500ab-fdfe-459f-91cc-beac4c3bc6bd"},"vehicle_type_id":"4","last_reported":1745511185,"current_range_meters":3200,"station_id":"ce4bhc92rcd13ifvqetg","pricing_plan_id":"cebpf4jnsgd1na2vs0mg"},{"bike_id":"dcbdd48b-5036-4673-a923-ca65d81ffe91","system_id":"levelo_inurba_marseille","lat":43.28863,"lon":5.35839,"is_reserved":false,"is_disabled":false,"rental_uris":{"android":"levelo://app?vid=dcbdd48b-5036-4673-a923-ca65d81ffe91","ios":"levelo://app?vid=dcbdd48b-5036-4673-a923-ca65d81ffe91"},"vehicle_type_id":"4","last_reported":1745511185,"current_range_meters":3600,"station_id":"ce4bhb12rcd13ifvqem0","pricing_plan_id":"cebpf4jnsgd1na2vs0mg"},{"bike_id":"724e770b-441e-4adc-9ee7-544a143cff44","system_id":"levelo_inurba_marseille","lat":43.272093,"lon":5.391837,"is_reserved":false,"is_disabled":false,"rental_uris":{"android":"levelo://app?vid=724e770b-441e-4adc-9ee7-544a143cff44","ios":"levelo://app?vid=724e770b-441e-4adc-9ee7-544a143cff44"},"vehicle_type_id":"4","last_reported":1745511185,"current_range_meters":3600,"station_id":"ce4bhi12rcd13ifvqfp0","pricing_plan_id":"cebpf4jnsgd1na2vs0mg"},{"bike_id":"7a3d590a-7a3b-41b6-8caa-2e1301f03d57","system_id":"levelo_inurba_marseille","lat":43.30546,"lon":5.36701,"is_reserved":false,"is_disabled":false,"rental_uris":{"android":"levelo://app?vid=7a3d590a-7a3b-41b6-8caa-2e1301f03d57","ios":"levelo://app?vid=7a3d590a-7a3b-41b6-8caa-2e1301f03d57"},"vehicle_type_id":"4","last_reported":1745511185,"current_range_meters":3600,"station_id":"ce4bgrp2rcd13ifvqc9g","pricing_plan_id":"cebpf4jnsgd1na2vs0mg"},{"bike_id":"2e30ec25-360e-4cb5-9f57-68f9dab0b9e0","system_id":"levelo_inurba_marseille","lat":43.28858,"lon":5.35844,"is_reserved":false,"is_disabled":false,"rental_uris":{"android":"levelo://app?vid=2e30ec25-360e-4cb5-9f57-68f9dab0b9e0","ios":"levelo://app?vid=2e30ec25-360e-4cb5-9f57-68f9dab0b9e0"},"vehicle_type_id":"4","last_reported":1745511185,"current_range_meters":3600,"station_id":"ce4bhb12rcd13ifvqem0","pricing_plan_id":"cebpf4jnsgd1na2vs0mg"},{"bike_id":"cb10c9d7-eef3-43af-a272-9d5fd16f3ac0","system_id":"levelo_inurba_marseille","lat":43.29812,"lon":5.40397,"is_reserved":false,"is_disabled":false,"rental_uris":{"android":"levelo://app?vid=cb10c9d7-eef3-43af-a272-9d5fd16f3ac0","ios":"levelo://app?vid=cb10c9d7-eef3-43af-a272-9d5fd16f3ac0"},"vehicle_type_id":"4","last_reported":1745511185,"current_range_meters":3600,"station_id":"ce4bh112rcd13ifvqd90","pricing_plan_id":"cebpf4jnsgd1na2vs0mg"},{"bike_id":"fe7a698f-8649-44a6-8259-165345231f50","system_id":"levelo_inurba_marseille","lat":43.31532,"lon":5.38038,"is_reserved":false,"is_disabled":false,"rental_uris":{"android":"levelo://app?vid=fe7a698f-8649-44a6-8259-165345231f50","ios":"levelo://app?vid=fe7a698f-8649-44a6-8259-165345231f50"},"vehicle_type_id":"4","last_reported":1745511185,"current_range_meters":4000,"station_id":"ce4bhsp2rcd13ifvqi50","pricing_plan_id":"cebpf4jnsgd1na2vs0mg"},{"bike_id":"42de4e37-ccea-4928-9454-7fc45e8b2d47","system_id":"levelo_inurba_marseille","lat":43.27669,"lon":5.389,"is_reserved":false,"is_disabled":false,"rental_uris":{"android":"levelo://app?vid=42de4e37-ccea-4928-9454-7fc45e8b2d47","ios":"levelo://app?vid=42de4e37-ccea-4928-9454-7fc45e8b2d47"},"vehicle_type_id":"4","last_reported":1745511185,"current_range_meters":2000,"station_id":"ce4bhi12rcd13ifvqfo0","pricing_plan_id":"cebpf4jnsgd1na2vs0mg"},{"bike_id":"dd796a9d-9b7a-4a42-bfe2-281f1c43c248","system_id":"levelo_inurba_marseille","lat":43.30541,"lon":5.36557,"is_reserved":false,"is_disabled":false,"rental_uris":{"android":"levelo://app?vid=dd796a9d-9b7a-4a42-bfe2-281f1c43c248","ios":"levelo://app?vid=dd796a9d-9b7a-4a42-bfe2-281f1c43c248"},"vehicle_type_id":"4","last_reported":1745511185,"current_range_meters":4000,"station_id":"ce4bgs12rcd13ifvqcag","pricing_plan_id":"cebpf4jnsgd1na2vs0mg"},{"bike_id":"97f8610b-214a-4cfe-9441-07b6b5d209d3","system_id":"levelo_inurba_marseille","lat":43.29444,"lon":5.39761,"is_reserved":false,"is_disabled":false,"rental_uris":{"android":"levelo://app?vid=97f8610b-214a-4cfe-9441-07b6b5d209d3","ios":"levelo://app?vid=97f8610b-214a-4cfe-9441-07b6b5d209d3"},"vehicle_type_id":"4","last_reported":1745511185,"current_range_meters":4000,"station_id":"ce4bh3h2rcd13ifvqdo0","pricing_plan_id":"cebpf4jnsgd1na2vs0mg"},{"bike_id":"ed4c4b6d-40e2-4bea-b4f3-8703a019b9f2","system_id":"levelo_inurba_marseille","lat":43.282623,"lon":5.350583,"is_reserved":false,"is_disabled":false,"rental_uris":{"android":"levelo://app?vid=ed4c4b6d-40e2-4bea-b4f3-8703a019b9f2","ios":"levelo://app?vid=ed4c4b6d-40e2-4bea-b4f3-8703a019b9f2"},"vehicle_type_id":"4","last_reported":1745511185,"current_range_meters":4000,"station_id":"ce4bhbp2rcd13ifvqerg","pricing_plan_id":"cebpf4jnsgd1na2vs0mg"},{"bike_id":"2def0c56-ebd1-4350-bd83-1b2571da605f","system_id":"levelo_inurba_marseille","lat":43.30429,"lon":5.38886,"is_reserved":false,"is_disabled":false,"rental_uris":{"android":"levelo://app?vid=2def0c56-ebd1-4350-bd83-1b2571da605f","ios":"levelo://app?vid=2def0c56-ebd1-4350-bd83-1b2571da605f"},"vehicle_type_id":"4","last_reported":1745511185,"current_range_meters":3600,"station_id":"ce4bgk12rcd13ifvqbi0","pricing_plan_id":"cebpf4jnsgd1na2vs0mg"},{"bike_id":"ed5e2e18-64d0-491a-970a-f052a5fea769","system_id":"levelo_inurba_marseille","lat":43.23178,"lon":5.39997,"is_reserved":false,"is_disabled":false,"rental_uris":{"android":"levelo://app?vid=ed5e2e18-64d0-491a-970a-f052a5fea769","ios":"levelo://app?vid=ed5e2e18-64d0-491a-970a-f052a5fea769"},"vehicle_type_id":"4","last_reported":1745511185,"current_range_meters":4000,"station_id":"ce4bhn12rcd13ifvqgqg","pricing_plan_id":"cebpf4jnsgd1na2vs0mg"},{"bike_id":"02b9f073-3583-4275-874e-45c6a7c44f52","system_id":"levelo_inurba_marseille","lat":43.302508,"lon":5.400792,"is_reserved":false,"is_disabled":false,"rental_uris":{"android":"levelo://app?vid=02b9f073-3583-4275-874e-45c6a7c44f52","ios":"levelo://app?vid=02b9f073-3583-4275-874e-45c6a7c44f52"},"vehicle_type_id":"4","last_reported":1745511185,"current_range_meters":4000,"station_id":"ce4bgvh2rcd13ifvqcs0","pricing_plan_id":"cebpf4jnsgd1na2vs0mg"},{"bike_id":"0401f342-1638-46ef-946c-b0af9fe4aff6","system_id":"levelo_inurba_marseille","lat":43.232,"lon":5.35551,"is_reserved":false,"is_disabled":false,"rental_uris":{"android":"levelo://app?vid=0401f342-1638-46ef-946c-b0af9fe4aff6","ios":"levelo://app?vid=0401f342-1638-46ef-946c-b0af9fe4aff6"},"vehicle_type_id":"4","last_reported":1745511185,"current_range_meters":4000,"station_id":"ce4bhu92rcd13ifvqi70","pricing_plan_id":"cebpf4jnsgd1na2vs0mg"},{"bike_id":"dbe61fbf-9636-4c50-a4aa-b1266827e2ee","system_id":"levelo_inurba_marseille","lat":43.25589,"lon":5.38229,"is_reserved":false,"is_disabled":false,"rental_uris":{"android":"levelo://app?vid=dbe61fbf-9636-4c50-a4aa-b1266827e2ee","ios":"levelo://app?vid=dbe61fbf-9636-4c50-a4aa-b1266827e2ee"},"vehicle_type_id":"4","last_reported":1745511185,"current_range_meters":3600,"station_id":"ce4bhih2rcd13ifvqfs0","pricing_plan_id":"cebpf4jnsgd1na2vs0mg"},{"bike_id":"908986dc-69c2-43d7-bd0e-0349aa3f7a7f","system_id":"levelo_inurba_marseille","lat":43.290309,"lon":5.375894,"is_reserved":false,"is_disabled":false,"rental_uris":{"android":"levelo://app?vid=908986dc-69c2-43d7-bd0e-0349aa3f7a7f","ios":"levelo://app?vid=908986dc-69c2-43d7-bd0e-0349aa3f7a7f"},"vehicle_type_id":"4","last_reported":1745511185,"current_range_meters":7200,"station_id":"ce4bh692rcd13ifvqe90","pricing_plan_id":"cebpf4jnsgd1na2vs0mg"},{"bike_id":"04de76c4-a1ad-45bf-9e28-7c78bfcbb5c0","system_id":"levelo_inurba_marseille","lat":43.251831,"lon":5.37454,"is_reserved":false,"is_disabled":false,"rental_uris":{"android":"levelo://app?vid=04de76c4-a1ad-45bf-9e28-7c78bfcbb5c0","ios":"levelo://app?vid=04de76c4-a1ad-45bf-9e28-7c78bfcbb5c0"},"vehicle_type_id":"4","last_reported":1745511185,"current_range_meters":4400,"station_id":"ce4bh392rcd13ifvqdm0","pricing_plan_id":"cebpf4jnsgd1na2vs0mg"},{"bike_id":"d5d53119-2577-42f5-9c8d-a940a89da04f","system_id":"levelo_inurba_marseille","lat":43.29094,"lon":5.38147,"is_reserved":false,"is_disabled":false,"rental_uris":{"android":"levelo://app?vid=d5d53119-2577-42f5-9c8d-a940a89da04f","ios":"levelo://app?vid=d5d53119-2577-42f5-9c8d-a940a89da04f"},"vehicle_type_id":"4","last_reported":1745511185,"current_range_meters":4400,"station_id":"ce4bh512rcd13ifvqe2g","pricing_plan_id":"cebpf4jnsgd1na2vs0mg"},{"bike_id":"4cc62379-f5d7-42ef-8424-8ce13630ca82","system_id":"levelo_inurba_marseille","lat":43.30617,"lon":5.37236,"is_reserved":false,"is_disabled":false,"rental_uris":{"android":"levelo://app?vid=4cc62379-f5d7-42ef-8424-8ce13630ca82","ios":"levelo://app?vid=4cc62379-f5d7-42ef-8424-8ce13630ca82"},"vehicle_type_id":"4","last_reported":1745511185,"current_range_meters":5600,"station_id":"ce4bgqh2rcd13ifvqc4g","pricing_plan_id":"cebpf4jnsgd1na2vs0mg"},{"bike_id":"d9bccdeb-f774-4a05-a586-2368aeb9ceb9","system_id":"levelo_inurba_marseille","lat":43.28729,"lon":5.3609,"is_reserved":false,"is_disabled":false,"rental_uris":{"android":"levelo://app?vid=d9bccdeb-f774-4a05-a586-2368aeb9ceb9","ios":"levelo://app?vid=d9bccdeb-f774-4a05-a586-2368aeb9ceb9"},"vehicle_type_id":"4","last_reported":1745511185,"current_range_meters":5600,"station_id":"cki0cbj6b192h4jlfktg","pricing_plan_id":"cebpf4jnsgd1na2vs0mg"},{"bike_id":"ffe18b41-bef0-44a8-ab38-1242450fdfa1","system_id":"levelo_inurba_marseille","lat":43.292718,"lon":5.368484,"is_reserved":false,"is_disabled":false,"rental_uris":{"android":"levelo://app?vid=ffe18b41-bef0-44a8-ab38-1242450fdfa1","ios":"levelo://app?vid=ffe18b41-bef0-44a8-ab38-1242450fdfa1"},"vehicle_type_id":"4","last_reported":1745511185,"current_range_meters":6000,"station_id":"ce4bhbp2rcd13ifvqesg","pricing_plan_id":"cebpf4jnsgd1na2vs0mg"},{"bike_id":"ad66ab43-36dd-4efc-b57a-3ddab3ae54d3","system_id":"levelo_inurba_marseille","lat":43.28158,"lon":5.4264,"is_reserved":false,"is_disabled":false,"rental_uris":{"android":"levelo://app?vid=ad66ab43-36dd-4efc-b57a-3ddab3ae54d3","ios":"levelo://app?vid=ad66ab43-36dd-4efc-b57a-3ddab3ae54d3"},"vehicle_type_id":"4","last_reported":1745511185,"current_range_meters":6000,"station_id":"ce4bhnh2rcd13ifvqgug","pricing_plan_id":"cebpf4jnsgd1na2vs0mg"},{"bike_id":"2e573d50-909f-4119-8c44-65313ec01fcb","system_id":"levelo_inurba_marseille","lat":43.30533,"lon":5.36552,"is_reserved":false,"is_disabled":false,"rental_uris":{"android":"levelo://app?vid=2e573d50-909f-4119-8c44-65313ec01fcb","ios":"levelo://app?vid=2e573d50-909f-4119-8c44-65313ec01fcb"},"vehicle_type_id":"4","last_reported":1745511185,"current_range_meters":6000,"station_id":"ce4bgs12rcd13ifvqcag","pricing_plan_id":"cebpf4jnsgd1na2vs0mg"},{"bike_id":"da70d61b-208e-4f5a-8136-fdac79841f35","system_id":"levelo_inurba_marseille","lat":43.28016,"lon":5.36956,"is_reserved":false,"is_disabled":false,"rental_uris":{"android":"levelo://app?vid=da70d61b-208e-4f5a-8136-fdac79841f35","ios":"levelo://app?vid=da70d61b-208e-4f5a-8136-fdac79841f35"},"vehicle_type_id":"4","last_reported":1745511185,"current_range_meters":6400,"station_id":"ce4bha12rcd13ifvqef0","pricing_plan_id":"cebpf4jnsgd1na2vs0mg"},{"bike_id":"480a01c4-091a-4d45-a84b-d3b9bd841792","system_id":"levelo_inurba_marseille","lat":43.2858,"lon":5.39492,"is_reserved":false,"is_disabled":false,"rental_uris":{"android":"levelo://app?vid=480a01c4-091a-4d45-a84b-d3b9bd841792","ios":"levelo://app?vid=480a01c4-091a-4d45-a84b-d3b9bd841792"},"vehicle_type_id":"4","last_reported":1745511185,"current_range_meters":6400,"station_id":"ce4bh292rcd13ifvqdg0","pricing_plan_id":"cebpf4jnsgd1na2vs0mg"},{"bike_id":"6f1d1f67-7a66-4e82-9785-fea4009db0da","system_id":"levelo_inurba_marseille","lat":43.2795,"lon":5.4105,"is_reserved":false,"is_disabled":false,"rental_uris":{"android":"levelo://app?vid=6f1d1f67-7a66-4e82-9785-fea4009db0da","ios":"levelo://app?vid=6f1d1f67-7a66-4e82-9785-fea4009db0da"},"vehicle_type_id":"4","last_reported":1745511185,"current_range_meters":6400,"station_id":"ce4bhnp2rcd13ifvqh0g","pricing_plan_id":"cebpf4jnsgd1na2vs0mg"},{"bike_id":"f809dc52-bddf-4f35-a288-adf3ede7799b","system_id":"levelo_inurba_marseille","lat":43.25497,"lon":5.37647,"is_reserved":false,"is_disabled":false,"rental_uris":{"android":"levelo://app?vid=f809dc52-bddf-4f35-a288-adf3ede7799b","ios":"levelo://app?vid=f809dc52-bddf-4f35-a288-adf3ede7799b"},"vehicle_type_id":"4","last_reported":1745511185,"current_range_meters":6400,"station_id":"ce4bhh12rcd13ifvqff0","pricing_plan_id":"cebpf4jnsgd1na2vs0mg"},{"bike_id":"276380bb-85f7-4784-9ac5-1ed53fe31ad1","system_id":"levelo_inurba_marseille","lat":43.25582,"lon":5.38252,"is_reserved":false,"is_disabled":false,"rental_uris":{"android":"levelo://app?vid=276380bb-85f7-4784-9ac5-1ed53fe31ad1","ios":"levelo://app?vid=276380bb-85f7-4784-9ac5-1ed53fe31ad1"},"vehicle_type_id":"4","last_reported":1745511185,"current_range_meters":6400,"station_id":"ce4bhih2rcd13ifvqfs0","pricing_plan_id":"cebpf4jnsgd1na2vs0mg"},{"bike_id":"6cd74a58-c7a1-400c-b2b9-382cb559cb4d","system_id":"levelo_inurba_marseille","lat":43.29646,"lon":5.37334,"is_reserved":false,"is_disabled":false,"rental_uris":{"android":"levelo://app?vid=6cd74a58-c7a1-400c-b2b9-382cb559cb4d","ios":"levelo://app?vid=6cd74a58-c7a1-400c-b2b9-382cb559cb4d"},"vehicle_type_id":"4","last_reported":1745511185,"current_range_meters":6400,"station_id":"","pricing_plan_id":"cebpf4jnsgd1na2vs0mg"},{"bike_id":"2479ff7e-1ab5-43d8-98c5-245049265b87","system_id":"levelo_inurba_marseille","lat":43.29063,"lon":5.37174,"is_reserved":false,"is_disabled":false,"rental_uris":{"android":"levelo://app?vid=2479ff7e-1ab5-43d8-98c5-245049265b87","ios":"levelo://app?vid=2479ff7e-1ab5-43d8-98c5-245049265b87"},"vehicle_type_id":"4","last_reported":1745511185,"current_range_meters":6800,"station_id":"ce4bh5p2rcd13ifvqe4g","pricing_plan_id":"cebpf4jnsgd1na2vs0mg"},{"bike_id":"bb6ec4e0-d5ef-4a2d-b451-97f5ac04b99f","system_id":"levelo_inurba_marseille","lat":43.29042,"lon":5.37566,"is_reserved":false,"is_disabled":false,"rental_uris":{"android":"levelo://app?vid=bb6ec4e0-d5ef-4a2d-b451-97f5ac04b99f","ios":"levelo://app?vid=bb6ec4e0-d5ef-4a2d-b451-97f5ac04b99f"},"vehicle_type_id":"4","last_reported":1745511185,"current_range_meters":6800,"station_id":"ce4bh692rcd13ifvqe90","pricing_plan_id":"cebpf4jnsgd1na2vs0mg"},{"bike_id":"343f22b9-d796-4fc0-970f-8a9a331371b8","system_id":"levelo_inurba_marseille","lat":43.30904,"lon":5.36838,"is_reserved":false,"is_disabled":false,"rental_uris":{"android":"levelo://app?vid=343f22b9-d796-4fc0-970f-8a9a331371b8","ios":"levelo://app?vid=343f22b9-d796-4fc0-970f-8a9a331371b8"},"vehicle_type_id":"4","last_reported":1745511185,"current_range_meters":6800,"station_id":"ce4bgn92rcd13ifvqbvg","pricing_plan_id":"cebpf4jnsgd1na2vs0mg"},{"bike_id":"1e1c2ae3-2dff-48a5-9a17-2924b7866632","system_id":"levelo_inurba_marseille","lat":43.27428,"lon":5.39419,"is_reserved":false,"is_disabled":false,"rental_uris":{"android":"levelo://app?vid=1e1c2ae3-2dff-48a5-9a17-2924b7866632","ios":"levelo://app?vid=1e1c2ae3-2dff-48a5-9a17-2924b7866632"},"vehicle_type_id":"4","last_reported":1745511185,"current_range_meters":6400,"station_id":"ce4bhdp2rcd13ifvqf20","pricing_plan_id":"cebpf4jnsgd1na2vs0mg"},{"bike_id":"30704823-7a9c-4b12-af5d-93db18bfd3b9","system_id":"levelo_inurba_marseille","lat":43.28814,"lon":5.39935,"is_reserved":false,"is_disabled":false,"rental_uris":{"android":"levelo://app?vid=30704823-7a9c-4b12-af5d-93db18bfd3b9","ios":"levelo://app?vid=30704823-7a9c-4b12-af5d-93db18bfd3b9"},"vehicle_type_id":"4","last_reported":1745511185,"current_range_meters":6800,"station_id":"","pricing_plan_id":"cebpf4jnsgd1na2vs0mg"},{"bike_id":"7f0147d1-5bb7-4f78-8a66-7512c641d608","system_id":"levelo_inurba_marseille","lat":43.2947,"lon":5.39779,"is_reserved":false,"is_disabled":false,"rental_uris":{"android":"levelo://app?vid=7f0147d1-5bb7-4f78-8a66-7512c641d608","ios":"levelo://app?vid=7f0147d1-5bb7-4f78-8a66-7512c641d608"},"vehicle_type_id":"4","last_reported":1745511185,"current_range_meters":6800,"station_id":"ce4bh3h2rcd13ifvqdo0","pricing_plan_id":"cebpf4jnsgd1na2vs0mg"},{"bike_id":"4dada7b0-057e-46d3-bd9f-41c43902fc50","system_id":"levelo_inurba_marseille","lat":43.29267,"lon":5.40123,"is_reserved":false,"is_disabled":true,"rental_uris":{"android":"levelo://app?vid=4dada7b0-057e-46d3-bd9f-41c43902fc50","ios":"levelo://app?vid=4dada7b0-057e-46d3-bd9f-41c43902fc50"},"vehicle_type_id":"4","last_reported":1745511185,"current_range_meters":7200,"station_id":"ce4bh312rcd13ifvqdk0","pricing_plan_id":"cebpf4jnsgd1na2vs0mg"},{"bike_id":"567c76f7-e325-4083-b091-7e2795d5e054","system_id":"levelo_inurba_marseille","lat":43.27681,"lon":5.38871,"is_reserved":false,"is_disabled":false,"rental_uris":{"android":"levelo://app?vid=567c76f7-e325-4083-b091-7e2795d5e054","ios":"levelo://app?vid=567c76f7-e325-4083-b091-7e2795d5e054"},"vehicle_type_id":"4","last_reported":1745511185,"current_range_meters":8000,"station_id":"ce4bhi12rcd13ifvqfo0","pricing_plan_id":"cebpf4jnsgd1na2vs0mg"},{"bike_id":"1ff6b174-1244-4502-b030-5aa3ab1b2945","system_id":"levelo_inurba_marseille","lat":43.26502,"lon":5.3955,"is_reserved":false,"is_disabled":false,"rental_uris":{"android":"levelo://app?vid=1ff6b174-1244-4502-b030-5aa3ab1b2945","ios":"levelo://app?vid=1ff6b174-1244-4502-b030-5aa3ab1b2945"},"vehicle_type_id":"4","last_reported":1745511185,"current_range_meters":7200,"station_id":"ce4bhi12rcd13ifvqfq0","pricing_plan_id":"cebpf4jnsgd1na2vs0mg"},{"bike_id":"eb215417-31bc-40eb-819d-c47ff598cd49","system_id":"levelo_inurba_marseille","lat":43.27571,"lon":5.3843,"is_reserved":false,"is_disabled":false,"rental_uris":{"android":"levelo://app?vid=eb215417-31bc-40eb-819d-c47ff598cd49","ios":"levelo://app?vid=eb215417-31bc-40eb-819d-c47ff598cd49"},"vehicle_type_id":"4","last_reported":1745511185,"current_range_meters":7200,"station_id":"ce4bhh92rcd13ifvqfi0","pricing_plan_id":"cebpf4jnsgd1na2vs0mg"},{"bike_id":"a16f5743-f70b-46c0-8f9e-920263daeba8","system_id":"levelo_inurba_marseille","lat":43.25495,"lon":5.37647,"is_reserved":false,"is_disabled":false,"rental_uris":{"android":"levelo://app?vid=a16f5743-f70b-46c0-8f9e-920263daeba8","ios":"levelo://app?vid=a16f5743-f70b-46c0-8f9e-920263daeba8"},"vehicle_type_id":"4","last_reported":1745511185,"current_range_meters":6800,"station_id":"ce4bhh12rcd13ifvqff0","pricing_plan_id":"cebpf4jnsgd1na2vs0mg"},{"bike_id":"5a76a362-f0d8-42a9-8c20-d5e992b3c47d","system_id":"levelo_inurba_marseille","lat":43.316815,"lon":5.4048,"is_reserved":false,"is_disabled":false,"rental_uris":{"android":"levelo://app?vid=5a76a362-f0d8-42a9-8c20-d5e992b3c47d","ios":"levelo://app?vid=5a76a362-f0d8-42a9-8c20-d5e992b3c47d"},"vehicle_type_id":"4","last_reported":1745511185,"current_range_meters":7200,"station_id":"ce4bh012rcd13ifvqd00","pricing_plan_id":"cebpf4jnsgd1na2vs0mg"},{"bike_id":"92c3b340-d069-4f1c-b55b-44c52f19597b","system_id":"levelo_inurba_marseille","lat":43.28251,"lon":5.37795,"is_reserved":false,"is_disabled":false,"rental_uris":{"android":"levelo://app?vid=92c3b340-d069-4f1c-b55b-44c52f19597b","ios":"levelo://app?vid=92c3b340-d069-4f1c-b55b-44c52f19597b"},"vehicle_type_id":"4","last_reported":1745511185,"current_range_meters":8000,"station_id":"","pricing_plan_id":"cebpf4jnsgd1na2vs0mg"},{"bike_id":"cd442009-e164-41f2-8ecc-aef06108b87e","system_id":"levelo_inurba_marseille","lat":43.29231,"lon":5.3606,"is_reserved":false,"is_disabled":false,"rental_uris":{"android":"levelo://app?vid=cd442009-e164-41f2-8ecc-aef06108b87e","ios":"levelo://app?vid=cd442009-e164-41f2-8ecc-aef06108b87e"},"vehicle_type_id":"4","last_reported":1745511185,"current_range_meters":8000,"station_id":"ce4bhbh2rcd13ifvqeqg","pricing_plan_id":"cebpf4jnsgd1na2vs0mg"},{"bike_id":"e6754dff-293c-4791-b74a-75b84ff22037","system_id":"levelo_inurba_marseille","lat":43.287017,"lon":5.373763,"is_reserved":false,"is_disabled":false,"rental_uris":{"android":"levelo://app?vid=e6754dff-293c-4791-b74a-75b84ff22037","ios":"levelo://app?vid=e6754dff-293c-4791-b74a-75b84ff22037"},"vehicle_type_id":"4","last_reported":1745511185,"current_range_meters":8000,"station_id":"ce4bh3h2rcd13ifvqdn0","pricing_plan_id":"cebpf4jnsgd1na2vs0mg"},{"bike_id":"8764c801-9cd2-4e78-bbfe-a229706ee676","system_id":"levelo_inurba_marseille","lat":43.29878,"lon":5.38934,"is_reserved":false,"is_disabled":true,"rental_uris":{"android":"levelo://app?vid=8764c801-9cd2-4e78-bbfe-a229706ee676","ios":"levelo://app?vid=8764c801-9cd2-4e78-bbfe-a229706ee676"},"vehicle_type_id":"4","last_reported":1745511185,"current_range_meters":8000,"station_id":"ce4bh392rcd13ifvqdl0","pricing_plan_id":"cebpf4jnsgd1na2vs0mg"},{"bike_id":"5631cc20-07a1-462d-86b0-2ed47987df41","system_id":"levelo_inurba_marseille","lat":43.318932,"lon":5.407372,"is_reserved":false,"is_disabled":false,"rental_uris":{"android":"levelo://app?vid=5631cc20-07a1-462d-86b0-2ed47987df41","ios":"levelo://app?vid=5631cc20-07a1-462d-86b0-2ed47987df41"},"vehicle_type_id":"4","last_reported":1745511185,"current_range_meters":8000,"station_id":"","pricing_plan_id":"cebpf4jnsgd1na2vs0mg"},{"bike_id":"bb65400f-da2e-4f26-8108-27c329257db0","system_id":"levelo_inurba_marseille","lat":43.31367,"lon":5.38488,"is_reserved":false,"is_disabled":false,"rental_uris":{"android":"levelo://app?vid=bb65400f-da2e-4f26-8108-27c329257db0","ios":"levelo://app?vid=bb65400f-da2e-4f26-8108-27c329257db0"},"vehicle_type_id":"4","last_reported":1745511185,"current_range_meters":8400,"station_id":"ce4bgt92rcd13ifvqcf0","pricing_plan_id":"cebpf4jnsgd1na2vs0mg"},{"bike_id":"16187ddf-3390-4f7f-b5c3-c5f8787c6a31","system_id":"levelo_inurba_marseille","lat":43.31371,"lon":5.38485,"is_reserved":false,"is_disabled":false,"rental_uris":{"android":"levelo://app?vid=16187ddf-3390-4f7f-b5c3-c5f8787c6a31","ios":"levelo://app?vid=16187ddf-3390-4f7f-b5c3-c5f8787c6a31"},"vehicle_type_id":"4","last_reported":1745511185,"current_range_meters":8000,"station_id":"ce4bgt92rcd13ifvqcf0","pricing_plan_id":"cebpf4jnsgd1na2vs0mg"},{"bike_id":"71fe90ca-b4e3-4d12-988f-c0b619d47985","system_id":"levelo_inurba_marseille","lat":43.279245,"lon":5.413875,"is_reserved":false,"is_disabled":false,"rental_uris":{"android":"levelo://app?vid=71fe90ca-b4e3-4d12-988f-c0b619d47985","ios":"levelo://app?vid=71fe90ca-b4e3-4d12-988f-c0b619d47985"},"vehicle_type_id":"4","last_reported":1745511185,"current_range_meters":8400,"station_id":"ce4bho12rcd13ifvqh1g","pricing_plan_id":"cebpf4jnsgd1na2vs0mg"},{"bike_id":"f7cb47bf-edab-445e-88de-4022a40118a0","system_id":"levelo_inurba_marseille","lat":43.30418,"lon":5.4129,"is_reserved":false,"is_disabled":false,"rental_uris":{"android":"levelo://app?vid=f7cb47bf-edab-445e-88de-4022a40118a0","ios":"levelo://app?vid=f7cb47bf-edab-445e-88de-4022a40118a0"},"vehicle_type_id":"4","last_reported":1745511185,"current_range_meters":8400,"station_id":"ce4bhop2rcd13ifvqh8g","pricing_plan_id":"cebpf4jnsgd1na2vs0mg"},{"bike_id":"487d0e76-4f40-4cf7-944f-fa5b31657bff","system_id":"levelo_inurba_marseille","lat":43.30425,"lon":5.41283,"is_reserved":false,"is_disabled":false,"rental_uris":{"android":"levelo://app?vid=487d0e76-4f40-4cf7-944f-fa5b31657bff","ios":"levelo://app?vid=487d0e76-4f40-4cf7-944f-fa5b31657bff"},"vehicle_type_id":"4","last_reported":1745511185,"current_range_meters":8000,"station_id":"ce4bhop2rcd13ifvqh8g","pricing_plan_id":"cebpf4jnsgd1na2vs0mg"},{"bike_id":"a55fc0db-a5d7-424e-bd33-2941bc21f4ae","system_id":"levelo_inurba_marseille","lat":43.25096,"lon":5.39514,"is_reserved":false,"is_disabled":false,"rental_uris":{"android":"levelo://app?vid=a55fc0db-a5d7-424e-bd33-2941bc21f4ae","ios":"levelo://app?vid=a55fc0db-a5d7-424e-bd33-2941bc21f4ae"},"vehicle_type_id":"4","last_reported":1745511185,"current_range_meters":8400,"station_id":"ce4bhm12rcd13ifvqgkg","pricing_plan_id":"cebpf4jnsgd1na2vs0mg"},{"bike_id":"f742e759-6e98-4553-96e1-e1964ee51b8f","system_id":"levelo_inurba_marseille","lat":43.308,"lon":5.43524,"is_reserved":false,"is_disabled":false,"rental_uris":{"android":"levelo://app?vid=f742e759-6e98-4553-96e1-e1964ee51b8f","ios":"levelo://app?vid=f742e759-6e98-4553-96e1-e1964ee51b8f"},"vehicle_type_id":"4","last_reported":1745511185,"current_range_meters":8800,"station_id":"ce4bhph2rcd13ifvqheg","pricing_plan_id":"cebpf4jnsgd1na2vs0mg"},{"bike_id":"342cdee4-cd86-47f8-b64f-10648dd01ab9","system_id":"levelo_inurba_marseille","lat":43.30262,"lon":5.40047,"is_reserved":false,"is_disabled":false,"rental_uris":{"android":"levelo://app?vid=342cdee4-cd86-47f8-b64f-10648dd01ab9","ios":"levelo://app?vid=342cdee4-cd86-47f8-b64f-10648dd01ab9"},"vehicle_type_id":"4","last_reported":1745511185,"current_range_meters":8800,"station_id":"ce4bgvh2rcd13ifvqcs0","pricing_plan_id":"cebpf4jnsgd1na2vs0mg"},{"bike_id":"a6008712-3f70-4b98-9760-202675902234","system_id":"levelo_inurba_marseille","lat":43.29658,"lon":5.40597,"is_reserved":false,"is_disabled":false,"rental_uris":{"android":"levelo://app?vid=a6008712-3f70-4b98-9760-202675902234","ios":"levelo://app?vid=a6008712-3f70-4b98-9760-202675902234"},"vehicle_type_id":"4","last_reported":1745511185,"current_range_meters":8800,"station_id":"ce4bh0h2rcd13ifvqd60","pricing_plan_id":"cebpf4jnsgd1na2vs0mg"},{"bike_id":"3970482d-9216-44b2-9219-8fa1d5aada2c","system_id":"levelo_inurba_marseille","lat":43.31176,"lon":5.38724,"is_reserved":false,"is_disabled":false,"rental_uris":{"android":"levelo://app?vid=3970482d-9216-44b2-9219-8fa1d5aada2c","ios":"levelo://app?vid=3970482d-9216-44b2-9219-8fa1d5aada2c"},"vehicle_type_id":"4","last_reported":1745511185,"current_range_meters":8800,"station_id":"ce4bgv12rcd13ifvqcp0","pricing_plan_id":"cebpf4jnsgd1na2vs0mg"},{"bike_id":"beaf5be2-6424-4741-b2f1-c5416dab44be","system_id":"levelo_inurba_marseille","lat":43.29006,"lon":5.35607,"is_reserved":false,"is_disabled":false,"rental_uris":{"android":"levelo://app?vid=beaf5be2-6424-4741-b2f1-c5416dab44be","ios":"levelo://app?vid=beaf5be2-6424-4741-b2f1-c5416dab44be"},"vehicle_type_id":"4","last_reported":1745511185,"current_range_meters":8800,"station_id":"ce4bhb92rcd13ifvqen0","pricing_plan_id":"cebpf4jnsgd1na2vs0mg"},{"bike_id":"4cebb13b-bea9-45b1-8f59-a0061d024909","system_id":"levelo_inurba_marseille","lat":43.258268,"lon":5.376282,"is_reserved":false,"is_disabled":false,"rental_uris":{"android":"levelo://app?vid=4cebb13b-bea9-45b1-8f59-a0061d024909","ios":"levelo://app?vid=4cebb13b-bea9-45b1-8f59-a0061d024909"},"vehicle_type_id":"4","last_reported":1745511185,"current_range_meters":8800,"station_id":"ce4bhgp2rcd13ifvqfd0","pricing_plan_id":"cebpf4jnsgd1na2vs0mg"},{"bike_id":"a008f1ff-620c-4136-b82e-a1a04d36a6b4","system_id":"levelo_inurba_marseille","lat":43.29053,"lon":5.36494,"is_reserved":false,"is_disabled":false,"rental_uris":{"android":"levelo://app?vid=a008f1ff-620c-4136-b82e-a1a04d36a6b4","ios":"levelo://app?vid=a008f1ff-620c-4136-b82e-a1a04d36a6b4"},"vehicle_type_id":"4","last_reported":1745511185,"current_range_meters":8800,"station_id":"","pricing_plan_id":"cebpf4jnsgd1na2vs0mg"},{"bike_id":"53de0d7a-29e3-4b0b-be27-82d067ea2668","system_id":"levelo_inurba_marseille","lat":43.3171,"lon":5.37716,"is_reserved":false,"is_disabled":false,"rental_uris":{"android":"levelo://app?vid=53de0d7a-29e3-4b0b-be27-82d067ea2668","ios":"levelo://app?vid=53de0d7a-29e3-4b0b-be27-82d067ea2668"},"vehicle_type_id":"4","last_reported":1745511185,"current_range_meters":8800,"station_id":"ce4bgth2rcd13ifvqch0","pricing_plan_id":"cebpf4jnsgd1na2vs0mg"},{"bike_id":"c6285271-aa84-4cf5-a381-86fc2506dc86","system_id":"levelo_inurba_marseille","lat":43.26054,"lon":5.37516,"is_reserved":false,"is_disabled":false,"rental_uris":{"android":"levelo://app?vid=c6285271-aa84-4cf5-a381-86fc2506dc86","ios":"levelo://app?vid=c6285271-aa84-4cf5-a381-86fc2506dc86"},"vehicle_type_id":"4","last_reported":1745511185,"current_range_meters":8800,"station_id":"ce4bhgh2rcd13ifvqfa0","pricing_plan_id":"cebpf4jnsgd1na2vs0mg"},{"bike_id":"c9617d8a-d251-4526-aa12-c94841734d7d","system_id":"levelo_inurba_marseille","lat":43.31174,"lon":5.38718,"is_reserved":false,"is_disabled":false,"rental_uris":{"android":"levelo://app?vid=c9617d8a-d251-4526-aa12-c94841734d7d","ios":"levelo://app?vid=c9617d8a-d251-4526-aa12-c94841734d7d"},"vehicle_type_id":"4","last_reported":1745511185,"current_range_meters":8800,"station_id":"ce4bgv12rcd13ifvqcp0","pricing_plan_id":"cebpf4jnsgd1na2vs0mg"},{"bike_id":"bc50dcf1-0dd2-4584-a5ec-13ec280b1f9f","system_id":"levelo_inurba_marseille","lat":43.31888,"lon":5.4074,"is_reserved":false,"is_disabled":false,"rental_uris":{"android":"levelo://app?vid=bc50dcf1-0dd2-4584-a5ec-13ec280b1f9f","ios":"levelo://app?vid=bc50dcf1-0dd2-4584-a5ec-13ec280b1f9f"},"vehicle_type_id":"4","last_reported":1745511185,"current_range_meters":8800,"station_id":"ce4bhq12rcd13ifvqhig","pricing_plan_id":"cebpf4jnsgd1na2vs0mg"},{"bike_id":"8cd89945-3452-402d-b186-42ab94aa749d","system_id":"levelo_inurba_marseille","lat":43.292236,"lon":5.360515,"is_reserved":false,"is_disabled":true,"rental_uris":{"android":"levelo://app?vid=8cd89945-3452-402d-b186-42ab94aa749d","ios":"levelo://app?vid=8cd89945-3452-402d-b186-42ab94aa749d"},"vehicle_type_id":"4","last_reported":1745511185,"current_range_meters":9200,"station_id":"ce4bhbh2rcd13ifvqeqg","pricing_plan_id":"cebpf4jnsgd1na2vs0mg"},{"bike_id":"090c5cc0-c385-45ea-9079-3b19c976ca01","system_id":"levelo_inurba_marseille","lat":43.28156,"lon":5.42648,"is_reserved":false,"is_disabled":false,"rental_uris":{"android":"levelo://app?vid=090c5cc0-c385-45ea-9079-3b19c976ca01","ios":"levelo://app?vid=090c5cc0-c385-45ea-9079-3b19c976ca01"},"vehicle_type_id":"4","last_reported":1745511185,"current_range_meters":9200,"station_id":"ce4bhnh2rcd13ifvqgug","pricing_plan_id":"cebpf4jnsgd1na2vs0mg"},{"bike_id":"7e9d26b8-b748-4e10-b3e2-977d9fd05087","system_id":"levelo_inurba_marseille","lat":43.33047,"lon":5.36673,"is_reserved":false,"is_disabled":true,"rental_uris":{"android":"levelo://app?vid=7e9d26b8-b748-4e10-b3e2-977d9fd05087","ios":"levelo://app?vid=7e9d26b8-b748-4e10-b3e2-977d9fd05087"},"vehicle_type_id":"4","last_reported":1745511185,"current_range_meters":9200,"station_id":"","pricing_plan_id":"cebpf4jnsgd1na2vs0mg"},{"bike_id":"f2ff5aad-d559-4fa1-923c-d606332ce711","system_id":"levelo_inurba_marseille","lat":43.3237,"lon":5.38886,"is_reserved":false,"is_disabled":false,"rental_uris":{"android":"levelo://app?vid=f2ff5aad-d559-4fa1-923c-d606332ce711","ios":"levelo://app?vid=f2ff5aad-d559-4fa1-923c-d606332ce711"},"vehicle_type_id":"4","last_reported":1745511185,"current_range_meters":9200,"station_id":"ce4bhqp2rcd13ifvqhog","pricing_plan_id":"cebpf4jnsgd1na2vs0mg"},{"bike_id":"ba60dee2-8e6b-4450-b53d-f005add3a12c","system_id":"levelo_inurba_marseille","lat":43.3149,"lon":5.37308,"is_reserved":false,"is_disabled":false,"rental_uris":{"android":"levelo://app?vid=ba60dee2-8e6b-4450-b53d-f005add3a12c","ios":"levelo://app?vid=ba60dee2-8e6b-4450-b53d-f005add3a12c"},"vehicle_type_id":"4","last_reported":1745511185,"current_range_meters":9200,"station_id":"ce4bgt12rcd13ifvqcd0","pricing_plan_id":"cebpf4jnsgd1na2vs0mg"},{"bike_id":"886855e8-7035-4197-a6ae-3fc8e17cddf1","system_id":"levelo_inurba_marseille","lat":43.27836,"lon":5.39209,"is_reserved":false,"is_disabled":false,"rental_uris":{"android":"levelo://app?vid=886855e8-7035-4197-a6ae-3fc8e17cddf1","ios":"levelo://app?vid=886855e8-7035-4197-a6ae-3fc8e17cddf1"},"vehicle_type_id":"4","last_reported":1745511185,"current_range_meters":9600,"station_id":"ce4bhjp2rcd13ifvqga0","pricing_plan_id":"cebpf4jnsgd1na2vs0mg"},{"bike_id":"67b9b70f-68e0-48b9-ab3a-83578fdc2060","system_id":"levelo_inurba_marseille","lat":43.33438,"lon":5.40081,"is_reserved":false,"is_disabled":false,"rental_uris":{"android":"levelo://app?vid=67b9b70f-68e0-48b9-ab3a-83578fdc2060","ios":"levelo://app?vid=67b9b70f-68e0-48b9-ab3a-83578fdc2060"},"vehicle_type_id":"4","last_reported":1745511185,"current_range_meters":9600,"station_id":"ce4bhr92rcd13ifvqhrg","pricing_plan_id":"cebpf4jnsgd1na2vs0mg"},{"bike_id":"d8f59748-aa33-4021-badb-886e1d1a09fb","system_id":"levelo_inurba_marseille","lat":43.302682,"lon":5.377146,"is_reserved":false,"is_disabled":false,"rental_uris":{"android":"levelo://app?vid=d8f59748-aa33-4021-badb-886e1d1a09fb","ios":"levelo://app?vid=d8f59748-aa33-4021-badb-886e1d1a09fb"},"vehicle_type_id":"4","last_reported":1745511185,"current_range_meters":9600,"station_id":"ce4bguh2rcd13ifvqcj0","pricing_plan_id":"cebpf4jnsgd1na2vs0mg"},{"bike_id":"860293f2-27fe-4f9c-b5c3-d42426b100e7","system_id":"levelo_inurba_marseille","lat":43.28623,"lon":5.35109,"is_reserved":false,"is_disabled":false,"rental_uris":{"android":"levelo://app?vid=860293f2-27fe-4f9c-b5c3-d42426b100e7","ios":"levelo://app?vid=860293f2-27fe-4f9c-b5c3-d42426b100e7"},"vehicle_type_id":"4","last_reported":1745511185,"current_range_meters":9600,"station_id":"ce4bhch2rcd13ifvqeug","pricing_plan_id":"cebpf4jnsgd1na2vs0mg"},{"bike_id":"1ac88749-52cf-4fb7-a545-e7a0d9b1b4dc","system_id":"levelo_inurba_marseille","lat":43.29807,"lon":5.40402,"is_reserved":false,"is_disabled":false,"rental_uris":{"android":"levelo://app?vid=1ac88749-52cf-4fb7-a545-e7a0d9b1b4dc","ios":"levelo://app?vid=1ac88749-52cf-4fb7-a545-e7a0d9b1b4dc"},"vehicle_type_id":"4","last_reported":1745511185,"current_range_meters":9200,"station_id":"ce4bh112rcd13ifvqd90","pricing_plan_id":"cebpf4jnsgd1na2vs0mg"},{"bike_id":"ea9ca80e-b6cd-4b51-bca3-a6c15e6df3e5","system_id":"levelo_inurba_marseille","lat":43.29781,"lon":5.39354,"is_reserved":false,"is_disabled":false,"rental_uris":{"android":"levelo://app?vid=ea9ca80e-b6cd-4b51-bca3-a6c15e6df3e5","ios":"levelo://app?vid=ea9ca80e-b6cd-4b51-bca3-a6c15e6df3e5"},"vehicle_type_id":"4","last_reported":1745511185,"current_range_meters":9600,"station_id":"chh1huq6cuj3fo74tm60","pricing_plan_id":"cebpf4jnsgd1na2vs0mg"},{"bike_id":"de99c1b6-e741-4d1f-b40f-3e1de0510430","system_id":"levelo_inurba_marseille","lat":43.239658,"lon":5.366239,"is_reserved":false,"is_disabled":false,"rental_uris":{"android":"levelo://app?vid=de99c1b6-e741-4d1f-b40f-3e1de0510430","ios":"levelo://app?vid=de99c1b6-e741-4d1f-b40f-3e1de0510430"},"vehicle_type_id":"4","last_reported":1745511185,"current_range_meters":9200,"station_id":"ce4bhi12rcd13ifvqfp0","pricing_plan_id":"cebpf4jnsgd1na2vs0mg"},{"bike_id":"5fade65e-094d-46eb-b94b-6649610c4f2d","system_id":"levelo_inurba_marseille","lat":43.28418,"lon":5.37511,"is_reserved":false,"is_disabled":false,"rental_uris":{"android":"levelo://app?vid=5fade65e-094d-46eb-b94b-6649610c4f2d","ios":"levelo://app?vid=5fade65e-094d-46eb-b94b-6649610c4f2d"},"vehicle_type_id":"4","last_reported":1745511185,"current_range_meters":9600,"station_id":"ce4bh412rcd13ifvqds0","pricing_plan_id":"cebpf4jnsgd1na2vs0mg"},{"bike_id":"33b5d1bd-8ecb-4ef0-b52e-044a4b258e2a","system_id":"levelo_inurba_marseille","lat":43.27834,"lon":5.39213,"is_reserved":false,"is_disabled":false,"rental_uris":{"android":"levelo://app?vid=33b5d1bd-8ecb-4ef0-b52e-044a4b258e2a","ios":"levelo://app?vid=33b5d1bd-8ecb-4ef0-b52e-044a4b258e2a"},"vehicle_type_id":"4","last_reported":1745511185,"current_range_meters":9600,"station_id":"ce4bhjp2rcd13ifvqga0","pricing_plan_id":"cebpf4jnsgd1na2vs0mg"},{"bike_id":"19e39e34-12e1-4043-8a2b-a4592feb108f","system_id":"levelo_inurba_marseille","lat":43.280355,"lon":5.369312,"is_reserved":false,"is_disabled":false,"rental_uris":{"android":"levelo://app?vid=19e39e34-12e1-4043-8a2b-a4592feb108f","ios":"levelo://app?vid=19e39e34-12e1-4043-8a2b-a4592feb108f"},"vehicle_type_id":"4","last_reported":1745511185,"current_range_meters":9600,"station_id":"ce4bha12rcd13ifvqef0","pricing_plan_id":"cebpf4jnsgd1na2vs0mg"},{"bike_id":"82016f5b-d226-439d-8b67-d5f6909ec267","system_id":"levelo_inurba_marseille","lat":43.31277,"lon":5.40167,"is_reserved":false,"is_disabled":false,"rental_uris":{"android":"levelo://app?vid=82016f5b-d226-439d-8b67-d5f6909ec267","ios":"levelo://app?vid=82016f5b-d226-439d-8b67-d5f6909ec267"},"vehicle_type_id":"4","last_reported":1745511185,"current_range_meters":10000,"station_id":"ce4bh092rcd13ifvqd30","pricing_plan_id":"cebpf4jnsgd1na2vs0mg"},{"bike_id":"95e0ed75-1899-4ca2-b868-8c14bc838a78","system_id":"levelo_inurba_marseille","lat":43.26687,"lon":5.38278,"is_reserved":false,"is_disabled":false,"rental_uris":{"android":"levelo://app?vid=95e0ed75-1899-4ca2-b868-8c14bc838a78","ios":"levelo://app?vid=95e0ed75-1899-4ca2-b868-8c14bc838a78"},"vehicle_type_id":"4","last_reported":1745511185,"current_range_meters":10000,"station_id":"ce4bhg92rcd13ifvqf90","pricing_plan_id":"cebpf4jnsgd1na2vs0mg"},{"bike_id":"f36ef072-e853-46ab-9397-58db370615a9","system_id":"levelo_inurba_marseille","lat":43.28,"lon":5.40015,"is_reserved":false,"is_disabled":false,"rental_uris":{"android":"levelo://app?vid=f36ef072-e853-46ab-9397-58db370615a9","ios":"levelo://app?vid=f36ef072-e853-46ab-9397-58db370615a9"},"vehicle_type_id":"4","last_reported":1745511185,"current_range_meters":10000,"station_id":"ce4bho92rcd13ifvqh4g","pricing_plan_id":"cebpf4jnsgd1na2vs0mg"},{"bike_id":"eb772212-defc-4543-ad57-fa606af571fb","system_id":"levelo_inurba_marseille","lat":43.23187,"lon":5.39979,"is_reserved":false,"is_disabled":false,"rental_uris":{"android":"levelo://app?vid=eb772212-defc-4543-ad57-fa606af571fb","ios":"levelo://app?vid=eb772212-defc-4543-ad57-fa606af571fb"},"vehicle_type_id":"4","last_reported":1745511185,"current_range_meters":10000,"station_id":"ce4bhn12rcd13ifvqgqg","pricing_plan_id":"cebpf4jnsgd1na2vs0mg"},{"bike_id":"890b1379-e795-4dc3-8d42-a0177b434996","system_id":"levelo_inurba_marseille","lat":43.28523,"lon":5.37146,"is_reserved":false,"is_disabled":false,"rental_uris":{"android":"levelo://app?vid=890b1379-e795-4dc3-8d42-a0177b434996","ios":"levelo://app?vid=890b1379-e795-4dc3-8d42-a0177b434996"},"vehicle_type_id":"4","last_reported":1745511185,"current_range_meters":10000,"station_id":"ce4bht12rcd13ifvqi60","pricing_plan_id":"cebpf4jnsgd1na2vs0mg"},{"bike_id":"b940bdf2-742d-48e4-9490-5ec9e6e9c7a7","system_id":"levelo_inurba_marseille","lat":43.29616,"lon":5.37727,"is_reserved":false,"is_disabled":false,"rental_uris":{"android":"levelo://app?vid=b940bdf2-742d-48e4-9490-5ec9e6e9c7a7","ios":"levelo://app?vid=b940bdf2-742d-48e4-9490-5ec9e6e9c7a7"},"vehicle_type_id":"4","last_reported":1745511185,"current_range_meters":10000,"station_id":"","pricing_plan_id":"cebpf4jnsgd1na2vs0mg"},{"bike_id":"b160a23d-4561-47d1-83c2-5a6a35ca2a0a","system_id":"levelo_inurba_marseille","lat":43.29222,"lon":5.35994,"is_reserved":false,"is_disabled":false,"rental_uris":{"android":"levelo://app?vid=b160a23d-4561-47d1-83c2-5a6a35ca2a0a","ios":"levelo://app?vid=b160a23d-4561-47d1-83c2-5a6a35ca2a0a"},"vehicle_type_id":"4","last_reported":1745511185,"current_range_meters":10000,"station_id":"","pricing_plan_id":"cebpf4jnsgd1na2vs0mg"},{"bike_id":"dce7813a-23cc-4237-b47d-3ac8eb2900cf","system_id":"levelo_inurba_marseille","lat":43.25124,"lon":5.40315,"is_reserved":false,"is_disabled":false,"rental_uris":{"android":"levelo://app?vid=dce7813a-23cc-4237-b47d-3ac8eb2900cf","ios":"levelo://app?vid=dce7813a-23cc-4237-b47d-3ac8eb2900cf"},"vehicle_type_id":"4","last_reported":1745511185,"current_range_meters":10800,"station_id":"ce4bhlh2rcd13ifvqgig","pricing_plan_id":"cebpf4jnsgd1na2vs0mg"},{"bike_id":"b99a5736-17a2-42c0-b41f-6967c33adabe","system_id":"levelo_inurba_marseille","lat":43.30955,"lon":5.39033,"is_reserved":false,"is_disabled":false,"rental_uris":{"android":"levelo://app?vid=b99a5736-17a2-42c0-b41f-6967c33adabe","ios":"levelo://app?vid=b99a5736-17a2-42c0-b41f-6967c33adabe"},"vehicle_type_id":"4","last_reported":1745511185,"current_range_meters":10800,"station_id":"ce4bgup2rcd13ifvqco0","pricing_plan_id":"cebpf4jnsgd1na2vs0mg"},{"bike_id":"8553b15d-fe2b-4d2f-b053-da281d9ec07d","system_id":"levelo_inurba_marseille","lat":43.27945,"lon":5.41047,"is_reserved":false,"is_disabled":false,"rental_uris":{"android":"levelo://app?vid=8553b15d-fe2b-4d2f-b053-da281d9ec07d","ios":"levelo://app?vid=8553b15d-fe2b-4d2f-b053-da281d9ec07d"},"vehicle_type_id":"4","last_reported":1745511185,"current_range_meters":10800,"station_id":"ce4bhnp2rcd13ifvqh0g","pricing_plan_id":"cebpf4jnsgd1na2vs0mg"},{"bike_id":"407e27b9-d4e8-4221-a666-70b94ecb062a","system_id":"levelo_inurba_marseille","lat":43.30198,"lon":5.36628,"is_reserved":false,"is_disabled":false,"rental_uris":{"android":"levelo://app?vid=407e27b9-d4e8-4221-a666-70b94ecb062a","ios":"levelo://app?vid=407e27b9-d4e8-4221-a666-70b94ecb062a"},"vehicle_type_id":"4","last_reported":1745511185,"current_range_meters":10000,"station_id":"ce4bgrh2rcd13ifvqc8g","pricing_plan_id":"cebpf4jnsgd1na2vs0mg"},{"bike_id":"a87f84f5-1883-4a5b-b693-bfb45cafcd22","system_id":"levelo_inurba_marseille","lat":43.2926,"lon":5.38436,"is_reserved":false,"is_disabled":false,"rental_uris":{"android":"levelo://app?vid=a87f84f5-1883-4a5b-b693-bfb45cafcd22","ios":"levelo://app?vid=a87f84f5-1883-4a5b-b693-bfb45cafcd22"},"vehicle_type_id":"4","last_reported":1745511185,"current_range_meters":10800,"station_id":"ce4bh692rcd13ifvqea0","pricing_plan_id":"cebpf4jnsgd1na2vs0mg"},{"bike_id":"741a96b7-fc3c-4032-a7dc-8c962ffdd501","system_id":"levelo_inurba_marseille","lat":43.26495,"lon":5.39542,"is_reserved":false,"is_disabled":false,"rental_uris":{"android":"levelo://app?vid=741a96b7-fc3c-4032-a7dc-8c962ffdd501","ios":"levelo://app?vid=741a96b7-fc3c-4032-a7dc-8c962ffdd501"},"vehicle_type_id":"4","last_reported":1745511185,"current_range_meters":10000,"station_id":"ce4bhi12rcd13ifvqfq0","pricing_plan_id":"cebpf4jnsgd1na2vs0mg"},{"bike_id":"6968b79b-b91c-4a54-ab3b-6fdbf7e83cde","system_id":"levelo_inurba_marseille","lat":43.27426,"lon":5.39411,"is_reserved":false,"is_disabled":false,"rental_uris":{"android":"levelo://app?vid=6968b79b-b91c-4a54-ab3b-6fdbf7e83cde","ios":"levelo://app?vid=6968b79b-b91c-4a54-ab3b-6fdbf7e83cde"},"vehicle_type_id":"4","last_reported":1745511185,"current_range_meters":10800,"station_id":"ce4bhdp2rcd13ifvqf20","pricing_plan_id":"cebpf4jnsgd1na2vs0mg"},{"bike_id":"46374c49-3adc-4c5a-8966-e00f056c0d57","system_id":"levelo_inurba_marseille","lat":43.27846,"lon":5.35442,"is_reserved":false,"is_disabled":false,"rental_uris":{"android":"levelo://app?vid=46374c49-3adc-4c5a-8966-e00f056c0d57","ios":"levelo://app?vid=46374c49-3adc-4c5a-8966-e00f056c0d57"},"vehicle_type_id":"4","last_reported":1745511185,"current_range_meters":11200,"station_id":"","pricing_plan_id":"cebpf4jnsgd1na2vs0mg"},{"bike_id":"24d894ab-7267-4b40-99af-b1bffdb7623b","system_id":"levelo_inurba_marseille","lat":43.30419,"lon":5.41287,"is_reserved":false,"is_disabled":false,"rental_uris":{"android":"levelo://app?vid=24d894ab-7267-4b40-99af-b1bffdb7623b","ios":"levelo://app?vid=24d894ab-7267-4b40-99af-b1bffdb7623b"},"vehicle_type_id":"4","last_reported":1745511185,"current_range_meters":11200,"station_id":"ce4bhop2rcd13ifvqh8g","pricing_plan_id":"cebpf4jnsgd1na2vs0mg"},{"bike_id":"0ea4a60b-7284-4bf5-9984-38ac09d37aed","system_id":"levelo_inurba_marseille","lat":43.26935,"lon":5.38931,"is_reserved":false,"is_disabled":false,"rental_uris":{"android":"levelo://app?vid=0ea4a60b-7284-4bf5-9984-38ac09d37aed","ios":"levelo://app?vid=0ea4a60b-7284-4bf5-9984-38ac09d37aed"},"vehicle_type_id":"4","last_reported":1745511185,"current_range_meters":11200,"station_id":"ce4bhhh2rcd13ifvqfl0","pricing_plan_id":"cebpf4jnsgd1na2vs0mg"},{"bike_id":"879846ee-979a-4e6b-9a23-8e867226114d","system_id":"levelo_inurba_marseille","lat":43.27898,"lon":5.38021,"is_reserved":false,"is_disabled":false,"rental_uris":{"android":"levelo://app?vid=879846ee-979a-4e6b-9a23-8e867226114d","ios":"levelo://app?vid=879846ee-979a-4e6b-9a23-8e867226114d"},"vehicle_type_id":"4","last_reported":1745511185,"current_range_meters":10800,"station_id":"ce4bhf92rcd13ifvqf50","pricing_plan_id":"cebpf4jnsgd1na2vs0mg"},{"bike_id":"4eecd96c-f60f-458f-826e-58deeafb79af","system_id":"levelo_inurba_marseille","lat":43.25112,"lon":5.403,"is_reserved":false,"is_disabled":false,"rental_uris":{"android":"levelo://app?vid=4eecd96c-f60f-458f-826e-58deeafb79af","ios":"levelo://app?vid=4eecd96c-f60f-458f-826e-58deeafb79af"},"vehicle_type_id":"4","last_reported":1745511185,"current_range_meters":11200,"station_id":"ce4bhlh2rcd13ifvqgig","pricing_plan_id":"cebpf4jnsgd1na2vs0mg"},{"bike_id":"e16857a2-486d-473d-b2f8-410ebee34b1d","system_id":"levelo_inurba_marseille","lat":43.2901,"lon":5.35612,"is_reserved":false,"is_disabled":false,"rental_uris":{"android":"levelo://app?vid=e16857a2-486d-473d-b2f8-410ebee34b1d","ios":"levelo://app?vid=e16857a2-486d-473d-b2f8-410ebee34b1d"},"vehicle_type_id":"4","last_reported":1745511185,"current_range_meters":11200,"station_id":"","pricing_plan_id":"cebpf4jnsgd1na2vs0mg"},{"bike_id":"72b35052-9850-4013-9291-108400e9550c","system_id":"levelo_inurba_marseille","lat":43.24648,"lon":5.38888,"is_reserved":false,"is_disabled":false,"rental_uris":{"android":"levelo://app?vid=72b35052-9850-4013-9291-108400e9550c","ios":"levelo://app?vid=72b35052-9850-4013-9291-108400e9550c"},"vehicle_type_id":"4","last_reported":1745511185,"current_range_meters":11200,"station_id":"ce4bhg12rcd13ifvqf60","pricing_plan_id":"cebpf4jnsgd1na2vs0mg"},{"bike_id":"a3250006-10bb-4dd4-9b1d-c48cec705c4b","system_id":"levelo_inurba_marseille","lat":43.29524,"lon":5.39033,"is_reserved":false,"is_disabled":false,"rental_uris":{"android":"levelo://app?vid=a3250006-10bb-4dd4-9b1d-c48cec705c4b","ios":"levelo://app?vid=a3250006-10bb-4dd4-9b1d-c48cec705c4b"},"vehicle_type_id":"4","last_reported":1745511185,"current_range_meters":11600,"station_id":"ce4bh3p2rcd13ifvqdp0","pricing_plan_id":"cebpf4jnsgd1na2vs0mg"},{"bike_id":"947c56a3-ff41-459e-bdae-c4ae1ebc34d4","system_id":"levelo_inurba_marseille","lat":43.30945,"lon":5.4014,"is_reserved":false,"is_disabled":false,"rental_uris":{"android":"levelo://app?vid=947c56a3-ff41-459e-bdae-c4ae1ebc34d4","ios":"levelo://app?vid=947c56a3-ff41-459e-bdae-c4ae1ebc34d4"},"vehicle_type_id":"4","last_reported":1745511185,"current_range_meters":11600,"station_id":"ce4bgvp2rcd13ifvqct0","pricing_plan_id":"cebpf4jnsgd1na2vs0mg"},{"bike_id":"ddb19ae6-288c-40a8-9009-9f5f12f5beb7","system_id":"levelo_inurba_marseille","lat":43.28682,"lon":5.38657,"is_reserved":false,"is_disabled":false,"rental_uris":{"android":"levelo://app?vid=ddb19ae6-288c-40a8-9009-9f5f12f5beb7","ios":"levelo://app?vid=ddb19ae6-288c-40a8-9009-9f5f12f5beb7"},"vehicle_type_id":"4","last_reported":1745511185,"current_range_meters":11600,"station_id":"ce4bh492rcd13ifvqdug","pricing_plan_id":"cebpf4jnsgd1na2vs0mg"},{"bike_id":"6d7c6372-3a84-4550-ae92-6fca682c3de7","system_id":"levelo_inurba_marseille","lat":43.29711,"lon":5.3661,"is_reserved":false,"is_disabled":false,"rental_uris":{"android":"levelo://app?vid=6d7c6372-3a84-4550-ae92-6fca682c3de7","ios":"levelo://app?vid=6d7c6372-3a84-4550-ae92-6fca682c3de7"},"vehicle_type_id":"4","last_reported":1745511185,"current_range_meters":11600,"station_id":"ce4bgn12rcd13ifvqbt0","pricing_plan_id":"cebpf4jnsgd1na2vs0mg"},{"bike_id":"9a487532-e27a-4469-a6e8-8952da911525","system_id":"levelo_inurba_marseille","lat":43.28159,"lon":5.42646,"is_reserved":false,"is_disabled":false,"rental_uris":{"android":"levelo://app?vid=9a487532-e27a-4469-a6e8-8952da911525","ios":"levelo://app?vid=9a487532-e27a-4469-a6e8-8952da911525"},"vehicle_type_id":"4","last_reported":1745511185,"current_range_meters":11600,"station_id":"ce4bhnh2rcd13ifvqgug","pricing_plan_id":"cebpf4jnsgd1na2vs0mg"},{"bike_id":"6f9dfc6c-faf6-4386-be1d-1a4dac0ce330","system_id":"levelo_inurba_marseille","lat":43.29261,"lon":5.4091,"is_reserved":false,"is_disabled":false,"rental_uris":{"android":"levelo://app?vid=6f9dfc6c-faf6-4386-be1d-1a4dac0ce330","ios":"levelo://app?vid=6f9dfc6c-faf6-4386-be1d-1a4dac0ce330"},"vehicle_type_id":"4","last_reported":1745511185,"current_range_meters":11200,"station_id":"ce4bh192rcd13ifvqdc0","pricing_plan_id":"cebpf4jnsgd1na2vs0mg"},{"bike_id":"389081e5-a59f-4bb8-ae5b-d14b07648eda","system_id":"levelo_inurba_marseille","lat":43.251144,"lon":5.403216,"is_reserved":false,"is_disabled":true,"rental_uris":{"android":"levelo://app?vid=389081e5-a59f-4bb8-ae5b-d14b07648eda","ios":"levelo://app?vid=389081e5-a59f-4bb8-ae5b-d14b07648eda"},"vehicle_type_id":"4","last_reported":1745511185,"current_range_meters":11600,"station_id":"ce4bhlh2rcd13ifvqgig","pricing_plan_id":"cebpf4jnsgd1na2vs0mg"},{"bike_id":"e679a61b-cc1b-4cd9-a119-333b5d6ff72e","system_id":"levelo_inurba_marseille","lat":43.29197,"lon":5.35816,"is_reserved":false,"is_disabled":false,"rental_uris":{"android":"levelo://app?vid=e679a61b-cc1b-4cd9-a119-333b5d6ff72e","ios":"levelo://app?vid=e679a61b-cc1b-4cd9-a119-333b5d6ff72e"},"vehicle_type_id":"4","last_reported":1745511185,"current_range_meters":11600,"station_id":"ce4bhb12rcd13ifvqel0","pricing_plan_id":"cebpf4jnsgd1na2vs0mg"},{"bike_id":"688bd3fb-79fd-4f01-95bb-a87650788153","system_id":"levelo_inurba_marseille","lat":43.29801,"lon":5.40399,"is_reserved":false,"is_disabled":false,"rental_uris":{"android":"levelo://app?vid=688bd3fb-79fd-4f01-95bb-a87650788153","ios":"levelo://app?vid=688bd3fb-79fd-4f01-95bb-a87650788153"},"vehicle_type_id":"4","last_reported":1745511185,"current_range_meters":12000,"station_id":"ce4bh112rcd13ifvqd90","pricing_plan_id":"cebpf4jnsgd1na2vs0mg"},{"bike_id":"7babca75-c9ae-4715-8d9a-00e3a497cb26","system_id":"levelo_inurba_marseille","lat":43.29038,"lon":5.38165,"is_reserved":false,"is_disabled":false,"rental_uris":{"android":"levelo://app?vid=7babca75-c9ae-4715-8d9a-00e3a497cb26","ios":"levelo://app?vid=7babca75-c9ae-4715-8d9a-00e3a497cb26"},"vehicle_type_id":"4","last_reported":1745511185,"current_range_meters":12400,"station_id":"ce4bh4p2rcd13ifvqe1g","pricing_plan_id":"cebpf4jnsgd1na2vs0mg"},{"bike_id":"d4a8fafa-88a7-48bf-b5a7-839e5bc03db8","system_id":"levelo_inurba_marseille","lat":43.25019,"lon":5.38933,"is_reserved":false,"is_disabled":true,"rental_uris":{"android":"levelo://app?vid=d4a8fafa-88a7-48bf-b5a7-839e5bc03db8","ios":"levelo://app?vid=d4a8fafa-88a7-48bf-b5a7-839e5bc03db8"},"vehicle_type_id":"4","last_reported":1745511185,"current_range_meters":12000,"station_id":"ce4bhgp2rcd13ifvqfd0","pricing_plan_id":"cebpf4jnsgd1na2vs0mg"},{"bike_id":"e7c9e87d-3254-41e9-875b-4a60e174d73c","system_id":"levelo_inurba_marseille","lat":43.24392,"lon":5.37061,"is_reserved":false,"is_disabled":false,"rental_uris":{"android":"levelo://app?vid=e7c9e87d-3254-41e9-875b-4a60e174d73c","ios":"levelo://app?vid=e7c9e87d-3254-41e9-875b-4a60e174d73c"},"vehicle_type_id":"4","last_reported":1745511185,"current_range_meters":12000,"station_id":"ce4bhhh2rcd13ifvqfk0","pricing_plan_id":"cebpf4jnsgd1na2vs0mg"},{"bike_id":"3212a892-6b50-487e-8c88-0b7d1f0c585a","system_id":"levelo_inurba_marseille","lat":43.25124,"lon":5.40341,"is_reserved":false,"is_disabled":false,"rental_uris":{"android":"levelo://app?vid=3212a892-6b50-487e-8c88-0b7d1f0c585a","ios":"levelo://app?vid=3212a892-6b50-487e-8c88-0b7d1f0c585a"},"vehicle_type_id":"4","last_reported":1745511185,"current_range_meters":12400,"station_id":"ce4bhlh2rcd13ifvqgig","pricing_plan_id":"cebpf4jnsgd1na2vs0mg"},{"bike_id":"56f8ca0b-4053-4a31-bfe1-f7cc8a1848f1","system_id":"levelo_inurba_marseille","lat":43.301524,"lon":5.380705,"is_reserved":false,"is_disabled":false,"rental_uris":{"android":"levelo://app?vid=56f8ca0b-4053-4a31-bfe1-f7cc8a1848f1","ios":"levelo://app?vid=56f8ca0b-4053-4a31-bfe1-f7cc8a1848f1"},"vehicle_type_id":"4","last_reported":1745511185,"current_range_meters":12000,"station_id":"ce4bgjp2rcd13ifvqbh0","pricing_plan_id":"cebpf4jnsgd1na2vs0mg"},{"bike_id":"51dbc378-7576-4722-8f53-e250b8f14fa2","system_id":"levelo_inurba_marseille","lat":43.295625,"lon":5.420925,"is_reserved":false,"is_disabled":false,"rental_uris":{"android":"levelo://app?vid=51dbc378-7576-4722-8f53-e250b8f14fa2","ios":"levelo://app?vid=51dbc378-7576-4722-8f53-e250b8f14fa2"},"vehicle_type_id":"4","last_reported":1745511185,"current_range_meters":12400,"station_id":"ce4bhph2rcd13ifvqhdg","pricing_plan_id":"cebpf4jnsgd1na2vs0mg"},{"bike_id":"b455c15d-902e-4d62-b7dc-805812eacd78","system_id":"levelo_inurba_marseille","lat":43.25084,"lon":5.3953,"is_reserved":false,"is_disabled":false,"rental_uris":{"android":"levelo://app?vid=b455c15d-902e-4d62-b7dc-805812eacd78","ios":"levelo://app?vid=b455c15d-902e-4d62-b7dc-805812eacd78"},"vehicle_type_id":"4","last_reported":1745511185,"current_range_meters":12400,"station_id":"ce4bhm12rcd13ifvqgkg","pricing_plan_id":"cebpf4jnsgd1na2vs0mg"},{"bike_id":"91d66b3f-a712-4f21-bf0f-7629d521dce4","system_id":"levelo_inurba_marseille","lat":43.29256,"lon":5.40905,"is_reserved":false,"is_disabled":false,"rental_uris":{"android":"levelo://app?vid=91d66b3f-a712-4f21-bf0f-7629d521dce4","ios":"levelo://app?vid=91d66b3f-a712-4f21-bf0f-7629d521dce4"},"vehicle_type_id":"4","last_reported":1745511185,"current_range_meters":12800,"station_id":"ce4bh192rcd13ifvqdc0","pricing_plan_id":"cebpf4jnsgd1na2vs0mg"},{"bike_id":"743aca92-bc48-473b-bafd-726ad7ee8df9","system_id":"levelo_inurba_marseille","lat":43.29275,"lon":5.36843,"is_reserved":false,"is_disabled":false,"rental_uris":{"android":"levelo://app?vid=743aca92-bc48-473b-bafd-726ad7ee8df9","ios":"levelo://app?vid=743aca92-bc48-473b-bafd-726ad7ee8df9"},"vehicle_type_id":"4","last_reported":1745511185,"current_range_meters":12800,"station_id":"ce4bhbp2rcd13ifvqesg","pricing_plan_id":"cebpf4jnsgd1na2vs0mg"},{"bike_id":"625a46d9-cd18-4763-b06d-c11d6c817c8c","system_id":"levelo_inurba_marseille","lat":43.28423,"lon":5.37512,"is_reserved":false,"is_disabled":false,"rental_uris":{"android":"levelo://app?vid=625a46d9-cd18-4763-b06d-c11d6c817c8c","ios":"levelo://app?vid=625a46d9-cd18-4763-b06d-c11d6c817c8c"},"vehicle_type_id":"4","last_reported":1745511185,"current_range_meters":13600,"station_id":"ce4bh412rcd13ifvqds0","pricing_plan_id":"cebpf4jnsgd1na2vs0mg"},{"bike_id":"481b82fe-7fc0-4296-b243-906de58af45c","system_id":"levelo_inurba_marseille","lat":43.29171,"lon":5.37163,"is_reserved":false,"is_disabled":false,"rental_uris":{"android":"levelo://app?vid=481b82fe-7fc0-4296-b243-906de58af45c","ios":"levelo://app?vid=481b82fe-7fc0-4296-b243-906de58af45c"},"vehicle_type_id":"4","last_reported":1745511185,"current_range_meters":13600,"station_id":"ce4bha92rcd13ifvqeh0","pricing_plan_id":"cebpf4jnsgd1na2vs0mg"},{"bike_id":"78574e4d-1607-476e-9a01-25be24d2c851","system_id":"levelo_inurba_marseille","lat":43.30533,"lon":5.36718,"is_reserved":false,"is_disabled":false,"rental_uris":{"android":"levelo://app?vid=78574e4d-1607-476e-9a01-25be24d2c851","ios":"levelo://app?vid=78574e4d-1607-476e-9a01-25be24d2c851"},"vehicle_type_id":"4","last_reported":1745511185,"current_range_meters":14000,"station_id":"ce4bgrp2rcd13ifvqc9g","pricing_plan_id":"cebpf4jnsgd1na2vs0mg"},{"bike_id":"3a41a14b-b60d-411c-aa4a-3b7d3df773ad","system_id":"levelo_inurba_marseille","lat":43.30218,"lon":5.36644,"is_reserved":false,"is_disabled":true,"rental_uris":{"android":"levelo://app?vid=3a41a14b-b60d-411c-aa4a-3b7d3df773ad","ios":"levelo://app?vid=3a41a14b-b60d-411c-aa4a-3b7d3df773ad"},"vehicle_type_id":"4","last_reported":1745511185,"current_range_meters":13600,"station_id":"ce4bgrh2rcd13ifvqc8g","pricing_plan_id":"cebpf4jnsgd1na2vs0mg"},{"bike_id":"fa8a552a-d2d3-4e8d-8d8e-02bdba037836","system_id":"levelo_inurba_marseille","lat":43.23065,"lon":5.35499,"is_reserved":false,"is_disabled":false,"rental_uris":{"android":"levelo://app?vid=fa8a552a-d2d3-4e8d-8d8e-02bdba037836","ios":"levelo://app?vid=fa8a552a-d2d3-4e8d-8d8e-02bdba037836"},"vehicle_type_id":"4","last_reported":1745511185,"current_range_meters":13600,"station_id":"cpo3342slgdg3j2ifvpg","pricing_plan_id":"cebpf4jnsgd1na2vs0mg"},{"bike_id":"695f1a10-28bc-4de0-a00a-d8cbd94b10fb","system_id":"levelo_inurba_marseille","lat":43.28157,"lon":5.4264,"is_reserved":false,"is_disabled":false,"rental_uris":{"android":"levelo://app?vid=695f1a10-28bc-4de0-a00a-d8cbd94b10fb","ios":"levelo://app?vid=695f1a10-28bc-4de0-a00a-d8cbd94b10fb"},"vehicle_type_id":"4","last_reported":1745511185,"current_range_meters":13600,"station_id":"ce4bhnh2rcd13ifvqgug","pricing_plan_id":"cebpf4jnsgd1na2vs0mg"},{"bike_id":"a854d39c-9477-44e1-ad98-e8e784d26224","system_id":"levelo_inurba_marseille","lat":43.28938,"lon":5.36633,"is_reserved":false,"is_disabled":false,"rental_uris":{"android":"levelo://app?vid=a854d39c-9477-44e1-ad98-e8e784d26224","ios":"levelo://app?vid=a854d39c-9477-44e1-ad98-e8e784d26224"},"vehicle_type_id":"4","last_reported":1745511185,"current_range_meters":14000,"station_id":"ce4bhap2rcd13ifvqek0","pricing_plan_id":"cebpf4jnsgd1na2vs0mg"},{"bike_id":"9ddf901c-17b7-41a5-ab10-51e5206ab36e","system_id":"levelo_inurba_marseille","lat":43.33025,"lon":5.39037,"is_reserved":false,"is_disabled":false,"rental_uris":{"android":"levelo://app?vid=9ddf901c-17b7-41a5-ab10-51e5206ab36e","ios":"levelo://app?vid=9ddf901c-17b7-41a5-ab10-51e5206ab36e"},"vehicle_type_id":"4","last_reported":1745511185,"current_range_meters":14000,"station_id":"ce4bhr92rcd13ifvqhrg","pricing_plan_id":"cebpf4jnsgd1na2vs0mg"},{"bike_id":"6c07701a-8c9d-42b3-88f5-7017a41eecdf","system_id":"levelo_inurba_marseille","lat":43.29504,"lon":5.3904,"is_reserved":false,"is_disabled":false,"rental_uris":{"android":"levelo://app?vid=6c07701a-8c9d-42b3-88f5-7017a41eecdf","ios":"levelo://app?vid=6c07701a-8c9d-42b3-88f5-7017a41eecdf"},"vehicle_type_id":"4","last_reported":1745511185,"current_range_meters":14400,"station_id":"ce4bh3p2rcd13ifvqdp0","pricing_plan_id":"cebpf4jnsgd1na2vs0mg"},{"bike_id":"43960bf7-5815-47eb-a37f-dc49337c3a9b","system_id":"levelo_inurba_marseille","lat":43.29822,"lon":5.36343,"is_reserved":false,"is_disabled":true,"rental_uris":{"android":"levelo://app?vid=43960bf7-5815-47eb-a37f-dc49337c3a9b","ios":"levelo://app?vid=43960bf7-5815-47eb-a37f-dc49337c3a9b"},"vehicle_type_id":"4","last_reported":1745511185,"current_range_meters":14400,"station_id":"ce4bgpp2rcd13ifvqc3g","pricing_plan_id":"cebpf4jnsgd1na2vs0mg"},{"bike_id":"025f6d67-a62e-446d-83ad-42908dc0bad3","system_id":"levelo_inurba_marseille","lat":43.29021,"lon":5.35554,"is_reserved":false,"is_disabled":false,"rental_uris":{"android":"levelo://app?vid=025f6d67-a62e-446d-83ad-42908dc0bad3","ios":"levelo://app?vid=025f6d67-a62e-446d-83ad-42908dc0bad3"},"vehicle_type_id":"4","last_reported":1745511185,"current_range_meters":14800,"station_id":"ce4bhb92rcd13ifvqen0","pricing_plan_id":"cebpf4jnsgd1na2vs0mg"},{"bike_id":"88cdea91-0c3b-4515-8d83-58c227cbd791","system_id":"levelo_inurba_marseille","lat":43.26047,"lon":5.37522,"is_reserved":false,"is_disabled":false,"rental_uris":{"android":"levelo://app?vid=88cdea91-0c3b-4515-8d83-58c227cbd791","ios":"levelo://app?vid=88cdea91-0c3b-4515-8d83-58c227cbd791"},"vehicle_type_id":"4","last_reported":1745511185,"current_range_meters":14800,"station_id":"ce4bhgh2rcd13ifvqfa0","pricing_plan_id":"cebpf4jnsgd1na2vs0mg"},{"bike_id":"2274b9c9-5528-45de-93d4-5b17ebe6c434","system_id":"levelo_inurba_marseille","lat":43.32292,"lon":5.38259,"is_reserved":false,"is_disabled":false,"rental_uris":{"android":"levelo://app?vid=2274b9c9-5528-45de-93d4-5b17ebe6c434","ios":"levelo://app?vid=2274b9c9-5528-45de-93d4-5b17ebe6c434"},"vehicle_type_id":"4","last_reported":1745511185,"current_range_meters":14400,"station_id":"ce4bhr12rcd13ifvqhqg","pricing_plan_id":"cebpf4jnsgd1na2vs0mg"},{"bike_id":"7fc5ed43-b2c3-4cf7-b081-488a7cbcc12f","system_id":"levelo_inurba_marseille","lat":43.319745,"lon":5.374382,"is_reserved":false,"is_disabled":false,"rental_uris":{"android":"levelo://app?vid=7fc5ed43-b2c3-4cf7-b081-488a7cbcc12f","ios":"levelo://app?vid=7fc5ed43-b2c3-4cf7-b081-488a7cbcc12f"},"vehicle_type_id":"4","last_reported":1745511185,"current_range_meters":14800,"station_id":"ce4bhr92rcd13ifvqhrg","pricing_plan_id":"cebpf4jnsgd1na2vs0mg"},{"bike_id":"8b3ed820-98ef-4f7f-a7bb-25de2e2d2aa3","system_id":"levelo_inurba_marseille","lat":43.290075,"lon":5.381459,"is_reserved":false,"is_disabled":false,"rental_uris":{"android":"levelo://app?vid=8b3ed820-98ef-4f7f-a7bb-25de2e2d2aa3","ios":"levelo://app?vid=8b3ed820-98ef-4f7f-a7bb-25de2e2d2aa3"},"vehicle_type_id":"4","last_reported":1745511185,"current_range_meters":15200,"station_id":"ce4bh4p2rcd13ifvqe1g","pricing_plan_id":"cebpf4jnsgd1na2vs0mg"},{"bike_id":"6498f542-86e0-4c49-a39a-7eb637a47138","system_id":"levelo_inurba_marseille","lat":43.2397,"lon":5.36634,"is_reserved":false,"is_disabled":false,"rental_uris":{"android":"levelo://app?vid=6498f542-86e0-4c49-a39a-7eb637a47138","ios":"levelo://app?vid=6498f542-86e0-4c49-a39a-7eb637a47138"},"vehicle_type_id":"4","last_reported":1745511185,"current_range_meters":15200,"station_id":"ce4bhi12rcd13ifvqfp0","pricing_plan_id":"cebpf4jnsgd1na2vs0mg"},{"bike_id":"e80d214b-777c-4c6c-91d9-d6ef45e16f20","system_id":"levelo_inurba_marseille","lat":43.288391,"lon":5.393235,"is_reserved":false,"is_disabled":false,"rental_uris":{"android":"levelo://app?vid=e80d214b-777c-4c6c-91d9-d6ef45e16f20","ios":"levelo://app?vid=e80d214b-777c-4c6c-91d9-d6ef45e16f20"},"vehicle_type_id":"4","last_reported":1745511185,"current_range_meters":15200,"station_id":"ce4bh2p2rcd13ifvqdi0","pricing_plan_id":"cebpf4jnsgd1na2vs0mg"},{"bike_id":"1e4441d8-c125-4b1e-93bc-6e89ea979373","system_id":"levelo_inurba_marseille","lat":43.29867,"lon":5.39737,"is_reserved":false,"is_disabled":false,"rental_uris":{"android":"levelo://app?vid=1e4441d8-c125-4b1e-93bc-6e89ea979373","ios":"levelo://app?vid=1e4441d8-c125-4b1e-93bc-6e89ea979373"},"vehicle_type_id":"4","last_reported":1745511185,"current_range_meters":15200,"station_id":"ce4bh0h2rcd13ifvqd50","pricing_plan_id":"cebpf4jnsgd1na2vs0mg"},{"bike_id":"ec30c27c-48ca-44b5-b64c-3dd3dfeb5f53","system_id":"levelo_inurba_marseille","lat":43.23963,"lon":5.36633,"is_reserved":false,"is_disabled":false,"rental_uris":{"android":"levelo://app?vid=ec30c27c-48ca-44b5-b64c-3dd3dfeb5f53","ios":"levelo://app?vid=ec30c27c-48ca-44b5-b64c-3dd3dfeb5f53"},"vehicle_type_id":"4","last_reported":1745511185,"current_range_meters":15200,"station_id":"ce4bhi12rcd13ifvqfp0","pricing_plan_id":"cebpf4jnsgd1na2vs0mg"},{"bike_id":"b51831cb-4f07-48b5-90f9-89fc3361b82b","system_id":"levelo_inurba_marseille","lat":43.283462,"lon":5.381055,"is_reserved":false,"is_disabled":false,"rental_uris":{"android":"levelo://app?vid=b51831cb-4f07-48b5-90f9-89fc3361b82b","ios":"levelo://app?vid=b51831cb-4f07-48b5-90f9-89fc3361b82b"},"vehicle_type_id":"4","last_reported":1745511185,"current_range_meters":15200,"station_id":"ce4bhh92rcd13ifvqfj0","pricing_plan_id":"cebpf4jnsgd1na2vs0mg"},{"bike_id":"cebfb69e-e7bf-48cd-b924-26ee0522c644","system_id":"levelo_inurba_marseille","lat":43.30815,"lon":5.37353,"is_reserved":false,"is_disabled":false,"rental_uris":{"android":"levelo://app?vid=cebfb69e-e7bf-48cd-b924-26ee0522c644","ios":"levelo://app?vid=cebfb69e-e7bf-48cd-b924-26ee0522c644"},"vehicle_type_id":"4","last_reported":1745511185,"current_range_meters":16000,"station_id":"","pricing_plan_id":"cebpf4jnsgd1na2vs0mg"},{"bike_id":"cd906bce-52be-45be-8f08-cdeb623de131","system_id":"levelo_inurba_marseille","lat":43.28193,"lon":5.40385,"is_reserved":false,"is_disabled":false,"rental_uris":{"android":"levelo://app?vid=cd906bce-52be-45be-8f08-cdeb623de131","ios":"levelo://app?vid=cd906bce-52be-45be-8f08-cdeb623de131"},"vehicle_type_id":"4","last_reported":1745511185,"current_range_meters":16000,"station_id":"","pricing_plan_id":"cebpf4jnsgd1na2vs0mg"},{"bike_id":"35fb6e9b-4b58-4222-a1ae-a96b72c3d67f","system_id":"levelo_inurba_marseille","lat":43.29281,"lon":5.38443,"is_reserved":false,"is_disabled":false,"rental_uris":{"android":"levelo://app?vid=35fb6e9b-4b58-4222-a1ae-a96b72c3d67f","ios":"levelo://app?vid=35fb6e9b-4b58-4222-a1ae-a96b72c3d67f"},"vehicle_type_id":"4","last_reported":1745511185,"current_range_meters":16000,"station_id":"ce4bh692rcd13ifvqea0","pricing_plan_id":"cebpf4jnsgd1na2vs0mg"},{"bike_id":"e82d22a2-8183-4f18-84f2-77ae41842597","system_id":"levelo_inurba_marseille","lat":43.28628,"lon":5.3511,"is_reserved":false,"is_disabled":false,"rental_uris":{"android":"levelo://app?vid=e82d22a2-8183-4f18-84f2-77ae41842597","ios":"levelo://app?vid=e82d22a2-8183-4f18-84f2-77ae41842597"},"vehicle_type_id":"4","last_reported":1745511185,"current_range_meters":16000,"station_id":"ce4bhch2rcd13ifvqeug","pricing_plan_id":"cebpf4jnsgd1na2vs0mg"},{"bike_id":"e60ff98e-8173-4146-b93c-56ed5f8e0412","system_id":"levelo_inurba_marseille","lat":43.30224,"lon":5.39473,"is_reserved":false,"is_disabled":false,"rental_uris":{"android":"levelo://app?vid=e60ff98e-8173-4146-b93c-56ed5f8e0412","ios":"levelo://app?vid=e60ff98e-8173-4146-b93c-56ed5f8e0412"},"vehicle_type_id":"4","last_reported":1745511185,"current_range_meters":16000,"station_id":"ce4bh0p2rcd13ifvqd70","pricing_plan_id":"cebpf4jnsgd1na2vs0mg"},{"bike_id":"0ab4acae-08a5-4dae-9606-513acd13fa91","system_id":"levelo_inurba_marseille","lat":43.22928,"lon":5.35392,"is_reserved":false,"is_disabled":false,"rental_uris":{"android":"levelo://app?vid=0ab4acae-08a5-4dae-9606-513acd13fa91","ios":"levelo://app?vid=0ab4acae-08a5-4dae-9606-513acd13fa91"},"vehicle_type_id":"4","last_reported":1745511185,"current_range_meters":16400,"station_id":"cpo3532slgdg3j2ikp40","pricing_plan_id":"cebpf4jnsgd1na2vs0mg"},{"bike_id":"218088e9-2451-49b7-bdfd-9c1914e909ae","system_id":"levelo_inurba_marseille","lat":43.29627,"lon":5.37727,"is_reserved":false,"is_disabled":false,"rental_uris":{"android":"levelo://app?vid=218088e9-2451-49b7-bdfd-9c1914e909ae","ios":"levelo://app?vid=218088e9-2451-49b7-bdfd-9c1914e909ae"},"vehicle_type_id":"4","last_reported":1745511185,"current_range_meters":16400,"station_id":"ce4bgi92rcd13ifvqb90","pricing_plan_id":"cebpf4jnsgd1na2vs0mg"},{"bike_id":"cb28eabc-c696-45ea-9191-5a925b6ee6da","system_id":"levelo_inurba_marseille","lat":43.28616,"lon":5.351,"is_reserved":false,"is_disabled":false,"rental_uris":{"android":"levelo://app?vid=cb28eabc-c696-45ea-9191-5a925b6ee6da","ios":"levelo://app?vid=cb28eabc-c696-45ea-9191-5a925b6ee6da"},"vehicle_type_id":"4","last_reported":1745511185,"current_range_meters":16400,"station_id":"ce4bhch2rcd13ifvqeug","pricing_plan_id":"cebpf4jnsgd1na2vs0mg"},{"bike_id":"0e677427-8d60-4b75-92c0-3cc225e20f0d","system_id":"levelo_inurba_marseille","lat":43.29028,"lon":5.38645,"is_reserved":false,"is_disabled":false,"rental_uris":{"android":"levelo://app?vid=0e677427-8d60-4b75-92c0-3cc225e20f0d","ios":"levelo://app?vid=0e677427-8d60-4b75-92c0-3cc225e20f0d"},"vehicle_type_id":"4","last_reported":1745511185,"current_range_meters":16800,"station_id":"ce4bh4p2rcd13ifvqe0g","pricing_plan_id":"cebpf4jnsgd1na2vs0mg"},{"bike_id":"7f5db532-4e4a-457a-842d-6fae05cae46d","system_id":"levelo_inurba_marseille","lat":43.308018,"lon":5.435221,"is_reserved":false,"is_disabled":false,"rental_uris":{"android":"levelo://app?vid=7f5db532-4e4a-457a-842d-6fae05cae46d","ios":"levelo://app?vid=7f5db532-4e4a-457a-842d-6fae05cae46d"},"vehicle_type_id":"4","last_reported":1745511185,"current_range_meters":16800,"station_id":"ce4bhph2rcd13ifvqheg","pricing_plan_id":"cebpf4jnsgd1na2vs0mg"},{"bike_id":"75c54774-60c3-4a5a-9d9a-e318535acfa8","system_id":"levelo_inurba_marseille","lat":43.2842,"lon":5.34985,"is_reserved":false,"is_disabled":false,"rental_uris":{"android":"levelo://app?vid=75c54774-60c3-4a5a-9d9a-e318535acfa8","ios":"levelo://app?vid=75c54774-60c3-4a5a-9d9a-e318535acfa8"},"vehicle_type_id":"4","last_reported":1745511185,"current_range_meters":16800,"station_id":"ce4bhbh2rcd13ifvqepg","pricing_plan_id":"cebpf4jnsgd1na2vs0mg"},{"bike_id":"00f68e30-b619-408f-8cc8-fc5416b1a324","system_id":"levelo_inurba_marseille","lat":43.28583,"lon":5.39483,"is_reserved":false,"is_disabled":false,"rental_uris":{"android":"levelo://app?vid=00f68e30-b619-408f-8cc8-fc5416b1a324","ios":"levelo://app?vid=00f68e30-b619-408f-8cc8-fc5416b1a324"},"vehicle_type_id":"4","last_reported":1745511185,"current_range_meters":16800,"station_id":"ce4bh292rcd13ifvqdg0","pricing_plan_id":"cebpf4jnsgd1na2vs0mg"},{"bike_id":"e4660874-79ca-45db-b8b0-21e0fa0f9ae6","system_id":"levelo_inurba_marseille","lat":43.29264,"lon":5.37627,"is_reserved":false,"is_disabled":false,"rental_uris":{"android":"levelo://app?vid=e4660874-79ca-45db-b8b0-21e0fa0f9ae6","ios":"levelo://app?vid=e4660874-79ca-45db-b8b0-21e0fa0f9ae6"},"vehicle_type_id":"4","last_reported":1745511185,"current_range_meters":16800,"station_id":"ce4bgi12rcd13ifvqb80","pricing_plan_id":"cebpf4jnsgd1na2vs0mg"},{"bike_id":"1fda2432-dc67-4ea2-8df8-5a8e39c6b8f9","system_id":"levelo_inurba_marseille","lat":43.29712,"lon":5.36595,"is_reserved":false,"is_disabled":false,"rental_uris":{"android":"levelo://app?vid=1fda2432-dc67-4ea2-8df8-5a8e39c6b8f9","ios":"levelo://app?vid=1fda2432-dc67-4ea2-8df8-5a8e39c6b8f9"},"vehicle_type_id":"4","last_reported":1745511185,"current_range_meters":16800,"station_id":"ce4bgn12rcd13ifvqbt0","pricing_plan_id":"cebpf4jnsgd1na2vs0mg"},{"bike_id":"5c8dde23-03af-4ec7-8c64-b6a7b95cfa5a","system_id":"levelo_inurba_marseille","lat":43.33731,"lon":5.39173,"is_reserved":false,"is_disabled":false,"rental_uris":{"android":"levelo://app?vid=5c8dde23-03af-4ec7-8c64-b6a7b95cfa5a","ios":"levelo://app?vid=5c8dde23-03af-4ec7-8c64-b6a7b95cfa5a"},"vehicle_type_id":"4","last_reported":1745511185,"current_range_meters":16800,"station_id":"ce4bhr92rcd13ifvqhsg","pricing_plan_id":"cebpf4jnsgd1na2vs0mg"},{"bike_id":"762289d9-52a1-43ee-ae2f-2dd4f1ea2a12","system_id":"levelo_inurba_marseille","lat":43.29534,"lon":5.38541,"is_reserved":false,"is_disabled":false,"rental_uris":{"android":"levelo://app?vid=762289d9-52a1-43ee-ae2f-2dd4f1ea2a12","ios":"levelo://app?vid=762289d9-52a1-43ee-ae2f-2dd4f1ea2a12"},"vehicle_type_id":"4","last_reported":1745511185,"current_range_meters":17200,"station_id":"ce4bgih2rcd13ifvqba0","pricing_plan_id":"cebpf4jnsgd1na2vs0mg"},{"bike_id":"51c8b588-fd6d-40a7-b889-17f5ee30e311","system_id":"levelo_inurba_marseille","lat":43.30422,"lon":5.412868,"is_reserved":false,"is_disabled":false,"rental_uris":{"android":"levelo://app?vid=51c8b588-fd6d-40a7-b889-17f5ee30e311","ios":"levelo://app?vid=51c8b588-fd6d-40a7-b889-17f5ee30e311"},"vehicle_type_id":"4","last_reported":1745511185,"current_range_meters":17200,"station_id":"ce4bhop2rcd13ifvqh8g","pricing_plan_id":"cebpf4jnsgd1na2vs0mg"},{"bike_id":"c3b22f4e-b70c-424e-b862-d89eaa01a69d","system_id":"levelo_inurba_marseille","lat":43.28035,"lon":5.36943,"is_reserved":false,"is_disabled":false,"rental_uris":{"android":"levelo://app?vid=c3b22f4e-b70c-424e-b862-d89eaa01a69d","ios":"levelo://app?vid=c3b22f4e-b70c-424e-b862-d89eaa01a69d"},"vehicle_type_id":"4","last_reported":1745511185,"current_range_meters":17200,"station_id":"ce4bha12rcd13ifvqef0","pricing_plan_id":"cebpf4jnsgd1na2vs0mg"},{"bike_id":"a5b807e2-0dcd-4c88-a997-bb37c582102d","system_id":"levelo_inurba_marseille","lat":43.30432,"lon":5.37167,"is_reserved":false,"is_disabled":false,"rental_uris":{"android":"levelo://app?vid=a5b807e2-0dcd-4c88-a997-bb37c582102d","ios":"levelo://app?vid=a5b807e2-0dcd-4c88-a997-bb37c582102d"},"vehicle_type_id":"4","last_reported":1745511185,"current_range_meters":17200,"station_id":"","pricing_plan_id":"cebpf4jnsgd1na2vs0mg"},{"bike_id":"e6baa558-c1d8-4405-9e08-8228dd52d7f4","system_id":"levelo_inurba_marseille","lat":43.29786,"lon":5.39343,"is_reserved":false,"is_disabled":false,"rental_uris":{"android":"levelo://app?vid=e6baa558-c1d8-4405-9e08-8228dd52d7f4","ios":"levelo://app?vid=e6baa558-c1d8-4405-9e08-8228dd52d7f4"},"vehicle_type_id":"4","last_reported":1745511185,"current_range_meters":17200,"station_id":"chh1huq6cuj3fo74tm60","pricing_plan_id":"cebpf4jnsgd1na2vs0mg"},{"bike_id":"f9541d3b-db55-44b8-a760-65912f4585f7","system_id":"levelo_inurba_marseille","lat":43.29267,"lon":5.38433,"is_reserved":false,"is_disabled":false,"rental_uris":{"android":"levelo://app?vid=f9541d3b-db55-44b8-a760-65912f4585f7","ios":"levelo://app?vid=f9541d3b-db55-44b8-a760-65912f4585f7"},"vehicle_type_id":"4","last_reported":1745511185,"current_range_meters":17600,"station_id":"ce4bh692rcd13ifvqea0","pricing_plan_id":"cebpf4jnsgd1na2vs0mg"},{"bike_id":"f577c520-0907-4453-975b-4f68ddb3f606","system_id":"levelo_inurba_marseille","lat":43.28428,"lon":5.34982,"is_reserved":false,"is_disabled":false,"rental_uris":{"android":"levelo://app?vid=f577c520-0907-4453-975b-4f68ddb3f606","ios":"levelo://app?vid=f577c520-0907-4453-975b-4f68ddb3f606"},"vehicle_type_id":"4","last_reported":1745511185,"current_range_meters":17600,"station_id":"ce4bhbh2rcd13ifvqepg","pricing_plan_id":"cebpf4jnsgd1na2vs0mg"},{"bike_id":"e2dcabcf-64d8-4394-bb9a-ff877bee611a","system_id":"levelo_inurba_marseille","lat":43.32047,"lon":5.41529,"is_reserved":false,"is_disabled":false,"rental_uris":{"android":"levelo://app?vid=e2dcabcf-64d8-4394-bb9a-ff877bee611a","ios":"levelo://app?vid=e2dcabcf-64d8-4394-bb9a-ff877bee611a"},"vehicle_type_id":"4","last_reported":1745511185,"current_range_meters":17600,"station_id":"ce4bhq92rcd13ifvqhkg","pricing_plan_id":"cebpf4jnsgd1na2vs0mg"},{"bike_id":"718be210-cfb0-41d1-ba82-24e47969e2d5","system_id":"levelo_inurba_marseille","lat":43.31786,"lon":5.3764,"is_reserved":false,"is_disabled":false,"rental_uris":{"android":"levelo://app?vid=718be210-cfb0-41d1-ba82-24e47969e2d5","ios":"levelo://app?vid=718be210-cfb0-41d1-ba82-24e47969e2d5"},"vehicle_type_id":"4","last_reported":1745511185,"current_range_meters":17600,"station_id":"","pricing_plan_id":"cebpf4jnsgd1na2vs0mg"},{"bike_id":"c4f09c4f-4ccb-427b-957d-bab542070028","system_id":"levelo_inurba_marseille","lat":43.29009,"lon":5.35618,"is_reserved":false,"is_disabled":false,"rental_uris":{"android":"levelo://app?vid=c4f09c4f-4ccb-427b-957d-bab542070028","ios":"levelo://app?vid=c4f09c4f-4ccb-427b-957d-bab542070028"},"vehicle_type_id":"4","last_reported":1745511185,"current_range_meters":17600,"station_id":"ce4bhb92rcd13ifvqen0","pricing_plan_id":"cebpf4jnsgd1na2vs0mg"},{"bike_id":"2469eb96-d03e-407f-8394-38ad883c82fd","system_id":"levelo_inurba_marseille","lat":43.23154,"lon":5.43723,"is_reserved":false,"is_disabled":false,"rental_uris":{"android":"levelo://app?vid=2469eb96-d03e-407f-8394-38ad883c82fd","ios":"levelo://app?vid=2469eb96-d03e-407f-8394-38ad883c82fd"},"vehicle_type_id":"4","last_reported":1745511185,"current_range_meters":17600,"station_id":"ce4bhmp2rcd13ifvqgog","pricing_plan_id":"cebpf4jnsgd1na2vs0mg"},{"bike_id":"7597f9f7-581e-4aa1-9ea0-a72928416a0e","system_id":"levelo_inurba_marseille","lat":43.30302,"lon":5.39194,"is_reserved":false,"is_disabled":true,"rental_uris":{"android":"levelo://app?vid=7597f9f7-581e-4aa1-9ea0-a72928416a0e","ios":"levelo://app?vid=7597f9f7-581e-4aa1-9ea0-a72928416a0e"},"vehicle_type_id":"4","last_reported":1745511185,"current_range_meters":18000,"station_id":"ce4bgkh2rcd13ifvqbk0","pricing_plan_id":"cebpf4jnsgd1na2vs0mg"},{"bike_id":"533e4085-7e87-4f1f-ad34-d4c83e5896ab","system_id":"levelo_inurba_marseille","lat":43.296141,"lon":5.377278,"is_reserved":false,"is_disabled":false,"rental_uris":{"android":"levelo://app?vid=533e4085-7e87-4f1f-ad34-d4c83e5896ab","ios":"levelo://app?vid=533e4085-7e87-4f1f-ad34-d4c83e5896ab"},"vehicle_type_id":"4","last_reported":1745511185,"current_range_meters":18000,"station_id":"ce4bgi92rcd13ifvqb90","pricing_plan_id":"cebpf4jnsgd1na2vs0mg"},{"bike_id":"4d2beb57-71cc-463b-af16-d0ebe4be478b","system_id":"levelo_inurba_marseille","lat":43.26824,"lon":5.40387,"is_reserved":false,"is_disabled":false,"rental_uris":{"android":"levelo://app?vid=4d2beb57-71cc-463b-af16-d0ebe4be478b","ios":"levelo://app?vid=4d2beb57-71cc-463b-af16-d0ebe4be478b"},"vehicle_type_id":"4","last_reported":1745511185,"current_range_meters":18000,"station_id":"","pricing_plan_id":"cebpf4jnsgd1na2vs0mg"},{"bike_id":"b060a5cb-7521-4f42-826a-df832facd15e","system_id":"levelo_inurba_marseille","lat":43.28421,"lon":5.35028,"is_reserved":false,"is_disabled":false,"rental_uris":{"android":"levelo://app?vid=b060a5cb-7521-4f42-826a-df832facd15e","ios":"levelo://app?vid=b060a5cb-7521-4f42-826a-df832facd15e"},"vehicle_type_id":"4","last_reported":1745511185,"current_range_meters":18000,"station_id":"ce4bhbh2rcd13ifvqepg","pricing_plan_id":"cebpf4jnsgd1na2vs0mg"},{"bike_id":"c567228c-7705-462d-957c-ade065b0a33c","system_id":"levelo_inurba_marseille","lat":43.28943,"lon":5.36642,"is_reserved":false,"is_disabled":false,"rental_uris":{"android":"levelo://app?vid=c567228c-7705-462d-957c-ade065b0a33c","ios":"levelo://app?vid=c567228c-7705-462d-957c-ade065b0a33c"},"vehicle_type_id":"4","last_reported":1745511185,"current_range_meters":18800,"station_id":"ce4bhap2rcd13ifvqek0","pricing_plan_id":"cebpf4jnsgd1na2vs0mg"},{"bike_id":"713e340d-4155-4de4-a5a1-7868887bc224","system_id":"levelo_inurba_marseille","lat":43.22929,"lon":5.35374,"is_reserved":false,"is_disabled":false,"rental_uris":{"android":"levelo://app?vid=713e340d-4155-4de4-a5a1-7868887bc224","ios":"levelo://app?vid=713e340d-4155-4de4-a5a1-7868887bc224"},"vehicle_type_id":"4","last_reported":1745511185,"current_range_meters":18800,"station_id":"cpo3532slgdg3j2ikp40","pricing_plan_id":"cebpf4jnsgd1na2vs0mg"},{"bike_id":"70ef5671-c61d-42d3-9906-d1f522e68da0","system_id":"levelo_inurba_marseille","lat":43.32352,"lon":5.40614,"is_reserved":false,"is_disabled":false,"rental_uris":{"android":"levelo://app?vid=70ef5671-c61d-42d3-9906-d1f522e68da0","ios":"levelo://app?vid=70ef5671-c61d-42d3-9906-d1f522e68da0"},"vehicle_type_id":"4","last_reported":1745511185,"current_range_meters":18800,"station_id":"ce4bhq92rcd13ifvqhjg","pricing_plan_id":"cebpf4jnsgd1na2vs0mg"},{"bike_id":"91de0134-63b5-46f3-a18b-87f57936f06f","system_id":"levelo_inurba_marseille","lat":43.27623,"lon":5.36107,"is_reserved":false,"is_disabled":false,"rental_uris":{"android":"levelo://app?vid=91de0134-63b5-46f3-a18b-87f57936f06f","ios":"levelo://app?vid=91de0134-63b5-46f3-a18b-87f57936f06f"},"vehicle_type_id":"4","last_reported":1745511185,"current_range_meters":18800,"station_id":"ce4bgj92rcd13ifvqbe0","pricing_plan_id":"cebpf4jnsgd1na2vs0mg"},{"bike_id":"f437bbcd-3bc3-4220-9dfe-08d3eac84ba1","system_id":"levelo_inurba_marseille","lat":43.28616,"lon":5.35116,"is_reserved":false,"is_disabled":true,"rental_uris":{"android":"levelo://app?vid=f437bbcd-3bc3-4220-9dfe-08d3eac84ba1","ios":"levelo://app?vid=f437bbcd-3bc3-4220-9dfe-08d3eac84ba1"},"vehicle_type_id":"4","last_reported":1745511185,"current_range_meters":18800,"station_id":"ce4bhch2rcd13ifvqeug","pricing_plan_id":"cebpf4jnsgd1na2vs0mg"},{"bike_id":"02a04312-9006-48f2-97a9-a32820efc417","system_id":"levelo_inurba_marseille","lat":43.3169,"lon":5.37756,"is_reserved":false,"is_disabled":false,"rental_uris":{"android":"levelo://app?vid=02a04312-9006-48f2-97a9-a32820efc417","ios":"levelo://app?vid=02a04312-9006-48f2-97a9-a32820efc417"},"vehicle_type_id":"4","last_reported":1745511185,"current_range_meters":18800,"station_id":"ce4bgth2rcd13ifvqch0","pricing_plan_id":"cebpf4jnsgd1na2vs0mg"},{"bike_id":"53dc2b7a-a34b-4fe9-8019-2a702878c0cd","system_id":"levelo_inurba_marseille","lat":43.33029,"lon":5.39045,"is_reserved":false,"is_disabled":false,"rental_uris":{"android":"levelo://app?vid=53dc2b7a-a34b-4fe9-8019-2a702878c0cd","ios":"levelo://app?vid=53dc2b7a-a34b-4fe9-8019-2a702878c0cd"},"vehicle_type_id":"4","last_reported":1745511185,"current_range_meters":17600,"station_id":"ce4bhr92rcd13ifvqhrg","pricing_plan_id":"cebpf4jnsgd1na2vs0mg"},{"bike_id":"b1340ad5-0838-4d06-8c51-c2d8747689d8","system_id":"levelo_inurba_marseille","lat":43.28949,"lon":5.36396,"is_reserved":false,"is_disabled":false,"rental_uris":{"android":"levelo://app?vid=b1340ad5-0838-4d06-8c51-c2d8747689d8","ios":"levelo://app?vid=b1340ad5-0838-4d06-8c51-c2d8747689d8"},"vehicle_type_id":"4","last_reported":1745511185,"current_range_meters":18800,"station_id":"ce4bhc92rcd13ifvqetg","pricing_plan_id":"cebpf4jnsgd1na2vs0mg"},{"bike_id":"0bfff189-ec6a-4439-b345-e9dd168ab867","system_id":"levelo_inurba_marseille","lat":43.33735,"lon":5.39208,"is_reserved":false,"is_disabled":false,"rental_uris":{"android":"levelo://app?vid=0bfff189-ec6a-4439-b345-e9dd168ab867","ios":"levelo://app?vid=0bfff189-ec6a-4439-b345-e9dd168ab867"},"vehicle_type_id":"4","last_reported":1745511185,"current_range_meters":18800,"station_id":"ce4bhr92rcd13ifvqhsg","pricing_plan_id":"cebpf4jnsgd1na2vs0mg"},{"bike_id":"9ebec2c2-e4e2-4e72-8800-6cc2a0c85f32","system_id":"levelo_inurba_marseille","lat":43.32566,"lon":5.39428,"is_reserved":false,"is_disabled":false,"rental_uris":{"android":"levelo://app?vid=9ebec2c2-e4e2-4e72-8800-6cc2a0c85f32","ios":"levelo://app?vid=9ebec2c2-e4e2-4e72-8800-6cc2a0c85f32"},"vehicle_type_id":"4","last_reported":1745511185,"current_range_meters":19200,"station_id":"","pricing_plan_id":"cebpf4jnsgd1na2vs0mg"},{"bike_id":"c1a2ae87-2461-409a-98bb-a666f413753d","system_id":"levelo_inurba_marseille","lat":43.280196,"lon":5.400338,"is_reserved":false,"is_disabled":false,"rental_uris":{"android":"levelo://app?vid=c1a2ae87-2461-409a-98bb-a666f413753d","ios":"levelo://app?vid=c1a2ae87-2461-409a-98bb-a666f413753d"},"vehicle_type_id":"4","last_reported":1745511185,"current_range_meters":19200,"station_id":"ce4bho92rcd13ifvqh4g","pricing_plan_id":"cebpf4jnsgd1na2vs0mg"},{"bike_id":"9a1c0be7-bd1a-4081-ab84-3ef05258b407","system_id":"levelo_inurba_marseille","lat":43.22932,"lon":5.3539,"is_reserved":false,"is_disabled":false,"rental_uris":{"android":"levelo://app?vid=9a1c0be7-bd1a-4081-ab84-3ef05258b407","ios":"levelo://app?vid=9a1c0be7-bd1a-4081-ab84-3ef05258b407"},"vehicle_type_id":"4","last_reported":1745511185,"current_range_meters":19200,"station_id":"cpo3532slgdg3j2ikp40","pricing_plan_id":"cebpf4jnsgd1na2vs0mg"},{"bike_id":"a9784e4d-72f3-45a0-bc5c-6a48517d28d6","system_id":"levelo_inurba_marseille","lat":43.3306,"lon":5.39016,"is_reserved":false,"is_disabled":false,"rental_uris":{"android":"levelo://app?vid=a9784e4d-72f3-45a0-bc5c-6a48517d28d6","ios":"levelo://app?vid=a9784e4d-72f3-45a0-bc5c-6a48517d28d6"},"vehicle_type_id":"4","last_reported":1745511185,"current_range_meters":19200,"station_id":"ce4bhr92rcd13ifvqhrg","pricing_plan_id":"cebpf4jnsgd1na2vs0mg"},{"bike_id":"793f8bf8-7d60-4508-a1db-7ba94c2e2025","system_id":"levelo_inurba_marseille","lat":43.29868,"lon":5.39741,"is_reserved":false,"is_disabled":false,"rental_uris":{"android":"levelo://app?vid=793f8bf8-7d60-4508-a1db-7ba94c2e2025","ios":"levelo://app?vid=793f8bf8-7d60-4508-a1db-7ba94c2e2025"},"vehicle_type_id":"4","last_reported":1745511185,"current_range_meters":19200,"station_id":"ce4bh0h2rcd13ifvqd50","pricing_plan_id":"cebpf4jnsgd1na2vs0mg"},{"bike_id":"21023ffa-cc31-4484-9f97-82609e00847f","system_id":"levelo_inurba_marseille","lat":43.28421,"lon":5.34982,"is_reserved":false,"is_disabled":false,"rental_uris":{"android":"levelo://app?vid=21023ffa-cc31-4484-9f97-82609e00847f","ios":"levelo://app?vid=21023ffa-cc31-4484-9f97-82609e00847f"},"vehicle_type_id":"4","last_reported":1745511185,"current_range_meters":19200,"station_id":"ce4bhbh2rcd13ifvqepg","pricing_plan_id":"cebpf4jnsgd1na2vs0mg"},{"bike_id":"43f8f569-5c7d-4de8-aa59-be0e9b3b1bab","system_id":"levelo_inurba_marseille","lat":43.29273,"lon":5.38439,"is_reserved":false,"is_disabled":false,"rental_uris":{"android":"levelo://app?vid=43f8f569-5c7d-4de8-aa59-be0e9b3b1bab","ios":"levelo://app?vid=43f8f569-5c7d-4de8-aa59-be0e9b3b1bab"},"vehicle_type_id":"4","last_reported":1745511185,"current_range_meters":19200,"station_id":"ce4bh692rcd13ifvqea0","pricing_plan_id":"cebpf4jnsgd1na2vs0mg"},{"bike_id":"5ffc76a7-dd4d-495d-b7aa-8414938b539f","system_id":"levelo_inurba_marseille","lat":43.29268,"lon":5.36847,"is_reserved":false,"is_disabled":false,"rental_uris":{"android":"levelo://app?vid=5ffc76a7-dd4d-495d-b7aa-8414938b539f","ios":"levelo://app?vid=5ffc76a7-dd4d-495d-b7aa-8414938b539f"},"vehicle_type_id":"4","last_reported":1745511185,"current_range_meters":19200,"station_id":"ce4bhbp2rcd13ifvqesg","pricing_plan_id":"cebpf4jnsgd1na2vs0mg"},{"bike_id":"1791792a-2708-40a9-a06b-3f49b64061fa","system_id":"levelo_inurba_marseille","lat":43.2926,"lon":5.40912,"is_reserved":false,"is_disabled":false,"rental_uris":{"android":"levelo://app?vid=1791792a-2708-40a9-a06b-3f49b64061fa","ios":"levelo://app?vid=1791792a-2708-40a9-a06b-3f49b64061fa"},"vehicle_type_id":"4","last_reported":1745511185,"current_range_meters":19600,"station_id":"ce4bh192rcd13ifvqdc0","pricing_plan_id":"cebpf4jnsgd1na2vs0mg"},{"bike_id":"40ad2cc7-862d-4c16-8ce2-de73c17ec02a","system_id":"levelo_inurba_marseille","lat":43.25117,"lon":5.40222,"is_reserved":false,"is_disabled":false,"rental_uris":{"android":"levelo://app?vid=40ad2cc7-862d-4c16-8ce2-de73c17ec02a","ios":"levelo://app?vid=40ad2cc7-862d-4c16-8ce2-de73c17ec02a"},"vehicle_type_id":"4","last_reported":1745511185,"current_range_meters":19600,"station_id":"ce4bhlh2rcd13ifvqgig","pricing_plan_id":"cebpf4jnsgd1na2vs0mg"},{"bike_id":"985c836c-3c73-486a-a4af-2b85640649df","system_id":"levelo_inurba_marseille","lat":43.317789,"lon":5.39006,"is_reserved":false,"is_disabled":false,"rental_uris":{"android":"levelo://app?vid=985c836c-3c73-486a-a4af-2b85640649df","ios":"levelo://app?vid=985c836c-3c73-486a-a4af-2b85640649df"},"vehicle_type_id":"4","last_reported":1745511185,"current_range_meters":19600,"station_id":"ce4bhqp2rcd13ifvqhng","pricing_plan_id":"cebpf4jnsgd1na2vs0mg"},{"bike_id":"38b34eab-d5ab-4fc0-b64e-e16b9ce84eb6","system_id":"levelo_inurba_marseille","lat":43.3093,"lon":5.40145,"is_reserved":false,"is_disabled":false,"rental_uris":{"android":"levelo://app?vid=38b34eab-d5ab-4fc0-b64e-e16b9ce84eb6","ios":"levelo://app?vid=38b34eab-d5ab-4fc0-b64e-e16b9ce84eb6"},"vehicle_type_id":"4","last_reported":1745511185,"current_range_meters":20000,"station_id":"ce4bgvp2rcd13ifvqct0","pricing_plan_id":"cebpf4jnsgd1na2vs0mg"},{"bike_id":"8f1a38c1-df91-4bdf-9e4e-92ef410aba4f","system_id":"levelo_inurba_marseille","lat":43.21198,"lon":5.35074,"is_reserved":false,"is_disabled":false,"rental_uris":{"android":"levelo://app?vid=8f1a38c1-df91-4bdf-9e4e-92ef410aba4f","ios":"levelo://app?vid=8f1a38c1-df91-4bdf-9e4e-92ef410aba4f"},"vehicle_type_id":"4","last_reported":1745511185,"current_range_meters":20000,"station_id":"","pricing_plan_id":"cebpf4jnsgd1na2vs0mg"},{"bike_id":"751743b4-398e-4264-b7bc-62fdc5b0575d","system_id":"levelo_inurba_marseille","lat":43.23066,"lon":5.3549,"is_reserved":false,"is_disabled":false,"rental_uris":{"android":"levelo://app?vid=751743b4-398e-4264-b7bc-62fdc5b0575d","ios":"levelo://app?vid=751743b4-398e-4264-b7bc-62fdc5b0575d"},"vehicle_type_id":"4","last_reported":1745511185,"current_range_meters":20000,"station_id":"cpo3342slgdg3j2ifvpg","pricing_plan_id":"cebpf4jnsgd1na2vs0mg"},{"bike_id":"8222b2fe-8afa-4a17-a9ad-dd21ce24a86a","system_id":"levelo_inurba_marseille","lat":43.23965,"lon":5.36634,"is_reserved":false,"is_disabled":false,"rental_uris":{"android":"levelo://app?vid=8222b2fe-8afa-4a17-a9ad-dd21ce24a86a","ios":"levelo://app?vid=8222b2fe-8afa-4a17-a9ad-dd21ce24a86a"},"vehicle_type_id":"4","last_reported":1745511185,"current_range_meters":20000,"station_id":"ce4bhi12rcd13ifvqfp0","pricing_plan_id":"cebpf4jnsgd1na2vs0mg"},{"bike_id":"987d7900-bb2a-45cb-bed7-6d69f6fd4fa3","system_id":"levelo_inurba_marseille","lat":43.28491,"lon":5.38445,"is_reserved":false,"is_disabled":false,"rental_uris":{"android":"levelo://app?vid=987d7900-bb2a-45cb-bed7-6d69f6fd4fa3","ios":"levelo://app?vid=987d7900-bb2a-45cb-bed7-6d69f6fd4fa3"},"vehicle_type_id":"4","last_reported":1745511185,"current_range_meters":20000,"station_id":"ce4bh512rcd13ifvqe3g","pricing_plan_id":"cebpf4jnsgd1na2vs0mg"},{"bike_id":"5b2ab53b-4abe-46b9-ac2a-36d1233fdded","system_id":"levelo_inurba_marseille","lat":43.29646,"lon":5.37335,"is_reserved":false,"is_disabled":false,"rental_uris":{"android":"levelo://app?vid=5b2ab53b-4abe-46b9-ac2a-36d1233fdded","ios":"levelo://app?vid=5b2ab53b-4abe-46b9-ac2a-36d1233fdded"},"vehicle_type_id":"4","last_reported":1745511185,"current_range_meters":20000,"station_id":"","pricing_plan_id":"cebpf4jnsgd1na2vs0mg"},{"bike_id":"02f9e6c4-a45a-433c-a71d-8a3b8a99fc1d","system_id":"levelo_inurba_marseille","lat":43.30799,"lon":5.43523,"is_reserved":false,"is_disabled":false,"rental_uris":{"android":"levelo://app?vid=02f9e6c4-a45a-433c-a71d-8a3b8a99fc1d","ios":"levelo://app?vid=02f9e6c4-a45a-433c-a71d-8a3b8a99fc1d"},"vehicle_type_id":"4","last_reported":1745511185,"current_range_meters":20000,"station_id":"ce4bhph2rcd13ifvqheg","pricing_plan_id":"cebpf4jnsgd1na2vs0mg"},{"bike_id":"d4eff854-6edb-49e3-a917-cdc9287a70a9","system_id":"levelo_inurba_marseille","lat":43.29417,"lon":5.38624,"is_reserved":false,"is_disabled":false,"rental_uris":{"android":"levelo://app?vid=d4eff854-6edb-49e3-a917-cdc9287a70a9","ios":"levelo://app?vid=d4eff854-6edb-49e3-a917-cdc9287a70a9"},"vehicle_type_id":"4","last_reported":1745511185,"current_range_meters":20000,"station_id":"ce4bh2h2rcd13ifvqdh0","pricing_plan_id":"cebpf4jnsgd1na2vs0mg"},{"bike_id":"8641affb-5e50-4fef-a229-c0d54cdff36d","system_id":"levelo_inurba_marseille","lat":43.295319,"lon":5.385451,"is_reserved":false,"is_disabled":false,"rental_uris":{"android":"levelo://app?vid=8641affb-5e50-4fef-a229-c0d54cdff36d","ios":"levelo://app?vid=8641affb-5e50-4fef-a229-c0d54cdff36d"},"vehicle_type_id":"4","last_reported":1745511185,"current_range_meters":20400,"station_id":"ce4bgr92rcd13ifvqc7g","pricing_plan_id":"cebpf4jnsgd1na2vs0mg"},{"bike_id":"829e6027-c98c-4052-9336-7fe801b0bc22","system_id":"levelo_inurba_marseille","lat":43.23159,"lon":5.43711,"is_reserved":false,"is_disabled":true,"rental_uris":{"android":"levelo://app?vid=829e6027-c98c-4052-9336-7fe801b0bc22","ios":"levelo://app?vid=829e6027-c98c-4052-9336-7fe801b0bc22"},"vehicle_type_id":"4","last_reported":1745511185,"current_range_meters":20400,"station_id":"ce4bhmp2rcd13ifvqgog","pricing_plan_id":"cebpf4jnsgd1na2vs0mg"},{"bike_id":"c35fdd47-3410-4298-b154-f5a2b0d7dcc4","system_id":"levelo_inurba_marseille","lat":43.23964,"lon":5.36626,"is_reserved":false,"is_disabled":false,"rental_uris":{"android":"levelo://app?vid=c35fdd47-3410-4298-b154-f5a2b0d7dcc4","ios":"levelo://app?vid=c35fdd47-3410-4298-b154-f5a2b0d7dcc4"},"vehicle_type_id":"4","last_reported":1745511185,"current_range_meters":20400,"station_id":"ce4bhi12rcd13ifvqfp0","pricing_plan_id":"cebpf4jnsgd1na2vs0mg"},{"bike_id":"1e0d1750-52c4-4d82-9962-57533297ee39","system_id":"levelo_inurba_marseille","lat":43.28035,"lon":5.36941,"is_reserved":false,"is_disabled":false,"rental_uris":{"android":"levelo://app?vid=1e0d1750-52c4-4d82-9962-57533297ee39","ios":"levelo://app?vid=1e0d1750-52c4-4d82-9962-57533297ee39"},"vehicle_type_id":"4","last_reported":1745511185,"current_range_meters":20400,"station_id":"ce4bha12rcd13ifvqef0","pricing_plan_id":"cebpf4jnsgd1na2vs0mg"},{"bike_id":"f7f9dada-e805-42c4-8210-1e5b959a6ed6","system_id":"levelo_inurba_marseille","lat":43.27921,"lon":5.39573,"is_reserved":false,"is_disabled":false,"rental_uris":{"android":"levelo://app?vid=f7f9dada-e805-42c4-8210-1e5b959a6ed6","ios":"levelo://app?vid=f7f9dada-e805-42c4-8210-1e5b959a6ed6"},"vehicle_type_id":"4","last_reported":1745511185,"current_range_meters":20400,"station_id":"ce4bhf92rcd13ifvqf40","pricing_plan_id":"cebpf4jnsgd1na2vs0mg"},{"bike_id":"ed50cd0e-3de2-4d91-afa3-9aa1b222ef31","system_id":"levelo_inurba_marseille","lat":43.279183,"lon":5.395766,"is_reserved":false,"is_disabled":false,"rental_uris":{"android":"levelo://app?vid=ed50cd0e-3de2-4d91-afa3-9aa1b222ef31","ios":"levelo://app?vid=ed50cd0e-3de2-4d91-afa3-9aa1b222ef31"},"vehicle_type_id":"4","last_reported":1745511185,"current_range_meters":20400,"station_id":"ce4bhf92rcd13ifvqf40","pricing_plan_id":"cebpf4jnsgd1na2vs0mg"},{"bike_id":"8d2efc95-694f-445a-b640-143344917cbb","system_id":"levelo_inurba_marseille","lat":43.28417,"lon":5.34975,"is_reserved":false,"is_disabled":false,"rental_uris":{"android":"levelo://app?vid=8d2efc95-694f-445a-b640-143344917cbb","ios":"levelo://app?vid=8d2efc95-694f-445a-b640-143344917cbb"},"vehicle_type_id":"4","last_reported":1745511185,"current_range_meters":20800,"station_id":"ce4bhbh2rcd13ifvqepg","pricing_plan_id":"cebpf4jnsgd1na2vs0mg"},{"bike_id":"05aa4b40-4db1-4e96-8e13-56d2174dd405","system_id":"levelo_inurba_marseille","lat":43.30415,"lon":5.41297,"is_reserved":false,"is_disabled":false,"rental_uris":{"android":"levelo://app?vid=05aa4b40-4db1-4e96-8e13-56d2174dd405","ios":"levelo://app?vid=05aa4b40-4db1-4e96-8e13-56d2174dd405"},"vehicle_type_id":"4","last_reported":1745511185,"current_range_meters":20800,"station_id":"ce4bhop2rcd13ifvqh8g","pricing_plan_id":"cebpf4jnsgd1na2vs0mg"},{"bike_id":"183bb44a-cd53-46d9-99be-6e047a2595e3","system_id":"levelo_inurba_marseille","lat":43.284147,"lon":5.349888,"is_reserved":false,"is_disabled":false,"rental_uris":{"android":"levelo://app?vid=183bb44a-cd53-46d9-99be-6e047a2595e3","ios":"levelo://app?vid=183bb44a-cd53-46d9-99be-6e047a2595e3"},"vehicle_type_id":"4","last_reported":1745511185,"current_range_meters":20800,"station_id":"ce4bhbh2rcd13ifvqepg","pricing_plan_id":"cebpf4jnsgd1na2vs0mg"},{"bike_id":"71c05f1a-6b82-4e3a-b5bf-561bc9601bce","system_id":"levelo_inurba_marseille","lat":43.29265,"lon":5.38457,"is_reserved":false,"is_disabled":false,"rental_uris":{"android":"levelo://app?vid=71c05f1a-6b82-4e3a-b5bf-561bc9601bce","ios":"levelo://app?vid=71c05f1a-6b82-4e3a-b5bf-561bc9601bce"},"vehicle_type_id":"4","last_reported":1745511185,"current_range_meters":20800,"station_id":"ce4bh692rcd13ifvqea0","pricing_plan_id":"cebpf4jnsgd1na2vs0mg"},{"bike_id":"5c8001ef-c531-490f-b793-cd3ce7ffc3a8","system_id":"levelo_inurba_marseille","lat":43.33018,"lon":5.39036,"is_reserved":false,"is_disabled":false,"rental_uris":{"android":"levelo://app?vid=5c8001ef-c531-490f-b793-cd3ce7ffc3a8","ios":"levelo://app?vid=5c8001ef-c531-490f-b793-cd3ce7ffc3a8"},"vehicle_type_id":"4","last_reported":1745511185,"current_range_meters":20800,"station_id":"ce4bhr92rcd13ifvqhrg","pricing_plan_id":"cebpf4jnsgd1na2vs0mg"},{"bike_id":"5e83f7b1-f324-4703-948b-2e8e0700b125","system_id":"levelo_inurba_marseille","lat":43.295978,"lon":5.380998,"is_reserved":false,"is_disabled":false,"rental_uris":{"android":"levelo://app?vid=5e83f7b1-f324-4703-948b-2e8e0700b125","ios":"levelo://app?vid=5e83f7b1-f324-4703-948b-2e8e0700b125"},"vehicle_type_id":"4","last_reported":1745511185,"current_range_meters":20400,"station_id":"ce4bgl12rcd13ifvqbo0","pricing_plan_id":"cebpf4jnsgd1na2vs0mg"},{"bike_id":"3d0b1579-4c23-4483-b319-fca557594156","system_id":"levelo_inurba_marseille","lat":43.29274,"lon":5.38458,"is_reserved":false,"is_disabled":false,"rental_uris":{"android":"levelo://app?vid=3d0b1579-4c23-4483-b319-fca557594156","ios":"levelo://app?vid=3d0b1579-4c23-4483-b319-fca557594156"},"vehicle_type_id":"4","last_reported":1745511185,"current_range_meters":20800,"station_id":"ce4bh692rcd13ifvqea0","pricing_plan_id":"cebpf4jnsgd1na2vs0mg"},{"bike_id":"b461e25e-0b9c-4d80-bfcf-deea8c36885c","system_id":"levelo_inurba_marseille","lat":43.308,"lon":5.43521,"is_reserved":false,"is_disabled":false,"rental_uris":{"android":"levelo://app?vid=b461e25e-0b9c-4d80-bfcf-deea8c36885c","ios":"levelo://app?vid=b461e25e-0b9c-4d80-bfcf-deea8c36885c"},"vehicle_type_id":"4","last_reported":1745511185,"current_range_meters":21600,"station_id":"ce4bhph2rcd13ifvqheg","pricing_plan_id":"cebpf4jnsgd1na2vs0mg"},{"bike_id":"b7b393f0-b786-42df-989c-4a6cb72210f4","system_id":"levelo_inurba_marseille","lat":43.32369,"lon":5.3679,"is_reserved":false,"is_disabled":false,"rental_uris":{"android":"levelo://app?vid=b7b393f0-b786-42df-989c-4a6cb72210f4","ios":"levelo://app?vid=b7b393f0-b786-42df-989c-4a6cb72210f4"},"vehicle_type_id":"4","last_reported":1745511185,"current_range_meters":21600,"station_id":"ce4bhsh2rcd13ifvqi2g","pricing_plan_id":"cebpf4jnsgd1na2vs0mg"},{"bike_id":"cca02057-be85-4dbc-b033-ab10e8d969fc","system_id":"levelo_inurba_marseille","lat":43.21221,"lon":5.35021,"is_reserved":false,"is_disabled":false,"rental_uris":{"android":"levelo://app?vid=cca02057-be85-4dbc-b033-ab10e8d969fc","ios":"levelo://app?vid=cca02057-be85-4dbc-b033-ab10e8d969fc"},"vehicle_type_id":"4","last_reported":1745511185,"current_range_meters":21600,"station_id":"","pricing_plan_id":"cebpf4jnsgd1na2vs0mg"},{"bike_id":"e691d2c8-4c90-4c42-90ca-e9a8cac50317","system_id":"levelo_inurba_marseille","lat":43.27992,"lon":5.40021,"is_reserved":false,"is_disabled":false,"rental_uris":{"android":"levelo://app?vid=e691d2c8-4c90-4c42-90ca-e9a8cac50317","ios":"levelo://app?vid=e691d2c8-4c90-4c42-90ca-e9a8cac50317"},"vehicle_type_id":"4","last_reported":1745511185,"current_range_meters":21600,"station_id":"ce4bho92rcd13ifvqh4g","pricing_plan_id":"cebpf4jnsgd1na2vs0mg"},{"bike_id":"6f48cde5-f80e-4a94-9c71-d4871f0f2e98","system_id":"levelo_inurba_marseille","lat":43.31364,"lon":5.38494,"is_reserved":false,"is_disabled":false,"rental_uris":{"android":"levelo://app?vid=6f48cde5-f80e-4a94-9c71-d4871f0f2e98","ios":"levelo://app?vid=6f48cde5-f80e-4a94-9c71-d4871f0f2e98"},"vehicle_type_id":"4","last_reported":1745511185,"current_range_meters":21600,"station_id":"ce4bgt92rcd13ifvqcf0","pricing_plan_id":"cebpf4jnsgd1na2vs0mg"},{"bike_id":"7225423d-ac27-4688-bd87-0bcb07d274a0","system_id":"levelo_inurba_marseille","lat":43.27566,"lon":5.38426,"is_reserved":false,"is_disabled":false,"rental_uris":{"android":"levelo://app?vid=7225423d-ac27-4688-bd87-0bcb07d274a0","ios":"levelo://app?vid=7225423d-ac27-4688-bd87-0bcb07d274a0"},"vehicle_type_id":"4","last_reported":1745511185,"current_range_meters":22000,"station_id":"ce4bhh92rcd13ifvqfi0","pricing_plan_id":"cebpf4jnsgd1na2vs0mg"},{"bike_id":"e9b40b8c-aa8b-493b-9704-ac204b4fdb74","system_id":"levelo_inurba_marseille","lat":43.22507,"lon":5.34792,"is_reserved":false,"is_disabled":false,"rental_uris":{"android":"levelo://app?vid=e9b40b8c-aa8b-493b-9704-ac204b4fdb74","ios":"levelo://app?vid=e9b40b8c-aa8b-493b-9704-ac204b4fdb74"},"vehicle_type_id":"4","last_reported":1745511185,"current_range_meters":22000,"station_id":"st_cvj5dfep6f1abm77gieg","pricing_plan_id":"cebpf4jnsgd1na2vs0mg"},{"bike_id":"51f86ff9-e435-4370-9fe8-041b2eeb6545","system_id":"levelo_inurba_marseille","lat":43.29269,"lon":5.38444,"is_reserved":false,"is_disabled":false,"rental_uris":{"android":"levelo://app?vid=51f86ff9-e435-4370-9fe8-041b2eeb6545","ios":"levelo://app?vid=51f86ff9-e435-4370-9fe8-041b2eeb6545"},"vehicle_type_id":"4","last_reported":1745511185,"current_range_meters":22000,"station_id":"ce4bh692rcd13ifvqea0","pricing_plan_id":"cebpf4jnsgd1na2vs0mg"},{"bike_id":"ab4d2900-63c8-463f-9415-80c900f1c534","system_id":"levelo_inurba_marseille","lat":43.28439,"lon":5.39203,"is_reserved":false,"is_disabled":false,"rental_uris":{"android":"levelo://app?vid=ab4d2900-63c8-463f-9415-80c900f1c534","ios":"levelo://app?vid=ab4d2900-63c8-463f-9415-80c900f1c534"},