{"last_updated":1746519308,"ttl":60,"version":"2.2","data":{"bikes":[{"bike_id":"545631c8-05b7-4070-95e3-52dc096addb5","system_id":"levelo_inurba_marseille","lat":43.271985,"lon":5.364875,"is_reserved":false,"is_disabled":true,"rental_uris":{"android":"levelo://app?vid=545631c8-05b7-4070-95e3-52dc096addb5","ios":"levelo://app?vid=545631c8-05b7-4070-95e3-52dc096addb5"},"vehicle_type_id":"4","last_reported":1746519308,"current_range_meters":0,"station_id":"","pricing_plan_id":"cebpf4jnsgd1na2vs0mg"},{"bike_id":"2ea342a2-8fe3-4644-b946-65ffca525a5d","system_id":"levelo_inurba_marseille","lat":43.21746,"lon":5.34614,"is_reserved":false,"is_disabled":true,"rental_uris":{"android":"levelo://app?vid=2ea342a2-8fe3-4644-b946-65ffca525a5d","ios":"levelo://app?vid=2ea342a2-8fe3-4644-b946-65ffca525a5d"},"vehicle_type_id":"4","last_reported":1746519308,"current_range_meters":0,"station_id":"","pricing_plan_id":"cebpf4jnsgd1na2vs0mg"},{"bike_id":"61c97516-ea8f-4344-acdd-44a6ce04c052","system_id":"levelo_inurba_marseille","lat":43.277505,"lon":5.392678,"is_reserved":false,"is_disabled":true,"rental_uris":{"android":"levelo://app?vid=61c97516-ea8f-4344-acdd-44a6ce04c052","ios":"levelo://app?vid=61c97516-ea8f-4344-acdd-44a6ce04c052"},"vehicle_type_id":"4","last_reported":1746519308,"current_range_meters":0,"station_id":"","pricing_plan_id":"cebpf4jnsgd1na2vs0mg"},{"bike_id":"a0ce76ea-4a3e-456b-8981-6ea420463480","system_id":"levelo_inurba_marseille","lat":43.3008,"lon":5.37673,"is_reserved":false,"is_disabled":true,"rental_uris":{"android":"levelo://app?vid=a0ce76ea-4a3e-456b-8981-6ea420463480","ios":"levelo://app?vid=a0ce76ea-4a3e-456b-8981-6ea420463480"},"vehicle_type_id":"4","last_reported":1746519308,"current_range_meters":0,"station_id":"","pricing_plan_id":"cebpf4jnsgd1na2vs0mg"},{"bike_id":"64a99dee-e5f5-406c-bb57-3c1dd0084469","system_id":"levelo_inurba_marseille","lat":43.23667,"lon":5.39143,"is_reserved":false,"is_disabled":true,"rental_uris":{"android":"levelo://app?vid=64a99dee-e5f5-406c-bb57-3c1dd0084469","ios":"levelo://app?vid=64a99dee-e5f5-406c-bb57-3c1dd0084469"},"vehicle_type_id":"4","last_reported":1746519308,"current_range_meters":0,"station_id":"","pricing_plan_id":"cebpf4jnsgd1na2vs0mg"},{"bike_id":"b56eeeb9-9ded-4dd2-9efa-c8d4f8a5e387","system_id":"levelo_inurba_marseille","lat":43.27366,"lon":5.42213,"is_reserved":false,"is_disabled":true,"rental_uris":{"android":"levelo://app?vid=b56eeeb9-9ded-4dd2-9efa-c8d4f8a5e387","ios":"levelo://app?vid=b56eeeb9-9ded-4dd2-9efa-c8d4f8a5e387"},"vehicle_type_id":"4","last_reported":1746519308,"current_range_meters":0,"station_id":"","pricing_plan_id":"cebpf4jnsgd1na2vs0mg"},{"bike_id":"4a2906fd-25b2-4be5-811e-9d84d28e283d","system_id":"levelo_inurba_marseille","lat":43.25394,"lon":5.42404,"is_reserved":false,"is_disabled":true,"rental_uris":{"android":"levelo://app?vid=4a2906fd-25b2-4be5-811e-9d84d28e283d","ios":"levelo://app?vid=4a2906fd-25b2-4be5-811e-9d84d28e283d"},"vehicle_type_id":"4","last_reported":1746519308,"current_range_meters":0,"station_id":"","pricing_plan_id":"cebpf4jnsgd1na2vs0mg"},{"bike_id":"ed6258ed-261a-4d19-955b-6d7627cf1fdf","system_id":"levelo_inurba_marseille","lat":43.309486,"lon":5.390314,"is_reserved":false,"is_disabled":true,"rental_uris":{"android":"levelo://app?vid=ed6258ed-261a-4d19-955b-6d7627cf1fdf","ios":"levelo://app?vid=ed6258ed-261a-4d19-955b-6d7627cf1fdf"},"vehicle_type_id":"4","last_reported":1746519308,"current_range_meters":0,"station_id":"ce4bgup2rcd13ifvqco0","pricing_plan_id":"cebpf4jnsgd1na2vs0mg"},{"bike_id":"b87fcc11-5d9b-4133-b88b-6a899275794f","system_id":"levelo_inurba_marseille","lat":43.337444,"lon":5.374475,"is_reserved":false,"is_disabled":true,"rental_uris":{"android":"levelo://app?vid=b87fcc11-5d9b-4133-b88b-6a899275794f","ios":"levelo://app?vid=b87fcc11-5d9b-4133-b88b-6a899275794f"},"vehicle_type_id":"4","last_reported":1746519308,"current_range_meters":0,"station_id":"ce4bgvp2rcd13ifvqct0","pricing_plan_id":"cebpf4jnsgd1na2vs0mg"},{"bike_id":"4503746f-8eb9-43e2-b21c-2e766231bc10","system_id":"levelo_inurba_marseille","lat":43.28923,"lon":5.38406,"is_reserved":false,"is_disabled":true,"rental_uris":{"android":"levelo://app?vid=4503746f-8eb9-43e2-b21c-2e766231bc10","ios":"levelo://app?vid=4503746f-8eb9-43e2-b21c-2e766231bc10"},"vehicle_type_id":"4","last_reported":1746519308,"current_range_meters":0,"station_id":"ce4bh612rcd13ifvqe6g","pricing_plan_id":"cebpf4jnsgd1na2vs0mg"},{"bike_id":"5b384506-5726-408b-bd5f-6e6adbd54599","system_id":"levelo_inurba_marseille","lat":43.27492,"lon":5.42457,"is_reserved":false,"is_disabled":true,"rental_uris":{"android":"levelo://app?vid=5b384506-5726-408b-bd5f-6e6adbd54599","ios":"levelo://app?vid=5b384506-5726-408b-bd5f-6e6adbd54599"},"vehicle_type_id":"4","last_reported":1746519308,"current_range_meters":0,"station_id":"ce4bhn92rcd13ifvqgrg","pricing_plan_id":"cebpf4jnsgd1na2vs0mg"},{"bike_id":"de665182-5d20-4f12-86b8-f2becad9139b","system_id":"levelo_inurba_marseille","lat":43.32531,"lon":5.41435,"is_reserved":false,"is_disabled":true,"rental_uris":{"android":"levelo://app?vid=de665182-5d20-4f12-86b8-f2becad9139b","ios":"levelo://app?vid=de665182-5d20-4f12-86b8-f2becad9139b"},"vehicle_type_id":"4","last_reported":1746519308,"current_range_meters":0,"station_id":"ce4bhq12rcd13ifvqhhg","pricing_plan_id":"cebpf4jnsgd1na2vs0mg"},{"bike_id":"374912a5-f20a-4c2c-b056-735141c24819","system_id":"levelo_inurba_marseille","lat":43.26563,"lon":5.38995,"is_reserved":false,"is_disabled":true,"rental_uris":{"android":"levelo://app?vid=374912a5-f20a-4c2c-b056-735141c24819","ios":"levelo://app?vid=374912a5-f20a-4c2c-b056-735141c24819"},"vehicle_type_id":"4","last_reported":1746519308,"current_range_meters":800,"station_id":"ce4bhe12rcd13ifvqf30","pricing_plan_id":"cebpf4jnsgd1na2vs0mg"},{"bike_id":"184686c2-2ab7-4288-9d3c-7b5f0937a736","system_id":"levelo_inurba_marseille","lat":43.27962,"lon":5.38752,"is_reserved":false,"is_disabled":true,"rental_uris":{"android":"levelo://app?vid=184686c2-2ab7-4288-9d3c-7b5f0937a736","ios":"levelo://app?vid=184686c2-2ab7-4288-9d3c-7b5f0937a736"},"vehicle_type_id":"4","last_reported":1746519308,"current_range_meters":800,"station_id":"ce4bhg12rcd13ifvqf80","pricing_plan_id":"cebpf4jnsgd1na2vs0mg"},{"bike_id":"5c3be974-ef4c-4f08-97b8-9f15739abb6d","system_id":"levelo_inurba_marseille","lat":43.30954,"lon":5.39066,"is_reserved":false,"is_disabled":true,"rental_uris":{"android":"levelo://app?vid=5c3be974-ef4c-4f08-97b8-9f15739abb6d","ios":"levelo://app?vid=5c3be974-ef4c-4f08-97b8-9f15739abb6d"},"vehicle_type_id":"4","last_reported":1746519308,"current_range_meters":1200,"station_id":"ce4bgup2rcd13ifvqco0","pricing_plan_id":"cebpf4jnsgd1na2vs0mg"},{"bike_id":"3f539d62-7d18-4530-bc54-75ff5a5c836b","system_id":"levelo_inurba_marseille","lat":43.25584,"lon":5.38225,"is_reserved":false,"is_disabled":true,"rental_uris":{"android":"levelo://app?vid=3f539d62-7d18-4530-bc54-75ff5a5c836b","ios":"levelo://app?vid=3f539d62-7d18-4530-bc54-75ff5a5c836b"},"vehicle_type_id":"4","last_reported":1746519308,"current_range_meters":1200,"station_id":"ce4bhih2rcd13ifvqfs0","pricing_plan_id":"cebpf4jnsgd1na2vs0mg"},{"bike_id":"1e3195f6-106c-4dd3-8852-0494cfce0d2f","system_id":"levelo_inurba_marseille","lat":43.286084,"lon":5.370713,"is_reserved":false,"is_disabled":true,"rental_uris":{"android":"levelo://app?vid=1e3195f6-106c-4dd3-8852-0494cfce0d2f","ios":"levelo://app?vid=1e3195f6-106c-4dd3-8852-0494cfce0d2f"},"vehicle_type_id":"4","last_reported":1746519308,"current_range_meters":1200,"station_id":"ce4bht12rcd13ifvqi60","pricing_plan_id":"cebpf4jnsgd1na2vs0mg"},{"bike_id":"3f4b5321-fe23-4348-8289-d775d3a8608d","system_id":"levelo_inurba_marseille","lat":43.29029,"lon":5.40125,"is_reserved":false,"is_disabled":false,"rental_uris":{"android":"levelo://app?vid=3f4b5321-fe23-4348-8289-d775d3a8608d","ios":"levelo://app?vid=3f4b5321-fe23-4348-8289-d775d3a8608d"},"vehicle_type_id":"4","last_reported":1746519308,"current_range_meters":2000,"station_id":"ce4bh392rcd13ifvqdm0","pricing_plan_id":"cebpf4jnsgd1na2vs0mg"},{"bike_id":"88fd4d56-80b1-45f8-a748-1d0b5116d69f","system_id":"levelo_inurba_marseille","lat":43.28209,"lon":5.351025,"is_reserved":false,"is_disabled":true,"rental_uris":{"android":"levelo://app?vid=88fd4d56-80b1-45f8-a748-1d0b5116d69f","ios":"levelo://app?vid=88fd4d56-80b1-45f8-a748-1d0b5116d69f"},"vehicle_type_id":"4","last_reported":1746519308,"current_range_meters":2000,"station_id":"ce4bhbp2rcd13ifvqerg","pricing_plan_id":"cebpf4jnsgd1na2vs0mg"},{"bike_id":"b1a71060-1e13-4204-a84a-e6c9f8bfe7d6","system_id":"levelo_inurba_marseille","lat":43.30944,"lon":5.39038,"is_reserved":false,"is_disabled":false,"rental_uris":{"android":"levelo://app?vid=b1a71060-1e13-4204-a84a-e6c9f8bfe7d6","ios":"levelo://app?vid=b1a71060-1e13-4204-a84a-e6c9f8bfe7d6"},"vehicle_type_id":"4","last_reported":1746519308,"current_range_meters":2800,"station_id":"ce4bgup2rcd13ifvqco0","pricing_plan_id":"cebpf4jnsgd1na2vs0mg"},{"bike_id":"03e5cdad-e181-4c7d-b1cd-7278610f849f","system_id":"levelo_inurba_marseille","lat":43.31342,"lon":5.36724,"is_reserved":false,"is_disabled":false,"rental_uris":{"android":"levelo://app?vid=03e5cdad-e181-4c7d-b1cd-7278610f849f","ios":"levelo://app?vid=03e5cdad-e181-4c7d-b1cd-7278610f849f"},"vehicle_type_id":"4","last_reported":1746519308,"current_range_meters":3200,"station_id":"ce4bgr92rcd13ifvqc6g","pricing_plan_id":"cebpf4jnsgd1na2vs0mg"},{"bike_id":"61b5b79b-d9cb-4b57-b434-a4006b13f2da","system_id":"levelo_inurba_marseille","lat":43.2582,"lon":5.39436,"is_reserved":false,"is_disabled":false,"rental_uris":{"android":"levelo://app?vid=61b5b79b-d9cb-4b57-b434-a4006b13f2da","ios":"levelo://app?vid=61b5b79b-d9cb-4b57-b434-a4006b13f2da"},"vehicle_type_id":"4","last_reported":1746519308,"current_range_meters":3200,"station_id":"ce4bhip2rcd13ifvqft0","pricing_plan_id":"cebpf4jnsgd1na2vs0mg"},{"bike_id":"66b646b3-6352-44bb-9bfb-21570512e3e5","system_id":"levelo_inurba_marseille","lat":43.281304,"lon":5.403889,"is_reserved":false,"is_disabled":false,"rental_uris":{"android":"levelo://app?vid=66b646b3-6352-44bb-9bfb-21570512e3e5","ios":"levelo://app?vid=66b646b3-6352-44bb-9bfb-21570512e3e5"},"vehicle_type_id":"4","last_reported":1746519308,"current_range_meters":4000,"station_id":"","pricing_plan_id":"cebpf4jnsgd1na2vs0mg"},{"bike_id":"c7569f25-9bc2-4a7b-94d5-25bad92fcfaa","system_id":"levelo_inurba_marseille","lat":43.27924,"lon":5.38261,"is_reserved":false,"is_disabled":false,"rental_uris":{"android":"levelo://app?vid=c7569f25-9bc2-4a7b-94d5-25bad92fcfaa","ios":"levelo://app?vid=c7569f25-9bc2-4a7b-94d5-25bad92fcfaa"},"vehicle_type_id":"4","last_reported":1746519308,"current_range_meters":4000,"station_id":"","pricing_plan_id":"cebpf4jnsgd1na2vs0mg"},{"bike_id":"7d30120c-5852-45a2-a491-03d96ca0ae94","system_id":"levelo_inurba_marseille","lat":43.26908,"lon":5.40243,"is_reserved":false,"is_disabled":false,"rental_uris":{"android":"levelo://app?vid=7d30120c-5852-45a2-a491-03d96ca0ae94","ios":"levelo://app?vid=7d30120c-5852-45a2-a491-03d96ca0ae94"},"vehicle_type_id":"4","last_reported":1746519308,"current_range_meters":4000,"station_id":"cjm6bp8fraef2m0cb0m0","pricing_plan_id":"cebpf4jnsgd1na2vs0mg"},{"bike_id":"0acc5d32-ee2a-409a-b76a-03598c23bcac","system_id":"levelo_inurba_marseille","lat":43.240813,"lon":5.37754,"is_reserved":false,"is_disabled":false,"rental_uris":{"android":"levelo://app?vid=0acc5d32-ee2a-409a-b76a-03598c23bcac","ios":"levelo://app?vid=0acc5d32-ee2a-409a-b76a-03598c23bcac"},"vehicle_type_id":"4","last_reported":1746519308,"current_range_meters":4400,"station_id":"ce4bhnp2rcd13ifvqgvg","pricing_plan_id":"cebpf4jnsgd1na2vs0mg"},{"bike_id":"f40fb43f-76f2-4765-9313-bf4e63be4296","system_id":"levelo_inurba_marseille","lat":43.29443,"lon":5.39758,"is_reserved":false,"is_disabled":false,"rental_uris":{"android":"levelo://app?vid=f40fb43f-76f2-4765-9313-bf4e63be4296","ios":"levelo://app?vid=f40fb43f-76f2-4765-9313-bf4e63be4296"},"vehicle_type_id":"4","last_reported":1746519308,"current_range_meters":4800,"station_id":"ce4bh3h2rcd13ifvqdo0","pricing_plan_id":"cebpf4jnsgd1na2vs0mg"},{"bike_id":"6216ee67-ae06-46a0-8cc7-518099fe972a","system_id":"levelo_inurba_marseille","lat":43.24184,"lon":5.39728,"is_reserved":false,"is_disabled":false,"rental_uris":{"android":"levelo://app?vid=6216ee67-ae06-46a0-8cc7-518099fe972a","ios":"levelo://app?vid=6216ee67-ae06-46a0-8cc7-518099fe972a"},"vehicle_type_id":"4","last_reported":1746519308,"current_range_meters":4800,"station_id":"ce4bhn12rcd13ifvqgpg","pricing_plan_id":"cebpf4jnsgd1na2vs0mg"},{"bike_id":"10d563a4-424a-4a44-88bc-065a04b5247a","system_id":"levelo_inurba_marseille","lat":43.2174,"lon":5.34607,"is_reserved":false,"is_disabled":false,"rental_uris":{"android":"levelo://app?vid=10d563a4-424a-4a44-88bc-065a04b5247a","ios":"levelo://app?vid=10d563a4-424a-4a44-88bc-065a04b5247a"},"vehicle_type_id":"4","last_reported":1746519308,"current_range_meters":6000,"station_id":"","pricing_plan_id":"cebpf4jnsgd1na2vs0mg"},{"bike_id":"cb7c1fa0-5ea4-43ad-9787-6af97d559aa5","system_id":"levelo_inurba_marseille","lat":43.29789,"lon":5.38073,"is_reserved":false,"is_disabled":false,"rental_uris":{"android":"levelo://app?vid=cb7c1fa0-5ea4-43ad-9787-6af97d559aa5","ios":"levelo://app?vid=cb7c1fa0-5ea4-43ad-9787-6af97d559aa5"},"vehicle_type_id":"4","last_reported":1746519308,"current_range_meters":6000,"station_id":"ce4bgip2rcd13ifvqbb0","pricing_plan_id":"cebpf4jnsgd1na2vs0mg"},{"bike_id":"30f464f3-0da6-45c3-a13a-f93275b02483","system_id":"levelo_inurba_marseille","lat":43.30906,"lon":5.36836,"is_reserved":false,"is_disabled":false,"rental_uris":{"android":"levelo://app?vid=30f464f3-0da6-45c3-a13a-f93275b02483","ios":"levelo://app?vid=30f464f3-0da6-45c3-a13a-f93275b02483"},"vehicle_type_id":"4","last_reported":1746519308,"current_range_meters":6000,"station_id":"ce4bgn92rcd13ifvqbvg","pricing_plan_id":"cebpf4jnsgd1na2vs0mg"},{"bike_id":"903ace5d-b1d6-4b6c-9fdc-25cc75342bd1","system_id":"levelo_inurba_marseille","lat":43.26569,"lon":5.38998,"is_reserved":false,"is_disabled":false,"rental_uris":{"android":"levelo://app?vid=903ace5d-b1d6-4b6c-9fdc-25cc75342bd1","ios":"levelo://app?vid=903ace5d-b1d6-4b6c-9fdc-25cc75342bd1"},"vehicle_type_id":"4","last_reported":1746519308,"current_range_meters":6000,"station_id":"ce4bhe12rcd13ifvqf30","pricing_plan_id":"cebpf4jnsgd1na2vs0mg"},{"bike_id":"3a2314bd-65b6-40a4-82d1-227d2a99cee1","system_id":"levelo_inurba_marseille","lat":43.24075,"lon":5.37751,"is_reserved":false,"is_disabled":false,"rental_uris":{"android":"levelo://app?vid=3a2314bd-65b6-40a4-82d1-227d2a99cee1","ios":"levelo://app?vid=3a2314bd-65b6-40a4-82d1-227d2a99cee1"},"vehicle_type_id":"4","last_reported":1746519308,"current_range_meters":6000,"station_id":"ce4bhnp2rcd13ifvqgvg","pricing_plan_id":"cebpf4jnsgd1na2vs0mg"},{"bike_id":"953ef954-8354-49ca-b60f-41752fd51a37","system_id":"levelo_inurba_marseille","lat":43.24165,"lon":5.36398,"is_reserved":false,"is_disabled":false,"rental_uris":{"android":"levelo://app?vid=953ef954-8354-49ca-b60f-41752fd51a37","ios":"levelo://app?vid=953ef954-8354-49ca-b60f-41752fd51a37"},"vehicle_type_id":"4","last_reported":1746519308,"current_range_meters":6000,"station_id":"cpo36qri1sfpv3e86is0","pricing_plan_id":"cebpf4jnsgd1na2vs0mg"},{"bike_id":"b10d463a-a426-43ed-a83c-2f4d4d9377c9","system_id":"levelo_inurba_marseille","lat":43.27502,"lon":5.42463,"is_reserved":false,"is_disabled":false,"rental_uris":{"android":"levelo://app?vid=b10d463a-a426-43ed-a83c-2f4d4d9377c9","ios":"levelo://app?vid=b10d463a-a426-43ed-a83c-2f4d4d9377c9"},"vehicle_type_id":"4","last_reported":1746519308,"current_range_meters":6400,"station_id":"ce4bhn92rcd13ifvqgrg","pricing_plan_id":"cebpf4jnsgd1na2vs0mg"},{"bike_id":"915a128c-b752-4732-9011-3a131d50df99","system_id":"levelo_inurba_marseille","lat":43.2404,"lon":5.37738,"is_reserved":false,"is_disabled":false,"rental_uris":{"android":"levelo://app?vid=915a128c-b752-4732-9011-3a131d50df99","ios":"levelo://app?vid=915a128c-b752-4732-9011-3a131d50df99"},"vehicle_type_id":"4","last_reported":1746519308,"current_range_meters":6400,"station_id":"ce4bhnp2rcd13ifvqgvg","pricing_plan_id":"cebpf4jnsgd1na2vs0mg"},{"bike_id":"9a05cab4-037f-4f34-b9a3-e6306652d6da","system_id":"levelo_inurba_marseille","lat":43.31989,"lon":5.38155,"is_reserved":false,"is_disabled":false,"rental_uris":{"android":"levelo://app?vid=9a05cab4-037f-4f34-b9a3-e6306652d6da","ios":"levelo://app?vid=9a05cab4-037f-4f34-b9a3-e6306652d6da"},"vehicle_type_id":"4","last_reported":1746519308,"current_range_meters":6400,"station_id":"ce4bhr12rcd13ifvqhpg","pricing_plan_id":"cebpf4jnsgd1na2vs0mg"},{"bike_id":"5c7249a3-596f-4101-8dbd-1087a1f3b438","system_id":"levelo_inurba_marseille","lat":43.231922,"lon":5.35564,"is_reserved":false,"is_disabled":false,"rental_uris":{"android":"levelo://app?vid=5c7249a3-596f-4101-8dbd-1087a1f3b438","ios":"levelo://app?vid=5c7249a3-596f-4101-8dbd-1087a1f3b438"},"vehicle_type_id":"4","last_reported":1746519308,"current_range_meters":6400,"station_id":"ce4bhu92rcd13ifvqi70","pricing_plan_id":"cebpf4jnsgd1na2vs0mg"},{"bike_id":"482344f1-460c-48ea-83dd-01b9a385e5cf","system_id":"levelo_inurba_marseille","lat":43.3067,"lon":5.36845,"is_reserved":false,"is_disabled":false,"rental_uris":{"android":"levelo://app?vid=482344f1-460c-48ea-83dd-01b9a385e5cf","ios":"levelo://app?vid=482344f1-460c-48ea-83dd-01b9a385e5cf"},"vehicle_type_id":"4","last_reported":1746519308,"current_range_meters":6800,"station_id":"","pricing_plan_id":"cebpf4jnsgd1na2vs0mg"},{"bike_id":"b7968d56-e97a-400e-995e-caaf686d2dbd","system_id":"levelo_inurba_marseille","lat":43.31354,"lon":5.36709,"is_reserved":false,"is_disabled":false,"rental_uris":{"android":"levelo://app?vid=b7968d56-e97a-400e-995e-caaf686d2dbd","ios":"levelo://app?vid=b7968d56-e97a-400e-995e-caaf686d2dbd"},"vehicle_type_id":"4","last_reported":1746519308,"current_range_meters":6800,"station_id":"ce4bgr92rcd13ifvqc6g","pricing_plan_id":"cebpf4jnsgd1na2vs0mg"},{"bike_id":"1419b753-28a7-4575-a39a-9126dec4e3ee","system_id":"levelo_inurba_marseille","lat":43.29262,"lon":5.38442,"is_reserved":false,"is_disabled":false,"rental_uris":{"android":"levelo://app?vid=1419b753-28a7-4575-a39a-9126dec4e3ee","ios":"levelo://app?vid=1419b753-28a7-4575-a39a-9126dec4e3ee"},"vehicle_type_id":"4","last_reported":1746519308,"current_range_meters":6800,"station_id":"ce4bh692rcd13ifvqea0","pricing_plan_id":"cebpf4jnsgd1na2vs0mg"},{"bike_id":"fdc8a904-d376-4cb8-b596-f17efd4eec89","system_id":"levelo_inurba_marseille","lat":43.26947,"lon":5.38625,"is_reserved":false,"is_disabled":false,"rental_uris":{"android":"levelo://app?vid=fdc8a904-d376-4cb8-b596-f17efd4eec89","ios":"levelo://app?vid=fdc8a904-d376-4cb8-b596-f17efd4eec89"},"vehicle_type_id":"4","last_reported":1746519308,"current_range_meters":6800,"station_id":"ce4bhh92rcd13ifvqfh0","pricing_plan_id":"cebpf4jnsgd1na2vs0mg"},{"bike_id":"fc8a6df0-2d09-49f4-886c-cf04e3f101fe","system_id":"levelo_inurba_marseille","lat":43.24082,"lon":5.37754,"is_reserved":false,"is_disabled":false,"rental_uris":{"android":"levelo://app?vid=fc8a6df0-2d09-49f4-886c-cf04e3f101fe","ios":"levelo://app?vid=fc8a6df0-2d09-49f4-886c-cf04e3f101fe"},"vehicle_type_id":"4","last_reported":1746519308,"current_range_meters":6800,"station_id":"ce4bhnp2rcd13ifvqgvg","pricing_plan_id":"cebpf4jnsgd1na2vs0mg"},{"bike_id":"ac63e74b-4488-48c9-97a3-fa06519df3ef","system_id":"levelo_inurba_marseille","lat":43.31353,"lon":5.36707,"is_reserved":false,"is_disabled":false,"rental_uris":{"android":"levelo://app?vid=ac63e74b-4488-48c9-97a3-fa06519df3ef","ios":"levelo://app?vid=ac63e74b-4488-48c9-97a3-fa06519df3ef"},"vehicle_type_id":"4","last_reported":1746519308,"current_range_meters":7200,"station_id":"ce4bgr92rcd13ifvqc6g","pricing_plan_id":"cebpf4jnsgd1na2vs0mg"},{"bike_id":"5f75a000-5412-4dcc-9930-718ca33b8fe7","system_id":"levelo_inurba_marseille","lat":43.31314,"lon":5.36716,"is_reserved":false,"is_disabled":false,"rental_uris":{"android":"levelo://app?vid=5f75a000-5412-4dcc-9930-718ca33b8fe7","ios":"levelo://app?vid=5f75a000-5412-4dcc-9930-718ca33b8fe7"},"vehicle_type_id":"4","last_reported":1746519308,"current_range_meters":7200,"station_id":"ce4bgr92rcd13ifvqc6g","pricing_plan_id":"cebpf4jnsgd1na2vs0mg"},{"bike_id":"d8b28899-beb2-4fed-90ec-740853b41530","system_id":"levelo_inurba_marseille","lat":43.31354,"lon":5.367137,"is_reserved":false,"is_disabled":false,"rental_uris":{"android":"levelo://app?vid=d8b28899-beb2-4fed-90ec-740853b41530","ios":"levelo://app?vid=d8b28899-beb2-4fed-90ec-740853b41530"},"vehicle_type_id":"4","last_reported":1746519308,"current_range_meters":7200,"station_id":"ce4bgr92rcd13ifvqc6g","pricing_plan_id":"cebpf4jnsgd1na2vs0mg"},{"bike_id":"54930f4f-5050-477f-82ca-3fe85ba5d906","system_id":"levelo_inurba_marseille","lat":43.2668,"lon":5.38264,"is_reserved":false,"is_disabled":false,"rental_uris":{"android":"levelo://app?vid=54930f4f-5050-477f-82ca-3fe85ba5d906","ios":"levelo://app?vid=54930f4f-5050-477f-82ca-3fe85ba5d906"},"vehicle_type_id":"4","last_reported":1746519308,"current_range_meters":7200,"station_id":"ce4bhg92rcd13ifvqf90","pricing_plan_id":"cebpf4jnsgd1na2vs0mg"},{"bike_id":"adf3e33e-9193-4d04-87d1-6a2f1956c5e9","system_id":"levelo_inurba_marseille","lat":43.25943,"lon":5.40917,"is_reserved":false,"is_disabled":false,"rental_uris":{"android":"levelo://app?vid=adf3e33e-9193-4d04-87d1-6a2f1956c5e9","ios":"levelo://app?vid=adf3e33e-9193-4d04-87d1-6a2f1956c5e9"},"vehicle_type_id":"4","last_reported":1746519308,"current_range_meters":7200,"station_id":"ce4bhm92rcd13ifvqglg","pricing_plan_id":"cebpf4jnsgd1na2vs0mg"},{"bike_id":"5e245ab4-fb1d-473e-949b-921423a523e4","system_id":"levelo_inurba_marseille","lat":43.28976,"lon":5.37842,"is_reserved":false,"is_disabled":false,"rental_uris":{"android":"levelo://app?vid=5e245ab4-fb1d-473e-949b-921423a523e4","ios":"levelo://app?vid=5e245ab4-fb1d-473e-949b-921423a523e4"},"vehicle_type_id":"4","last_reported":1746519308,"current_range_meters":8000,"station_id":"ce4bh9p2rcd13ifvqed0","pricing_plan_id":"cebpf4jnsgd1na2vs0mg"},{"bike_id":"f201e35f-0887-46ff-bb2e-950f0791d4ee","system_id":"levelo_inurba_marseille","lat":43.26553,"lon":5.37289,"is_reserved":false,"is_disabled":false,"rental_uris":{"android":"levelo://app?vid=f201e35f-0887-46ff-bb2e-950f0791d4ee","ios":"levelo://app?vid=f201e35f-0887-46ff-bb2e-950f0791d4ee"},"vehicle_type_id":"4","last_reported":1746519308,"current_range_meters":8000,"station_id":"ce4bhg12rcd13ifvqf70","pricing_plan_id":"cebpf4jnsgd1na2vs0mg"},{"bike_id":"677830e7-4c34-4573-955b-e6d129588e8b","system_id":"levelo_inurba_marseille","lat":43.29963,"lon":5.38495,"is_reserved":false,"is_disabled":false,"rental_uris":{"android":"levelo://app?vid=677830e7-4c34-4573-955b-e6d129588e8b","ios":"levelo://app?vid=677830e7-4c34-4573-955b-e6d129588e8b"},"vehicle_type_id":"4","last_reported":1746519308,"current_range_meters":8400,"station_id":"ce4bgj92rcd13ifvqbd0","pricing_plan_id":"cebpf4jnsgd1na2vs0mg"},{"bike_id":"62e40b59-347f-4f26-a084-5ce7f99367b5","system_id":"levelo_inurba_marseille","lat":43.29622,"lon":5.37166,"is_reserved":false,"is_disabled":false,"rental_uris":{"android":"levelo://app?vid=62e40b59-347f-4f26-a084-5ce7f99367b5","ios":"levelo://app?vid=62e40b59-347f-4f26-a084-5ce7f99367b5"},"vehicle_type_id":"4","last_reported":1746519308,"current_range_meters":8400,"station_id":"ce4bgnh2rcd13ifvqc0g","pricing_plan_id":"cebpf4jnsgd1na2vs0mg"},{"bike_id":"ecd821a5-4a78-488b-ae26-09dd4b2f702c","system_id":"levelo_inurba_marseille","lat":43.2902,"lon":5.3865,"is_reserved":false,"is_disabled":false,"rental_uris":{"android":"levelo://app?vid=ecd821a5-4a78-488b-ae26-09dd4b2f702c","ios":"levelo://app?vid=ecd821a5-4a78-488b-ae26-09dd4b2f702c"},"vehicle_type_id":"4","last_reported":1746519308,"current_range_meters":8400,"station_id":"ce4bh4p2rcd13ifvqe0g","pricing_plan_id":"cebpf4jnsgd1na2vs0mg"},{"bike_id":"4c78dbf9-21ab-4ac6-bab4-c4171f90f9b5","system_id":"levelo_inurba_marseille","lat":43.26933,"lon":5.38919,"is_reserved":false,"is_disabled":false,"rental_uris":{"android":"levelo://app?vid=4c78dbf9-21ab-4ac6-bab4-c4171f90f9b5","ios":"levelo://app?vid=4c78dbf9-21ab-4ac6-bab4-c4171f90f9b5"},"vehicle_type_id":"4","last_reported":1746519308,"current_range_meters":8400,"station_id":"ce4bhhh2rcd13ifvqfl0","pricing_plan_id":"cebpf4jnsgd1na2vs0mg"},{"bike_id":"0cc18a93-3cd5-4f19-aba6-0bfaa97ba972","system_id":"levelo_inurba_marseille","lat":43.29298,"lon":5.37171,"is_reserved":false,"is_disabled":false,"rental_uris":{"android":"levelo://app?vid=0cc18a93-3cd5-4f19-aba6-0bfaa97ba972","ios":"levelo://app?vid=0cc18a93-3cd5-4f19-aba6-0bfaa97ba972"},"vehicle_type_id":"4","last_reported":1746519308,"current_range_meters":8800,"station_id":"ce4bgh92rcd13ifvqb40","pricing_plan_id":"cebpf4jnsgd1na2vs0mg"},{"bike_id":"fa830684-e630-4b58-ab4e-4833a8777579","system_id":"levelo_inurba_marseille","lat":43.29158,"lon":5.37156,"is_reserved":false,"is_disabled":false,"rental_uris":{"android":"levelo://app?vid=fa830684-e630-4b58-ab4e-4833a8777579","ios":"levelo://app?vid=fa830684-e630-4b58-ab4e-4833a8777579"},"vehicle_type_id":"4","last_reported":1746519308,"current_range_meters":8800,"station_id":"ce4bha92rcd13ifvqeh0","pricing_plan_id":"cebpf4jnsgd1na2vs0mg"},{"bike_id":"41aaa1ed-a708-4a9a-b5aa-450e891d24b0","system_id":"levelo_inurba_marseille","lat":43.26585,"lon":5.39077,"is_reserved":false,"is_disabled":false,"rental_uris":{"android":"levelo://app?vid=41aaa1ed-a708-4a9a-b5aa-450e891d24b0","ios":"levelo://app?vid=41aaa1ed-a708-4a9a-b5aa-450e891d24b0"},"vehicle_type_id":"4","last_reported":1746519308,"current_range_meters":9200,"station_id":"","pricing_plan_id":"cebpf4jnsgd1na2vs0mg"},{"bike_id":"9d8f73eb-df09-4699-86a7-d631e2319093","system_id":"levelo_inurba_marseille","lat":43.2626,"lon":5.37432,"is_reserved":false,"is_disabled":false,"rental_uris":{"android":"levelo://app?vid=9d8f73eb-df09-4699-86a7-d631e2319093","ios":"levelo://app?vid=9d8f73eb-df09-4699-86a7-d631e2319093"},"vehicle_type_id":"4","last_reported":1746519308,"current_range_meters":9600,"station_id":"","pricing_plan_id":"cebpf4jnsgd1na2vs0mg"},{"bike_id":"62bfa9fa-531f-4d2b-9e57-eb50b2d48c8c","system_id":"levelo_inurba_marseille","lat":43.24281,"lon":5.380005,"is_reserved":false,"is_disabled":false,"rental_uris":{"android":"levelo://app?vid=62bfa9fa-531f-4d2b-9e57-eb50b2d48c8c","ios":"levelo://app?vid=62bfa9fa-531f-4d2b-9e57-eb50b2d48c8c"},"vehicle_type_id":"4","last_reported":1746519308,"current_range_meters":9600,"station_id":"","pricing_plan_id":"cebpf4jnsgd1na2vs0mg"},{"bike_id":"be2c19ba-6200-4407-b663-a1dc95c43d7e","system_id":"levelo_inurba_marseille","lat":43.25581,"lon":5.38226,"is_reserved":false,"is_disabled":false,"rental_uris":{"android":"levelo://app?vid=be2c19ba-6200-4407-b663-a1dc95c43d7e","ios":"levelo://app?vid=be2c19ba-6200-4407-b663-a1dc95c43d7e"},"vehicle_type_id":"4","last_reported":1746519308,"current_range_meters":9600,"station_id":"ce4bhih2rcd13ifvqfs0","pricing_plan_id":"cebpf4jnsgd1na2vs0mg"},{"bike_id":"268ac42a-67ca-41b9-962f-05154b271346","system_id":"levelo_inurba_marseille","lat":43.25823,"lon":5.39424,"is_reserved":false,"is_disabled":false,"rental_uris":{"android":"levelo://app?vid=268ac42a-67ca-41b9-962f-05154b271346","ios":"levelo://app?vid=268ac42a-67ca-41b9-962f-05154b271346"},"vehicle_type_id":"4","last_reported":1746519308,"current_range_meters":9600,"station_id":"ce4bhip2rcd13ifvqft0","pricing_plan_id":"cebpf4jnsgd1na2vs0mg"},{"bike_id":"3dded959-6d15-4d4d-bba1-b9d88e328527","system_id":"levelo_inurba_marseille","lat":43.24076,"lon":5.37752,"is_reserved":false,"is_disabled":false,"rental_uris":{"android":"levelo://app?vid=3dded959-6d15-4d4d-bba1-b9d88e328527","ios":"levelo://app?vid=3dded959-6d15-4d4d-bba1-b9d88e328527"},"vehicle_type_id":"4","last_reported":1746519308,"current_range_meters":9600,"station_id":"ce4bhnp2rcd13ifvqgvg","pricing_plan_id":"cebpf4jnsgd1na2vs0mg"},{"bike_id":"700209b2-1509-4a9d-b686-43c5d83bff8f","system_id":"levelo_inurba_marseille","lat":43.32104,"lon":5.36772,"is_reserved":false,"is_disabled":false,"rental_uris":{"android":"levelo://app?vid=700209b2-1509-4a9d-b686-43c5d83bff8f","ios":"levelo://app?vid=700209b2-1509-4a9d-b686-43c5d83bff8f"},"vehicle_type_id":"4","last_reported":1746519308,"current_range_meters":9600,"station_id":"ce4bhrh2rcd13ifvqhug","pricing_plan_id":"cebpf4jnsgd1na2vs0mg"},{"bike_id":"0c377d9d-9a3a-47a7-9944-6039314b5e15","system_id":"levelo_inurba_marseille","lat":43.24586,"lon":5.40483,"is_reserved":false,"is_disabled":false,"rental_uris":{"android":"levelo://app?vid=0c377d9d-9a3a-47a7-9944-6039314b5e15","ios":"levelo://app?vid=0c377d9d-9a3a-47a7-9944-6039314b5e15"},"vehicle_type_id":"4","last_reported":1746519308,"current_range_meters":10000,"station_id":"","pricing_plan_id":"cebpf4jnsgd1na2vs0mg"},{"bike_id":"05a84f69-0592-442a-b098-6253d0b70e9e","system_id":"levelo_inurba_marseille","lat":43.29978,"lon":5.37227,"is_reserved":false,"is_disabled":false,"rental_uris":{"android":"levelo://app?vid=05a84f69-0592-442a-b098-6253d0b70e9e","ios":"levelo://app?vid=05a84f69-0592-442a-b098-6253d0b70e9e"},"vehicle_type_id":"4","last_reported":1746519308,"current_range_meters":10000,"station_id":"ce4bgr92rcd13ifvqc7g","pricing_plan_id":"cebpf4jnsgd1na2vs0mg"},{"bike_id":"560684e1-26f3-400c-a285-9584ded00abd","system_id":"levelo_inurba_marseille","lat":43.26208,"lon":5.3744,"is_reserved":false,"is_disabled":false,"rental_uris":{"android":"levelo://app?vid=560684e1-26f3-400c-a285-9584ded00abd","ios":"levelo://app?vid=560684e1-26f3-400c-a285-9584ded00abd"},"vehicle_type_id":"4","last_reported":1746519308,"current_range_meters":10000,"station_id":"ce4bhgp2rcd13ifvqfc0","pricing_plan_id":"cebpf4jnsgd1na2vs0mg"},{"bike_id":"076f2b90-e566-447f-88a2-b545f052dbc6","system_id":"levelo_inurba_marseille","lat":43.26213,"lon":5.37441,"is_reserved":false,"is_disabled":false,"rental_uris":{"android":"levelo://app?vid=076f2b90-e566-447f-88a2-b545f052dbc6","ios":"levelo://app?vid=076f2b90-e566-447f-88a2-b545f052dbc6"},"vehicle_type_id":"4","last_reported":1746519308,"current_range_meters":10000,"station_id":"ce4bhgp2rcd13ifvqfc0","pricing_plan_id":"cebpf4jnsgd1na2vs0mg"},{"bike_id":"0da9743d-1b2b-4b97-8a2c-f891bd8b9482","system_id":"levelo_inurba_marseille","lat":43.27494,"lon":5.42453,"is_reserved":false,"is_disabled":false,"rental_uris":{"android":"levelo://app?vid=0da9743d-1b2b-4b97-8a2c-f891bd8b9482","ios":"levelo://app?vid=0da9743d-1b2b-4b97-8a2c-f891bd8b9482"},"vehicle_type_id":"4","last_reported":1746519308,"current_range_meters":10000,"station_id":"ce4bhn92rcd13ifvqgrg","pricing_plan_id":"cebpf4jnsgd1na2vs0mg"},{"bike_id":"fbda12d9-6999-44a5-a236-2a288c2ac07c","system_id":"levelo_inurba_marseille","lat":43.24071,"lon":5.37765,"is_reserved":false,"is_disabled":false,"rental_uris":{"android":"levelo://app?vid=fbda12d9-6999-44a5-a236-2a288c2ac07c","ios":"levelo://app?vid=fbda12d9-6999-44a5-a236-2a288c2ac07c"},"vehicle_type_id":"4","last_reported":1746519308,"current_range_meters":10000,"station_id":"ce4bhnp2rcd13ifvqgvg","pricing_plan_id":"cebpf4jnsgd1na2vs0mg"},{"bike_id":"fff076a6-1aff-4955-a9e0-c7a7f711afb2","system_id":"levelo_inurba_marseille","lat":43.30149,"lon":5.37394,"is_reserved":false,"is_disabled":false,"rental_uris":{"android":"levelo://app?vid=fff076a6-1aff-4955-a9e0-c7a7f711afb2","ios":"levelo://app?vid=fff076a6-1aff-4955-a9e0-c7a7f711afb2"},"vehicle_type_id":"4","last_reported":1746519308,"current_range_meters":10800,"station_id":"ce4bgs92rcd13ifvqcc0","pricing_plan_id":"cebpf4jnsgd1na2vs0mg"},{"bike_id":"367af45f-f1c8-4f80-be44-a8a685ee5915","system_id":"levelo_inurba_marseille","lat":43.31359,"lon":5.38488,"is_reserved":false,"is_disabled":false,"rental_uris":{"android":"levelo://app?vid=367af45f-f1c8-4f80-be44-a8a685ee5915","ios":"levelo://app?vid=367af45f-f1c8-4f80-be44-a8a685ee5915"},"vehicle_type_id":"4","last_reported":1746519308,"current_range_meters":10800,"station_id":"ce4bgt92rcd13ifvqcf0","pricing_plan_id":"cebpf4jnsgd1na2vs0mg"},{"bike_id":"e258892d-d980-4f47-97fd-417215a112ae","system_id":"levelo_inurba_marseille","lat":43.28725,"lon":5.37929,"is_reserved":false,"is_disabled":false,"rental_uris":{"android":"levelo://app?vid=e258892d-d980-4f47-97fd-417215a112ae","ios":"levelo://app?vid=e258892d-d980-4f47-97fd-417215a112ae"},"vehicle_type_id":"4","last_reported":1746519308,"current_range_meters":10800,"station_id":"ce4bh9p2rcd13ifvqec0","pricing_plan_id":"cebpf4jnsgd1na2vs0mg"},{"bike_id":"fadeb2fe-3b5d-4d17-bce8-8d018653b819","system_id":"levelo_inurba_marseille","lat":43.26212,"lon":5.37438,"is_reserved":false,"is_disabled":false,"rental_uris":{"android":"levelo://app?vid=fadeb2fe-3b5d-4d17-bce8-8d018653b819","ios":"levelo://app?vid=fadeb2fe-3b5d-4d17-bce8-8d018653b819"},"vehicle_type_id":"4","last_reported":1746519308,"current_range_meters":10800,"station_id":"ce4bhgp2rcd13ifvqfc0","pricing_plan_id":"cebpf4jnsgd1na2vs0mg"},{"bike_id":"e0eebb06-5c98-44a4-9f84-563b62ed60fe","system_id":"levelo_inurba_marseille","lat":43.2594,"lon":5.40897,"is_reserved":false,"is_disabled":false,"rental_uris":{"android":"levelo://app?vid=e0eebb06-5c98-44a4-9f84-563b62ed60fe","ios":"levelo://app?vid=e0eebb06-5c98-44a4-9f84-563b62ed60fe"},"vehicle_type_id":"4","last_reported":1746519308,"current_range_meters":10800,"station_id":"ce4bhm92rcd13ifvqglg","pricing_plan_id":"cebpf4jnsgd1na2vs0mg"},{"bike_id":"db607aba-0db6-423b-a818-c23224727203","system_id":"levelo_inurba_marseille","lat":43.231561,"lon":5.436991,"is_reserved":false,"is_disabled":false,"rental_uris":{"android":"levelo://app?vid=db607aba-0db6-423b-a818-c23224727203","ios":"levelo://app?vid=db607aba-0db6-423b-a818-c23224727203"},"vehicle_type_id":"4","last_reported":1746519308,"current_range_meters":10800,"station_id":"ce4bhmp2rcd13ifvqgog","pricing_plan_id":"cebpf4jnsgd1na2vs0mg"},{"bike_id":"8d4be988-3950-4bb6-9b3b-d3a13607020e","system_id":"levelo_inurba_marseille","lat":43.27496,"lon":5.42453,"is_reserved":false,"is_disabled":false,"rental_uris":{"android":"levelo://app?vid=8d4be988-3950-4bb6-9b3b-d3a13607020e","ios":"levelo://app?vid=8d4be988-3950-4bb6-9b3b-d3a13607020e"},"vehicle_type_id":"4","last_reported":1746519308,"current_range_meters":10800,"station_id":"ce4bhn92rcd13ifvqgrg","pricing_plan_id":"cebpf4jnsgd1na2vs0mg"},{"bike_id":"8239823c-f77c-4bfc-abf5-f13f638de215","system_id":"levelo_inurba_marseille","lat":43.24073,"lon":5.37741,"is_reserved":false,"is_disabled":false,"rental_uris":{"android":"levelo://app?vid=8239823c-f77c-4bfc-abf5-f13f638de215","ios":"levelo://app?vid=8239823c-f77c-4bfc-abf5-f13f638de215"},"vehicle_type_id":"4","last_reported":1746519308,"current_range_meters":10800,"station_id":"ce4bhnp2rcd13ifvqgvg","pricing_plan_id":"cebpf4jnsgd1na2vs0mg"},{"bike_id":"fa37bfe9-0fcc-4f35-84b9-67041a093339","system_id":"levelo_inurba_marseille","lat":43.24051,"lon":5.37737,"is_reserved":false,"is_disabled":false,"rental_uris":{"android":"levelo://app?vid=fa37bfe9-0fcc-4f35-84b9-67041a093339","ios":"levelo://app?vid=fa37bfe9-0fcc-4f35-84b9-67041a093339"},"vehicle_type_id":"4","last_reported":1746519308,"current_range_meters":10800,"station_id":"ce4bhnp2rcd13ifvqgvg","pricing_plan_id":"cebpf4jnsgd1na2vs0mg"},{"bike_id":"b60c17f5-436e-489e-8f3c-790e6084ac64","system_id":"levelo_inurba_marseille","lat":43.211856,"lon":5.350866,"is_reserved":false,"is_disabled":false,"rental_uris":{"android":"levelo://app?vid=b60c17f5-436e-489e-8f3c-790e6084ac64","ios":"levelo://app?vid=b60c17f5-436e-489e-8f3c-790e6084ac64"},"vehicle_type_id":"4","last_reported":1746519308,"current_range_meters":10800,"station_id":"st_cvj6sg6p6f1abm77japg","pricing_plan_id":"cebpf4jnsgd1na2vs0mg"},{"bike_id":"d4067c84-8ebd-481e-b440-12b61869e71b","system_id":"levelo_inurba_marseille","lat":43.29606,"lon":5.37702,"is_reserved":false,"is_disabled":false,"rental_uris":{"android":"levelo://app?vid=d4067c84-8ebd-481e-b440-12b61869e71b","ios":"levelo://app?vid=d4067c84-8ebd-481e-b440-12b61869e71b"},"vehicle_type_id":"4","last_reported":1746519308,"current_range_meters":11200,"station_id":"ce4bgi92rcd13ifvqb90","pricing_plan_id":"cebpf4jnsgd1na2vs0mg"},{"bike_id":"a46b5721-597c-404e-8ddb-3ba6469f967d","system_id":"levelo_inurba_marseille","lat":43.23207,"lon":5.35589,"is_reserved":false,"is_disabled":false,"rental_uris":{"android":"levelo://app?vid=a46b5721-597c-404e-8ddb-3ba6469f967d","ios":"levelo://app?vid=a46b5721-597c-404e-8ddb-3ba6469f967d"},"vehicle_type_id":"4","last_reported":1746519308,"current_range_meters":11200,"station_id":"ce4bhu92rcd13ifvqi70","pricing_plan_id":"cebpf4jnsgd1na2vs0mg"},{"bike_id":"c9592205-9409-4f74-aed1-7c4141a58caa","system_id":"levelo_inurba_marseille","lat":43.27139,"lon":5.36367,"is_reserved":false,"is_disabled":false,"rental_uris":{"android":"levelo://app?vid=c9592205-9409-4f74-aed1-7c4141a58caa","ios":"levelo://app?vid=c9592205-9409-4f74-aed1-7c4141a58caa"},"vehicle_type_id":"4","last_reported":1746519308,"current_range_meters":11600,"station_id":"","pricing_plan_id":"cebpf4jnsgd1na2vs0mg"},{"bike_id":"3407b47b-c029-4f56-b783-e86ad972faf0","system_id":"levelo_inurba_marseille","lat":43.29633,"lon":5.37721,"is_reserved":false,"is_disabled":false,"rental_uris":{"android":"levelo://app?vid=3407b47b-c029-4f56-b783-e86ad972faf0","ios":"levelo://app?vid=3407b47b-c029-4f56-b783-e86ad972faf0"},"vehicle_type_id":"4","last_reported":1746519308,"current_range_meters":11600,"station_id":"ce4bgi92rcd13ifvqb90","pricing_plan_id":"cebpf4jnsgd1na2vs0mg"},{"bike_id":"96a912a3-3ed6-43ed-9781-8695eb830092","system_id":"levelo_inurba_marseille","lat":43.30777,"lon":5.37644,"is_reserved":false,"is_disabled":false,"rental_uris":{"android":"levelo://app?vid=96a912a3-3ed6-43ed-9781-8695eb830092","ios":"levelo://app?vid=96a912a3-3ed6-43ed-9781-8695eb830092"},"vehicle_type_id":"4","last_reported":1746519308,"current_range_meters":11600,"station_id":"ce4bgv92rcd13ifvqcq0","pricing_plan_id":"cebpf4jnsgd1na2vs0mg"},{"bike_id":"44d1a496-4f16-46a6-b178-f49cec17003e","system_id":"levelo_inurba_marseille","lat":43.27192,"lon":5.40984,"is_reserved":false,"is_disabled":false,"rental_uris":{"android":"levelo://app?vid=44d1a496-4f16-46a6-b178-f49cec17003e","ios":"levelo://app?vid=44d1a496-4f16-46a6-b178-f49cec17003e"},"vehicle_type_id":"4","last_reported":1746519308,"current_range_meters":11600,"station_id":"ce4bhl12rcd13ifvqgf0","pricing_plan_id":"cebpf4jnsgd1na2vs0mg"},{"bike_id":"d5b09c65-4037-4867-b034-d23af67b5b2b","system_id":"levelo_inurba_marseille","lat":43.275074,"lon":5.424424,"is_reserved":false,"is_disabled":false,"rental_uris":{"android":"levelo://app?vid=d5b09c65-4037-4867-b034-d23af67b5b2b","ios":"levelo://app?vid=d5b09c65-4037-4867-b034-d23af67b5b2b"},"vehicle_type_id":"4","last_reported":1746519308,"current_range_meters":11600,"station_id":"ce4bhn92rcd13ifvqgrg","pricing_plan_id":"cebpf4jnsgd1na2vs0mg"},{"bike_id":"e41732d9-7673-4f76-ba15-04fdc8c548bf","system_id":"levelo_inurba_marseille","lat":43.2931,"lon":5.3718,"is_reserved":false,"is_disabled":false,"rental_uris":{"android":"levelo://app?vid=e41732d9-7673-4f76-ba15-04fdc8c548bf","ios":"levelo://app?vid=e41732d9-7673-4f76-ba15-04fdc8c548bf"},"vehicle_type_id":"4","last_reported":1746519308,"current_range_meters":12000,"station_id":"ce4bgh92rcd13ifvqb40","pricing_plan_id":"cebpf4jnsgd1na2vs0mg"},{"bike_id":"86025fe8-c5d4-440f-a6d6-811a16acf0fb","system_id":"levelo_inurba_marseille","lat":43.30807,"lon":5.3816,"is_reserved":false,"is_disabled":false,"rental_uris":{"android":"levelo://app?vid=86025fe8-c5d4-440f-a6d6-811a16acf0fb","ios":"levelo://app?vid=86025fe8-c5d4-440f-a6d6-811a16acf0fb"},"vehicle_type_id":"4","last_reported":1746519308,"current_range_meters":12000,"station_id":"ce4bgt12rcd13ifvqce0","pricing_plan_id":"cebpf4jnsgd1na2vs0mg"},{"bike_id":"5c2abf89-de9a-48ae-beb3-f43a04bd5f6f","system_id":"levelo_inurba_marseille","lat":43.273268,"lon":5.39066,"is_reserved":false,"is_disabled":false,"rental_uris":{"android":"levelo://app?vid=5c2abf89-de9a-48ae-beb3-f43a04bd5f6f","ios":"levelo://app?vid=5c2abf89-de9a-48ae-beb3-f43a04bd5f6f"},"vehicle_type_id":"4","last_reported":1746519308,"current_range_meters":12000,"station_id":"ce4bhgp2rcd13ifvqfe0","pricing_plan_id":"cebpf4jnsgd1na2vs0mg"},{"bike_id":"8840768c-c148-4e2c-9fe4-ebfbdd61922e","system_id":"levelo_inurba_marseille","lat":43.24388,"lon":5.37065,"is_reserved":false,"is_disabled":false,"rental_uris":{"android":"levelo://app?vid=8840768c-c148-4e2c-9fe4-ebfbdd61922e","ios":"levelo://app?vid=8840768c-c148-4e2c-9fe4-ebfbdd61922e"},"vehicle_type_id":"4","last_reported":1746519308,"current_range_meters":12000,"station_id":"ce4bhhh2rcd13ifvqfk0","pricing_plan_id":"cebpf4jnsgd1na2vs0mg"},{"bike_id":"5c541e03-ae8d-4416-b364-83b58ed12b9d","system_id":"levelo_inurba_marseille","lat":43.27056,"lon":5.40261,"is_reserved":false,"is_disabled":false,"rental_uris":{"android":"levelo://app?vid=5c541e03-ae8d-4416-b364-83b58ed12b9d","ios":"levelo://app?vid=5c541e03-ae8d-4416-b364-83b58ed12b9d"},"vehicle_type_id":"4","last_reported":1746519308,"current_range_meters":12000,"station_id":"ce4bhk92rcd13ifvqgc0","pricing_plan_id":"cebpf4jnsgd1na2vs0mg"},{"bike_id":"e4efb902-321c-4d8b-a845-47b9bcee261c","system_id":"levelo_inurba_marseille","lat":43.24073,"lon":5.37755,"is_reserved":false,"is_disabled":false,"rental_uris":{"android":"levelo://app?vid=e4efb902-321c-4d8b-a845-47b9bcee261c","ios":"levelo://app?vid=e4efb902-321c-4d8b-a845-47b9bcee261c"},"vehicle_type_id":"4","last_reported":1746519308,"current_range_meters":12000,"station_id":"ce4bhnp2rcd13ifvqgvg","pricing_plan_id":"cebpf4jnsgd1na2vs0mg"},{"bike_id":"577c13ca-fdb8-466c-ad1d-8cc893dc02e9","system_id":"levelo_inurba_marseille","lat":43.28036,"lon":5.36942,"is_reserved":false,"is_disabled":false,"rental_uris":{"android":"levelo://app?vid=577c13ca-fdb8-466c-ad1d-8cc893dc02e9","ios":"levelo://app?vid=577c13ca-fdb8-466c-ad1d-8cc893dc02e9"},"vehicle_type_id":"4","last_reported":1746519308,"current_range_meters":12400,"station_id":"ce4bha12rcd13ifvqef0","pricing_plan_id":"cebpf4jnsgd1na2vs0mg"},{"bike_id":"e913497f-871f-4395-bd27-84d92c95357c","system_id":"levelo_inurba_marseille","lat":43.26929,"lon":5.38918,"is_reserved":false,"is_disabled":false,"rental_uris":{"android":"levelo://app?vid=e913497f-871f-4395-bd27-84d92c95357c","ios":"levelo://app?vid=e913497f-871f-4395-bd27-84d92c95357c"},"vehicle_type_id":"4","last_reported":1746519308,"current_range_meters":12400,"station_id":"ce4bhhh2rcd13ifvqfl0","pricing_plan_id":"cebpf4jnsgd1na2vs0mg"},{"bike_id":"aef42c2f-9360-412c-b7d9-6c4210fddd22","system_id":"levelo_inurba_marseille","lat":43.2591,"lon":5.40894,"is_reserved":false,"is_disabled":false,"rental_uris":{"android":"levelo://app?vid=aef42c2f-9360-412c-b7d9-6c4210fddd22","ios":"levelo://app?vid=aef42c2f-9360-412c-b7d9-6c4210fddd22"},"vehicle_type_id":"4","last_reported":1746519308,"current_range_meters":12400,"station_id":"ce4bhm92rcd13ifvqglg","pricing_plan_id":"cebpf4jnsgd1na2vs0mg"},{"bike_id":"7ca09d8d-51db-4057-abe2-e9c1bdbcdfac","system_id":"levelo_inurba_marseille","lat":43.22926,"lon":5.35386,"is_reserved":false,"is_disabled":false,"rental_uris":{"android":"levelo://app?vid=7ca09d8d-51db-4057-abe2-e9c1bdbcdfac","ios":"levelo://app?vid=7ca09d8d-51db-4057-abe2-e9c1bdbcdfac"},"vehicle_type_id":"4","last_reported":1746519308,"current_range_meters":12400,"station_id":"cpo3532slgdg3j2ikp40","pricing_plan_id":"cebpf4jnsgd1na2vs0mg"},{"bike_id":"88ffc5b5-687e-4389-af22-07db72a1f880","system_id":"levelo_inurba_marseille","lat":43.24075,"lon":5.37759,"is_reserved":false,"is_disabled":false,"rental_uris":{"android":"levelo://app?vid=88ffc5b5-687e-4389-af22-07db72a1f880","ios":"levelo://app?vid=88ffc5b5-687e-4389-af22-07db72a1f880"},"vehicle_type_id":"4","last_reported":1746519308,"current_range_meters":12800,"station_id":"ce4bhnp2rcd13ifvqgvg","pricing_plan_id":"cebpf4jnsgd1na2vs0mg"},{"bike_id":"3f84d55c-f7b3-443f-a8ba-1f83ba8291a2","system_id":"levelo_inurba_marseille","lat":43.21194,"lon":5.35067,"is_reserved":false,"is_disabled":false,"rental_uris":{"android":"levelo://app?vid=3f84d55c-f7b3-443f-a8ba-1f83ba8291a2","ios":"levelo://app?vid=3f84d55c-f7b3-443f-a8ba-1f83ba8291a2"},"vehicle_type_id":"4","last_reported":1746519308,"current_range_meters":12800,"station_id":"st_cvj6sg6p6f1abm77japg","pricing_plan_id":"cebpf4jnsgd1na2vs0mg"},{"bike_id":"2c5a56ca-4e52-4f42-99e0-2be60f1d8dc5","system_id":"levelo_inurba_marseille","lat":43.3031,"lon":5.36892,"is_reserved":false,"is_disabled":false,"rental_uris":{"android":"levelo://app?vid=2c5a56ca-4e52-4f42-99e0-2be60f1d8dc5","ios":"levelo://app?vid=2c5a56ca-4e52-4f42-99e0-2be60f1d8dc5"},"vehicle_type_id":"4","last_reported":1746519308,"current_range_meters":13600,"station_id":"ce4bgqh2rcd13ifvqc5g","pricing_plan_id":"cebpf4jnsgd1na2vs0mg"},{"bike_id":"cf89fe20-d6ff-407b-bdef-6a48816585b4","system_id":"levelo_inurba_marseille","lat":43.25941,"lon":5.409,"is_reserved":false,"is_disabled":false,"rental_uris":{"android":"levelo://app?vid=cf89fe20-d6ff-407b-bdef-6a48816585b4","ios":"levelo://app?vid=cf89fe20-d6ff-407b-bdef-6a48816585b4"},"vehicle_type_id":"4","last_reported":1746519308,"current_range_meters":13600,"station_id":"ce4bhm92rcd13ifvqglg","pricing_plan_id":"cebpf4jnsgd1na2vs0mg"},{"bike_id":"2df614bf-145f-44cd-b174-f8bd8326963c","system_id":"levelo_inurba_marseille","lat":43.31532,"lon":5.3805,"is_reserved":false,"is_disabled":false,"rental_uris":{"android":"levelo://app?vid=2df614bf-145f-44cd-b174-f8bd8326963c","ios":"levelo://app?vid=2df614bf-145f-44cd-b174-f8bd8326963c"},"vehicle_type_id":"4","last_reported":1746519308,"current_range_meters":13600,"station_id":"ce4bhsp2rcd13ifvqi50","pricing_plan_id":"cebpf4jnsgd1na2vs0mg"},{"bike_id":"c62e1d71-c964-4628-873f-41eabf1308f5","system_id":"levelo_inurba_marseille","lat":43.29794,"lon":5.38121,"is_reserved":false,"is_disabled":false,"rental_uris":{"android":"levelo://app?vid=c62e1d71-c964-4628-873f-41eabf1308f5","ios":"levelo://app?vid=c62e1d71-c964-4628-873f-41eabf1308f5"},"vehicle_type_id":"4","last_reported":1746519308,"current_range_meters":14000,"station_id":"ce4bgip2rcd13ifvqbb0","pricing_plan_id":"cebpf4jnsgd1na2vs0mg"},{"bike_id":"a1bb5b12-0748-49bc-b22e-ea6b1e97ef64","system_id":"levelo_inurba_marseille","lat":43.274943,"lon":5.424733,"is_reserved":false,"is_disabled":false,"rental_uris":{"android":"levelo://app?vid=a1bb5b12-0748-49bc-b22e-ea6b1e97ef64","ios":"levelo://app?vid=a1bb5b12-0748-49bc-b22e-ea6b1e97ef64"},"vehicle_type_id":"4","last_reported":1746519308,"current_range_meters":14000,"station_id":"ce4bhn92rcd13ifvqgrg","pricing_plan_id":"cebpf4jnsgd1na2vs0mg"},{"bike_id":"13ebfc6a-b3e8-4bd2-9055-317da3a3d7f6","system_id":"levelo_inurba_marseille","lat":43.24082,"lon":5.37765,"is_reserved":false,"is_disabled":false,"rental_uris":{"android":"levelo://app?vid=13ebfc6a-b3e8-4bd2-9055-317da3a3d7f6","ios":"levelo://app?vid=13ebfc6a-b3e8-4bd2-9055-317da3a3d7f6"},"vehicle_type_id":"4","last_reported":1746519308,"current_range_meters":14000,"station_id":"ce4bhnp2rcd13ifvqgvg","pricing_plan_id":"cebpf4jnsgd1na2vs0mg"},{"bike_id":"d7b1e4d8-f726-4ea7-bc51-7e6d351a33c5","system_id":"levelo_inurba_marseille","lat":43.24066,"lon":5.37763,"is_reserved":false,"is_disabled":false,"rental_uris":{"android":"levelo://app?vid=d7b1e4d8-f726-4ea7-bc51-7e6d351a33c5","ios":"levelo://app?vid=d7b1e4d8-f726-4ea7-bc51-7e6d351a33c5"},"vehicle_type_id":"4","last_reported":1746519308,"current_range_meters":14000,"station_id":"ce4bhnp2rcd13ifvqgvg","pricing_plan_id":"cebpf4jnsgd1na2vs0mg"},{"bike_id":"8616a96b-b354-4f58-b45d-82f722cb7a6c","system_id":"levelo_inurba_marseille","lat":43.24648,"lon":5.38893,"is_reserved":false,"is_disabled":false,"rental_uris":{"android":"levelo://app?vid=8616a96b-b354-4f58-b45d-82f722cb7a6c","ios":"levelo://app?vid=8616a96b-b354-4f58-b45d-82f722cb7a6c"},"vehicle_type_id":"4","last_reported":1746519308,"current_range_meters":14400,"station_id":"ce4bhg12rcd13ifvqf60","pricing_plan_id":"cebpf4jnsgd1na2vs0mg"},{"bike_id":"5987d684-ebbc-4e3b-9225-d827a0b9ff39","system_id":"levelo_inurba_marseille","lat":43.23961,"lon":5.36627,"is_reserved":false,"is_disabled":false,"rental_uris":{"android":"levelo://app?vid=5987d684-ebbc-4e3b-9225-d827a0b9ff39","ios":"levelo://app?vid=5987d684-ebbc-4e3b-9225-d827a0b9ff39"},"vehicle_type_id":"4","last_reported":1746519308,"current_range_meters":14400,"station_id":"ce4bhi12rcd13ifvqfp0","pricing_plan_id":"cebpf4jnsgd1na2vs0mg"},{"bike_id":"cd8a6290-3606-4f09-833e-5828a45a66f9","system_id":"levelo_inurba_marseille","lat":43.24167,"lon":5.36401,"is_reserved":false,"is_disabled":false,"rental_uris":{"android":"levelo://app?vid=cd8a6290-3606-4f09-833e-5828a45a66f9","ios":"levelo://app?vid=cd8a6290-3606-4f09-833e-5828a45a66f9"},"vehicle_type_id":"4","last_reported":1746519308,"current_range_meters":14400,"station_id":"cpo36qri1sfpv3e86is0","pricing_plan_id":"cebpf4jnsgd1na2vs0mg"},{"bike_id":"bc28a69c-4c64-4743-bddb-c99aeb660ca4","system_id":"levelo_inurba_marseille","lat":43.29704,"lon":5.36621,"is_reserved":false,"is_disabled":false,"rental_uris":{"android":"levelo://app?vid=bc28a69c-4c64-4743-bddb-c99aeb660ca4","ios":"levelo://app?vid=bc28a69c-4c64-4743-bddb-c99aeb660ca4"},"vehicle_type_id":"4","last_reported":1746519308,"current_range_meters":14800,"station_id":"ce4bgn12rcd13ifvqbt0","pricing_plan_id":"cebpf4jnsgd1na2vs0mg"},{"bike_id":"73297002-6407-425f-adb6-638ff58e7409","system_id":"levelo_inurba_marseille","lat":43.31355,"lon":5.36726,"is_reserved":false,"is_disabled":false,"rental_uris":{"android":"levelo://app?vid=73297002-6407-425f-adb6-638ff58e7409","ios":"levelo://app?vid=73297002-6407-425f-adb6-638ff58e7409"},"vehicle_type_id":"4","last_reported":1746519308,"current_range_meters":14800,"station_id":"ce4bgr92rcd13ifvqc6g","pricing_plan_id":"cebpf4jnsgd1na2vs0mg"},{"bike_id":"50d84d73-b34b-4299-9c10-733f0ae24bf8","system_id":"levelo_inurba_marseille","lat":43.30137,"lon":5.37396,"is_reserved":false,"is_disabled":false,"rental_uris":{"android":"levelo://app?vid=50d84d73-b34b-4299-9c10-733f0ae24bf8","ios":"levelo://app?vid=50d84d73-b34b-4299-9c10-733f0ae24bf8"},"vehicle_type_id":"4","last_reported":1746519308,"current_range_meters":14800,"station_id":"ce4bgs92rcd13ifvqcc0","pricing_plan_id":"cebpf4jnsgd1na2vs0mg"},{"bike_id":"1bbd545e-1f75-4f36-aab8-a9f18d2c2078","system_id":"levelo_inurba_marseille","lat":43.31713,"lon":5.3774,"is_reserved":false,"is_disabled":false,"rental_uris":{"android":"levelo://app?vid=1bbd545e-1f75-4f36-aab8-a9f18d2c2078","ios":"levelo://app?vid=1bbd545e-1f75-4f36-aab8-a9f18d2c2078"},"vehicle_type_id":"4","last_reported":1746519308,"current_range_meters":14800,"station_id":"ce4bgth2rcd13ifvqch0","pricing_plan_id":"cebpf4jnsgd1na2vs0mg"},{"bike_id":"1af60476-b058-4bb3-b233-ac1e3cfd38da","system_id":"levelo_inurba_marseille","lat":43.274909,"lon":5.424546,"is_reserved":false,"is_disabled":false,"rental_uris":{"android":"levelo://app?vid=1af60476-b058-4bb3-b233-ac1e3cfd38da","ios":"levelo://app?vid=1af60476-b058-4bb3-b233-ac1e3cfd38da"},"vehicle_type_id":"4","last_reported":1746519308,"current_range_meters":14800,"station_id":"ce4bhn92rcd13ifvqgrg","pricing_plan_id":"cebpf4jnsgd1na2vs0mg"},{"bike_id":"6ce81efa-e8f3-477a-b7a1-a1c58c727c56","system_id":"levelo_inurba_marseille","lat":43.211884,"lon":5.350906,"is_reserved":false,"is_disabled":false,"rental_uris":{"android":"levelo://app?vid=6ce81efa-e8f3-477a-b7a1-a1c58c727c56","ios":"levelo://app?vid=6ce81efa-e8f3-477a-b7a1-a1c58c727c56"},"vehicle_type_id":"4","last_reported":1746519308,"current_range_meters":16000,"station_id":"","pricing_plan_id":"cebpf4jnsgd1na2vs0mg"},{"bike_id":"4e1991b9-a476-42b7-b4b0-5cbac0851787","system_id":"levelo_inurba_marseille","lat":43.3053,"lon":5.36718,"is_reserved":false,"is_disabled":false,"rental_uris":{"android":"levelo://app?vid=4e1991b9-a476-42b7-b4b0-5cbac0851787","ios":"levelo://app?vid=4e1991b9-a476-42b7-b4b0-5cbac0851787"},"vehicle_type_id":"4","last_reported":1746519308,"current_range_meters":16000,"station_id":"ce4bgrp2rcd13ifvqc9g","pricing_plan_id":"cebpf4jnsgd1na2vs0mg"},{"bike_id":"c636c229-71a0-428e-b64c-8997e865b551","system_id":"levelo_inurba_marseille","lat":43.30276,"lon":5.37711,"is_reserved":false,"is_disabled":false,"rental_uris":{"android":"levelo://app?vid=c636c229-71a0-428e-b64c-8997e865b551","ios":"levelo://app?vid=c636c229-71a0-428e-b64c-8997e865b551"},"vehicle_type_id":"4","last_reported":1746519308,"current_range_meters":16000,"station_id":"ce4bguh2rcd13ifvqcj0","pricing_plan_id":"cebpf4jnsgd1na2vs0mg"},{"bike_id":"a02eef8b-71cf-44b6-9c62-34968f2cb094","system_id":"levelo_inurba_marseille","lat":43.30961,"lon":5.39028,"is_reserved":false,"is_disabled":false,"rental_uris":{"android":"levelo://app?vid=a02eef8b-71cf-44b6-9c62-34968f2cb094","ios":"levelo://app?vid=a02eef8b-71cf-44b6-9c62-34968f2cb094"},"vehicle_type_id":"4","last_reported":1746519308,"current_range_meters":16000,"station_id":"ce4bgup2rcd13ifvqco0","pricing_plan_id":"cebpf4jnsgd1na2vs0mg"},{"bike_id":"741922f7-49ff-4751-a228-5a73f2c8c24d","system_id":"levelo_inurba_marseille","lat":43.24174,"lon":5.36395,"is_reserved":false,"is_disabled":false,"rental_uris":{"android":"levelo://app?vid=741922f7-49ff-4751-a228-5a73f2c8c24d","ios":"levelo://app?vid=741922f7-49ff-4751-a228-5a73f2c8c24d"},"vehicle_type_id":"4","last_reported":1746519308,"current_range_meters":16000,"station_id":"cpo36qri1sfpv3e86is0","pricing_plan_id":"cebpf4jnsgd1na2vs0mg"},{"bike_id":"1900e395-19ba-404e-aa6a-262b7656599d","system_id":"levelo_inurba_marseille","lat":43.2888,"lon":5.43707,"is_reserved":false,"is_disabled":false,"rental_uris":{"android":"levelo://app?vid=1900e395-19ba-404e-aa6a-262b7656599d","ios":"levelo://app?vid=1900e395-19ba-404e-aa6a-262b7656599d"},"vehicle_type_id":"4","last_reported":1746519308,"current_range_meters":16400,"station_id":"","pricing_plan_id":"cebpf4jnsgd1na2vs0mg"},{"bike_id":"12845e30-46c6-4c17-a00d-1503630a78b4","system_id":"levelo_inurba_marseille","lat":43.30313,"lon":5.36891,"is_reserved":false,"is_disabled":false,"rental_uris":{"android":"levelo://app?vid=12845e30-46c6-4c17-a00d-1503630a78b4","ios":"levelo://app?vid=12845e30-46c6-4c17-a00d-1503630a78b4"},"vehicle_type_id":"4","last_reported":1746519308,"current_range_meters":16400,"station_id":"ce4bgqh2rcd13ifvqc5g","pricing_plan_id":"cebpf4jnsgd1na2vs0mg"},{"bike_id":"b9a946ed-10f8-4d6a-9138-6fdf1e06a0fa","system_id":"levelo_inurba_marseille","lat":43.31397,"lon":5.36699,"is_reserved":false,"is_disabled":false,"rental_uris":{"android":"levelo://app?vid=b9a946ed-10f8-4d6a-9138-6fdf1e06a0fa","ios":"levelo://app?vid=b9a946ed-10f8-4d6a-9138-6fdf1e06a0fa"},"vehicle_type_id":"4","last_reported":1746519308,"current_range_meters":16400,"station_id":"ce4bgr92rcd13ifvqc6g","pricing_plan_id":"cebpf4jnsgd1na2vs0mg"},{"bike_id":"03bb5049-51e5-461e-8353-3cc13edfbfb8","system_id":"levelo_inurba_marseille","lat":43.239563,"lon":5.366213,"is_reserved":false,"is_disabled":false,"rental_uris":{"android":"levelo://app?vid=03bb5049-51e5-461e-8353-3cc13edfbfb8","ios":"levelo://app?vid=03bb5049-51e5-461e-8353-3cc13edfbfb8"},"vehicle_type_id":"4","last_reported":1746519308,"current_range_meters":16400,"station_id":"ce4bhi12rcd13ifvqfp0","pricing_plan_id":"cebpf4jnsgd1na2vs0mg"},{"bike_id":"46a428a1-3a45-4310-8fc1-8ac5239110b0","system_id":"levelo_inurba_marseille","lat":43.25816,"lon":5.3943,"is_reserved":false,"is_disabled":false,"rental_uris":{"android":"levelo://app?vid=46a428a1-3a45-4310-8fc1-8ac5239110b0","ios":"levelo://app?vid=46a428a1-3a45-4310-8fc1-8ac5239110b0"},"vehicle_type_id":"4","last_reported":1746519308,"current_range_meters":16400,"station_id":"ce4bhip2rcd13ifvqft0","pricing_plan_id":"cebpf4jnsgd1na2vs0mg"},{"bike_id":"3ae39b3e-5102-4d55-8c86-c99b322cf715","system_id":"levelo_inurba_marseille","lat":43.24154,"lon":5.39729,"is_reserved":false,"is_disabled":false,"rental_uris":{"android":"levelo://app?vid=3ae39b3e-5102-4d55-8c86-c99b322cf715","ios":"levelo://app?vid=3ae39b3e-5102-4d55-8c86-c99b322cf715"},"vehicle_type_id":"4","last_reported":1746519308,"current_range_meters":16400,"station_id":"ce4bhn12rcd13ifvqgpg","pricing_plan_id":"cebpf4jnsgd1na2vs0mg"},{"bike_id":"e0a0fb85-9539-4fb6-b21f-392540fb8a26","system_id":"levelo_inurba_marseille","lat":43.3236,"lon":5.36757,"is_reserved":false,"is_disabled":false,"rental_uris":{"android":"levelo://app?vid=e0a0fb85-9539-4fb6-b21f-392540fb8a26","ios":"levelo://app?vid=e0a0fb85-9539-4fb6-b21f-392540fb8a26"},"vehicle_type_id":"4","last_reported":1746519308,"current_range_meters":16400,"station_id":"ce4bhsh2rcd13ifvqi2g","pricing_plan_id":"cebpf4jnsgd1na2vs0mg"},{"bike_id":"27563f88-1268-4b98-bc06-44e98c7ca400","system_id":"levelo_inurba_marseille","lat":43.32091,"lon":5.44077,"is_reserved":false,"is_disabled":false,"rental_uris":{"android":"levelo://app?vid=27563f88-1268-4b98-bc06-44e98c7ca400","ios":"levelo://app?vid=27563f88-1268-4b98-bc06-44e98c7ca400"},"vehicle_type_id":"4","last_reported":1746519308,"current_range_meters":16800,"station_id":"","pricing_plan_id":"cebpf4jnsgd1na2vs0mg"},{"bike_id":"13d72c90-097d-44e3-a161-c92142027aeb","system_id":"levelo_inurba_marseille","lat":43.32098,"lon":5.36758,"is_reserved":false,"is_disabled":false,"rental_uris":{"android":"levelo://app?vid=13d72c90-097d-44e3-a161-c92142027aeb","ios":"levelo://app?vid=13d72c90-097d-44e3-a161-c92142027aeb"},"vehicle_type_id":"4","last_reported":1746519308,"current_range_meters":16800,"station_id":"ce4bhrh2rcd13ifvqhug","pricing_plan_id":"cebpf4jnsgd1na2vs0mg"},{"bike_id":"b4bac287-3615-423a-bca2-a11fb80cb066","system_id":"levelo_inurba_marseille","lat":43.23053,"lon":5.35482,"is_reserved":false,"is_disabled":false,"rental_uris":{"android":"levelo://app?vid=b4bac287-3615-423a-bca2-a11fb80cb066","ios":"levelo://app?vid=b4bac287-3615-423a-bca2-a11fb80cb066"},"vehicle_type_id":"4","last_reported":1746519308,"current_range_meters":16800,"station_id":"cpo3342slgdg3j2ifvpg","pricing_plan_id":"cebpf4jnsgd1na2vs0mg"},{"bike_id":"ad5f8d36-d7d9-41ae-9bd2-f1f8920bde90","system_id":"levelo_inurba_marseille","lat":43.26237,"lon":5.38762,"is_reserved":false,"is_disabled":false,"rental_uris":{"android":"levelo://app?vid=ad5f8d36-d7d9-41ae-9bd2-f1f8920bde90","ios":"levelo://app?vid=ad5f8d36-d7d9-41ae-9bd2-f1f8920bde90"},"vehicle_type_id":"4","last_reported":1746519308,"current_range_meters":17200,"station_id":"","pricing_plan_id":"cebpf4jnsgd1na2vs0mg"},{"bike_id":"8a645624-7c48-4391-9fa8-d8a43b8c5e81","system_id":"levelo_inurba_marseille","lat":43.31218,"lon":5.36845,"is_reserved":false,"is_disabled":false,"rental_uris":{"android":"levelo://app?vid=8a645624-7c48-4391-9fa8-d8a43b8c5e81","ios":"levelo://app?vid=8a645624-7c48-4391-9fa8-d8a43b8c5e81"},"vehicle_type_id":"4","last_reported":1746519308,"current_range_meters":17200,"station_id":"ce4bgl92rcd13ifvqbq0","pricing_plan_id":"cebpf4jnsgd1na2vs0mg"},{"bike_id":"e17c0c44-3e74-48cc-b5e6-7ab518e05084","system_id":"levelo_inurba_marseille","lat":43.25819,"lon":5.3944,"is_reserved":false,"is_disabled":false,"rental_uris":{"android":"levelo://app?vid=e17c0c44-3e74-48cc-b5e6-7ab518e05084","ios":"levelo://app?vid=e17c0c44-3e74-48cc-b5e6-7ab518e05084"},"vehicle_type_id":"4","last_reported":1746519308,"current_range_meters":17200,"station_id":"ce4bhip2rcd13ifvqft0","pricing_plan_id":"cebpf4jnsgd1na2vs0mg"},{"bike_id":"e778438a-e223-4701-8440-dcf3ca3c77e6","system_id":"levelo_inurba_marseille","lat":43.24178,"lon":5.39725,"is_reserved":false,"is_disabled":false,"rental_uris":{"android":"levelo://app?vid=e778438a-e223-4701-8440-dcf3ca3c77e6","ios":"levelo://app?vid=e778438a-e223-4701-8440-dcf3ca3c77e6"},"vehicle_type_id":"4","last_reported":1746519308,"current_range_meters":17200,"station_id":"ce4bhn12rcd13ifvqgpg","pricing_plan_id":"cebpf4jnsgd1na2vs0mg"},{"bike_id":"43e47292-6bf0-4e1e-a93d-8dc54a58c3c0","system_id":"levelo_inurba_marseille","lat":43.27495,"lon":5.42464,"is_reserved":false,"is_disabled":false,"rental_uris":{"android":"levelo://app?vid=43e47292-6bf0-4e1e-a93d-8dc54a58c3c0","ios":"levelo://app?vid=43e47292-6bf0-4e1e-a93d-8dc54a58c3c0"},"vehicle_type_id":"4","last_reported":1746519308,"current_range_meters":17200,"station_id":"ce4bhn92rcd13ifvqgrg","pricing_plan_id":"cebpf4jnsgd1na2vs0mg"},{"bike_id":"f2896b63-be3f-4a92-821e-32f3ff6f6c19","system_id":"levelo_inurba_marseille","lat":43.33606,"lon":5.40994,"is_reserved":false,"is_disabled":false,"rental_uris":{"android":"levelo://app?vid=f2896b63-be3f-4a92-821e-32f3ff6f6c19","ios":"levelo://app?vid=f2896b63-be3f-4a92-821e-32f3ff6f6c19"},"vehicle_type_id":"4","last_reported":1746519308,"current_range_meters":17200,"station_id":"ce4bhqh2rcd13ifvqhmg","pricing_plan_id":"cebpf4jnsgd1na2vs0mg"},{"bike_id":"72087905-a88e-42e2-91dc-2f337f048b73","system_id":"levelo_inurba_marseille","lat":43.31983,"lon":5.38154,"is_reserved":false,"is_disabled":false,"rental_uris":{"android":"levelo://app?vid=72087905-a88e-42e2-91dc-2f337f048b73","ios":"levelo://app?vid=72087905-a88e-42e2-91dc-2f337f048b73"},"vehicle_type_id":"4","last_reported":1746519308,"current_range_meters":17200,"station_id":"ce4bhr12rcd13ifvqhpg","pricing_plan_id":"cebpf4jnsgd1na2vs0mg"},{"bike_id":"7309f534-ffb4-4ec4-8c07-1217e3463717","system_id":"levelo_inurba_marseille","lat":43.3014,"lon":5.3878,"is_reserved":false,"is_disabled":false,"rental_uris":{"android":"levelo://app?vid=7309f534-ffb4-4ec4-8c07-1217e3463717","ios":"levelo://app?vid=7309f534-ffb4-4ec4-8c07-1217e3463717"},"vehicle_type_id":"4","last_reported":1746519308,"current_range_meters":17600,"station_id":"ce4bghh2rcd13ifvqb60","pricing_plan_id":"cebpf4jnsgd1na2vs0mg"},{"bike_id":"686b7530-f195-4b7d-93d1-c044141a551f","system_id":"levelo_inurba_marseille","lat":43.26203,"lon":5.37456,"is_reserved":false,"is_disabled":false,"rental_uris":{"android":"levelo://app?vid=686b7530-f195-4b7d-93d1-c044141a551f","ios":"levelo://app?vid=686b7530-f195-4b7d-93d1-c044141a551f"},"vehicle_type_id":"4","last_reported":1746519308,"current_range_meters":17600,"station_id":"ce4bhgp2rcd13ifvqfc0","pricing_plan_id":"cebpf4jnsgd1na2vs0mg"},{"bike_id":"5638fae2-2e1b-469b-8abd-91d7d799618a","system_id":"levelo_inurba_marseille","lat":43.3209,"lon":5.36782,"is_reserved":false,"is_disabled":false,"rental_uris":{"android":"levelo://app?vid=5638fae2-2e1b-469b-8abd-91d7d799618a","ios":"levelo://app?vid=5638fae2-2e1b-469b-8abd-91d7d799618a"},"vehicle_type_id":"4","last_reported":1746519308,"current_range_meters":17600,"station_id":"ce4bhrh2rcd13ifvqhug","pricing_plan_id":"cebpf4jnsgd1na2vs0mg"},{"bike_id":"2714f713-c769-4f6a-ac44-441a635e9cba","system_id":"levelo_inurba_marseille","lat":43.21621,"lon":5.34239,"is_reserved":false,"is_disabled":false,"rental_uris":{"android":"levelo://app?vid=2714f713-c769-4f6a-ac44-441a635e9cba","ios":"levelo://app?vid=2714f713-c769-4f6a-ac44-441a635e9cba"},"vehicle_type_id":"4","last_reported":1746519308,"current_range_meters":18000,"station_id":"","pricing_plan_id":"cebpf4jnsgd1na2vs0mg"},{"bike_id":"3ed0094c-1338-4e03-b050-b7864b9f7da4","system_id":"levelo_inurba_marseille","lat":43.31352,"lon":5.36694,"is_reserved":false,"is_disabled":false,"rental_uris":{"android":"levelo://app?vid=3ed0094c-1338-4e03-b050-b7864b9f7da4","ios":"levelo://app?vid=3ed0094c-1338-4e03-b050-b7864b9f7da4"},"vehicle_type_id":"4","last_reported":1746519308,"current_range_meters":18000,"station_id":"ce4bgr92rcd13ifvqc6g","pricing_plan_id":"cebpf4jnsgd1na2vs0mg"},{"bike_id":"ed29a6c6-dd47-48e5-a340-454d7add3309","system_id":"levelo_inurba_marseille","lat":43.31338,"lon":5.36712,"is_reserved":false,"is_disabled":false,"rental_uris":{"android":"levelo://app?vid=ed29a6c6-dd47-48e5-a340-454d7add3309","ios":"levelo://app?vid=ed29a6c6-dd47-48e5-a340-454d7add3309"},"vehicle_type_id":"4","last_reported":1746519308,"current_range_meters":18000,"station_id":"ce4bgr92rcd13ifvqc6g","pricing_plan_id":"cebpf4jnsgd1na2vs0mg"},{"bike_id":"b8784e08-6803-428b-be3c-d1b42cab5542","system_id":"levelo_inurba_marseille","lat":43.31332,"lon":5.36692,"is_reserved":false,"is_disabled":false,"rental_uris":{"android":"levelo://app?vid=b8784e08-6803-428b-be3c-d1b42cab5542","ios":"levelo://app?vid=b8784e08-6803-428b-be3c-d1b42cab5542"},"vehicle_type_id":"4","last_reported":1746519308,"current_range_meters":18000,"station_id":"ce4bgr92rcd13ifvqc6g","pricing_plan_id":"cebpf4jnsgd1na2vs0mg"},{"bike_id":"4fd6bfff-2fba-4479-9355-04d32eaca128","system_id":"levelo_inurba_marseille","lat":43.2323,"lon":5.35538,"is_reserved":false,"is_disabled":false,"rental_uris":{"android":"levelo://app?vid=4fd6bfff-2fba-4479-9355-04d32eaca128","ios":"levelo://app?vid=4fd6bfff-2fba-4479-9355-04d32eaca128"},"vehicle_type_id":"4","last_reported":1746519308,"current_range_meters":18000,"station_id":"ce4bhu92rcd13ifvqi70","pricing_plan_id":"cebpf4jnsgd1na2vs0mg"},{"bike_id":"de32125e-82b4-49a7-b23a-9f246953f10e","system_id":"levelo_inurba_marseille","lat":43.30913,"lon":5.36846,"is_reserved":false,"is_disabled":false,"rental_uris":{"android":"levelo://app?vid=de32125e-82b4-49a7-b23a-9f246953f10e","ios":"levelo://app?vid=de32125e-82b4-49a7-b23a-9f246953f10e"},"vehicle_type_id":"4","last_reported":1746519308,"current_range_meters":18800,"station_id":"ce4bgn92rcd13ifvqbvg","pricing_plan_id":"cebpf4jnsgd1na2vs0mg"},{"bike_id":"9dc08ece-7f96-4723-af2e-cd14da4d0687","system_id":"levelo_inurba_marseille","lat":43.30557,"lon":5.36544,"is_reserved":false,"is_disabled":false,"rental_uris":{"android":"levelo://app?vid=9dc08ece-7f96-4723-af2e-cd14da4d0687","ios":"levelo://app?vid=9dc08ece-7f96-4723-af2e-cd14da4d0687"},"vehicle_type_id":"4","last_reported":1746519308,"current_range_meters":18800,"station_id":"ce4bgs12rcd13ifvqcag","pricing_plan_id":"cebpf4jnsgd1na2vs0mg"},{"bike_id":"9439ad48-891f-4fcf-a72b-ba0604a586bd","system_id":"levelo_inurba_marseille","lat":43.25934,"lon":5.40885,"is_reserved":false,"is_disabled":false,"rental_uris":{"android":"levelo://app?vid=9439ad48-891f-4fcf-a72b-ba0604a586bd","ios":"levelo://app?vid=9439ad48-891f-4fcf-a72b-ba0604a586bd"},"vehicle_type_id":"4","last_reported":1746519308,"current_range_meters":18800,"station_id":"ce4bhm92rcd13ifvqglg","pricing_plan_id":"cebpf4jnsgd1na2vs0mg"},{"bike_id":"5417ea30-f843-49ad-bdb4-35ef7364df1a","system_id":"levelo_inurba_marseille","lat":43.240822,"lon":5.377551,"is_reserved":false,"is_disabled":false,"rental_uris":{"android":"levelo://app?vid=5417ea30-f843-49ad-bdb4-35ef7364df1a","ios":"levelo://app?vid=5417ea30-f843-49ad-bdb4-35ef7364df1a"},"vehicle_type_id":"4","last_reported":1746519308,"current_range_meters":18800,"station_id":"ce4bhnp2rcd13ifvqgvg","pricing_plan_id":"cebpf4jnsgd1na2vs0mg"},{"bike_id":"b4216838-733b-46cd-aae7-8693e0287a61","system_id":"levelo_inurba_marseille","lat":43.22927,"lon":5.35381,"is_reserved":false,"is_disabled":false,"rental_uris":{"android":"levelo://app?vid=b4216838-733b-46cd-aae7-8693e0287a61","ios":"levelo://app?vid=b4216838-733b-46cd-aae7-8693e0287a61"},"vehicle_type_id":"4","last_reported":1746519308,"current_range_meters":18800,"station_id":"cpo3532slgdg3j2ikp40","pricing_plan_id":"cebpf4jnsgd1na2vs0mg"},{"bike_id":"ac700e2e-c129-4f82-a3c3-f628077933a6","system_id":"levelo_inurba_marseille","lat":43.21248,"lon":5.35071,"is_reserved":false,"is_disabled":false,"rental_uris":{"android":"levelo://app?vid=ac700e2e-c129-4f82-a3c3-f628077933a6","ios":"levelo://app?vid=ac700e2e-c129-4f82-a3c3-f628077933a6"},"vehicle_type_id":"4","last_reported":1746519308,"current_range_meters":19200,"station_id":"","pricing_plan_id":"cebpf4jnsgd1na2vs0mg"},{"bike_id":"8b650b4b-a86e-457e-b15d-648ef302a763","system_id":"levelo_inurba_marseille","lat":43.23167,"lon":5.43756,"is_reserved":false,"is_disabled":false,"rental_uris":{"android":"levelo://app?vid=8b650b4b-a86e-457e-b15d-648ef302a763","ios":"levelo://app?vid=8b650b4b-a86e-457e-b15d-648ef302a763"},"vehicle_type_id":"4","last_reported":1746519308,"current_range_meters":19200,"station_id":"ce4bhmp2rcd13ifvqgog","pricing_plan_id":"cebpf4jnsgd1na2vs0mg"},{"bike_id":"9abf2d7c-556b-4302-8913-d42c438a4606","system_id":"levelo_inurba_marseille","lat":43.27494,"lon":5.42457,"is_reserved":false,"is_disabled":false,"rental_uris":{"android":"levelo://app?vid=9abf2d7c-556b-4302-8913-d42c438a4606","ios":"levelo://app?vid=9abf2d7c-556b-4302-8913-d42c438a4606"},"vehicle_type_id":"4","last_reported":1746519308,"current_range_meters":19200,"station_id":"ce4bhn92rcd13ifvqgrg","pricing_plan_id":"cebpf4jnsgd1na2vs0mg"},{"bike_id":"2ecbd89d-7224-4d74-815e-f74b44d955d9","system_id":"levelo_inurba_marseille","lat":43.240755,"lon":5.37762,"is_reserved":false,"is_disabled":false,"rental_uris":{"android":"levelo://app?vid=2ecbd89d-7224-4d74-815e-f74b44d955d9","ios":"levelo://app?vid=2ecbd89d-7224-4d74-815e-f74b44d955d9"},"vehicle_type_id":"4","last_reported":1746519308,"current_range_meters":19200,"station_id":"ce4bhnp2rcd13ifvqgvg","pricing_plan_id":"cebpf4jnsgd1na2vs0mg"},{"bike_id":"aa211fb9-6b63-49c2-a3e6-df36c3266a53","system_id":"levelo_inurba_marseille","lat":43.240723,"lon":5.377624,"is_reserved":false,"is_disabled":false,"rental_uris":{"android":"levelo://app?vid=aa211fb9-6b63-49c2-a3e6-df36c3266a53","ios":"levelo://app?vid=aa211fb9-6b63-49c2-a3e6-df36c3266a53"},"vehicle_type_id":"4","last_reported":1746519308,"current_range_meters":19200,"station_id":"ce4bhnp2rcd13ifvqgvg","pricing_plan_id":"cebpf4jnsgd1na2vs0mg"},{"bike_id":"72ebbbdb-13e1-4c88-ab3c-b8b2bc65db3e","system_id":"levelo_inurba_marseille","lat":43.240723,"lon":5.377655,"is_reserved":false,"is_disabled":false,"rental_uris":{"android":"levelo://app?vid=72ebbbdb-13e1-4c88-ab3c-b8b2bc65db3e","ios":"levelo://app?vid=72ebbbdb-13e1-4c88-ab3c-b8b2bc65db3e"},"vehicle_type_id":"4","last_reported":1746519308,"current_range_meters":19200,"station_id":"ce4bhnp2rcd13ifvqgvg","pricing_plan_id":"cebpf4jnsgd1na2vs0mg"},{"bike_id":"ac0184b5-7df6-425b-af32-85904264e643","system_id":"levelo_inurba_marseille","lat":43.25936,"lon":5.40916,"is_reserved":false,"is_disabled":false,"rental_uris":{"android":"levelo://app?vid=ac0184b5-7df6-425b-af32-85904264e643","ios":"levelo://app?vid=ac0184b5-7df6-425b-af32-85904264e643"},"vehicle_type_id":"4","last_reported":1746519308,"current_range_meters":19600,"station_id":"ce4bhm92rcd13ifvqglg","pricing_plan_id":"cebpf4jnsgd1na2vs0mg"},{"bike_id":"0e87f288-e8c8-42f7-9b45-5d07827eac14","system_id":"levelo_inurba_marseille","lat":43.32358,"lon":5.36763,"is_reserved":false,"is_disabled":false,"rental_uris":{"android":"levelo://app?vid=0e87f288-e8c8-42f7-9b45-5d07827eac14","ios":"levelo://app?vid=0e87f288-e8c8-42f7-9b45-5d07827eac14"},"vehicle_type_id":"4","last_reported":1746519308,"current_range_meters":19600,"station_id":"ce4bhsh2rcd13ifvqi2g","pricing_plan_id":"cebpf4jnsgd1na2vs0mg"},{"bike_id":"a3dc441c-3dd7-42dc-913a-7db783432e14","system_id":"levelo_inurba_marseille","lat":43.28605,"lon":5.3708,"is_reserved":false,"is_disabled":false,"rental_uris":{"android":"levelo://app?vid=a3dc441c-3dd7-42dc-913a-7db783432e14","ios":"levelo://app?vid=a3dc441c-3dd7-42dc-913a-7db783432e14"},"vehicle_type_id":"4","last_reported":1746519308,"current_range_meters":19600,"station_id":"ce4bht12rcd13ifvqi60","pricing_plan_id":"cebpf4jnsgd1na2vs0mg"},{"bike_id":"2fa0b816-7ec6-4882-9376-089f3a9e406c","system_id":"levelo_inurba_marseille","lat":43.337686,"lon":5.374878,"is_reserved":false,"is_disabled":false,"rental_uris":{"android":"levelo://app?vid=2fa0b816-7ec6-4882-9376-089f3a9e406c","ios":"levelo://app?vid=2fa0b816-7ec6-4882-9376-089f3a9e406c"},"vehicle_type_id":"4","last_reported":1746519308,"current_range_meters":20000,"station_id":"","pricing_plan_id":"cebpf4jnsgd1na2vs0mg"},{"bike_id":"7ad33e94-129f-44d1-a73b-4a56c2b5a382","system_id":"levelo_inurba_marseille","lat":43.24803,"lon":5.37448,"is_reserved":false,"is_disabled":false,"rental_uris":{"android":"levelo://app?vid=7ad33e94-129f-44d1-a73b-4a56c2b5a382","ios":"levelo://app?vid=7ad33e94-129f-44d1-a73b-4a56c2b5a382"},"vehicle_type_id":"4","last_reported":1746519308,"current_range_meters":20000,"station_id":"ce4bhgh2rcd13ifvqfb0","pricing_plan_id":"cebpf4jnsgd1na2vs0mg"},{"bike_id":"30e249e4-3bf3-435d-98e2-04854f595d4b","system_id":"levelo_inurba_marseille","lat":43.25574,"lon":5.38209,"is_reserved":false,"is_disabled":false,"rental_uris":{"android":"levelo://app?vid=30e249e4-3bf3-435d-98e2-04854f595d4b","ios":"levelo://app?vid=30e249e4-3bf3-435d-98e2-04854f595d4b"},"vehicle_type_id":"4","last_reported":1746519308,"current_range_meters":20000,"station_id":"ce4bhih2rcd13ifvqfs0","pricing_plan_id":"cebpf4jnsgd1na2vs0mg"},{"bike_id":"1d6da8c6-9124-4909-a4c8-a4b474a3bebb","system_id":"levelo_inurba_marseille","lat":43.25086,"lon":5.39514,"is_reserved":false,"is_disabled":false,"rental_uris":{"android":"levelo://app?vid=1d6da8c6-9124-4909-a4c8-a4b474a3bebb","ios":"levelo://app?vid=1d6da8c6-9124-4909-a4c8-a4b474a3bebb"},"vehicle_type_id":"4","last_reported":1746519308,"current_range_meters":20000,"station_id":"ce4bhm12rcd13ifvqgkg","pricing_plan_id":"cebpf4jnsgd1na2vs0mg"},{"bike_id":"2d681e3a-2beb-4980-ae98-d93c0b6af1c3","system_id":"levelo_inurba_marseille","lat":43.2407,"lon":5.37758,"is_reserved":false,"is_disabled":false,"rental_uris":{"android":"levelo://app?vid=2d681e3a-2beb-4980-ae98-d93c0b6af1c3","ios":"levelo://app?vid=2d681e3a-2beb-4980-ae98-d93c0b6af1c3"},"vehicle_type_id":"4","last_reported":1746519308,"current_range_meters":20000,"station_id":"ce4bhnp2rcd13ifvqgvg","pricing_plan_id":"cebpf4jnsgd1na2vs0mg"},{"bike_id":"9a815670-e042-4e15-ada9-ab54cb7addda","system_id":"levelo_inurba_marseille","lat":43.31399,"lon":5.36648,"is_reserved":false,"is_disabled":false,"rental_uris":{"android":"levelo://app?vid=9a815670-e042-4e15-ada9-ab54cb7addda","ios":"levelo://app?vid=9a815670-e042-4e15-ada9-ab54cb7addda"},"vehicle_type_id":"4","last_reported":1746519308,"current_range_meters":20400,"station_id":"","pricing_plan_id":"cebpf4jnsgd1na2vs0mg"},{"bike_id":"2168baeb-e9ac-4545-ab89-8ccbcdbe4a9e","system_id":"levelo_inurba_marseille","lat":43.29798,"lon":5.38099,"is_reserved":false,"is_disabled":false,"rental_uris":{"android":"levelo://app?vid=2168baeb-e9ac-4545-ab89-8ccbcdbe4a9e","ios":"levelo://app?vid=2168baeb-e9ac-4545-ab89-8ccbcdbe4a9e"},"vehicle_type_id":"4","last_reported":1746519308,"current_range_meters":20400,"station_id":"ce4bgip2rcd13ifvqbb0","pricing_plan_id":"cebpf4jnsgd1na2vs0mg"},{"bike_id":"7fd58b5f-4b5c-4ff2-8022-8f4d0d1e5f1b","system_id":"levelo_inurba_marseille","lat":43.30145,"lon":5.37408,"is_reserved":false,"is_disabled":false,"rental_uris":{"android":"levelo://app?vid=7fd58b5f-4b5c-4ff2-8022-8f4d0d1e5f1b","ios":"levelo://app?vid=7fd58b5f-4b5c-4ff2-8022-8f4d0d1e5f1b"},"vehicle_type_id":"4","last_reported":1746519308,"current_range_meters":20400,"station_id":"ce4bgs92rcd13ifvqcc0","pricing_plan_id":"cebpf4jnsgd1na2vs0mg"},{"bike_id":"76b195af-d2b4-41f4-8db5-48ea6ae85265","system_id":"levelo_inurba_marseille","lat":43.28923,"lon":5.384,"is_reserved":false,"is_disabled":false,"rental_uris":{"android":"levelo://app?vid=76b195af-d2b4-41f4-8db5-48ea6ae85265","ios":"levelo://app?vid=76b195af-d2b4-41f4-8db5-48ea6ae85265"},"vehicle_type_id":"4","last_reported":1746519308,"current_range_meters":20400,"station_id":"ce4bh612rcd13ifvqe6g","pricing_plan_id":"cebpf4jnsgd1na2vs0mg"},{"bike_id":"a33f7374-008e-4395-8a1d-ee5e34e44664","system_id":"levelo_inurba_marseille","lat":43.26564,"lon":5.38996,"is_reserved":false,"is_disabled":false,"rental_uris":{"android":"levelo://app?vid=a33f7374-008e-4395-8a1d-ee5e34e44664","ios":"levelo://app?vid=a33f7374-008e-4395-8a1d-ee5e34e44664"},"vehicle_type_id":"4","last_reported":1746519308,"current_range_meters":20400,"station_id":"ce4bhe12rcd13ifvqf30","pricing_plan_id":"cebpf4jnsgd1na2vs0mg"},{"bike_id":"8a9900df-a026-4e3e-812b-711ea1f933dd","system_id":"levelo_inurba_marseille","lat":43.26556,"lon":5.37283,"is_reserved":false,"is_disabled":false,"rental_uris":{"android":"levelo://app?vid=8a9900df-a026-4e3e-812b-711ea1f933dd","ios":"levelo://app?vid=8a9900df-a026-4e3e-812b-711ea1f933dd"},"vehicle_type_id":"4","last_reported":1746519308,"current_range_meters":20400,"station_id":"ce4bhg12rcd13ifvqf70","pricing_plan_id":"cebpf4jnsgd1na2vs0mg"},{"bike_id":"2c101aaa-db37-4200-bb05-8308f90fe04f","system_id":"levelo_inurba_marseille","lat":43.26958,"lon":5.38632,"is_reserved":false,"is_disabled":false,"rental_uris":{"android":"levelo://app?vid=2c101aaa-db37-4200-bb05-8308f90fe04f","ios":"levelo://app?vid=2c101aaa-db37-4200-bb05-8308f90fe04f"},"vehicle_type_id":"4","last_reported":1746519308,"current_range_meters":20400,"station_id":"ce4bhh92rcd13ifvqfh0","pricing_plan_id":"cebpf4jnsgd1na2vs0mg"},{"bike_id":"4fa44a4d-c738-41bc-9022-213fbeae4065","system_id":"levelo_inurba_marseille","lat":43.23186,"lon":5.39993,"is_reserved":false,"is_disabled":false,"rental_uris":{"android":"levelo://app?vid=4fa44a4d-c738-41bc-9022-213fbeae4065","ios":"levelo://app?vid=4fa44a4d-c738-41bc-9022-213fbeae4065"},"vehicle_type_id":"4","last_reported":1746519308,"current_range_meters":20400,"station_id":"ce4bhn12rcd13ifvqgqg","pricing_plan_id":"cebpf4jnsgd1na2vs0mg"},{"bike_id":"7a8477c5-8525-4574-8938-709628d8b5b0","system_id":"levelo_inurba_marseille","lat":43.30143,"lon":5.37414,"is_reserved":false,"is_disabled":false,"rental_uris":{"android":"levelo://app?vid=7a8477c5-8525-4574-8938-709628d8b5b0","ios":"levelo://app?vid=7a8477c5-8525-4574-8938-709628d8b5b0"},"vehicle_type_id":"4","last_reported":1746519308,"current_range_meters":20800,"station_id":"ce4bgs92rcd13ifvqcc0","pricing_plan_id":"cebpf4jnsgd1na2vs0mg"},{"bike_id":"039fdb34-d15e-4a89-8062-df2b97657f43","system_id":"levelo_inurba_marseille","lat":43.25001,"lon":5.38922,"is_reserved":false,"is_disabled":false,"rental_uris":{"android":"levelo://app?vid=039fdb34-d15e-4a89-8062-df2b97657f43","ios":"levelo://app?vid=039fdb34-d15e-4a89-8062-df2b97657f43"},"vehicle_type_id":"4","last_reported":1746519308,"current_range_meters":20800,"station_id":"ce4bhgp2rcd13ifvqfd0","pricing_plan_id":"cebpf4jnsgd1na2vs0mg"},{"bike_id":"e1da822c-3ed9-403e-b1d6-12e3209f7308","system_id":"levelo_inurba_marseille","lat":43.26955,"lon":5.38632,"is_reserved":false,"is_disabled":false,"rental_uris":{"android":"levelo://app?vid=e1da822c-3ed9-403e-b1d6-12e3209f7308","ios":"levelo://app?vid=e1da822c-3ed9-403e-b1d6-12e3209f7308"},"vehicle_type_id":"4","last_reported":1746519308,"current_range_meters":20800,"station_id":"ce4bhh92rcd13ifvqfh0","pricing_plan_id":"cebpf4jnsgd1na2vs0mg"},{"bike_id":"fa33d81b-fe52-4929-99f2-418afe78e14f","system_id":"levelo_inurba_marseille","lat":43.26955,"lon":5.38629,"is_reserved":false,"is_disabled":false,"rental_uris":{"android":"levelo://app?vid=fa33d81b-fe52-4929-99f2-418afe78e14f","ios":"levelo://app?vid=fa33d81b-fe52-4929-99f2-418afe78e14f"},"vehicle_type_id":"4","last_reported":1746519308,"current_range_meters":20800,"station_id":"ce4bhh92rcd13ifvqfh0","pricing_plan_id":"cebpf4jnsgd1na2vs0mg"},{"bike_id":"9f4fed7b-316e-4e77-99f1-c5c64e112a25","system_id":"levelo_inurba_marseille","lat":43.24164,"lon":5.39735,"is_reserved":false,"is_disabled":false,"rental_uris":{"android":"levelo://app?vid=9f4fed7b-316e-4e77-99f1-c5c64e112a25","ios":"levelo://app?vid=9f4fed7b-316e-4e77-99f1-c5c64e112a25"},"vehicle_type_id":"4","last_reported":1746519308,"current_range_meters":20800,"station_id":"ce4bhn12rcd13ifvqgpg","pricing_plan_id":"cebpf4jnsgd1na2vs0mg"},{"bike_id":"6744be14-d216-44d1-9bc9-b0ce3ec887bc","system_id":"levelo_inurba_marseille","lat":43.26937,"lon":5.40267,"is_reserved":false,"is_disabled":false,"rental_uris":{"android":"levelo://app?vid=6744be14-d216-44d1-9bc9-b0ce3ec887bc","ios":"levelo://app?vid=6744be14-d216-44d1-9bc9-b0ce3ec887bc"},"vehicle_type_id":"4","last_reported":1746519308,"current_range_meters":20800,"station_id":"cjm6bp8fraef2m0cb0m0","pricing_plan_id":"cebpf4jnsgd1na2vs0mg"},{"bike_id":"521eaef9-8172-49dd-b71d-fbc29c7db703","system_id":"levelo_inurba_marseille","lat":43.29306,"lon":5.37189,"is_reserved":false,"is_disabled":false,"rental_uris":{"android":"levelo://app?vid=521eaef9-8172-49dd-b71d-fbc29c7db703","ios":"levelo://app?vid=521eaef9-8172-49dd-b71d-fbc29c7db703"},"vehicle_type_id":"4","last_reported":1746519308,"current_range_meters":21600,"station_id":"ce4bgh92rcd13ifvqb40","pricing_plan_id":"cebpf4jnsgd1na2vs0mg"},{"bike_id":"8c360e58-a46f-47c4-92c6-de929ecca5f7","system_id":"levelo_inurba_marseille","lat":43.26944,"lon":5.40243,"is_reserved":false,"is_disabled":false,"rental_uris":{"android":"levelo://app?vid=8c360e58-a46f-47c4-92c6-de929ecca5f7","ios":"levelo://app?vid=8c360e58-a46f-47c4-92c6-de929ecca5f7"},"vehicle_type_id":"4","last_reported":1746519308,"current_range_meters":22000,"station_id":"","pricing_plan_id":"cebpf4jnsgd1na2vs0mg"},{"bike_id":"5c80a2dd-628f-4904-89eb-c8cf989039e0","system_id":"levelo_inurba_marseille","lat":43.288559,"lon":5.358394,"is_reserved":false,"is_disabled":false,"rental_uris":{"android":"levelo://app?vid=5c80a2dd-628f-4904-89eb-c8cf989039e0","ios":"levelo://app?vid=5c80a2dd-628f-4904-89eb-c8cf989039e0"},"vehicle_type_id":"4","last_reported":1746519308,"current_range_meters":22000,"station_id":"ce4bhb12rcd13ifvqem0","pricing_plan_id":"cebpf4jnsgd1na2vs0mg"},{"bike_id":"ac50e52e-c55f-4f45-833f-89e9f0afaf55","system_id":"levelo_inurba_marseille","lat":43.24187,"lon":5.39727,"is_reserved":false,"is_disabled":false,"rental_uris":{"android":"levelo://app?vid=ac50e52e-c55f-4f45-833f-89e9f0afaf55","ios":"levelo://app?vid=ac50e52e-c55f-4f45-833f-89e9f0afaf55"},"vehicle_type_id":"4","last_reported":1746519308,"current_range_meters":22000,"station_id":"ce4bhn12rcd13ifvqgpg","pricing_plan_id":"cebpf4jnsgd1na2vs0mg"},{"bike_id":"0a90c9d8-6902-4b54-883b-a4bf974a897d","system_id":"levelo_inurba_marseille","lat":43.26688,"lon":5.3826,"is_reserved":false,"is_disabled":false,"rental_uris":{"android":"levelo://app?vid=0a90c9d8-6902-4b54-883b-a4bf974a897d","ios":"levelo://app?vid=0a90c9d8-6902-4b54-883b-a4bf974a897d"},"vehicle_type_id":"4","last_reported":1746519308,"current_range_meters":22400,"station_id":"ce4bhg92rcd13ifvqf90","pricing_plan_id":"cebpf4jnsgd1na2vs0mg"},{"bike_id":"bfb06ba9-dae8-4556-b87e-15614d581cbc","system_id":"levelo_inurba_marseille","lat":43.26491,"lon":5.39552,"is_reserved":false,"is_disabled":false,"rental_uris":{"android":"levelo://app?vid=bfb06ba9-dae8-4556-b87e-15614d581cbc","ios":"levelo://app?vid=bfb06ba9-dae8-4556-b87e-15614d581cbc"},"vehicle_type_id":"4","last_reported":1746519308,"current_range_meters":22400,"station_id":"ce4bhi12rcd13ifvqfq0","pricing_plan_id":"cebpf4jnsgd1na2vs0mg"},{"bike_id":"046efd26-c679-43ff-b4ad-1a0bbcfa26c5","system_id":"levelo_inurba_marseille","lat":43.27066,"lon":5.42271,"is_reserved":false,"is_disabled":false,"rental_uris":{"android":"levelo://app?vid=046efd26-c679-43ff-b4ad-1a0bbcfa26c5","ios":"levelo://app?vid=046efd26-c679-43ff-b4ad-1a0bbcfa26c5"},"vehicle_type_id":"4","last_reported":1746519308,"current_range_meters":22400,"station_id":"ce4bhk92rcd13ifvqgb0","pricing_plan_id":"cebpf4jnsgd1na2vs0mg"},{"bike_id":"f1d41c01-070c-472b-9416-6f437619b291","system_id":"levelo_inurba_marseille","lat":43.23152,"lon":5.4372,"is_reserved":false,"is_disabled":false,"rental_uris":{"android":"levelo://app?vid=f1d41c01-070c-472b-9416-6f437619b291","ios":"levelo://app?vid=f1d41c01-070c-472b-9416-6f437619b291"},"vehicle_type_id":"4","last_reported":1746519308,"current_range_meters":22400,"station_id":"ce4bhmp2rcd13ifvqgog","pricing_plan_id":"cebpf4jnsgd1na2vs0mg"},{"bike_id":"cc084286-9201-443c-a850-a57e5e37c96b","system_id":"levelo_inurba_marseille","lat":43.240723,"lon":5.377576,"is_reserved":false,"is_disabled":false,"rental_uris":{"android":"levelo://app?vid=cc084286-9201-443c-a850-a57e5e37c96b","ios":"levelo://app?vid=cc084286-9201-443c-a850-a57e5e37c96b"},"vehicle_type_id":"4","last_reported":1746519308,"current_range_meters":22400,"station_id":"ce4bhnp2rcd13ifvqgvg","pricing_plan_id":"cebpf4jnsgd1na2vs0mg"},{"bike_id":"4137d782-8ede-47fd-9136-e06c2853969c","system_id":"levelo_inurba_marseille","lat":43.33605,"lon":5.40993,"is_reserved":false,"is_disabled":false,"rental_uris":{"android":"levelo://app?vid=4137d782-8ede-47fd-9136-e06c2853969c","ios":"levelo://app?vid=4137d782-8ede-47fd-9136-e06c2853969c"},"vehicle_type_id":"4","last_reported":1746519308,"current_range_meters":22400,"station_id":"ce4bhqh2rcd13ifvqhmg","pricing_plan_id":"cebpf4jnsgd1na2vs0mg"},{"bike_id":"be49f62b-f270-45db-8443-4e432ed48589","system_id":"levelo_inurba_marseille","lat":43.29623,"lon":5.3773,"is_reserved":false,"is_disabled":false,"rental_uris":{"android":"levelo://app?vid=be49f62b-f270-45db-8443-4e432ed48589","ios":"levelo://app?vid=be49f62b-f270-45db-8443-4e432ed48589"},"vehicle_type_id":"4","last_reported":1746519308,"current_range_meters":22800,"station_id":"ce4bgi92rcd13ifvqb90","pricing_plan_id":"cebpf4jnsgd1na2vs0mg"},{"bike_id":"a6975857-f4ed-4bff-b109-ad375119e9ec","system_id":"levelo_inurba_marseille","lat":43.30903,"lon":5.36848,"is_reserved":false,"is_disabled":false,"rental_uris":{"android":"levelo://app?vid=a6975857-f4ed-4bff-b109-ad375119e9ec","ios":"levelo://app?vid=a6975857-f4ed-4bff-b109-ad375119e9ec"},"vehicle_type_id":"4","last_reported":1746519308,"current_range_meters":22800,"station_id":"ce4bgn92rcd13ifvqbvg","pricing_plan_id":"cebpf4jnsgd1na2vs0mg"},{"bike_id":"d99c51ae-5a52-4f5f-b0ef-c505a66ba61f","system_id":"levelo_inurba_marseille","lat":43.308975,"lon":5.368358,"is_reserved":false,"is_disabled":false,"rental_uris":{"android":"levelo://app?vid=d99c51ae-5a52-4f5f-b0ef-c505a66ba61f","ios":"levelo://app?vid=d99c51ae-5a52-4f5f-b0ef-c505a66ba61f"},"vehicle_type_id":"4","last_reported":1746519308,"current_range_meters":22800,"station_id":"ce4bgn92rcd13ifvqbvg","pricing_plan_id":"cebpf4jnsgd1na2vs0mg"},{"bike_id":"f2d6558a-e02d-4562-9213-565b7a21b02c","system_id":"levelo_inurba_marseille","lat":43.29972,"lon":5.37176,"is_reserved":false,"is_disabled":false,"rental_uris":{"android":"levelo://app?vid=f2d6558a-e02d-4562-9213-565b7a21b02c","ios":"levelo://app?vid=f2d6558a-e02d-4562-9213-565b7a21b02c"},"vehicle_type_id":"4","last_reported":1746519308,"current_range_meters":22800,"station_id":"ce4bgr92rcd13ifvqc7g","pricing_plan_id":"cebpf4jnsgd1na2vs0mg"},{"bike_id":"2b89fc41-d9f9-4cfe-94ea-e65cd1e553d7","system_id":"levelo_inurba_marseille","lat":43.305573,"lon":5.365578,"is_reserved":false,"is_disabled":false,"rental_uris":{"android":"levelo://app?vid=2b89fc41-d9f9-4cfe-94ea-e65cd1e553d7","ios":"levelo://app?vid=2b89fc41-d9f9-4cfe-94ea-e65cd1e553d7"},"vehicle_type_id":"4","last_reported":1746519308,"current_range_meters":22800,"station_id":"ce4bgs12rcd13ifvqcag","pricing_plan_id":"cebpf4jnsgd1na2vs0mg"},{"bike_id":"8ce4810f-48bb-4f07-a175-0c6e4f832433","system_id":"levelo_inurba_marseille","lat":43.31332,"lon":5.39687,"is_reserved":false,"is_disabled":false,"rental_uris":{"android":"levelo://app?vid=8ce4810f-48bb-4f07-a175-0c6e4f832433","ios":"levelo://app?vid=8ce4810f-48bb-4f07-a175-0c6e4f832433"},"vehicle_type_id":"4","last_reported":1746519308,"current_range_meters":22800,"station_id":"ce4bgvp2rcd13ifvqcu0","pricing_plan_id":"cebpf4jnsgd1na2vs0mg"},{"bike_id":"22326737-8d22-456b-ba0b-8a284ae4472e","system_id":"levelo_inurba_marseille","lat":43.29017,"lon":5.38637,"is_reserved":false,"is_disabled":false,"rental_uris":{"android":"levelo://app?vid=22326737-8d22-456b-ba0b-8a284ae4472e","ios":"levelo://app?vid=22326737-8d22-456b-ba0b-8a284ae4472e"},"vehicle_type_id":"4","last_reported":1746519308,"current_range_meters":22800,"station_id":"ce4bh4p2rcd13ifvqe0g","pricing_plan_id":"cebpf4jnsgd1na2vs0mg"},{"bike_id":"2faf4fe2-2cb8-4a4b-b3a7-34fd5844a178","system_id":"levelo_inurba_marseille","lat":43.26061,"lon":5.39399,"is_reserved":false,"is_disabled":false,"rental_uris":{"android":"levelo://app?vid=2faf4fe2-2cb8-4a4b-b3a7-34fd5844a178","ios":"levelo://app?vid=2faf4fe2-2cb8-4a4b-b3a7-34fd5844a178"},"vehicle_type_id":"4","last_reported":1746519308,"current_range_meters":22800,"station_id":"ce4bhh92rcd13ifvqfj0","pricing_plan_id":"cebpf4jnsgd1na2vs0mg"},{"bike_id":"bac7f684-2423-4e2b-8fd4-078a9a398e21","system_id":"levelo_inurba_marseille","lat":43.240784,"lon":5.377518,"is_reserved":false,"is_disabled":false,"rental_uris":{"android":"levelo://app?vid=bac7f684-2423-4e2b-8fd4-078a9a398e21","ios":"levelo://app?vid=bac7f684-2423-4e2b-8fd4-078a9a398e21"},"vehicle_type_id":"4","last_reported":1746519308,"current_range_meters":22800,"station_id":"ce4bhnp2rcd13ifvqgvg","pricing_plan_id":"cebpf4jnsgd1na2vs0mg"},{"bike_id":"4c92ddfb-82c6-411c-8a4c-50ec62be918b","system_id":"levelo_inurba_marseille","lat":43.24076,"lon":5.3775,"is_reserved":false,"is_disabled":false,"rental_uris":{"android":"levelo://app?vid=4c92ddfb-82c6-411c-8a4c-50ec62be918b","ios":"levelo://app?vid=4c92ddfb-82c6-411c-8a4c-50ec62be918b"},"vehicle_type_id":"4","last_reported":1746519308,"current_range_meters":22800,"station_id":"ce4bhnp2rcd13ifvqgvg","pricing_plan_id":"cebpf4jnsgd1na2vs0mg"},{"bike_id":"6d32f6b3-979c-4d53-9d6f-c35669fe3570","system_id":"levelo_inurba_marseille","lat":43.32477,"lon":5.36562,"is_reserved":false,"is_disabled":false,"rental_uris":{"android":"levelo://app?vid=6d32f6b3-979c-4d53-9d6f-c35669fe3570","ios":"levelo://app?vid=6d32f6b3-979c-4d53-9d6f-c35669fe3570"},"vehicle_type_id":"4","last_reported":1746519308,"current_range_meters":22800,"station_id":"ce4bhs12rcd13ifvqhvg","pricing_plan_id":"cebpf4jnsgd1na2vs0mg"},{"bike_id":"2f42a6fc-b7d1-40cc-a917-ee7e0070d967","system_id":"levelo_inurba_marseille","lat":43.32362,"lon":5.36759,"is_reserved":false,"is_disabled":false,"rental_uris":{"android":"levelo://app?vid=2f42a6fc-b7d1-40cc-a917-ee7e0070d967","ios":"levelo://app?vid=2f42a6fc-b7d1-40cc-a917-ee7e0070d967"},"vehicle_type_id":"4","last_reported":1746519308,"current_range_meters":22800,"station_id":"ce4bhsh2rcd13ifvqi2g","pricing_plan_id":"cebpf4jnsgd1na2vs0mg"},{"bike_id":"0590bbfe-c74d-461c-ba62-d162718c5929","system_id":"levelo_inurba_marseille","lat":43.26556,"lon":5.37287,"is_reserved":false,"is_disabled":false,"rental_uris":{"android":"levelo://app?vid=0590bbfe-c74d-461c-ba62-d162718c5929","ios":"levelo://app?vid=0590bbfe-c74d-461c-ba62-d162718c5929"},"vehicle_type_id":"4","last_reported":1746519308,"current_range_meters":23200,"station_id":"ce4bhg12rcd13ifvqf70","pricing_plan_id":"cebpf4jnsgd1na2vs0mg"},{"bike_id":"eb4530fd-27a2-44aa-be4f-0ae2ee46c65c","system_id":"levelo_inurba_marseille","lat":43.27501,"lon":5.42457,"is_reserved":false,"is_disabled":false,"rental_uris":{"android":"levelo://app?vid=eb4530fd-27a2-44aa-be4f-0ae2ee46c65c","ios":"levelo://app?vid=eb4530fd-27a2-44aa-be4f-0ae2ee46c65c"},"vehicle_type_id":"4","last_reported":1746519308,"current_range_meters":23200,"station_id":"ce4bhn92rcd13ifvqgrg","pricing_plan_id":"cebpf4jnsgd1na2vs0mg"},{"bike_id":"96175c6b-7676-4c4f-8523-d41df33ea507","system_id":"levelo_inurba_marseille","lat":43.24082,"lon":5.37759,"is_reserved":false,"is_disabled":false,"rental_uris":{"android":"levelo://app?vid=96175c6b-7676-4c4f-8523-d41df33ea507","ios":"levelo://app?vid=96175c6b-7676-4c4f-8523-d41df33ea507"},"vehicle_type_id":"4","last_reported":1746519308,"current_range_meters":23200,"station_id":"ce4bhnp2rcd13ifvqgvg","pricing_plan_id":"cebpf4jnsgd1na2vs0mg"},{"bike_id":"fd21ae1b-9075-4adb-ac2e-17067512c003","system_id":"levelo_inurba_marseille","lat":43.33602,"lon":5.40987,"is_reserved":false,"is_disabled":false,"rental_uris":{"android":"levelo://app?vid=fd21ae1b-9075-4adb-ac2e-17067512c003","ios":"levelo://app?vid=fd21ae1b-9075-4adb-ac2e-17067512c003"},"vehicle_type_id":"4","last_reported":1746519308,"current_range_meters":23200,"station_id":"ce4bhqh2rcd13ifvqhmg","pricing_plan_id":"cebpf4jnsgd1na2vs0mg"},{"bike_id":"4943aaff-c800-4e9a-bffe-aacef57a5114","system_id":"levelo_inurba_marseille","lat":43.215094,"lon":5.348655,"is_reserved":false,"is_disabled":false,"rental_uris":{"android":"levelo://app?vid=4943aaff-c800-4e9a-bffe-aacef57a5114","ios":"levelo://app?vid=4943aaff-c800-4e9a-bffe-aacef57a5114"},"vehicle_type_id":"4","last_reported":1746519308,"current_range_meters":24000,"station_id":"","pricing_plan_id":"cebpf4jnsgd1na2vs0mg"},{"bike_id":"55a5a4bd-37b9-4fda-8803-a1ddb77974cd","system_id":"levelo_inurba_marseille","lat":43.31354,"lon":5.36704,"is_reserved":false,"is_disabled":false,"rental_uris":{"android":"levelo://app?vid=55a5a4bd-37b9-4fda-8803-a1ddb77974cd","ios":"levelo://app?vid=55a5a4bd-37b9-4fda-8803-a1ddb77974cd"},"vehicle_type_id":"4","last_reported":1746519308,"current_range_meters":24000,"station_id":"ce4bgr92rcd13ifvqc6g","pricing_plan_id":"cebpf4jnsgd1na2vs0mg"},{"bike_id":"063734d6-bd0f-4c06-81b9-ebd21e5b89ae","system_id":"levelo_inurba_marseille","lat":43.305419,"lon":5.3669,"is_reserved":false,"is_disabled":false,"rental_uris":{"android":"levelo://app?vid=063734d6-bd0f-4c06-81b9-ebd21e5b89ae","ios":"levelo://app?vid=063734d6-bd0f-4c06-81b9-ebd21e5b89ae"},"vehicle_type_id":"4","last_reported":1746519308,"current_range_meters":24000,"station_id":"ce4bgrp2rcd13ifvqc9g","pricing_plan_id":"cebpf4jnsgd1na2vs0mg"},{"bike_id":"c8b59645-4fa2-4460-8bbc-725c6236b365","system_id":"levelo_inurba_marseille","lat":43.286575,"lon":5.386643,"is_reserved":false,"is_disabled":false,"rental_uris":{"android":"levelo://app?vid=c8b59645-4fa2-4460-8bbc-725c6236b365","ios":"levelo://app?vid=c8b59645-4fa2-4460-8bbc-725c6236b365"},"vehicle_type_id":"4","last_reported":1746519308,"current_range_meters":24000,"station_id":"ce4bh492rcd13ifvqdug","pricing_plan_id":"cebpf4jnsgd1na2vs0mg"},{"bike_id":"5c68f092-1f83-47ed-97d1-40ba4dcb6dfd","system_id":"levelo_inurba_marseille","lat":43.29248,"lon":5.36817,"is_reserved":false,"is_disabled":false,"rental_uris":{"android":"levelo://app?vid=5c68f092-1f83-47ed-97d1-40ba4dcb6dfd","ios":"levelo://app?vid=5c68f092-1f83-47ed-97d1-40ba4dcb6dfd"},"vehicle_type_id":"4","last_reported":1746519308,"current_range_meters":24000,"station_id":"ce4bhbp2rcd13ifvqesg","pricing_plan_id":"cebpf4jnsgd1na2vs0mg"},{"bike_id":"c9642721-5023-4250-b7d0-c4dbdeabc0f7","system_id":"levelo_inurba_marseille","lat":43.26209,"lon":5.37441,"is_reserved":false,"is_disabled":false,"rental_uris":{"android":"levelo://app?vid=c9642721-5023-4250-b7d0-c4dbdeabc0f7","ios":"levelo://app?vid=c9642721-5023-4250-b7d0-c4dbdeabc0f7"},"vehicle_type_id":"4","last_reported":1746519308,"current_range_meters":24000,"station_id":"ce4bhgp2rcd13ifvqfc0","pricing_plan_id":"cebpf4jnsgd1na2vs0mg"},{"bike_id":"d5ab06e3-e77d-4b7f-a195-6a14c71353d9","system_id":"levelo_inurba_marseille","lat":43.26226,"lon":5.40449,"is_reserved":false,"is_disabled":false,"rental_uris":{"android":"levelo://app?vid=d5ab06e3-e77d-4b7f-a195-6a14c71353d9","ios":"levelo://app?vid=d5ab06e3-e77d-4b7f-a195-6a14c71353d9"},"vehicle_type_id":"4","last_reported":1746519308,"current_range_meters":24000,"station_id":"ce4bhmh2rcd13ifvqgmg","pricing_plan_id":"cebpf4jnsgd1na2vs0mg"},{"bike_id":"6e7d68e8-9490-4be8-91d3-1292edbba5e0","system_id":"levelo_inurba_marseille","lat":43.24187,"lon":5.39728,"is_reserved":false,"is_disabled":false,"rental_uris":{"android":"levelo://app?vid=6e7d68e8-9490-4be8-91d3-1292edbba5e0","ios":"levelo://app?vid=6e7d68e8-9490-4be8-91d3-1292edbba5e0"},"vehicle_type_id":"4","last_reported":1746519308,"current_range_meters":24000,"station_id":"ce4bhn12rcd13ifvqgpg","pricing_plan_id":"cebpf4jnsgd1na2vs0mg"},{"bike_id":"5b1f17ae-5a78-4b1e-8be6-f9efafc3f9dc","system_id":"levelo_inurba_marseille","lat":43.27502,"lon":5.42452,"is_reserved":false,"is_disabled":false,"rental_uris":{"android":"levelo://app?vid=5b1f17ae-5a78-4b1e-8be6-f9efafc3f9dc","ios":"levelo://app?vid=5b1f17ae-5a78-4b1e-8be6-f9efafc3f9dc"},"vehicle_type_id":"4","last_reported":1746519308,"current_range_meters":24000,"station_id":"ce4bhn92rcd13ifvqgrg","pricing_plan_id":"cebpf4jnsgd1na2vs0mg"},{"bike_id":"0df3111c-fd99-4e63-915e-e7763d46bb1b","system_id":"levelo_inurba_marseille","lat":43.28506,"lon":5.37075,"is_reserved":false,"is_disabled":false,"rental_uris":{"android":"levelo://app?vid=0df3111c-fd99-4e63-915e-e7763d46bb1b","ios":"levelo://app?vid=0df3111c-fd99-4e63-915e-e7763d46bb1b"},"vehicle_type_id":"4","last_reported":1746519308,"current_range_meters":24400,"station_id":"","pricing_plan_id":"cebpf4jnsgd1na2vs0mg"},{"bike_id":"ceabe490-1f11-4366-85ad-8996dd4944f3","system_id":"levelo_inurba_marseille","lat":43.29307,"lon":5.37157,"is_reserved":false,"is_disabled":false,"rental_uris":{"android":"levelo://app?vid=ceabe490-1f11-4366-85ad-8996dd4944f3","ios":"levelo://app?vid=ceabe490-1f11-4366-85ad-8996dd4944f3"},"vehicle_type_id":"4","last_reported":1746519308,"current_range_meters":24400,"station_id":"ce4bgh92rcd13ifvqb40","pricing_plan_id":"cebpf4jnsgd1na2vs0mg"},{"bike_id":"0c4fed9d-a52d-47fd-bc5d-11a184664c43","system_id":"levelo_inurba_marseille","lat":43.28927,"lon":5.38402,"is_reserved":false,"is_disabled":false,"rental_uris":{"android":"levelo://app?vid=0c4fed9d-a52d-47fd-bc5d-11a184664c43","ios":"levelo://app?vid=0c4fed9d-a52d-47fd-bc5d-11a184664c43"},"vehicle_type_id":"4","last_reported":1746519308,"current_range_meters":24400,"station_id":"ce4bh612rcd13ifvqe6g","pricing_plan_id":"cebpf4jnsgd1na2vs0mg"},{"bike_id":"cc8b0e89-22c9-4a26-9203-67c48ee9efbc","system_id":"levelo_inurba_marseille","lat":43.26788,"lon":5.39425,"is_reserved":false,"is_disabled":false,"rental_uris":{"android":"levelo://app?vid=cc8b0e89-22c9-4a26-9203-67c48ee9efbc","ios":"levelo://app?vid=cc8b0e89-22c9-4a26-9203-67c48ee9efbc"},"vehicle_type_id":"4","last_reported":1746519308,"current_range_meters":24400,"station_id":"ce4bhh12rcd13ifvqfg0","pricing_plan_id":"cebpf4jnsgd1na2vs0mg"},{"bike_id":"e1490a3e-adae-49dd-a774-00a09b6f1da4","system_id":"levelo_inurba_marseille","lat":43.269555,"lon":5.386338,"is_reserved":false,"is_disabled":false,"rental_uris":{"android":"levelo://app?vid=e1490a3e-adae-49dd-a774-00a09b6f1da4","ios":"levelo://app?vid=e1490a3e-adae-49dd-a774-00a09b6f1da4"},"vehicle_type_id":"4","last_reported":1746519308,"current_range_meters":24400,"station_id":"ce4bhh92rcd13ifvqfh0","pricing_plan_id":"cebpf4jnsgd1na2vs0mg"},{"bike_id":"983a404f-14c7-456a-9282-ceffeda2b30b","system_id":"levelo_inurba_marseille","lat":43.27496,"lon":5.42441,"is_reserved":false,"is_disabled":false,"rental_uris":{"android":"levelo://app?vid=983a404f-14c7-456a-9282-ceffeda2b30b","ios":"levelo://app?vid=983a404f-14c7-456a-9282-ceffeda2b30b"},"vehicle_type_id":"4","last_reported":1746519308,"current_range_meters":24400,"station_id":"ce4bhn92rcd13ifvqgrg","pricing_plan_id":"cebpf4jnsgd1na2vs0mg"},{"bike_id":"7ae13353-b567-4a43-80b1-3276f689c6cd","system_id":"levelo_inurba_marseille","lat":43.29713,"lon":5.36612,"is_reserved":false,"is_disabled":false,"rental_uris":{"android":"levelo://app?vid=7ae13353-b567-4a43-80b1-3276f689c6cd","ios":"levelo://app?vid=7ae13353-b567-4a43-80b1-3276f689c6cd"},"vehicle_type_id":"4","last_reported":1746519308,"current_range_meters":24800,"station_id":"ce4bgn12rcd13ifvqbt0","pricing_plan_id":"cebpf4jnsgd1na2vs0mg"},{"bike_id":"96c8fdfc-6b86-49b7-80cc-d1ea9c02102d","system_id":"levelo_inurba_marseille","lat":43.30536,"lon":5.36548,"is_reserved":false,"is_disabled":false,"rental_uris":{"android":"levelo://app?vid=96c8fdfc-6b86-49b7-80cc-d1ea9c02102d","ios":"levelo://app?vid=96c8fdfc-6b86-49b7-80cc-d1ea9c02102d"},"vehicle_type_id":"4","last_reported":1746519308,"current_range_meters":24800,"station_id":"ce4bgs12rcd13ifvqcag","pricing_plan_id":"cebpf4jnsgd1na2vs0mg"},{"bike_id":"d3c633cf-fccb-44ba-882e-bbe2d4a638d7","system_id":"levelo_inurba_marseille","lat":43.3014,"lon":5.37423,"is_reserved":false,"is_disabled":false,"rental_uris":{"android":"levelo://app?vid=d3c633cf-fccb-44ba-882e-bbe2d4a638d7","ios":"levelo://app?vid=d3c633cf-fccb-44ba-882e-bbe2d4a638d7"},"vehicle_type_id":"4","last_reported":1746519308,"current_range_meters":24800,"station_id":"ce4bgs92rcd13ifvqcc0","pricing_plan_id":"cebpf4jnsgd1na2vs0mg"},