{"last_updated":1743358345,"ttl":60,"version":"2.2","data":{"bikes":[{"bike_id":"85ea3505-26ef-49f0-8421-421ec0ed2ae7","system_id":"levelo_inurba_marseille","lat":43.30644,"lon":5.40106,"is_reserved":false,"is_disabled":false,"rental_uris":{"android":"levelo://app?vid=85ea3505-26ef-49f0-8421-421ec0ed2ae7","ios":"levelo://app?vid=85ea3505-26ef-49f0-8421-421ec0ed2ae7"},"vehicle_type_id":"4","last_reported":1743358345,"current_range_meters":2800,"station_id":"ce4bh112rcd13ifvqda0","pricing_plan_id":"cebpf4jnsgd1na2vs0mg"},{"bike_id":"da67622a-27e1-448c-b953-9ad71ef5c803","system_id":"levelo_inurba_marseille","lat":43.27832,"lon":5.39197,"is_reserved":false,"is_disabled":false,"rental_uris":{"android":"levelo://app?vid=da67622a-27e1-448c-b953-9ad71ef5c803","ios":"levelo://app?vid=da67622a-27e1-448c-b953-9ad71ef5c803"},"vehicle_type_id":"4","last_reported":1743358345,"current_range_meters":2800,"station_id":"ce4bhjp2rcd13ifvqga0","pricing_plan_id":"cebpf4jnsgd1na2vs0mg"},{"bike_id":"765bb136-d908-40e0-ad8c-58c44d745ced","system_id":"levelo_inurba_marseille","lat":43.3013,"lon":5.39852,"is_reserved":false,"is_disabled":false,"rental_uris":{"android":"levelo://app?vid=765bb136-d908-40e0-ad8c-58c44d745ced","ios":"levelo://app?vid=765bb136-d908-40e0-ad8c-58c44d745ced"},"vehicle_type_id":"4","last_reported":1743358345,"current_range_meters":2800,"station_id":"ce4bh0h2rcd13ifvqd40","pricing_plan_id":"cebpf4jnsgd1na2vs0mg"},{"bike_id":"71819eb5-6acf-4b13-8cf5-46105970c865","system_id":"levelo_inurba_marseille","lat":43.27207,"lon":5.39178,"is_reserved":false,"is_disabled":false,"rental_uris":{"android":"levelo://app?vid=71819eb5-6acf-4b13-8cf5-46105970c865","ios":"levelo://app?vid=71819eb5-6acf-4b13-8cf5-46105970c865"},"vehicle_type_id":"4","last_reported":1743358345,"current_range_meters":2000,"station_id":"ce4bhhp2rcd13ifvqfm0","pricing_plan_id":"cebpf4jnsgd1na2vs0mg"},{"bike_id":"6b9bd8ae-8ee9-4269-b2bd-6c3d8c883a71","system_id":"levelo_inurba_marseille","lat":43.29789,"lon":5.39257,"is_reserved":false,"is_disabled":false,"rental_uris":{"android":"levelo://app?vid=6b9bd8ae-8ee9-4269-b2bd-6c3d8c883a71","ios":"levelo://app?vid=6b9bd8ae-8ee9-4269-b2bd-6c3d8c883a71"},"vehicle_type_id":"4","last_reported":1743358345,"current_range_meters":2800,"station_id":"chh1huq6cuj3fo74tm60","pricing_plan_id":"cebpf4jnsgd1na2vs0mg"},{"bike_id":"ad432b4f-0efb-41ff-8628-c6cfaf2fe745","system_id":"levelo_inurba_marseille","lat":43.308601,"lon":5.372027,"is_reserved":false,"is_disabled":false,"rental_uris":{"android":"levelo://app?vid=ad432b4f-0efb-41ff-8628-c6cfaf2fe745","ios":"levelo://app?vid=ad432b4f-0efb-41ff-8628-c6cfaf2fe745"},"vehicle_type_id":"4","last_reported":1743358345,"current_range_meters":2800,"station_id":"ce4bguh2rcd13ifvqckg","pricing_plan_id":"cebpf4jnsgd1na2vs0mg"},{"bike_id":"dbb9b943-9cd6-404d-872f-b096da3db84e","system_id":"levelo_inurba_marseille","lat":43.30148,"lon":5.39869,"is_reserved":false,"is_disabled":false,"rental_uris":{"android":"levelo://app?vid=dbb9b943-9cd6-404d-872f-b096da3db84e","ios":"levelo://app?vid=dbb9b943-9cd6-404d-872f-b096da3db84e"},"vehicle_type_id":"4","last_reported":1743358345,"current_range_meters":3200,"station_id":"ce4bh0h2rcd13ifvqd40","pricing_plan_id":"cebpf4jnsgd1na2vs0mg"},{"bike_id":"28f70718-5ec3-47e3-86b8-44a096ffd898","system_id":"levelo_inurba_marseille","lat":43.30275,"lon":5.37735,"is_reserved":false,"is_disabled":false,"rental_uris":{"android":"levelo://app?vid=28f70718-5ec3-47e3-86b8-44a096ffd898","ios":"levelo://app?vid=28f70718-5ec3-47e3-86b8-44a096ffd898"},"vehicle_type_id":"4","last_reported":1743358345,"current_range_meters":2800,"station_id":"ce4bguh2rcd13ifvqcj0","pricing_plan_id":"cebpf4jnsgd1na2vs0mg"},{"bike_id":"7c7b84b7-b2b0-4854-bc7f-539618692076","system_id":"levelo_inurba_marseille","lat":43.292071,"lon":5.358113,"is_reserved":false,"is_disabled":false,"rental_uris":{"android":"levelo://app?vid=7c7b84b7-b2b0-4854-bc7f-539618692076","ios":"levelo://app?vid=7c7b84b7-b2b0-4854-bc7f-539618692076"},"vehicle_type_id":"4","last_reported":1743358345,"current_range_meters":2000,"station_id":"ce4bhb12rcd13ifvqel0","pricing_plan_id":"cebpf4jnsgd1na2vs0mg"},{"bike_id":"6c1df1ff-7cfb-4b68-a6da-cad94a58cd87","system_id":"levelo_inurba_marseille","lat":43.28347,"lon":5.38118,"is_reserved":false,"is_disabled":false,"rental_uris":{"android":"levelo://app?vid=6c1df1ff-7cfb-4b68-a6da-cad94a58cd87","ios":"levelo://app?vid=6c1df1ff-7cfb-4b68-a6da-cad94a58cd87"},"vehicle_type_id":"4","last_reported":1743358345,"current_range_meters":3200,"station_id":"ce4bh412rcd13ifvqdr0","pricing_plan_id":"cebpf4jnsgd1na2vs0mg"},{"bike_id":"6dab2c66-6a1f-4db1-a848-a1f017b7c9e1","system_id":"levelo_inurba_marseille","lat":43.23183,"lon":5.39991,"is_reserved":false,"is_disabled":false,"rental_uris":{"android":"levelo://app?vid=6dab2c66-6a1f-4db1-a848-a1f017b7c9e1","ios":"levelo://app?vid=6dab2c66-6a1f-4db1-a848-a1f017b7c9e1"},"vehicle_type_id":"4","last_reported":1743358345,"current_range_meters":3200,"station_id":"ce4bhn12rcd13ifvqgqg","pricing_plan_id":"cebpf4jnsgd1na2vs0mg"},{"bike_id":"a50952e2-9091-49dc-a06e-c918ade3e9f4","system_id":"levelo_inurba_marseille","lat":43.280518,"lon":5.378443,"is_reserved":false,"is_disabled":false,"rental_uris":{"android":"levelo://app?vid=a50952e2-9091-49dc-a06e-c918ade3e9f4","ios":"levelo://app?vid=a50952e2-9091-49dc-a06e-c918ade3e9f4"},"vehicle_type_id":"4","last_reported":1743358345,"current_range_meters":3600,"station_id":"","pricing_plan_id":"cebpf4jnsgd1na2vs0mg"},{"bike_id":"8f50e8aa-3fe1-4c8b-a7f0-a7c2784cef4f","system_id":"levelo_inurba_marseille","lat":43.27315,"lon":5.39081,"is_reserved":false,"is_disabled":true,"rental_uris":{"android":"levelo://app?vid=8f50e8aa-3fe1-4c8b-a7f0-a7c2784cef4f","ios":"levelo://app?vid=8f50e8aa-3fe1-4c8b-a7f0-a7c2784cef4f"},"vehicle_type_id":"4","last_reported":1743358345,"current_range_meters":3600,"station_id":"ce4bhgp2rcd13ifvqfe0","pricing_plan_id":"cebpf4jnsgd1na2vs0mg"},{"bike_id":"7eb56ca3-a72a-4034-9360-4252ce0ada2a","system_id":"levelo_inurba_marseille","lat":43.30256,"lon":5.40079,"is_reserved":false,"is_disabled":false,"rental_uris":{"android":"levelo://app?vid=7eb56ca3-a72a-4034-9360-4252ce0ada2a","ios":"levelo://app?vid=7eb56ca3-a72a-4034-9360-4252ce0ada2a"},"vehicle_type_id":"4","last_reported":1743358345,"current_range_meters":3600,"station_id":"ce4bgvh2rcd13ifvqcs0","pricing_plan_id":"cebpf4jnsgd1na2vs0mg"},{"bike_id":"81ba205a-595a-4598-9d46-ea974928a47e","system_id":"levelo_inurba_marseille","lat":43.28931,"lon":5.38396,"is_reserved":false,"is_disabled":false,"rental_uris":{"android":"levelo://app?vid=81ba205a-595a-4598-9d46-ea974928a47e","ios":"levelo://app?vid=81ba205a-595a-4598-9d46-ea974928a47e"},"vehicle_type_id":"4","last_reported":1743358345,"current_range_meters":3600,"station_id":"ce4bh612rcd13ifvqe6g","pricing_plan_id":"cebpf4jnsgd1na2vs0mg"},{"bike_id":"8d6abdef-27aa-4d1b-9448-656a6296f19d","system_id":"levelo_inurba_marseille","lat":43.24206,"lon":5.39732,"is_reserved":false,"is_disabled":false,"rental_uris":{"android":"levelo://app?vid=8d6abdef-27aa-4d1b-9448-656a6296f19d","ios":"levelo://app?vid=8d6abdef-27aa-4d1b-9448-656a6296f19d"},"vehicle_type_id":"4","last_reported":1743358345,"current_range_meters":3600,"station_id":"ce4bhn12rcd13ifvqgpg","pricing_plan_id":"cebpf4jnsgd1na2vs0mg"},{"bike_id":"33375faf-3a0a-42fd-ba73-7d247d02fa93","system_id":"levelo_inurba_marseille","lat":43.29092,"lon":5.38125,"is_reserved":false,"is_disabled":false,"rental_uris":{"android":"levelo://app?vid=33375faf-3a0a-42fd-ba73-7d247d02fa93","ios":"levelo://app?vid=33375faf-3a0a-42fd-ba73-7d247d02fa93"},"vehicle_type_id":"4","last_reported":1743358345,"current_range_meters":3600,"station_id":"ce4bh512rcd13ifvqe2g","pricing_plan_id":"cebpf4jnsgd1na2vs0mg"},{"bike_id":"64804891-d9af-4eb2-b854-4f3dac50bdad","system_id":"levelo_inurba_marseille","lat":43.3008,"lon":5.39074,"is_reserved":false,"is_disabled":false,"rental_uris":{"android":"levelo://app?vid=64804891-d9af-4eb2-b854-4f3dac50bdad","ios":"levelo://app?vid=64804891-d9af-4eb2-b854-4f3dac50bdad"},"vehicle_type_id":"4","last_reported":1743358345,"current_range_meters":3600,"station_id":"ce4bh192rcd13ifvqdb0","pricing_plan_id":"cebpf4jnsgd1na2vs0mg"},{"bike_id":"c173c392-848a-4972-84c5-cbc1b20f5c25","system_id":"levelo_inurba_marseille","lat":43.28349,"lon":5.38097,"is_reserved":false,"is_disabled":false,"rental_uris":{"android":"levelo://app?vid=c173c392-848a-4972-84c5-cbc1b20f5c25","ios":"levelo://app?vid=c173c392-848a-4972-84c5-cbc1b20f5c25"},"vehicle_type_id":"4","last_reported":1743358345,"current_range_meters":3600,"station_id":"ce4bh412rcd13ifvqdr0","pricing_plan_id":"cebpf4jnsgd1na2vs0mg"},{"bike_id":"5fa76be9-4f44-42b2-9369-ca86f6bbce5c","system_id":"levelo_inurba_marseille","lat":43.26549,"lon":5.3734,"is_reserved":false,"is_disabled":true,"rental_uris":{"android":"levelo://app?vid=5fa76be9-4f44-42b2-9369-ca86f6bbce5c","ios":"levelo://app?vid=5fa76be9-4f44-42b2-9369-ca86f6bbce5c"},"vehicle_type_id":"4","last_reported":1743358345,"current_range_meters":4000,"station_id":"ce4bhg12rcd13ifvqf70","pricing_plan_id":"cebpf4jnsgd1na2vs0mg"},{"bike_id":"93f6422a-1f09-4f9f-9167-bc1b0b63c053","system_id":"levelo_inurba_marseille","lat":43.30225,"lon":5.39478,"is_reserved":false,"is_disabled":false,"rental_uris":{"android":"levelo://app?vid=93f6422a-1f09-4f9f-9167-bc1b0b63c053","ios":"levelo://app?vid=93f6422a-1f09-4f9f-9167-bc1b0b63c053"},"vehicle_type_id":"4","last_reported":1743358345,"current_range_meters":4000,"station_id":"ce4bh0p2rcd13ifvqd70","pricing_plan_id":"cebpf4jnsgd1na2vs0mg"},{"bike_id":"af996261-ee62-4164-b49a-5c265c1fe1e1","system_id":"levelo_inurba_marseille","lat":43.291991,"lon":5.393232,"is_reserved":false,"is_disabled":false,"rental_uris":{"android":"levelo://app?vid=af996261-ee62-4164-b49a-5c265c1fe1e1","ios":"levelo://app?vid=af996261-ee62-4164-b49a-5c265c1fe1e1"},"vehicle_type_id":"4","last_reported":1743358345,"current_range_meters":4000,"station_id":"ce4bh192rcd13ifvqdd0","pricing_plan_id":"cebpf4jnsgd1na2vs0mg"},{"bike_id":"d589a443-f1a8-4405-8ddf-9b78f23bdfc5","system_id":"levelo_inurba_marseille","lat":43.30323,"lon":5.40441,"is_reserved":false,"is_disabled":false,"rental_uris":{"android":"levelo://app?vid=d589a443-f1a8-4405-8ddf-9b78f23bdfc5","ios":"levelo://app?vid=d589a443-f1a8-4405-8ddf-9b78f23bdfc5"},"vehicle_type_id":"4","last_reported":1743358345,"current_range_meters":4000,"station_id":"ce4bh012rcd13ifvqd10","pricing_plan_id":"cebpf4jnsgd1na2vs0mg"},{"bike_id":"a3e54627-ebf1-4f9e-8617-9cfc55600679","system_id":"levelo_inurba_marseille","lat":43.308,"lon":5.38159,"is_reserved":false,"is_disabled":false,"rental_uris":{"android":"levelo://app?vid=a3e54627-ebf1-4f9e-8617-9cfc55600679","ios":"levelo://app?vid=a3e54627-ebf1-4f9e-8617-9cfc55600679"},"vehicle_type_id":"4","last_reported":1743358345,"current_range_meters":4000,"station_id":"ce4bgt12rcd13ifvqce0","pricing_plan_id":"cebpf4jnsgd1na2vs0mg"},{"bike_id":"55fa025f-07c2-4e83-9b1b-5d3ded1504e5","system_id":"levelo_inurba_marseille","lat":43.295259,"lon":5.390524,"is_reserved":false,"is_disabled":false,"rental_uris":{"android":"levelo://app?vid=55fa025f-07c2-4e83-9b1b-5d3ded1504e5","ios":"levelo://app?vid=55fa025f-07c2-4e83-9b1b-5d3ded1504e5"},"vehicle_type_id":"4","last_reported":1743358345,"current_range_meters":4000,"station_id":"ce4bh3p2rcd13ifvqdp0","pricing_plan_id":"cebpf4jnsgd1na2vs0mg"},{"bike_id":"bf36c0a8-c927-4ba0-97b6-42b624ea06d7","system_id":"levelo_inurba_marseille","lat":43.24387,"lon":5.37056,"is_reserved":false,"is_disabled":false,"rental_uris":{"android":"levelo://app?vid=bf36c0a8-c927-4ba0-97b6-42b624ea06d7","ios":"levelo://app?vid=bf36c0a8-c927-4ba0-97b6-42b624ea06d7"},"vehicle_type_id":"4","last_reported":1743358345,"current_range_meters":4000,"station_id":"ce4bhhh2rcd13ifvqfk0","pricing_plan_id":"cebpf4jnsgd1na2vs0mg"},{"bike_id":"5b28c1fa-262a-45f4-9e9d-8377c5992d83","system_id":"levelo_inurba_marseille","lat":43.31326,"lon":5.39698,"is_reserved":false,"is_disabled":false,"rental_uris":{"android":"levelo://app?vid=5b28c1fa-262a-45f4-9e9d-8377c5992d83","ios":"levelo://app?vid=5b28c1fa-262a-45f4-9e9d-8377c5992d83"},"vehicle_type_id":"4","last_reported":1743358345,"current_range_meters":4400,"station_id":"ce4bgvp2rcd13ifvqcu0","pricing_plan_id":"cebpf4jnsgd1na2vs0mg"},{"bike_id":"594c6e3b-deb8-43c9-a366-beb353a8f8f3","system_id":"levelo_inurba_marseille","lat":43.29262,"lon":5.38436,"is_reserved":false,"is_disabled":false,"rental_uris":{"android":"levelo://app?vid=594c6e3b-deb8-43c9-a366-beb353a8f8f3","ios":"levelo://app?vid=594c6e3b-deb8-43c9-a366-beb353a8f8f3"},"vehicle_type_id":"4","last_reported":1743358345,"current_range_meters":4400,"station_id":"ce4bh692rcd13ifvqea0","pricing_plan_id":"cebpf4jnsgd1na2vs0mg"},{"bike_id":"8b16a17e-3af7-451c-87d6-c9f11b984f7f","system_id":"levelo_inurba_marseille","lat":43.295288,"lon":5.385401,"is_reserved":false,"is_disabled":false,"rental_uris":{"android":"levelo://app?vid=8b16a17e-3af7-451c-87d6-c9f11b984f7f","ios":"levelo://app?vid=8b16a17e-3af7-451c-87d6-c9f11b984f7f"},"vehicle_type_id":"4","last_reported":1743358345,"current_range_meters":4400,"station_id":"ce4bgih2rcd13ifvqba0","pricing_plan_id":"cebpf4jnsgd1na2vs0mg"},{"bike_id":"b5ace6c6-32e3-486d-9744-efb1ce0dfa9d","system_id":"levelo_inurba_marseille","lat":43.28909,"lon":5.36658,"is_reserved":false,"is_disabled":true,"rental_uris":{"android":"levelo://app?vid=b5ace6c6-32e3-486d-9744-efb1ce0dfa9d","ios":"levelo://app?vid=b5ace6c6-32e3-486d-9744-efb1ce0dfa9d"},"vehicle_type_id":"4","last_reported":1743358345,"current_range_meters":4400,"station_id":"ce4bhap2rcd13ifvqek0","pricing_plan_id":"cebpf4jnsgd1na2vs0mg"},{"bike_id":"71d06642-6ce8-47d3-b243-43ace2f8450a","system_id":"levelo_inurba_marseille","lat":43.25572,"lon":5.38254,"is_reserved":false,"is_disabled":false,"rental_uris":{"android":"levelo://app?vid=71d06642-6ce8-47d3-b243-43ace2f8450a","ios":"levelo://app?vid=71d06642-6ce8-47d3-b243-43ace2f8450a"},"vehicle_type_id":"4","last_reported":1743358345,"current_range_meters":4400,"station_id":"ce4bhih2rcd13ifvqfs0","pricing_plan_id":"cebpf4jnsgd1na2vs0mg"},{"bike_id":"0fa1e700-632d-42fc-b00c-a191add3ec64","system_id":"levelo_inurba_marseille","lat":43.30174,"lon":5.366355,"is_reserved":false,"is_disabled":false,"rental_uris":{"android":"levelo://app?vid=0fa1e700-632d-42fc-b00c-a191add3ec64","ios":"levelo://app?vid=0fa1e700-632d-42fc-b00c-a191add3ec64"},"vehicle_type_id":"4","last_reported":1743358345,"current_range_meters":4400,"station_id":"ce4bh012rcd13ifvqcv0","pricing_plan_id":"cebpf4jnsgd1na2vs0mg"},{"bike_id":"7da0cd74-2d8c-446e-b808-fa2501bf13e7","system_id":"levelo_inurba_marseille","lat":43.31755,"lon":5.39026,"is_reserved":false,"is_disabled":false,"rental_uris":{"android":"levelo://app?vid=7da0cd74-2d8c-446e-b808-fa2501bf13e7","ios":"levelo://app?vid=7da0cd74-2d8c-446e-b808-fa2501bf13e7"},"vehicle_type_id":"4","last_reported":1743358345,"current_range_meters":4400,"station_id":"ce4bhqp2rcd13ifvqhng","pricing_plan_id":"cebpf4jnsgd1na2vs0mg"},{"bike_id":"f247edf8-4742-4130-aaed-c423703f6865","system_id":"levelo_inurba_marseille","lat":43.2894,"lon":5.36637,"is_reserved":false,"is_disabled":false,"rental_uris":{"android":"levelo://app?vid=f247edf8-4742-4130-aaed-c423703f6865","ios":"levelo://app?vid=f247edf8-4742-4130-aaed-c423703f6865"},"vehicle_type_id":"4","last_reported":1743358345,"current_range_meters":4400,"station_id":"ce4bhap2rcd13ifvqek0","pricing_plan_id":"cebpf4jnsgd1na2vs0mg"},{"bike_id":"fe4af0d0-50a0-4dc2-aa81-9685a5fe30c6","system_id":"levelo_inurba_marseille","lat":43.28612,"lon":5.35104,"is_reserved":false,"is_disabled":false,"rental_uris":{"android":"levelo://app?vid=fe4af0d0-50a0-4dc2-aa81-9685a5fe30c6","ios":"levelo://app?vid=fe4af0d0-50a0-4dc2-aa81-9685a5fe30c6"},"vehicle_type_id":"4","last_reported":1743358345,"current_range_meters":4800,"station_id":"ce4bhch2rcd13ifvqeug","pricing_plan_id":"cebpf4jnsgd1na2vs0mg"},{"bike_id":"c6c307e6-fe13-464d-9a3b-38a60eff079a","system_id":"levelo_inurba_marseille","lat":43.27666,"lon":5.38886,"is_reserved":false,"is_disabled":false,"rental_uris":{"android":"levelo://app?vid=c6c307e6-fe13-464d-9a3b-38a60eff079a","ios":"levelo://app?vid=c6c307e6-fe13-464d-9a3b-38a60eff079a"},"vehicle_type_id":"4","last_reported":1743358345,"current_range_meters":4800,"station_id":"ce4bhi12rcd13ifvqfo0","pricing_plan_id":"cebpf4jnsgd1na2vs0mg"},{"bike_id":"45b39ac3-5c83-479c-8bea-31881598bb52","system_id":"levelo_inurba_marseille","lat":43.29607,"lon":5.37718,"is_reserved":false,"is_disabled":false,"rental_uris":{"android":"levelo://app?vid=45b39ac3-5c83-479c-8bea-31881598bb52","ios":"levelo://app?vid=45b39ac3-5c83-479c-8bea-31881598bb52"},"vehicle_type_id":"4","last_reported":1743358345,"current_range_meters":4800,"station_id":"ce4bgi92rcd13ifvqb90","pricing_plan_id":"cebpf4jnsgd1na2vs0mg"},{"bike_id":"5fc83974-2ed1-47b1-902a-9ca92a7b1fb1","system_id":"levelo_inurba_marseille","lat":43.26065,"lon":5.39394,"is_reserved":false,"is_disabled":false,"rental_uris":{"android":"levelo://app?vid=5fc83974-2ed1-47b1-902a-9ca92a7b1fb1","ios":"levelo://app?vid=5fc83974-2ed1-47b1-902a-9ca92a7b1fb1"},"vehicle_type_id":"4","last_reported":1743358345,"current_range_meters":4800,"station_id":"ce4bhh92rcd13ifvqfj0","pricing_plan_id":"cebpf4jnsgd1na2vs0mg"},{"bike_id":"80507833-57fc-4199-a0f8-32eca269665b","system_id":"levelo_inurba_marseille","lat":43.24206,"lon":5.36443,"is_reserved":false,"is_disabled":false,"rental_uris":{"android":"levelo://app?vid=80507833-57fc-4199-a0f8-32eca269665b","ios":"levelo://app?vid=80507833-57fc-4199-a0f8-32eca269665b"},"vehicle_type_id":"4","last_reported":1743358345,"current_range_meters":4800,"station_id":"","pricing_plan_id":"cebpf4jnsgd1na2vs0mg"},{"bike_id":"efee9888-2fc1-47ca-81f4-c4e9c12a0fc8","system_id":"levelo_inurba_marseille","lat":43.27969,"lon":5.38714,"is_reserved":false,"is_disabled":false,"rental_uris":{"android":"levelo://app?vid=efee9888-2fc1-47ca-81f4-c4e9c12a0fc8","ios":"levelo://app?vid=efee9888-2fc1-47ca-81f4-c4e9c12a0fc8"},"vehicle_type_id":"4","last_reported":1743358345,"current_range_meters":4400,"station_id":"ce4bhg12rcd13ifvqf80","pricing_plan_id":"cebpf4jnsgd1na2vs0mg"},{"bike_id":"d8cd430a-ec97-45db-a9d1-9d7b9e88dd86","system_id":"levelo_inurba_marseille","lat":43.32369,"lon":5.38877,"is_reserved":false,"is_disabled":false,"rental_uris":{"android":"levelo://app?vid=d8cd430a-ec97-45db-a9d1-9d7b9e88dd86","ios":"levelo://app?vid=d8cd430a-ec97-45db-a9d1-9d7b9e88dd86"},"vehicle_type_id":"4","last_reported":1743358345,"current_range_meters":4800,"station_id":"ce4bhqp2rcd13ifvqhog","pricing_plan_id":"cebpf4jnsgd1na2vs0mg"},{"bike_id":"932393ae-81a4-4a79-9813-f1f0a4c478f4","system_id":"levelo_inurba_marseille","lat":43.30766,"lon":5.3766,"is_reserved":false,"is_disabled":false,"rental_uris":{"android":"levelo://app?vid=932393ae-81a4-4a79-9813-f1f0a4c478f4","ios":"levelo://app?vid=932393ae-81a4-4a79-9813-f1f0a4c478f4"},"vehicle_type_id":"4","last_reported":1743358345,"current_range_meters":4800,"station_id":"ce4bgv92rcd13ifvqcq0","pricing_plan_id":"cebpf4jnsgd1na2vs0mg"},{"bike_id":"a8042ec9-7299-4841-a895-3b928dfd3b81","system_id":"levelo_inurba_marseille","lat":43.284802,"lon":5.385526,"is_reserved":false,"is_disabled":false,"rental_uris":{"android":"levelo://app?vid=a8042ec9-7299-4841-a895-3b928dfd3b81","ios":"levelo://app?vid=a8042ec9-7299-4841-a895-3b928dfd3b81"},"vehicle_type_id":"4","last_reported":1743358345,"current_range_meters":4400,"station_id":"ce4bho12rcd13ifvqh1g","pricing_plan_id":"cebpf4jnsgd1na2vs0mg"},{"bike_id":"1a90b5de-03b3-493a-bac9-c4e8a3bda588","system_id":"levelo_inurba_marseille","lat":43.30293,"lon":5.39211,"is_reserved":false,"is_disabled":false,"rental_uris":{"android":"levelo://app?vid=1a90b5de-03b3-493a-bac9-c4e8a3bda588","ios":"levelo://app?vid=1a90b5de-03b3-493a-bac9-c4e8a3bda588"},"vehicle_type_id":"4","last_reported":1743358345,"current_range_meters":4800,"station_id":"ce4bgkh2rcd13ifvqbk0","pricing_plan_id":"cebpf4jnsgd1na2vs0mg"},{"bike_id":"90e43240-5fbb-4984-89b9-4fe361656612","system_id":"levelo_inurba_marseille","lat":43.28689,"lon":5.37375,"is_reserved":false,"is_disabled":false,"rental_uris":{"android":"levelo://app?vid=90e43240-5fbb-4984-89b9-4fe361656612","ios":"levelo://app?vid=90e43240-5fbb-4984-89b9-4fe361656612"},"vehicle_type_id":"4","last_reported":1743358345,"current_range_meters":4800,"station_id":"ce4bh3p2rcd13ifvqdq0","pricing_plan_id":"cebpf4jnsgd1na2vs0mg"},{"bike_id":"76f090d6-593e-4328-9821-d36863285941","system_id":"levelo_inurba_marseille","lat":43.28611,"lon":5.37065,"is_reserved":false,"is_disabled":false,"rental_uris":{"android":"levelo://app?vid=76f090d6-593e-4328-9821-d36863285941","ios":"levelo://app?vid=76f090d6-593e-4328-9821-d36863285941"},"vehicle_type_id":"4","last_reported":1743358345,"current_range_meters":4800,"station_id":"ce4bht12rcd13ifvqi60","pricing_plan_id":"cebpf4jnsgd1na2vs0mg"},{"bike_id":"87520d6d-6fa4-4559-a201-f2ca4fa1487f","system_id":"levelo_inurba_marseille","lat":43.24391,"lon":5.37063,"is_reserved":false,"is_disabled":true,"rental_uris":{"android":"levelo://app?vid=87520d6d-6fa4-4559-a201-f2ca4fa1487f","ios":"levelo://app?vid=87520d6d-6fa4-4559-a201-f2ca4fa1487f"},"vehicle_type_id":"4","last_reported":1743358345,"current_range_meters":4800,"station_id":"ce4bhhh2rcd13ifvqfk0","pricing_plan_id":"cebpf4jnsgd1na2vs0mg"},{"bike_id":"313c42f7-cd5a-4794-be6a-120fc723617e","system_id":"levelo_inurba_marseille","lat":43.29028,"lon":5.38136,"is_reserved":false,"is_disabled":false,"rental_uris":{"android":"levelo://app?vid=313c42f7-cd5a-4794-be6a-120fc723617e","ios":"levelo://app?vid=313c42f7-cd5a-4794-be6a-120fc723617e"},"vehicle_type_id":"4","last_reported":1743358345,"current_range_meters":4800,"station_id":"ce4bh4p2rcd13ifvqe1g","pricing_plan_id":"cebpf4jnsgd1na2vs0mg"},{"bike_id":"5c0a1fd8-e8d8-46b0-b59b-e1254855ec6a","system_id":"levelo_inurba_marseille","lat":43.30313,"lon":5.40471,"is_reserved":false,"is_disabled":false,"rental_uris":{"android":"levelo://app?vid=5c0a1fd8-e8d8-46b0-b59b-e1254855ec6a","ios":"levelo://app?vid=5c0a1fd8-e8d8-46b0-b59b-e1254855ec6a"},"vehicle_type_id":"4","last_reported":1743358345,"current_range_meters":4800,"station_id":"ce4bh012rcd13ifvqd10","pricing_plan_id":"cebpf4jnsgd1na2vs0mg"},{"bike_id":"d995cbbb-42c3-43bc-bc47-c5fd8d6abcd6","system_id":"levelo_inurba_marseille","lat":43.2923,"lon":5.39351,"is_reserved":false,"is_disabled":false,"rental_uris":{"android":"levelo://app?vid=d995cbbb-42c3-43bc-bc47-c5fd8d6abcd6","ios":"levelo://app?vid=d995cbbb-42c3-43bc-bc47-c5fd8d6abcd6"},"vehicle_type_id":"4","last_reported":1743358345,"current_range_meters":4800,"station_id":"","pricing_plan_id":"cebpf4jnsgd1na2vs0mg"},{"bike_id":"d0b12979-a027-442f-97b2-e2e696d0b330","system_id":"levelo_inurba_marseille","lat":43.231955,"lon":5.35547,"is_reserved":false,"is_disabled":false,"rental_uris":{"android":"levelo://app?vid=d0b12979-a027-442f-97b2-e2e696d0b330","ios":"levelo://app?vid=d0b12979-a027-442f-97b2-e2e696d0b330"},"vehicle_type_id":"4","last_reported":1743358345,"current_range_meters":5600,"station_id":"ce4bhu92rcd13ifvqi70","pricing_plan_id":"cebpf4jnsgd1na2vs0mg"},{"bike_id":"15fc57e3-f8e1-490d-8668-d86412b51777","system_id":"levelo_inurba_marseille","lat":43.28937,"lon":5.36635,"is_reserved":false,"is_disabled":false,"rental_uris":{"android":"levelo://app?vid=15fc57e3-f8e1-490d-8668-d86412b51777","ios":"levelo://app?vid=15fc57e3-f8e1-490d-8668-d86412b51777"},"vehicle_type_id":"4","last_reported":1743358345,"current_range_meters":5600,"station_id":"ce4bhap2rcd13ifvqek0","pricing_plan_id":"cebpf4jnsgd1na2vs0mg"},{"bike_id":"d7f9cf53-5005-48c2-9872-846448bfc5c4","system_id":"levelo_inurba_marseille","lat":43.29634,"lon":5.40602,"is_reserved":false,"is_disabled":false,"rental_uris":{"android":"levelo://app?vid=d7f9cf53-5005-48c2-9872-846448bfc5c4","ios":"levelo://app?vid=d7f9cf53-5005-48c2-9872-846448bfc5c4"},"vehicle_type_id":"4","last_reported":1743358345,"current_range_meters":5600,"station_id":"ce4bh0h2rcd13ifvqd60","pricing_plan_id":"cebpf4jnsgd1na2vs0mg"},{"bike_id":"712d5ede-33be-42f9-8c96-605bf078fa59","system_id":"levelo_inurba_marseille","lat":43.24183,"lon":5.36384,"is_reserved":false,"is_disabled":false,"rental_uris":{"android":"levelo://app?vid=712d5ede-33be-42f9-8c96-605bf078fa59","ios":"levelo://app?vid=712d5ede-33be-42f9-8c96-605bf078fa59"},"vehicle_type_id":"4","last_reported":1743358345,"current_range_meters":5600,"station_id":"cpo36qri1sfpv3e86is0","pricing_plan_id":"cebpf4jnsgd1na2vs0mg"},{"bike_id":"d5be5b9a-7221-4992-83e9-31a6473c19ba","system_id":"levelo_inurba_marseille","lat":43.29422,"lon":5.38619,"is_reserved":false,"is_disabled":false,"rental_uris":{"android":"levelo://app?vid=d5be5b9a-7221-4992-83e9-31a6473c19ba","ios":"levelo://app?vid=d5be5b9a-7221-4992-83e9-31a6473c19ba"},"vehicle_type_id":"4","last_reported":1743358345,"current_range_meters":5600,"station_id":"ce4bh2h2rcd13ifvqdh0","pricing_plan_id":"cebpf4jnsgd1na2vs0mg"},{"bike_id":"603d50f9-1fa9-441c-a467-8f0460aecc04","system_id":"levelo_inurba_marseille","lat":43.29038,"lon":5.38622,"is_reserved":false,"is_disabled":false,"rental_uris":{"android":"levelo://app?vid=603d50f9-1fa9-441c-a467-8f0460aecc04","ios":"levelo://app?vid=603d50f9-1fa9-441c-a467-8f0460aecc04"},"vehicle_type_id":"4","last_reported":1743358345,"current_range_meters":5600,"station_id":"ce4bh4p2rcd13ifvqe0g","pricing_plan_id":"cebpf4jnsgd1na2vs0mg"},{"bike_id":"975eb314-5ca8-4f92-9d3e-d76e23f7254d","system_id":"levelo_inurba_marseille","lat":43.28699,"lon":5.38633,"is_reserved":false,"is_disabled":true,"rental_uris":{"android":"levelo://app?vid=975eb314-5ca8-4f92-9d3e-d76e23f7254d","ios":"levelo://app?vid=975eb314-5ca8-4f92-9d3e-d76e23f7254d"},"vehicle_type_id":"4","last_reported":1743358345,"current_range_meters":5600,"station_id":"","pricing_plan_id":"cebpf4jnsgd1na2vs0mg"},{"bike_id":"661824e9-d4ee-451f-b069-3689d4d6152b","system_id":"levelo_inurba_marseille","lat":43.29903,"lon":5.38147,"is_reserved":false,"is_disabled":false,"rental_uris":{"android":"levelo://app?vid=661824e9-d4ee-451f-b069-3689d4d6152b","ios":"levelo://app?vid=661824e9-d4ee-451f-b069-3689d4d6152b"},"vehicle_type_id":"4","last_reported":1743358345,"current_range_meters":5600,"station_id":"ce4bgj12rcd13ifvqbc0","pricing_plan_id":"cebpf4jnsgd1na2vs0mg"},{"bike_id":"142332ad-ff3a-4245-b49f-0348d89f13d8","system_id":"levelo_inurba_marseille","lat":43.23192,"lon":5.35558,"is_reserved":false,"is_disabled":false,"rental_uris":{"android":"levelo://app?vid=142332ad-ff3a-4245-b49f-0348d89f13d8","ios":"levelo://app?vid=142332ad-ff3a-4245-b49f-0348d89f13d8"},"vehicle_type_id":"4","last_reported":1743358345,"current_range_meters":4800,"station_id":"ce4bhu92rcd13ifvqi70","pricing_plan_id":"cebpf4jnsgd1na2vs0mg"},{"bike_id":"d54ab517-7666-48e0-8674-a12c277f833d","system_id":"levelo_inurba_marseille","lat":43.27621,"lon":5.36114,"is_reserved":false,"is_disabled":false,"rental_uris":{"android":"levelo://app?vid=d54ab517-7666-48e0-8674-a12c277f833d","ios":"levelo://app?vid=d54ab517-7666-48e0-8674-a12c277f833d"},"vehicle_type_id":"4","last_reported":1743358345,"current_range_meters":5600,"station_id":"ce4bgj92rcd13ifvqbe0","pricing_plan_id":"cebpf4jnsgd1na2vs0mg"},{"bike_id":"42e2b83a-7a61-4284-8fc4-57c9f8b4cc16","system_id":"levelo_inurba_marseille","lat":43.28615,"lon":5.37069,"is_reserved":false,"is_disabled":false,"rental_uris":{"android":"levelo://app?vid=42e2b83a-7a61-4284-8fc4-57c9f8b4cc16","ios":"levelo://app?vid=42e2b83a-7a61-4284-8fc4-57c9f8b4cc16"},"vehicle_type_id":"4","last_reported":1743358345,"current_range_meters":5600,"station_id":"ce4bht12rcd13ifvqi60","pricing_plan_id":"cebpf4jnsgd1na2vs0mg"},{"bike_id":"085a361f-7074-488c-ad0a-3b0a850a01fb","system_id":"levelo_inurba_marseille","lat":43.2738,"lon":5.36252,"is_reserved":false,"is_disabled":true,"rental_uris":{"android":"levelo://app?vid=085a361f-7074-488c-ad0a-3b0a850a01fb","ios":"levelo://app?vid=085a361f-7074-488c-ad0a-3b0a850a01fb"},"vehicle_type_id":"4","last_reported":1743358345,"current_range_meters":6000,"station_id":"ce4bhbh2rcd13ifvqeo0","pricing_plan_id":"cebpf4jnsgd1na2vs0mg"},{"bike_id":"e4023b76-3b3e-4e0a-83d8-f1f2c86a9a1a","system_id":"levelo_inurba_marseille","lat":43.25087,"lon":5.39521,"is_reserved":false,"is_disabled":false,"rental_uris":{"android":"levelo://app?vid=e4023b76-3b3e-4e0a-83d8-f1f2c86a9a1a","ios":"levelo://app?vid=e4023b76-3b3e-4e0a-83d8-f1f2c86a9a1a"},"vehicle_type_id":"4","last_reported":1743358345,"current_range_meters":6000,"station_id":"ce4bhm12rcd13ifvqgkg","pricing_plan_id":"cebpf4jnsgd1na2vs0mg"},{"bike_id":"e49c67cf-164e-41a0-8c58-f647e733158c","system_id":"levelo_inurba_marseille","lat":43.273716,"lon":5.362605,"is_reserved":false,"is_disabled":false,"rental_uris":{"android":"levelo://app?vid=e49c67cf-164e-41a0-8c58-f647e733158c","ios":"levelo://app?vid=e49c67cf-164e-41a0-8c58-f647e733158c"},"vehicle_type_id":"4","last_reported":1743358345,"current_range_meters":6000,"station_id":"ce4bhbh2rcd13ifvqeo0","pricing_plan_id":"cebpf4jnsgd1na2vs0mg"},{"bike_id":"7eb8ed2b-e850-4e97-841e-614b087a0686","system_id":"levelo_inurba_marseille","lat":43.30774,"lon":5.37655,"is_reserved":false,"is_disabled":false,"rental_uris":{"android":"levelo://app?vid=7eb8ed2b-e850-4e97-841e-614b087a0686","ios":"levelo://app?vid=7eb8ed2b-e850-4e97-841e-614b087a0686"},"vehicle_type_id":"4","last_reported":1743358345,"current_range_meters":6000,"station_id":"ce4bgv92rcd13ifvqcq0","pricing_plan_id":"cebpf4jnsgd1na2vs0mg"},{"bike_id":"6393a09d-8271-43e3-8f63-d98155c220e6","system_id":"levelo_inurba_marseille","lat":43.29034,"lon":5.38132,"is_reserved":false,"is_disabled":false,"rental_uris":{"android":"levelo://app?vid=6393a09d-8271-43e3-8f63-d98155c220e6","ios":"levelo://app?vid=6393a09d-8271-43e3-8f63-d98155c220e6"},"vehicle_type_id":"4","last_reported":1743358345,"current_range_meters":6000,"station_id":"ce4bh4p2rcd13ifvqe1g","pricing_plan_id":"cebpf4jnsgd1na2vs0mg"},{"bike_id":"01668041-f320-481f-8c08-59422aef6737","system_id":"levelo_inurba_marseille","lat":43.28349,"lon":5.38108,"is_reserved":false,"is_disabled":false,"rental_uris":{"android":"levelo://app?vid=01668041-f320-481f-8c08-59422aef6737","ios":"levelo://app?vid=01668041-f320-481f-8c08-59422aef6737"},"vehicle_type_id":"4","last_reported":1743358345,"current_range_meters":6000,"station_id":"ce4bh412rcd13ifvqdr0","pricing_plan_id":"cebpf4jnsgd1na2vs0mg"},{"bike_id":"94145658-1b5e-469a-b1f9-532b62b2a59c","system_id":"levelo_inurba_marseille","lat":43.28352,"lon":5.38109,"is_reserved":false,"is_disabled":false,"rental_uris":{"android":"levelo://app?vid=94145658-1b5e-469a-b1f9-532b62b2a59c","ios":"levelo://app?vid=94145658-1b5e-469a-b1f9-532b62b2a59c"},"vehicle_type_id":"4","last_reported":1743358345,"current_range_meters":6000,"station_id":"ce4bh412rcd13ifvqdr0","pricing_plan_id":"cebpf4jnsgd1na2vs0mg"},{"bike_id":"52bf090c-5f96-4e60-aae0-43c281159446","system_id":"levelo_inurba_marseille","lat":43.29521,"lon":5.39019,"is_reserved":false,"is_disabled":false,"rental_uris":{"android":"levelo://app?vid=52bf090c-5f96-4e60-aae0-43c281159446","ios":"levelo://app?vid=52bf090c-5f96-4e60-aae0-43c281159446"},"vehicle_type_id":"4","last_reported":1743358345,"current_range_meters":6000,"station_id":"ce4bh3p2rcd13ifvqdp0","pricing_plan_id":"cebpf4jnsgd1na2vs0mg"},{"bike_id":"5bd5c189-afd0-44ae-b91a-4b596405f990","system_id":"levelo_inurba_marseille","lat":43.3015,"lon":5.37421,"is_reserved":false,"is_disabled":false,"rental_uris":{"android":"levelo://app?vid=5bd5c189-afd0-44ae-b91a-4b596405f990","ios":"levelo://app?vid=5bd5c189-afd0-44ae-b91a-4b596405f990"},"vehicle_type_id":"4","last_reported":1743358345,"current_range_meters":6000,"station_id":"ce4bgs92rcd13ifvqcc0","pricing_plan_id":"cebpf4jnsgd1na2vs0mg"},{"bike_id":"6badbdf1-9f6c-48e5-b4b3-1b4b2854f24d","system_id":"levelo_inurba_marseille","lat":43.267789,"lon":5.394217,"is_reserved":false,"is_disabled":false,"rental_uris":{"android":"levelo://app?vid=6badbdf1-9f6c-48e5-b4b3-1b4b2854f24d","ios":"levelo://app?vid=6badbdf1-9f6c-48e5-b4b3-1b4b2854f24d"},"vehicle_type_id":"4","last_reported":1743358345,"current_range_meters":6400,"station_id":"ce4bhh12rcd13ifvqfg0","pricing_plan_id":"cebpf4jnsgd1na2vs0mg"},{"bike_id":"bf7fbe64-89fa-4028-9a18-1edcf561fda4","system_id":"levelo_inurba_marseille","lat":43.27674,"lon":5.38908,"is_reserved":false,"is_disabled":false,"rental_uris":{"android":"levelo://app?vid=bf7fbe64-89fa-4028-9a18-1edcf561fda4","ios":"levelo://app?vid=bf7fbe64-89fa-4028-9a18-1edcf561fda4"},"vehicle_type_id":"4","last_reported":1743358345,"current_range_meters":6400,"station_id":"ce4bhi12rcd13ifvqfo0","pricing_plan_id":"cebpf4jnsgd1na2vs0mg"},{"bike_id":"0bd05e5a-21c4-4c5d-8e58-f818e6cbd2b3","system_id":"levelo_inurba_marseille","lat":43.3089,"lon":5.39646,"is_reserved":false,"is_disabled":false,"rental_uris":{"android":"levelo://app?vid=0bd05e5a-21c4-4c5d-8e58-f818e6cbd2b3","ios":"levelo://app?vid=0bd05e5a-21c4-4c5d-8e58-f818e6cbd2b3"},"vehicle_type_id":"4","last_reported":1743358345,"current_range_meters":6400,"station_id":"ce4bh012rcd13ifvqcv0","pricing_plan_id":"cebpf4jnsgd1na2vs0mg"},{"bike_id":"8c96cd16-71aa-4011-87e1-e2b9a6a56c61","system_id":"levelo_inurba_marseille","lat":43.30133,"lon":5.38787,"is_reserved":false,"is_disabled":false,"rental_uris":{"android":"levelo://app?vid=8c96cd16-71aa-4011-87e1-e2b9a6a56c61","ios":"levelo://app?vid=8c96cd16-71aa-4011-87e1-e2b9a6a56c61"},"vehicle_type_id":"4","last_reported":1743358345,"current_range_meters":6400,"station_id":"ce4bghh2rcd13ifvqb60","pricing_plan_id":"cebpf4jnsgd1na2vs0mg"},{"bike_id":"360d9955-ff3f-47af-ab0b-5ac80505515c","system_id":"levelo_inurba_marseille","lat":43.24684,"lon":5.3812,"is_reserved":false,"is_disabled":false,"rental_uris":{"android":"levelo://app?vid=360d9955-ff3f-47af-ab0b-5ac80505515c","ios":"levelo://app?vid=360d9955-ff3f-47af-ab0b-5ac80505515c"},"vehicle_type_id":"4","last_reported":1743358345,"current_range_meters":6400,"station_id":"ce4bhih2rcd13ifvqfr0","pricing_plan_id":"cebpf4jnsgd1na2vs0mg"},{"bike_id":"db6afc64-32dd-4008-a5fa-5616a1b14393","system_id":"levelo_inurba_marseille","lat":43.29886,"lon":5.38144,"is_reserved":false,"is_disabled":false,"rental_uris":{"android":"levelo://app?vid=db6afc64-32dd-4008-a5fa-5616a1b14393","ios":"levelo://app?vid=db6afc64-32dd-4008-a5fa-5616a1b14393"},"vehicle_type_id":"4","last_reported":1743358345,"current_range_meters":6400,"station_id":"ce4bgj12rcd13ifvqbc0","pricing_plan_id":"cebpf4jnsgd1na2vs0mg"},{"bike_id":"4ac85f9e-5b07-4e93-b0ae-477825bffb27","system_id":"levelo_inurba_marseille","lat":43.23201,"lon":5.3556,"is_reserved":false,"is_disabled":false,"rental_uris":{"android":"levelo://app?vid=4ac85f9e-5b07-4e93-b0ae-477825bffb27","ios":"levelo://app?vid=4ac85f9e-5b07-4e93-b0ae-477825bffb27"},"vehicle_type_id":"4","last_reported":1743358345,"current_range_meters":6400,"station_id":"ce4bhu92rcd13ifvqi70","pricing_plan_id":"cebpf4jnsgd1na2vs0mg"},{"bike_id":"c581cb00-4793-4fca-aafa-4f0dd403eab9","system_id":"levelo_inurba_marseille","lat":43.26195,"lon":5.37448,"is_reserved":false,"is_disabled":false,"rental_uris":{"android":"levelo://app?vid=c581cb00-4793-4fca-aafa-4f0dd403eab9","ios":"levelo://app?vid=c581cb00-4793-4fca-aafa-4f0dd403eab9"},"vehicle_type_id":"4","last_reported":1743358345,"current_range_meters":6400,"station_id":"ce4bhgp2rcd13ifvqfc0","pricing_plan_id":"cebpf4jnsgd1na2vs0mg"},{"bike_id":"d1b709ca-78ae-45f7-a8ff-ebaf29766977","system_id":"levelo_inurba_marseille","lat":43.2894,"lon":5.36637,"is_reserved":false,"is_disabled":false,"rental_uris":{"android":"levelo://app?vid=d1b709ca-78ae-45f7-a8ff-ebaf29766977","ios":"levelo://app?vid=d1b709ca-78ae-45f7-a8ff-ebaf29766977"},"vehicle_type_id":"4","last_reported":1743358345,"current_range_meters":6400,"station_id":"ce4bhap2rcd13ifvqek0","pricing_plan_id":"cebpf4jnsgd1na2vs0mg"},{"bike_id":"2c9578af-b0d9-47f5-ad7f-24de6a285c12","system_id":"levelo_inurba_marseille","lat":43.2909,"lon":5.38139,"is_reserved":false,"is_disabled":false,"rental_uris":{"android":"levelo://app?vid=2c9578af-b0d9-47f5-ad7f-24de6a285c12","ios":"levelo://app?vid=2c9578af-b0d9-47f5-ad7f-24de6a285c12"},"vehicle_type_id":"4","last_reported":1743358345,"current_range_meters":6400,"station_id":"ce4bh512rcd13ifvqe2g","pricing_plan_id":"cebpf4jnsgd1na2vs0mg"},{"bike_id":"5a3307a6-54ca-44bc-a5fd-ab80751e6464","system_id":"levelo_inurba_marseille","lat":43.23185,"lon":5.39992,"is_reserved":false,"is_disabled":true,"rental_uris":{"android":"levelo://app?vid=5a3307a6-54ca-44bc-a5fd-ab80751e6464","ios":"levelo://app?vid=5a3307a6-54ca-44bc-a5fd-ab80751e6464"},"vehicle_type_id":"4","last_reported":1743358345,"current_range_meters":6400,"station_id":"ce4bhn12rcd13ifvqgqg","pricing_plan_id":"cebpf4jnsgd1na2vs0mg"},{"bike_id":"f4514236-06e3-48aa-92bb-49d186118376","system_id":"levelo_inurba_marseille","lat":43.24179,"lon":5.36404,"is_reserved":false,"is_disabled":false,"rental_uris":{"android":"levelo://app?vid=f4514236-06e3-48aa-92bb-49d186118376","ios":"levelo://app?vid=f4514236-06e3-48aa-92bb-49d186118376"},"vehicle_type_id":"4","last_reported":1743358345,"current_range_meters":6400,"station_id":"cpo36qri1sfpv3e86is0","pricing_plan_id":"cebpf4jnsgd1na2vs0mg"},{"bike_id":"ea0f0861-9d06-4d26-8986-d926f68481ed","system_id":"levelo_inurba_marseille","lat":43.279179,"lon":5.395766,"is_reserved":false,"is_disabled":false,"rental_uris":{"android":"levelo://app?vid=ea0f0861-9d06-4d26-8986-d926f68481ed","ios":"levelo://app?vid=ea0f0861-9d06-4d26-8986-d926f68481ed"},"vehicle_type_id":"4","last_reported":1743358345,"current_range_meters":6800,"station_id":"ce4bhf92rcd13ifvqf40","pricing_plan_id":"cebpf4jnsgd1na2vs0mg"},{"bike_id":"71c53c65-a5a7-4804-aed2-13deb04931c3","system_id":"levelo_inurba_marseille","lat":43.29223,"lon":5.3607,"is_reserved":false,"is_disabled":false,"rental_uris":{"android":"levelo://app?vid=71c53c65-a5a7-4804-aed2-13deb04931c3","ios":"levelo://app?vid=71c53c65-a5a7-4804-aed2-13deb04931c3"},"vehicle_type_id":"4","last_reported":1743358345,"current_range_meters":6800,"station_id":"ce4bhbh2rcd13ifvqeqg","pricing_plan_id":"cebpf4jnsgd1na2vs0mg"},{"bike_id":"c0bfecbc-96be-4cde-8bdd-07fcf1658ea7","system_id":"levelo_inurba_marseille","lat":43.241682,"lon":5.364009,"is_reserved":false,"is_disabled":false,"rental_uris":{"android":"levelo://app?vid=c0bfecbc-96be-4cde-8bdd-07fcf1658ea7","ios":"levelo://app?vid=c0bfecbc-96be-4cde-8bdd-07fcf1658ea7"},"vehicle_type_id":"4","last_reported":1743358345,"current_range_meters":6400,"station_id":"ce4bhih2rcd13ifvqfr0","pricing_plan_id":"cebpf4jnsgd1na2vs0mg"},{"bike_id":"32d79943-fa26-4d94-a4c6-e8a8e7456b3f","system_id":"levelo_inurba_marseille","lat":43.284607,"lon":5.358866,"is_reserved":false,"is_disabled":false,"rental_uris":{"android":"levelo://app?vid=32d79943-fa26-4d94-a4c6-e8a8e7456b3f","ios":"levelo://app?vid=32d79943-fa26-4d94-a4c6-e8a8e7456b3f"},"vehicle_type_id":"4","last_reported":1743358345,"current_range_meters":6800,"station_id":"ce4bh412rcd13ifvqdr0","pricing_plan_id":"cebpf4jnsgd1na2vs0mg"},{"bike_id":"cddec880-29b4-4c60-932c-1a54f9f9c367","system_id":"levelo_inurba_marseille","lat":43.30805,"lon":5.38142,"is_reserved":false,"is_disabled":false,"rental_uris":{"android":"levelo://app?vid=cddec880-29b4-4c60-932c-1a54f9f9c367","ios":"levelo://app?vid=cddec880-29b4-4c60-932c-1a54f9f9c367"},"vehicle_type_id":"4","last_reported":1743358345,"current_range_meters":6800,"station_id":"ce4bgt12rcd13ifvqce0","pricing_plan_id":"cebpf4jnsgd1na2vs0mg"},{"bike_id":"1883c27e-144c-41ce-ab4f-aa27cd372bb9","system_id":"levelo_inurba_marseille","lat":43.28057,"lon":5.36927,"is_reserved":false,"is_disabled":false,"rental_uris":{"android":"levelo://app?vid=1883c27e-144c-41ce-ab4f-aa27cd372bb9","ios":"levelo://app?vid=1883c27e-144c-41ce-ab4f-aa27cd372bb9"},"vehicle_type_id":"4","last_reported":1743358345,"current_range_meters":6800,"station_id":"ce4bha12rcd13ifvqef0","pricing_plan_id":"cebpf4jnsgd1na2vs0mg"},{"bike_id":"92c40ab3-73dd-40b2-8bad-5d5a74fe14bf","system_id":"levelo_inurba_marseille","lat":43.29038,"lon":5.38646,"is_reserved":false,"is_disabled":false,"rental_uris":{"android":"levelo://app?vid=92c40ab3-73dd-40b2-8bad-5d5a74fe14bf","ios":"levelo://app?vid=92c40ab3-73dd-40b2-8bad-5d5a74fe14bf"},"vehicle_type_id":"4","last_reported":1743358345,"current_range_meters":6800,"station_id":"ce4bh4p2rcd13ifvqe0g","pricing_plan_id":"cebpf4jnsgd1na2vs0mg"},{"bike_id":"1bc300d5-eb47-4058-9344-175785ae22d1","system_id":"levelo_inurba_marseille","lat":43.28044,"lon":5.36945,"is_reserved":false,"is_disabled":false,"rental_uris":{"android":"levelo://app?vid=1bc300d5-eb47-4058-9344-175785ae22d1","ios":"levelo://app?vid=1bc300d5-eb47-4058-9344-175785ae22d1"},"vehicle_type_id":"4","last_reported":1743358345,"current_range_meters":6800,"station_id":"ce4bha12rcd13ifvqef0","pricing_plan_id":"cebpf4jnsgd1na2vs0mg"},{"bike_id":"4b4f3170-cc4b-4039-afda-19d468b9096b","system_id":"levelo_inurba_marseille","lat":43.2804,"lon":5.36948,"is_reserved":false,"is_disabled":false,"rental_uris":{"android":"levelo://app?vid=4b4f3170-cc4b-4039-afda-19d468b9096b","ios":"levelo://app?vid=4b4f3170-cc4b-4039-afda-19d468b9096b"},"vehicle_type_id":"4","last_reported":1743358345,"current_range_meters":6800,"station_id":"ce4bha12rcd13ifvqef0","pricing_plan_id":"cebpf4jnsgd1na2vs0mg"},{"bike_id":"ff42e4c0-315a-4bac-a419-7cdb49242ed9","system_id":"levelo_inurba_marseille","lat":43.30246,"lon":5.4005,"is_reserved":false,"is_disabled":false,"rental_uris":{"android":"levelo://app?vid=ff42e4c0-315a-4bac-a419-7cdb49242ed9","ios":"levelo://app?vid=ff42e4c0-315a-4bac-a419-7cdb49242ed9"},"vehicle_type_id":"4","last_reported":1743358345,"current_range_meters":6800,"station_id":"ce4bgvh2rcd13ifvqcs0","pricing_plan_id":"cebpf4jnsgd1na2vs0mg"},{"bike_id":"66029741-9e06-46d1-9083-596a9c19a703","system_id":"levelo_inurba_marseille","lat":43.29625,"lon":5.40602,"is_reserved":false,"is_disabled":false,"rental_uris":{"android":"levelo://app?vid=66029741-9e06-46d1-9083-596a9c19a703","ios":"levelo://app?vid=66029741-9e06-46d1-9083-596a9c19a703"},"vehicle_type_id":"4","last_reported":1743358345,"current_range_meters":6800,"station_id":"ce4bh0h2rcd13ifvqd60","pricing_plan_id":"cebpf4jnsgd1na2vs0mg"},{"bike_id":"1ee3ce0e-dd2d-47f9-9e65-0b791d57c83d","system_id":"levelo_inurba_marseille","lat":43.24162,"lon":5.36411,"is_reserved":false,"is_disabled":false,"rental_uris":{"android":"levelo://app?vid=1ee3ce0e-dd2d-47f9-9e65-0b791d57c83d","ios":"levelo://app?vid=1ee3ce0e-dd2d-47f9-9e65-0b791d57c83d"},"vehicle_type_id":"4","last_reported":1743358345,"current_range_meters":7200,"station_id":"cpo36qri1sfpv3e86is0","pricing_plan_id":"cebpf4jnsgd1na2vs0mg"},{"bike_id":"4c0483cd-1c6b-4c60-80a2-e24b7af27ce0","system_id":"levelo_inurba_marseille","lat":43.28936,"lon":5.36639,"is_reserved":false,"is_disabled":false,"rental_uris":{"android":"levelo://app?vid=4c0483cd-1c6b-4c60-80a2-e24b7af27ce0","ios":"levelo://app?vid=4c0483cd-1c6b-4c60-80a2-e24b7af27ce0"},"vehicle_type_id":"4","last_reported":1743358345,"current_range_meters":7200,"station_id":"ce4bhap2rcd13ifvqek0","pricing_plan_id":"cebpf4jnsgd1na2vs0mg"},{"bike_id":"b2e6e5f9-815c-46ac-bebd-de4e22a8e049","system_id":"levelo_inurba_marseille","lat":43.331757,"lon":5.395749,"is_reserved":false,"is_disabled":false,"rental_uris":{"android":"levelo://app?vid=b2e6e5f9-815c-46ac-bebd-de4e22a8e049","ios":"levelo://app?vid=b2e6e5f9-815c-46ac-bebd-de4e22a8e049"},"vehicle_type_id":"4","last_reported":1743358345,"current_range_meters":7200,"station_id":"","pricing_plan_id":"cebpf4jnsgd1na2vs0mg"},{"bike_id":"3500270f-f51a-4fe9-aebc-1713ad9e4540","system_id":"levelo_inurba_marseille","lat":43.290897,"lon":5.381301,"is_reserved":false,"is_disabled":false,"rental_uris":{"android":"levelo://app?vid=3500270f-f51a-4fe9-aebc-1713ad9e4540","ios":"levelo://app?vid=3500270f-f51a-4fe9-aebc-1713ad9e4540"},"vehicle_type_id":"4","last_reported":1743358345,"current_range_meters":7200,"station_id":"ce4bh512rcd13ifvqe2g","pricing_plan_id":"cebpf4jnsgd1na2vs0mg"},{"bike_id":"4243a2b0-ae2b-4413-86a0-dc166b8594bc","system_id":"levelo_inurba_marseille","lat":43.2466,"lon":5.38175,"is_reserved":false,"is_disabled":false,"rental_uris":{"android":"levelo://app?vid=4243a2b0-ae2b-4413-86a0-dc166b8594bc","ios":"levelo://app?vid=4243a2b0-ae2b-4413-86a0-dc166b8594bc"},"vehicle_type_id":"4","last_reported":1743358345,"current_range_meters":7200,"station_id":"ce4bhih2rcd13ifvqfr0","pricing_plan_id":"cebpf4jnsgd1na2vs0mg"},{"bike_id":"e95727b8-d133-4182-a7ca-a6671e96f658","system_id":"levelo_inurba_marseille","lat":43.24073,"lon":5.37757,"is_reserved":false,"is_disabled":false,"rental_uris":{"android":"levelo://app?vid=e95727b8-d133-4182-a7ca-a6671e96f658","ios":"levelo://app?vid=e95727b8-d133-4182-a7ca-a6671e96f658"},"vehicle_type_id":"4","last_reported":1743358345,"current_range_meters":7200,"station_id":"ce4bhnp2rcd13ifvqgvg","pricing_plan_id":"cebpf4jnsgd1na2vs0mg"},{"bike_id":"96ac20e8-5840-4579-b371-184ec6253952","system_id":"levelo_inurba_marseille","lat":43.27505,"lon":5.41136,"is_reserved":false,"is_disabled":false,"rental_uris":{"android":"levelo://app?vid=96ac20e8-5840-4579-b371-184ec6253952","ios":"levelo://app?vid=96ac20e8-5840-4579-b371-184ec6253952"},"vehicle_type_id":"4","last_reported":1743358345,"current_range_meters":7200,"station_id":"","pricing_plan_id":"cebpf4jnsgd1na2vs0mg"},{"bike_id":"747d2bc2-6706-42d9-8381-8fcc8fac62bd","system_id":"levelo_inurba_marseille","lat":43.2902,"lon":5.37165,"is_reserved":false,"is_disabled":true,"rental_uris":{"android":"levelo://app?vid=747d2bc2-6706-42d9-8381-8fcc8fac62bd","ios":"levelo://app?vid=747d2bc2-6706-42d9-8381-8fcc8fac62bd"},"vehicle_type_id":"4","last_reported":1743358345,"current_range_meters":7200,"station_id":"","pricing_plan_id":"cebpf4jnsgd1na2vs0mg"},{"bike_id":"9a203e79-1d02-47be-9c64-a64561463e74","system_id":"levelo_inurba_marseille","lat":43.30105,"lon":5.39891,"is_reserved":false,"is_disabled":false,"rental_uris":{"android":"levelo://app?vid=9a203e79-1d02-47be-9c64-a64561463e74","ios":"levelo://app?vid=9a203e79-1d02-47be-9c64-a64561463e74"},"vehicle_type_id":"4","last_reported":1743358345,"current_range_meters":7200,"station_id":"ce4bh0h2rcd13ifvqd40","pricing_plan_id":"cebpf4jnsgd1na2vs0mg"},{"bike_id":"99864047-3ac3-45c4-a913-53ee9cea7446","system_id":"levelo_inurba_marseille","lat":43.287,"lon":5.374,"is_reserved":false,"is_disabled":true,"rental_uris":{"android":"levelo://app?vid=99864047-3ac3-45c4-a913-53ee9cea7446","ios":"levelo://app?vid=99864047-3ac3-45c4-a913-53ee9cea7446"},"vehicle_type_id":"4","last_reported":1743358345,"current_range_meters":7200,"station_id":"ce4bh3p2rcd13ifvqdq0","pricing_plan_id":"cebpf4jnsgd1na2vs0mg"},{"bike_id":"861fba4a-9c12-463c-8a39-b4a694ea5d40","system_id":"levelo_inurba_marseille","lat":43.23949,"lon":5.36659,"is_reserved":false,"is_disabled":true,"rental_uris":{"android":"levelo://app?vid=861fba4a-9c12-463c-8a39-b4a694ea5d40","ios":"levelo://app?vid=861fba4a-9c12-463c-8a39-b4a694ea5d40"},"vehicle_type_id":"4","last_reported":1743358345,"current_range_meters":7200,"station_id":"ce4bhi12rcd13ifvqfp0","pricing_plan_id":"cebpf4jnsgd1na2vs0mg"},{"bike_id":"37f41d5f-3983-4db2-8781-c345307ed7b9","system_id":"levelo_inurba_marseille","lat":43.275,"lon":5.42457,"is_reserved":false,"is_disabled":false,"rental_uris":{"android":"levelo://app?vid=37f41d5f-3983-4db2-8781-c345307ed7b9","ios":"levelo://app?vid=37f41d5f-3983-4db2-8781-c345307ed7b9"},"vehicle_type_id":"4","last_reported":1743358345,"current_range_meters":7200,"station_id":"ce4bhn92rcd13ifvqgrg","pricing_plan_id":"cebpf4jnsgd1na2vs0mg"},{"bike_id":"c160f136-9cd7-4eb8-ae97-eb78a2220415","system_id":"levelo_inurba_marseille","lat":43.2764,"lon":5.389,"is_reserved":false,"is_disabled":false,"rental_uris":{"android":"levelo://app?vid=c160f136-9cd7-4eb8-ae97-eb78a2220415","ios":"levelo://app?vid=c160f136-9cd7-4eb8-ae97-eb78a2220415"},"vehicle_type_id":"4","last_reported":1743358345,"current_range_meters":7200,"station_id":"ce4bhi12rcd13ifvqfo0","pricing_plan_id":"cebpf4jnsgd1na2vs0mg"},{"bike_id":"7325f9cd-e964-451a-9d25-93e7785861e7","system_id":"levelo_inurba_marseille","lat":43.27553,"lon":5.38434,"is_reserved":false,"is_disabled":false,"rental_uris":{"android":"levelo://app?vid=7325f9cd-e964-451a-9d25-93e7785861e7","ios":"levelo://app?vid=7325f9cd-e964-451a-9d25-93e7785861e7"},"vehicle_type_id":"4","last_reported":1743358345,"current_range_meters":7200,"station_id":"ce4bhh92rcd13ifvqfi0","pricing_plan_id":"cebpf4jnsgd1na2vs0mg"},{"bike_id":"18ea2978-1327-441c-b8c3-f4e5453827db","system_id":"levelo_inurba_marseille","lat":43.28153,"lon":5.42644,"is_reserved":false,"is_disabled":false,"rental_uris":{"android":"levelo://app?vid=18ea2978-1327-441c-b8c3-f4e5453827db","ios":"levelo://app?vid=18ea2978-1327-441c-b8c3-f4e5453827db"},"vehicle_type_id":"4","last_reported":1743358345,"current_range_meters":7200,"station_id":"ce4bhnh2rcd13ifvqgug","pricing_plan_id":"cebpf4jnsgd1na2vs0mg"},{"bike_id":"40be5096-9f96-4b90-a4e5-1e6a1ae43486","system_id":"levelo_inurba_marseille","lat":43.30208,"lon":5.39466,"is_reserved":false,"is_disabled":false,"rental_uris":{"android":"levelo://app?vid=40be5096-9f96-4b90-a4e5-1e6a1ae43486","ios":"levelo://app?vid=40be5096-9f96-4b90-a4e5-1e6a1ae43486"},"vehicle_type_id":"4","last_reported":1743358345,"current_range_meters":7200,"station_id":"ce4bh0p2rcd13ifvqd70","pricing_plan_id":"cebpf4jnsgd1na2vs0mg"},{"bike_id":"e6b237ea-6a2c-4ba7-8b42-e284823c64e6","system_id":"levelo_inurba_marseille","lat":43.29844,"lon":5.36311,"is_reserved":false,"is_disabled":true,"rental_uris":{"android":"levelo://app?vid=e6b237ea-6a2c-4ba7-8b42-e284823c64e6","ios":"levelo://app?vid=e6b237ea-6a2c-4ba7-8b42-e284823c64e6"},"vehicle_type_id":"4","last_reported":1743358345,"current_range_meters":7200,"station_id":"ce4bgpp2rcd13ifvqc3g","pricing_plan_id":"cebpf4jnsgd1na2vs0mg"},{"bike_id":"cb4b32bc-c106-4e09-93ff-937ed6fe8e4b","system_id":"levelo_inurba_marseille","lat":43.29195,"lon":5.39349,"is_reserved":false,"is_disabled":false,"rental_uris":{"android":"levelo://app?vid=cb4b32bc-c106-4e09-93ff-937ed6fe8e4b","ios":"levelo://app?vid=cb4b32bc-c106-4e09-93ff-937ed6fe8e4b"},"vehicle_type_id":"4","last_reported":1743358345,"current_range_meters":7200,"station_id":"ce4bh192rcd13ifvqdd0","pricing_plan_id":"cebpf4jnsgd1na2vs0mg"},{"bike_id":"2196c33e-97ed-42c8-a8bb-34bcc92d8f1f","system_id":"levelo_inurba_marseille","lat":43.29016,"lon":5.38136,"is_reserved":false,"is_disabled":false,"rental_uris":{"android":"levelo://app?vid=2196c33e-97ed-42c8-a8bb-34bcc92d8f1f","ios":"levelo://app?vid=2196c33e-97ed-42c8-a8bb-34bcc92d8f1f"},"vehicle_type_id":"4","last_reported":1743358345,"current_range_meters":7200,"station_id":"ce4bh4p2rcd13ifvqe1g","pricing_plan_id":"cebpf4jnsgd1na2vs0mg"},{"bike_id":"a1b5a514-f0ef-42eb-b1a4-22dd30a86324","system_id":"levelo_inurba_marseille","lat":43.3175,"lon":5.39042,"is_reserved":false,"is_disabled":false,"rental_uris":{"android":"levelo://app?vid=a1b5a514-f0ef-42eb-b1a4-22dd30a86324","ios":"levelo://app?vid=a1b5a514-f0ef-42eb-b1a4-22dd30a86324"},"vehicle_type_id":"4","last_reported":1743358345,"current_range_meters":7200,"station_id":"ce4bhqp2rcd13ifvqhng","pricing_plan_id":"cebpf4jnsgd1na2vs0mg"},{"bike_id":"25bb5fbc-8229-4010-b703-31f5ee6ac141","system_id":"levelo_inurba_marseille","lat":43.30632,"lon":5.36599,"is_reserved":false,"is_disabled":false,"rental_uris":{"android":"levelo://app?vid=25bb5fbc-8229-4010-b703-31f5ee6ac141","ios":"levelo://app?vid=25bb5fbc-8229-4010-b703-31f5ee6ac141"},"vehicle_type_id":"4","last_reported":1743358345,"current_range_meters":8000,"station_id":"","pricing_plan_id":"cebpf4jnsgd1na2vs0mg"},{"bike_id":"b72d1ec1-9181-4a92-b5f4-0cf9ff9f577e","system_id":"levelo_inurba_marseille","lat":43.2835,"lon":5.38118,"is_reserved":false,"is_disabled":false,"rental_uris":{"android":"levelo://app?vid=b72d1ec1-9181-4a92-b5f4-0cf9ff9f577e","ios":"levelo://app?vid=b72d1ec1-9181-4a92-b5f4-0cf9ff9f577e"},"vehicle_type_id":"4","last_reported":1743358345,"current_range_meters":8000,"station_id":"ce4bh412rcd13ifvqdr0","pricing_plan_id":"cebpf4jnsgd1na2vs0mg"},{"bike_id":"d0ed36b4-3c5a-4da6-8fb4-955c321dd03a","system_id":"levelo_inurba_marseille","lat":43.27515,"lon":5.41028,"is_reserved":false,"is_disabled":false,"rental_uris":{"android":"levelo://app?vid=d0ed36b4-3c5a-4da6-8fb4-955c321dd03a","ios":"levelo://app?vid=d0ed36b4-3c5a-4da6-8fb4-955c321dd03a"},"vehicle_type_id":"4","last_reported":1743358345,"current_range_meters":8000,"station_id":"","pricing_plan_id":"cebpf4jnsgd1na2vs0mg"},{"bike_id":"b1c57eee-f874-4a3b-8c6d-091af37c0de7","system_id":"levelo_inurba_marseille","lat":43.28937,"lon":5.36643,"is_reserved":false,"is_disabled":false,"rental_uris":{"android":"levelo://app?vid=b1c57eee-f874-4a3b-8c6d-091af37c0de7","ios":"levelo://app?vid=b1c57eee-f874-4a3b-8c6d-091af37c0de7"},"vehicle_type_id":"4","last_reported":1743358345,"current_range_meters":8000,"station_id":"ce4bhap2rcd13ifvqek0","pricing_plan_id":"cebpf4jnsgd1na2vs0mg"},{"bike_id":"44bb9070-7d21-4976-933c-1523f54ba066","system_id":"levelo_inurba_marseille","lat":43.29037,"lon":5.38616,"is_reserved":false,"is_disabled":false,"rental_uris":{"android":"levelo://app?vid=44bb9070-7d21-4976-933c-1523f54ba066","ios":"levelo://app?vid=44bb9070-7d21-4976-933c-1523f54ba066"},"vehicle_type_id":"4","last_reported":1743358345,"current_range_meters":8000,"station_id":"ce4bh4p2rcd13ifvqe0g","pricing_plan_id":"cebpf4jnsgd1na2vs0mg"},{"bike_id":"42bc7b23-0e2f-4d72-b583-40bcdabb28c7","system_id":"levelo_inurba_marseille","lat":43.29543,"lon":5.3738,"is_reserved":false,"is_disabled":false,"rental_uris":{"android":"levelo://app?vid=42bc7b23-0e2f-4d72-b583-40bcdabb28c7","ios":"levelo://app?vid=42bc7b23-0e2f-4d72-b583-40bcdabb28c7"},"vehicle_type_id":"4","last_reported":1743358345,"current_range_meters":8000,"station_id":"","pricing_plan_id":"cebpf4jnsgd1na2vs0mg"},{"bike_id":"02f3463c-e1f9-4548-95f4-d531739ad137","system_id":"levelo_inurba_marseille","lat":43.23165,"lon":5.43656,"is_reserved":false,"is_disabled":false,"rental_uris":{"android":"levelo://app?vid=02f3463c-e1f9-4548-95f4-d531739ad137","ios":"levelo://app?vid=02f3463c-e1f9-4548-95f4-d531739ad137"},"vehicle_type_id":"4","last_reported":1743358345,"current_range_meters":8000,"station_id":"ce4bhmp2rcd13ifvqgog","pricing_plan_id":"cebpf4jnsgd1na2vs0mg"},{"bike_id":"0be65115-ca54-4f67-80f8-4969c1c60382","system_id":"levelo_inurba_marseille","lat":43.28433,"lon":5.35002,"is_reserved":false,"is_disabled":true,"rental_uris":{"android":"levelo://app?vid=0be65115-ca54-4f67-80f8-4969c1c60382","ios":"levelo://app?vid=0be65115-ca54-4f67-80f8-4969c1c60382"},"vehicle_type_id":"4","last_reported":1743358345,"current_range_meters":8000,"station_id":"ce4bhbh2rcd13ifvqepg","pricing_plan_id":"cebpf4jnsgd1na2vs0mg"},{"bike_id":"488767ae-a52a-41d7-8f9a-e947164469f3","system_id":"levelo_inurba_marseille","lat":43.31624,"lon":5.41652,"is_reserved":false,"is_disabled":true,"rental_uris":{"android":"levelo://app?vid=488767ae-a52a-41d7-8f9a-e947164469f3","ios":"levelo://app?vid=488767ae-a52a-41d7-8f9a-e947164469f3"},"vehicle_type_id":"4","last_reported":1743358345,"current_range_meters":8000,"station_id":"","pricing_plan_id":"cebpf4jnsgd1na2vs0mg"},{"bike_id":"7606b04c-0b72-4ccf-93f1-fe1116df8ea0","system_id":"levelo_inurba_marseille","lat":43.24805,"lon":5.37452,"is_reserved":false,"is_disabled":false,"rental_uris":{"android":"levelo://app?vid=7606b04c-0b72-4ccf-93f1-fe1116df8ea0","ios":"levelo://app?vid=7606b04c-0b72-4ccf-93f1-fe1116df8ea0"},"vehicle_type_id":"4","last_reported":1743358345,"current_range_meters":8000,"station_id":"ce4bhgh2rcd13ifvqfb0","pricing_plan_id":"cebpf4jnsgd1na2vs0mg"},{"bike_id":"1c5a7478-a903-490c-99bd-df8650834d36","system_id":"levelo_inurba_marseille","lat":43.30908,"lon":5.36842,"is_reserved":false,"is_disabled":false,"rental_uris":{"android":"levelo://app?vid=1c5a7478-a903-490c-99bd-df8650834d36","ios":"levelo://app?vid=1c5a7478-a903-490c-99bd-df8650834d36"},"vehicle_type_id":"4","last_reported":1743358345,"current_range_meters":7200,"station_id":"ce4bgn92rcd13ifvqbvg","pricing_plan_id":"cebpf4jnsgd1na2vs0mg"},{"bike_id":"04b7bfbb-b6b7-434a-927a-c928814975bb","system_id":"levelo_inurba_marseille","lat":43.24544,"lon":5.39524,"is_reserved":false,"is_disabled":false,"rental_uris":{"android":"levelo://app?vid=04b7bfbb-b6b7-434a-927a-c928814975bb","ios":"levelo://app?vid=04b7bfbb-b6b7-434a-927a-c928814975bb"},"vehicle_type_id":"4","last_reported":1743358345,"current_range_meters":8000,"station_id":"ce4bhlp2rcd13ifvqgjg","pricing_plan_id":"cebpf4jnsgd1na2vs0mg"},{"bike_id":"cf4f32c1-ec69-4064-bf07-85365a02b2cc","system_id":"levelo_inurba_marseille","lat":43.30142,"lon":5.37411,"is_reserved":false,"is_disabled":false,"rental_uris":{"android":"levelo://app?vid=cf4f32c1-ec69-4064-bf07-85365a02b2cc","ios":"levelo://app?vid=cf4f32c1-ec69-4064-bf07-85365a02b2cc"},"vehicle_type_id":"4","last_reported":1743358345,"current_range_meters":8400,"station_id":"ce4bgs92rcd13ifvqcc0","pricing_plan_id":"cebpf4jnsgd1na2vs0mg"},{"bike_id":"4ccee27f-8f4b-42e7-9248-569970c4e85b","system_id":"levelo_inurba_marseille","lat":43.29531,"lon":5.38553,"is_reserved":false,"is_disabled":false,"rental_uris":{"android":"levelo://app?vid=4ccee27f-8f4b-42e7-9248-569970c4e85b","ios":"levelo://app?vid=4ccee27f-8f4b-42e7-9248-569970c4e85b"},"vehicle_type_id":"4","last_reported":1743358345,"current_range_meters":8400,"station_id":"ce4bgih2rcd13ifvqba0","pricing_plan_id":"cebpf4jnsgd1na2vs0mg"},{"bike_id":"c2e31739-0f75-4615-b36e-098908ca0048","system_id":"levelo_inurba_marseille","lat":43.26793,"lon":5.39413,"is_reserved":false,"is_disabled":false,"rental_uris":{"android":"levelo://app?vid=c2e31739-0f75-4615-b36e-098908ca0048","ios":"levelo://app?vid=c2e31739-0f75-4615-b36e-098908ca0048"},"vehicle_type_id":"4","last_reported":1743358345,"current_range_meters":8400,"station_id":"ce4bhh12rcd13ifvqfg0","pricing_plan_id":"cebpf4jnsgd1na2vs0mg"},{"bike_id":"915f875a-1d86-4319-b636-2c4274059607","system_id":"levelo_inurba_marseille","lat":43.24167,"lon":5.36405,"is_reserved":false,"is_disabled":false,"rental_uris":{"android":"levelo://app?vid=915f875a-1d86-4319-b636-2c4274059607","ios":"levelo://app?vid=915f875a-1d86-4319-b636-2c4274059607"},"vehicle_type_id":"4","last_reported":1743358345,"current_range_meters":8400,"station_id":"cpo36qri1sfpv3e86is0","pricing_plan_id":"cebpf4jnsgd1na2vs0mg"},{"bike_id":"f1f937ef-3e56-40c0-91fd-d5a532c01480","system_id":"levelo_inurba_marseille","lat":43.24678,"lon":5.38165,"is_reserved":false,"is_disabled":true,"rental_uris":{"android":"levelo://app?vid=f1f937ef-3e56-40c0-91fd-d5a532c01480","ios":"levelo://app?vid=f1f937ef-3e56-40c0-91fd-d5a532c01480"},"vehicle_type_id":"4","last_reported":1743358345,"current_range_meters":8400,"station_id":"ce4bhih2rcd13ifvqfr0","pricing_plan_id":"cebpf4jnsgd1na2vs0mg"},{"bike_id":"73484ef5-38ac-45ee-8637-95752d42965e","system_id":"levelo_inurba_marseille","lat":43.30991,"lon":5.37921,"is_reserved":false,"is_disabled":true,"rental_uris":{"android":"levelo://app?vid=73484ef5-38ac-45ee-8637-95752d42965e","ios":"levelo://app?vid=73484ef5-38ac-45ee-8637-95752d42965e"},"vehicle_type_id":"4","last_reported":1743358345,"current_range_meters":8400,"station_id":"","pricing_plan_id":"cebpf4jnsgd1na2vs0mg"},{"bike_id":"712adfdb-1e7c-45c7-a1aa-2e751e4598bb","system_id":"levelo_inurba_marseille","lat":43.30144,"lon":5.39872,"is_reserved":false,"is_disabled":false,"rental_uris":{"android":"levelo://app?vid=712adfdb-1e7c-45c7-a1aa-2e751e4598bb","ios":"levelo://app?vid=712adfdb-1e7c-45c7-a1aa-2e751e4598bb"},"vehicle_type_id":"4","last_reported":1743358345,"current_range_meters":8400,"station_id":"ce4bh0h2rcd13ifvqd40","pricing_plan_id":"cebpf4jnsgd1na2vs0mg"},{"bike_id":"1345504a-7cd0-4c25-bcd4-6a16f7e36b29","system_id":"levelo_inurba_marseille","lat":43.29612,"lon":5.37718,"is_reserved":false,"is_disabled":false,"rental_uris":{"android":"levelo://app?vid=1345504a-7cd0-4c25-bcd4-6a16f7e36b29","ios":"levelo://app?vid=1345504a-7cd0-4c25-bcd4-6a16f7e36b29"},"vehicle_type_id":"4","last_reported":1743358345,"current_range_meters":8400,"station_id":"ce4bgi92rcd13ifvqb90","pricing_plan_id":"cebpf4jnsgd1na2vs0mg"},{"bike_id":"329002da-b496-4f71-9e38-7c76ae566806","system_id":"levelo_inurba_marseille","lat":43.291293,"lon":5.379668,"is_reserved":false,"is_disabled":false,"rental_uris":{"android":"levelo://app?vid=329002da-b496-4f71-9e38-7c76ae566806","ios":"levelo://app?vid=329002da-b496-4f71-9e38-7c76ae566806"},"vehicle_type_id":"4","last_reported":1743358345,"current_range_meters":8400,"station_id":"cki0cbj6b192h4jlfktg","pricing_plan_id":"cebpf4jnsgd1na2vs0mg"},{"bike_id":"1261f5cc-7088-4b2c-8276-6730bb9c3183","system_id":"levelo_inurba_marseille","lat":43.28482,"lon":5.38424,"is_reserved":false,"is_disabled":false,"rental_uris":{"android":"levelo://app?vid=1261f5cc-7088-4b2c-8276-6730bb9c3183","ios":"levelo://app?vid=1261f5cc-7088-4b2c-8276-6730bb9c3183"},"vehicle_type_id":"4","last_reported":1743358345,"current_range_meters":8400,"station_id":"ce4bh512rcd13ifvqe3g","pricing_plan_id":"cebpf4jnsgd1na2vs0mg"},{"bike_id":"7fe392e9-7e8b-4f65-842c-ef02e8322ece","system_id":"levelo_inurba_marseille","lat":43.27184,"lon":5.40984,"is_reserved":false,"is_disabled":false,"rental_uris":{"android":"levelo://app?vid=7fe392e9-7e8b-4f65-842c-ef02e8322ece","ios":"levelo://app?vid=7fe392e9-7e8b-4f65-842c-ef02e8322ece"},"vehicle_type_id":"4","last_reported":1743358345,"current_range_meters":8400,"station_id":"ce4bhl12rcd13ifvqgf0","pricing_plan_id":"cebpf4jnsgd1na2vs0mg"},{"bike_id":"6882cd7d-eff8-4483-a87e-5498118d46c3","system_id":"levelo_inurba_marseille","lat":43.29253,"lon":5.38437,"is_reserved":false,"is_disabled":false,"rental_uris":{"android":"levelo://app?vid=6882cd7d-eff8-4483-a87e-5498118d46c3","ios":"levelo://app?vid=6882cd7d-eff8-4483-a87e-5498118d46c3"},"vehicle_type_id":"4","last_reported":1743358345,"current_range_meters":8400,"station_id":"ce4bh692rcd13ifvqea0","pricing_plan_id":"cebpf4jnsgd1na2vs0mg"},{"bike_id":"bc1ef0c2-17d8-427e-a10c-9b9658a85853","system_id":"levelo_inurba_marseille","lat":43.24193,"lon":5.39696,"is_reserved":false,"is_disabled":true,"rental_uris":{"android":"levelo://app?vid=bc1ef0c2-17d8-427e-a10c-9b9658a85853","ios":"levelo://app?vid=bc1ef0c2-17d8-427e-a10c-9b9658a85853"},"vehicle_type_id":"4","last_reported":1743358345,"current_range_meters":8400,"station_id":"ce4bhn12rcd13ifvqgpg","pricing_plan_id":"cebpf4jnsgd1na2vs0mg"},{"bike_id":"e1e6c11e-2ce8-4d84-81f9-00bf2728e383","system_id":"levelo_inurba_marseille","lat":43.29603,"lon":5.37732,"is_reserved":false,"is_disabled":false,"rental_uris":{"android":"levelo://app?vid=e1e6c11e-2ce8-4d84-81f9-00bf2728e383","ios":"levelo://app?vid=e1e6c11e-2ce8-4d84-81f9-00bf2728e383"},"vehicle_type_id":"4","last_reported":1743358345,"current_range_meters":8400,"station_id":"ce4bgi92rcd13ifvqb90","pricing_plan_id":"cebpf4jnsgd1na2vs0mg"},{"bike_id":"f43cccf4-7cd2-4fa6-9fbb-fb74d7164516","system_id":"levelo_inurba_marseille","lat":43.24072,"lon":5.37752,"is_reserved":false,"is_disabled":false,"rental_uris":{"android":"levelo://app?vid=f43cccf4-7cd2-4fa6-9fbb-fb74d7164516","ios":"levelo://app?vid=f43cccf4-7cd2-4fa6-9fbb-fb74d7164516"},"vehicle_type_id":"4","last_reported":1743358345,"current_range_meters":8800,"station_id":"ce4bhnp2rcd13ifvqgvg","pricing_plan_id":"cebpf4jnsgd1na2vs0mg"},{"bike_id":"75e7dc25-1599-4738-8262-90df3aff1308","system_id":"levelo_inurba_marseille","lat":43.301418,"lon":5.387922,"is_reserved":false,"is_disabled":false,"rental_uris":{"android":"levelo://app?vid=75e7dc25-1599-4738-8262-90df3aff1308","ios":"levelo://app?vid=75e7dc25-1599-4738-8262-90df3aff1308"},"vehicle_type_id":"4","last_reported":1743358345,"current_range_meters":8800,"station_id":"ce4bghh2rcd13ifvqb60","pricing_plan_id":"cebpf4jnsgd1na2vs0mg"},{"bike_id":"76d4ed16-8625-4a14-a5f1-d28ac2574c13","system_id":"levelo_inurba_marseille","lat":43.24544,"lon":5.39531,"is_reserved":false,"is_disabled":false,"rental_uris":{"android":"levelo://app?vid=76d4ed16-8625-4a14-a5f1-d28ac2574c13","ios":"levelo://app?vid=76d4ed16-8625-4a14-a5f1-d28ac2574c13"},"vehicle_type_id":"4","last_reported":1743358345,"current_range_meters":8800,"station_id":"ce4bhlp2rcd13ifvqgjg","pricing_plan_id":"cebpf4jnsgd1na2vs0mg"},{"bike_id":"9e41fa41-0b95-4c96-8a49-e8b8589958b5","system_id":"levelo_inurba_marseille","lat":43.27495,"lon":5.4245,"is_reserved":false,"is_disabled":false,"rental_uris":{"android":"levelo://app?vid=9e41fa41-0b95-4c96-8a49-e8b8589958b5","ios":"levelo://app?vid=9e41fa41-0b95-4c96-8a49-e8b8589958b5"},"vehicle_type_id":"4","last_reported":1743358345,"current_range_meters":8800,"station_id":"ce4bhn92rcd13ifvqgrg","pricing_plan_id":"cebpf4jnsgd1na2vs0mg"},{"bike_id":"51cdce4b-e7da-459e-8ee4-1f907fb64061","system_id":"levelo_inurba_marseille","lat":43.29441,"lon":5.38624,"is_reserved":false,"is_disabled":false,"rental_uris":{"android":"levelo://app?vid=51cdce4b-e7da-459e-8ee4-1f907fb64061","ios":"levelo://app?vid=51cdce4b-e7da-459e-8ee4-1f907fb64061"},"vehicle_type_id":"4","last_reported":1743358345,"current_range_meters":8800,"station_id":"ce4bh2h2rcd13ifvqdh0","pricing_plan_id":"cebpf4jnsgd1na2vs0mg"},{"bike_id":"196eea0b-e4b4-4157-9d27-1f61e613894b","system_id":"levelo_inurba_marseille","lat":43.27431,"lon":5.39344,"is_reserved":false,"is_disabled":false,"rental_uris":{"android":"levelo://app?vid=196eea0b-e4b4-4157-9d27-1f61e613894b","ios":"levelo://app?vid=196eea0b-e4b4-4157-9d27-1f61e613894b"},"vehicle_type_id":"4","last_reported":1743358345,"current_range_meters":8800,"station_id":"ce4bhdp2rcd13ifvqf20","pricing_plan_id":"cebpf4jnsgd1na2vs0mg"},{"bike_id":"a726e4cf-528a-4b1a-ab61-e50949df2727","system_id":"levelo_inurba_marseille","lat":43.29701,"lon":5.36608,"is_reserved":false,"is_disabled":false,"rental_uris":{"android":"levelo://app?vid=a726e4cf-528a-4b1a-ab61-e50949df2727","ios":"levelo://app?vid=a726e4cf-528a-4b1a-ab61-e50949df2727"},"vehicle_type_id":"4","last_reported":1743358345,"current_range_meters":8800,"station_id":"ce4bgn12rcd13ifvqbt0","pricing_plan_id":"cebpf4jnsgd1na2vs0mg"},{"bike_id":"19e5b8ed-85f2-479c-a734-555d5bea6989","system_id":"levelo_inurba_marseille","lat":43.23067,"lon":5.35495,"is_reserved":false,"is_disabled":false,"rental_uris":{"android":"levelo://app?vid=19e5b8ed-85f2-479c-a734-555d5bea6989","ios":"levelo://app?vid=19e5b8ed-85f2-479c-a734-555d5bea6989"},"vehicle_type_id":"4","last_reported":1743358345,"current_range_meters":8800,"station_id":"cpo3342slgdg3j2ifvpg","pricing_plan_id":"cebpf4jnsgd1na2vs0mg"},{"bike_id":"a4c6538b-619e-4d07-a605-a0fcb5383598","system_id":"levelo_inurba_marseille","lat":43.29424,"lon":5.38629,"is_reserved":false,"is_disabled":false,"rental_uris":{"android":"levelo://app?vid=a4c6538b-619e-4d07-a605-a0fcb5383598","ios":"levelo://app?vid=a4c6538b-619e-4d07-a605-a0fcb5383598"},"vehicle_type_id":"4","last_reported":1743358345,"current_range_meters":8800,"station_id":"ce4bh2h2rcd13ifvqdh0","pricing_plan_id":"cebpf4jnsgd1na2vs0mg"},{"bike_id":"d00365cd-e632-40a8-957d-d9c9f0d3f948","system_id":"levelo_inurba_marseille","lat":43.29621,"lon":5.37152,"is_reserved":false,"is_disabled":false,"rental_uris":{"android":"levelo://app?vid=d00365cd-e632-40a8-957d-d9c9f0d3f948","ios":"levelo://app?vid=d00365cd-e632-40a8-957d-d9c9f0d3f948"},"vehicle_type_id":"4","last_reported":1743358345,"current_range_meters":8800,"station_id":"ce4bgnh2rcd13ifvqc0g","pricing_plan_id":"cebpf4jnsgd1na2vs0mg"},{"bike_id":"b6673dbf-55d4-4da9-86fe-0571758e0789","system_id":"levelo_inurba_marseille","lat":43.30936,"lon":5.40147,"is_reserved":false,"is_disabled":false,"rental_uris":{"android":"levelo://app?vid=b6673dbf-55d4-4da9-86fe-0571758e0789","ios":"levelo://app?vid=b6673dbf-55d4-4da9-86fe-0571758e0789"},"vehicle_type_id":"4","last_reported":1743358345,"current_range_meters":8800,"station_id":"ce4bgvp2rcd13ifvqct0","pricing_plan_id":"cebpf4jnsgd1na2vs0mg"},{"bike_id":"bc1c19ed-2ab0-4d4c-a541-18dfcdfda40b","system_id":"levelo_inurba_marseille","lat":43.2783,"lon":5.39208,"is_reserved":false,"is_disabled":false,"rental_uris":{"android":"levelo://app?vid=bc1c19ed-2ab0-4d4c-a541-18dfcdfda40b","ios":"levelo://app?vid=bc1c19ed-2ab0-4d4c-a541-18dfcdfda40b"},"vehicle_type_id":"4","last_reported":1743358345,"current_range_meters":8800,"station_id":"ce4bhjp2rcd13ifvqga0","pricing_plan_id":"cebpf4jnsgd1na2vs0mg"},{"bike_id":"1d521185-72a0-434d-966c-14202d1200b5","system_id":"levelo_inurba_marseille","lat":43.31238,"lon":5.36809,"is_reserved":false,"is_disabled":false,"rental_uris":{"android":"levelo://app?vid=1d521185-72a0-434d-966c-14202d1200b5","ios":"levelo://app?vid=1d521185-72a0-434d-966c-14202d1200b5"},"vehicle_type_id":"4","last_reported":1743358345,"current_range_meters":8800,"station_id":"ce4bgl92rcd13ifvqbq0","pricing_plan_id":"cebpf4jnsgd1na2vs0mg"},{"bike_id":"daab60b7-c8cb-4cca-ba15-a9ddd3f6d114","system_id":"levelo_inurba_marseille","lat":43.29245,"lon":5.3844,"is_reserved":false,"is_disabled":false,"rental_uris":{"android":"levelo://app?vid=daab60b7-c8cb-4cca-ba15-a9ddd3f6d114","ios":"levelo://app?vid=daab60b7-c8cb-4cca-ba15-a9ddd3f6d114"},"vehicle_type_id":"4","last_reported":1743358345,"current_range_meters":9200,"station_id":"ce4bh692rcd13ifvqea0","pricing_plan_id":"cebpf4jnsgd1na2vs0mg"},{"bike_id":"c52c7736-62f0-40b1-aef2-715eaa6017fa","system_id":"levelo_inurba_marseille","lat":43.29297,"lon":5.37168,"is_reserved":false,"is_disabled":false,"rental_uris":{"android":"levelo://app?vid=c52c7736-62f0-40b1-aef2-715eaa6017fa","ios":"levelo://app?vid=c52c7736-62f0-40b1-aef2-715eaa6017fa"},"vehicle_type_id":"4","last_reported":1743358345,"current_range_meters":9200,"station_id":"ce4bgh92rcd13ifvqb40","pricing_plan_id":"cebpf4jnsgd1na2vs0mg"},{"bike_id":"82d8e203-da64-466b-9b1d-e9f0a9bfebfe","system_id":"levelo_inurba_marseille","lat":43.3255,"lon":5.41451,"is_reserved":false,"is_disabled":true,"rental_uris":{"android":"levelo://app?vid=82d8e203-da64-466b-9b1d-e9f0a9bfebfe","ios":"levelo://app?vid=82d8e203-da64-466b-9b1d-e9f0a9bfebfe"},"vehicle_type_id":"4","last_reported":1743358345,"current_range_meters":9200,"station_id":"ce4bhq12rcd13ifvqhhg","pricing_plan_id":"cebpf4jnsgd1na2vs0mg"},{"bike_id":"8eddc1de-438c-48e2-be34-6e243b5e5fca","system_id":"levelo_inurba_marseille","lat":43.32357,"lon":5.38893,"is_reserved":false,"is_disabled":false,"rental_uris":{"android":"levelo://app?vid=8eddc1de-438c-48e2-be34-6e243b5e5fca","ios":"levelo://app?vid=8eddc1de-438c-48e2-be34-6e243b5e5fca"},"vehicle_type_id":"4","last_reported":1743358345,"current_range_meters":9200,"station_id":"ce4bhqp2rcd13ifvqhog","pricing_plan_id":"cebpf4jnsgd1na2vs0mg"},{"bike_id":"c11b502f-6813-4bcd-87f0-c78930690d2e","system_id":"levelo_inurba_marseille","lat":43.29932,"lon":5.36552,"is_reserved":false,"is_disabled":false,"rental_uris":{"android":"levelo://app?vid=c11b502f-6813-4bcd-87f0-c78930690d2e","ios":"levelo://app?vid=c11b502f-6813-4bcd-87f0-c78930690d2e"},"vehicle_type_id":"4","last_reported":1743358345,"current_range_meters":9200,"station_id":"ce4bgm92rcd13ifvqbr0","pricing_plan_id":"cebpf4jnsgd1na2vs0mg"},{"bike_id":"69b165f0-89a5-4238-9ca4-f3022f13edcf","system_id":"levelo_inurba_marseille","lat":43.29267,"lon":5.36825,"is_reserved":false,"is_disabled":false,"rental_uris":{"android":"levelo://app?vid=69b165f0-89a5-4238-9ca4-f3022f13edcf","ios":"levelo://app?vid=69b165f0-89a5-4238-9ca4-f3022f13edcf"},"vehicle_type_id":"4","last_reported":1743358345,"current_range_meters":9200,"station_id":"ce4bhbp2rcd13ifvqesg","pricing_plan_id":"cebpf4jnsgd1na2vs0mg"},{"bike_id":"2602d73a-4cfa-418c-98f2-3b5e5f054042","system_id":"levelo_inurba_marseille","lat":43.30085,"lon":5.3907,"is_reserved":false,"is_disabled":false,"rental_uris":{"android":"levelo://app?vid=2602d73a-4cfa-418c-98f2-3b5e5f054042","ios":"levelo://app?vid=2602d73a-4cfa-418c-98f2-3b5e5f054042"},"vehicle_type_id":"4","last_reported":1743358345,"current_range_meters":8800,"station_id":"ce4bh192rcd13ifvqdb0","pricing_plan_id":"cebpf4jnsgd1na2vs0mg"},{"bike_id":"fb5a3640-c2bd-4d5a-a532-631ac7449c3d","system_id":"levelo_inurba_marseille","lat":43.28016,"lon":5.40937,"is_reserved":false,"is_disabled":false,"rental_uris":{"android":"levelo://app?vid=fb5a3640-c2bd-4d5a-a532-631ac7449c3d","ios":"levelo://app?vid=fb5a3640-c2bd-4d5a-a532-631ac7449c3d"},"vehicle_type_id":"4","last_reported":1743358345,"current_range_meters":9200,"station_id":"","pricing_plan_id":"cebpf4jnsgd1na2vs0mg"},{"bike_id":"405eb53b-f0d4-45c1-a81e-f07a5df4f762","system_id":"levelo_inurba_marseille","lat":43.281555,"lon":5.36935,"is_reserved":false,"is_disabled":false,"rental_uris":{"android":"levelo://app?vid=405eb53b-f0d4-45c1-a81e-f07a5df4f762","ios":"levelo://app?vid=405eb53b-f0d4-45c1-a81e-f07a5df4f762"},"vehicle_type_id":"4","last_reported":1743358345,"current_range_meters":9200,"station_id":"ce4bh292rcd13ifvqdg0","pricing_plan_id":"cebpf4jnsgd1na2vs0mg"},{"bike_id":"5d6dd7ca-6d2b-4a1c-b1cd-81d3c2befec9","system_id":"levelo_inurba_marseille","lat":43.26797,"lon":5.39416,"is_reserved":false,"is_disabled":false,"rental_uris":{"android":"levelo://app?vid=5d6dd7ca-6d2b-4a1c-b1cd-81d3c2befec9","ios":"levelo://app?vid=5d6dd7ca-6d2b-4a1c-b1cd-81d3c2befec9"},"vehicle_type_id":"4","last_reported":1743358345,"current_range_meters":9200,"station_id":"ce4bhh12rcd13ifvqfg0","pricing_plan_id":"cebpf4jnsgd1na2vs0mg"},{"bike_id":"9f0f898a-b174-43f9-bbe2-6248c347e73d","system_id":"levelo_inurba_marseille","lat":43.29422,"lon":5.38627,"is_reserved":false,"is_disabled":false,"rental_uris":{"android":"levelo://app?vid=9f0f898a-b174-43f9-bbe2-6248c347e73d","ios":"levelo://app?vid=9f0f898a-b174-43f9-bbe2-6248c347e73d"},"vehicle_type_id":"4","last_reported":1743358345,"current_range_meters":9200,"station_id":"ce4bh2h2rcd13ifvqdh0","pricing_plan_id":"cebpf4jnsgd1na2vs0mg"},{"bike_id":"3a66e7d1-ee4c-444d-a3bd-1987182e5739","system_id":"levelo_inurba_marseille","lat":43.29535,"lon":5.38536,"is_reserved":false,"is_disabled":false,"rental_uris":{"android":"levelo://app?vid=3a66e7d1-ee4c-444d-a3bd-1987182e5739","ios":"levelo://app?vid=3a66e7d1-ee4c-444d-a3bd-1987182e5739"},"vehicle_type_id":"4","last_reported":1743358345,"current_range_meters":9200,"station_id":"ce4bgih2rcd13ifvqba0","pricing_plan_id":"cebpf4jnsgd1na2vs0mg"},{"bike_id":"be67c1f1-27e5-4f10-b19e-f1e8728ce4db","system_id":"levelo_inurba_marseille","lat":43.30216,"lon":5.39471,"is_reserved":false,"is_disabled":false,"rental_uris":{"android":"levelo://app?vid=be67c1f1-27e5-4f10-b19e-f1e8728ce4db","ios":"levelo://app?vid=be67c1f1-27e5-4f10-b19e-f1e8728ce4db"},"vehicle_type_id":"4","last_reported":1743358345,"current_range_meters":9200,"station_id":"ce4bh0p2rcd13ifvqd70","pricing_plan_id":"cebpf4jnsgd1na2vs0mg"},{"bike_id":"0d48df8e-25d3-4bea-9b13-4e7c28d30250","system_id":"levelo_inurba_marseille","lat":43.27552,"lon":5.38435,"is_reserved":false,"is_disabled":false,"rental_uris":{"android":"levelo://app?vid=0d48df8e-25d3-4bea-9b13-4e7c28d30250","ios":"levelo://app?vid=0d48df8e-25d3-4bea-9b13-4e7c28d30250"},"vehicle_type_id":"4","last_reported":1743358345,"current_range_meters":9200,"station_id":"ce4bhh92rcd13ifvqfi0","pricing_plan_id":"cebpf4jnsgd1na2vs0mg"},{"bike_id":"bec24054-6ad4-405b-8867-1237a6230216","system_id":"levelo_inurba_marseille","lat":43.2925,"lon":5.38447,"is_reserved":false,"is_disabled":false,"rental_uris":{"android":"levelo://app?vid=bec24054-6ad4-405b-8867-1237a6230216","ios":"levelo://app?vid=bec24054-6ad4-405b-8867-1237a6230216"},"vehicle_type_id":"4","last_reported":1743358345,"current_range_meters":9600,"station_id":"ce4bh692rcd13ifvqea0","pricing_plan_id":"cebpf4jnsgd1na2vs0mg"},{"bike_id":"8a60e8c2-d6b6-4304-9561-b46b00228f9e","system_id":"levelo_inurba_marseille","lat":43.28351,"lon":5.38108,"is_reserved":false,"is_disabled":false,"rental_uris":{"android":"levelo://app?vid=8a60e8c2-d6b6-4304-9561-b46b00228f9e","ios":"levelo://app?vid=8a60e8c2-d6b6-4304-9561-b46b00228f9e"},"vehicle_type_id":"4","last_reported":1743358345,"current_range_meters":9600,"station_id":"ce4bh412rcd13ifvqdr0","pricing_plan_id":"cebpf4jnsgd1na2vs0mg"},{"bike_id":"5fc8b285-2871-4c39-b555-a8b102f78865","system_id":"levelo_inurba_marseille","lat":43.229,"lon":5.35459,"is_reserved":false,"is_disabled":false,"rental_uris":{"android":"levelo://app?vid=5fc8b285-2871-4c39-b555-a8b102f78865","ios":"levelo://app?vid=5fc8b285-2871-4c39-b555-a8b102f78865"},"vehicle_type_id":"4","last_reported":1743358345,"current_range_meters":9600,"station_id":"","pricing_plan_id":"cebpf4jnsgd1na2vs0mg"},{"bike_id":"65716538-ea82-4e90-ad8e-2fa8970797ae","system_id":"levelo_inurba_marseille","lat":43.29536,"lon":5.38546,"is_reserved":false,"is_disabled":false,"rental_uris":{"android":"levelo://app?vid=65716538-ea82-4e90-ad8e-2fa8970797ae","ios":"levelo://app?vid=65716538-ea82-4e90-ad8e-2fa8970797ae"},"vehicle_type_id":"4","last_reported":1743358345,"current_range_meters":9600,"station_id":"ce4bgih2rcd13ifvqba0","pricing_plan_id":"cebpf4jnsgd1na2vs0mg"},{"bike_id":"f150450a-749a-4373-a4fa-76425248e702","system_id":"levelo_inurba_marseille","lat":43.28084,"lon":5.37873,"is_reserved":false,"is_disabled":false,"rental_uris":{"android":"levelo://app?vid=f150450a-749a-4373-a4fa-76425248e702","ios":"levelo://app?vid=f150450a-749a-4373-a4fa-76425248e702"},"vehicle_type_id":"4","last_reported":1743358345,"current_range_meters":9600,"station_id":"ce4bha12rcd13ifvqee0","pricing_plan_id":"cebpf4jnsgd1na2vs0mg"},{"bike_id":"44efd8a6-8638-43c9-b213-8480e1876125","system_id":"levelo_inurba_marseille","lat":43.29969,"lon":5.38493,"is_reserved":false,"is_disabled":false,"rental_uris":{"android":"levelo://app?vid=44efd8a6-8638-43c9-b213-8480e1876125","ios":"levelo://app?vid=44efd8a6-8638-43c9-b213-8480e1876125"},"vehicle_type_id":"4","last_reported":1743358345,"current_range_meters":9600,"station_id":"ce4bgj92rcd13ifvqbd0","pricing_plan_id":"cebpf4jnsgd1na2vs0mg"},{"bike_id":"86f139b9-ffd3-4a79-86e8-d22d017328ee","system_id":"levelo_inurba_marseille","lat":43.34754,"lon":5.38167,"is_reserved":false,"is_disabled":false,"rental_uris":{"android":"levelo://app?vid=86f139b9-ffd3-4a79-86e8-d22d017328ee","ios":"levelo://app?vid=86f139b9-ffd3-4a79-86e8-d22d017328ee"},"vehicle_type_id":"4","last_reported":1743358345,"current_range_meters":9600,"station_id":"","pricing_plan_id":"cebpf4jnsgd1na2vs0mg"},{"bike_id":"e605d5ca-3ea9-420f-a248-9496269c809e","system_id":"levelo_inurba_marseille","lat":43.32046,"lon":5.36909,"is_reserved":false,"is_disabled":false,"rental_uris":{"android":"levelo://app?vid=e605d5ca-3ea9-420f-a248-9496269c809e","ios":"levelo://app?vid=e605d5ca-3ea9-420f-a248-9496269c809e"},"vehicle_type_id":"4","last_reported":1743358345,"current_range_meters":9600,"station_id":"","pricing_plan_id":"cebpf4jnsgd1na2vs0mg"},{"bike_id":"db9511e9-f15e-4cd8-8101-b778662e0a12","system_id":"levelo_inurba_marseille","lat":43.29543,"lon":5.38545,"is_reserved":false,"is_disabled":false,"rental_uris":{"android":"levelo://app?vid=db9511e9-f15e-4cd8-8101-b778662e0a12","ios":"levelo://app?vid=db9511e9-f15e-4cd8-8101-b778662e0a12"},"vehicle_type_id":"4","last_reported":1743358345,"current_range_meters":9600,"station_id":"ce4bgih2rcd13ifvqba0","pricing_plan_id":"cebpf4jnsgd1na2vs0mg"},{"bike_id":"528811ea-4bae-4930-8535-0da5c06414eb","system_id":"levelo_inurba_marseille","lat":43.29411,"lon":5.3867,"is_reserved":false,"is_disabled":false,"rental_uris":{"android":"levelo://app?vid=528811ea-4bae-4930-8535-0da5c06414eb","ios":"levelo://app?vid=528811ea-4bae-4930-8535-0da5c06414eb"},"vehicle_type_id":"4","last_reported":1743358345,"current_range_meters":9600,"station_id":"ce4bh2h2rcd13ifvqdh0","pricing_plan_id":"cebpf4jnsgd1na2vs0mg"},{"bike_id":"5c49fc8b-b573-44cd-9da2-767f8f7a765b","system_id":"levelo_inurba_marseille","lat":43.31751,"lon":5.39024,"is_reserved":false,"is_disabled":false,"rental_uris":{"android":"levelo://app?vid=5c49fc8b-b573-44cd-9da2-767f8f7a765b","ios":"levelo://app?vid=5c49fc8b-b573-44cd-9da2-767f8f7a765b"},"vehicle_type_id":"4","last_reported":1743358345,"current_range_meters":10000,"station_id":"ce4bhqp2rcd13ifvqhng","pricing_plan_id":"cebpf4jnsgd1na2vs0mg"},{"bike_id":"7e46e322-27d9-4f9d-b1ce-11741eb7c78f","system_id":"levelo_inurba_marseille","lat":43.31753,"lon":5.39033,"is_reserved":false,"is_disabled":false,"rental_uris":{"android":"levelo://app?vid=7e46e322-27d9-4f9d-b1ce-11741eb7c78f","ios":"levelo://app?vid=7e46e322-27d9-4f9d-b1ce-11741eb7c78f"},"vehicle_type_id":"4","last_reported":1743358345,"current_range_meters":10000,"station_id":"ce4bhqp2rcd13ifvqhng","pricing_plan_id":"cebpf4jnsgd1na2vs0mg"},{"bike_id":"1db49edd-6de7-48f9-b18a-23a07e8ebd2c","system_id":"levelo_inurba_marseille","lat":43.23197,"lon":5.35551,"is_reserved":false,"is_disabled":false,"rental_uris":{"android":"levelo://app?vid=1db49edd-6de7-48f9-b18a-23a07e8ebd2c","ios":"levelo://app?vid=1db49edd-6de7-48f9-b18a-23a07e8ebd2c"},"vehicle_type_id":"4","last_reported":1743358345,"current_range_meters":10000,"station_id":"ce4bhu92rcd13ifvqi70","pricing_plan_id":"cebpf4jnsgd1na2vs0mg"},{"bike_id":"e9a2a445-241d-4d76-ae7f-242ac1e603b1","system_id":"levelo_inurba_marseille","lat":43.2319,"lon":5.35565,"is_reserved":false,"is_disabled":false,"rental_uris":{"android":"levelo://app?vid=e9a2a445-241d-4d76-ae7f-242ac1e603b1","ios":"levelo://app?vid=e9a2a445-241d-4d76-ae7f-242ac1e603b1"},"vehicle_type_id":"4","last_reported":1743358345,"current_range_meters":10000,"station_id":"ce4bhu92rcd13ifvqi70","pricing_plan_id":"cebpf4jnsgd1na2vs0mg"},{"bike_id":"bfcad82b-6acc-493c-b418-93ec0bae17e4","system_id":"levelo_inurba_marseille","lat":43.32125,"lon":5.36787,"is_reserved":false,"is_disabled":false,"rental_uris":{"android":"levelo://app?vid=bfcad82b-6acc-493c-b418-93ec0bae17e4","ios":"levelo://app?vid=bfcad82b-6acc-493c-b418-93ec0bae17e4"},"vehicle_type_id":"4","last_reported":1743358345,"current_range_meters":10000,"station_id":"ce4bhrh2rcd13ifvqhug","pricing_plan_id":"cebpf4jnsgd1na2vs0mg"},{"bike_id":"65c86eef-773c-497a-a4a8-b50b74875bb4","system_id":"levelo_inurba_marseille","lat":43.29969,"lon":5.385,"is_reserved":false,"is_disabled":false,"rental_uris":{"android":"levelo://app?vid=65c86eef-773c-497a-a4a8-b50b74875bb4","ios":"levelo://app?vid=65c86eef-773c-497a-a4a8-b50b74875bb4"},"vehicle_type_id":"4","last_reported":1743358345,"current_range_meters":10000,"station_id":"ce4bgj92rcd13ifvqbd0","pricing_plan_id":"cebpf4jnsgd1na2vs0mg"},{"bike_id":"e3bcbe12-ea9c-4e14-9925-b1ac353cb08f","system_id":"levelo_inurba_marseille","lat":43.30782,"lon":5.37669,"is_reserved":false,"is_disabled":false,"rental_uris":{"android":"levelo://app?vid=e3bcbe12-ea9c-4e14-9925-b1ac353cb08f","ios":"levelo://app?vid=e3bcbe12-ea9c-4e14-9925-b1ac353cb08f"},"vehicle_type_id":"4","last_reported":1743358345,"current_range_meters":10000,"station_id":"ce4bgv92rcd13ifvqcq0","pricing_plan_id":"cebpf4jnsgd1na2vs0mg"},{"bike_id":"a82f1a84-6421-4152-8204-8934c8757acb","system_id":"levelo_inurba_marseille","lat":43.29406,"lon":5.38619,"is_reserved":false,"is_disabled":false,"rental_uris":{"android":"levelo://app?vid=a82f1a84-6421-4152-8204-8934c8757acb","ios":"levelo://app?vid=a82f1a84-6421-4152-8204-8934c8757acb"},"vehicle_type_id":"4","last_reported":1743358345,"current_range_meters":10000,"station_id":"ce4bh2h2rcd13ifvqdh0","pricing_plan_id":"cebpf4jnsgd1na2vs0mg"},{"bike_id":"7a19f0a8-3342-428f-b3b1-bd283609b8f8","system_id":"levelo_inurba_marseille","lat":43.30774,"lon":5.37642,"is_reserved":false,"is_disabled":false,"rental_uris":{"android":"levelo://app?vid=7a19f0a8-3342-428f-b3b1-bd283609b8f8","ios":"levelo://app?vid=7a19f0a8-3342-428f-b3b1-bd283609b8f8"},"vehicle_type_id":"4","last_reported":1743358345,"current_range_meters":10000,"station_id":"ce4bgv92rcd13ifvqcq0","pricing_plan_id":"cebpf4jnsgd1na2vs0mg"},{"bike_id":"f49f563b-cadd-422a-9980-423e618c175e","system_id":"levelo_inurba_marseille","lat":43.2804,"lon":5.3695,"is_reserved":false,"is_disabled":false,"rental_uris":{"android":"levelo://app?vid=f49f563b-cadd-422a-9980-423e618c175e","ios":"levelo://app?vid=f49f563b-cadd-422a-9980-423e618c175e"},"vehicle_type_id":"4","last_reported":1743358345,"current_range_meters":10000,"station_id":"ce4bha12rcd13ifvqef0","pricing_plan_id":"cebpf4jnsgd1na2vs0mg"},{"bike_id":"cb8c9ca5-9083-4e86-9e9f-2bc245af5095","system_id":"levelo_inurba_marseille","lat":43.28429,"lon":5.37551,"is_reserved":false,"is_disabled":true,"rental_uris":{"android":"levelo://app?vid=cb8c9ca5-9083-4e86-9e9f-2bc245af5095","ios":"levelo://app?vid=cb8c9ca5-9083-4e86-9e9f-2bc245af5095"},"vehicle_type_id":"4","last_reported":1743358345,"current_range_meters":10000,"station_id":"ce4bh412rcd13ifvqds0","pricing_plan_id":"cebpf4jnsgd1na2vs0mg"},{"bike_id":"7a038292-0ee0-44fd-91f6-cd16be90d9ad","system_id":"levelo_inurba_marseille","lat":43.29274,"lon":5.38444,"is_reserved":false,"is_disabled":false,"rental_uris":{"android":"levelo://app?vid=7a038292-0ee0-44fd-91f6-cd16be90d9ad","ios":"levelo://app?vid=7a038292-0ee0-44fd-91f6-cd16be90d9ad"},"vehicle_type_id":"4","last_reported":1743358345,"current_range_meters":10000,"station_id":"ce4bh692rcd13ifvqea0","pricing_plan_id":"cebpf4jnsgd1na2vs0mg"},{"bike_id":"67f6ad16-73d8-49e4-8119-f6692e87ac6e","system_id":"levelo_inurba_marseille","lat":43.2707,"lon":5.42281,"is_reserved":false,"is_disabled":false,"rental_uris":{"android":"levelo://app?vid=67f6ad16-73d8-49e4-8119-f6692e87ac6e","ios":"levelo://app?vid=67f6ad16-73d8-49e4-8119-f6692e87ac6e"},"vehicle_type_id":"4","last_reported":1743358345,"current_range_meters":10000,"station_id":"ce4bhk92rcd13ifvqgb0","pricing_plan_id":"cebpf4jnsgd1na2vs0mg"},{"bike_id":"960fcc8a-7e25-4537-b409-a26156344401","system_id":"levelo_inurba_marseille","lat":43.29574,"lon":5.39985,"is_reserved":false,"is_disabled":false,"rental_uris":{"android":"levelo://app?vid=960fcc8a-7e25-4537-b409-a26156344401","ios":"levelo://app?vid=960fcc8a-7e25-4537-b409-a26156344401"},"vehicle_type_id":"4","last_reported":1743358345,"current_range_meters":10000,"station_id":"ce4bh312rcd13ifvqdj0","pricing_plan_id":"cebpf4jnsgd1na2vs0mg"},{"bike_id":"ca61c053-b807-43ca-8137-c035fc4e2ca7","system_id":"levelo_inurba_marseille","lat":43.27717,"lon":5.38941,"is_reserved":false,"is_disabled":false,"rental_uris":{"android":"levelo://app?vid=ca61c053-b807-43ca-8137-c035fc4e2ca7","ios":"levelo://app?vid=ca61c053-b807-43ca-8137-c035fc4e2ca7"},"vehicle_type_id":"4","last_reported":1743358345,"current_range_meters":10000,"station_id":"ce4bhi12rcd13ifvqfo0","pricing_plan_id":"cebpf4jnsgd1na2vs0mg"},{"bike_id":"d0eb5eab-ee9f-44c6-967d-4c60aa7c46b4","system_id":"levelo_inurba_marseille","lat":43.23185,"lon":5.39982,"is_reserved":false,"is_disabled":false,"rental_uris":{"android":"levelo://app?vid=d0eb5eab-ee9f-44c6-967d-4c60aa7c46b4","ios":"levelo://app?vid=d0eb5eab-ee9f-44c6-967d-4c60aa7c46b4"},"vehicle_type_id":"4","last_reported":1743358345,"current_range_meters":10000,"station_id":"ce4bhn12rcd13ifvqgqg","pricing_plan_id":"cebpf4jnsgd1na2vs0mg"},{"bike_id":"25c9e4eb-89cf-4038-a851-b8b306b6a973","system_id":"levelo_inurba_marseille","lat":43.29534,"lon":5.38556,"is_reserved":false,"is_disabled":false,"rental_uris":{"android":"levelo://app?vid=25c9e4eb-89cf-4038-a851-b8b306b6a973","ios":"levelo://app?vid=25c9e4eb-89cf-4038-a851-b8b306b6a973"},"vehicle_type_id":"4","last_reported":1743358345,"current_range_meters":10000,"station_id":"ce4bgih2rcd13ifvqba0","pricing_plan_id":"cebpf4jnsgd1na2vs0mg"},{"bike_id":"568096ca-68e4-408e-8078-a0dad8e46260","system_id":"levelo_inurba_marseille","lat":43.26956,"lon":5.38644,"is_reserved":false,"is_disabled":false,"rental_uris":{"android":"levelo://app?vid=568096ca-68e4-408e-8078-a0dad8e46260","ios":"levelo://app?vid=568096ca-68e4-408e-8078-a0dad8e46260"},"vehicle_type_id":"4","last_reported":1743358345,"current_range_meters":9600,"station_id":"ce4bhh92rcd13ifvqfh0","pricing_plan_id":"cebpf4jnsgd1na2vs0mg"},{"bike_id":"871f3035-10bb-4a28-afa0-18619600e1a6","system_id":"levelo_inurba_marseille","lat":43.29926,"lon":5.36573,"is_reserved":false,"is_disabled":true,"rental_uris":{"android":"levelo://app?vid=871f3035-10bb-4a28-afa0-18619600e1a6","ios":"levelo://app?vid=871f3035-10bb-4a28-afa0-18619600e1a6"},"vehicle_type_id":"4","last_reported":1743358345,"current_range_meters":10800,"station_id":"ce4bgm92rcd13ifvqbr0","pricing_plan_id":"cebpf4jnsgd1na2vs0mg"},{"bike_id":"cdd4701a-5437-48b4-b6e2-b9fe4243cf06","system_id":"levelo_inurba_marseille","lat":43.29534,"lon":5.38567,"is_reserved":false,"is_disabled":false,"rental_uris":{"android":"levelo://app?vid=cdd4701a-5437-48b4-b6e2-b9fe4243cf06","ios":"levelo://app?vid=cdd4701a-5437-48b4-b6e2-b9fe4243cf06"},"vehicle_type_id":"4","last_reported":1743358345,"current_range_meters":10000,"station_id":"ce4bgih2rcd13ifvqba0","pricing_plan_id":"cebpf4jnsgd1na2vs0mg"},{"bike_id":"12f68a9a-7a3f-45ef-8d81-6cd9cf0138b7","system_id":"levelo_inurba_marseille","lat":43.296,"lon":5.3809,"is_reserved":false,"is_disabled":false,"rental_uris":{"android":"levelo://app?vid=12f68a9a-7a3f-45ef-8d81-6cd9cf0138b7","ios":"levelo://app?vid=12f68a9a-7a3f-45ef-8d81-6cd9cf0138b7"},"vehicle_type_id":"4","last_reported":1743358345,"current_range_meters":10800,"station_id":"ce4bgl12rcd13ifvqbo0","pricing_plan_id":"cebpf4jnsgd1na2vs0mg"},{"bike_id":"1532116e-6aef-4839-80f9-77f5495c32d9","system_id":"levelo_inurba_marseille","lat":43.30884,"lon":5.37198,"is_reserved":false,"is_disabled":false,"rental_uris":{"android":"levelo://app?vid=1532116e-6aef-4839-80f9-77f5495c32d9","ios":"levelo://app?vid=1532116e-6aef-4839-80f9-77f5495c32d9"},"vehicle_type_id":"4","last_reported":1743358345,"current_range_meters":10800,"station_id":"ce4bguh2rcd13ifvqckg","pricing_plan_id":"cebpf4jnsgd1na2vs0mg"},{"bike_id":"2403089b-07d2-4817-842f-5393e534470e","system_id":"levelo_inurba_marseille","lat":43.27986,"lon":5.41652,"is_reserved":false,"is_disabled":false,"rental_uris":{"android":"levelo://app?vid=2403089b-07d2-4817-842f-5393e534470e","ios":"levelo://app?vid=2403089b-07d2-4817-842f-5393e534470e"},"vehicle_type_id":"4","last_reported":1743358345,"current_range_meters":10800,"station_id":"ce4bho12rcd13ifvqh1g","pricing_plan_id":"cebpf4jnsgd1na2vs0mg"},{"bike_id":"067240cd-0fed-4a93-8778-4ebce01491fa","system_id":"levelo_inurba_marseille","lat":43.30559,"lon":5.384356,"is_reserved":false,"is_disabled":false,"rental_uris":{"android":"levelo://app?vid=067240cd-0fed-4a93-8778-4ebce01491fa","ios":"levelo://app?vid=067240cd-0fed-4a93-8778-4ebce01491fa"},"vehicle_type_id":"4","last_reported":1743358345,"current_range_meters":10800,"station_id":"ce4bgt92rcd13ifvqcf0","pricing_plan_id":"cebpf4jnsgd1na2vs0mg"},{"bike_id":"5a4bd2b9-e138-4602-b86d-0de180b82c69","system_id":"levelo_inurba_marseille","lat":43.27954,"lon":5.41042,"is_reserved":false,"is_disabled":false,"rental_uris":{"android":"levelo://app?vid=5a4bd2b9-e138-4602-b86d-0de180b82c69","ios":"levelo://app?vid=5a4bd2b9-e138-4602-b86d-0de180b82c69"},"vehicle_type_id":"4","last_reported":1743358345,"current_range_meters":10800,"station_id":"ce4bhnp2rcd13ifvqh0g","pricing_plan_id":"cebpf4jnsgd1na2vs0mg"},{"bike_id":"d7712657-beaf-4b9d-b29c-94fc788e89a3","system_id":"levelo_inurba_marseille","lat":43.31166,"lon":5.3872,"is_reserved":false,"is_disabled":false,"rental_uris":{"android":"levelo://app?vid=d7712657-beaf-4b9d-b29c-94fc788e89a3","ios":"levelo://app?vid=d7712657-beaf-4b9d-b29c-94fc788e89a3"},"vehicle_type_id":"4","last_reported":1743358345,"current_range_meters":10800,"station_id":"ce4bgv12rcd13ifvqcp0","pricing_plan_id":"cebpf4jnsgd1na2vs0mg"},{"bike_id":"452ee7ed-aed5-4f3a-80c1-b63ab3953967","system_id":"levelo_inurba_marseille","lat":43.27951,"lon":5.41043,"is_reserved":false,"is_disabled":false,"rental_uris":{"android":"levelo://app?vid=452ee7ed-aed5-4f3a-80c1-b63ab3953967","ios":"levelo://app?vid=452ee7ed-aed5-4f3a-80c1-b63ab3953967"},"vehicle_type_id":"4","last_reported":1743358345,"current_range_meters":10800,"station_id":"ce4bhnp2rcd13ifvqh0g","pricing_plan_id":"cebpf4jnsgd1na2vs0mg"},{"bike_id":"32471ba9-fd17-40c0-ab4f-200aab707b9b","system_id":"levelo_inurba_marseille","lat":43.23065,"lon":5.355046,"is_reserved":false,"is_disabled":false,"rental_uris":{"android":"levelo://app?vid=32471ba9-fd17-40c0-ab4f-200aab707b9b","ios":"levelo://app?vid=32471ba9-fd17-40c0-ab4f-200aab707b9b"},"vehicle_type_id":"4","last_reported":1743358345,"current_range_meters":10800,"station_id":"cpo3342slgdg3j2ifvpg","pricing_plan_id":"cebpf4jnsgd1na2vs0mg"},{"bike_id":"b6e27bb0-bbef-4958-8fdd-4a5b85ab80be","system_id":"levelo_inurba_marseille","lat":43.29546,"lon":5.38537,"is_reserved":false,"is_disabled":false,"rental_uris":{"android":"levelo://app?vid=b6e27bb0-bbef-4958-8fdd-4a5b85ab80be","ios":"levelo://app?vid=b6e27bb0-bbef-4958-8fdd-4a5b85ab80be"},"vehicle_type_id":"4","last_reported":1743358345,"current_range_meters":10800,"station_id":"ce4bgih2rcd13ifvqba0","pricing_plan_id":"cebpf4jnsgd1na2vs0mg"},{"bike_id":"a0eb0cb7-cfd0-4c44-a801-cca8496833e5","system_id":"levelo_inurba_marseille","lat":43.23184,"lon":5.39989,"is_reserved":false,"is_disabled":false,"rental_uris":{"android":"levelo://app?vid=a0eb0cb7-cfd0-4c44-a801-cca8496833e5","ios":"levelo://app?vid=a0eb0cb7-cfd0-4c44-a801-cca8496833e5"},"vehicle_type_id":"4","last_reported":1743358345,"current_range_meters":10800,"station_id":"ce4bhn12rcd13ifvqgqg","pricing_plan_id":"cebpf4jnsgd1na2vs0mg"},{"bike_id":"f84bf4d0-5451-482b-9d04-47c5d64fe80f","system_id":"levelo_inurba_marseille","lat":43.30136,"lon":5.39865,"is_reserved":false,"is_disabled":false,"rental_uris":{"android":"levelo://app?vid=f84bf4d0-5451-482b-9d04-47c5d64fe80f","ios":"levelo://app?vid=f84bf4d0-5451-482b-9d04-47c5d64fe80f"},"vehicle_type_id":"4","last_reported":1743358345,"current_range_meters":11200,"station_id":"ce4bh0h2rcd13ifvqd40","pricing_plan_id":"cebpf4jnsgd1na2vs0mg"},{"bike_id":"2880ea26-b3a9-4d8c-8fb8-f7269f755ad9","system_id":"levelo_inurba_marseille","lat":43.28435,"lon":5.39185,"is_reserved":false,"is_disabled":false,"rental_uris":{"android":"levelo://app?vid=2880ea26-b3a9-4d8c-8fb8-f7269f755ad9","ios":"levelo://app?vid=2880ea26-b3a9-4d8c-8fb8-f7269f755ad9"},"vehicle_type_id":"4","last_reported":1743358345,"current_range_meters":11200,"station_id":"ce4bhoh2rcd13ifvqh5g","pricing_plan_id":"cebpf4jnsgd1na2vs0mg"},{"bike_id":"bef5fed9-fcd2-40e4-89d8-30fe95ac5e83","system_id":"levelo_inurba_marseille","lat":43.29421,"lon":5.38632,"is_reserved":false,"is_disabled":false,"rental_uris":{"android":"levelo://app?vid=bef5fed9-fcd2-40e4-89d8-30fe95ac5e83","ios":"levelo://app?vid=bef5fed9-fcd2-40e4-89d8-30fe95ac5e83"},"vehicle_type_id":"4","last_reported":1743358345,"current_range_meters":11200,"station_id":"ce4bh2h2rcd13ifvqdh0","pricing_plan_id":"cebpf4jnsgd1na2vs0mg"},{"bike_id":"76859129-4009-4843-90a4-dc4d2b65271a","system_id":"levelo_inurba_marseille","lat":43.24164,"lon":5.36396,"is_reserved":false,"is_disabled":false,"rental_uris":{"android":"levelo://app?vid=76859129-4009-4843-90a4-dc4d2b65271a","ios":"levelo://app?vid=76859129-4009-4843-90a4-dc4d2b65271a"},"vehicle_type_id":"4","last_reported":1743358345,"current_range_meters":11200,"station_id":"cpo36qri1sfpv3e86is0","pricing_plan_id":"cebpf4jnsgd1na2vs0mg"},{"bike_id":"d5fd952a-daa3-4d2e-9b95-032b62cc1667","system_id":"levelo_inurba_marseille","lat":43.29629,"lon":5.37169,"is_reserved":false,"is_disabled":false,"rental_uris":{"android":"levelo://app?vid=d5fd952a-daa3-4d2e-9b95-032b62cc1667","ios":"levelo://app?vid=d5fd952a-daa3-4d2e-9b95-032b62cc1667"},"vehicle_type_id":"4","last_reported":1743358345,"current_range_meters":11200,"station_id":"ce4bgnh2rcd13ifvqc0g","pricing_plan_id":"cebpf4jnsgd1na2vs0mg"},{"bike_id":"fc91984a-ca60-482c-8b4c-39732d1fd181","system_id":"levelo_inurba_marseille","lat":43.28415,"lon":5.3751,"is_reserved":false,"is_disabled":false,"rental_uris":{"android":"levelo://app?vid=fc91984a-ca60-482c-8b4c-39732d1fd181","ios":"levelo://app?vid=fc91984a-ca60-482c-8b4c-39732d1fd181"},"vehicle_type_id":"4","last_reported":1743358345,"current_range_meters":11200,"station_id":"ce4bh412rcd13ifvqds0","pricing_plan_id":"cebpf4jnsgd1na2vs0mg"},{"bike_id":"7c313d86-e9ce-43e4-a732-9a4b0eae6ae6","system_id":"levelo_inurba_marseille","lat":43.31329,"lon":5.39695,"is_reserved":false,"is_disabled":false,"rental_uris":{"android":"levelo://app?vid=7c313d86-e9ce-43e4-a732-9a4b0eae6ae6","ios":"levelo://app?vid=7c313d86-e9ce-43e4-a732-9a4b0eae6ae6"},"vehicle_type_id":"4","last_reported":1743358345,"current_range_meters":11200,"station_id":"ce4bgvp2rcd13ifvqcu0","pricing_plan_id":"cebpf4jnsgd1na2vs0mg"},{"bike_id":"8c3ce736-3e79-4c07-978f-c2984e9e31fd","system_id":"levelo_inurba_marseille","lat":43.29444,"lon":5.38637,"is_reserved":false,"is_disabled":false,"rental_uris":{"android":"levelo://app?vid=8c3ce736-3e79-4c07-978f-c2984e9e31fd","ios":"levelo://app?vid=8c3ce736-3e79-4c07-978f-c2984e9e31fd"},"vehicle_type_id":"4","last_reported":1743358345,"current_range_meters":11200,"station_id":"ce4bh2h2rcd13ifvqdh0","pricing_plan_id":"cebpf4jnsgd1na2vs0mg"},{"bike_id":"af780d85-279c-488d-a00b-0e570db90b59","system_id":"levelo_inurba_marseille","lat":43.297974,"lon":5.381141,"is_reserved":false,"is_disabled":false,"rental_uris":{"android":"levelo://app?vid=af780d85-279c-488d-a00b-0e570db90b59","ios":"levelo://app?vid=af780d85-279c-488d-a00b-0e570db90b59"},"vehicle_type_id":"4","last_reported":1743358345,"current_range_meters":11200,"station_id":"ce4bgip2rcd13ifvqbb0","pricing_plan_id":"cebpf4jnsgd1na2vs0mg"},{"bike_id":"33dca169-b5ca-419a-ad92-14b7e71d4ddb","system_id":"levelo_inurba_marseille","lat":43.281504,"lon":5.368752,"is_reserved":false,"is_disabled":false,"rental_uris":{"android":"levelo://app?vid=33dca169-b5ca-419a-ad92-14b7e71d4ddb","ios":"levelo://app?vid=33dca169-b5ca-419a-ad92-14b7e71d4ddb"},"vehicle_type_id":"4","last_reported":1743358345,"current_range_meters":11200,"station_id":"ce4bha12rcd13ifvqef0","pricing_plan_id":"cebpf4jnsgd1na2vs0mg"},{"bike_id":"7594f2f4-5d25-4e3e-bec9-f78efcdb01e2","system_id":"levelo_inurba_marseille","lat":43.28685,"lon":5.38673,"is_reserved":false,"is_disabled":false,"rental_uris":{"android":"levelo://app?vid=7594f2f4-5d25-4e3e-bec9-f78efcdb01e2","ios":"levelo://app?vid=7594f2f4-5d25-4e3e-bec9-f78efcdb01e2"},"vehicle_type_id":"4","last_reported":1743358345,"current_range_meters":11200,"station_id":"ce4bh492rcd13ifvqdug","pricing_plan_id":"cebpf4jnsgd1na2vs0mg"},{"bike_id":"07ec0419-41dd-4756-91b5-f9e4802c50a1","system_id":"levelo_inurba_marseille","lat":43.29517,"lon":5.39413,"is_reserved":false,"is_disabled":false,"rental_uris":{"android":"levelo://app?vid=07ec0419-41dd-4756-91b5-f9e4802c50a1","ios":"levelo://app?vid=07ec0419-41dd-4756-91b5-f9e4802c50a1"},"vehicle_type_id":"4","last_reported":1743358345,"current_range_meters":11200,"station_id":"ce4bh292rcd13ifvqdf0","pricing_plan_id":"cebpf4jnsgd1na2vs0mg"},{"bike_id":"70019eaa-2058-401c-993c-044f984cba77","system_id":"levelo_inurba_marseille","lat":43.304598,"lon":5.379062,"is_reserved":false,"is_disabled":false,"rental_uris":{"android":"levelo://app?vid=70019eaa-2058-401c-993c-044f984cba77","ios":"levelo://app?vid=70019eaa-2058-401c-993c-044f984cba77"},"vehicle_type_id":"4","last_reported":1743358345,"current_range_meters":11600,"station_id":"ce4bgup2rcd13ifvqcn0","pricing_plan_id":"cebpf4jnsgd1na2vs0mg"},{"bike_id":"85f90ec7-6719-4076-92cb-6795717ef2bc","system_id":"levelo_inurba_marseille","lat":43.29259,"lon":5.37626,"is_reserved":false,"is_disabled":false,"rental_uris":{"android":"levelo://app?vid=85f90ec7-6719-4076-92cb-6795717ef2bc","ios":"levelo://app?vid=85f90ec7-6719-4076-92cb-6795717ef2bc"},