{"last_updated":1781458037,"ttl":60,"version":"2.2","data":{"bikes":[{"bike_id":"ec12d144-24c8-4071-abf6-197e520eae96","system_id":"levelo_inurba_marseille","lat":43.337444,"lon":5.374475,"is_reserved":false,"is_disabled":false,"rental_uris":{"android":"levelo://app?vid=ec12d144-24c8-4071-abf6-197e520eae96","ios":"levelo://app?vid=ec12d144-24c8-4071-abf6-197e520eae96"},"vehicle_type_id":"4","last_reported":1781458038,"current_range_meters":0,"station_id":"","pricing_plan_id":"cebpf4jnsgd1na2vs0mg"},{"bike_id":"05824173-0c7d-4f13-8586-4215019a2690","system_id":"levelo_inurba_marseille","lat":43.30887,"lon":5.39659,"is_reserved":false,"is_disabled":false,"rental_uris":{"android":"levelo://app?vid=05824173-0c7d-4f13-8586-4215019a2690","ios":"levelo://app?vid=05824173-0c7d-4f13-8586-4215019a2690"},"vehicle_type_id":"4","last_reported":1781458038,"current_range_meters":2800,"station_id":"ce4bh012rcd13ifvqcv0","pricing_plan_id":"cebpf4jnsgd1na2vs0mg"},{"bike_id":"fca4716d-363f-4061-9268-5fdf2b190705","system_id":"levelo_inurba_marseille","lat":43.281035,"lon":5.367145,"is_reserved":false,"is_disabled":true,"rental_uris":{"android":"levelo://app?vid=fca4716d-363f-4061-9268-5fdf2b190705","ios":"levelo://app?vid=fca4716d-363f-4061-9268-5fdf2b190705"},"vehicle_type_id":"4","last_reported":1781458038,"current_range_meters":2800,"station_id":"ce4bhgp2rcd13ifvqfc0","pricing_plan_id":"cebpf4jnsgd1na2vs0mg"},{"bike_id":"1e906e1c-19f3-4c50-8379-cd1ba5824b24","system_id":"levelo_inurba_marseille","lat":43.28284,"lon":5.35067,"is_reserved":false,"is_disabled":false,"rental_uris":{"android":"levelo://app?vid=1e906e1c-19f3-4c50-8379-cd1ba5824b24","ios":"levelo://app?vid=1e906e1c-19f3-4c50-8379-cd1ba5824b24"},"vehicle_type_id":"4","last_reported":1781458038,"current_range_meters":2800,"station_id":"ce4bhbp2rcd13ifvqerg","pricing_plan_id":"cebpf4jnsgd1na2vs0mg"},{"bike_id":"459952f5-55f8-43e7-b3ad-b9d83a8b249e","system_id":"levelo_inurba_marseille","lat":43.24624,"lon":5.41702,"is_reserved":false,"is_disabled":false,"rental_uris":{"android":"levelo://app?vid=459952f5-55f8-43e7-b3ad-b9d83a8b249e","ios":"levelo://app?vid=459952f5-55f8-43e7-b3ad-b9d83a8b249e"},"vehicle_type_id":"4","last_reported":1781458038,"current_range_meters":2800,"station_id":"","pricing_plan_id":"cebpf4jnsgd1na2vs0mg"},{"bike_id":"7070020d-5bc5-4897-9198-df48c4acdc22","system_id":"levelo_inurba_marseille","lat":43.29796,"lon":5.39338,"is_reserved":false,"is_disabled":false,"rental_uris":{"android":"levelo://app?vid=7070020d-5bc5-4897-9198-df48c4acdc22","ios":"levelo://app?vid=7070020d-5bc5-4897-9198-df48c4acdc22"},"vehicle_type_id":"4","last_reported":1781458038,"current_range_meters":2800,"station_id":"chh1huq6cuj3fo74tm60","pricing_plan_id":"cebpf4jnsgd1na2vs0mg"},{"bike_id":"6216e971-d99d-4e09-bc68-2b6a22b618d5","system_id":"levelo_inurba_marseille","lat":43.34242,"lon":5.36085,"is_reserved":false,"is_disabled":false,"rental_uris":{"android":"levelo://app?vid=6216e971-d99d-4e09-bc68-2b6a22b618d5","ios":"levelo://app?vid=6216e971-d99d-4e09-bc68-2b6a22b618d5"},"vehicle_type_id":"4","last_reported":1781458038,"current_range_meters":2800,"station_id":"","pricing_plan_id":"cebpf4jnsgd1na2vs0mg"},{"bike_id":"f28a2ea1-2d3f-41ff-b267-be82a7f50e5b","system_id":"levelo_inurba_marseille","lat":43.272141,"lon":5.391799,"is_reserved":false,"is_disabled":false,"rental_uris":{"android":"levelo://app?vid=f28a2ea1-2d3f-41ff-b267-be82a7f50e5b","ios":"levelo://app?vid=f28a2ea1-2d3f-41ff-b267-be82a7f50e5b"},"vehicle_type_id":"4","last_reported":1781458038,"current_range_meters":2800,"station_id":"ce4bhhp2rcd13ifvqfm0","pricing_plan_id":"cebpf4jnsgd1na2vs0mg"},{"bike_id":"c533aa96-ea5d-4d67-ae52-7270f3ec5384","system_id":"levelo_inurba_marseille","lat":43.29941,"lon":5.36529,"is_reserved":false,"is_disabled":false,"rental_uris":{"android":"levelo://app?vid=c533aa96-ea5d-4d67-ae52-7270f3ec5384","ios":"levelo://app?vid=c533aa96-ea5d-4d67-ae52-7270f3ec5384"},"vehicle_type_id":"4","last_reported":1781458038,"current_range_meters":2800,"station_id":"ce4bgm92rcd13ifvqbr0","pricing_plan_id":"cebpf4jnsgd1na2vs0mg"},{"bike_id":"9cb69fd7-9b98-4d23-9f8b-3b736f55fd23","system_id":"levelo_inurba_marseille","lat":43.2866,"lon":5.35156,"is_reserved":false,"is_disabled":false,"rental_uris":{"android":"levelo://app?vid=9cb69fd7-9b98-4d23-9f8b-3b736f55fd23","ios":"levelo://app?vid=9cb69fd7-9b98-4d23-9f8b-3b736f55fd23"},"vehicle_type_id":"4","last_reported":1781458038,"current_range_meters":2800,"station_id":"","pricing_plan_id":"cebpf4jnsgd1na2vs0mg"},{"bike_id":"eaf7b6af-4b59-4c2d-9b24-3b2ba05e4160","system_id":"levelo_inurba_marseille","lat":43.31647,"lon":5.37653,"is_reserved":false,"is_disabled":false,"rental_uris":{"android":"levelo://app?vid=eaf7b6af-4b59-4c2d-9b24-3b2ba05e4160","ios":"levelo://app?vid=eaf7b6af-4b59-4c2d-9b24-3b2ba05e4160"},"vehicle_type_id":"4","last_reported":1781458038,"current_range_meters":2800,"station_id":"","pricing_plan_id":"cebpf4jnsgd1na2vs0mg"},{"bike_id":"d2673cd9-6c70-4d80-832c-9de4211b4cad","system_id":"levelo_inurba_marseille","lat":43.27373,"lon":5.36213,"is_reserved":false,"is_disabled":true,"rental_uris":{"android":"levelo://app?vid=d2673cd9-6c70-4d80-832c-9de4211b4cad","ios":"levelo://app?vid=d2673cd9-6c70-4d80-832c-9de4211b4cad"},"vehicle_type_id":"4","last_reported":1781458038,"current_range_meters":2800,"station_id":"ce4bhbh2rcd13ifvqeo0","pricing_plan_id":"cebpf4jnsgd1na2vs0mg"},{"bike_id":"12326527-aa04-43ed-8122-fab62005bcac","system_id":"levelo_inurba_marseille","lat":43.27378,"lon":5.36258,"is_reserved":false,"is_disabled":true,"rental_uris":{"android":"levelo://app?vid=12326527-aa04-43ed-8122-fab62005bcac","ios":"levelo://app?vid=12326527-aa04-43ed-8122-fab62005bcac"},"vehicle_type_id":"4","last_reported":1781458038,"current_range_meters":2800,"station_id":"ce4bhbh2rcd13ifvqeo0","pricing_plan_id":"cebpf4jnsgd1na2vs0mg"},{"bike_id":"0472a309-c7bb-4510-b37b-9ac18e2411ea","system_id":"levelo_inurba_marseille","lat":43.25338,"lon":5.42169,"is_reserved":false,"is_disabled":false,"rental_uris":{"android":"levelo://app?vid=0472a309-c7bb-4510-b37b-9ac18e2411ea","ios":"levelo://app?vid=0472a309-c7bb-4510-b37b-9ac18e2411ea"},"vehicle_type_id":"4","last_reported":1781458038,"current_range_meters":2800,"station_id":"st_d2m65c5bi1j21697t3ng","pricing_plan_id":"cebpf4jnsgd1na2vs0mg"},{"bike_id":"dc3e3e35-560a-41ac-8b92-c31e5b3f3434","system_id":"levelo_inurba_marseille","lat":43.26687,"lon":5.39281,"is_reserved":false,"is_disabled":false,"rental_uris":{"android":"levelo://app?vid=dc3e3e35-560a-41ac-8b92-c31e5b3f3434","ios":"levelo://app?vid=dc3e3e35-560a-41ac-8b92-c31e5b3f3434"},"vehicle_type_id":"4","last_reported":1781458038,"current_range_meters":2800,"station_id":"","pricing_plan_id":"cebpf4jnsgd1na2vs0mg"},{"bike_id":"55fa3295-36ea-46c4-b8c9-094209b29cc4","system_id":"levelo_inurba_marseille","lat":43.29488,"lon":5.43312,"is_reserved":false,"is_disabled":false,"rental_uris":{"android":"levelo://app?vid=55fa3295-36ea-46c4-b8c9-094209b29cc4","ios":"levelo://app?vid=55fa3295-36ea-46c4-b8c9-094209b29cc4"},"vehicle_type_id":"4","last_reported":1781458038,"current_range_meters":2800,"station_id":"st_d3j5ugp08ojc73fj9d10","pricing_plan_id":"cebpf4jnsgd1na2vs0mg"},{"bike_id":"070f37bb-0699-4dc2-9146-e00147bdc550","system_id":"levelo_inurba_marseille","lat":43.284088,"lon":5.374993,"is_reserved":false,"is_disabled":false,"rental_uris":{"android":"levelo://app?vid=070f37bb-0699-4dc2-9146-e00147bdc550","ios":"levelo://app?vid=070f37bb-0699-4dc2-9146-e00147bdc550"},"vehicle_type_id":"4","last_reported":1781458038,"current_range_meters":2800,"station_id":"ce4bh412rcd13ifvqds0","pricing_plan_id":"cebpf4jnsgd1na2vs0mg"},{"bike_id":"6f75a19e-e77e-4cf9-9a44-3f00d18a52f5","system_id":"levelo_inurba_marseille","lat":43.28534,"lon":5.44104,"is_reserved":false,"is_disabled":false,"rental_uris":{"android":"levelo://app?vid=6f75a19e-e77e-4cf9-9a44-3f00d18a52f5","ios":"levelo://app?vid=6f75a19e-e77e-4cf9-9a44-3f00d18a52f5"},"vehicle_type_id":"4","last_reported":1781458038,"current_range_meters":2800,"station_id":"st_d3j3df2ikq2c7380ej80","pricing_plan_id":"cebpf4jnsgd1na2vs0mg"},{"bike_id":"db6b7eb4-7a2b-44e1-ad9c-0255b0411553","system_id":"levelo_inurba_marseille","lat":43.31977,"lon":5.38129,"is_reserved":false,"is_disabled":false,"rental_uris":{"android":"levelo://app?vid=db6b7eb4-7a2b-44e1-ad9c-0255b0411553","ios":"levelo://app?vid=db6b7eb4-7a2b-44e1-ad9c-0255b0411553"},"vehicle_type_id":"4","last_reported":1781458038,"current_range_meters":2800,"station_id":"ce4bhr12rcd13ifvqhpg","pricing_plan_id":"cebpf4jnsgd1na2vs0mg"},{"bike_id":"5ce9dc10-8950-4bd2-b748-5b53fb782a6c","system_id":"levelo_inurba_marseille","lat":43.30936,"lon":5.39039,"is_reserved":false,"is_disabled":false,"rental_uris":{"android":"levelo://app?vid=5ce9dc10-8950-4bd2-b748-5b53fb782a6c","ios":"levelo://app?vid=5ce9dc10-8950-4bd2-b748-5b53fb782a6c"},"vehicle_type_id":"4","last_reported":1781458038,"current_range_meters":2800,"station_id":"ce4bgup2rcd13ifvqco0","pricing_plan_id":"cebpf4jnsgd1na2vs0mg"},{"bike_id":"1ee09c36-c3d7-429d-900c-73e2f1643a9e","system_id":"levelo_inurba_marseille","lat":43.27615,"lon":5.3612,"is_reserved":false,"is_disabled":true,"rental_uris":{"android":"levelo://app?vid=1ee09c36-c3d7-429d-900c-73e2f1643a9e","ios":"levelo://app?vid=1ee09c36-c3d7-429d-900c-73e2f1643a9e"},"vehicle_type_id":"4","last_reported":1781458038,"current_range_meters":2800,"station_id":"ce4bgj92rcd13ifvqbe0","pricing_plan_id":"cebpf4jnsgd1na2vs0mg"},{"bike_id":"f90f6408-dd48-46cf-b136-84d5938bbde3","system_id":"levelo_inurba_marseille","lat":43.295227,"lon":5.3941,"is_reserved":false,"is_disabled":false,"rental_uris":{"android":"levelo://app?vid=f90f6408-dd48-46cf-b136-84d5938bbde3","ios":"levelo://app?vid=f90f6408-dd48-46cf-b136-84d5938bbde3"},"vehicle_type_id":"4","last_reported":1781458038,"current_range_meters":2800,"station_id":"ce4bh292rcd13ifvqdf0","pricing_plan_id":"cebpf4jnsgd1na2vs0mg"},{"bike_id":"9241584d-9f29-4290-8cfe-1018e00ed3a2","system_id":"levelo_inurba_marseille","lat":43.2396,"lon":5.36631,"is_reserved":false,"is_disabled":false,"rental_uris":{"android":"levelo://app?vid=9241584d-9f29-4290-8cfe-1018e00ed3a2","ios":"levelo://app?vid=9241584d-9f29-4290-8cfe-1018e00ed3a2"},"vehicle_type_id":"4","last_reported":1781458038,"current_range_meters":3200,"station_id":"ce4bhi12rcd13ifvqfp0","pricing_plan_id":"cebpf4jnsgd1na2vs0mg"},{"bike_id":"48da5ef6-2536-4e07-ba46-269b5abde039","system_id":"levelo_inurba_marseille","lat":43.29604,"lon":5.38096,"is_reserved":false,"is_disabled":false,"rental_uris":{"android":"levelo://app?vid=48da5ef6-2536-4e07-ba46-269b5abde039","ios":"levelo://app?vid=48da5ef6-2536-4e07-ba46-269b5abde039"},"vehicle_type_id":"4","last_reported":1781458038,"current_range_meters":3200,"station_id":"ce4bgl12rcd13ifvqbo0","pricing_plan_id":"cebpf4jnsgd1na2vs0mg"},{"bike_id":"5b5ea2fb-3ba8-4c10-841c-ca34891a615c","system_id":"levelo_inurba_marseille","lat":43.29351,"lon":5.36391,"is_reserved":false,"is_disabled":false,"rental_uris":{"android":"levelo://app?vid=5b5ea2fb-3ba8-4c10-841c-ca34891a615c","ios":"levelo://app?vid=5b5ea2fb-3ba8-4c10-841c-ca34891a615c"},"vehicle_type_id":"4","last_reported":1781458038,"current_range_meters":3200,"station_id":"","pricing_plan_id":"cebpf4jnsgd1na2vs0mg"},{"bike_id":"c0bedd2b-fefe-4549-964b-35f0310ef6bd","system_id":"levelo_inurba_marseille","lat":43.29006,"lon":5.35612,"is_reserved":false,"is_disabled":false,"rental_uris":{"android":"levelo://app?vid=c0bedd2b-fefe-4549-964b-35f0310ef6bd","ios":"levelo://app?vid=c0bedd2b-fefe-4549-964b-35f0310ef6bd"},"vehicle_type_id":"4","last_reported":1781458038,"current_range_meters":3200,"station_id":"ce4bhb92rcd13ifvqen0","pricing_plan_id":"cebpf4jnsgd1na2vs0mg"},{"bike_id":"ebcfa295-9895-465a-bdba-a68a3ec6c71e","system_id":"levelo_inurba_marseille","lat":43.29638,"lon":5.36873,"is_reserved":false,"is_disabled":false,"rental_uris":{"android":"levelo://app?vid=ebcfa295-9895-465a-bdba-a68a3ec6c71e","ios":"levelo://app?vid=ebcfa295-9895-465a-bdba-a68a3ec6c71e"},"vehicle_type_id":"4","last_reported":1781458038,"current_range_meters":3200,"station_id":"","pricing_plan_id":"cebpf4jnsgd1na2vs0mg"},{"bike_id":"cf11dd40-b113-45d9-8d41-8d04b849c2c4","system_id":"levelo_inurba_marseille","lat":43.2911,"lon":5.42776,"is_reserved":false,"is_disabled":false,"rental_uris":{"android":"levelo://app?vid=cf11dd40-b113-45d9-8d41-8d04b849c2c4","ios":"levelo://app?vid=cf11dd40-b113-45d9-8d41-8d04b849c2c4"},"vehicle_type_id":"4","last_reported":1781458038,"current_range_meters":3200,"station_id":"","pricing_plan_id":"cebpf4jnsgd1na2vs0mg"},{"bike_id":"b0dccffd-9e25-498c-97c0-86a3f3dd1e10","system_id":"levelo_inurba_marseille","lat":43.24856,"lon":5.37974,"is_reserved":false,"is_disabled":false,"rental_uris":{"android":"levelo://app?vid=b0dccffd-9e25-498c-97c0-86a3f3dd1e10","ios":"levelo://app?vid=b0dccffd-9e25-498c-97c0-86a3f3dd1e10"},"vehicle_type_id":"4","last_reported":1781458038,"current_range_meters":3200,"station_id":"","pricing_plan_id":"cebpf4jnsgd1na2vs0mg"},{"bike_id":"1cd04a72-b39f-43de-97b3-a38b157eee3c","system_id":"levelo_inurba_marseille","lat":43.26028,"lon":5.37549,"is_reserved":false,"is_disabled":false,"rental_uris":{"android":"levelo://app?vid=1cd04a72-b39f-43de-97b3-a38b157eee3c","ios":"levelo://app?vid=1cd04a72-b39f-43de-97b3-a38b157eee3c"},"vehicle_type_id":"4","last_reported":1781458038,"current_range_meters":3200,"station_id":"ce4bhgh2rcd13ifvqfa0","pricing_plan_id":"cebpf4jnsgd1na2vs0mg"},{"bike_id":"ad0f407b-26b3-4cb7-8bc9-8e6570925951","system_id":"levelo_inurba_marseille","lat":43.28703,"lon":5.37394,"is_reserved":false,"is_disabled":false,"rental_uris":{"android":"levelo://app?vid=ad0f407b-26b3-4cb7-8bc9-8e6570925951","ios":"levelo://app?vid=ad0f407b-26b3-4cb7-8bc9-8e6570925951"},"vehicle_type_id":"4","last_reported":1781458038,"current_range_meters":3200,"station_id":"ce4bh3p2rcd13ifvqdq0","pricing_plan_id":"cebpf4jnsgd1na2vs0mg"},{"bike_id":"d4b97808-1086-4854-84b0-65e72860825a","system_id":"levelo_inurba_marseille","lat":43.30934,"lon":5.40139,"is_reserved":false,"is_disabled":false,"rental_uris":{"android":"levelo://app?vid=d4b97808-1086-4854-84b0-65e72860825a","ios":"levelo://app?vid=d4b97808-1086-4854-84b0-65e72860825a"},"vehicle_type_id":"4","last_reported":1781458038,"current_range_meters":3200,"station_id":"ce4bgvp2rcd13ifvqct0","pricing_plan_id":"cebpf4jnsgd1na2vs0mg"},{"bike_id":"6be22a3d-4708-4e07-9d88-292be1cb975b","system_id":"levelo_inurba_marseille","lat":43.30959,"lon":5.39056,"is_reserved":false,"is_disabled":false,"rental_uris":{"android":"levelo://app?vid=6be22a3d-4708-4e07-9d88-292be1cb975b","ios":"levelo://app?vid=6be22a3d-4708-4e07-9d88-292be1cb975b"},"vehicle_type_id":"4","last_reported":1781458038,"current_range_meters":3200,"station_id":"ce4bgup2rcd13ifvqco0","pricing_plan_id":"cebpf4jnsgd1na2vs0mg"},{"bike_id":"53bc0a8e-1e3e-41c6-8436-732b753b63db","system_id":"levelo_inurba_marseille","lat":43.29525,"lon":5.38545,"is_reserved":false,"is_disabled":false,"rental_uris":{"android":"levelo://app?vid=53bc0a8e-1e3e-41c6-8436-732b753b63db","ios":"levelo://app?vid=53bc0a8e-1e3e-41c6-8436-732b753b63db"},"vehicle_type_id":"4","last_reported":1781458038,"current_range_meters":3200,"station_id":"ce4bgih2rcd13ifvqba0","pricing_plan_id":"cebpf4jnsgd1na2vs0mg"},{"bike_id":"c0e94167-49d1-4b1a-ac88-24f7dbe40b1c","system_id":"levelo_inurba_marseille","lat":43.28608,"lon":5.37071,"is_reserved":false,"is_disabled":false,"rental_uris":{"android":"levelo://app?vid=c0e94167-49d1-4b1a-ac88-24f7dbe40b1c","ios":"levelo://app?vid=c0e94167-49d1-4b1a-ac88-24f7dbe40b1c"},"vehicle_type_id":"4","last_reported":1781458038,"current_range_meters":3200,"station_id":"ce4bht12rcd13ifvqi60","pricing_plan_id":"cebpf4jnsgd1na2vs0mg"},{"bike_id":"6fb07b35-b88f-45ae-9e9e-ceed1b219374","system_id":"levelo_inurba_marseille","lat":43.32492,"lon":5.36558,"is_reserved":false,"is_disabled":true,"rental_uris":{"android":"levelo://app?vid=6fb07b35-b88f-45ae-9e9e-ceed1b219374","ios":"levelo://app?vid=6fb07b35-b88f-45ae-9e9e-ceed1b219374"},"vehicle_type_id":"4","last_reported":1781458038,"current_range_meters":3200,"station_id":"ce4bhs12rcd13ifvqhvg","pricing_plan_id":"cebpf4jnsgd1na2vs0mg"},{"bike_id":"61acdcff-76d7-4bb2-a256-e2ec611550e8","system_id":"levelo_inurba_marseille","lat":43.26527,"lon":5.39052,"is_reserved":false,"is_disabled":true,"rental_uris":{"android":"levelo://app?vid=61acdcff-76d7-4bb2-a256-e2ec611550e8","ios":"levelo://app?vid=61acdcff-76d7-4bb2-a256-e2ec611550e8"},"vehicle_type_id":"4","last_reported":1781458038,"current_range_meters":3200,"station_id":"","pricing_plan_id":"cebpf4jnsgd1na2vs0mg"},{"bike_id":"6028dbb6-19a1-4427-aa0f-af93e09f4080","system_id":"levelo_inurba_marseille","lat":43.28155,"lon":5.42644,"is_reserved":false,"is_disabled":false,"rental_uris":{"android":"levelo://app?vid=6028dbb6-19a1-4427-aa0f-af93e09f4080","ios":"levelo://app?vid=6028dbb6-19a1-4427-aa0f-af93e09f4080"},"vehicle_type_id":"4","last_reported":1781458038,"current_range_meters":3200,"station_id":"ce4bhnh2rcd13ifvqgug","pricing_plan_id":"cebpf4jnsgd1na2vs0mg"},{"bike_id":"ebadecc1-1517-4c13-b5e0-2a0db721886d","system_id":"levelo_inurba_marseille","lat":43.2826,"lon":5.35068,"is_reserved":false,"is_disabled":true,"rental_uris":{"android":"levelo://app?vid=ebadecc1-1517-4c13-b5e0-2a0db721886d","ios":"levelo://app?vid=ebadecc1-1517-4c13-b5e0-2a0db721886d"},"vehicle_type_id":"4","last_reported":1781458038,"current_range_meters":3200,"station_id":"ce4bhbp2rcd13ifvqerg","pricing_plan_id":"cebpf4jnsgd1na2vs0mg"},{"bike_id":"da49f8bf-ac47-4f75-a9fc-b5a0f8173bc6","system_id":"levelo_inurba_marseille","lat":43.28465,"lon":5.35861,"is_reserved":false,"is_disabled":true,"rental_uris":{"android":"levelo://app?vid=da49f8bf-ac47-4f75-a9fc-b5a0f8173bc6","ios":"levelo://app?vid=da49f8bf-ac47-4f75-a9fc-b5a0f8173bc6"},"vehicle_type_id":"4","last_reported":1781458038,"current_range_meters":3600,"station_id":"ce4bhah2rcd13ifvqei0","pricing_plan_id":"cebpf4jnsgd1na2vs0mg"},{"bike_id":"280a8eeb-410b-4eee-9124-98d60dc370da","system_id":"levelo_inurba_marseille","lat":43.295968,"lon":5.380914,"is_reserved":false,"is_disabled":false,"rental_uris":{"android":"levelo://app?vid=280a8eeb-410b-4eee-9124-98d60dc370da","ios":"levelo://app?vid=280a8eeb-410b-4eee-9124-98d60dc370da"},"vehicle_type_id":"4","last_reported":1781458038,"current_range_meters":3600,"station_id":"ce4bgl12rcd13ifvqbo0","pricing_plan_id":"cebpf4jnsgd1na2vs0mg"},{"bike_id":"8f809aba-fb91-4274-9669-f9211fc8e411","system_id":"levelo_inurba_marseille","lat":43.23311,"lon":5.39954,"is_reserved":false,"is_disabled":false,"rental_uris":{"android":"levelo://app?vid=8f809aba-fb91-4274-9669-f9211fc8e411","ios":"levelo://app?vid=8f809aba-fb91-4274-9669-f9211fc8e411"},"vehicle_type_id":"4","last_reported":1781458038,"current_range_meters":3600,"station_id":"","pricing_plan_id":"cebpf4jnsgd1na2vs0mg"},{"bike_id":"fd7fd0b3-f4e7-4e16-b629-c73112109172","system_id":"levelo_inurba_marseille","lat":43.28273,"lon":5.3506,"is_reserved":false,"is_disabled":false,"rental_uris":{"android":"levelo://app?vid=fd7fd0b3-f4e7-4e16-b629-c73112109172","ios":"levelo://app?vid=fd7fd0b3-f4e7-4e16-b629-c73112109172"},"vehicle_type_id":"4","last_reported":1781458038,"current_range_meters":3600,"station_id":"ce4bhbp2rcd13ifvqerg","pricing_plan_id":"cebpf4jnsgd1na2vs0mg"},{"bike_id":"65656522-6967-4ec3-a9aa-c619425a119c","system_id":"levelo_inurba_marseille","lat":43.22536,"lon":5.34826,"is_reserved":false,"is_disabled":false,"rental_uris":{"android":"levelo://app?vid=65656522-6967-4ec3-a9aa-c619425a119c","ios":"levelo://app?vid=65656522-6967-4ec3-a9aa-c619425a119c"},"vehicle_type_id":"4","last_reported":1781458038,"current_range_meters":3600,"station_id":"st_cvj5dfep6f1abm77gieg","pricing_plan_id":"cebpf4jnsgd1na2vs0mg"},{"bike_id":"60cdad4d-6f1f-42ee-a598-9f18e24bf8fe","system_id":"levelo_inurba_marseille","lat":43.288487,"lon":5.39306,"is_reserved":false,"is_disabled":false,"rental_uris":{"android":"levelo://app?vid=60cdad4d-6f1f-42ee-a598-9f18e24bf8fe","ios":"levelo://app?vid=60cdad4d-6f1f-42ee-a598-9f18e24bf8fe"},"vehicle_type_id":"4","last_reported":1781458038,"current_range_meters":3600,"station_id":"ce4bh2p2rcd13ifvqdi0","pricing_plan_id":"cebpf4jnsgd1na2vs0mg"},{"bike_id":"97f17bb7-03bd-438a-9652-50f9e14d3355","system_id":"levelo_inurba_marseille","lat":43.30126,"lon":5.43124,"is_reserved":false,"is_disabled":false,"rental_uris":{"android":"levelo://app?vid=97f17bb7-03bd-438a-9652-50f9e14d3355","ios":"levelo://app?vid=97f17bb7-03bd-438a-9652-50f9e14d3355"},"vehicle_type_id":"4","last_reported":1781458038,"current_range_meters":3600,"station_id":"st_d3js3co5814s73ftftug","pricing_plan_id":"cebpf4jnsgd1na2vs0mg"},{"bike_id":"41d61f3a-572c-4240-9f59-8b5b646be959","system_id":"levelo_inurba_marseille","lat":43.31899,"lon":5.36824,"is_reserved":false,"is_disabled":false,"rental_uris":{"android":"levelo://app?vid=41d61f3a-572c-4240-9f59-8b5b646be959","ios":"levelo://app?vid=41d61f3a-572c-4240-9f59-8b5b646be959"},"vehicle_type_id":"4","last_reported":1781458038,"current_range_meters":3600,"station_id":"st_d6o2h0d0559c73evc1b0","pricing_plan_id":"cebpf4jnsgd1na2vs0mg"},{"bike_id":"795737e8-eef1-4eb4-8c94-c36e02a8a0d1","system_id":"levelo_inurba_marseille","lat":43.24951,"lon":5.4048,"is_reserved":false,"is_disabled":false,"rental_uris":{"android":"levelo://app?vid=795737e8-eef1-4eb4-8c94-c36e02a8a0d1","ios":"levelo://app?vid=795737e8-eef1-4eb4-8c94-c36e02a8a0d1"},"vehicle_type_id":"4","last_reported":1781458038,"current_range_meters":3600,"station_id":"st_d2ngiaodas8pm72gd1h0","pricing_plan_id":"cebpf4jnsgd1na2vs0mg"},{"bike_id":"8b7063f1-08a4-4f34-84b0-c7c8b40fa9c1","system_id":"levelo_inurba_marseille","lat":43.31162,"lon":5.38504,"is_reserved":false,"is_disabled":false,"rental_uris":{"android":"levelo://app?vid=8b7063f1-08a4-4f34-84b0-c7c8b40fa9c1","ios":"levelo://app?vid=8b7063f1-08a4-4f34-84b0-c7c8b40fa9c1"},"vehicle_type_id":"4","last_reported":1781458038,"current_range_meters":3600,"station_id":"","pricing_plan_id":"cebpf4jnsgd1na2vs0mg"},{"bike_id":"4c0aaefd-2b66-45a7-8e6f-bab47a273073","system_id":"levelo_inurba_marseille","lat":43.32419,"lon":5.42567,"is_reserved":false,"is_disabled":false,"rental_uris":{"android":"levelo://app?vid=4c0aaefd-2b66-45a7-8e6f-bab47a273073","ios":"levelo://app?vid=4c0aaefd-2b66-45a7-8e6f-bab47a273073"},"vehicle_type_id":"4","last_reported":1781458038,"current_range_meters":3600,"station_id":"","pricing_plan_id":"cebpf4jnsgd1na2vs0mg"},{"bike_id":"c97fb99a-7c2e-4698-a401-a6886e4eb5f4","system_id":"levelo_inurba_marseille","lat":43.28737,"lon":5.42694,"is_reserved":false,"is_disabled":false,"rental_uris":{"android":"levelo://app?vid=c97fb99a-7c2e-4698-a401-a6886e4eb5f4","ios":"levelo://app?vid=c97fb99a-7c2e-4698-a401-a6886e4eb5f4"},"vehicle_type_id":"4","last_reported":1781458038,"current_range_meters":3600,"station_id":"","pricing_plan_id":"cebpf4jnsgd1na2vs0mg"},{"bike_id":"652fe3f3-b5e9-4ebc-a5a8-9acc8ff1e933","system_id":"levelo_inurba_marseille","lat":43.29098,"lon":5.38133,"is_reserved":false,"is_disabled":false,"rental_uris":{"android":"levelo://app?vid=652fe3f3-b5e9-4ebc-a5a8-9acc8ff1e933","ios":"levelo://app?vid=652fe3f3-b5e9-4ebc-a5a8-9acc8ff1e933"},"vehicle_type_id":"4","last_reported":1781458038,"current_range_meters":3600,"station_id":"ce4bh512rcd13ifvqe2g","pricing_plan_id":"cebpf4jnsgd1na2vs0mg"},{"bike_id":"6d62f6ca-66fa-4efc-8fda-0047b8e06961","system_id":"levelo_inurba_marseille","lat":43.3336,"lon":5.41127,"is_reserved":false,"is_disabled":false,"rental_uris":{"android":"levelo://app?vid=6d62f6ca-66fa-4efc-8fda-0047b8e06961","ios":"levelo://app?vid=6d62f6ca-66fa-4efc-8fda-0047b8e06961"},"vehicle_type_id":"4","last_reported":1781458038,"current_range_meters":3600,"station_id":"","pricing_plan_id":"cebpf4jnsgd1na2vs0mg"},{"bike_id":"8d9b281b-5f81-4c1a-b5ae-6f4253da130a","system_id":"levelo_inurba_marseille","lat":43.30905,"lon":5.3718,"is_reserved":false,"is_disabled":false,"rental_uris":{"android":"levelo://app?vid=8d9b281b-5f81-4c1a-b5ae-6f4253da130a","ios":"levelo://app?vid=8d9b281b-5f81-4c1a-b5ae-6f4253da130a"},"vehicle_type_id":"4","last_reported":1781458038,"current_range_meters":3600,"station_id":"ce4bguh2rcd13ifvqckg","pricing_plan_id":"cebpf4jnsgd1na2vs0mg"},{"bike_id":"3f683387-f7ec-4b9f-9801-ff63896077b4","system_id":"levelo_inurba_marseille","lat":43.23948,"lon":5.36536,"is_reserved":false,"is_disabled":false,"rental_uris":{"android":"levelo://app?vid=3f683387-f7ec-4b9f-9801-ff63896077b4","ios":"levelo://app?vid=3f683387-f7ec-4b9f-9801-ff63896077b4"},"vehicle_type_id":"4","last_reported":1781458038,"current_range_meters":3600,"station_id":"","pricing_plan_id":"cebpf4jnsgd1na2vs0mg"},{"bike_id":"65cc3def-915d-4da3-8f3a-ce31b9476ced","system_id":"levelo_inurba_marseille","lat":43.279089,"lon":5.380165,"is_reserved":false,"is_disabled":false,"rental_uris":{"android":"levelo://app?vid=65cc3def-915d-4da3-8f3a-ce31b9476ced","ios":"levelo://app?vid=65cc3def-915d-4da3-8f3a-ce31b9476ced"},"vehicle_type_id":"4","last_reported":1781458038,"current_range_meters":3600,"station_id":"ce4bhf92rcd13ifvqf50","pricing_plan_id":"cebpf4jnsgd1na2vs0mg"},{"bike_id":"a7c32b83-e507-47ce-b96a-9bebede8d0df","system_id":"levelo_inurba_marseille","lat":43.30943,"lon":5.3902,"is_reserved":false,"is_disabled":false,"rental_uris":{"android":"levelo://app?vid=a7c32b83-e507-47ce-b96a-9bebede8d0df","ios":"levelo://app?vid=a7c32b83-e507-47ce-b96a-9bebede8d0df"},"vehicle_type_id":"4","last_reported":1781458038,"current_range_meters":4000,"station_id":"ce4bgup2rcd13ifvqco0","pricing_plan_id":"cebpf4jnsgd1na2vs0mg"},{"bike_id":"791d7d63-01d3-4244-a9ea-6c62fa614a80","system_id":"levelo_inurba_marseille","lat":43.29555,"lon":5.42291,"is_reserved":false,"is_disabled":false,"rental_uris":{"android":"levelo://app?vid=791d7d63-01d3-4244-a9ea-6c62fa614a80","ios":"levelo://app?vid=791d7d63-01d3-4244-a9ea-6c62fa614a80"},"vehicle_type_id":"4","last_reported":1781458038,"current_range_meters":4000,"station_id":"ce4bhph2rcd13ifvqhdg","pricing_plan_id":"cebpf4jnsgd1na2vs0mg"},{"bike_id":"93b03f6b-edc6-445d-908a-770c538c330f","system_id":"levelo_inurba_marseille","lat":43.25963,"lon":5.39409,"is_reserved":false,"is_disabled":false,"rental_uris":{"android":"levelo://app?vid=93b03f6b-edc6-445d-908a-770c538c330f","ios":"levelo://app?vid=93b03f6b-edc6-445d-908a-770c538c330f"},"vehicle_type_id":"4","last_reported":1781458038,"current_range_meters":4000,"station_id":"","pricing_plan_id":"cebpf4jnsgd1na2vs0mg"},{"bike_id":"d2c1c417-9992-4f5c-be0f-08fcbeddbcd9","system_id":"levelo_inurba_marseille","lat":43.29604,"lon":5.38104,"is_reserved":false,"is_disabled":true,"rental_uris":{"android":"levelo://app?vid=d2c1c417-9992-4f5c-be0f-08fcbeddbcd9","ios":"levelo://app?vid=d2c1c417-9992-4f5c-be0f-08fcbeddbcd9"},"vehicle_type_id":"4","last_reported":1781458038,"current_range_meters":4000,"station_id":"ce4bgl12rcd13ifvqbo0","pricing_plan_id":"cebpf4jnsgd1na2vs0mg"},{"bike_id":"9935de14-fc9f-4e04-8e96-9d0cd6dfa9f1","system_id":"levelo_inurba_marseille","lat":43.33027,"lon":5.39044,"is_reserved":false,"is_disabled":false,"rental_uris":{"android":"levelo://app?vid=9935de14-fc9f-4e04-8e96-9d0cd6dfa9f1","ios":"levelo://app?vid=9935de14-fc9f-4e04-8e96-9d0cd6dfa9f1"},"vehicle_type_id":"4","last_reported":1781458038,"current_range_meters":4000,"station_id":"ce4bhr92rcd13ifvqhrg","pricing_plan_id":"cebpf4jnsgd1na2vs0mg"},{"bike_id":"00c69d07-1cad-47e4-afcc-630773188165","system_id":"levelo_inurba_marseille","lat":43.30944,"lon":5.39057,"is_reserved":false,"is_disabled":false,"rental_uris":{"android":"levelo://app?vid=00c69d07-1cad-47e4-afcc-630773188165","ios":"levelo://app?vid=00c69d07-1cad-47e4-afcc-630773188165"},"vehicle_type_id":"4","last_reported":1781458038,"current_range_meters":4000,"station_id":"ce4bgup2rcd13ifvqco0","pricing_plan_id":"cebpf4jnsgd1na2vs0mg"},{"bike_id":"d51ce86a-5b38-4b76-8e51-2a3373a4f2df","system_id":"levelo_inurba_marseille","lat":43.32052,"lon":5.36829,"is_reserved":false,"is_disabled":false,"rental_uris":{"android":"levelo://app?vid=d51ce86a-5b38-4b76-8e51-2a3373a4f2df","ios":"levelo://app?vid=d51ce86a-5b38-4b76-8e51-2a3373a4f2df"},"vehicle_type_id":"4","last_reported":1781458038,"current_range_meters":4000,"station_id":"","pricing_plan_id":"cebpf4jnsgd1na2vs0mg"},{"bike_id":"f46190d6-bcde-49de-9000-96b18391c90d","system_id":"levelo_inurba_marseille","lat":43.24943,"lon":5.40488,"is_reserved":false,"is_disabled":false,"rental_uris":{"android":"levelo://app?vid=f46190d6-bcde-49de-9000-96b18391c90d","ios":"levelo://app?vid=f46190d6-bcde-49de-9000-96b18391c90d"},"vehicle_type_id":"4","last_reported":1781458038,"current_range_meters":4000,"station_id":"st_d2ngiaodas8pm72gd1h0","pricing_plan_id":"cebpf4jnsgd1na2vs0mg"},{"bike_id":"211a2704-aa4f-43f5-b2d8-2b26e3b04b5e","system_id":"levelo_inurba_marseille","lat":43.25072,"lon":5.38842,"is_reserved":false,"is_disabled":false,"rental_uris":{"android":"levelo://app?vid=211a2704-aa4f-43f5-b2d8-2b26e3b04b5e","ios":"levelo://app?vid=211a2704-aa4f-43f5-b2d8-2b26e3b04b5e"},"vehicle_type_id":"4","last_reported":1781458038,"current_range_meters":4000,"station_id":"","pricing_plan_id":"cebpf4jnsgd1na2vs0mg"},{"bike_id":"55e42d89-a623-4951-b7de-2c6bb496a656","system_id":"levelo_inurba_marseille","lat":43.29968,"lon":5.38496,"is_reserved":false,"is_disabled":false,"rental_uris":{"android":"levelo://app?vid=55e42d89-a623-4951-b7de-2c6bb496a656","ios":"levelo://app?vid=55e42d89-a623-4951-b7de-2c6bb496a656"},"vehicle_type_id":"4","last_reported":1781458038,"current_range_meters":4000,"station_id":"ce4bgj92rcd13ifvqbd0","pricing_plan_id":"cebpf4jnsgd1na2vs0mg"},{"bike_id":"54ed3fd9-f005-4d48-826a-ff2de7dc01d1","system_id":"levelo_inurba_marseille","lat":43.29273,"lon":5.3684,"is_reserved":false,"is_disabled":false,"rental_uris":{"android":"levelo://app?vid=54ed3fd9-f005-4d48-826a-ff2de7dc01d1","ios":"levelo://app?vid=54ed3fd9-f005-4d48-826a-ff2de7dc01d1"},"vehicle_type_id":"4","last_reported":1781458038,"current_range_meters":4000,"station_id":"ce4bhbp2rcd13ifvqesg","pricing_plan_id":"cebpf4jnsgd1na2vs0mg"},{"bike_id":"52f3e772-ae75-4b62-8837-30b3a36cd0d4","system_id":"levelo_inurba_marseille","lat":43.31037,"lon":5.39378,"is_reserved":false,"is_disabled":false,"rental_uris":{"android":"levelo://app?vid=52f3e772-ae75-4b62-8837-30b3a36cd0d4","ios":"levelo://app?vid=52f3e772-ae75-4b62-8837-30b3a36cd0d4"},"vehicle_type_id":"4","last_reported":1781458038,"current_range_meters":4000,"station_id":"","pricing_plan_id":"cebpf4jnsgd1na2vs0mg"},{"bike_id":"8ddee029-c909-4376-bb82-54a5738d73f5","system_id":"levelo_inurba_marseille","lat":43.30729,"lon":5.4244,"is_reserved":false,"is_disabled":false,"rental_uris":{"android":"levelo://app?vid=8ddee029-c909-4376-bb82-54a5738d73f5","ios":"levelo://app?vid=8ddee029-c909-4376-bb82-54a5738d73f5"},"vehicle_type_id":"4","last_reported":1781458038,"current_range_meters":4000,"station_id":"st_cvj6ca6bvosntc0bfgr0","pricing_plan_id":"cebpf4jnsgd1na2vs0mg"},{"bike_id":"7bb9d837-8621-443d-b257-e306cb33cfa1","system_id":"levelo_inurba_marseille","lat":43.28636,"lon":5.37076,"is_reserved":false,"is_disabled":false,"rental_uris":{"android":"levelo://app?vid=7bb9d837-8621-443d-b257-e306cb33cfa1","ios":"levelo://app?vid=7bb9d837-8621-443d-b257-e306cb33cfa1"},"vehicle_type_id":"4","last_reported":1781458038,"current_range_meters":4000,"station_id":"ce4bht12rcd13ifvqi60","pricing_plan_id":"cebpf4jnsgd1na2vs0mg"},{"bike_id":"34587959-eb53-4c9b-8aee-22099f05dd95","system_id":"levelo_inurba_marseille","lat":43.28029,"lon":5.36945,"is_reserved":false,"is_disabled":false,"rental_uris":{"android":"levelo://app?vid=34587959-eb53-4c9b-8aee-22099f05dd95","ios":"levelo://app?vid=34587959-eb53-4c9b-8aee-22099f05dd95"},"vehicle_type_id":"4","last_reported":1781458038,"current_range_meters":4000,"station_id":"ce4bha12rcd13ifvqef0","pricing_plan_id":"cebpf4jnsgd1na2vs0mg"},{"bike_id":"d8af3ed3-f110-42fc-a859-20bcac54350f","system_id":"levelo_inurba_marseille","lat":43.30797,"lon":5.3764,"is_reserved":false,"is_disabled":true,"rental_uris":{"android":"levelo://app?vid=d8af3ed3-f110-42fc-a859-20bcac54350f","ios":"levelo://app?vid=d8af3ed3-f110-42fc-a859-20bcac54350f"},"vehicle_type_id":"4","last_reported":1781458038,"current_range_meters":4000,"station_id":"ce4bgv92rcd13ifvqcq0","pricing_plan_id":"cebpf4jnsgd1na2vs0mg"},{"bike_id":"9beb95c9-2bdb-4011-853f-321468fdcc97","system_id":"levelo_inurba_marseille","lat":43.28437,"lon":5.34942,"is_reserved":false,"is_disabled":false,"rental_uris":{"android":"levelo://app?vid=9beb95c9-2bdb-4011-853f-321468fdcc97","ios":"levelo://app?vid=9beb95c9-2bdb-4011-853f-321468fdcc97"},"vehicle_type_id":"4","last_reported":1781458038,"current_range_meters":4000,"station_id":"ce4bhbh2rcd13ifvqepg","pricing_plan_id":"cebpf4jnsgd1na2vs0mg"},{"bike_id":"fdb7c47b-44ea-46b9-892e-c0f2dd700df1","system_id":"levelo_inurba_marseille","lat":43.30424,"lon":5.3889,"is_reserved":false,"is_disabled":false,"rental_uris":{"android":"levelo://app?vid=fdb7c47b-44ea-46b9-892e-c0f2dd700df1","ios":"levelo://app?vid=fdb7c47b-44ea-46b9-892e-c0f2dd700df1"},"vehicle_type_id":"4","last_reported":1781458038,"current_range_meters":4000,"station_id":"ce4bgk12rcd13ifvqbi0","pricing_plan_id":"cebpf4jnsgd1na2vs0mg"},{"bike_id":"e7ad965c-cf0b-40b0-bebc-cabcb91fcc45","system_id":"levelo_inurba_marseille","lat":43.2926,"lon":5.40901,"is_reserved":false,"is_disabled":false,"rental_uris":{"android":"levelo://app?vid=e7ad965c-cf0b-40b0-bebc-cabcb91fcc45","ios":"levelo://app?vid=e7ad965c-cf0b-40b0-bebc-cabcb91fcc45"},"vehicle_type_id":"4","last_reported":1781458038,"current_range_meters":4000,"station_id":"ce4bh192rcd13ifvqdc0","pricing_plan_id":"cebpf4jnsgd1na2vs0mg"},{"bike_id":"948e7dcf-c12b-4293-8ebe-ef6b71975867","system_id":"levelo_inurba_marseille","lat":43.241672,"lon":5.363982,"is_reserved":false,"is_disabled":true,"rental_uris":{"android":"levelo://app?vid=948e7dcf-c12b-4293-8ebe-ef6b71975867","ios":"levelo://app?vid=948e7dcf-c12b-4293-8ebe-ef6b71975867"},"vehicle_type_id":"4","last_reported":1781458038,"current_range_meters":4000,"station_id":"cpo36qri1sfpv3e86is0","pricing_plan_id":"cebpf4jnsgd1na2vs0mg"},{"bike_id":"b00d8bd0-800e-45a7-ac0f-43138ef8f6fe","system_id":"levelo_inurba_marseille","lat":43.26789,"lon":5.39436,"is_reserved":false,"is_disabled":true,"rental_uris":{"android":"levelo://app?vid=b00d8bd0-800e-45a7-ac0f-43138ef8f6fe","ios":"levelo://app?vid=b00d8bd0-800e-45a7-ac0f-43138ef8f6fe"},"vehicle_type_id":"4","last_reported":1781458038,"current_range_meters":4000,"station_id":"ce4bhh12rcd13ifvqfg0","pricing_plan_id":"cebpf4jnsgd1na2vs0mg"},{"bike_id":"f89e2995-ad13-418d-bfbd-0a859f3a92ca","system_id":"levelo_inurba_marseille","lat":43.29034,"lon":5.38654,"is_reserved":false,"is_disabled":false,"rental_uris":{"android":"levelo://app?vid=f89e2995-ad13-418d-bfbd-0a859f3a92ca","ios":"levelo://app?vid=f89e2995-ad13-418d-bfbd-0a859f3a92ca"},"vehicle_type_id":"4","last_reported":1781458038,"current_range_meters":4000,"station_id":"ce4bh4p2rcd13ifvqe0g","pricing_plan_id":"cebpf4jnsgd1na2vs0mg"},{"bike_id":"17df3bcc-73d3-4d38-aa01-c0cd1652bdbf","system_id":"levelo_inurba_marseille","lat":43.29269,"lon":5.38429,"is_reserved":false,"is_disabled":false,"rental_uris":{"android":"levelo://app?vid=17df3bcc-73d3-4d38-aa01-c0cd1652bdbf","ios":"levelo://app?vid=17df3bcc-73d3-4d38-aa01-c0cd1652bdbf"},"vehicle_type_id":"4","last_reported":1781458038,"current_range_meters":4000,"station_id":"ce4bh692rcd13ifvqea0","pricing_plan_id":"cebpf4jnsgd1na2vs0mg"},{"bike_id":"e3ca8743-6107-440d-bb7e-66ab36e2b4e1","system_id":"levelo_inurba_marseille","lat":43.27337,"lon":5.39082,"is_reserved":false,"is_disabled":true,"rental_uris":{"android":"levelo://app?vid=e3ca8743-6107-440d-bb7e-66ab36e2b4e1","ios":"levelo://app?vid=e3ca8743-6107-440d-bb7e-66ab36e2b4e1"},"vehicle_type_id":"4","last_reported":1781458038,"current_range_meters":4000,"station_id":"","pricing_plan_id":"cebpf4jnsgd1na2vs0mg"},{"bike_id":"567fa5ea-7cf1-4706-9244-96afcefa8ba3","system_id":"levelo_inurba_marseille","lat":43.29575,"lon":5.37514,"is_reserved":false,"is_disabled":false,"rental_uris":{"android":"levelo://app?vid=567fa5ea-7cf1-4706-9244-96afcefa8ba3","ios":"levelo://app?vid=567fa5ea-7cf1-4706-9244-96afcefa8ba3"},"vehicle_type_id":"4","last_reported":1781458038,"current_range_meters":4000,"station_id":"ce4bgh92rcd13ifvqb50","pricing_plan_id":"cebpf4jnsgd1na2vs0mg"},{"bike_id":"cf0c68e9-108f-4cb2-8999-26e59936ff8c","system_id":"levelo_inurba_marseille","lat":43.23062,"lon":5.35462,"is_reserved":false,"is_disabled":false,"rental_uris":{"android":"levelo://app?vid=cf0c68e9-108f-4cb2-8999-26e59936ff8c","ios":"levelo://app?vid=cf0c68e9-108f-4cb2-8999-26e59936ff8c"},"vehicle_type_id":"4","last_reported":1781458038,"current_range_meters":4400,"station_id":"cpo3342slgdg3j2ifvpg","pricing_plan_id":"cebpf4jnsgd1na2vs0mg"},{"bike_id":"ee5326b1-f810-41ef-b1b7-1ea9c2c8872f","system_id":"levelo_inurba_marseille","lat":43.28694,"lon":5.46682,"is_reserved":false,"is_disabled":false,"rental_uris":{"android":"levelo://app?vid=ee5326b1-f810-41ef-b1b7-1ea9c2c8872f","ios":"levelo://app?vid=ee5326b1-f810-41ef-b1b7-1ea9c2c8872f"},"vehicle_type_id":"4","last_reported":1781458038,"current_range_meters":4400,"station_id":"st_d6tc3vkotcvc738tfjhg","pricing_plan_id":"cebpf4jnsgd1na2vs0mg"},{"bike_id":"e10f7e9e-cb30-401a-9a7d-da39d770b929","system_id":"levelo_inurba_marseille","lat":43.291034,"lon":5.392653,"is_reserved":false,"is_disabled":false,"rental_uris":{"android":"levelo://app?vid=e10f7e9e-cb30-401a-9a7d-da39d770b929","ios":"levelo://app?vid=e10f7e9e-cb30-401a-9a7d-da39d770b929"},"vehicle_type_id":"4","last_reported":1781458038,"current_range_meters":4400,"station_id":"ce4bh192rcd13ifvqdd0","pricing_plan_id":"cebpf4jnsgd1na2vs0mg"},{"bike_id":"26d71ad2-5e54-4fa7-8e63-2e7d5c5d5887","system_id":"levelo_inurba_marseille","lat":43.29269,"lon":5.36848,"is_reserved":false,"is_disabled":false,"rental_uris":{"android":"levelo://app?vid=26d71ad2-5e54-4fa7-8e63-2e7d5c5d5887","ios":"levelo://app?vid=26d71ad2-5e54-4fa7-8e63-2e7d5c5d5887"},"vehicle_type_id":"4","last_reported":1781458038,"current_range_meters":4400,"station_id":"ce4bhbp2rcd13ifvqesg","pricing_plan_id":"cebpf4jnsgd1na2vs0mg"},{"bike_id":"1a1ad63b-bf2d-4119-8f23-2b8341ecdf2b","system_id":"levelo_inurba_marseille","lat":43.31761,"lon":5.39009,"is_reserved":false,"is_disabled":false,"rental_uris":{"android":"levelo://app?vid=1a1ad63b-bf2d-4119-8f23-2b8341ecdf2b","ios":"levelo://app?vid=1a1ad63b-bf2d-4119-8f23-2b8341ecdf2b"},"vehicle_type_id":"4","last_reported":1781458038,"current_range_meters":4400,"station_id":"ce4bhqp2rcd13ifvqhng","pricing_plan_id":"cebpf4jnsgd1na2vs0mg"},{"bike_id":"43aec827-b955-4a67-bba8-4df0141e7eb1","system_id":"levelo_inurba_marseille","lat":43.33746,"lon":5.37475,"is_reserved":false,"is_disabled":false,"rental_uris":{"android":"levelo://app?vid=43aec827-b955-4a67-bba8-4df0141e7eb1","ios":"levelo://app?vid=43aec827-b955-4a67-bba8-4df0141e7eb1"},"vehicle_type_id":"4","last_reported":1781458038,"current_range_meters":4400,"station_id":"","pricing_plan_id":"cebpf4jnsgd1na2vs0mg"},{"bike_id":"e2298d1e-9f46-40e5-8442-06c6300e3b87","system_id":"levelo_inurba_marseille","lat":43.24578,"lon":5.3969,"is_reserved":false,"is_disabled":false,"rental_uris":{"android":"levelo://app?vid=e2298d1e-9f46-40e5-8442-06c6300e3b87","ios":"levelo://app?vid=e2298d1e-9f46-40e5-8442-06c6300e3b87"},"vehicle_type_id":"4","last_reported":1781458038,"current_range_meters":4400,"station_id":"","pricing_plan_id":"cebpf4jnsgd1na2vs0mg"},{"bike_id":"0adfff34-80fe-42c2-b2e0-e48d1560f454","system_id":"levelo_inurba_marseille","lat":43.286565,"lon":5.385996,"is_reserved":false,"is_disabled":false,"rental_uris":{"android":"levelo://app?vid=0adfff34-80fe-42c2-b2e0-e48d1560f454","ios":"levelo://app?vid=0adfff34-80fe-42c2-b2e0-e48d1560f454"},"vehicle_type_id":"4","last_reported":1781458038,"current_range_meters":4400,"station_id":"ce4bh492rcd13ifvqdug","pricing_plan_id":"cebpf4jnsgd1na2vs0mg"},{"bike_id":"e0cccf2d-e125-4492-af49-bf7d33582c99","system_id":"levelo_inurba_marseille","lat":43.24073,"lon":5.3771,"is_reserved":false,"is_disabled":false,"rental_uris":{"android":"levelo://app?vid=e0cccf2d-e125-4492-af49-bf7d33582c99","ios":"levelo://app?vid=e0cccf2d-e125-4492-af49-bf7d33582c99"},"vehicle_type_id":"4","last_reported":1781458038,"current_range_meters":4400,"station_id":"ce4bhnp2rcd13ifvqgvg","pricing_plan_id":"cebpf4jnsgd1na2vs0mg"},{"bike_id":"f57ddc5d-b3ad-43f3-bbc4-226ea7be866d","system_id":"levelo_inurba_marseille","lat":43.29854,"lon":5.4228,"is_reserved":false,"is_disabled":false,"rental_uris":{"android":"levelo://app?vid=f57ddc5d-b3ad-43f3-bbc4-226ea7be866d","ios":"levelo://app?vid=f57ddc5d-b3ad-43f3-bbc4-226ea7be866d"},"vehicle_type_id":"4","last_reported":1781458038,"current_range_meters":4400,"station_id":"","pricing_plan_id":"cebpf4jnsgd1na2vs0mg"},{"bike_id":"5e644823-0361-426b-bc16-4ac715221997","system_id":"levelo_inurba_marseille","lat":43.28705,"lon":5.4667,"is_reserved":false,"is_disabled":false,"rental_uris":{"android":"levelo://app?vid=5e644823-0361-426b-bc16-4ac715221997","ios":"levelo://app?vid=5e644823-0361-426b-bc16-4ac715221997"},"vehicle_type_id":"4","last_reported":1781458038,"current_range_meters":4400,"station_id":"st_d6tc3vkotcvc738tfjhg","pricing_plan_id":"cebpf4jnsgd1na2vs0mg"},{"bike_id":"a50af965-b87b-4f91-9b9a-3e26dc71f7c1","system_id":"levelo_inurba_marseille","lat":43.29058,"lon":5.43978,"is_reserved":false,"is_disabled":false,"rental_uris":{"android":"levelo://app?vid=a50af965-b87b-4f91-9b9a-3e26dc71f7c1","ios":"levelo://app?vid=a50af965-b87b-4f91-9b9a-3e26dc71f7c1"},"vehicle_type_id":"4","last_reported":1781458038,"current_range_meters":4400,"station_id":"","pricing_plan_id":"cebpf4jnsgd1na2vs0mg"},{"bike_id":"66b0757d-3238-4a93-bdab-5500b2b52e43","system_id":"levelo_inurba_marseille","lat":43.29265,"lon":5.38442,"is_reserved":false,"is_disabled":false,"rental_uris":{"android":"levelo://app?vid=66b0757d-3238-4a93-bdab-5500b2b52e43","ios":"levelo://app?vid=66b0757d-3238-4a93-bdab-5500b2b52e43"},"vehicle_type_id":"4","last_reported":1781458038,"current_range_meters":4400,"station_id":"ce4bh692rcd13ifvqea0","pricing_plan_id":"cebpf4jnsgd1na2vs0mg"},{"bike_id":"85ff7ea8-5fb7-4bf1-8a5b-dee5e4773c13","system_id":"levelo_inurba_marseille","lat":43.31973,"lon":5.39478,"is_reserved":false,"is_disabled":false,"rental_uris":{"android":"levelo://app?vid=85ff7ea8-5fb7-4bf1-8a5b-dee5e4773c13","ios":"levelo://app?vid=85ff7ea8-5fb7-4bf1-8a5b-dee5e4773c13"},"vehicle_type_id":"4","last_reported":1781458038,"current_range_meters":4400,"station_id":"","pricing_plan_id":"cebpf4jnsgd1na2vs0mg"},{"bike_id":"334d4a83-3006-4f4a-acbf-c1c5af280203","system_id":"levelo_inurba_marseille","lat":43.29256,"lon":5.38439,"is_reserved":false,"is_disabled":false,"rental_uris":{"android":"levelo://app?vid=334d4a83-3006-4f4a-acbf-c1c5af280203","ios":"levelo://app?vid=334d4a83-3006-4f4a-acbf-c1c5af280203"},"vehicle_type_id":"4","last_reported":1781458038,"current_range_meters":4400,"station_id":"ce4bh692rcd13ifvqea0","pricing_plan_id":"cebpf4jnsgd1na2vs0mg"},{"bike_id":"d3f332b0-5718-4bcf-8869-b3a104f13705","system_id":"levelo_inurba_marseille","lat":43.29059,"lon":5.37172,"is_reserved":false,"is_disabled":false,"rental_uris":{"android":"levelo://app?vid=d3f332b0-5718-4bcf-8869-b3a104f13705","ios":"levelo://app?vid=d3f332b0-5718-4bcf-8869-b3a104f13705"},"vehicle_type_id":"4","last_reported":1781458038,"current_range_meters":4400,"station_id":"ce4bh5p2rcd13ifvqe4g","pricing_plan_id":"cebpf4jnsgd1na2vs0mg"},{"bike_id":"1ad3b388-7f05-40c4-b2be-92a0734b3aef","system_id":"levelo_inurba_marseille","lat":43.2779,"lon":5.42775,"is_reserved":false,"is_disabled":false,"rental_uris":{"android":"levelo://app?vid=1ad3b388-7f05-40c4-b2be-92a0734b3aef","ios":"levelo://app?vid=1ad3b388-7f05-40c4-b2be-92a0734b3aef"},"vehicle_type_id":"4","last_reported":1781458038,"current_range_meters":4800,"station_id":"","pricing_plan_id":"cebpf4jnsgd1na2vs0mg"},{"bike_id":"56997dce-9cb4-4387-a274-e82e510b15e3","system_id":"levelo_inurba_marseille","lat":43.28625,"lon":5.35087,"is_reserved":false,"is_disabled":false,"rental_uris":{"android":"levelo://app?vid=56997dce-9cb4-4387-a274-e82e510b15e3","ios":"levelo://app?vid=56997dce-9cb4-4387-a274-e82e510b15e3"},"vehicle_type_id":"4","last_reported":1781458038,"current_range_meters":4800,"station_id":"ce4bhch2rcd13ifvqeug","pricing_plan_id":"cebpf4jnsgd1na2vs0mg"},{"bike_id":"a47f7ec5-339e-411f-a9f3-d5a489312e95","system_id":"levelo_inurba_marseille","lat":43.28051,"lon":5.351,"is_reserved":false,"is_disabled":false,"rental_uris":{"android":"levelo://app?vid=a47f7ec5-339e-411f-a9f3-d5a489312e95","ios":"levelo://app?vid=a47f7ec5-339e-411f-a9f3-d5a489312e95"},"vehicle_type_id":"4","last_reported":1781458038,"current_range_meters":4800,"station_id":"","pricing_plan_id":"cebpf4jnsgd1na2vs0mg"},{"bike_id":"2d5036af-f9df-45c6-97e4-648868345309","system_id":"levelo_inurba_marseille","lat":43.33369,"lon":5.39069,"is_reserved":false,"is_disabled":false,"rental_uris":{"android":"levelo://app?vid=2d5036af-f9df-45c6-97e4-648868345309","ios":"levelo://app?vid=2d5036af-f9df-45c6-97e4-648868345309"},"vehicle_type_id":"4","last_reported":1781458038,"current_range_meters":4800,"station_id":"","pricing_plan_id":"cebpf4jnsgd1na2vs0mg"},{"bike_id":"0dd5c1b9-fadd-4730-a411-f5fc7e91b1b2","system_id":"levelo_inurba_marseille","lat":43.3014,"lon":5.3988,"is_reserved":false,"is_disabled":false,"rental_uris":{"android":"levelo://app?vid=0dd5c1b9-fadd-4730-a411-f5fc7e91b1b2","ios":"levelo://app?vid=0dd5c1b9-fadd-4730-a411-f5fc7e91b1b2"},"vehicle_type_id":"4","last_reported":1781458038,"current_range_meters":4800,"station_id":"ce4bh0h2rcd13ifvqd40","pricing_plan_id":"cebpf4jnsgd1na2vs0mg"},{"bike_id":"a92f5016-5ebd-49d9-977d-3d5368454a5e","system_id":"levelo_inurba_marseille","lat":43.32498,"lon":5.38308,"is_reserved":false,"is_disabled":false,"rental_uris":{"android":"levelo://app?vid=a92f5016-5ebd-49d9-977d-3d5368454a5e","ios":"levelo://app?vid=a92f5016-5ebd-49d9-977d-3d5368454a5e"},"vehicle_type_id":"4","last_reported":1781458038,"current_range_meters":4800,"station_id":"st_d4asgbiv49dc73anf9m0","pricing_plan_id":"cebpf4jnsgd1na2vs0mg"},{"bike_id":"16752840-c9b1-49ac-8695-bbaa0009abca","system_id":"levelo_inurba_marseille","lat":43.25728,"lon":5.41107,"is_reserved":false,"is_disabled":false,"rental_uris":{"android":"levelo://app?vid=16752840-c9b1-49ac-8695-bbaa0009abca","ios":"levelo://app?vid=16752840-c9b1-49ac-8695-bbaa0009abca"},"vehicle_type_id":"4","last_reported":1781458038,"current_range_meters":4800,"station_id":"ce4bhkp2rcd13ifvqgd0","pricing_plan_id":"cebpf4jnsgd1na2vs0mg"},{"bike_id":"c98c9bd1-c55f-4ccd-bc25-39ce9021dd2d","system_id":"levelo_inurba_marseille","lat":43.30943,"lon":5.39056,"is_reserved":false,"is_disabled":false,"rental_uris":{"android":"levelo://app?vid=c98c9bd1-c55f-4ccd-bc25-39ce9021dd2d","ios":"levelo://app?vid=c98c9bd1-c55f-4ccd-bc25-39ce9021dd2d"},"vehicle_type_id":"4","last_reported":1781458038,"current_range_meters":4800,"station_id":"ce4bgup2rcd13ifvqco0","pricing_plan_id":"cebpf4jnsgd1na2vs0mg"},{"bike_id":"1c5a5436-ec2d-490e-8d5f-987241e86e3c","system_id":"levelo_inurba_marseille","lat":43.29608,"lon":5.37726,"is_reserved":false,"is_disabled":false,"rental_uris":{"android":"levelo://app?vid=1c5a5436-ec2d-490e-8d5f-987241e86e3c","ios":"levelo://app?vid=1c5a5436-ec2d-490e-8d5f-987241e86e3c"},"vehicle_type_id":"4","last_reported":1781458038,"current_range_meters":4800,"station_id":"ce4bgi92rcd13ifvqb90","pricing_plan_id":"cebpf4jnsgd1na2vs0mg"},{"bike_id":"199d14ad-a3bd-497c-853b-c11e62fd4131","system_id":"levelo_inurba_marseille","lat":43.30933,"lon":5.39036,"is_reserved":false,"is_disabled":false,"rental_uris":{"android":"levelo://app?vid=199d14ad-a3bd-497c-853b-c11e62fd4131","ios":"levelo://app?vid=199d14ad-a3bd-497c-853b-c11e62fd4131"},"vehicle_type_id":"4","last_reported":1781458038,"current_range_meters":4800,"station_id":"ce4bgup2rcd13ifvqco0","pricing_plan_id":"cebpf4jnsgd1na2vs0mg"},{"bike_id":"4b12f678-fcd3-4d35-b94c-196d6cc302b6","system_id":"levelo_inurba_marseille","lat":43.29029,"lon":5.38146,"is_reserved":false,"is_disabled":false,"rental_uris":{"android":"levelo://app?vid=4b12f678-fcd3-4d35-b94c-196d6cc302b6","ios":"levelo://app?vid=4b12f678-fcd3-4d35-b94c-196d6cc302b6"},"vehicle_type_id":"4","last_reported":1781458038,"current_range_meters":4800,"station_id":"ce4bh4p2rcd13ifvqe1g","pricing_plan_id":"cebpf4jnsgd1na2vs0mg"},{"bike_id":"178788d6-7709-4484-9971-d7cbf5ca17ce","system_id":"levelo_inurba_marseille","lat":43.21733,"lon":5.34603,"is_reserved":false,"is_disabled":false,"rental_uris":{"android":"levelo://app?vid=178788d6-7709-4484-9971-d7cbf5ca17ce","ios":"levelo://app?vid=178788d6-7709-4484-9971-d7cbf5ca17ce"},"vehicle_type_id":"4","last_reported":1781458038,"current_range_meters":4800,"station_id":"st_cvj6r9ubvosntc0bgbag","pricing_plan_id":"cebpf4jnsgd1na2vs0mg"},{"bike_id":"c2bfcf75-197f-4d0d-8b20-256d9aaad722","system_id":"levelo_inurba_marseille","lat":43.32104,"lon":5.36804,"is_reserved":false,"is_disabled":false,"rental_uris":{"android":"levelo://app?vid=c2bfcf75-197f-4d0d-8b20-256d9aaad722","ios":"levelo://app?vid=c2bfcf75-197f-4d0d-8b20-256d9aaad722"},"vehicle_type_id":"4","last_reported":1781458038,"current_range_meters":4800,"station_id":"ce4bhrh2rcd13ifvqhug","pricing_plan_id":"cebpf4jnsgd1na2vs0mg"},{"bike_id":"52087f45-67e1-420f-b8d5-1681de0f8e8d","system_id":"levelo_inurba_marseille","lat":43.279392,"lon":5.410517,"is_reserved":false,"is_disabled":false,"rental_uris":{"android":"levelo://app?vid=52087f45-67e1-420f-b8d5-1681de0f8e8d","ios":"levelo://app?vid=52087f45-67e1-420f-b8d5-1681de0f8e8d"},"vehicle_type_id":"4","last_reported":1781458038,"current_range_meters":4800,"station_id":"ce4bhnp2rcd13ifvqh0g","pricing_plan_id":"cebpf4jnsgd1na2vs0mg"},{"bike_id":"8f27be64-7acf-498b-9d2e-74cba605605d","system_id":"levelo_inurba_marseille","lat":43.21739,"lon":5.34599,"is_reserved":false,"is_disabled":false,"rental_uris":{"android":"levelo://app?vid=8f27be64-7acf-498b-9d2e-74cba605605d","ios":"levelo://app?vid=8f27be64-7acf-498b-9d2e-74cba605605d"},"vehicle_type_id":"4","last_reported":1781458038,"current_range_meters":4800,"station_id":"st_cvj6r9ubvosntc0bgbag","pricing_plan_id":"cebpf4jnsgd1na2vs0mg"},{"bike_id":"ff183300-e381-4623-b20d-53a94b47ae87","system_id":"levelo_inurba_marseille","lat":43.32591,"lon":5.36521,"is_reserved":false,"is_disabled":false,"rental_uris":{"android":"levelo://app?vid=ff183300-e381-4623-b20d-53a94b47ae87","ios":"levelo://app?vid=ff183300-e381-4623-b20d-53a94b47ae87"},"vehicle_type_id":"4","last_reported":1781458038,"current_range_meters":4800,"station_id":"","pricing_plan_id":"cebpf4jnsgd1na2vs0mg"},{"bike_id":"5eef1389-f86a-4a45-974e-28d6e07a7338","system_id":"levelo_inurba_marseille","lat":43.29008,"lon":5.35611,"is_reserved":false,"is_disabled":false,"rental_uris":{"android":"levelo://app?vid=5eef1389-f86a-4a45-974e-28d6e07a7338","ios":"levelo://app?vid=5eef1389-f86a-4a45-974e-28d6e07a7338"},"vehicle_type_id":"4","last_reported":1781458038,"current_range_meters":4800,"station_id":"ce4bhb92rcd13ifvqen0","pricing_plan_id":"cebpf4jnsgd1na2vs0mg"},{"bike_id":"11d443e6-9963-4610-80cb-0bed5c7b2bf6","system_id":"levelo_inurba_marseille","lat":43.315,"lon":5.37274,"is_reserved":false,"is_disabled":false,"rental_uris":{"android":"levelo://app?vid=11d443e6-9963-4610-80cb-0bed5c7b2bf6","ios":"levelo://app?vid=11d443e6-9963-4610-80cb-0bed5c7b2bf6"},"vehicle_type_id":"4","last_reported":1781458038,"current_range_meters":4800,"station_id":"ce4bgt12rcd13ifvqcd0","pricing_plan_id":"cebpf4jnsgd1na2vs0mg"},{"bike_id":"8150589d-aa57-493e-b46c-c7049ac03237","system_id":"levelo_inurba_marseille","lat":43.32493,"lon":5.39138,"is_reserved":false,"is_disabled":false,"rental_uris":{"android":"levelo://app?vid=8150589d-aa57-493e-b46c-c7049ac03237","ios":"levelo://app?vid=8150589d-aa57-493e-b46c-c7049ac03237"},"vehicle_type_id":"4","last_reported":1781458038,"current_range_meters":4800,"station_id":"","pricing_plan_id":"cebpf4jnsgd1na2vs0mg"},{"bike_id":"c2a89e3f-293c-46c9-af39-e4e6a66996b5","system_id":"levelo_inurba_marseille","lat":43.29628,"lon":5.37711,"is_reserved":false,"is_disabled":false,"rental_uris":{"android":"levelo://app?vid=c2a89e3f-293c-46c9-af39-e4e6a66996b5","ios":"levelo://app?vid=c2a89e3f-293c-46c9-af39-e4e6a66996b5"},"vehicle_type_id":"4","last_reported":1781458038,"current_range_meters":4800,"station_id":"ce4bgi92rcd13ifvqb90","pricing_plan_id":"cebpf4jnsgd1na2vs0mg"},{"bike_id":"8c35e00d-f145-4990-9075-f1452b27a592","system_id":"levelo_inurba_marseille","lat":43.21227,"lon":5.35108,"is_reserved":false,"is_disabled":false,"rental_uris":{"android":"levelo://app?vid=8c35e00d-f145-4990-9075-f1452b27a592","ios":"levelo://app?vid=8c35e00d-f145-4990-9075-f1452b27a592"},"vehicle_type_id":"4","last_reported":1781458038,"current_range_meters":5600,"station_id":"","pricing_plan_id":"cebpf4jnsgd1na2vs0mg"},{"bike_id":"207d34b6-3a83-4d90-938a-80aab0b6e29f","system_id":"levelo_inurba_marseille","lat":43.250042,"lon":5.389242,"is_reserved":false,"is_disabled":false,"rental_uris":{"android":"levelo://app?vid=207d34b6-3a83-4d90-938a-80aab0b6e29f","ios":"levelo://app?vid=207d34b6-3a83-4d90-938a-80aab0b6e29f"},"vehicle_type_id":"4","last_reported":1781458038,"current_range_meters":5600,"station_id":"ce4bhgp2rcd13ifvqfd0","pricing_plan_id":"cebpf4jnsgd1na2vs0mg"},{"bike_id":"9ad73139-7430-4597-a4c0-9765ee1bf68c","system_id":"levelo_inurba_marseille","lat":43.28417,"lon":5.34995,"is_reserved":false,"is_disabled":false,"rental_uris":{"android":"levelo://app?vid=9ad73139-7430-4597-a4c0-9765ee1bf68c","ios":"levelo://app?vid=9ad73139-7430-4597-a4c0-9765ee1bf68c"},"vehicle_type_id":"4","last_reported":1781458038,"current_range_meters":5600,"station_id":"ce4bhbh2rcd13ifvqepg","pricing_plan_id":"cebpf4jnsgd1na2vs0mg"},{"bike_id":"f2ba73c5-fc69-4601-a3f3-cbbbb5b9b11d","system_id":"levelo_inurba_marseille","lat":43.28338,"lon":5.3882,"is_reserved":false,"is_disabled":false,"rental_uris":{"android":"levelo://app?vid=f2ba73c5-fc69-4601-a3f3-cbbbb5b9b11d","ios":"levelo://app?vid=f2ba73c5-fc69-4601-a3f3-cbbbb5b9b11d"},"vehicle_type_id":"4","last_reported":1781458038,"current_range_meters":5600,"station_id":"","pricing_plan_id":"cebpf4jnsgd1na2vs0mg"},{"bike_id":"1aa69796-4597-4e19-90ef-464fe6857eba","system_id":"levelo_inurba_marseille","lat":43.29471,"lon":5.44523,"is_reserved":false,"is_disabled":false,"rental_uris":{"android":"levelo://app?vid=1aa69796-4597-4e19-90ef-464fe6857eba","ios":"levelo://app?vid=1aa69796-4597-4e19-90ef-464fe6857eba"},"vehicle_type_id":"4","last_reported":1781458038,"current_range_meters":5600,"station_id":"","pricing_plan_id":"cebpf4jnsgd1na2vs0mg"},{"bike_id":"1b5c7b8e-75a6-4e5b-a896-3aa61ed24deb","system_id":"levelo_inurba_marseille","lat":43.29523,"lon":5.39419,"is_reserved":false,"is_disabled":true,"rental_uris":{"android":"levelo://app?vid=1b5c7b8e-75a6-4e5b-a896-3aa61ed24deb","ios":"levelo://app?vid=1b5c7b8e-75a6-4e5b-a896-3aa61ed24deb"},"vehicle_type_id":"4","last_reported":1781458038,"current_range_meters":5600,"station_id":"ce4bh292rcd13ifvqdf0","pricing_plan_id":"cebpf4jnsgd1na2vs0mg"},{"bike_id":"7ab101d2-fd7e-47cf-982d-f85b01b5cea8","system_id":"levelo_inurba_marseille","lat":43.29079,"lon":5.36992,"is_reserved":false,"is_disabled":false,"rental_uris":{"android":"levelo://app?vid=7ab101d2-fd7e-47cf-982d-f85b01b5cea8","ios":"levelo://app?vid=7ab101d2-fd7e-47cf-982d-f85b01b5cea8"},"vehicle_type_id":"4","last_reported":1781458038,"current_range_meters":5600,"station_id":"","pricing_plan_id":"cebpf4jnsgd1na2vs0mg"},{"bike_id":"67b5d997-f3d7-4ed9-aa45-e579b87e467a","system_id":"levelo_inurba_marseille","lat":43.33763,"lon":5.37419,"is_reserved":false,"is_disabled":false,"rental_uris":{"android":"levelo://app?vid=67b5d997-f3d7-4ed9-aa45-e579b87e467a","ios":"levelo://app?vid=67b5d997-f3d7-4ed9-aa45-e579b87e467a"},"vehicle_type_id":"4","last_reported":1781458038,"current_range_meters":5600,"station_id":"","pricing_plan_id":"cebpf4jnsgd1na2vs0mg"},{"bike_id":"7fa90802-d64f-4457-b2c5-ef4469c1a29a","system_id":"levelo_inurba_marseille","lat":43.293059,"lon":5.371569,"is_reserved":false,"is_disabled":true,"rental_uris":{"android":"levelo://app?vid=7fa90802-d64f-4457-b2c5-ef4469c1a29a","ios":"levelo://app?vid=7fa90802-d64f-4457-b2c5-ef4469c1a29a"},"vehicle_type_id":"4","last_reported":1781458038,"current_range_meters":5600,"station_id":"ce4bgh92rcd13ifvqb40","pricing_plan_id":"cebpf4jnsgd1na2vs0mg"},{"bike_id":"cf89c07c-3b71-4c4a-817e-7512dad768d7","system_id":"levelo_inurba_marseille","lat":43.292774,"lon":5.36841,"is_reserved":false,"is_disabled":false,"rental_uris":{"android":"levelo://app?vid=cf89c07c-3b71-4c4a-817e-7512dad768d7","ios":"levelo://app?vid=cf89c07c-3b71-4c4a-817e-7512dad768d7"},"vehicle_type_id":"4","last_reported":1781458038,"current_range_meters":5600,"station_id":"ce4bhbp2rcd13ifvqesg","pricing_plan_id":"cebpf4jnsgd1na2vs0mg"},{"bike_id":"b125b530-84b4-466a-959e-af22c49310c7","system_id":"levelo_inurba_marseille","lat":43.29623,"lon":5.377146,"is_reserved":false,"is_disabled":false,"rental_uris":{"android":"levelo://app?vid=b125b530-84b4-466a-959e-af22c49310c7","ios":"levelo://app?vid=b125b530-84b4-466a-959e-af22c49310c7"},"vehicle_type_id":"4","last_reported":1781458038,"current_range_meters":5600,"station_id":"ce4bgi92rcd13ifvqb90","pricing_plan_id":"cebpf4jnsgd1na2vs0mg"},{"bike_id":"52e89d55-3f30-4613-8302-671a182f499c","system_id":"levelo_inurba_marseille","lat":43.28063,"lon":5.34772,"is_reserved":false,"is_disabled":false,"rental_uris":{"android":"levelo://app?vid=52e89d55-3f30-4613-8302-671a182f499c","ios":"levelo://app?vid=52e89d55-3f30-4613-8302-671a182f499c"},"vehicle_type_id":"4","last_reported":1781458038,"current_range_meters":5600,"station_id":"","pricing_plan_id":"cebpf4jnsgd1na2vs0mg"},{"bike_id":"c8700af2-ac83-415d-afb1-7e2cf6127cd2","system_id":"levelo_inurba_marseille","lat":43.29145,"lon":5.36099,"is_reserved":false,"is_disabled":false,"rental_uris":{"android":"levelo://app?vid=c8700af2-ac83-415d-afb1-7e2cf6127cd2","ios":"levelo://app?vid=c8700af2-ac83-415d-afb1-7e2cf6127cd2"},"vehicle_type_id":"4","last_reported":1781458038,"current_range_meters":5600,"station_id":"ce4bhbh2rcd13ifvqeqg","pricing_plan_id":"cebpf4jnsgd1na2vs0mg"},{"bike_id":"bc9bb278-9a3f-444c-9ee4-086e46a06286","system_id":"levelo_inurba_marseille","lat":43.22259,"lon":5.40489,"is_reserved":false,"is_disabled":false,"rental_uris":{"android":"levelo://app?vid=bc9bb278-9a3f-444c-9ee4-086e46a06286","ios":"levelo://app?vid=bc9bb278-9a3f-444c-9ee4-086e46a06286"},"vehicle_type_id":"4","last_reported":1781458038,"current_range_meters":5600,"station_id":"","pricing_plan_id":"cebpf4jnsgd1na2vs0mg"},{"bike_id":"96b2ab90-d8d2-49df-9035-0467b0e6c086","system_id":"levelo_inurba_marseille","lat":43.29803,"lon":5.44065,"is_reserved":false,"is_disabled":false,"rental_uris":{"android":"levelo://app?vid=96b2ab90-d8d2-49df-9035-0467b0e6c086","ios":"levelo://app?vid=96b2ab90-d8d2-49df-9035-0467b0e6c086"},"vehicle_type_id":"4","last_reported":1781458038,"current_range_meters":5600,"station_id":"st_d3jp68qikq2c7381ktn0","pricing_plan_id":"cebpf4jnsgd1na2vs0mg"},{"bike_id":"e6268e01-408c-4640-b5e2-0cc5f3b5f674","system_id":"levelo_inurba_marseille","lat":43.33535,"lon":5.37464,"is_reserved":false,"is_disabled":false,"rental_uris":{"android":"levelo://app?vid=e6268e01-408c-4640-b5e2-0cc5f3b5f674","ios":"levelo://app?vid=e6268e01-408c-4640-b5e2-0cc5f3b5f674"},"vehicle_type_id":"4","last_reported":1781458038,"current_range_meters":5600,"station_id":"st_d46tts09ee8s73dlu43g","pricing_plan_id":"cebpf4jnsgd1na2vs0mg"},{"bike_id":"2f5a2eb1-a60a-4fe8-a5aa-002259731410","system_id":"levelo_inurba_marseille","lat":43.31058,"lon":5.37144,"is_reserved":false,"is_disabled":true,"rental_uris":{"android":"levelo://app?vid=2f5a2eb1-a60a-4fe8-a5aa-002259731410","ios":"levelo://app?vid=2f5a2eb1-a60a-4fe8-a5aa-002259731410"},"vehicle_type_id":"4","last_reported":1781458038,"current_range_meters":5600,"station_id":"st_d4kl2rp97mjs73e7tdfg","pricing_plan_id":"cebpf4jnsgd1na2vs0mg"},{"bike_id":"d729573f-a86b-41d2-bc51-bd23c133868d","system_id":"levelo_inurba_marseille","lat":43.31505,"lon":5.38423,"is_reserved":false,"is_disabled":false,"rental_uris":{"android":"levelo://app?vid=d729573f-a86b-41d2-bc51-bd23c133868d","ios":"levelo://app?vid=d729573f-a86b-41d2-bc51-bd23c133868d"},"vehicle_type_id":"4","last_reported":1781458038,"current_range_meters":5600,"station_id":"","pricing_plan_id":"cebpf4jnsgd1na2vs0mg"},{"bike_id":"18d3753c-9feb-4a72-9030-d19f09b8a97b","system_id":"levelo_inurba_marseille","lat":43.29866,"lon":5.37899,"is_reserved":false,"is_disabled":false,"rental_uris":{"android":"levelo://app?vid=18d3753c-9feb-4a72-9030-d19f09b8a97b","ios":"levelo://app?vid=18d3753c-9feb-4a72-9030-d19f09b8a97b"},"vehicle_type_id":"4","last_reported":1781458038,"current_range_meters":6000,"station_id":"","pricing_plan_id":"cebpf4jnsgd1na2vs0mg"},{"bike_id":"9efcab4c-1646-4d48-a557-78288bcb9d0e","system_id":"levelo_inurba_marseille","lat":43.27494,"lon":5.41593,"is_reserved":false,"is_disabled":false,"rental_uris":{"android":"levelo://app?vid=9efcab4c-1646-4d48-a557-78288bcb9d0e","ios":"levelo://app?vid=9efcab4c-1646-4d48-a557-78288bcb9d0e"},"vehicle_type_id":"4","last_reported":1781458038,"current_range_meters":6000,"station_id":"st_d6im8g6chgec73a5pndg","pricing_plan_id":"cebpf4jnsgd1na2vs0mg"},{"bike_id":"72a68596-e19c-4a52-ba10-9bdae69e8aa7","system_id":"levelo_inurba_marseille","lat":43.26476,"lon":5.39551,"is_reserved":false,"is_disabled":true,"rental_uris":{"android":"levelo://app?vid=72a68596-e19c-4a52-ba10-9bdae69e8aa7","ios":"levelo://app?vid=72a68596-e19c-4a52-ba10-9bdae69e8aa7"},"vehicle_type_id":"4","last_reported":1781458038,"current_range_meters":6000,"station_id":"ce4bhi12rcd13ifvqfq0","pricing_plan_id":"cebpf4jnsgd1na2vs0mg"},{"bike_id":"79d3fe55-179a-4dcd-8254-78b6944a2fa4","system_id":"levelo_inurba_marseille","lat":43.25512,"lon":5.37654,"is_reserved":false,"is_disabled":false,"rental_uris":{"android":"levelo://app?vid=79d3fe55-179a-4dcd-8254-78b6944a2fa4","ios":"levelo://app?vid=79d3fe55-179a-4dcd-8254-78b6944a2fa4"},"vehicle_type_id":"4","last_reported":1781458038,"current_range_meters":6000,"station_id":"ce4bhh12rcd13ifvqff0","pricing_plan_id":"cebpf4jnsgd1na2vs0mg"},{"bike_id":"61704817-1327-4008-824f-2bfba68820ec","system_id":"levelo_inurba_marseille","lat":43.23886,"lon":5.37472,"is_reserved":false,"is_disabled":false,"rental_uris":{"android":"levelo://app?vid=61704817-1327-4008-824f-2bfba68820ec","ios":"levelo://app?vid=61704817-1327-4008-824f-2bfba68820ec"},"vehicle_type_id":"4","last_reported":1781458038,"current_range_meters":6000,"station_id":"st_d6sm7csbq4hs73f8fpjg","pricing_plan_id":"cebpf4jnsgd1na2vs0mg"},{"bike_id":"2efefc03-4edd-4e9c-8c65-243cf8199fbd","system_id":"levelo_inurba_marseille","lat":43.24475,"lon":5.42527,"is_reserved":false,"is_disabled":false,"rental_uris":{"android":"levelo://app?vid=2efefc03-4edd-4e9c-8c65-243cf8199fbd","ios":"levelo://app?vid=2efefc03-4edd-4e9c-8c65-243cf8199fbd"},"vehicle_type_id":"4","last_reported":1781458038,"current_range_meters":6000,"station_id":"st_d4a3vfp97mjs738cd8kg","pricing_plan_id":"cebpf4jnsgd1na2vs0mg"},{"bike_id":"9d5e43bc-0bf1-41b6-b34f-7bce4be45a87","system_id":"levelo_inurba_marseille","lat":43.27558,"lon":5.38429,"is_reserved":false,"is_disabled":false,"rental_uris":{"android":"levelo://app?vid=9d5e43bc-0bf1-41b6-b34f-7bce4be45a87","ios":"levelo://app?vid=9d5e43bc-0bf1-41b6-b34f-7bce4be45a87"},"vehicle_type_id":"4","last_reported":1781458038,"current_range_meters":6000,"station_id":"ce4bhh92rcd13ifvqfi0","pricing_plan_id":"cebpf4jnsgd1na2vs0mg"},{"bike_id":"f61863b0-f767-44a6-8d35-21d2d9984309","system_id":"levelo_inurba_marseille","lat":43.28933,"lon":5.38838,"is_reserved":false,"is_disabled":false,"rental_uris":{"android":"levelo://app?vid=f61863b0-f767-44a6-8d35-21d2d9984309","ios":"levelo://app?vid=f61863b0-f767-44a6-8d35-21d2d9984309"},"vehicle_type_id":"4","last_reported":1781458038,"current_range_meters":6000,"station_id":"","pricing_plan_id":"cebpf4jnsgd1na2vs0mg"},{"bike_id":"9b329a65-7b70-4e26-a818-02e7b725d4f9","system_id":"levelo_inurba_marseille","lat":43.28431,"lon":5.35003,"is_reserved":false,"is_disabled":false,"rental_uris":{"android":"levelo://app?vid=9b329a65-7b70-4e26-a818-02e7b725d4f9","ios":"levelo://app?vid=9b329a65-7b70-4e26-a818-02e7b725d4f9"},"vehicle_type_id":"4","last_reported":1781458038,"current_range_meters":6000,"station_id":"ce4bhbh2rcd13ifvqepg","pricing_plan_id":"cebpf4jnsgd1na2vs0mg"},{"bike_id":"24107d62-baa3-4419-b5c9-8144479ce32c","system_id":"levelo_inurba_marseille","lat":43.30946,"lon":5.39025,"is_reserved":false,"is_disabled":false,"rental_uris":{"android":"levelo://app?vid=24107d62-baa3-4419-b5c9-8144479ce32c","ios":"levelo://app?vid=24107d62-baa3-4419-b5c9-8144479ce32c"},"vehicle_type_id":"4","last_reported":1781458038,"current_range_meters":6000,"station_id":"ce4bgup2rcd13ifvqco0","pricing_plan_id":"cebpf4jnsgd1na2vs0mg"},{"bike_id":"371b874f-b1fc-4f5b-b4c4-688532b3223f","system_id":"levelo_inurba_marseille","lat":43.30956,"lon":5.39027,"is_reserved":false,"is_disabled":false,"rental_uris":{"android":"levelo://app?vid=371b874f-b1fc-4f5b-b4c4-688532b3223f","ios":"levelo://app?vid=371b874f-b1fc-4f5b-b4c4-688532b3223f"},"vehicle_type_id":"4","last_reported":1781458038,"current_range_meters":6000,"station_id":"ce4bgup2rcd13ifvqco0","pricing_plan_id":"cebpf4jnsgd1na2vs0mg"},{"bike_id":"c52420c8-1ba2-46b0-a8d3-507f187ffb1b","system_id":"levelo_inurba_marseille","lat":43.28229,"lon":5.3907,"is_reserved":false,"is_disabled":false,"rental_uris":{"android":"levelo://app?vid=c52420c8-1ba2-46b0-a8d3-507f187ffb1b","ios":"levelo://app?vid=c52420c8-1ba2-46b0-a8d3-507f187ffb1b"},"vehicle_type_id":"4","last_reported":1781458038,"current_range_meters":6000,"station_id":"ce4bhn92rcd13ifvqgsg","pricing_plan_id":"cebpf4jnsgd1na2vs0mg"},{"bike_id":"fcbdd51f-fa24-4cc6-b92f-f3288e2d1c12","system_id":"levelo_inurba_marseille","lat":43.28649,"lon":5.46688,"is_reserved":false,"is_disabled":false,"rental_uris":{"android":"levelo://app?vid=fcbdd51f-fa24-4cc6-b92f-f3288e2d1c12","ios":"levelo://app?vid=fcbdd51f-fa24-4cc6-b92f-f3288e2d1c12"},"vehicle_type_id":"4","last_reported":1781458038,"current_range_meters":6000,"station_id":"st_d6tc3vkotcvc738tfjhg","pricing_plan_id":"cebpf4jnsgd1na2vs0mg"},{"bike_id":"4598af13-c4bc-40d1-8f87-ffb868e7079c","system_id":"levelo_inurba_marseille","lat":43.29974,"lon":5.38495,"is_reserved":false,"is_disabled":false,"rental_uris":{"android":"levelo://app?vid=4598af13-c4bc-40d1-8f87-ffb868e7079c","ios":"levelo://app?vid=4598af13-c4bc-40d1-8f87-ffb868e7079c"},"vehicle_type_id":"4","last_reported":1781458038,"current_range_meters":6000,"station_id":"ce4bgj92rcd13ifvqbd0","pricing_plan_id":"cebpf4jnsgd1na2vs0mg"},{"bike_id":"feef68fe-6dc2-458d-9b22-23e94ac4e953","system_id":"levelo_inurba_marseille","lat":43.30952,"lon":5.39031,"is_reserved":false,"is_disabled":false,"rental_uris":{"android":"levelo://app?vid=feef68fe-6dc2-458d-9b22-23e94ac4e953","ios":"levelo://app?vid=feef68fe-6dc2-458d-9b22-23e94ac4e953"},"vehicle_type_id":"4","last_reported":1781458038,"current_range_meters":6000,"station_id":"ce4bgup2rcd13ifvqco0","pricing_plan_id":"cebpf4jnsgd1na2vs0mg"},{"bike_id":"9dd4f3a8-39d5-43f7-9f51-1797629b3584","system_id":"levelo_inurba_marseille","lat":43.22525,"lon":5.3484,"is_reserved":false,"is_disabled":false,"rental_uris":{"android":"levelo://app?vid=9dd4f3a8-39d5-43f7-9f51-1797629b3584","ios":"levelo://app?vid=9dd4f3a8-39d5-43f7-9f51-1797629b3584"},"vehicle_type_id":"4","last_reported":1781458038,"current_range_meters":6000,"station_id":"st_cvj5dfep6f1abm77gieg","pricing_plan_id":"cebpf4jnsgd1na2vs0mg"},{"bike_id":"e033fec3-a534-466f-a297-490ac599b623","system_id":"levelo_inurba_marseille","lat":43.24678,"lon":5.38135,"is_reserved":false,"is_disabled":false,"rental_uris":{"android":"levelo://app?vid=e033fec3-a534-466f-a297-490ac599b623","ios":"levelo://app?vid=e033fec3-a534-466f-a297-490ac599b623"},"vehicle_type_id":"4","last_reported":1781458038,"current_range_meters":6000,"station_id":"ce4bhih2rcd13ifvqfr0","pricing_plan_id":"cebpf4jnsgd1na2vs0mg"},{"bike_id":"ac60092f-eab3-4ff1-9394-f4dec71ea792","system_id":"levelo_inurba_marseille","lat":43.292679,"lon":5.38443,"is_reserved":false,"is_disabled":false,"rental_uris":{"android":"levelo://app?vid=ac60092f-eab3-4ff1-9394-f4dec71ea792","ios":"levelo://app?vid=ac60092f-eab3-4ff1-9394-f4dec71ea792"},"vehicle_type_id":"4","last_reported":1781458038,"current_range_meters":6000,"station_id":"ce4bh692rcd13ifvqea0","pricing_plan_id":"cebpf4jnsgd1na2vs0mg"},{"bike_id":"423f6182-a443-4c34-a818-81a8277ac3c4","system_id":"levelo_inurba_marseille","lat":43.22528,"lon":5.34831,"is_reserved":false,"is_disabled":false,"rental_uris":{"android":"levelo://app?vid=423f6182-a443-4c34-a818-81a8277ac3c4","ios":"levelo://app?vid=423f6182-a443-4c34-a818-81a8277ac3c4"},"vehicle_type_id":"4","last_reported":1781458038,"current_range_meters":6000,"station_id":"st_cvj5dfep6f1abm77gieg","pricing_plan_id":"cebpf4jnsgd1na2vs0mg"},{"bike_id":"a4cbdba4-fdc7-4eda-ab4c-4d316aacdfef","system_id":"levelo_inurba_marseille","lat":43.31484,"lon":5.37303,"is_reserved":false,"is_disabled":false,"rental_uris":{"android":"levelo://app?vid=a4cbdba4-fdc7-4eda-ab4c-4d316aacdfef","ios":"levelo://app?vid=a4cbdba4-fdc7-4eda-ab4c-4d316aacdfef"},"vehicle_type_id":"4","last_reported":1781458038,"current_range_meters":6000,"station_id":"ce4bgt12rcd13ifvqcd0","pricing_plan_id":"cebpf4jnsgd1na2vs0mg"},{"bike_id":"146c3e50-4ed1-4f73-85c2-bf4c03871b87","system_id":"levelo_inurba_marseille","lat":43.29245,"lon":5.38446,"is_reserved":false,"is_disabled":false,"rental_uris":{"android":"levelo://app?vid=146c3e50-4ed1-4f73-85c2-bf4c03871b87","ios":"levelo://app?vid=146c3e50-4ed1-4f73-85c2-bf4c03871b87"},"vehicle_type_id":"4","last_reported":1781458038,"current_range_meters":6400,"station_id":"ce4bh692rcd13ifvqea0","pricing_plan_id":"cebpf4jnsgd1na2vs0mg"},{"bike_id":"d117df6f-92d3-41bd-88ad-1367bea50a0c","system_id":"levelo_inurba_marseille","lat":43.24761,"lon":5.37566,"is_reserved":false,"is_disabled":false,"rental_uris":{"android":"levelo://app?vid=d117df6f-92d3-41bd-88ad-1367bea50a0c","ios":"levelo://app?vid=d117df6f-92d3-41bd-88ad-1367bea50a0c"},"vehicle_type_id":"4","last_reported":1781458038,"current_range_meters":6400,"station_id":"","pricing_plan_id":"cebpf4jnsgd1na2vs0mg"},{"bike_id":"8fea25ca-fb48-4384-9778-a8089f84f9ac","system_id":"levelo_inurba_marseille","lat":43.29704,"lon":5.38095,"is_reserved":false,"is_disabled":false,"rental_uris":{"android":"levelo://app?vid=8fea25ca-fb48-4384-9778-a8089f84f9ac","ios":"levelo://app?vid=8fea25ca-fb48-4384-9778-a8089f84f9ac"},"vehicle_type_id":"4","last_reported":1781458038,"current_range_meters":6400,"station_id":"","pricing_plan_id":"cebpf4jnsgd1na2vs0mg"},{"bike_id":"24340fd8-378a-4f8b-bf68-9a308184637a","system_id":"levelo_inurba_marseille","lat":43.299721,"lon":5.413259,"is_reserved":false,"is_disabled":false,"rental_uris":{"android":"levelo://app?vid=24340fd8-378a-4f8b-bf68-9a308184637a","ios":"levelo://app?vid=24340fd8-378a-4f8b-bf68-9a308184637a"},"vehicle_type_id":"4","last_reported":1781458038,"current_range_meters":6400,"station_id":"ce4bhp12rcd13ifvqh9g","pricing_plan_id":"cebpf4jnsgd1na2vs0mg"},{"bike_id":"d1800741-fac1-4624-b995-5a057797ea03","system_id":"levelo_inurba_marseille","lat":43.27214,"lon":5.42358,"is_reserved":false,"is_disabled":false,"rental_uris":{"android":"levelo://app?vid=d1800741-fac1-4624-b995-5a057797ea03","ios":"levelo://app?vid=d1800741-fac1-4624-b995-5a057797ea03"},"vehicle_type_id":"4","last_reported":1781458038,"current_range_meters":6400,"station_id":"","pricing_plan_id":"cebpf4jnsgd1na2vs0mg"},{"bike_id":"c800199a-5474-40e1-bb50-c25e031e8be6","system_id":"levelo_inurba_marseille","lat":43.21189,"lon":5.35068,"is_reserved":false,"is_disabled":false,"rental_uris":{"android":"levelo://app?vid=c800199a-5474-40e1-bb50-c25e031e8be6","ios":"levelo://app?vid=c800199a-5474-40e1-bb50-c25e031e8be6"},"vehicle_type_id":"4","last_reported":1781458038,"current_range_meters":6400,"station_id":"st_cvj6sg6p6f1abm77japg","pricing_plan_id":"cebpf4jnsgd1na2vs0mg"},{"bike_id":"ce1ecf62-80c0-4d00-98da-26e2b1768a6f","system_id":"levelo_inurba_marseille","lat":43.297913,"lon":5.393459,"is_reserved":false,"is_disabled":false,"rental_uris":{"android":"levelo://app?vid=ce1ecf62-80c0-4d00-98da-26e2b1768a6f","ios":"levelo://app?vid=ce1ecf62-80c0-4d00-98da-26e2b1768a6f"},"vehicle_type_id":"4","last_reported":1781458038,"current_range_meters":6400,"station_id":"chh1huq6cuj3fo74tm60","pricing_plan_id":"cebpf4jnsgd1na2vs0mg"},{"bike_id":"6cbd7d8b-122b-4967-bb61-b94e83f635c9","system_id":"levelo_inurba_marseille","lat":43.28617,"lon":5.35107,"is_reserved":false,"is_disabled":false,"rental_uris":{"android":"levelo://app?vid=6cbd7d8b-122b-4967-bb61-b94e83f635c9","ios":"levelo://app?vid=6cbd7d8b-122b-4967-bb61-b94e83f635c9"},"vehicle_type_id":"4","last_reported":1781458038,"current_range_meters":6400,"station_id":"ce4bhch2rcd13ifvqeug","pricing_plan_id":"cebpf4jnsgd1na2vs0mg"},{"bike_id":"0c977e9a-f490-484e-8825-5fb45e23fb00","system_id":"levelo_inurba_marseille","lat":43.23205,"lon":5.35537,"is_reserved":false,"is_disabled":false,"rental_uris":{"android":"levelo://app?vid=0c977e9a-f490-484e-8825-5fb45e23fb00","ios":"levelo://app?vid=0c977e9a-f490-484e-8825-5fb45e23fb00"},"vehicle_type_id":"4","last_reported":1781458038,"current_range_meters":6400,"station_id":"ce4bhu92rcd13ifvqi70","pricing_plan_id":"cebpf4jnsgd1na2vs0mg"},{"bike_id":"31a5c23d-40d4-417f-98b3-4241d25cf95b","system_id":"levelo_inurba_marseille","lat":43.33384,"lon":5.393,"is_reserved":false,"is_disabled":false,"rental_uris":{"android":"levelo://app?vid=31a5c23d-40d4-417f-98b3-4241d25cf95b","ios":"levelo://app?vid=31a5c23d-40d4-417f-98b3-4241d25cf95b"},"vehicle_type_id":"4","last_reported":1781458038,"current_range_meters":6400,"station_id":"","pricing_plan_id":"cebpf4jnsgd1na2vs0mg"},{"bike_id":"fcfda4bb-d824-493f-9447-fe2b17c5780e","system_id":"levelo_inurba_marseille","lat":43.27883,"lon":5.35434,"is_reserved":false,"is_disabled":false,"rental_uris":{"android":"levelo://app?vid=fcfda4bb-d824-493f-9447-fe2b17c5780e","ios":"levelo://app?vid=fcfda4bb-d824-493f-9447-fe2b17c5780e"},"vehicle_type_id":"4","last_reported":1781458038,"current_range_meters":6400,"station_id":"","pricing_plan_id":"cebpf4jnsgd1na2vs0mg"},{"bike_id":"56b376d5-9b28-4e92-ac45-b76b482244af","system_id":"levelo_inurba_marseille","lat":43.31895,"lon":5.36811,"is_reserved":false,"is_disabled":false,"rental_uris":{"android":"levelo://app?vid=56b376d5-9b28-4e92-ac45-b76b482244af","ios":"levelo://app?vid=56b376d5-9b28-4e92-ac45-b76b482244af"},"vehicle_type_id":"4","last_reported":1781458038,"current_range_meters":6400,"station_id":"st_d6o2h0d0559c73evc1b0","pricing_plan_id":"cebpf4jnsgd1na2vs0mg"},{"bike_id":"5a3cb709-10e6-4146-aad0-f10b92988e8b","system_id":"levelo_inurba_marseille","lat":43.290212,"lon":5.381313,"is_reserved":false,"is_disabled":false,"rental_uris":{"android":"levelo://app?vid=5a3cb709-10e6-4146-aad0-f10b92988e8b","ios":"levelo://app?vid=5a3cb709-10e6-4146-aad0-f10b92988e8b"},"vehicle_type_id":"4","last_reported":1781458038,"current_range_meters":6400,"station_id":"ce4bh4p2rcd13ifvqe1g","pricing_plan_id":"cebpf4jnsgd1na2vs0mg"},{"bike_id":"8dba5781-30b0-46c5-af09-391680956134","system_id":"levelo_inurba_marseille","lat":43.28485,"lon":5.38548,"is_reserved":false,"is_disabled":false,"rental_uris":{"android":"levelo://app?vid=8dba5781-30b0-46c5-af09-391680956134","ios":"levelo://app?vid=8dba5781-30b0-46c5-af09-391680956134"},"vehicle_type_id":"4","last_reported":1781458038,"current_range_meters":6400,"station_id":"ce4bh8p2rcd13ifvqeb0","pricing_plan_id":"cebpf4jnsgd1na2vs0mg"},{"bike_id":"bbcfa845-04e7-4147-af58-e656c6582dc2","system_id":"levelo_inurba_marseille","lat":43.27635,"lon":5.35831,"is_reserved":false,"is_disabled":false,"rental_uris":{"android":"levelo://app?vid=bbcfa845-04e7-4147-af58-e656c6582dc2","ios":"levelo://app?vid=bbcfa845-04e7-4147-af58-e656c6582dc2"},"vehicle_type_id":"4","last_reported":1781458038,"current_range_meters":6400,"station_id":"","pricing_plan_id":"cebpf4jnsgd1na2vs0mg"},{"bike_id":"7272f913-724d-4b58-b6a6-688b3e04b242","system_id":"levelo_inurba_marseille","lat":43.24699,"lon":5.41275,"is_reserved":false,"is_disabled":false,"rental_uris":{"android":"levelo://app?vid=7272f913-724d-4b58-b6a6-688b3e04b242","ios":"levelo://app?vid=7272f913-724d-4b58-b6a6-688b3e04b242"},"vehicle_type_id":"4","last_reported":1781458038,"current_range_meters":6400,"station_id":"","pricing_plan_id":"cebpf4jnsgd1na2vs0mg"},{"bike_id":"5a9f43ba-23b0-443d-a12b-e81f6f7552f6","system_id":"levelo_inurba_marseille","lat":43.29555,"lon":5.42298,"is_reserved":false,"is_disabled":false,"rental_uris":{"android":"levelo://app?vid=5a9f43ba-23b0-443d-a12b-e81f6f7552f6","ios":"levelo://app?vid=5a9f43ba-23b0-443d-a12b-e81f6f7552f6"},"vehicle_type_id":"4","last_reported":1781458038,"current_range_meters":6400,"station_id":"ce4bhph2rcd13ifvqhdg","pricing_plan_id":"cebpf4jnsgd1na2vs0mg"},{"bike_id":"54e482a5-c534-4992-ad75-060a9850516b","system_id":"levelo_inurba_marseille","lat":43.32374,"lon":5.36741,"is_reserved":false,"is_disabled":false,"rental_uris":{"android":"levelo://app?vid=54e482a5-c534-4992-ad75-060a9850516b","ios":"levelo://app?vid=54e482a5-c534-4992-ad75-060a9850516b"},"vehicle_type_id":"4","last_reported":1781458038,"current_range_meters":6800,"station_id":"ce4bhsh2rcd13ifvqi2g","pricing_plan_id":"cebpf4jnsgd1na2vs0mg"},{"bike_id":"bf521f46-67a6-4ace-a053-6b00a61d9b87","system_id":"levelo_inurba_marseille","lat":43.30141,"lon":5.39869,"is_reserved":false,"is_disabled":false,"rental_uris":{"android":"levelo://app?vid=bf521f46-67a6-4ace-a053-6b00a61d9b87","ios":"levelo://app?vid=bf521f46-67a6-4ace-a053-6b00a61d9b87"},"vehicle_type_id":"4","last_reported":1781458038,"current_range_meters":6800,"station_id":"ce4bh0h2rcd13ifvqd40","pricing_plan_id":"cebpf4jnsgd1na2vs0mg"},{"bike_id":"50e006f0-edf8-4a73-a4be-64a19dcbdd96","system_id":"levelo_inurba_marseille","lat":43.30316,"lon":5.39192,"is_reserved":false,"is_disabled":true,"rental_uris":{"android":"levelo://app?vid=50e006f0-edf8-4a73-a4be-64a19dcbdd96","ios":"levelo://app?vid=50e006f0-edf8-4a73-a4be-64a19dcbdd96"},"vehicle_type_id":"4","last_reported":1781458038,"current_range_meters":6800,"station_id":"ce4bgkh2rcd13ifvqbk0","pricing_plan_id":"cebpf4jnsgd1na2vs0mg"},{"bike_id":"7269e119-0e13-4dd0-a553-e22258892c39","system_id":"levelo_inurba_marseille","lat":43.22947,"lon":5.35372,"is_reserved":false,"is_disabled":false,"rental_uris":{"android":"levelo://app?vid=7269e119-0e13-4dd0-a553-e22258892c39","ios":"levelo://app?vid=7269e119-0e13-4dd0-a553-e22258892c39"},"vehicle_type_id":"4","last_reported":1781458038,"current_range_meters":6800,"station_id":"cpo3532slgdg3j2ikp40","pricing_plan_id":"cebpf4jnsgd1na2vs0mg"},{"bike_id":"e951097c-25bc-4ef7-97e6-1783eeefa1c0","system_id":"levelo_inurba_marseille","lat":43.33648,"lon":5.41938,"is_reserved":false,"is_disabled":false,"rental_uris":{"android":"levelo://app?vid=e951097c-25bc-4ef7-97e6-1783eeefa1c0","ios":"levelo://app?vid=e951097c-25bc-4ef7-97e6-1783eeefa1c0"},"vehicle_type_id":"4","last_reported":1781458038,"current_range_meters":6800,"station_id":"","pricing_plan_id":"cebpf4jnsgd1na2vs0mg"},{"bike_id":"49924376-8cc8-44b4-9eca-5c4ff4c899c1","system_id":"levelo_inurba_marseille","lat":43.26568,"lon":5.37294,"is_reserved":false,"is_disabled":true,"rental_uris":{"android":"levelo://app?vid=49924376-8cc8-44b4-9eca-5c4ff4c899c1","ios":"levelo://app?vid=49924376-8cc8-44b4-9eca-5c4ff4c899c1"},"vehicle_type_id":"4","last_reported":1781458038,"current_range_meters":6800,"station_id":"ce4bhg12rcd13ifvqf70","pricing_plan_id":"cebpf4jnsgd1na2vs0mg"},{"bike_id":"39d0c51c-f43f-4de3-bda2-70f364f473b9","system_id":"levelo_inurba_marseille","lat":43.21774,"lon":5.34597,"is_reserved":false,"is_disabled":false,"rental_uris":{"android":"levelo://app?vid=39d0c51c-f43f-4de3-bda2-70f364f473b9","ios":"levelo://app?vid=39d0c51c-f43f-4de3-bda2-70f364f473b9"},"vehicle_type_id":"4","last_reported":1781458038,"current_range_meters":6800,"station_id":"st_cvj6r9ubvosntc0bgbag","pricing_plan_id":"cebpf4jnsgd1na2vs0mg"},{"bike_id":"0b630a54-6497-4bc9-95e3-b953b5b38d75","system_id":"levelo_inurba_marseille","lat":43.24476,"lon":5.42538,"is_reserved":false,"is_disabled":false,"rental_uris":{"android":"levelo://app?vid=0b630a54-6497-4bc9-95e3-b953b5b38d75","ios":"levelo://app?vid=0b630a54-6497-4bc9-95e3-b953b5b38d75"},"vehicle_type_id":"4","last_reported":1781458038,"current_range_meters":6800,"station_id":"st_d4a3vfp97mjs738cd8kg","pricing_plan_id":"cebpf4jnsgd1na2vs0mg"},{"bike_id":"b0b204db-fbfc-47ab-b713-f2603ef9af44","system_id":"levelo_inurba_marseille","lat":43.29308,"lon":5.37192,"is_reserved":false,"is_disabled":true,"rental_uris":{"android":"levelo://app?vid=b0b204db-fbfc-47ab-b713-f2603ef9af44","ios":"levelo://app?vid=b0b204db-fbfc-47ab-b713-f2603ef9af44"},"vehicle_type_id":"4","last_reported":1781458038,"current_range_meters":6800,"station_id":"ce4bgh92rcd13ifvqb40","pricing_plan_id":"cebpf4jnsgd1na2vs0mg"},{"bike_id":"3a178be9-377a-4a25-b16e-746e76e3b7b2","system_id":"levelo_inurba_marseille","lat":43.26198,"lon":5.38861,"is_reserved":false,"is_disabled":false,"rental_uris":{"android":"levelo://app?vid=3a178be9-377a-4a25-b16e-746e76e3b7b2","ios":"levelo://app?vid=3a178be9-377a-4a25-b16e-746e76e3b7b2"},"vehicle_type_id":"4","last_reported":1781458038,"current_range_meters":6800,"station_id":"","pricing_plan_id":"cebpf4jnsgd1na2vs0mg"},{"bike_id":"c2d1c0df-0e86-4c2a-8f8c-a589e1b924d5","system_id":"levelo_inurba_marseille","lat":43.21734,"lon":5.34625,"is_reserved":false,"is_disabled":false,"rental_uris":{"android":"levelo://app?vid=c2d1c0df-0e86-4c2a-8f8c-a589e1b924d5","ios":"levelo://app?vid=c2d1c0df-0e86-4c2a-8f8c-a589e1b924d5"},"vehicle_type_id":"4","last_reported":1781458038,"current_range_meters":6800,"station_id":"st_cvj6r9ubvosntc0bgbag","pricing_plan_id":"cebpf4jnsgd1na2vs0mg"},{"bike_id":"54410e0e-88fe-44cb-9cd3-c20ab067986a","system_id":"levelo_inurba_marseille","lat":43.28253,"lon":5.34858,"is_reserved":false,"is_disabled":false,"rental_uris":{"android":"levelo://app?vid=54410e0e-88fe-44cb-9cd3-c20ab067986a","ios":"levelo://app?vid=54410e0e-88fe-44cb-9cd3-c20ab067986a"},"vehicle_type_id":"4","last_reported":1781458038,"current_range_meters":6800,"station_id":"","pricing_plan_id":"cebpf4jnsgd1na2vs0mg"},{"bike_id":"0c72a25f-7005-4d7d-a6c3-8ad627ec053f","system_id":"levelo_inurba_marseille","lat":43.25573,"lon":5.3823,"is_reserved":false,"is_disabled":false,"rental_uris":{"android":"levelo://app?vid=0c72a25f-7005-4d7d-a6c3-8ad627ec053f","ios":"levelo://app?vid=0c72a25f-7005-4d7d-a6c3-8ad627ec053f"},"vehicle_type_id":"4","last_reported":1781458038,"current_range_meters":6800,"station_id":"ce4bhih2rcd13ifvqfs0","pricing_plan_id":"cebpf4jnsgd1na2vs0mg"},{"bike_id":"64d1def8-2a5b-48eb-8ec4-f02e72a31395","system_id":"levelo_inurba_marseille","lat":43.2871,"lon":5.46678,"is_reserved":false,"is_disabled":false,"rental_uris":{"android":"levelo://app?vid=64d1def8-2a5b-48eb-8ec4-f02e72a31395","ios":"levelo://app?vid=64d1def8-2a5b-48eb-8ec4-f02e72a31395"},"vehicle_type_id":"4","last_reported":1781458038,"current_range_meters":6800,"station_id":"st_d6tc3vkotcvc738tfjhg","pricing_plan_id":"cebpf4jnsgd1na2vs0mg"},{"bike_id":"87ce889a-432f-46e2-b722-0082a4450219","system_id":"levelo_inurba_marseille","lat":43.251,"lon":5.40337,"is_reserved":false,"is_disabled":false,"rental_uris":{"android":"levelo://app?vid=87ce889a-432f-46e2-b722-0082a4450219","ios":"levelo://app?vid=87ce889a-432f-46e2-b722-0082a4450219"},"vehicle_type_id":"4","last_reported":1781458038,"current_range_meters":6800,"station_id":"ce4bhlh2rcd13ifvqgig","pricing_plan_id":"cebpf4jnsgd1na2vs0mg"},{"bike_id":"ce059822-03c1-4578-b9e3-bb0b69a47db9","system_id":"levelo_inurba_marseille","lat":43.24994,"lon":5.38936,"is_reserved":false,"is_disabled":false,"rental_uris":{"android":"levelo://app?vid=ce059822-03c1-4578-b9e3-bb0b69a47db9","ios":"levelo://app?vid=ce059822-03c1-4578-b9e3-bb0b69a47db9"},"vehicle_type_id":"4","last_reported":1781458038,"current_range_meters":6800,"station_id":"ce4bhgp2rcd13ifvqfd0","pricing_plan_id":"cebpf4jnsgd1na2vs0mg"},{"bike_id":"a37a7c1d-40f6-4618-86d3-6d47293a7418","system_id":"levelo_inurba_marseille","lat":43.29897,"lon":5.43664,"is_reserved":false,"is_disabled":false,"rental_uris":{"android":"levelo://app?vid=a37a7c1d-40f6-4618-86d3-6d47293a7418","ios":"levelo://app?vid=a37a7c1d-40f6-4618-86d3-6d47293a7418"},"vehicle_type_id":"4","last_reported":1781458038,"current_range_meters":6800,"station_id":"ce4bhpp2rcd13ifvqhfg","pricing_plan_id":"cebpf4jnsgd1na2vs0mg"},{"bike_id":"e6eda01b-4746-4a1b-b8bd-bc2e29bf1778","system_id":"levelo_inurba_marseille","lat":43.28488,"lon":5.48407,"is_reserved":false,"is_disabled":false,"rental_uris":{"android":"levelo://app?vid=e6eda01b-4746-4a1b-b8bd-bc2e29bf1778","ios":"levelo://app?vid=e6eda01b-4746-4a1b-b8bd-bc2e29bf1778"},"vehicle_type_id":"4","last_reported":1781458038,"current_range_meters":6800,"station_id":"st_d3svhcjqgbts73a3dn0g","pricing_plan_id":"cebpf4jnsgd1na2vs0mg"},{"bike_id":"4b51180a-f031-4891-9ca2-75426db627c3","system_id":"levelo_inurba_marseille","lat":43.26639,"lon":5.39455,"is_reserved":false,"is_disabled":false,"rental_uris":{"android":"levelo://app?vid=4b51180a-f031-4891-9ca2-75426db627c3","ios":"levelo://app?vid=4b51180a-f031-4891-9ca2-75426db627c3"},"vehicle_type_id":"4","last_reported":1781458038,"current_range_meters":6800,"station_id":"","pricing_plan_id":"cebpf4jnsgd1na2vs0mg"},{"bike_id":"88f92915-fd96-4d7e-bd8d-9c52ec389a87","system_id":"levelo_inurba_marseille","lat":43.30935,"lon":5.39045,"is_reserved":false,"is_disabled":false,"rental_uris":{"android":"levelo://app?vid=88f92915-fd96-4d7e-bd8d-9c52ec389a87","ios":"levelo://app?vid=88f92915-fd96-4d7e-bd8d-9c52ec389a87"},"vehicle_type_id":"4","last_reported":1781458038,"current_range_meters":6800,"station_id":"ce4bgup2rcd13ifvqco0","pricing_plan_id":"cebpf4jnsgd1na2vs0mg"},{"bike_id":"9919b5fc-d3a6-42a1-8a0e-8637baa6e901","system_id":"levelo_inurba_marseille","lat":43.30789,"lon":5.37646,"is_reserved":false,"is_disabled":false,"rental_uris":{"android":"levelo://app?vid=9919b5fc-d3a6-42a1-8a0e-8637baa6e901","ios":"levelo://app?vid=9919b5fc-d3a6-42a1-8a0e-8637baa6e901"},"vehicle_type_id":"4","last_reported":1781458038,"current_range_meters":6800,"station_id":"ce4bgv92rcd13ifvqcq0","pricing_plan_id":"cebpf4jnsgd1na2vs0mg"},{"bike_id":"1ac014f9-6c93-4a33-9b93-b8d4032e9bdf","system_id":"levelo_inurba_marseille","lat":43.25502,"lon":5.3765,"is_reserved":false,"is_disabled":false,"rental_uris":{"android":"levelo://app?vid=1ac014f9-6c93-4a33-9b93-b8d4032e9bdf","ios":"levelo://app?vid=1ac014f9-6c93-4a33-9b93-b8d4032e9bdf"},"vehicle_type_id":"4","last_reported":1781458038,"current_range_meters":6800,"station_id":"ce4bhh12rcd13ifvqff0","pricing_plan_id":"cebpf4jnsgd1na2vs0mg"},{"bike_id":"eb0c1c7f-47b8-4a10-8001-0064309e6c74","system_id":"levelo_inurba_marseille","lat":43.22535,"lon":5.34828,"is_reserved":false,"is_disabled":false,"rental_uris":{"android":"levelo://app?vid=eb0c1c7f-47b8-4a10-8001-0064309e6c74","ios":"levelo://app?vid=eb0c1c7f-47b8-4a10-8001-0064309e6c74"},"vehicle_type_id":"4","last_reported":1781458038,"current_range_meters":6800,"station_id":"st_cvj5dfep6f1abm77gieg","pricing_plan_id":"cebpf4jnsgd1na2vs0mg"},{"bike_id":"18d986ce-8c1b-4c06-9c15-0ce1e8072853","system_id":"levelo_inurba_marseille","lat":43.29191,"lon":5.35795,"is_reserved":false,"is_disabled":false,"rental_uris":{"android":"levelo://app?vid=18d986ce-8c1b-4c06-9c15-0ce1e8072853","ios":"levelo://app?vid=18d986ce-8c1b-4c06-9c15-0ce1e8072853"},"vehicle_type_id":"4","last_reported":1781458038,"current_range_meters":6800,"station_id":"ce4bhb12rcd13ifvqel0","pricing_plan_id":"cebpf4jnsgd1na2vs0mg"},{"bike_id":"c01f6dec-89dd-472c-9d53-44f20e2f469d","system_id":"levelo_inurba_marseille","lat":43.28078,"lon":5.34809,"is_reserved":false,"is_disabled":false,"rental_uris":{"android":"levelo://app?vid=c01f6dec-89dd-472c-9d53-44f20e2f469d","ios":"levelo://app?vid=c01f6dec-89dd-472c-9d53-44f20e2f469d"},"vehicle_type_id":"4","last_reported":1781458038,"current_range_meters":6800,"station_id":"","pricing_plan_id":"cebpf4jnsgd1na2vs0mg"},{"bike_id":"167df277-6fea-4255-a2ff-b705d70e23c4","system_id":"levelo_inurba_marseille","lat":43.2762,"lon":5.36103,"is_reserved":false,"is_disabled":false,"rental_uris":{"android":"levelo://app?vid=167df277-6fea-4255-a2ff-b705d70e23c4","ios":"levelo://app?vid=167df277-6fea-4255-a2ff-b705d70e23c4"},"vehicle_type_id":"4","last_reported":1781458038,"current_range_meters":6800,"station_id":"ce4bgj92rcd13ifvqbe0","pricing_plan_id":"cebpf4jnsgd1na2vs0mg"},{"bike_id":"9059db4d-53f9-4bc2-96ea-2911cca7514a","system_id":"levelo_inurba_marseille","lat":43.21185,"lon":5.35082,"is_reserved":false,"is_disabled":false,"rental_uris":{"android":"levelo://app?vid=9059db4d-53f9-4bc2-96ea-2911cca7514a","ios":"levelo://app?vid=9059db4d-53f9-4bc2-96ea-2911cca7514a"},"vehicle_type_id":"4","last_reported":1781458038,"current_range_meters":6800,"station_id":"st_cvj6sg6p6f1abm77japg","pricing_plan_id":"cebpf4jnsgd1na2vs0mg"},{"bike_id":"58df25d0-bd57-4415-b2e9-39adcdff72a1","system_id":"levelo_inurba_marseille","lat":43.29172,"lon":5.37152,"is_reserved":false,"is_disabled":true,"rental_uris":{"android":"levelo://app?vid=58df25d0-bd57-4415-b2e9-39adcdff72a1","ios":"levelo://app?vid=58df25d0-bd57-4415-b2e9-39adcdff72a1"},"vehicle_type_id":"4","last_reported":1781458038,"current_range_meters":6800,"station_id":"ce4bha92rcd13ifvqeh0","pricing_plan_id":"cebpf4jnsgd1na2vs0mg"},{"bike_id":"e5112433-aa95-4996-836d-6a5e3dd047ee","system_id":"levelo_inurba_marseille","lat":43.30238,"lon":5.37949,"is_reserved":false,"is_disabled":false,"rental_uris":{"android":"levelo://app?vid=e5112433-aa95-4996-836d-6a5e3dd047ee","ios":"levelo://app?vid=e5112433-aa95-4996-836d-6a5e3dd047ee"},"vehicle_type_id":"4","last_reported":1781458038,"current_range_meters":6800,"station_id":"","pricing_plan_id":"cebpf4jnsgd1na2vs0mg"},{"bike_id":"081783e8-5da7-4fbf-b9b1-3d05ef7e49ce","system_id":"levelo_inurba_marseille","lat":43.28943,"lon":5.36667,"is_reserved":false,"is_disabled":true,"rental_uris":{"android":"levelo://app?vid=081783e8-5da7-4fbf-b9b1-3d05ef7e49ce","ios":"levelo://app?vid=081783e8-5da7-4fbf-b9b1-3d05ef7e49ce"},"vehicle_type_id":"4","last_reported":1781458038,"current_range_meters":6800,"station_id":"ce4bhap2rcd13ifvqek0","pricing_plan_id":"cebpf4jnsgd1na2vs0mg"},{"bike_id":"1cc1e854-a64b-4eaa-bd00-1c309caff36d","system_id":"levelo_inurba_marseille","lat":43.28599,"lon":5.35108,"is_reserved":false,"is_disabled":true,"rental_uris":{"android":"levelo://app?vid=1cc1e854-a64b-4eaa-bd00-1c309caff36d","ios":"levelo://app?vid=1cc1e854-a64b-4eaa-bd00-1c309caff36d"},"vehicle_type_id":"4","last_reported":1781458038,"current_range_meters":6800,"station_id":"ce4bhch2rcd13ifvqeug","pricing_plan_id":"cebpf4jnsgd1na2vs0mg"},{"bike_id":"ed336887-87cc-4897-90a1-9a0e72c03922","system_id":"levelo_inurba_marseille","lat":43.2465,"lon":5.37978,"is_reserved":false,"is_disabled":false,"rental_uris":{"android":"levelo://app?vid=ed336887-87cc-4897-90a1-9a0e72c03922","ios":"levelo://app?vid=ed336887-87cc-4897-90a1-9a0e72c03922"},"vehicle_type_id":"4","last_reported":1781458038,"current_range_meters":6800,"station_id":"","pricing_plan_id":"cebpf4jnsgd1na2vs0mg"},{"bike_id":"0313a6b7-4cf0-4aa3-a332-4dda59c07ccd","system_id":"levelo_inurba_marseille","lat":43.29804,"lon":5.38108,"is_reserved":false,"is_disabled":false,"rental_uris":{"android":"levelo://app?vid=0313a6b7-4cf0-4aa3-a332-4dda59c07ccd","ios":"levelo://app?vid=0313a6b7-4cf0-4aa3-a332-4dda59c07ccd"},"vehicle_type_id":"4","last_reported":1781458038,"current_range_meters":6800,"station_id":"ce4bgip2rcd13ifvqbb0","pricing_plan_id":"cebpf4jnsgd1na2vs0mg"},{"bike_id":"4e6d713d-5d98-4f27-9e30-016f10070add","system_id":"levelo_inurba_marseille","lat":43.24459,"lon":5.42535,"is_reserved":false,"is_disabled":false,"rental_uris":{"android":"levelo://app?vid=4e6d713d-5d98-4f27-9e30-016f10070add","ios":"levelo://app?vid=4e6d713d-5d98-4f27-9e30-016f10070add"},"vehicle_type_id":"4","last_reported":1781458038,"current_range_meters":6800,"station_id":"st_d4a3vfp97mjs738cd8kg","pricing_plan_id":"cebpf4jnsgd1na2vs0mg"},{"bike_id":"fcf4d312-9968-4443-82f2-b045268fd358","system_id":"levelo_inurba_marseille","lat":43.29919,"lon":5.41042,"is_reserved":false,"is_disabled":false,"rental_uris":{"android":"levelo://app?vid=fcf4d312-9968-4443-82f2-b045268fd358","ios":"levelo://app?vid=fcf4d312-9968-4443-82f2-b045268fd358"},"vehicle_type_id":"4","last_reported":1781458038,"current_range_meters":6800,"station_id":"","pricing_plan_id":"cebpf4jnsgd1na2vs0mg"},{"bike_id":"a0967682-704e-4097-9142-482a1f2d36c9","system_id":"levelo_inurba_marseille","lat":43.21208,"lon":5.35084,"is_reserved":false,"is_disabled":true,"rental_uris":{"android":"levelo://app?vid=a0967682-704e-4097-9142-482a1f2d36c9","ios":"levelo://app?vid=a0967682-704e-4097-9142-482a1f2d36c9"},"vehicle_type_id":"4","last_reported":1781458038,"current_range_meters":6800,"station_id":"st_cvj6sg6p6f1abm77japg","pricing_plan_id":"cebpf4jnsgd1na2vs0mg"},{"bike_id":"4d8df8ec-f6c0-4c39-8cac-00a49ce6968d","system_id":"levelo_inurba_marseille","lat":43.29088,"lon":5.37169,"is_reserved":false,"is_disabled":true,"rental_uris":{"android":"levelo://app?vid=4d8df8ec-f6c0-4c39-8cac-00a49ce6968d","ios":"levelo://app?vid=4d8df8ec-f6c0-4c39-8cac-00a49ce6968d"},"vehicle_type_id":"4","last_reported":1781458038,"current_range_meters":7200,"station_id":"ce4bh5p2rcd13ifvqe4g","pricing_plan_id":"cebpf4jnsgd1na2vs0mg"},{"bike_id":"4c78b6b3-2f8d-4f10-973f-a50992bad914","system_id":"levelo_inurba_marseille","lat":43.21224,"lon":5.35,"is_reserved":false,"is_disabled":false,"rental_uris":{"android":"levelo://app?vid=4c78b6b3-2f8d-4f10-973f-a50992bad914","ios":"levelo://app?vid=4c78b6b3-2f8d-4f10-973f-a50992bad914"},"vehicle_type_id":"4","last_reported":1781458038,"current_range_meters":7200,"station_id":"","pricing_plan_id":"cebpf4jnsgd1na2vs0mg"},{"bike_id":"18a97fb1-1436-49ca-9acc-e362ec62975d","system_id":"levelo_inurba_marseille","lat":43.23207,"lon":5.35548,"is_reserved":false,"is_disabled":false,"rental_uris":{"android":"levelo://app?vid=18a97fb1-1436-49ca-9acc-e362ec62975d","ios":"levelo://app?vid=18a97fb1-1436-49ca-9acc-e362ec62975d"},"vehicle_type_id":"4","last_reported":1781458038,"current_range_meters":7200,"station_id":"ce4bhu92rcd13ifvqi70","pricing_plan_id":"cebpf4jnsgd1na2vs0mg"},{"bike_id":"da15c788-c8d8-49d8-bc7f-d521b9e32c05","system_id":"levelo_inurba_marseille","lat":43.28416,"lon":5.34988,"is_reserved":false,"is_disabled":false,"rental_uris":{"android":"levelo://app?vid=da15c788-c8d8-49d8-bc7f-d521b9e32c05","ios":"levelo://app?vid=da15c788-c8d8-49d8-bc7f-d521b9e32c05"},"vehicle_type_id":"4","last_reported":1781458038,"current_range_meters":7200,"station_id":"ce4bhbh2rcd13ifvqepg","pricing_plan_id":"cebpf4jnsgd1na2vs0mg"},{"bike_id":"aff014c2-15fa-45d6-bb80-ee15e1a06979","system_id":"levelo_inurba_marseille","lat":43.23775,"lon":5.36628,"is_reserved":false,"is_disabled":false,"rental_uris":{"android":"levelo://app?vid=aff014c2-15fa-45d6-bb80-ee15e1a06979","ios":"levelo://app?vid=aff014c2-15fa-45d6-bb80-ee15e1a06979"},"vehicle_type_id":"4","last_reported":1781458038,"current_range_meters":7200,"station_id":"st_d3nk18o9ro0c73en2l3g","pricing_plan_id":"cebpf4jnsgd1na2vs0mg"},{"bike_id":"ef36c964-a3fa-4afb-9a60-003fd3c65d26","system_id":"levelo_inurba_marseille","lat":43.3149,"lon":5.37258,"is_reserved":false,"is_disabled":false,"rental_uris":{"android":"levelo://app?vid=ef36c964-a3fa-4afb-9a60-003fd3c65d26","ios":"levelo://app?vid=ef36c964-a3fa-4afb-9a60-003fd3c65d26"},"vehicle_type_id":"4","last_reported":1781458038,"current_range_meters":7200,"station_id":"ce4bgt12rcd13ifvqcd0","pricing_plan_id":"cebpf4jnsgd1na2vs0mg"},{"bike_id":"92d949af-6830-40f5-ae3e-4ffbb070b620","system_id":"levelo_inurba_marseille","lat":43.29004,"lon":5.35607,"is_reserved":false,"is_disabled":false,"rental_uris":{"android":"levelo://app?vid=92d949af-6830-40f5-ae3e-4ffbb070b620","ios":"levelo://app?vid=92d949af-6830-40f5-ae3e-4ffbb070b620"},"vehicle_type_id":"4","last_reported":1781458038,"current_range_meters":7200,"station_id":"ce4bhb92rcd13ifvqen0","pricing_plan_id":"cebpf4jnsgd1na2vs0mg"},{"bike_id":"f10274f0-d5a3-4847-854d-5e53c5520946","system_id":"levelo_inurba_marseille","lat":43.32366,"lon":5.36755,"is_reserved":false,"is_disabled":false,"rental_uris":{"android":"levelo://app?vid=f10274f0-d5a3-4847-854d-5e53c5520946","ios":"levelo://app?vid=f10274f0-d5a3-4847-854d-5e53c5520946"},"vehicle_type_id":"4","last_reported":1781458038,"current_range_meters":7200,"station_id":"ce4bhsh2rcd13ifvqi2g","pricing_plan_id":"cebpf4jnsgd1na2vs0mg"},{"bike_id":"fc6d068f-e66a-4a2e-bdf9-0b12bfd86ea0","system_id":"levelo_inurba_marseille","lat":43.23052,"lon":5.35486,"is_reserved":false,"is_disabled":false,"rental_uris":{"android":"levelo://app?vid=fc6d068f-e66a-4a2e-bdf9-0b12bfd86ea0","ios":"levelo://app?vid=fc6d068f-e66a-4a2e-bdf9-0b12bfd86ea0"},"vehicle_type_id":"4","last_reported":1781458038,"current_range_meters":7200,"station_id":"cpo3342slgdg3j2ifvpg","pricing_plan_id":"cebpf4jnsgd1na2vs0mg"},{"bike_id":"520e7007-685d-436d-8d38-db025ae27a9c","system_id":"levelo_inurba_marseille","lat":43.33707,"lon":5.39183,"is_reserved":false,"is_disabled":false,"rental_uris":{"android":"levelo://app?vid=520e7007-685d-436d-8d38-db025ae27a9c","ios":"levelo://app?vid=520e7007-685d-436d-8d38-db025ae27a9c"},"vehicle_type_id":"4","last_reported":1781458038,"current_range_meters":7200,"station_id":"ce4bhr92rcd13ifvqhsg","pricing_plan_id":"cebpf4jnsgd1na2vs0mg"},{"bike_id":"2ed63e76-757b-4411-ab69-bbe8009208a1","system_id":"levelo_inurba_marseille","lat":43.31997,"lon":5.3816,"is_reserved":false,"is_disabled":false,"rental_uris":{"android":"levelo://app?vid=2ed63e76-757b-4411-ab69-bbe8009208a1","ios":"levelo://app?vid=2ed63e76-757b-4411-ab69-bbe8009208a1"},"vehicle_type_id":"4","last_reported":1781458038,"current_range_meters":7200,"station_id":"ce4bhr12rcd13ifvqhpg","pricing_plan_id":"cebpf4jnsgd1na2vs0mg"},{"bike_id":"5993ac77-5293-4afd-b6a6-193531c565d8","system_id":"levelo_inurba_marseille","lat":43.30315,"lon":5.36903,"is_reserved":false,"is_disabled":false,"rental_uris":{"android":"levelo://app?vid=5993ac77-5293-4afd-b6a6-193531c565d8","ios":"levelo://app?vid=5993ac77-5293-4afd-b6a6-193531c565d8"},"vehicle_type_id":"4","last_reported":1781458038,"current_range_meters":7200,"station_id":"ce4bgqh2rcd13ifvqc5g","pricing_plan_id":"cebpf4jnsgd1na2vs0mg"},{"bike_id":"10c3d2ae-f5da-41e9-ad71-c65b3c5f004a","system_id":"levelo_inurba_marseille","lat":43.22514,"lon":5.34832,"is_reserved":false,"is_disabled":false,"rental_uris":{"android":"levelo://app?vid=10c3d2ae-f5da-41e9-ad71-c65b3c5f004a","ios":"levelo://app?vid=10c3d2ae-f5da-41e9-ad71-c65b3c5f004a"},"vehicle_type_id":"4","last_reported":1781458038,"current_range_meters":7200,"station_id":"st_cvj5dfep6f1abm77gieg","pricing_plan_id":"cebpf4jnsgd1na2vs0mg"},