{"last_updated":1752995421,"ttl":60,"version":"2.2","data":{"bikes":[{"bike_id":"53b742a7-31ae-4272-9bba-7740339e2a2f","system_id":"levelo_inurba_marseille","lat":43.33747,"lon":5.37463,"is_reserved":false,"is_disabled":false,"rental_uris":{"android":"levelo://app?vid=53b742a7-31ae-4272-9bba-7740339e2a2f","ios":"levelo://app?vid=53b742a7-31ae-4272-9bba-7740339e2a2f"},"vehicle_type_id":"1","last_reported":1752995421,"current_range_meters":12000,"station_id":"","pricing_plan_id":"cebpf4jnsgd1na2vs0mg"},{"bike_id":"c8f90c1b-210d-45ed-8566-aa52bfcecaa6","system_id":"levelo_inurba_marseille","lat":43.31722,"lon":5.37734,"is_reserved":false,"is_disabled":false,"rental_uris":{"android":"levelo://app?vid=c8f90c1b-210d-45ed-8566-aa52bfcecaa6","ios":"levelo://app?vid=c8f90c1b-210d-45ed-8566-aa52bfcecaa6"},"vehicle_type_id":"4","last_reported":1752995421,"current_range_meters":2800,"station_id":"ce4bgth2rcd13ifvqch0","pricing_plan_id":"cebpf4jnsgd1na2vs0mg"},{"bike_id":"4108938b-6cb1-49cf-9b34-f5aba76f8c8e","system_id":"levelo_inurba_marseille","lat":43.258694,"lon":5.398975,"is_reserved":false,"is_disabled":true,"rental_uris":{"android":"levelo://app?vid=4108938b-6cb1-49cf-9b34-f5aba76f8c8e","ios":"levelo://app?vid=4108938b-6cb1-49cf-9b34-f5aba76f8c8e"},"vehicle_type_id":"4","last_reported":1752995421,"current_range_meters":2800,"station_id":"ce4bhl92rcd13ifvqghg","pricing_plan_id":"cebpf4jnsgd1na2vs0mg"},{"bike_id":"c647f308-143e-4af8-b8c8-142b94ae3f8e","system_id":"levelo_inurba_marseille","lat":43.30886,"lon":5.3963,"is_reserved":false,"is_disabled":false,"rental_uris":{"android":"levelo://app?vid=c647f308-143e-4af8-b8c8-142b94ae3f8e","ios":"levelo://app?vid=c647f308-143e-4af8-b8c8-142b94ae3f8e"},"vehicle_type_id":"4","last_reported":1752995421,"current_range_meters":3200,"station_id":"ce4bh012rcd13ifvqcv0","pricing_plan_id":"cebpf4jnsgd1na2vs0mg"},{"bike_id":"44b73254-6d5b-42ec-9e3a-52236fbf71fc","system_id":"levelo_inurba_marseille","lat":43.333507,"lon":5.398375,"is_reserved":false,"is_disabled":false,"rental_uris":{"android":"levelo://app?vid=44b73254-6d5b-42ec-9e3a-52236fbf71fc","ios":"levelo://app?vid=44b73254-6d5b-42ec-9e3a-52236fbf71fc"},"vehicle_type_id":"4","last_reported":1752995421,"current_range_meters":3200,"station_id":"","pricing_plan_id":"cebpf4jnsgd1na2vs0mg"},{"bike_id":"da891840-0cec-4ccc-961c-48903736c6fa","system_id":"levelo_inurba_marseille","lat":43.31139,"lon":5.37692,"is_reserved":false,"is_disabled":false,"rental_uris":{"android":"levelo://app?vid=da891840-0cec-4ccc-961c-48903736c6fa","ios":"levelo://app?vid=da891840-0cec-4ccc-961c-48903736c6fa"},"vehicle_type_id":"4","last_reported":1752995421,"current_range_meters":3200,"station_id":"","pricing_plan_id":"cebpf4jnsgd1na2vs0mg"},{"bike_id":"cfb17d82-eb22-4eea-a7ca-3aec60bfa030","system_id":"levelo_inurba_marseille","lat":43.3137,"lon":5.38496,"is_reserved":false,"is_disabled":false,"rental_uris":{"android":"levelo://app?vid=cfb17d82-eb22-4eea-a7ca-3aec60bfa030","ios":"levelo://app?vid=cfb17d82-eb22-4eea-a7ca-3aec60bfa030"},"vehicle_type_id":"4","last_reported":1752995421,"current_range_meters":3200,"station_id":"ce4bgt92rcd13ifvqcf0","pricing_plan_id":"cebpf4jnsgd1na2vs0mg"},{"bike_id":"12957499-c3c8-4e9e-9181-2a2087409d90","system_id":"levelo_inurba_marseille","lat":43.284856,"lon":5.384281,"is_reserved":false,"is_disabled":false,"rental_uris":{"android":"levelo://app?vid=12957499-c3c8-4e9e-9181-2a2087409d90","ios":"levelo://app?vid=12957499-c3c8-4e9e-9181-2a2087409d90"},"vehicle_type_id":"4","last_reported":1752995421,"current_range_meters":3200,"station_id":"","pricing_plan_id":"cebpf4jnsgd1na2vs0mg"},{"bike_id":"ae0d8c9f-8119-4312-b429-39e92d4e6ae7","system_id":"levelo_inurba_marseille","lat":43.2315,"lon":5.43719,"is_reserved":false,"is_disabled":false,"rental_uris":{"android":"levelo://app?vid=ae0d8c9f-8119-4312-b429-39e92d4e6ae7","ios":"levelo://app?vid=ae0d8c9f-8119-4312-b429-39e92d4e6ae7"},"vehicle_type_id":"4","last_reported":1752995421,"current_range_meters":3200,"station_id":"ce4bhmp2rcd13ifvqgog","pricing_plan_id":"cebpf4jnsgd1na2vs0mg"},{"bike_id":"72acce2b-2249-45a2-be91-c8268f8a11e8","system_id":"levelo_inurba_marseille","lat":43.225068,"lon":5.347847,"is_reserved":false,"is_disabled":false,"rental_uris":{"android":"levelo://app?vid=72acce2b-2249-45a2-be91-c8268f8a11e8","ios":"levelo://app?vid=72acce2b-2249-45a2-be91-c8268f8a11e8"},"vehicle_type_id":"4","last_reported":1752995421,"current_range_meters":3600,"station_id":"st_cvj5dfep6f1abm77gieg","pricing_plan_id":"cebpf4jnsgd1na2vs0mg"},{"bike_id":"c090550e-4570-46fa-a4db-ccf7e16ae90b","system_id":"levelo_inurba_marseille","lat":43.26554,"lon":5.37279,"is_reserved":false,"is_disabled":true,"rental_uris":{"android":"levelo://app?vid=c090550e-4570-46fa-a4db-ccf7e16ae90b","ios":"levelo://app?vid=c090550e-4570-46fa-a4db-ccf7e16ae90b"},"vehicle_type_id":"4","last_reported":1752995421,"current_range_meters":3600,"station_id":"ce4bhg12rcd13ifvqf70","pricing_plan_id":"cebpf4jnsgd1na2vs0mg"},{"bike_id":"415ff839-3eb5-42b6-8141-99c745448c01","system_id":"levelo_inurba_marseille","lat":43.26573,"lon":5.386761,"is_reserved":false,"is_disabled":false,"rental_uris":{"android":"levelo://app?vid=415ff839-3eb5-42b6-8141-99c745448c01","ios":"levelo://app?vid=415ff839-3eb5-42b6-8141-99c745448c01"},"vehicle_type_id":"4","last_reported":1752995421,"current_range_meters":3600,"station_id":"","pricing_plan_id":"cebpf4jnsgd1na2vs0mg"},{"bike_id":"eb49a487-22e6-436d-8e19-4e4ec7c5b729","system_id":"levelo_inurba_marseille","lat":43.29558,"lon":5.42284,"is_reserved":false,"is_disabled":false,"rental_uris":{"android":"levelo://app?vid=eb49a487-22e6-436d-8e19-4e4ec7c5b729","ios":"levelo://app?vid=eb49a487-22e6-436d-8e19-4e4ec7c5b729"},"vehicle_type_id":"4","last_reported":1752995421,"current_range_meters":4000,"station_id":"ce4bhph2rcd13ifvqhdg","pricing_plan_id":"cebpf4jnsgd1na2vs0mg"},{"bike_id":"bebe1450-b301-4f53-95e4-f8eb9f50ffdf","system_id":"levelo_inurba_marseille","lat":43.33547,"lon":5.41013,"is_reserved":false,"is_disabled":false,"rental_uris":{"android":"levelo://app?vid=bebe1450-b301-4f53-95e4-f8eb9f50ffdf","ios":"levelo://app?vid=bebe1450-b301-4f53-95e4-f8eb9f50ffdf"},"vehicle_type_id":"4","last_reported":1752995421,"current_range_meters":4000,"station_id":"","pricing_plan_id":"cebpf4jnsgd1na2vs0mg"},{"bike_id":"6883df58-6737-4f53-a438-d17fca741ba6","system_id":"levelo_inurba_marseille","lat":43.3303,"lon":5.39364,"is_reserved":false,"is_disabled":false,"rental_uris":{"android":"levelo://app?vid=6883df58-6737-4f53-a438-d17fca741ba6","ios":"levelo://app?vid=6883df58-6737-4f53-a438-d17fca741ba6"},"vehicle_type_id":"4","last_reported":1752995421,"current_range_meters":4000,"station_id":"","pricing_plan_id":"cebpf4jnsgd1na2vs0mg"},{"bike_id":"07aeb5da-15b1-4b73-9d17-70e8acd75061","system_id":"levelo_inurba_marseille","lat":43.21193,"lon":5.35073,"is_reserved":false,"is_disabled":false,"rental_uris":{"android":"levelo://app?vid=07aeb5da-15b1-4b73-9d17-70e8acd75061","ios":"levelo://app?vid=07aeb5da-15b1-4b73-9d17-70e8acd75061"},"vehicle_type_id":"4","last_reported":1752995421,"current_range_meters":4400,"station_id":"st_cvj6sg6p6f1abm77japg","pricing_plan_id":"cebpf4jnsgd1na2vs0mg"},{"bike_id":"ce7bd25b-5213-4881-a28b-f582e6a1d712","system_id":"levelo_inurba_marseille","lat":43.31376,"lon":5.3669,"is_reserved":false,"is_disabled":true,"rental_uris":{"android":"levelo://app?vid=ce7bd25b-5213-4881-a28b-f582e6a1d712","ios":"levelo://app?vid=ce7bd25b-5213-4881-a28b-f582e6a1d712"},"vehicle_type_id":"4","last_reported":1752995421,"current_range_meters":4400,"station_id":"ce4bgr92rcd13ifvqc6g","pricing_plan_id":"cebpf4jnsgd1na2vs0mg"},{"bike_id":"8a8de0eb-d172-4378-9552-544c6cc04c48","system_id":"levelo_inurba_marseille","lat":43.24521,"lon":5.36923,"is_reserved":false,"is_disabled":false,"rental_uris":{"android":"levelo://app?vid=8a8de0eb-d172-4378-9552-544c6cc04c48","ios":"levelo://app?vid=8a8de0eb-d172-4378-9552-544c6cc04c48"},"vehicle_type_id":"4","last_reported":1752995421,"current_range_meters":4400,"station_id":"","pricing_plan_id":"cebpf4jnsgd1na2vs0mg"},{"bike_id":"80c0a52e-cc0f-402a-b6fb-fbcf98e37854","system_id":"levelo_inurba_marseille","lat":43.28652,"lon":5.39384,"is_reserved":false,"is_disabled":false,"rental_uris":{"android":"levelo://app?vid=80c0a52e-cc0f-402a-b6fb-fbcf98e37854","ios":"levelo://app?vid=80c0a52e-cc0f-402a-b6fb-fbcf98e37854"},"vehicle_type_id":"4","last_reported":1752995421,"current_range_meters":4800,"station_id":"","pricing_plan_id":"cebpf4jnsgd1na2vs0mg"},{"bike_id":"eed2e13c-6519-4a15-931c-c57aa52fb312","system_id":"levelo_inurba_marseille","lat":43.317078,"lon":5.437066,"is_reserved":false,"is_disabled":false,"rental_uris":{"android":"levelo://app?vid=eed2e13c-6519-4a15-931c-c57aa52fb312","ios":"levelo://app?vid=eed2e13c-6519-4a15-931c-c57aa52fb312"},"vehicle_type_id":"4","last_reported":1752995421,"current_range_meters":5600,"station_id":"ce4bhp92rcd13ifvqhcg","pricing_plan_id":"cebpf4jnsgd1na2vs0mg"},{"bike_id":"e6eeff1d-58fb-4f58-9aa4-8b7b35eb4176","system_id":"levelo_inurba_marseille","lat":43.2962,"lon":5.37163,"is_reserved":false,"is_disabled":false,"rental_uris":{"android":"levelo://app?vid=e6eeff1d-58fb-4f58-9aa4-8b7b35eb4176","ios":"levelo://app?vid=e6eeff1d-58fb-4f58-9aa4-8b7b35eb4176"},"vehicle_type_id":"4","last_reported":1752995421,"current_range_meters":5600,"station_id":"ce4bgnh2rcd13ifvqc0g","pricing_plan_id":"cebpf4jnsgd1na2vs0mg"},{"bike_id":"466a2369-0ac2-4d3f-9790-946ec60117c5","system_id":"levelo_inurba_marseille","lat":43.29178,"lon":5.36054,"is_reserved":false,"is_disabled":false,"rental_uris":{"android":"levelo://app?vid=466a2369-0ac2-4d3f-9790-946ec60117c5","ios":"levelo://app?vid=466a2369-0ac2-4d3f-9790-946ec60117c5"},"vehicle_type_id":"4","last_reported":1752995421,"current_range_meters":5600,"station_id":"ce4bhbh2rcd13ifvqeqg","pricing_plan_id":"cebpf4jnsgd1na2vs0mg"},{"bike_id":"c6db0f6a-96fe-4e1d-8ded-c2ef38c9bab4","system_id":"levelo_inurba_marseille","lat":43.305688,"lon":5.418387,"is_reserved":false,"is_disabled":true,"rental_uris":{"android":"levelo://app?vid=c6db0f6a-96fe-4e1d-8ded-c2ef38c9bab4","ios":"levelo://app?vid=c6db0f6a-96fe-4e1d-8ded-c2ef38c9bab4"},"vehicle_type_id":"4","last_reported":1752995421,"current_range_meters":6000,"station_id":"ce4bht12rcd13ifvqi60","pricing_plan_id":"cebpf4jnsgd1na2vs0mg"},{"bike_id":"2e532954-91d6-45d0-820d-bd93ef877e83","system_id":"levelo_inurba_marseille","lat":43.303243,"lon":5.394574,"is_reserved":false,"is_disabled":true,"rental_uris":{"android":"levelo://app?vid=2e532954-91d6-45d0-820d-bd93ef877e83","ios":"levelo://app?vid=2e532954-91d6-45d0-820d-bd93ef877e83"},"vehicle_type_id":"4","last_reported":1752995421,"current_range_meters":6000,"station_id":"","pricing_plan_id":"cebpf4jnsgd1na2vs0mg"},{"bike_id":"4ad855fd-7df5-4518-a2b0-2297b73fb3a8","system_id":"levelo_inurba_marseille","lat":43.29004,"lon":5.35616,"is_reserved":false,"is_disabled":false,"rental_uris":{"android":"levelo://app?vid=4ad855fd-7df5-4518-a2b0-2297b73fb3a8","ios":"levelo://app?vid=4ad855fd-7df5-4518-a2b0-2297b73fb3a8"},"vehicle_type_id":"4","last_reported":1752995421,"current_range_meters":6000,"station_id":"ce4bhb92rcd13ifvqen0","pricing_plan_id":"cebpf4jnsgd1na2vs0mg"},{"bike_id":"3c5b3813-8d32-45fe-a2e4-8ed50f680d4e","system_id":"levelo_inurba_marseille","lat":43.241653,"lon":5.363911,"is_reserved":false,"is_disabled":false,"rental_uris":{"android":"levelo://app?vid=3c5b3813-8d32-45fe-a2e4-8ed50f680d4e","ios":"levelo://app?vid=3c5b3813-8d32-45fe-a2e4-8ed50f680d4e"},"vehicle_type_id":"4","last_reported":1752995421,"current_range_meters":6000,"station_id":"cpo36qri1sfpv3e86is0","pricing_plan_id":"cebpf4jnsgd1na2vs0mg"},{"bike_id":"0bb76ac3-697f-46bd-8e2a-8bbf8b0fb153","system_id":"levelo_inurba_marseille","lat":43.29558,"lon":5.37481,"is_reserved":false,"is_disabled":false,"rental_uris":{"android":"levelo://app?vid=0bb76ac3-697f-46bd-8e2a-8bbf8b0fb153","ios":"levelo://app?vid=0bb76ac3-697f-46bd-8e2a-8bbf8b0fb153"},"vehicle_type_id":"4","last_reported":1752995421,"current_range_meters":6000,"station_id":"ce4bgh92rcd13ifvqb50","pricing_plan_id":"cebpf4jnsgd1na2vs0mg"},{"bike_id":"68de1490-3703-428a-87ac-e125e462fb93","system_id":"levelo_inurba_marseille","lat":43.29039,"lon":5.359129,"is_reserved":false,"is_disabled":false,"rental_uris":{"android":"levelo://app?vid=68de1490-3703-428a-87ac-e125e462fb93","ios":"levelo://app?vid=68de1490-3703-428a-87ac-e125e462fb93"},"vehicle_type_id":"4","last_reported":1752995421,"current_range_meters":6400,"station_id":"ce4bha92rcd13ifvqeg0","pricing_plan_id":"cebpf4jnsgd1na2vs0mg"},{"bike_id":"5159c10e-b0f1-4709-99d7-d4c5c2e6cd75","system_id":"levelo_inurba_marseille","lat":43.26029,"lon":5.37547,"is_reserved":false,"is_disabled":false,"rental_uris":{"android":"levelo://app?vid=5159c10e-b0f1-4709-99d7-d4c5c2e6cd75","ios":"levelo://app?vid=5159c10e-b0f1-4709-99d7-d4c5c2e6cd75"},"vehicle_type_id":"4","last_reported":1752995421,"current_range_meters":6400,"station_id":"ce4bhgh2rcd13ifvqfa0","pricing_plan_id":"cebpf4jnsgd1na2vs0mg"},{"bike_id":"fd4e9036-29a1-40b7-ab16-1ca097deb316","system_id":"levelo_inurba_marseille","lat":43.28569,"lon":5.39488,"is_reserved":false,"is_disabled":false,"rental_uris":{"android":"levelo://app?vid=fd4e9036-29a1-40b7-ab16-1ca097deb316","ios":"levelo://app?vid=fd4e9036-29a1-40b7-ab16-1ca097deb316"},"vehicle_type_id":"4","last_reported":1752995421,"current_range_meters":7200,"station_id":"ce4bh292rcd13ifvqdg0","pricing_plan_id":"cebpf4jnsgd1na2vs0mg"},{"bike_id":"6919ffef-c495-4917-a554-896a3b3c492c","system_id":"levelo_inurba_marseille","lat":43.32317,"lon":5.36746,"is_reserved":false,"is_disabled":false,"rental_uris":{"android":"levelo://app?vid=6919ffef-c495-4917-a554-896a3b3c492c","ios":"levelo://app?vid=6919ffef-c495-4917-a554-896a3b3c492c"},"vehicle_type_id":"4","last_reported":1752995421,"current_range_meters":7200,"station_id":"ce4bhsh2rcd13ifvqi2g","pricing_plan_id":"cebpf4jnsgd1na2vs0mg"},{"bike_id":"3bfba32c-44c4-415d-b9aa-16934ae71381","system_id":"levelo_inurba_marseille","lat":43.30277,"lon":5.37712,"is_reserved":false,"is_disabled":false,"rental_uris":{"android":"levelo://app?vid=3bfba32c-44c4-415d-b9aa-16934ae71381","ios":"levelo://app?vid=3bfba32c-44c4-415d-b9aa-16934ae71381"},"vehicle_type_id":"4","last_reported":1752995421,"current_range_meters":6800,"station_id":"ce4bguh2rcd13ifvqcj0","pricing_plan_id":"cebpf4jnsgd1na2vs0mg"},{"bike_id":"aee76189-ab2c-4cbb-a955-c4d9c0b5b8fb","system_id":"levelo_inurba_marseille","lat":43.327328,"lon":5.409174,"is_reserved":false,"is_disabled":false,"rental_uris":{"android":"levelo://app?vid=aee76189-ab2c-4cbb-a955-c4d9c0b5b8fb","ios":"levelo://app?vid=aee76189-ab2c-4cbb-a955-c4d9c0b5b8fb"},"vehicle_type_id":"4","last_reported":1752995421,"current_range_meters":8000,"station_id":"","pricing_plan_id":"cebpf4jnsgd1na2vs0mg"},{"bike_id":"19c42209-a8b2-41c4-b3ff-b1f88a767776","system_id":"levelo_inurba_marseille","lat":43.30405,"lon":5.42998,"is_reserved":false,"is_disabled":false,"rental_uris":{"android":"levelo://app?vid=19c42209-a8b2-41c4-b3ff-b1f88a767776","ios":"levelo://app?vid=19c42209-a8b2-41c4-b3ff-b1f88a767776"},"vehicle_type_id":"4","last_reported":1752995421,"current_range_meters":8000,"station_id":"","pricing_plan_id":"cebpf4jnsgd1na2vs0mg"},{"bike_id":"ec32d022-e872-49b5-bd4f-54d6f32b82ae","system_id":"levelo_inurba_marseille","lat":43.311174,"lon":5.377747,"is_reserved":false,"is_disabled":false,"rental_uris":{"android":"levelo://app?vid=ec32d022-e872-49b5-bd4f-54d6f32b82ae","ios":"levelo://app?vid=ec32d022-e872-49b5-bd4f-54d6f32b82ae"},"vehicle_type_id":"4","last_reported":1752995421,"current_range_meters":8000,"station_id":"","pricing_plan_id":"cebpf4jnsgd1na2vs0mg"},{"bike_id":"6f18ab1b-0c74-47b1-bed8-837677176207","system_id":"levelo_inurba_marseille","lat":43.32063,"lon":5.40899,"is_reserved":false,"is_disabled":false,"rental_uris":{"android":"levelo://app?vid=6f18ab1b-0c74-47b1-bed8-837677176207","ios":"levelo://app?vid=6f18ab1b-0c74-47b1-bed8-837677176207"},"vehicle_type_id":"4","last_reported":1752995421,"current_range_meters":8000,"station_id":"","pricing_plan_id":"cebpf4jnsgd1na2vs0mg"},{"bike_id":"2d5426b7-c5ef-4761-9a4a-28e19dac621a","system_id":"levelo_inurba_marseille","lat":43.30416,"lon":5.41271,"is_reserved":false,"is_disabled":true,"rental_uris":{"android":"levelo://app?vid=2d5426b7-c5ef-4761-9a4a-28e19dac621a","ios":"levelo://app?vid=2d5426b7-c5ef-4761-9a4a-28e19dac621a"},"vehicle_type_id":"4","last_reported":1752995421,"current_range_meters":8400,"station_id":"ce4bhop2rcd13ifvqh8g","pricing_plan_id":"cebpf4jnsgd1na2vs0mg"},{"bike_id":"f7275b41-488d-46bf-b07c-fe7da4c8764a","system_id":"levelo_inurba_marseille","lat":43.24382,"lon":5.37061,"is_reserved":false,"is_disabled":false,"rental_uris":{"android":"levelo://app?vid=f7275b41-488d-46bf-b07c-fe7da4c8764a","ios":"levelo://app?vid=f7275b41-488d-46bf-b07c-fe7da4c8764a"},"vehicle_type_id":"4","last_reported":1752995421,"current_range_meters":8000,"station_id":"ce4bhhh2rcd13ifvqfk0","pricing_plan_id":"cebpf4jnsgd1na2vs0mg"},{"bike_id":"6acf6616-5bc2-413d-b8a9-de0cef45b2d4","system_id":"levelo_inurba_marseille","lat":43.24812,"lon":5.37463,"is_reserved":false,"is_disabled":true,"rental_uris":{"android":"levelo://app?vid=6acf6616-5bc2-413d-b8a9-de0cef45b2d4","ios":"levelo://app?vid=6acf6616-5bc2-413d-b8a9-de0cef45b2d4"},"vehicle_type_id":"4","last_reported":1752995421,"current_range_meters":8400,"station_id":"ce4bhgh2rcd13ifvqfb0","pricing_plan_id":"cebpf4jnsgd1na2vs0mg"},{"bike_id":"475b9799-8c28-49d7-a2bd-b989a871d401","system_id":"levelo_inurba_marseille","lat":43.240742,"lon":5.377536,"is_reserved":false,"is_disabled":true,"rental_uris":{"android":"levelo://app?vid=475b9799-8c28-49d7-a2bd-b989a871d401","ios":"levelo://app?vid=475b9799-8c28-49d7-a2bd-b989a871d401"},"vehicle_type_id":"4","last_reported":1752995421,"current_range_meters":8800,"station_id":"ce4bhnp2rcd13ifvqgvg","pricing_plan_id":"cebpf4jnsgd1na2vs0mg"},{"bike_id":"8d590dba-9871-4ea4-bf5c-7a0545a88075","system_id":"levelo_inurba_marseille","lat":43.25937,"lon":5.4089,"is_reserved":false,"is_disabled":false,"rental_uris":{"android":"levelo://app?vid=8d590dba-9871-4ea4-bf5c-7a0545a88075","ios":"levelo://app?vid=8d590dba-9871-4ea4-bf5c-7a0545a88075"},"vehicle_type_id":"4","last_reported":1752995421,"current_range_meters":8800,"station_id":"ce4bhm92rcd13ifvqglg","pricing_plan_id":"cebpf4jnsgd1na2vs0mg"},{"bike_id":"169248a3-cde9-4071-9264-00cf9e30c46e","system_id":"levelo_inurba_marseille","lat":43.3295,"lon":5.37958,"is_reserved":false,"is_disabled":false,"rental_uris":{"android":"levelo://app?vid=169248a3-cde9-4071-9264-00cf9e30c46e","ios":"levelo://app?vid=169248a3-cde9-4071-9264-00cf9e30c46e"},"vehicle_type_id":"4","last_reported":1752995421,"current_range_meters":8800,"station_id":"","pricing_plan_id":"cebpf4jnsgd1na2vs0mg"},{"bike_id":"cb674e77-4805-4b72-990e-ba9de65364c7","system_id":"levelo_inurba_marseille","lat":43.23192,"lon":5.35549,"is_reserved":false,"is_disabled":false,"rental_uris":{"android":"levelo://app?vid=cb674e77-4805-4b72-990e-ba9de65364c7","ios":"levelo://app?vid=cb674e77-4805-4b72-990e-ba9de65364c7"},"vehicle_type_id":"4","last_reported":1752995421,"current_range_meters":8800,"station_id":"ce4bhu92rcd13ifvqi70","pricing_plan_id":"cebpf4jnsgd1na2vs0mg"},{"bike_id":"bb0a3f3f-d2ef-48d0-918a-e8c09e22fadb","system_id":"levelo_inurba_marseille","lat":43.24066,"lon":5.37745,"is_reserved":false,"is_disabled":false,"rental_uris":{"android":"levelo://app?vid=bb0a3f3f-d2ef-48d0-918a-e8c09e22fadb","ios":"levelo://app?vid=bb0a3f3f-d2ef-48d0-918a-e8c09e22fadb"},"vehicle_type_id":"4","last_reported":1752995421,"current_range_meters":8800,"station_id":"ce4bhnp2rcd13ifvqgvg","pricing_plan_id":"cebpf4jnsgd1na2vs0mg"},{"bike_id":"bb5fbe16-dabe-4ab0-a585-5067c1687587","system_id":"levelo_inurba_marseille","lat":43.31698,"lon":5.40476,"is_reserved":false,"is_disabled":false,"rental_uris":{"android":"levelo://app?vid=bb5fbe16-dabe-4ab0-a585-5067c1687587","ios":"levelo://app?vid=bb5fbe16-dabe-4ab0-a585-5067c1687587"},"vehicle_type_id":"4","last_reported":1752995421,"current_range_meters":8800,"station_id":"ce4bh012rcd13ifvqd00","pricing_plan_id":"cebpf4jnsgd1na2vs0mg"},{"bike_id":"4b0ce299-727c-48ce-b95a-b67cdf638733","system_id":"levelo_inurba_marseille","lat":43.21194,"lon":5.35074,"is_reserved":false,"is_disabled":false,"rental_uris":{"android":"levelo://app?vid=4b0ce299-727c-48ce-b95a-b67cdf638733","ios":"levelo://app?vid=4b0ce299-727c-48ce-b95a-b67cdf638733"},"vehicle_type_id":"4","last_reported":1752995421,"current_range_meters":9200,"station_id":"st_cvj6sg6p6f1abm77japg","pricing_plan_id":"cebpf4jnsgd1na2vs0mg"},{"bike_id":"9bcc75c8-ba52-4ca3-89cc-71e6c24420e4","system_id":"levelo_inurba_marseille","lat":43.32108,"lon":5.36776,"is_reserved":false,"is_disabled":false,"rental_uris":{"android":"levelo://app?vid=9bcc75c8-ba52-4ca3-89cc-71e6c24420e4","ios":"levelo://app?vid=9bcc75c8-ba52-4ca3-89cc-71e6c24420e4"},"vehicle_type_id":"4","last_reported":1752995421,"current_range_meters":9200,"station_id":"ce4bhrh2rcd13ifvqhug","pricing_plan_id":"cebpf4jnsgd1na2vs0mg"},{"bike_id":"13158acd-6b2c-4b1d-ba27-59ad10b9c96d","system_id":"levelo_inurba_marseille","lat":43.28849,"lon":5.35843,"is_reserved":false,"is_disabled":false,"rental_uris":{"android":"levelo://app?vid=13158acd-6b2c-4b1d-ba27-59ad10b9c96d","ios":"levelo://app?vid=13158acd-6b2c-4b1d-ba27-59ad10b9c96d"},"vehicle_type_id":"4","last_reported":1752995421,"current_range_meters":9200,"station_id":"ce4bhb12rcd13ifvqem0","pricing_plan_id":"cebpf4jnsgd1na2vs0mg"},{"bike_id":"21d64047-729c-4bda-a9e1-48c680fa91bf","system_id":"levelo_inurba_marseille","lat":43.30641,"lon":5.40079,"is_reserved":false,"is_disabled":false,"rental_uris":{"android":"levelo://app?vid=21d64047-729c-4bda-a9e1-48c680fa91bf","ios":"levelo://app?vid=21d64047-729c-4bda-a9e1-48c680fa91bf"},"vehicle_type_id":"4","last_reported":1752995421,"current_range_meters":9200,"station_id":"ce4bh112rcd13ifvqda0","pricing_plan_id":"cebpf4jnsgd1na2vs0mg"},{"bike_id":"fbce2760-a77c-4995-adb9-1861ef5163ad","system_id":"levelo_inurba_marseille","lat":43.28419,"lon":5.37516,"is_reserved":false,"is_disabled":false,"rental_uris":{"android":"levelo://app?vid=fbce2760-a77c-4995-adb9-1861ef5163ad","ios":"levelo://app?vid=fbce2760-a77c-4995-adb9-1861ef5163ad"},"vehicle_type_id":"4","last_reported":1752995421,"current_range_meters":9600,"station_id":"ce4bh412rcd13ifvqds0","pricing_plan_id":"cebpf4jnsgd1na2vs0mg"},{"bike_id":"5161857b-e554-4474-9145-d600866d6e61","system_id":"levelo_inurba_marseille","lat":43.26028,"lon":5.37545,"is_reserved":false,"is_disabled":false,"rental_uris":{"android":"levelo://app?vid=5161857b-e554-4474-9145-d600866d6e61","ios":"levelo://app?vid=5161857b-e554-4474-9145-d600866d6e61"},"vehicle_type_id":"4","last_reported":1752995421,"current_range_meters":9600,"station_id":"ce4bhgh2rcd13ifvqfa0","pricing_plan_id":"cebpf4jnsgd1na2vs0mg"},{"bike_id":"98dffb83-3442-4354-acac-cfad41b661bd","system_id":"levelo_inurba_marseille","lat":43.31712,"lon":5.43704,"is_reserved":false,"is_disabled":false,"rental_uris":{"android":"levelo://app?vid=98dffb83-3442-4354-acac-cfad41b661bd","ios":"levelo://app?vid=98dffb83-3442-4354-acac-cfad41b661bd"},"vehicle_type_id":"4","last_reported":1752995421,"current_range_meters":10000,"station_id":"ce4bhp92rcd13ifvqhcg","pricing_plan_id":"cebpf4jnsgd1na2vs0mg"},{"bike_id":"d1e9c72e-7489-4052-b944-813b64bc55b4","system_id":"levelo_inurba_marseille","lat":43.31588,"lon":5.38926,"is_reserved":false,"is_disabled":false,"rental_uris":{"android":"levelo://app?vid=d1e9c72e-7489-4052-b944-813b64bc55b4","ios":"levelo://app?vid=d1e9c72e-7489-4052-b944-813b64bc55b4"},"vehicle_type_id":"4","last_reported":1752995421,"current_range_meters":10000,"station_id":"","pricing_plan_id":"cebpf4jnsgd1na2vs0mg"},{"bike_id":"6d8fc4b5-e278-4fa2-a3b5-d12b0228cfd4","system_id":"levelo_inurba_marseille","lat":43.30904,"lon":5.3718,"is_reserved":false,"is_disabled":false,"rental_uris":{"android":"levelo://app?vid=6d8fc4b5-e278-4fa2-a3b5-d12b0228cfd4","ios":"levelo://app?vid=6d8fc4b5-e278-4fa2-a3b5-d12b0228cfd4"},"vehicle_type_id":"4","last_reported":1752995421,"current_range_meters":10000,"station_id":"ce4bguh2rcd13ifvqckg","pricing_plan_id":"cebpf4jnsgd1na2vs0mg"},{"bike_id":"a3842c8f-5445-4ab6-9201-34e92e07a8bd","system_id":"levelo_inurba_marseille","lat":43.29303,"lon":5.3746,"is_reserved":false,"is_disabled":false,"rental_uris":{"android":"levelo://app?vid=a3842c8f-5445-4ab6-9201-34e92e07a8bd","ios":"levelo://app?vid=a3842c8f-5445-4ab6-9201-34e92e07a8bd"},"vehicle_type_id":"4","last_reported":1752995421,"current_range_meters":10000,"station_id":"ce4bgi12rcd13ifvqb70","pricing_plan_id":"cebpf4jnsgd1na2vs0mg"},{"bike_id":"94c07cb2-0943-4d24-99f2-97bdab47aa3f","system_id":"levelo_inurba_marseille","lat":43.337444,"lon":5.374475,"is_reserved":false,"is_disabled":false,"rental_uris":{"android":"levelo://app?vid=94c07cb2-0943-4d24-99f2-97bdab47aa3f","ios":"levelo://app?vid=94c07cb2-0943-4d24-99f2-97bdab47aa3f"},"vehicle_type_id":"4","last_reported":1752995421,"current_range_meters":10000,"station_id":"","pricing_plan_id":"cebpf4jnsgd1na2vs0mg"},{"bike_id":"b3aa6fee-fd07-4287-aa5d-3463282d81a3","system_id":"levelo_inurba_marseille","lat":43.3031,"lon":5.39217,"is_reserved":false,"is_disabled":false,"rental_uris":{"android":"levelo://app?vid=b3aa6fee-fd07-4287-aa5d-3463282d81a3","ios":"levelo://app?vid=b3aa6fee-fd07-4287-aa5d-3463282d81a3"},"vehicle_type_id":"4","last_reported":1752995421,"current_range_meters":10000,"station_id":"ce4bgkh2rcd13ifvqbk0","pricing_plan_id":"cebpf4jnsgd1na2vs0mg"},{"bike_id":"cd128983-a454-4c13-94ae-fcd144bb2a06","system_id":"levelo_inurba_marseille","lat":43.32348,"lon":5.36739,"is_reserved":false,"is_disabled":false,"rental_uris":{"android":"levelo://app?vid=cd128983-a454-4c13-94ae-fcd144bb2a06","ios":"levelo://app?vid=cd128983-a454-4c13-94ae-fcd144bb2a06"},"vehicle_type_id":"4","last_reported":1752995421,"current_range_meters":10800,"station_id":"ce4bhsh2rcd13ifvqi2g","pricing_plan_id":"cebpf4jnsgd1na2vs0mg"},{"bike_id":"8dfcb722-ab6c-4880-803a-abe06bb28356","system_id":"levelo_inurba_marseille","lat":43.30239,"lon":5.40089,"is_reserved":false,"is_disabled":false,"rental_uris":{"android":"levelo://app?vid=8dfcb722-ab6c-4880-803a-abe06bb28356","ios":"levelo://app?vid=8dfcb722-ab6c-4880-803a-abe06bb28356"},"vehicle_type_id":"4","last_reported":1752995421,"current_range_meters":10800,"station_id":"ce4bgvh2rcd13ifvqcs0","pricing_plan_id":"cebpf4jnsgd1na2vs0mg"},{"bike_id":"7aa7d212-bfaa-41e7-a0f3-41240270c15f","system_id":"levelo_inurba_marseille","lat":43.29568,"lon":5.42274,"is_reserved":false,"is_disabled":false,"rental_uris":{"android":"levelo://app?vid=7aa7d212-bfaa-41e7-a0f3-41240270c15f","ios":"levelo://app?vid=7aa7d212-bfaa-41e7-a0f3-41240270c15f"},"vehicle_type_id":"4","last_reported":1752995421,"current_range_meters":10800,"station_id":"ce4bhph2rcd13ifvqhdg","pricing_plan_id":"cebpf4jnsgd1na2vs0mg"},{"bike_id":"9f96b854-e027-4c40-b573-f426a572ccbf","system_id":"levelo_inurba_marseille","lat":43.32995,"lon":5.39811,"is_reserved":false,"is_disabled":false,"rental_uris":{"android":"levelo://app?vid=9f96b854-e027-4c40-b573-f426a572ccbf","ios":"levelo://app?vid=9f96b854-e027-4c40-b573-f426a572ccbf"},"vehicle_type_id":"4","last_reported":1752995421,"current_range_meters":10800,"station_id":"","pricing_plan_id":"cebpf4jnsgd1na2vs0mg"},{"bike_id":"b9fced18-9d1a-4197-85f4-d3fcdf201017","system_id":"levelo_inurba_marseille","lat":43.29868,"lon":5.39734,"is_reserved":false,"is_disabled":false,"rental_uris":{"android":"levelo://app?vid=b9fced18-9d1a-4197-85f4-d3fcdf201017","ios":"levelo://app?vid=b9fced18-9d1a-4197-85f4-d3fcdf201017"},"vehicle_type_id":"4","last_reported":1752995421,"current_range_meters":10800,"station_id":"","pricing_plan_id":"cebpf4jnsgd1na2vs0mg"},{"bike_id":"4f2b6192-210f-4283-b30b-e3c56cdf020f","system_id":"levelo_inurba_marseille","lat":43.31066,"lon":5.38352,"is_reserved":false,"is_disabled":false,"rental_uris":{"android":"levelo://app?vid=4f2b6192-210f-4283-b30b-e3c56cdf020f","ios":"levelo://app?vid=4f2b6192-210f-4283-b30b-e3c56cdf020f"},"vehicle_type_id":"4","last_reported":1752995421,"current_range_meters":10800,"station_id":"ce4bgv92rcd13ifvqcr0","pricing_plan_id":"cebpf4jnsgd1na2vs0mg"},{"bike_id":"41ac48b8-c313-48b7-84ce-53dc11979034","system_id":"levelo_inurba_marseille","lat":43.29528,"lon":5.37506,"is_reserved":false,"is_disabled":false,"rental_uris":{"android":"levelo://app?vid=41ac48b8-c313-48b7-84ce-53dc11979034","ios":"levelo://app?vid=41ac48b8-c313-48b7-84ce-53dc11979034"},"vehicle_type_id":"4","last_reported":1752995421,"current_range_meters":10800,"station_id":"ce4bgkp2rcd13ifvqbmg","pricing_plan_id":"cebpf4jnsgd1na2vs0mg"},{"bike_id":"dbe3f53f-5cf1-428e-b135-1e976ecdd9e1","system_id":"levelo_inurba_marseille","lat":43.229295,"lon":5.353761,"is_reserved":false,"is_disabled":true,"rental_uris":{"android":"levelo://app?vid=dbe3f53f-5cf1-428e-b135-1e976ecdd9e1","ios":"levelo://app?vid=dbe3f53f-5cf1-428e-b135-1e976ecdd9e1"},"vehicle_type_id":"4","last_reported":1752995421,"current_range_meters":10800,"station_id":"","pricing_plan_id":"cebpf4jnsgd1na2vs0mg"},{"bike_id":"c9ffd04b-c3a5-49bc-9896-054acbb108c7","system_id":"levelo_inurba_marseille","lat":43.22499,"lon":5.34768,"is_reserved":false,"is_disabled":false,"rental_uris":{"android":"levelo://app?vid=c9ffd04b-c3a5-49bc-9896-054acbb108c7","ios":"levelo://app?vid=c9ffd04b-c3a5-49bc-9896-054acbb108c7"},"vehicle_type_id":"4","last_reported":1752995421,"current_range_meters":10800,"station_id":"st_cvj5dfep6f1abm77gieg","pricing_plan_id":"cebpf4jnsgd1na2vs0mg"},{"bike_id":"aff5b30e-99dc-4ae1-bd58-54a311d8a1f5","system_id":"levelo_inurba_marseille","lat":43.29994,"lon":5.37177,"is_reserved":false,"is_disabled":true,"rental_uris":{"android":"levelo://app?vid=aff5b30e-99dc-4ae1-bd58-54a311d8a1f5","ios":"levelo://app?vid=aff5b30e-99dc-4ae1-bd58-54a311d8a1f5"},"vehicle_type_id":"4","last_reported":1752995421,"current_range_meters":11200,"station_id":"ce4bgr92rcd13ifvqc7g","pricing_plan_id":"cebpf4jnsgd1na2vs0mg"},{"bike_id":"79f9c85e-941f-48a2-86a9-be04690aac8d","system_id":"levelo_inurba_marseille","lat":43.30639,"lon":5.40074,"is_reserved":false,"is_disabled":false,"rental_uris":{"android":"levelo://app?vid=79f9c85e-941f-48a2-86a9-be04690aac8d","ios":"levelo://app?vid=79f9c85e-941f-48a2-86a9-be04690aac8d"},"vehicle_type_id":"4","last_reported":1752995421,"current_range_meters":11200,"station_id":"ce4bh112rcd13ifvqda0","pricing_plan_id":"cebpf4jnsgd1na2vs0mg"},{"bike_id":"e1a27484-d933-49a5-adb5-ce1233dc02e0","system_id":"levelo_inurba_marseille","lat":43.24181,"lon":5.39722,"is_reserved":false,"is_disabled":false,"rental_uris":{"android":"levelo://app?vid=e1a27484-d933-49a5-adb5-ce1233dc02e0","ios":"levelo://app?vid=e1a27484-d933-49a5-adb5-ce1233dc02e0"},"vehicle_type_id":"4","last_reported":1752995421,"current_range_meters":11200,"station_id":"ce4bhn12rcd13ifvqgpg","pricing_plan_id":"cebpf4jnsgd1na2vs0mg"},{"bike_id":"9ca3e00b-43dc-46fd-9037-6c83260b90ba","system_id":"levelo_inurba_marseille","lat":43.31124,"lon":5.37744,"is_reserved":false,"is_disabled":false,"rental_uris":{"android":"levelo://app?vid=9ca3e00b-43dc-46fd-9037-6c83260b90ba","ios":"levelo://app?vid=9ca3e00b-43dc-46fd-9037-6c83260b90ba"},"vehicle_type_id":"4","last_reported":1752995421,"current_range_meters":11200,"station_id":"ce4bgt92rcd13ifvqcg0","pricing_plan_id":"cebpf4jnsgd1na2vs0mg"},{"bike_id":"0fd02cf6-67fb-4589-807f-241dd50b7e1a","system_id":"levelo_inurba_marseille","lat":43.299036,"lon":5.436593,"is_reserved":false,"is_disabled":true,"rental_uris":{"android":"levelo://app?vid=0fd02cf6-67fb-4589-807f-241dd50b7e1a","ios":"levelo://app?vid=0fd02cf6-67fb-4589-807f-241dd50b7e1a"},"vehicle_type_id":"4","last_reported":1752995421,"current_range_meters":11200,"station_id":"ce4bhpp2rcd13ifvqhfg","pricing_plan_id":"cebpf4jnsgd1na2vs0mg"},{"bike_id":"48a3aabe-42c8-4428-a5da-c66709a678c0","system_id":"levelo_inurba_marseille","lat":43.25127,"lon":5.40342,"is_reserved":false,"is_disabled":false,"rental_uris":{"android":"levelo://app?vid=48a3aabe-42c8-4428-a5da-c66709a678c0","ios":"levelo://app?vid=48a3aabe-42c8-4428-a5da-c66709a678c0"},"vehicle_type_id":"4","last_reported":1752995421,"current_range_meters":11200,"station_id":"ce4bhlh2rcd13ifvqgig","pricing_plan_id":"cebpf4jnsgd1na2vs0mg"},{"bike_id":"64f40d21-11c6-4844-b393-aa62bbdc4667","system_id":"levelo_inurba_marseille","lat":43.28343,"lon":5.3811,"is_reserved":false,"is_disabled":false,"rental_uris":{"android":"levelo://app?vid=64f40d21-11c6-4844-b393-aa62bbdc4667","ios":"levelo://app?vid=64f40d21-11c6-4844-b393-aa62bbdc4667"},"vehicle_type_id":"4","last_reported":1752995421,"current_range_meters":11200,"station_id":"ce4bh412rcd13ifvqdr0","pricing_plan_id":"cebpf4jnsgd1na2vs0mg"},{"bike_id":"df505bec-05da-4366-bd92-8ada640ac6cf","system_id":"levelo_inurba_marseille","lat":43.27942,"lon":5.41028,"is_reserved":false,"is_disabled":false,"rental_uris":{"android":"levelo://app?vid=df505bec-05da-4366-bd92-8ada640ac6cf","ios":"levelo://app?vid=df505bec-05da-4366-bd92-8ada640ac6cf"},"vehicle_type_id":"4","last_reported":1752995421,"current_range_meters":11200,"station_id":"ce4bhnp2rcd13ifvqh0g","pricing_plan_id":"cebpf4jnsgd1na2vs0mg"},{"bike_id":"646bd144-4ffa-49b8-a08d-6b47ca08200f","system_id":"levelo_inurba_marseille","lat":43.25514,"lon":5.37591,"is_reserved":false,"is_disabled":true,"rental_uris":{"android":"levelo://app?vid=646bd144-4ffa-49b8-a08d-6b47ca08200f","ios":"levelo://app?vid=646bd144-4ffa-49b8-a08d-6b47ca08200f"},"vehicle_type_id":"4","last_reported":1752995421,"current_range_meters":11200,"station_id":"ce4bhh12rcd13ifvqff0","pricing_plan_id":"cebpf4jnsgd1na2vs0mg"},{"bike_id":"c9319e1c-ae3c-4acb-b55c-246e4908743c","system_id":"levelo_inurba_marseille","lat":43.298961,"lon":5.436643,"is_reserved":false,"is_disabled":false,"rental_uris":{"android":"levelo://app?vid=c9319e1c-ae3c-4acb-b55c-246e4908743c","ios":"levelo://app?vid=c9319e1c-ae3c-4acb-b55c-246e4908743c"},"vehicle_type_id":"4","last_reported":1752995421,"current_range_meters":11200,"station_id":"ce4bhpp2rcd13ifvqhfg","pricing_plan_id":"cebpf4jnsgd1na2vs0mg"},{"bike_id":"ac141403-2eff-454e-8bd1-3d400d40ed2b","system_id":"levelo_inurba_marseille","lat":43.331083,"lon":5.400166,"is_reserved":false,"is_disabled":false,"rental_uris":{"android":"levelo://app?vid=ac141403-2eff-454e-8bd1-3d400d40ed2b","ios":"levelo://app?vid=ac141403-2eff-454e-8bd1-3d400d40ed2b"},"vehicle_type_id":"4","last_reported":1752995421,"current_range_meters":11600,"station_id":"","pricing_plan_id":"cebpf4jnsgd1na2vs0mg"},{"bike_id":"38515420-9b1e-48e6-b2cc-88437e978dd6","system_id":"levelo_inurba_marseille","lat":43.25006,"lon":5.38911,"is_reserved":false,"is_disabled":false,"rental_uris":{"android":"levelo://app?vid=38515420-9b1e-48e6-b2cc-88437e978dd6","ios":"levelo://app?vid=38515420-9b1e-48e6-b2cc-88437e978dd6"},"vehicle_type_id":"4","last_reported":1752995421,"current_range_meters":11200,"station_id":"ce4bhgp2rcd13ifvqfd0","pricing_plan_id":"cebpf4jnsgd1na2vs0mg"},{"bike_id":"0f0220a6-e7a6-42bd-9130-aa4708a93223","system_id":"levelo_inurba_marseille","lat":43.29979,"lon":5.37172,"is_reserved":false,"is_disabled":false,"rental_uris":{"android":"levelo://app?vid=0f0220a6-e7a6-42bd-9130-aa4708a93223","ios":"levelo://app?vid=0f0220a6-e7a6-42bd-9130-aa4708a93223"},"vehicle_type_id":"4","last_reported":1752995421,"current_range_meters":11600,"station_id":"ce4bgr92rcd13ifvqc7g","pricing_plan_id":"cebpf4jnsgd1na2vs0mg"},{"bike_id":"6a193f41-f336-48d3-a5d0-a6fca3bf067e","system_id":"levelo_inurba_marseille","lat":43.24694,"lon":5.38145,"is_reserved":false,"is_disabled":false,"rental_uris":{"android":"levelo://app?vid=6a193f41-f336-48d3-a5d0-a6fca3bf067e","ios":"levelo://app?vid=6a193f41-f336-48d3-a5d0-a6fca3bf067e"},"vehicle_type_id":"4","last_reported":1752995421,"current_range_meters":11600,"station_id":"ce4bhih2rcd13ifvqfr0","pricing_plan_id":"cebpf4jnsgd1na2vs0mg"},{"bike_id":"f49b299d-35c0-49c5-b7bc-03b5b182892b","system_id":"levelo_inurba_marseille","lat":43.31764,"lon":5.38995,"is_reserved":false,"is_disabled":false,"rental_uris":{"android":"levelo://app?vid=f49b299d-35c0-49c5-b7bc-03b5b182892b","ios":"levelo://app?vid=f49b299d-35c0-49c5-b7bc-03b5b182892b"},"vehicle_type_id":"4","last_reported":1752995421,"current_range_meters":11600,"station_id":"ce4bhqp2rcd13ifvqhng","pricing_plan_id":"cebpf4jnsgd1na2vs0mg"},{"bike_id":"d421927e-7ddd-40a0-904f-5b4ff0266a72","system_id":"levelo_inurba_marseille","lat":43.31902,"lon":5.4017,"is_reserved":false,"is_disabled":false,"rental_uris":{"android":"levelo://app?vid=d421927e-7ddd-40a0-904f-5b4ff0266a72","ios":"levelo://app?vid=d421927e-7ddd-40a0-904f-5b4ff0266a72"},"vehicle_type_id":"4","last_reported":1752995421,"current_range_meters":12000,"station_id":"","pricing_plan_id":"cebpf4jnsgd1na2vs0mg"},{"bike_id":"cf9f7b6f-b252-45aa-bd41-e7b8a5947e88","system_id":"levelo_inurba_marseille","lat":43.26958,"lon":5.40279,"is_reserved":false,"is_disabled":true,"rental_uris":{"android":"levelo://app?vid=cf9f7b6f-b252-45aa-bd41-e7b8a5947e88","ios":"levelo://app?vid=cf9f7b6f-b252-45aa-bd41-e7b8a5947e88"},"vehicle_type_id":"4","last_reported":1752995421,"current_range_meters":12000,"station_id":"cjm6bp8fraef2m0cb0m0","pricing_plan_id":"cebpf4jnsgd1na2vs0mg"},{"bike_id":"0ff9b298-32e2-4a22-a8be-d7f20e53bc11","system_id":"levelo_inurba_marseille","lat":43.23191,"lon":5.39995,"is_reserved":false,"is_disabled":false,"rental_uris":{"android":"levelo://app?vid=0ff9b298-32e2-4a22-a8be-d7f20e53bc11","ios":"levelo://app?vid=0ff9b298-32e2-4a22-a8be-d7f20e53bc11"},"vehicle_type_id":"4","last_reported":1752995421,"current_range_meters":12000,"station_id":"ce4bhn12rcd13ifvqgqg","pricing_plan_id":"cebpf4jnsgd1na2vs0mg"},{"bike_id":"93301aca-c2c0-493e-a567-7195bb3fc61b","system_id":"levelo_inurba_marseille","lat":43.2828,"lon":5.35067,"is_reserved":false,"is_disabled":true,"rental_uris":{"android":"levelo://app?vid=93301aca-c2c0-493e-a567-7195bb3fc61b","ios":"levelo://app?vid=93301aca-c2c0-493e-a567-7195bb3fc61b"},"vehicle_type_id":"4","last_reported":1752995421,"current_range_meters":12000,"station_id":"ce4bhbp2rcd13ifvqerg","pricing_plan_id":"cebpf4jnsgd1na2vs0mg"},{"bike_id":"5a570911-22d0-41b1-a776-0fe138c4bdc4","system_id":"levelo_inurba_marseille","lat":43.21175,"lon":5.35066,"is_reserved":false,"is_disabled":false,"rental_uris":{"android":"levelo://app?vid=5a570911-22d0-41b1-a776-0fe138c4bdc4","ios":"levelo://app?vid=5a570911-22d0-41b1-a776-0fe138c4bdc4"},"vehicle_type_id":"4","last_reported":1752995421,"current_range_meters":12000,"station_id":"st_cvj6sg6p6f1abm77japg","pricing_plan_id":"cebpf4jnsgd1na2vs0mg"},{"bike_id":"7592d3b0-727d-4107-ba81-a2966cdc2b34","system_id":"levelo_inurba_marseille","lat":43.262228,"lon":5.404436,"is_reserved":false,"is_disabled":false,"rental_uris":{"android":"levelo://app?vid=7592d3b0-727d-4107-ba81-a2966cdc2b34","ios":"levelo://app?vid=7592d3b0-727d-4107-ba81-a2966cdc2b34"},"vehicle_type_id":"4","last_reported":1752995421,"current_range_meters":12000,"station_id":"ce4bhmh2rcd13ifvqgmg","pricing_plan_id":"cebpf4jnsgd1na2vs0mg"},{"bike_id":"b0bd4c65-36c3-405d-8325-0887f33a835f","system_id":"levelo_inurba_marseille","lat":43.299361,"lon":5.365618,"is_reserved":false,"is_disabled":false,"rental_uris":{"android":"levelo://app?vid=b0bd4c65-36c3-405d-8325-0887f33a835f","ios":"levelo://app?vid=b0bd4c65-36c3-405d-8325-0887f33a835f"},"vehicle_type_id":"4","last_reported":1752995421,"current_range_meters":36800,"station_id":"ce4bgm92rcd13ifvqbr0","pricing_plan_id":"cebpf4jnsgd1na2vs0mg"},{"bike_id":"cbd7089c-9d2d-42db-a268-faaaa69d7343","system_id":"levelo_inurba_marseille","lat":43.26208,"lon":5.37461,"is_reserved":false,"is_disabled":true,"rental_uris":{"android":"levelo://app?vid=cbd7089c-9d2d-42db-a268-faaaa69d7343","ios":"levelo://app?vid=cbd7089c-9d2d-42db-a268-faaaa69d7343"},"vehicle_type_id":"4","last_reported":1752995421,"current_range_meters":12400,"station_id":"ce4bhgp2rcd13ifvqfc0","pricing_plan_id":"cebpf4jnsgd1na2vs0mg"},{"bike_id":"892e06aa-05f6-415f-96f6-13455b0802de","system_id":"levelo_inurba_marseille","lat":43.2957,"lon":5.3748,"is_reserved":false,"is_disabled":true,"rental_uris":{"android":"levelo://app?vid=892e06aa-05f6-415f-96f6-13455b0802de","ios":"levelo://app?vid=892e06aa-05f6-415f-96f6-13455b0802de"},"vehicle_type_id":"4","last_reported":1752995421,"current_range_meters":12400,"station_id":"ce4bgh92rcd13ifvqb50","pricing_plan_id":"cebpf4jnsgd1na2vs0mg"},{"bike_id":"50817c71-c433-41db-8588-f3f5b56e9306","system_id":"levelo_inurba_marseille","lat":43.22507,"lon":5.347831,"is_reserved":false,"is_disabled":false,"rental_uris":{"android":"levelo://app?vid=50817c71-c433-41db-8588-f3f5b56e9306","ios":"levelo://app?vid=50817c71-c433-41db-8588-f3f5b56e9306"},"vehicle_type_id":"4","last_reported":1752995421,"current_range_meters":12400,"station_id":"st_cvj5dfep6f1abm77gieg","pricing_plan_id":"cebpf4jnsgd1na2vs0mg"},{"bike_id":"7da69f3d-17ea-45bd-8065-f715d544d5a5","system_id":"levelo_inurba_marseille","lat":43.27065,"lon":5.42274,"is_reserved":false,"is_disabled":false,"rental_uris":{"android":"levelo://app?vid=7da69f3d-17ea-45bd-8065-f715d544d5a5","ios":"levelo://app?vid=7da69f3d-17ea-45bd-8065-f715d544d5a5"},"vehicle_type_id":"4","last_reported":1752995421,"current_range_meters":12800,"station_id":"ce4bhk92rcd13ifvqgb0","pricing_plan_id":"cebpf4jnsgd1na2vs0mg"},{"bike_id":"45dea0eb-918d-49f1-8341-001e35c226f0","system_id":"levelo_inurba_marseille","lat":43.211884,"lon":5.350748,"is_reserved":false,"is_disabled":false,"rental_uris":{"android":"levelo://app?vid=45dea0eb-918d-49f1-8341-001e35c226f0","ios":"levelo://app?vid=45dea0eb-918d-49f1-8341-001e35c226f0"},"vehicle_type_id":"4","last_reported":1752995421,"current_range_meters":12800,"station_id":"st_cvj6sg6p6f1abm77japg","pricing_plan_id":"cebpf4jnsgd1na2vs0mg"},{"bike_id":"b80b2867-1d8f-4b70-90c9-03db374a8e5e","system_id":"levelo_inurba_marseille","lat":43.29004,"lon":5.35606,"is_reserved":false,"is_disabled":false,"rental_uris":{"android":"levelo://app?vid=b80b2867-1d8f-4b70-90c9-03db374a8e5e","ios":"levelo://app?vid=b80b2867-1d8f-4b70-90c9-03db374a8e5e"},"vehicle_type_id":"4","last_reported":1752995421,"current_range_meters":12400,"station_id":"ce4bhb92rcd13ifvqen0","pricing_plan_id":"cebpf4jnsgd1na2vs0mg"},{"bike_id":"a6de290b-5c15-427b-bc37-8301607e1735","system_id":"levelo_inurba_marseille","lat":43.337444,"lon":5.374475,"is_reserved":false,"is_disabled":false,"rental_uris":{"android":"levelo://app?vid=a6de290b-5c15-427b-bc37-8301607e1735","ios":"levelo://app?vid=a6de290b-5c15-427b-bc37-8301607e1735"},"vehicle_type_id":"4","last_reported":1752995421,"current_range_meters":12800,"station_id":"","pricing_plan_id":"cebpf4jnsgd1na2vs0mg"},{"bike_id":"77e5d396-9f38-43c2-ae33-ac1f85df337d","system_id":"levelo_inurba_marseille","lat":43.29557,"lon":5.42272,"is_reserved":false,"is_disabled":false,"rental_uris":{"android":"levelo://app?vid=77e5d396-9f38-43c2-ae33-ac1f85df337d","ios":"levelo://app?vid=77e5d396-9f38-43c2-ae33-ac1f85df337d"},"vehicle_type_id":"4","last_reported":1752995421,"current_range_meters":12800,"station_id":"ce4bhph2rcd13ifvqhdg","pricing_plan_id":"cebpf4jnsgd1na2vs0mg"},{"bike_id":"471dc3d5-ac0c-4fb1-b8ed-9304c84605d1","system_id":"levelo_inurba_marseille","lat":43.301299,"lon":5.398582,"is_reserved":false,"is_disabled":false,"rental_uris":{"android":"levelo://app?vid=471dc3d5-ac0c-4fb1-b8ed-9304c84605d1","ios":"levelo://app?vid=471dc3d5-ac0c-4fb1-b8ed-9304c84605d1"},"vehicle_type_id":"4","last_reported":1752995421,"current_range_meters":12800,"station_id":"ce4bh0h2rcd13ifvqd40","pricing_plan_id":"cebpf4jnsgd1na2vs0mg"},{"bike_id":"d916997f-1b3d-4d99-bec2-f22f10a49844","system_id":"levelo_inurba_marseille","lat":43.25119,"lon":5.40314,"is_reserved":false,"is_disabled":false,"rental_uris":{"android":"levelo://app?vid=d916997f-1b3d-4d99-bec2-f22f10a49844","ios":"levelo://app?vid=d916997f-1b3d-4d99-bec2-f22f10a49844"},"vehicle_type_id":"4","last_reported":1752995421,"current_range_meters":12800,"station_id":"ce4bhlh2rcd13ifvqgig","pricing_plan_id":"cebpf4jnsgd1na2vs0mg"},{"bike_id":"dd12eefc-9090-488f-8382-d877f7eeafe4","system_id":"levelo_inurba_marseille","lat":43.25395,"lon":5.41889,"is_reserved":false,"is_disabled":false,"rental_uris":{"android":"levelo://app?vid=dd12eefc-9090-488f-8382-d877f7eeafe4","ios":"levelo://app?vid=dd12eefc-9090-488f-8382-d877f7eeafe4"},"vehicle_type_id":"4","last_reported":1752995421,"current_range_meters":13600,"station_id":"","pricing_plan_id":"cebpf4jnsgd1na2vs0mg"},{"bike_id":"3f34cbef-2df9-4d33-b87e-ee079fd255a1","system_id":"levelo_inurba_marseille","lat":43.30812,"lon":5.43513,"is_reserved":false,"is_disabled":false,"rental_uris":{"android":"levelo://app?vid=3f34cbef-2df9-4d33-b87e-ee079fd255a1","ios":"levelo://app?vid=3f34cbef-2df9-4d33-b87e-ee079fd255a1"},"vehicle_type_id":"4","last_reported":1752995421,"current_range_meters":13600,"station_id":"ce4bhph2rcd13ifvqheg","pricing_plan_id":"cebpf4jnsgd1na2vs0mg"},{"bike_id":"b9246e48-e9f8-4924-bbb9-8c633997abe7","system_id":"levelo_inurba_marseille","lat":43.21204,"lon":5.35077,"is_reserved":false,"is_disabled":false,"rental_uris":{"android":"levelo://app?vid=b9246e48-e9f8-4924-bbb9-8c633997abe7","ios":"levelo://app?vid=b9246e48-e9f8-4924-bbb9-8c633997abe7"},"vehicle_type_id":"4","last_reported":1752995421,"current_range_meters":13600,"station_id":"st_cvj6sg6p6f1abm77japg","pricing_plan_id":"cebpf4jnsgd1na2vs0mg"},{"bike_id":"48e613f6-6bd8-4b0f-a051-5c53bb25b33b","system_id":"levelo_inurba_marseille","lat":43.284698,"lon":5.358865,"is_reserved":false,"is_disabled":false,"rental_uris":{"android":"levelo://app?vid=48e613f6-6bd8-4b0f-a051-5c53bb25b33b","ios":"levelo://app?vid=48e613f6-6bd8-4b0f-a051-5c53bb25b33b"},"vehicle_type_id":"4","last_reported":1752995421,"current_range_meters":13600,"station_id":"ce4bhah2rcd13ifvqei0","pricing_plan_id":"cebpf4jnsgd1na2vs0mg"},{"bike_id":"3ba08430-c242-462c-b3c2-1c2cdcac9121","system_id":"levelo_inurba_marseille","lat":43.27072,"lon":5.40254,"is_reserved":false,"is_disabled":false,"rental_uris":{"android":"levelo://app?vid=3ba08430-c242-462c-b3c2-1c2cdcac9121","ios":"levelo://app?vid=3ba08430-c242-462c-b3c2-1c2cdcac9121"},"vehicle_type_id":"4","last_reported":1752995421,"current_range_meters":13600,"station_id":"ce4bhk92rcd13ifvqgc0","pricing_plan_id":"cebpf4jnsgd1na2vs0mg"},{"bike_id":"7a2e1cf8-de90-4b24-ade1-9d8b3a17f052","system_id":"levelo_inurba_marseille","lat":43.25173,"lon":5.37609,"is_reserved":false,"is_disabled":false,"rental_uris":{"android":"levelo://app?vid=7a2e1cf8-de90-4b24-ade1-9d8b3a17f052","ios":"levelo://app?vid=7a2e1cf8-de90-4b24-ade1-9d8b3a17f052"},"vehicle_type_id":"4","last_reported":1752995421,"current_range_meters":13600,"station_id":"","pricing_plan_id":"cebpf4jnsgd1na2vs0mg"},{"bike_id":"f11d5853-771f-43df-bd89-c14a78847538","system_id":"levelo_inurba_marseille","lat":43.31119,"lon":5.37771,"is_reserved":false,"is_disabled":false,"rental_uris":{"android":"levelo://app?vid=f11d5853-771f-43df-bd89-c14a78847538","ios":"levelo://app?vid=f11d5853-771f-43df-bd89-c14a78847538"},"vehicle_type_id":"4","last_reported":1752995421,"current_range_meters":13600,"station_id":"ce4bgt92rcd13ifvqcg0","pricing_plan_id":"cebpf4jnsgd1na2vs0mg"},{"bike_id":"7d91d34c-95ba-419a-8d0b-21d2aeaa83ad","system_id":"levelo_inurba_marseille","lat":43.25509,"lon":5.37628,"is_reserved":false,"is_disabled":true,"rental_uris":{"android":"levelo://app?vid=7d91d34c-95ba-419a-8d0b-21d2aeaa83ad","ios":"levelo://app?vid=7d91d34c-95ba-419a-8d0b-21d2aeaa83ad"},"vehicle_type_id":"4","last_reported":1752995421,"current_range_meters":13600,"station_id":"ce4bhh12rcd13ifvqff0","pricing_plan_id":"cebpf4jnsgd1na2vs0mg"},{"bike_id":"ce6df781-3afb-4d0b-8e61-d1baa1f2dfb8","system_id":"levelo_inurba_marseille","lat":43.21745,"lon":5.34598,"is_reserved":false,"is_disabled":false,"rental_uris":{"android":"levelo://app?vid=ce6df781-3afb-4d0b-8e61-d1baa1f2dfb8","ios":"levelo://app?vid=ce6df781-3afb-4d0b-8e61-d1baa1f2dfb8"},"vehicle_type_id":"4","last_reported":1752995421,"current_range_meters":13600,"station_id":"st_cvj6r9ubvosntc0bgbag","pricing_plan_id":"cebpf4jnsgd1na2vs0mg"},{"bike_id":"6fb131dd-8bae-4bc0-b0c0-17992306572f","system_id":"levelo_inurba_marseille","lat":43.29551,"lon":5.42292,"is_reserved":false,"is_disabled":false,"rental_uris":{"android":"levelo://app?vid=6fb131dd-8bae-4bc0-b0c0-17992306572f","ios":"levelo://app?vid=6fb131dd-8bae-4bc0-b0c0-17992306572f"},"vehicle_type_id":"4","last_reported":1752995421,"current_range_meters":14000,"station_id":"ce4bhph2rcd13ifvqhdg","pricing_plan_id":"cebpf4jnsgd1na2vs0mg"},{"bike_id":"d4148381-a28d-4e45-933e-b5d6f0b26c43","system_id":"levelo_inurba_marseille","lat":43.30786,"lon":5.37642,"is_reserved":false,"is_disabled":false,"rental_uris":{"android":"levelo://app?vid=d4148381-a28d-4e45-933e-b5d6f0b26c43","ios":"levelo://app?vid=d4148381-a28d-4e45-933e-b5d6f0b26c43"},"vehicle_type_id":"4","last_reported":1752995421,"current_range_meters":13600,"station_id":"ce4bgv92rcd13ifvqcq0","pricing_plan_id":"cebpf4jnsgd1na2vs0mg"},{"bike_id":"8c4acb55-241b-4545-8165-6d1b2681375e","system_id":"levelo_inurba_marseille","lat":43.27811,"lon":5.40719,"is_reserved":false,"is_disabled":false,"rental_uris":{"android":"levelo://app?vid=8c4acb55-241b-4545-8165-6d1b2681375e","ios":"levelo://app?vid=8c4acb55-241b-4545-8165-6d1b2681375e"},"vehicle_type_id":"4","last_reported":1752995421,"current_range_meters":14000,"station_id":"ce4bhnh2rcd13ifvqgtg","pricing_plan_id":"cebpf4jnsgd1na2vs0mg"},{"bike_id":"d25b3b74-1eb0-48d4-998a-10d14228da57","system_id":"levelo_inurba_marseille","lat":43.29703,"lon":5.36799,"is_reserved":false,"is_disabled":false,"rental_uris":{"android":"levelo://app?vid=d25b3b74-1eb0-48d4-998a-10d14228da57","ios":"levelo://app?vid=d25b3b74-1eb0-48d4-998a-10d14228da57"},"vehicle_type_id":"4","last_reported":1752995421,"current_range_meters":14400,"station_id":"","pricing_plan_id":"cebpf4jnsgd1na2vs0mg"},{"bike_id":"70867b6d-372a-4cb2-8157-51e11a88a61f","system_id":"levelo_inurba_marseille","lat":43.29002,"lon":5.35606,"is_reserved":false,"is_disabled":false,"rental_uris":{"android":"levelo://app?vid=70867b6d-372a-4cb2-8157-51e11a88a61f","ios":"levelo://app?vid=70867b6d-372a-4cb2-8157-51e11a88a61f"},"vehicle_type_id":"4","last_reported":1752995421,"current_range_meters":14400,"station_id":"ce4bhb92rcd13ifvqen0","pricing_plan_id":"cebpf4jnsgd1na2vs0mg"},{"bike_id":"8fa62f05-18cc-4ebb-af46-bfe3c35edfd7","system_id":"levelo_inurba_marseille","lat":43.295685,"lon":5.376063,"is_reserved":false,"is_disabled":false,"rental_uris":{"android":"levelo://app?vid=8fa62f05-18cc-4ebb-af46-bfe3c35edfd7","ios":"levelo://app?vid=8fa62f05-18cc-4ebb-af46-bfe3c35edfd7"},"vehicle_type_id":"4","last_reported":1752995421,"current_range_meters":14400,"station_id":"ce4bgi92rcd13ifvqb90","pricing_plan_id":"cebpf4jnsgd1na2vs0mg"},{"bike_id":"5032a8bb-e6e3-431e-b320-13195f3c8ae0","system_id":"levelo_inurba_marseille","lat":43.29979,"lon":5.41331,"is_reserved":false,"is_disabled":false,"rental_uris":{"android":"levelo://app?vid=5032a8bb-e6e3-431e-b320-13195f3c8ae0","ios":"levelo://app?vid=5032a8bb-e6e3-431e-b320-13195f3c8ae0"},"vehicle_type_id":"4","last_reported":1752995421,"current_range_meters":14400,"station_id":"ce4bhp12rcd13ifvqh9g","pricing_plan_id":"cebpf4jnsgd1na2vs0mg"},{"bike_id":"4268961c-8e3c-4bac-891f-a8846cba533f","system_id":"levelo_inurba_marseille","lat":43.32497,"lon":5.36535,"is_reserved":false,"is_disabled":false,"rental_uris":{"android":"levelo://app?vid=4268961c-8e3c-4bac-891f-a8846cba533f","ios":"levelo://app?vid=4268961c-8e3c-4bac-891f-a8846cba533f"},"vehicle_type_id":"4","last_reported":1752995421,"current_range_meters":14400,"station_id":"ce4bhs12rcd13ifvqhvg","pricing_plan_id":"cebpf4jnsgd1na2vs0mg"},{"bike_id":"aaa60820-80fd-4afd-9d4a-de02de98b358","system_id":"levelo_inurba_marseille","lat":43.21193,"lon":5.35056,"is_reserved":false,"is_disabled":false,"rental_uris":{"android":"levelo://app?vid=aaa60820-80fd-4afd-9d4a-de02de98b358","ios":"levelo://app?vid=aaa60820-80fd-4afd-9d4a-de02de98b358"},"vehicle_type_id":"4","last_reported":1752995421,"current_range_meters":14400,"station_id":"st_cvj6sg6p6f1abm77japg","pricing_plan_id":"cebpf4jnsgd1na2vs0mg"},{"bike_id":"95b5bcfa-54af-48c0-bd18-8f73f959ce2b","system_id":"levelo_inurba_marseille","lat":43.31935,"lon":5.37313,"is_reserved":false,"is_disabled":false,"rental_uris":{"android":"levelo://app?vid=95b5bcfa-54af-48c0-bd18-8f73f959ce2b","ios":"levelo://app?vid=95b5bcfa-54af-48c0-bd18-8f73f959ce2b"},"vehicle_type_id":"4","last_reported":1752995421,"current_range_meters":14400,"station_id":"","pricing_plan_id":"cebpf4jnsgd1na2vs0mg"},{"bike_id":"22996e68-eb2b-4f2c-8e5a-0fc5b186c02e","system_id":"levelo_inurba_marseille","lat":43.24165,"lon":5.3639,"is_reserved":false,"is_disabled":false,"rental_uris":{"android":"levelo://app?vid=22996e68-eb2b-4f2c-8e5a-0fc5b186c02e","ios":"levelo://app?vid=22996e68-eb2b-4f2c-8e5a-0fc5b186c02e"},"vehicle_type_id":"4","last_reported":1752995421,"current_range_meters":14800,"station_id":"cpo36qri1sfpv3e86is0","pricing_plan_id":"cebpf4jnsgd1na2vs0mg"},{"bike_id":"5f3c2d82-aa89-4640-8e4b-7048aefb28e4","system_id":"levelo_inurba_marseille","lat":43.30883,"lon":5.37194,"is_reserved":false,"is_disabled":false,"rental_uris":{"android":"levelo://app?vid=5f3c2d82-aa89-4640-8e4b-7048aefb28e4","ios":"levelo://app?vid=5f3c2d82-aa89-4640-8e4b-7048aefb28e4"},"vehicle_type_id":"4","last_reported":1752995421,"current_range_meters":14800,"station_id":"ce4bguh2rcd13ifvqckg","pricing_plan_id":"cebpf4jnsgd1na2vs0mg"},{"bike_id":"7eaefe95-a918-4dff-a447-29114f8d3c22","system_id":"levelo_inurba_marseille","lat":43.28742,"lon":5.39977,"is_reserved":false,"is_disabled":true,"rental_uris":{"android":"levelo://app?vid=7eaefe95-a918-4dff-a447-29114f8d3c22","ios":"levelo://app?vid=7eaefe95-a918-4dff-a447-29114f8d3c22"},"vehicle_type_id":"4","last_reported":1752995421,"current_range_meters":14800,"station_id":"ce4bho92rcd13ifvqh3g","pricing_plan_id":"cebpf4jnsgd1na2vs0mg"},{"bike_id":"beb14892-a851-4f8e-b873-cbd3d15ad0a9","system_id":"levelo_inurba_marseille","lat":43.237591,"lon":5.361933,"is_reserved":false,"is_disabled":false,"rental_uris":{"android":"levelo://app?vid=beb14892-a851-4f8e-b873-cbd3d15ad0a9","ios":"levelo://app?vid=beb14892-a851-4f8e-b873-cbd3d15ad0a9"},"vehicle_type_id":"4","last_reported":1752995421,"current_range_meters":14800,"station_id":"","pricing_plan_id":"cebpf4jnsgd1na2vs0mg"},{"bike_id":"e4d40cc6-06be-4413-a09d-0c3b322f384f","system_id":"levelo_inurba_marseille","lat":43.284366,"lon":5.391836,"is_reserved":false,"is_disabled":false,"rental_uris":{"android":"levelo://app?vid=e4d40cc6-06be-4413-a09d-0c3b322f384f","ios":"levelo://app?vid=e4d40cc6-06be-4413-a09d-0c3b322f384f"},"vehicle_type_id":"4","last_reported":1752995421,"current_range_meters":15200,"station_id":"ce4bhoh2rcd13ifvqh5g","pricing_plan_id":"cebpf4jnsgd1na2vs0mg"},{"bike_id":"e50ad253-cbd4-4a94-9b59-64dacc1f0adf","system_id":"levelo_inurba_marseille","lat":43.24071,"lon":5.3776,"is_reserved":false,"is_disabled":false,"rental_uris":{"android":"levelo://app?vid=e50ad253-cbd4-4a94-9b59-64dacc1f0adf","ios":"levelo://app?vid=e50ad253-cbd4-4a94-9b59-64dacc1f0adf"},"vehicle_type_id":"4","last_reported":1752995421,"current_range_meters":15200,"station_id":"ce4bhnp2rcd13ifvqgvg","pricing_plan_id":"cebpf4jnsgd1na2vs0mg"},{"bike_id":"7023c9df-34ea-4be8-bb08-ef9e6e748e73","system_id":"levelo_inurba_marseille","lat":43.24177,"lon":5.39727,"is_reserved":false,"is_disabled":false,"rental_uris":{"android":"levelo://app?vid=7023c9df-34ea-4be8-bb08-ef9e6e748e73","ios":"levelo://app?vid=7023c9df-34ea-4be8-bb08-ef9e6e748e73"},"vehicle_type_id":"4","last_reported":1752995421,"current_range_meters":15200,"station_id":"ce4bhn12rcd13ifvqgpg","pricing_plan_id":"cebpf4jnsgd1na2vs0mg"},{"bike_id":"4183af83-8bde-4bf5-a3ca-3a18515a2e28","system_id":"levelo_inurba_marseille","lat":43.265712,"lon":5.390013,"is_reserved":false,"is_disabled":false,"rental_uris":{"android":"levelo://app?vid=4183af83-8bde-4bf5-a3ca-3a18515a2e28","ios":"levelo://app?vid=4183af83-8bde-4bf5-a3ca-3a18515a2e28"},"vehicle_type_id":"4","last_reported":1752995421,"current_range_meters":15200,"station_id":"ce4bhe12rcd13ifvqf30","pricing_plan_id":"cebpf4jnsgd1na2vs0mg"},{"bike_id":"c9695da4-3048-4cfc-83f0-62c3fac1ccbe","system_id":"levelo_inurba_marseille","lat":43.230509,"lon":5.354917,"is_reserved":false,"is_disabled":true,"rental_uris":{"android":"levelo://app?vid=c9695da4-3048-4cfc-83f0-62c3fac1ccbe","ios":"levelo://app?vid=c9695da4-3048-4cfc-83f0-62c3fac1ccbe"},"vehicle_type_id":"4","last_reported":1752995421,"current_range_meters":16000,"station_id":"cpo3342slgdg3j2ifvpg","pricing_plan_id":"cebpf4jnsgd1na2vs0mg"},{"bike_id":"61859880-43d2-42e3-b5ae-94daf88d36a7","system_id":"levelo_inurba_marseille","lat":43.30888,"lon":5.39628,"is_reserved":false,"is_disabled":false,"rental_uris":{"android":"levelo://app?vid=61859880-43d2-42e3-b5ae-94daf88d36a7","ios":"levelo://app?vid=61859880-43d2-42e3-b5ae-94daf88d36a7"},"vehicle_type_id":"4","last_reported":1752995421,"current_range_meters":16000,"station_id":"ce4bh012rcd13ifvqcv0","pricing_plan_id":"cebpf4jnsgd1na2vs0mg"},{"bike_id":"299ec8a6-d5a7-41ea-8121-1c7f792257d2","system_id":"levelo_inurba_marseille","lat":43.27369,"lon":5.36249,"is_reserved":false,"is_disabled":true,"rental_uris":{"android":"levelo://app?vid=299ec8a6-d5a7-41ea-8121-1c7f792257d2","ios":"levelo://app?vid=299ec8a6-d5a7-41ea-8121-1c7f792257d2"},"vehicle_type_id":"4","last_reported":1752995421,"current_range_meters":16000,"station_id":"ce4bhbh2rcd13ifvqeo0","pricing_plan_id":"cebpf4jnsgd1na2vs0mg"},{"bike_id":"920d521b-627a-4156-9d85-f42e44a38fc8","system_id":"levelo_inurba_marseille","lat":43.283537,"lon":5.380997,"is_reserved":false,"is_disabled":false,"rental_uris":{"android":"levelo://app?vid=920d521b-627a-4156-9d85-f42e44a38fc8","ios":"levelo://app?vid=920d521b-627a-4156-9d85-f42e44a38fc8"},"vehicle_type_id":"4","last_reported":1752995421,"current_range_meters":16000,"station_id":"ce4bh412rcd13ifvqdr0","pricing_plan_id":"cebpf4jnsgd1na2vs0mg"},{"bike_id":"043e137b-ff44-4cf1-95f5-28205300bd42","system_id":"levelo_inurba_marseille","lat":43.30461,"lon":5.37906,"is_reserved":false,"is_disabled":false,"rental_uris":{"android":"levelo://app?vid=043e137b-ff44-4cf1-95f5-28205300bd42","ios":"levelo://app?vid=043e137b-ff44-4cf1-95f5-28205300bd42"},"vehicle_type_id":"4","last_reported":1752995421,"current_range_meters":16000,"station_id":"ce4bgup2rcd13ifvqcn0","pricing_plan_id":"cebpf4jnsgd1na2vs0mg"},{"bike_id":"64c4e8fb-d681-4de2-854c-3b8c6a5bafd9","system_id":"levelo_inurba_marseille","lat":43.24062,"lon":5.37747,"is_reserved":false,"is_disabled":false,"rental_uris":{"android":"levelo://app?vid=64c4e8fb-d681-4de2-854c-3b8c6a5bafd9","ios":"levelo://app?vid=64c4e8fb-d681-4de2-854c-3b8c6a5bafd9"},"vehicle_type_id":"4","last_reported":1752995421,"current_range_meters":16000,"station_id":"ce4bhnp2rcd13ifvqgvg","pricing_plan_id":"cebpf4jnsgd1na2vs0mg"},{"bike_id":"707af16a-3189-4d92-b010-ef53c9012e98","system_id":"levelo_inurba_marseille","lat":43.21769,"lon":5.34552,"is_reserved":false,"is_disabled":false,"rental_uris":{"android":"levelo://app?vid=707af16a-3189-4d92-b010-ef53c9012e98","ios":"levelo://app?vid=707af16a-3189-4d92-b010-ef53c9012e98"},"vehicle_type_id":"4","last_reported":1752995421,"current_range_meters":16000,"station_id":"","pricing_plan_id":"cebpf4jnsgd1na2vs0mg"},{"bike_id":"d3aca52a-4e64-461a-8fd1-e9a035bafbdf","system_id":"levelo_inurba_marseille","lat":43.257213,"lon":5.411019,"is_reserved":false,"is_disabled":false,"rental_uris":{"android":"levelo://app?vid=d3aca52a-4e64-461a-8fd1-e9a035bafbdf","ios":"levelo://app?vid=d3aca52a-4e64-461a-8fd1-e9a035bafbdf"},"vehicle_type_id":"4","last_reported":1752995421,"current_range_meters":16000,"station_id":"","pricing_plan_id":"cebpf4jnsgd1na2vs0mg"},{"bike_id":"b3176209-c9b0-4949-926f-6c63990cfd9f","system_id":"levelo_inurba_marseille","lat":43.335876,"lon":5.409882,"is_reserved":false,"is_disabled":false,"rental_uris":{"android":"levelo://app?vid=b3176209-c9b0-4949-926f-6c63990cfd9f","ios":"levelo://app?vid=b3176209-c9b0-4949-926f-6c63990cfd9f"},"vehicle_type_id":"4","last_reported":1752995421,"current_range_meters":16000,"station_id":"ce4bhqh2rcd13ifvqhmg","pricing_plan_id":"cebpf4jnsgd1na2vs0mg"},{"bike_id":"7f98c65c-6593-4352-858e-be8fe24c31fc","system_id":"levelo_inurba_marseille","lat":43.225071,"lon":5.347844,"is_reserved":false,"is_disabled":false,"rental_uris":{"android":"levelo://app?vid=7f98c65c-6593-4352-858e-be8fe24c31fc","ios":"levelo://app?vid=7f98c65c-6593-4352-858e-be8fe24c31fc"},"vehicle_type_id":"4","last_reported":1752995421,"current_range_meters":16400,"station_id":"st_cvj5dfep6f1abm77gieg","pricing_plan_id":"cebpf4jnsgd1na2vs0mg"},{"bike_id":"2d204ae1-a432-454a-839c-4d383ae2825d","system_id":"levelo_inurba_marseille","lat":43.31065,"lon":5.40076,"is_reserved":false,"is_disabled":false,"rental_uris":{"android":"levelo://app?vid=2d204ae1-a432-454a-839c-4d383ae2825d","ios":"levelo://app?vid=2d204ae1-a432-454a-839c-4d383ae2825d"},"vehicle_type_id":"4","last_reported":1752995421,"current_range_meters":16400,"station_id":"","pricing_plan_id":"cebpf4jnsgd1na2vs0mg"},{"bike_id":"96793585-b370-4499-97b5-55297e845c8f","system_id":"levelo_inurba_marseille","lat":43.21745,"lon":5.34605,"is_reserved":false,"is_disabled":true,"rental_uris":{"android":"levelo://app?vid=96793585-b370-4499-97b5-55297e845c8f","ios":"levelo://app?vid=96793585-b370-4499-97b5-55297e845c8f"},"vehicle_type_id":"4","last_reported":1752995421,"current_range_meters":16400,"station_id":"st_cvj6r9ubvosntc0bgbag","pricing_plan_id":"cebpf4jnsgd1na2vs0mg"},{"bike_id":"20597f8e-6c1b-4a51-9e3f-8ecf88381375","system_id":"levelo_inurba_marseille","lat":43.30362,"lon":5.39183,"is_reserved":false,"is_disabled":true,"rental_uris":{"android":"levelo://app?vid=20597f8e-6c1b-4a51-9e3f-8ecf88381375","ios":"levelo://app?vid=20597f8e-6c1b-4a51-9e3f-8ecf88381375"},"vehicle_type_id":"4","last_reported":1752995421,"current_range_meters":16400,"station_id":"","pricing_plan_id":"cebpf4jnsgd1na2vs0mg"},{"bike_id":"f335eb8b-f2b0-48df-963c-2425602f9038","system_id":"levelo_inurba_marseille","lat":43.27037,"lon":5.40092,"is_reserved":false,"is_disabled":true,"rental_uris":{"android":"levelo://app?vid=f335eb8b-f2b0-48df-963c-2425602f9038","ios":"levelo://app?vid=f335eb8b-f2b0-48df-963c-2425602f9038"},"vehicle_type_id":"4","last_reported":1752995421,"current_range_meters":16800,"station_id":"","pricing_plan_id":"cebpf4jnsgd1na2vs0mg"},{"bike_id":"6f530211-2d31-4918-b78d-6fbc7b6302a4","system_id":"levelo_inurba_marseille","lat":43.23578,"lon":5.36136,"is_reserved":false,"is_disabled":false,"rental_uris":{"android":"levelo://app?vid=6f530211-2d31-4918-b78d-6fbc7b6302a4","ios":"levelo://app?vid=6f530211-2d31-4918-b78d-6fbc7b6302a4"},"vehicle_type_id":"4","last_reported":1752995421,"current_range_meters":16800,"station_id":"","pricing_plan_id":"cebpf4jnsgd1na2vs0mg"},{"bike_id":"7cb87117-19f1-4d48-84b2-bec6ac38464c","system_id":"levelo_inurba_marseille","lat":43.295508,"lon":5.422842,"is_reserved":false,"is_disabled":false,"rental_uris":{"android":"levelo://app?vid=7cb87117-19f1-4d48-84b2-bec6ac38464c","ios":"levelo://app?vid=7cb87117-19f1-4d48-84b2-bec6ac38464c"},"vehicle_type_id":"4","last_reported":1752995421,"current_range_meters":16800,"station_id":"ce4bhph2rcd13ifvqhdg","pricing_plan_id":"cebpf4jnsgd1na2vs0mg"},{"bike_id":"8d0a7d48-821b-45fd-b0ae-14054183a777","system_id":"levelo_inurba_marseille","lat":43.297318,"lon":5.376716,"is_reserved":false,"is_disabled":false,"rental_uris":{"android":"levelo://app?vid=8d0a7d48-821b-45fd-b0ae-14054183a777","ios":"levelo://app?vid=8d0a7d48-821b-45fd-b0ae-14054183a777"},"vehicle_type_id":"4","last_reported":1752995421,"current_range_meters":16800,"station_id":"ce4bgkh2rcd13ifvqbl0","pricing_plan_id":"cebpf4jnsgd1na2vs0mg"},{"bike_id":"053762ef-2967-4c03-83aa-9c21c06b9aed","system_id":"levelo_inurba_marseille","lat":43.24056,"lon":5.3774,"is_reserved":false,"is_disabled":false,"rental_uris":{"android":"levelo://app?vid=053762ef-2967-4c03-83aa-9c21c06b9aed","ios":"levelo://app?vid=053762ef-2967-4c03-83aa-9c21c06b9aed"},"vehicle_type_id":"4","last_reported":1752995421,"current_range_meters":16800,"station_id":"ce4bhnp2rcd13ifvqgvg","pricing_plan_id":"cebpf4jnsgd1na2vs0mg"},{"bike_id":"cabf2196-069f-47aa-beef-a568fe72c4bf","system_id":"levelo_inurba_marseille","lat":43.27921,"lon":5.39572,"is_reserved":false,"is_disabled":false,"rental_uris":{"android":"levelo://app?vid=cabf2196-069f-47aa-beef-a568fe72c4bf","ios":"levelo://app?vid=cabf2196-069f-47aa-beef-a568fe72c4bf"},"vehicle_type_id":"4","last_reported":1752995421,"current_range_meters":16800,"station_id":"ce4bhf92rcd13ifvqf40","pricing_plan_id":"cebpf4jnsgd1na2vs0mg"},{"bike_id":"65ff5782-b039-4149-bf35-dfa9471f596f","system_id":"levelo_inurba_marseille","lat":43.29871,"lon":5.3973,"is_reserved":false,"is_disabled":false,"rental_uris":{"android":"levelo://app?vid=65ff5782-b039-4149-bf35-dfa9471f596f","ios":"levelo://app?vid=65ff5782-b039-4149-bf35-dfa9471f596f"},"vehicle_type_id":"4","last_reported":1752995421,"current_range_meters":17200,"station_id":"ce4bh0h2rcd13ifvqd50","pricing_plan_id":"cebpf4jnsgd1na2vs0mg"},{"bike_id":"ff304561-c8ce-4ac1-9008-9c7fa7a2d85b","system_id":"levelo_inurba_marseille","lat":43.29249,"lon":5.3844,"is_reserved":false,"is_disabled":true,"rental_uris":{"android":"levelo://app?vid=ff304561-c8ce-4ac1-9008-9c7fa7a2d85b","ios":"levelo://app?vid=ff304561-c8ce-4ac1-9008-9c7fa7a2d85b"},"vehicle_type_id":"4","last_reported":1752995421,"current_range_meters":17200,"station_id":"ce4bh692rcd13ifvqea0","pricing_plan_id":"cebpf4jnsgd1na2vs0mg"},{"bike_id":"7b53909a-d089-478b-9727-7bcf163d661e","system_id":"levelo_inurba_marseille","lat":43.230594,"lon":5.354874,"is_reserved":false,"is_disabled":true,"rental_uris":{"android":"levelo://app?vid=7b53909a-d089-478b-9727-7bcf163d661e","ios":"levelo://app?vid=7b53909a-d089-478b-9727-7bcf163d661e"},"vehicle_type_id":"4","last_reported":1752995421,"current_range_meters":17200,"station_id":"cpo3342slgdg3j2ifvpg","pricing_plan_id":"cebpf4jnsgd1na2vs0mg"},{"bike_id":"cb331a89-56a6-4651-9865-7241cd4ca587","system_id":"levelo_inurba_marseille","lat":43.32475,"lon":5.366016,"is_reserved":false,"is_disabled":false,"rental_uris":{"android":"levelo://app?vid=cb331a89-56a6-4651-9865-7241cd4ca587","ios":"levelo://app?vid=cb331a89-56a6-4651-9865-7241cd4ca587"},"vehicle_type_id":"4","last_reported":1752995421,"current_range_meters":17200,"station_id":"ce4bhs12rcd13ifvqhvg","pricing_plan_id":"cebpf4jnsgd1na2vs0mg"},{"bike_id":"693973c9-2f1f-4e4a-a074-0ba274f6c0e8","system_id":"levelo_inurba_marseille","lat":43.29784,"lon":5.38093,"is_reserved":false,"is_disabled":false,"rental_uris":{"android":"levelo://app?vid=693973c9-2f1f-4e4a-a074-0ba274f6c0e8","ios":"levelo://app?vid=693973c9-2f1f-4e4a-a074-0ba274f6c0e8"},"vehicle_type_id":"4","last_reported":1752995421,"current_range_meters":17200,"station_id":"ce4bgip2rcd13ifvqbb0","pricing_plan_id":"cebpf4jnsgd1na2vs0mg"},{"bike_id":"8ee23ce4-35c8-476f-8816-b80e4ca2c6f4","system_id":"levelo_inurba_marseille","lat":43.251116,"lon":5.403174,"is_reserved":false,"is_disabled":false,"rental_uris":{"android":"levelo://app?vid=8ee23ce4-35c8-476f-8816-b80e4ca2c6f4","ios":"levelo://app?vid=8ee23ce4-35c8-476f-8816-b80e4ca2c6f4"},"vehicle_type_id":"4","last_reported":1752995421,"current_range_meters":17200,"station_id":"ce4bhlh2rcd13ifvqgig","pricing_plan_id":"cebpf4jnsgd1na2vs0mg"},{"bike_id":"284cf330-577a-4932-8f14-cf3cdaa65655","system_id":"levelo_inurba_marseille","lat":43.30804,"lon":5.43503,"is_reserved":false,"is_disabled":false,"rental_uris":{"android":"levelo://app?vid=284cf330-577a-4932-8f14-cf3cdaa65655","ios":"levelo://app?vid=284cf330-577a-4932-8f14-cf3cdaa65655"},"vehicle_type_id":"4","last_reported":1752995421,"current_range_meters":17200,"station_id":"ce4bhph2rcd13ifvqheg","pricing_plan_id":"cebpf4jnsgd1na2vs0mg"},{"bike_id":"dc654502-b68b-426b-b6bf-8516fdc04d31","system_id":"levelo_inurba_marseille","lat":43.28071,"lon":5.39648,"is_reserved":false,"is_disabled":false,"rental_uris":{"android":"levelo://app?vid=dc654502-b68b-426b-b6bf-8516fdc04d31","ios":"levelo://app?vid=dc654502-b68b-426b-b6bf-8516fdc04d31"},"vehicle_type_id":"4","last_reported":1752995421,"current_range_meters":17200,"station_id":"ce4bho12rcd13ifvqh2g","pricing_plan_id":"cebpf4jnsgd1na2vs0mg"},{"bike_id":"c0891025-8c5b-4eaa-a169-f1586fcfd554","system_id":"levelo_inurba_marseille","lat":43.27824,"lon":5.40709,"is_reserved":false,"is_disabled":false,"rental_uris":{"android":"levelo://app?vid=c0891025-8c5b-4eaa-a169-f1586fcfd554","ios":"levelo://app?vid=c0891025-8c5b-4eaa-a169-f1586fcfd554"},"vehicle_type_id":"4","last_reported":1752995421,"current_range_meters":17200,"station_id":"ce4bhnh2rcd13ifvqgtg","pricing_plan_id":"cebpf4jnsgd1na2vs0mg"},{"bike_id":"16d832d8-5275-4ead-a5ea-40d543d8611a","system_id":"levelo_inurba_marseille","lat":43.29731,"lon":5.3768,"is_reserved":false,"is_disabled":false,"rental_uris":{"android":"levelo://app?vid=16d832d8-5275-4ead-a5ea-40d543d8611a","ios":"levelo://app?vid=16d832d8-5275-4ead-a5ea-40d543d8611a"},"vehicle_type_id":"4","last_reported":1752995421,"current_range_meters":17600,"station_id":"ce4bgkh2rcd13ifvqbl0","pricing_plan_id":"cebpf4jnsgd1na2vs0mg"},{"bike_id":"b862303e-1b88-4ff6-923a-6de878d2c4e1","system_id":"levelo_inurba_marseille","lat":43.2707,"lon":5.42275,"is_reserved":false,"is_disabled":false,"rental_uris":{"android":"levelo://app?vid=b862303e-1b88-4ff6-923a-6de878d2c4e1","ios":"levelo://app?vid=b862303e-1b88-4ff6-923a-6de878d2c4e1"},"vehicle_type_id":"4","last_reported":1752995421,"current_range_meters":17600,"station_id":"ce4bhk92rcd13ifvqgb0","pricing_plan_id":"cebpf4jnsgd1na2vs0mg"},{"bike_id":"c1e6057c-ff5a-4477-a9f1-93444a633642","system_id":"levelo_inurba_marseille","lat":43.27181,"lon":5.39042,"is_reserved":false,"is_disabled":false,"rental_uris":{"android":"levelo://app?vid=c1e6057c-ff5a-4477-a9f1-93444a633642","ios":"levelo://app?vid=c1e6057c-ff5a-4477-a9f1-93444a633642"},"vehicle_type_id":"4","last_reported":1752995421,"current_range_meters":17600,"station_id":"","pricing_plan_id":"cebpf4jnsgd1na2vs0mg"},{"bike_id":"db74d068-ca07-4b0e-bfd7-c6560a63dd2d","system_id":"levelo_inurba_marseille","lat":43.30641,"lon":5.40065,"is_reserved":false,"is_disabled":false,"rental_uris":{"android":"levelo://app?vid=db74d068-ca07-4b0e-bfd7-c6560a63dd2d","ios":"levelo://app?vid=db74d068-ca07-4b0e-bfd7-c6560a63dd2d"},"vehicle_type_id":"4","last_reported":1752995421,"current_range_meters":17600,"station_id":"ce4bh112rcd13ifvqda0","pricing_plan_id":"cebpf4jnsgd1na2vs0mg"},{"bike_id":"0f865e27-a5de-4ea4-a204-00f00c2fcde7","system_id":"levelo_inurba_marseille","lat":43.30638,"lon":5.40069,"is_reserved":false,"is_disabled":false,"rental_uris":{"android":"levelo://app?vid=0f865e27-a5de-4ea4-a204-00f00c2fcde7","ios":"levelo://app?vid=0f865e27-a5de-4ea4-a204-00f00c2fcde7"},"vehicle_type_id":"4","last_reported":1752995421,"current_range_meters":17600,"station_id":"ce4bh112rcd13ifvqda0","pricing_plan_id":"cebpf4jnsgd1na2vs0mg"},{"bike_id":"65f134b7-ec0b-4f93-a212-e1c8c785da98","system_id":"levelo_inurba_marseille","lat":43.28693,"lon":5.3739,"is_reserved":false,"is_disabled":false,"rental_uris":{"android":"levelo://app?vid=65f134b7-ec0b-4f93-a212-e1c8c785da98","ios":"levelo://app?vid=65f134b7-ec0b-4f93-a212-e1c8c785da98"},"vehicle_type_id":"4","last_reported":1752995421,"current_range_meters":17600,"station_id":"ce4bh3p2rcd13ifvqdq0","pricing_plan_id":"cebpf4jnsgd1na2vs0mg"},{"bike_id":"5ccf6fcb-646f-4acf-9fbc-c7f16de7c973","system_id":"levelo_inurba_marseille","lat":43.32625,"lon":5.42345,"is_reserved":false,"is_disabled":false,"rental_uris":{"android":"levelo://app?vid=5ccf6fcb-646f-4acf-9fbc-c7f16de7c973","ios":"levelo://app?vid=5ccf6fcb-646f-4acf-9fbc-c7f16de7c973"},"vehicle_type_id":"4","last_reported":1752995421,"current_range_meters":17600,"station_id":"","pricing_plan_id":"cebpf4jnsgd1na2vs0mg"},{"bike_id":"fb34a4b1-7800-4261-8e1b-5255044d1839","system_id":"levelo_inurba_marseille","lat":43.30884,"lon":5.39629,"is_reserved":false,"is_disabled":false,"rental_uris":{"android":"levelo://app?vid=fb34a4b1-7800-4261-8e1b-5255044d1839","ios":"levelo://app?vid=fb34a4b1-7800-4261-8e1b-5255044d1839"},"vehicle_type_id":"4","last_reported":1752995421,"current_range_meters":17600,"station_id":"ce4bh012rcd13ifvqcv0","pricing_plan_id":"cebpf4jnsgd1na2vs0mg"},{"bike_id":"47c42873-a005-478e-953d-7fdb4918ff42","system_id":"levelo_inurba_marseille","lat":43.279916,"lon":5.416615,"is_reserved":false,"is_disabled":false,"rental_uris":{"android":"levelo://app?vid=47c42873-a005-478e-953d-7fdb4918ff42","ios":"levelo://app?vid=47c42873-a005-478e-953d-7fdb4918ff42"},"vehicle_type_id":"4","last_reported":1752995421,"current_range_meters":17600,"station_id":"ce4bho12rcd13ifvqh1g","pricing_plan_id":"cebpf4jnsgd1na2vs0mg"},{"bike_id":"50f8d88d-d50c-4811-b545-597a88c8b60d","system_id":"levelo_inurba_marseille","lat":43.29306,"lon":5.36954,"is_reserved":false,"is_disabled":false,"rental_uris":{"android":"levelo://app?vid=50f8d88d-d50c-4811-b545-597a88c8b60d","ios":"levelo://app?vid=50f8d88d-d50c-4811-b545-597a88c8b60d"},"vehicle_type_id":"4","last_reported":1752995421,"current_range_meters":17600,"station_id":"","pricing_plan_id":"cebpf4jnsgd1na2vs0mg"},{"bike_id":"8e49fe63-ad1b-4407-9b4f-77d4434f8cbe","system_id":"levelo_inurba_marseille","lat":43.30146,"lon":5.38079,"is_reserved":false,"is_disabled":false,"rental_uris":{"android":"levelo://app?vid=8e49fe63-ad1b-4407-9b4f-77d4434f8cbe","ios":"levelo://app?vid=8e49fe63-ad1b-4407-9b4f-77d4434f8cbe"},"vehicle_type_id":"4","last_reported":1752995421,"current_range_meters":17600,"station_id":"ce4bgjp2rcd13ifvqbh0","pricing_plan_id":"cebpf4jnsgd1na2vs0mg"},{"bike_id":"4355836e-ae99-4039-b85f-c4e239c9dca5","system_id":"levelo_inurba_marseille","lat":43.298999,"lon":5.436646,"is_reserved":false,"is_disabled":false,"rental_uris":{"android":"levelo://app?vid=4355836e-ae99-4039-b85f-c4e239c9dca5","ios":"levelo://app?vid=4355836e-ae99-4039-b85f-c4e239c9dca5"},"vehicle_type_id":"4","last_reported":1752995421,"current_range_meters":18000,"station_id":"ce4bhpp2rcd13ifvqhfg","pricing_plan_id":"cebpf4jnsgd1na2vs0mg"},{"bike_id":"4c8283f7-9214-4f90-b93f-b371d5ff3abb","system_id":"levelo_inurba_marseille","lat":43.211937,"lon":5.350673,"is_reserved":false,"is_disabled":false,"rental_uris":{"android":"levelo://app?vid=4c8283f7-9214-4f90-b93f-b371d5ff3abb","ios":"levelo://app?vid=4c8283f7-9214-4f90-b93f-b371d5ff3abb"},"vehicle_type_id":"4","last_reported":1752995421,"current_range_meters":18000,"station_id":"st_cvj6sg6p6f1abm77japg","pricing_plan_id":"cebpf4jnsgd1na2vs0mg"},{"bike_id":"f3f581c3-7fd6-46b6-b25c-df950de01306","system_id":"levelo_inurba_marseille","lat":43.28731,"lon":5.39974,"is_reserved":false,"is_disabled":true,"rental_uris":{"android":"levelo://app?vid=f3f581c3-7fd6-46b6-b25c-df950de01306","ios":"levelo://app?vid=f3f581c3-7fd6-46b6-b25c-df950de01306"},"vehicle_type_id":"4","last_reported":1752995421,"current_range_meters":18000,"station_id":"ce4bho92rcd13ifvqh3g","pricing_plan_id":"cebpf4jnsgd1na2vs0mg"},{"bike_id":"6da7ca7d-6633-429b-9803-313dc5de4c11","system_id":"levelo_inurba_marseille","lat":43.22504,"lon":5.34781,"is_reserved":false,"is_disabled":false,"rental_uris":{"android":"levelo://app?vid=6da7ca7d-6633-429b-9803-313dc5de4c11","ios":"levelo://app?vid=6da7ca7d-6633-429b-9803-313dc5de4c11"},"vehicle_type_id":"4","last_reported":1752995421,"current_range_meters":18000,"station_id":"st_cvj5dfep6f1abm77gieg","pricing_plan_id":"cebpf4jnsgd1na2vs0mg"},{"bike_id":"ebd2b1bf-0ea2-4316-b168-5f0a5f017e31","system_id":"levelo_inurba_marseille","lat":43.323414,"lon":5.406114,"is_reserved":false,"is_disabled":false,"rental_uris":{"android":"levelo://app?vid=ebd2b1bf-0ea2-4316-b168-5f0a5f017e31","ios":"levelo://app?vid=ebd2b1bf-0ea2-4316-b168-5f0a5f017e31"},"vehicle_type_id":"4","last_reported":1752995421,"current_range_meters":18000,"station_id":"ce4bhq92rcd13ifvqhjg","pricing_plan_id":"cebpf4jnsgd1na2vs0mg"},{"bike_id":"92ef1c6c-cbe6-4c33-8f5c-15685f5b6493","system_id":"levelo_inurba_marseille","lat":43.306511,"lon":5.400783,"is_reserved":false,"is_disabled":false,"rental_uris":{"android":"levelo://app?vid=92ef1c6c-cbe6-4c33-8f5c-15685f5b6493","ios":"levelo://app?vid=92ef1c6c-cbe6-4c33-8f5c-15685f5b6493"},"vehicle_type_id":"4","last_reported":1752995421,"current_range_meters":18000,"station_id":"ce4bh112rcd13ifvqda0","pricing_plan_id":"cebpf4jnsgd1na2vs0mg"},{"bike_id":"53cb4f43-b1af-4efe-9f40-e0338804f4d4","system_id":"levelo_inurba_marseille","lat":43.31276,"lon":5.39024,"is_reserved":false,"is_disabled":false,"rental_uris":{"android":"levelo://app?vid=53cb4f43-b1af-4efe-9f40-e0338804f4d4","ios":"levelo://app?vid=53cb4f43-b1af-4efe-9f40-e0338804f4d4"},"vehicle_type_id":"4","last_reported":1752995421,"current_range_meters":18000,"station_id":"","pricing_plan_id":"cebpf4jnsgd1na2vs0mg"},{"bike_id":"adc4b0d4-dc68-4656-86f6-4f2acca5bad6","system_id":"levelo_inurba_marseille","lat":43.29635,"lon":5.37699,"is_reserved":false,"is_disabled":false,"rental_uris":{"android":"levelo://app?vid=adc4b0d4-dc68-4656-86f6-4f2acca5bad6","ios":"levelo://app?vid=adc4b0d4-dc68-4656-86f6-4f2acca5bad6"},"vehicle_type_id":"4","last_reported":1752995421,"current_range_meters":17600,"station_id":"ce4bgi92rcd13ifvqb90","pricing_plan_id":"cebpf4jnsgd1na2vs0mg"},{"bike_id":"8979afbb-d831-492b-8bd1-2b5d774796f7","system_id":"levelo_inurba_marseille","lat":43.27065,"lon":5.4227,"is_reserved":false,"is_disabled":false,"rental_uris":{"android":"levelo://app?vid=8979afbb-d831-492b-8bd1-2b5d774796f7","ios":"levelo://app?vid=8979afbb-d831-492b-8bd1-2b5d774796f7"},"vehicle_type_id":"4","last_reported":1752995421,"current_range_meters":18000,"station_id":"ce4bhk92rcd13ifvqgb0","pricing_plan_id":"cebpf4jnsgd1na2vs0mg"},{"bike_id":"302bb4c0-dc1d-4f3f-af05-aa9b397ba02e","system_id":"levelo_inurba_marseille","lat":43.241765,"lon":5.397302,"is_reserved":false,"is_disabled":false,"rental_uris":{"android":"levelo://app?vid=302bb4c0-dc1d-4f3f-af05-aa9b397ba02e","ios":"levelo://app?vid=302bb4c0-dc1d-4f3f-af05-aa9b397ba02e"},"vehicle_type_id":"4","last_reported":1752995421,"current_range_meters":18000,"station_id":"ce4bhn12rcd13ifvqgpg","pricing_plan_id":"cebpf4jnsgd1na2vs0mg"},{"bike_id":"e1fc8003-5085-4a7f-a635-4b1964c67b70","system_id":"levelo_inurba_marseille","lat":43.28484,"lon":5.3843,"is_reserved":false,"is_disabled":false,"rental_uris":{"android":"levelo://app?vid=e1fc8003-5085-4a7f-a635-4b1964c67b70","ios":"levelo://app?vid=e1fc8003-5085-4a7f-a635-4b1964c67b70"},"vehicle_type_id":"4","last_reported":1752995421,"current_range_meters":18000,"station_id":"ce4bh512rcd13ifvqe3g","pricing_plan_id":"cebpf4jnsgd1na2vs0mg"},{"bike_id":"d00332e4-2742-48c6-90d1-ab5a020d3e0e","system_id":"levelo_inurba_marseille","lat":43.299668,"lon":5.384679,"is_reserved":false,"is_disabled":false,"rental_uris":{"android":"levelo://app?vid=d00332e4-2742-48c6-90d1-ab5a020d3e0e","ios":"levelo://app?vid=d00332e4-2742-48c6-90d1-ab5a020d3e0e"},"vehicle_type_id":"4","last_reported":1752995421,"current_range_meters":18000,"station_id":"ce4bgj92rcd13ifvqbd0","pricing_plan_id":"cebpf4jnsgd1na2vs0mg"},{"bike_id":"42752829-3ee2-4e84-849d-429017304915","system_id":"levelo_inurba_marseille","lat":43.28462,"lon":5.35889,"is_reserved":false,"is_disabled":true,"rental_uris":{"android":"levelo://app?vid=42752829-3ee2-4e84-849d-429017304915","ios":"levelo://app?vid=42752829-3ee2-4e84-849d-429017304915"},"vehicle_type_id":"4","last_reported":1752995421,"current_range_meters":18000,"station_id":"ce4bhah2rcd13ifvqei0","pricing_plan_id":"cebpf4jnsgd1na2vs0mg"},{"bike_id":"2b731acf-eed3-4db6-96ab-1e5ba3b14dc2","system_id":"levelo_inurba_marseille","lat":43.30151,"lon":5.381,"is_reserved":false,"is_disabled":false,"rental_uris":{"android":"levelo://app?vid=2b731acf-eed3-4db6-96ab-1e5ba3b14dc2","ios":"levelo://app?vid=2b731acf-eed3-4db6-96ab-1e5ba3b14dc2"},"vehicle_type_id":"4","last_reported":1752995421,"current_range_meters":18000,"station_id":"ce4bgjp2rcd13ifvqbh0","pricing_plan_id":"cebpf4jnsgd1na2vs0mg"},{"bike_id":"3a0ad0b3-730c-4b6f-afc8-d25401cb7d69","system_id":"levelo_inurba_marseille","lat":43.246656,"lon":5.381576,"is_reserved":false,"is_disabled":false,"rental_uris":{"android":"levelo://app?vid=3a0ad0b3-730c-4b6f-afc8-d25401cb7d69","ios":"levelo://app?vid=3a0ad0b3-730c-4b6f-afc8-d25401cb7d69"},"vehicle_type_id":"4","last_reported":1752995421,"current_range_meters":18000,"station_id":"ce4bhih2rcd13ifvqfr0","pricing_plan_id":"cebpf4jnsgd1na2vs0mg"},{"bike_id":"d007a63b-662c-4b54-b17f-51fadf0cd81e","system_id":"levelo_inurba_marseille","lat":43.21194,"lon":5.35071,"is_reserved":false,"is_disabled":false,"rental_uris":{"android":"levelo://app?vid=d007a63b-662c-4b54-b17f-51fadf0cd81e","ios":"levelo://app?vid=d007a63b-662c-4b54-b17f-51fadf0cd81e"},"vehicle_type_id":"4","last_reported":1752995421,"current_range_meters":18800,"station_id":"st_cvj6sg6p6f1abm77japg","pricing_plan_id":"cebpf4jnsgd1na2vs0mg"},{"bike_id":"57f20548-4295-4a6c-8b6e-ed57eb793ca5","system_id":"levelo_inurba_marseille","lat":43.3074,"lon":5.42446,"is_reserved":false,"is_disabled":false,"rental_uris":{"android":"levelo://app?vid=57f20548-4295-4a6c-8b6e-ed57eb793ca5","ios":"levelo://app?vid=57f20548-4295-4a6c-8b6e-ed57eb793ca5"},"vehicle_type_id":"4","last_reported":1752995421,"current_range_meters":18800,"station_id":"st_cvj6ca6bvosntc0bfgr0","pricing_plan_id":"cebpf4jnsgd1na2vs0mg"},{"bike_id":"35dce746-9cde-485b-a425-bee7818fb38c","system_id":"levelo_inurba_marseille","lat":43.3079,"lon":5.37627,"is_reserved":false,"is_disabled":false,"rental_uris":{"android":"levelo://app?vid=35dce746-9cde-485b-a425-bee7818fb38c","ios":"levelo://app?vid=35dce746-9cde-485b-a425-bee7818fb38c"},"vehicle_type_id":"4","last_reported":1752995421,"current_range_meters":18800,"station_id":"ce4bgv92rcd13ifvqcq0","pricing_plan_id":"cebpf4jnsgd1na2vs0mg"},{"bike_id":"01ef6f38-0cb9-4831-9c9a-0f76f326e484","system_id":"levelo_inurba_marseille","lat":43.29004,"lon":5.35608,"is_reserved":false,"is_disabled":true,"rental_uris":{"android":"levelo://app?vid=01ef6f38-0cb9-4831-9c9a-0f76f326e484","ios":"levelo://app?vid=01ef6f38-0cb9-4831-9c9a-0f76f326e484"},"vehicle_type_id":"4","last_reported":1752995421,"current_range_meters":18800,"station_id":"ce4bhb92rcd13ifvqen0","pricing_plan_id":"cebpf4jnsgd1na2vs0mg"},{"bike_id":"d451dd23-12be-4a6e-a243-566a354b0b6f","system_id":"levelo_inurba_marseille","lat":43.301477,"lon":5.380977,"is_reserved":false,"is_disabled":false,"rental_uris":{"android":"levelo://app?vid=d451dd23-12be-4a6e-a243-566a354b0b6f","ios":"levelo://app?vid=d451dd23-12be-4a6e-a243-566a354b0b6f"},"vehicle_type_id":"4","last_reported":1752995421,"current_range_meters":18800,"station_id":"ce4bgjp2rcd13ifvqbh0","pricing_plan_id":"cebpf4jnsgd1na2vs0mg"},{"bike_id":"3d36c590-bfb3-4f3d-a821-3b0275041fa7","system_id":"levelo_inurba_marseille","lat":43.30418,"lon":5.41293,"is_reserved":false,"is_disabled":false,"rental_uris":{"android":"levelo://app?vid=3d36c590-bfb3-4f3d-a821-3b0275041fa7","ios":"levelo://app?vid=3d36c590-bfb3-4f3d-a821-3b0275041fa7"},"vehicle_type_id":"4","last_reported":1752995421,"current_range_meters":18800,"station_id":"ce4bhop2rcd13ifvqh8g","pricing_plan_id":"cebpf4jnsgd1na2vs0mg"},{"bike_id":"3fbc732f-aa04-4a13-897a-534733444dba","system_id":"levelo_inurba_marseille","lat":43.29004,"lon":5.35603,"is_reserved":false,"is_disabled":false,"rental_uris":{"android":"levelo://app?vid=3fbc732f-aa04-4a13-897a-534733444dba","ios":"levelo://app?vid=3fbc732f-aa04-4a13-897a-534733444dba"},"vehicle_type_id":"4","last_reported":1752995421,"current_range_meters":18800,"station_id":"ce4bhb92rcd13ifvqen0","pricing_plan_id":"cebpf4jnsgd1na2vs0mg"},{"bike_id":"685f2120-221e-452d-95f5-ad6ef7024cb8","system_id":"levelo_inurba_marseille","lat":43.30799,"lon":5.43513,"is_reserved":false,"is_disabled":false,"rental_uris":{"android":"levelo://app?vid=685f2120-221e-452d-95f5-ad6ef7024cb8","ios":"levelo://app?vid=685f2120-221e-452d-95f5-ad6ef7024cb8"},"vehicle_type_id":"4","last_reported":1752995421,"current_range_meters":18800,"station_id":"ce4bhph2rcd13ifvqheg","pricing_plan_id":"cebpf4jnsgd1na2vs0mg"},{"bike_id":"fb51e2c6-0f26-4a4b-8578-6d900e45b299","system_id":"levelo_inurba_marseille","lat":43.29968,"lon":5.37179,"is_reserved":false,"is_disabled":false,"rental_uris":{"android":"levelo://app?vid=fb51e2c6-0f26-4a4b-8578-6d900e45b299","ios":"levelo://app?vid=fb51e2c6-0f26-4a4b-8578-6d900e45b299"},"vehicle_type_id":"4","last_reported":1752995421,"current_range_meters":18800,"station_id":"ce4bgr92rcd13ifvqc7g","pricing_plan_id":"cebpf4jnsgd1na2vs0mg"},{"bike_id":"c17e1af1-d49f-41db-8ac1-44ed28786385","system_id":"levelo_inurba_marseille","lat":43.310669,"lon":5.383491,"is_reserved":false,"is_disabled":false,"rental_uris":{"android":"levelo://app?vid=c17e1af1-d49f-41db-8ac1-44ed28786385","ios":"levelo://app?vid=c17e1af1-d49f-41db-8ac1-44ed28786385"},"vehicle_type_id":"4","last_reported":1752995421,"current_range_meters":18800,"station_id":"ce4bgv92rcd13ifvqcr0","pricing_plan_id":"cebpf4jnsgd1na2vs0mg"},{"bike_id":"ae2679a0-b2a2-4165-87f5-73851922f36f","system_id":"levelo_inurba_marseille","lat":43.24972,"lon":5.416513,"is_reserved":false,"is_disabled":false,"rental_uris":{"android":"levelo://app?vid=ae2679a0-b2a2-4165-87f5-73851922f36f","ios":"levelo://app?vid=ae2679a0-b2a2-4165-87f5-73851922f36f"},"vehicle_type_id":"4","last_reported":1752995421,"current_range_meters":18800,"station_id":"","pricing_plan_id":"cebpf4jnsgd1na2vs0mg"},{"bike_id":"2a6520b8-14a4-40d1-808b-4ae697cfdaab","system_id":"levelo_inurba_marseille","lat":43.30782,"lon":5.37639,"is_reserved":false,"is_disabled":false,"rental_uris":{"android":"levelo://app?vid=2a6520b8-14a4-40d1-808b-4ae697cfdaab","ios":"levelo://app?vid=2a6520b8-14a4-40d1-808b-4ae697cfdaab"},"vehicle_type_id":"4","last_reported":1752995421,"current_range_meters":18800,"station_id":"ce4bgv92rcd13ifvqcq0","pricing_plan_id":"cebpf4jnsgd1na2vs0mg"},{"bike_id":"e88f0305-2351-4f37-a6a2-061745afce45","system_id":"levelo_inurba_marseille","lat":43.24074,"lon":5.37761,"is_reserved":false,"is_disabled":false,"rental_uris":{"android":"levelo://app?vid=e88f0305-2351-4f37-a6a2-061745afce45","ios":"levelo://app?vid=e88f0305-2351-4f37-a6a2-061745afce45"},"vehicle_type_id":"4","last_reported":1752995421,"current_range_meters":18800,"station_id":"ce4bhnp2rcd13ifvqgvg","pricing_plan_id":"cebpf4jnsgd1na2vs0mg"},{"bike_id":"de9a47b5-edea-465f-9387-34f73bc29d46","system_id":"levelo_inurba_marseille","lat":43.21208,"lon":5.35073,"is_reserved":false,"is_disabled":false,"rental_uris":{"android":"levelo://app?vid=de9a47b5-edea-465f-9387-34f73bc29d46","ios":"levelo://app?vid=de9a47b5-edea-465f-9387-34f73bc29d46"},"vehicle_type_id":"4","last_reported":1752995421,"current_range_meters":18800,"station_id":"st_cvj6sg6p6f1abm77japg","pricing_plan_id":"cebpf4jnsgd1na2vs0mg"},{"bike_id":"0281a9fa-a6a3-4d96-bbdb-496f4ad0d92c","system_id":"levelo_inurba_marseille","lat":43.23191,"lon":5.39971,"is_reserved":false,"is_disabled":false,"rental_uris":{"android":"levelo://app?vid=0281a9fa-a6a3-4d96-bbdb-496f4ad0d92c","ios":"levelo://app?vid=0281a9fa-a6a3-4d96-bbdb-496f4ad0d92c"},"vehicle_type_id":"4","last_reported":1752995421,"current_range_meters":19200,"station_id":"ce4bhn12rcd13ifvqgqg","pricing_plan_id":"cebpf4jnsgd1na2vs0mg"},{"bike_id":"f4060b56-2254-4534-a1d5-8f84c31b85ec","system_id":"levelo_inurba_marseille","lat":43.28623,"lon":5.3822,"is_reserved":false,"is_disabled":false,"rental_uris":{"android":"levelo://app?vid=f4060b56-2254-4534-a1d5-8f84c31b85ec","ios":"levelo://app?vid=f4060b56-2254-4534-a1d5-8f84c31b85ec"},"vehicle_type_id":"4","last_reported":1752995421,"current_range_meters":19200,"station_id":"","pricing_plan_id":"cebpf4jnsgd1na2vs0mg"},{"bike_id":"054459cc-5be1-4b82-9260-a4f74104380f","system_id":"levelo_inurba_marseille","lat":43.29552,"lon":5.42298,"is_reserved":false,"is_disabled":false,"rental_uris":{"android":"levelo://app?vid=054459cc-5be1-4b82-9260-a4f74104380f","ios":"levelo://app?vid=054459cc-5be1-4b82-9260-a4f74104380f"},"vehicle_type_id":"4","last_reported":1752995421,"current_range_meters":19200,"station_id":"ce4bhph2rcd13ifvqhdg","pricing_plan_id":"cebpf4jnsgd1na2vs0mg"},{"bike_id":"c47c4612-aa9a-40e0-9a78-5da247b20688","system_id":"levelo_inurba_marseille","lat":43.22505,"lon":5.34778,"is_reserved":false,"is_disabled":false,"rental_uris":{"android":"levelo://app?vid=c47c4612-aa9a-40e0-9a78-5da247b20688","ios":"levelo://app?vid=c47c4612-aa9a-40e0-9a78-5da247b20688"},"vehicle_type_id":"4","last_reported":1752995421,"current_range_meters":19200,"station_id":"st_cvj5dfep6f1abm77gieg","pricing_plan_id":"cebpf4jnsgd1na2vs0mg"},{"bike_id":"4aaecf6a-3374-4016-9b91-7da4bd845be2","system_id":"levelo_inurba_marseille","lat":43.3248,"lon":5.365716,"is_reserved":false,"is_disabled":false,"rental_uris":{"android":"levelo://app?vid=4aaecf6a-3374-4016-9b91-7da4bd845be2","ios":"levelo://app?vid=4aaecf6a-3374-4016-9b91-7da4bd845be2"},"vehicle_type_id":"4","last_reported":1752995421,"current_range_meters":19200,"station_id":"ce4bhs12rcd13ifvqhvg","pricing_plan_id":"cebpf4jnsgd1na2vs0mg"},{"bike_id":"02a92174-f388-4305-9367-108df8ee8e39","system_id":"levelo_inurba_marseille","lat":43.251187,"lon":5.403266,"is_reserved":false,"is_disabled":false,"rental_uris":{"android":"levelo://app?vid=02a92174-f388-4305-9367-108df8ee8e39","ios":"levelo://app?vid=02a92174-f388-4305-9367-108df8ee8e39"},"vehicle_type_id":"4","last_reported":1752995421,"current_range_meters":19200,"station_id":"ce4bhlh2rcd13ifvqgig","pricing_plan_id":"cebpf4jnsgd1na2vs0mg"},{"bike_id":"c6f13c59-2793-4a1e-87aa-6f0d71252623","system_id":"levelo_inurba_marseille","lat":43.29899,"lon":5.436671,"is_reserved":false,"is_disabled":false,"rental_uris":{"android":"levelo://app?vid=c6f13c59-2793-4a1e-87aa-6f0d71252623","ios":"levelo://app?vid=c6f13c59-2793-4a1e-87aa-6f0d71252623"},"vehicle_type_id":"4","last_reported":1752995421,"current_range_meters":19600,"station_id":"ce4bhpp2rcd13ifvqhfg","pricing_plan_id":"cebpf4jnsgd1na2vs0mg"},{"bike_id":"d100812f-9e77-4b3a-a11b-18211b570584","system_id":"levelo_inurba_marseille","lat":43.3249,"lon":5.3652,"is_reserved":false,"is_disabled":false,"rental_uris":{"android":"levelo://app?vid=d100812f-9e77-4b3a-a11b-18211b570584","ios":"levelo://app?vid=d100812f-9e77-4b3a-a11b-18211b570584"},"vehicle_type_id":"4","last_reported":1752995421,"current_range_meters":19600,"station_id":"ce4bhs12rcd13ifvqhvg","pricing_plan_id":"cebpf4jnsgd1na2vs0mg"},{"bike_id":"12cc632f-1bd8-4aad-b981-4f9d22374684","system_id":"levelo_inurba_marseille","lat":43.29263,"lon":5.36839,"is_reserved":false,"is_disabled":false,"rental_uris":{"android":"levelo://app?vid=12cc632f-1bd8-4aad-b981-4f9d22374684","ios":"levelo://app?vid=12cc632f-1bd8-4aad-b981-4f9d22374684"},"vehicle_type_id":"4","last_reported":1752995421,"current_range_meters":19600,"station_id":"ce4bhbp2rcd13ifvqesg","pricing_plan_id":"cebpf4jnsgd1na2vs0mg"},{"bike_id":"22291762-a456-4893-9651-61a760232c34","system_id":"levelo_inurba_marseille","lat":43.229365,"lon":5.353838,"is_reserved":false,"is_disabled":false,"rental_uris":{"android":"levelo://app?vid=22291762-a456-4893-9651-61a760232c34","ios":"levelo://app?vid=22291762-a456-4893-9651-61a760232c34"},"vehicle_type_id":"4","last_reported":1752995421,"current_range_meters":19600,"station_id":"cpo3532slgdg3j2ikp40","pricing_plan_id":"cebpf4jnsgd1na2vs0mg"},{"bike_id":"aacc1604-b351-47a4-8a14-228f69963db9","system_id":"levelo_inurba_marseille","lat":43.246716,"lon":5.38157,"is_reserved":false,"is_disabled":false,"rental_uris":{"android":"levelo://app?vid=aacc1604-b351-47a4-8a14-228f69963db9","ios":"levelo://app?vid=aacc1604-b351-47a4-8a14-228f69963db9"},"vehicle_type_id":"4","last_reported":1752995421,"current_range_meters":19600,"station_id":"ce4bhih2rcd13ifvqfr0","pricing_plan_id":"cebpf4jnsgd1na2vs0mg"},{"bike_id":"8ec28e78-3b13-48db-ae3d-be79d08f46d7","system_id":"levelo_inurba_marseille","lat":43.30647,"lon":5.4006,"is_reserved":false,"is_disabled":false,"rental_uris":{"android":"levelo://app?vid=8ec28e78-3b13-48db-ae3d-be79d08f46d7","ios":"levelo://app?vid=8ec28e78-3b13-48db-ae3d-be79d08f46d7"},"vehicle_type_id":"4","last_reported":1752995421,"current_range_meters":20000,"station_id":"ce4bh112rcd13ifvqda0","pricing_plan_id":"cebpf4jnsgd1na2vs0mg"},{"bike_id":"e65ad99b-9b23-4dc5-96a6-51ae7c4aecbe","system_id":"levelo_inurba_marseille","lat":43.29623,"lon":5.37164,"is_reserved":false,"is_disabled":false,"rental_uris":{"android":"levelo://app?vid=e65ad99b-9b23-4dc5-96a6-51ae7c4aecbe","ios":"levelo://app?vid=e65ad99b-9b23-4dc5-96a6-51ae7c4aecbe"},"vehicle_type_id":"4","last_reported":1752995421,"current_range_meters":19600,"station_id":"ce4bgnh2rcd13ifvqc0g","pricing_plan_id":"cebpf4jnsgd1na2vs0mg"},{"bike_id":"48695cfc-3392-4348-bcf7-3d072a2f0d82","system_id":"levelo_inurba_marseille","lat":43.308876,"lon":5.396282,"is_reserved":false,"is_disabled":false,"rental_uris":{"android":"levelo://app?vid=48695cfc-3392-4348-bcf7-3d072a2f0d82","ios":"levelo://app?vid=48695cfc-3392-4348-bcf7-3d072a2f0d82"},"vehicle_type_id":"4","last_reported":1752995421,"current_range_meters":20000,"station_id":"ce4bh012rcd13ifvqcv0","pricing_plan_id":"cebpf4jnsgd1na2vs0mg"},{"bike_id":"cfd4830d-9763-4a13-911f-253209238f56","system_id":"levelo_inurba_marseille","lat":43.28707,"lon":5.37396,"is_reserved":false,"is_disabled":false,"rental_uris":{"android":"levelo://app?vid=cfd4830d-9763-4a13-911f-253209238f56","ios":"levelo://app?vid=cfd4830d-9763-4a13-911f-253209238f56"},"vehicle_type_id":"4","last_reported":1752995421,"current_range_meters":20000,"station_id":"ce4bh3p2rcd13ifvqdq0","pricing_plan_id":"cebpf4jnsgd1na2vs0mg"},{"bike_id":"161aeac3-4d5a-4661-9bae-ad1814bc1661","system_id":"levelo_inurba_marseille","lat":43.22505,"lon":5.347789,"is_reserved":false,"is_disabled":false,"rental_uris":{"android":"levelo://app?vid=161aeac3-4d5a-4661-9bae-ad1814bc1661","ios":"levelo://app?vid=161aeac3-4d5a-4661-9bae-ad1814bc1661"},"vehicle_type_id":"4","last_reported":1752995421,"current_range_meters":20000,"station_id":"","pricing_plan_id":"cebpf4jnsgd1na2vs0mg"},{"bike_id":"ecdd5e30-1286-47e3-8757-f5bc3e32c5cf","system_id":"levelo_inurba_marseille","lat":43.29001,"lon":5.35597,"is_reserved":false,"is_disabled":false,"rental_uris":{"android":"levelo://app?vid=ecdd5e30-1286-47e3-8757-f5bc3e32c5cf","ios":"levelo://app?vid=ecdd5e30-1286-47e3-8757-f5bc3e32c5cf"},"vehicle_type_id":"4","last_reported":1752995421,"current_range_meters":20000,"station_id":"ce4bhb92rcd13ifvqen0","pricing_plan_id":"cebpf4jnsgd1na2vs0mg"},{"bike_id":"141c2bb5-ccf5-4459-ae02-ca4718282772","system_id":"levelo_inurba_marseille","lat":43.30785,"lon":5.43549,"is_reserved":false,"is_disabled":false,"rental_uris":{"android":"levelo://app?vid=141c2bb5-ccf5-4459-ae02-ca4718282772","ios":"levelo://app?vid=141c2bb5-ccf5-4459-ae02-ca4718282772"},"vehicle_type_id":"4","last_reported":1752995421,"current_range_meters":20000,"station_id":"ce4bhph2rcd13ifvqheg","pricing_plan_id":"cebpf4jnsgd1na2vs0mg"},{"bike_id":"b649b339-1977-42cc-86a8-4235021ba156","system_id":"levelo_inurba_marseille","lat":43.21193,"lon":5.35068,"is_reserved":false,"is_disabled":false,"rental_uris":{"android":"levelo://app?vid=b649b339-1977-42cc-86a8-4235021ba156","ios":"levelo://app?vid=b649b339-1977-42cc-86a8-4235021ba156"},"vehicle_type_id":"4","last_reported":1752995421,"current_range_meters":20400,"station_id":"st_cvj6sg6p6f1abm77japg","pricing_plan_id":"cebpf4jnsgd1na2vs0mg"},{"bike_id":"19665075-1169-45a7-af41-9f1c346d2c17","system_id":"levelo_inurba_marseille","lat":43.239598,"lon":5.366254,"is_reserved":false,"is_disabled":true,"rental_uris":{"android":"levelo://app?vid=19665075-1169-45a7-af41-9f1c346d2c17","ios":"levelo://app?vid=19665075-1169-45a7-af41-9f1c346d2c17"},"vehicle_type_id":"4","last_reported":1752995421,"current_range_meters":20400,"station_id":"ce4bhi12rcd13ifvqfp0","pricing_plan_id":"cebpf4jnsgd1na2vs0mg"},{"bike_id":"5c7cfd38-807b-4bef-9c5d-c2f0c95ce8df","system_id":"levelo_inurba_marseille","lat":43.225006,"lon":5.347793,"is_reserved":false,"is_disabled":false,"rental_uris":{"android":"levelo://app?vid=5c7cfd38-807b-4bef-9c5d-c2f0c95ce8df","ios":"levelo://app?vid=5c7cfd38-807b-4bef-9c5d-c2f0c95ce8df"},"vehicle_type_id":"4","last_reported":1752995421,"current_range_meters":20400,"station_id":"st_cvj5dfep6f1abm77gieg","pricing_plan_id":"cebpf4jnsgd1na2vs0mg"},{"bike_id":"0c1abe6b-d980-405f-a710-1dae35510659","system_id":"levelo_inurba_marseille","lat":43.247434,"lon":5.411697,"is_reserved":false,"is_disabled":false,"rental_uris":{"android":"levelo://app?vid=0c1abe6b-d980-405f-a710-1dae35510659","ios":"levelo://app?vid=0c1abe6b-d980-405f-a710-1dae35510659"},"vehicle_type_id":"4","last_reported":1752995421,"current_range_meters":20400,"station_id":"","pricing_plan_id":"cebpf4jnsgd1na2vs0mg"},{"bike_id":"09aa2053-b3ad-40d1-beee-5e97dc687ea0","system_id":"levelo_inurba_marseille","lat":43.28929,"lon":5.36619,"is_reserved":false,"is_disabled":false,"rental_uris":{"android":"levelo://app?vid=09aa2053-b3ad-40d1-beee-5e97dc687ea0","ios":"levelo://app?vid=09aa2053-b3ad-40d1-beee-5e97dc687ea0"},"vehicle_type_id":"4","last_reported":1752995421,"current_range_meters":20400,"station_id":"ce4bhap2rcd13ifvqek0","pricing_plan_id":"cebpf4jnsgd1na2vs0mg"},{"bike_id":"cf00868c-691d-4ef2-90d6-7c211f7372ff","system_id":"levelo_inurba_marseille","lat":43.31695,"lon":5.40475,"is_reserved":false,"is_disabled":false,"rental_uris":{"android":"levelo://app?vid=cf00868c-691d-4ef2-90d6-7c211f7372ff","ios":"levelo://app?vid=cf00868c-691d-4ef2-90d6-7c211f7372ff"},"vehicle_type_id":"4","last_reported":1752995421,"current_range_meters":20400,"station_id":"ce4bh012rcd13ifvqd00","pricing_plan_id":"cebpf4jnsgd1na2vs0mg"},{"bike_id":"9730fae3-5668-4fa8-aa98-3189373117fb","system_id":"levelo_inurba_marseille","lat":43.22496,"lon":5.34803,"is_reserved":false,"is_disabled":false,"rental_uris":{"android":"levelo://app?vid=9730fae3-5668-4fa8-aa98-3189373117fb","ios":"levelo://app?vid=9730fae3-5668-4fa8-aa98-3189373117fb"},"vehicle_type_id":"4","last_reported":1752995421,"current_range_meters":20400,"station_id":"st_cvj5dfep6f1abm77gieg","pricing_plan_id":"cebpf4jnsgd1na2vs0mg"},{"bike_id":"542162b4-b134-4496-b1df-7265265ad13a","system_id":"levelo_inurba_marseille","lat":43.29693,"lon":5.37303,"is_reserved":false,"is_disabled":false,"rental_uris":{"android":"levelo://app?vid=542162b4-b134-4496-b1df-7265265ad13a","ios":"levelo://app?vid=542162b4-b134-4496-b1df-7265265ad13a"},"vehicle_type_id":"4","last_reported":1752995421,"current_range_meters":20000,"station_id":"ce4bgk12rcd13ifvqbj0","pricing_plan_id":"cebpf4jnsgd1na2vs0mg"},{"bike_id":"78bcd778-8088-4038-a043-6c07672a1f85","system_id":"levelo_inurba_marseille","lat":43.24179,"lon":5.3972,"is_reserved":false,"is_disabled":false,"rental_uris":{"android":"levelo://app?vid=78bcd778-8088-4038-a043-6c07672a1f85","ios":"levelo://app?vid=78bcd778-8088-4038-a043-6c07672a1f85"},"vehicle_type_id":"4","last_reported":1752995421,"current_range_meters":20400,"station_id":"ce4bhn12rcd13ifvqgpg","pricing_plan_id":"cebpf4jnsgd1na2vs0mg"},