{"last_updated":1751533945,"ttl":60,"version":"2.2","data":{"bikes":[{"bike_id":"3da29fb8-fc97-44c6-b9ac-31dd456b2fd4","system_id":"levelo_inurba_marseille","lat":43.33771,"lon":5.37424,"is_reserved":false,"is_disabled":true,"rental_uris":{"android":"levelo://app?vid=3da29fb8-fc97-44c6-b9ac-31dd456b2fd4","ios":"levelo://app?vid=3da29fb8-fc97-44c6-b9ac-31dd456b2fd4"},"vehicle_type_id":"4","last_reported":1751533945,"current_range_meters":0,"station_id":"","pricing_plan_id":"cebpf4jnsgd1na2vs0mg"},{"bike_id":"01861ad8-a8d7-4be6-816e-651927c87584","system_id":"levelo_inurba_marseille","lat":43.33751,"lon":5.37456,"is_reserved":false,"is_disabled":true,"rental_uris":{"android":"levelo://app?vid=01861ad8-a8d7-4be6-816e-651927c87584","ios":"levelo://app?vid=01861ad8-a8d7-4be6-816e-651927c87584"},"vehicle_type_id":"4","last_reported":1751533945,"current_range_meters":0,"station_id":"","pricing_plan_id":"cebpf4jnsgd1na2vs0mg"},{"bike_id":"34525e0e-88eb-4fe8-be83-e19f0f1185d3","system_id":"levelo_inurba_marseille","lat":43.22583,"lon":5.34852,"is_reserved":false,"is_disabled":true,"rental_uris":{"android":"levelo://app?vid=34525e0e-88eb-4fe8-be83-e19f0f1185d3","ios":"levelo://app?vid=34525e0e-88eb-4fe8-be83-e19f0f1185d3"},"vehicle_type_id":"4","last_reported":1751533945,"current_range_meters":0,"station_id":"","pricing_plan_id":"cebpf4jnsgd1na2vs0mg"},{"bike_id":"942c1066-b367-4e59-b0ad-f0a160b51d6f","system_id":"levelo_inurba_marseille","lat":43.26567,"lon":5.39486,"is_reserved":false,"is_disabled":true,"rental_uris":{"android":"levelo://app?vid=942c1066-b367-4e59-b0ad-f0a160b51d6f","ios":"levelo://app?vid=942c1066-b367-4e59-b0ad-f0a160b51d6f"},"vehicle_type_id":"4","last_reported":1751533945,"current_range_meters":0,"station_id":"","pricing_plan_id":"cebpf4jnsgd1na2vs0mg"},{"bike_id":"d03be021-0674-4e58-a0fa-624f747a8556","system_id":"levelo_inurba_marseille","lat":43.27201,"lon":5.3918,"is_reserved":false,"is_disabled":true,"rental_uris":{"android":"levelo://app?vid=d03be021-0674-4e58-a0fa-624f747a8556","ios":"levelo://app?vid=d03be021-0674-4e58-a0fa-624f747a8556"},"vehicle_type_id":"4","last_reported":1751533945,"current_range_meters":0,"station_id":"","pricing_plan_id":"cebpf4jnsgd1na2vs0mg"},{"bike_id":"6e5b5a4d-1ee5-4068-9613-fb44ab4d8a9a","system_id":"levelo_inurba_marseille","lat":43.34843,"lon":5.34711,"is_reserved":false,"is_disabled":true,"rental_uris":{"android":"levelo://app?vid=6e5b5a4d-1ee5-4068-9613-fb44ab4d8a9a","ios":"levelo://app?vid=6e5b5a4d-1ee5-4068-9613-fb44ab4d8a9a"},"vehicle_type_id":"4","last_reported":1751533945,"current_range_meters":0,"station_id":"","pricing_plan_id":"cebpf4jnsgd1na2vs0mg"},{"bike_id":"88ba2eb8-6abc-42f0-a2b7-fafab863863b","system_id":"levelo_inurba_marseille","lat":43.26107,"lon":5.37338,"is_reserved":false,"is_disabled":true,"rental_uris":{"android":"levelo://app?vid=88ba2eb8-6abc-42f0-a2b7-fafab863863b","ios":"levelo://app?vid=88ba2eb8-6abc-42f0-a2b7-fafab863863b"},"vehicle_type_id":"4","last_reported":1751533945,"current_range_meters":0,"station_id":"","pricing_plan_id":"cebpf4jnsgd1na2vs0mg"},{"bike_id":"5fe1f33a-ebc4-4182-b521-7ef3eadc1773","system_id":"levelo_inurba_marseille","lat":43.268745,"lon":5.368705,"is_reserved":false,"is_disabled":true,"rental_uris":{"android":"levelo://app?vid=5fe1f33a-ebc4-4182-b521-7ef3eadc1773","ios":"levelo://app?vid=5fe1f33a-ebc4-4182-b521-7ef3eadc1773"},"vehicle_type_id":"4","last_reported":1751533945,"current_range_meters":0,"station_id":"","pricing_plan_id":"cebpf4jnsgd1na2vs0mg"},{"bike_id":"e198fdcc-cd13-4de1-8bde-5dc6dca16ab0","system_id":"levelo_inurba_marseille","lat":43.31072,"lon":5.38358,"is_reserved":false,"is_disabled":true,"rental_uris":{"android":"levelo://app?vid=e198fdcc-cd13-4de1-8bde-5dc6dca16ab0","ios":"levelo://app?vid=e198fdcc-cd13-4de1-8bde-5dc6dca16ab0"},"vehicle_type_id":"4","last_reported":1751533945,"current_range_meters":0,"station_id":"ce4bgv92rcd13ifvqcr0","pricing_plan_id":"cebpf4jnsgd1na2vs0mg"},{"bike_id":"38604630-5853-490d-914c-affeab81e001","system_id":"levelo_inurba_marseille","lat":43.30323,"lon":5.40431,"is_reserved":false,"is_disabled":true,"rental_uris":{"android":"levelo://app?vid=38604630-5853-490d-914c-affeab81e001","ios":"levelo://app?vid=38604630-5853-490d-914c-affeab81e001"},"vehicle_type_id":"4","last_reported":1751533945,"current_range_meters":0,"station_id":"ce4bh012rcd13ifvqd10","pricing_plan_id":"cebpf4jnsgd1na2vs0mg"},{"bike_id":"aaf15621-870c-4a8a-bf5f-f61abfe53c6f","system_id":"levelo_inurba_marseille","lat":43.27209,"lon":5.391869,"is_reserved":false,"is_disabled":true,"rental_uris":{"android":"levelo://app?vid=aaf15621-870c-4a8a-bf5f-f61abfe53c6f","ios":"levelo://app?vid=aaf15621-870c-4a8a-bf5f-f61abfe53c6f"},"vehicle_type_id":"4","last_reported":1751533945,"current_range_meters":0,"station_id":"ce4bhhp2rcd13ifvqfm0","pricing_plan_id":"cebpf4jnsgd1na2vs0mg"},{"bike_id":"a3f6229e-3cac-4544-b3ff-dcaceba44ad9","system_id":"levelo_inurba_marseille","lat":43.272163,"lon":5.391798,"is_reserved":false,"is_disabled":true,"rental_uris":{"android":"levelo://app?vid=a3f6229e-3cac-4544-b3ff-dcaceba44ad9","ios":"levelo://app?vid=a3f6229e-3cac-4544-b3ff-dcaceba44ad9"},"vehicle_type_id":"4","last_reported":1751533945,"current_range_meters":0,"station_id":"ce4bhhp2rcd13ifvqfm0","pricing_plan_id":"cebpf4jnsgd1na2vs0mg"},{"bike_id":"45a36d42-3f75-4451-929c-2980bab85fb7","system_id":"levelo_inurba_marseille","lat":43.23152,"lon":5.43706,"is_reserved":false,"is_disabled":true,"rental_uris":{"android":"levelo://app?vid=45a36d42-3f75-4451-929c-2980bab85fb7","ios":"levelo://app?vid=45a36d42-3f75-4451-929c-2980bab85fb7"},"vehicle_type_id":"4","last_reported":1751533945,"current_range_meters":0,"station_id":"ce4bhmp2rcd13ifvqgog","pricing_plan_id":"cebpf4jnsgd1na2vs0mg"},{"bike_id":"7e39ea07-3ec1-4f66-8d21-89c3fc316912","system_id":"levelo_inurba_marseille","lat":43.31725,"lon":5.42391,"is_reserved":false,"is_disabled":true,"rental_uris":{"android":"levelo://app?vid=7e39ea07-3ec1-4f66-8d21-89c3fc316912","ios":"levelo://app?vid=7e39ea07-3ec1-4f66-8d21-89c3fc316912"},"vehicle_type_id":"4","last_reported":1751533945,"current_range_meters":0,"station_id":"ce4bhp92rcd13ifvqhbg","pricing_plan_id":"cebpf4jnsgd1na2vs0mg"},{"bike_id":"cbab8e8e-76d8-4b25-9f75-190c476c076a","system_id":"levelo_inurba_marseille","lat":43.33574,"lon":5.41021,"is_reserved":false,"is_disabled":true,"rental_uris":{"android":"levelo://app?vid=cbab8e8e-76d8-4b25-9f75-190c476c076a","ios":"levelo://app?vid=cbab8e8e-76d8-4b25-9f75-190c476c076a"},"vehicle_type_id":"4","last_reported":1751533945,"current_range_meters":0,"station_id":"ce4bhqh2rcd13ifvqhmg","pricing_plan_id":"cebpf4jnsgd1na2vs0mg"},{"bike_id":"be4771a0-f822-40f0-a95c-2aaca1d3fb3c","system_id":"levelo_inurba_marseille","lat":43.2177,"lon":5.34594,"is_reserved":false,"is_disabled":true,"rental_uris":{"android":"levelo://app?vid=be4771a0-f822-40f0-a95c-2aaca1d3fb3c","ios":"levelo://app?vid=be4771a0-f822-40f0-a95c-2aaca1d3fb3c"},"vehicle_type_id":"4","last_reported":1751533945,"current_range_meters":0,"station_id":"st_cvj6r9ubvosntc0bgbag","pricing_plan_id":"cebpf4jnsgd1na2vs0mg"},{"bike_id":"73fe94e8-74f9-41f0-85e9-7d8c52adf2fc","system_id":"levelo_inurba_marseille","lat":43.21191,"lon":5.35069,"is_reserved":false,"is_disabled":true,"rental_uris":{"android":"levelo://app?vid=73fe94e8-74f9-41f0-85e9-7d8c52adf2fc","ios":"levelo://app?vid=73fe94e8-74f9-41f0-85e9-7d8c52adf2fc"},"vehicle_type_id":"4","last_reported":1751533945,"current_range_meters":0,"station_id":"st_cvj6sg6p6f1abm77japg","pricing_plan_id":"cebpf4jnsgd1na2vs0mg"},{"bike_id":"33839a77-e9b6-47d3-b85e-5bb86cf94e80","system_id":"levelo_inurba_marseille","lat":43.30679,"lon":5.39488,"is_reserved":false,"is_disabled":true,"rental_uris":{"android":"levelo://app?vid=33839a77-e9b6-47d3-b85e-5bb86cf94e80","ios":"levelo://app?vid=33839a77-e9b6-47d3-b85e-5bb86cf94e80"},"vehicle_type_id":"4","last_reported":1751533945,"current_range_meters":400,"station_id":"","pricing_plan_id":"cebpf4jnsgd1na2vs0mg"},{"bike_id":"02d8f484-20a3-489a-8da6-ddfd9e4cd821","system_id":"levelo_inurba_marseille","lat":43.27373,"lon":5.36262,"is_reserved":false,"is_disabled":true,"rental_uris":{"android":"levelo://app?vid=02d8f484-20a3-489a-8da6-ddfd9e4cd821","ios":"levelo://app?vid=02d8f484-20a3-489a-8da6-ddfd9e4cd821"},"vehicle_type_id":"4","last_reported":1751533945,"current_range_meters":400,"station_id":"ce4bhbh2rcd13ifvqeo0","pricing_plan_id":"cebpf4jnsgd1na2vs0mg"},{"bike_id":"9795e511-4f68-494d-9846-41f87f5dd923","system_id":"levelo_inurba_marseille","lat":43.225029,"lon":5.347795,"is_reserved":false,"is_disabled":true,"rental_uris":{"android":"levelo://app?vid=9795e511-4f68-494d-9846-41f87f5dd923","ios":"levelo://app?vid=9795e511-4f68-494d-9846-41f87f5dd923"},"vehicle_type_id":"4","last_reported":1751533945,"current_range_meters":400,"station_id":"st_cvj5dfep6f1abm77gieg","pricing_plan_id":"cebpf4jnsgd1na2vs0mg"},{"bike_id":"8e365e3c-559a-4ba6-a6c5-4c159e2434fc","system_id":"levelo_inurba_marseille","lat":43.21753,"lon":5.34605,"is_reserved":false,"is_disabled":true,"rental_uris":{"android":"levelo://app?vid=8e365e3c-559a-4ba6-a6c5-4c159e2434fc","ios":"levelo://app?vid=8e365e3c-559a-4ba6-a6c5-4c159e2434fc"},"vehicle_type_id":"4","last_reported":1751533945,"current_range_meters":800,"station_id":"","pricing_plan_id":"cebpf4jnsgd1na2vs0mg"},{"bike_id":"52342439-f91b-4ba6-b267-132e88b3d117","system_id":"levelo_inurba_marseille","lat":43.29367,"lon":5.37858,"is_reserved":false,"is_disabled":true,"rental_uris":{"android":"levelo://app?vid=52342439-f91b-4ba6-b267-132e88b3d117","ios":"levelo://app?vid=52342439-f91b-4ba6-b267-132e88b3d117"},"vehicle_type_id":"4","last_reported":1751533945,"current_range_meters":800,"station_id":"ce4bgjh2rcd13ifvqbf0","pricing_plan_id":"cebpf4jnsgd1na2vs0mg"},{"bike_id":"b283353b-6ef1-4247-8c75-43811435569b","system_id":"levelo_inurba_marseille","lat":43.27328,"lon":5.3908,"is_reserved":false,"is_disabled":true,"rental_uris":{"android":"levelo://app?vid=b283353b-6ef1-4247-8c75-43811435569b","ios":"levelo://app?vid=b283353b-6ef1-4247-8c75-43811435569b"},"vehicle_type_id":"4","last_reported":1751533945,"current_range_meters":1200,"station_id":"ce4bhgp2rcd13ifvqfe0","pricing_plan_id":"cebpf4jnsgd1na2vs0mg"},{"bike_id":"6cda36b2-9a05-4f3c-b61b-cb2742b3422f","system_id":"levelo_inurba_marseille","lat":43.27218,"lon":5.39178,"is_reserved":false,"is_disabled":true,"rental_uris":{"android":"levelo://app?vid=6cda36b2-9a05-4f3c-b61b-cb2742b3422f","ios":"levelo://app?vid=6cda36b2-9a05-4f3c-b61b-cb2742b3422f"},"vehicle_type_id":"4","last_reported":1751533945,"current_range_meters":1200,"station_id":"ce4bhhp2rcd13ifvqfm0","pricing_plan_id":"cebpf4jnsgd1na2vs0mg"},{"bike_id":"c077b828-a2a6-46af-afee-b8f1e5503f43","system_id":"levelo_inurba_marseille","lat":43.23188,"lon":5.35549,"is_reserved":false,"is_disabled":true,"rental_uris":{"android":"levelo://app?vid=c077b828-a2a6-46af-afee-b8f1e5503f43","ios":"levelo://app?vid=c077b828-a2a6-46af-afee-b8f1e5503f43"},"vehicle_type_id":"4","last_reported":1751533945,"current_range_meters":1200,"station_id":"ce4bhu92rcd13ifvqi70","pricing_plan_id":"cebpf4jnsgd1na2vs0mg"},{"bike_id":"07062f56-5e11-4102-b379-9ef19aa99cdf","system_id":"levelo_inurba_marseille","lat":43.3169,"lon":5.40475,"is_reserved":false,"is_disabled":true,"rental_uris":{"android":"levelo://app?vid=07062f56-5e11-4102-b379-9ef19aa99cdf","ios":"levelo://app?vid=07062f56-5e11-4102-b379-9ef19aa99cdf"},"vehicle_type_id":"4","last_reported":1751533945,"current_range_meters":1600,"station_id":"ce4bh012rcd13ifvqd00","pricing_plan_id":"cebpf4jnsgd1na2vs0mg"},{"bike_id":"75d0a17c-d0c5-45e5-9632-3722a87e82d5","system_id":"levelo_inurba_marseille","lat":43.32123,"lon":5.36766,"is_reserved":false,"is_disabled":true,"rental_uris":{"android":"levelo://app?vid=75d0a17c-d0c5-45e5-9632-3722a87e82d5","ios":"levelo://app?vid=75d0a17c-d0c5-45e5-9632-3722a87e82d5"},"vehicle_type_id":"4","last_reported":1751533945,"current_range_meters":1600,"station_id":"ce4bhrh2rcd13ifvqhug","pricing_plan_id":"cebpf4jnsgd1na2vs0mg"},{"bike_id":"549da906-aa6c-49c1-8ac0-c4fe94227578","system_id":"levelo_inurba_marseille","lat":43.25127,"lon":5.40321,"is_reserved":false,"is_disabled":true,"rental_uris":{"android":"levelo://app?vid=549da906-aa6c-49c1-8ac0-c4fe94227578","ios":"levelo://app?vid=549da906-aa6c-49c1-8ac0-c4fe94227578"},"vehicle_type_id":"4","last_reported":1751533945,"current_range_meters":2000,"station_id":"ce4bhlh2rcd13ifvqgig","pricing_plan_id":"cebpf4jnsgd1na2vs0mg"},{"bike_id":"f334b28f-e3c2-454d-9ab8-93fa76fabb4c","system_id":"levelo_inurba_marseille","lat":43.29791,"lon":5.39338,"is_reserved":false,"is_disabled":false,"rental_uris":{"android":"levelo://app?vid=f334b28f-e3c2-454d-9ab8-93fa76fabb4c","ios":"levelo://app?vid=f334b28f-e3c2-454d-9ab8-93fa76fabb4c"},"vehicle_type_id":"4","last_reported":1751533945,"current_range_meters":3200,"station_id":"chh1huq6cuj3fo74tm60","pricing_plan_id":"cebpf4jnsgd1na2vs0mg"},{"bike_id":"899b5f43-f368-426c-bd4a-6980d36dcac6","system_id":"levelo_inurba_marseille","lat":43.29285,"lon":5.37632,"is_reserved":false,"is_disabled":false,"rental_uris":{"android":"levelo://app?vid=899b5f43-f368-426c-bd4a-6980d36dcac6","ios":"levelo://app?vid=899b5f43-f368-426c-bd4a-6980d36dcac6"},"vehicle_type_id":"4","last_reported":1751533945,"current_range_meters":3600,"station_id":"ce4bgi12rcd13ifvqb80","pricing_plan_id":"cebpf4jnsgd1na2vs0mg"},{"bike_id":"a1602909-a677-414b-ad06-4d0892880c6d","system_id":"levelo_inurba_marseille","lat":43.25932,"lon":5.40906,"is_reserved":false,"is_disabled":false,"rental_uris":{"android":"levelo://app?vid=a1602909-a677-414b-ad06-4d0892880c6d","ios":"levelo://app?vid=a1602909-a677-414b-ad06-4d0892880c6d"},"vehicle_type_id":"4","last_reported":1751533945,"current_range_meters":3600,"station_id":"ce4bhm92rcd13ifvqglg","pricing_plan_id":"cebpf4jnsgd1na2vs0mg"},{"bike_id":"3ff1d665-3643-4aa3-8479-91f1a518fb0e","system_id":"levelo_inurba_marseille","lat":43.276183,"lon":5.39957,"is_reserved":false,"is_disabled":false,"rental_uris":{"android":"levelo://app?vid=3ff1d665-3643-4aa3-8479-91f1a518fb0e","ios":"levelo://app?vid=3ff1d665-3643-4aa3-8479-91f1a518fb0e"},"vehicle_type_id":"4","last_reported":1751533945,"current_range_meters":3600,"station_id":"cjm6bp8fraef2m0cb0m0","pricing_plan_id":"cebpf4jnsgd1na2vs0mg"},{"bike_id":"3171c720-c684-4a95-8c6a-ab128f5d1044","system_id":"levelo_inurba_marseille","lat":43.31378,"lon":5.36724,"is_reserved":false,"is_disabled":false,"rental_uris":{"android":"levelo://app?vid=3171c720-c684-4a95-8c6a-ab128f5d1044","ios":"levelo://app?vid=3171c720-c684-4a95-8c6a-ab128f5d1044"},"vehicle_type_id":"4","last_reported":1751533945,"current_range_meters":4400,"station_id":"ce4bgr92rcd13ifvqc6g","pricing_plan_id":"cebpf4jnsgd1na2vs0mg"},{"bike_id":"ca5e44b1-c281-4ae5-a249-1b3d5871dab6","system_id":"levelo_inurba_marseille","lat":43.30087,"lon":5.39083,"is_reserved":false,"is_disabled":false,"rental_uris":{"android":"levelo://app?vid=ca5e44b1-c281-4ae5-a249-1b3d5871dab6","ios":"levelo://app?vid=ca5e44b1-c281-4ae5-a249-1b3d5871dab6"},"vehicle_type_id":"4","last_reported":1751533945,"current_range_meters":4400,"station_id":"ce4bh192rcd13ifvqdb0","pricing_plan_id":"cebpf4jnsgd1na2vs0mg"},{"bike_id":"b142f2f8-2f37-442c-8a5a-2268e489fb45","system_id":"levelo_inurba_marseille","lat":43.25936,"lon":5.40907,"is_reserved":false,"is_disabled":false,"rental_uris":{"android":"levelo://app?vid=b142f2f8-2f37-442c-8a5a-2268e489fb45","ios":"levelo://app?vid=b142f2f8-2f37-442c-8a5a-2268e489fb45"},"vehicle_type_id":"4","last_reported":1751533945,"current_range_meters":4400,"station_id":"ce4bhm92rcd13ifvqglg","pricing_plan_id":"cebpf4jnsgd1na2vs0mg"},{"bike_id":"ad07d3e1-f48c-4e7c-a0df-825fe7f65ef8","system_id":"levelo_inurba_marseille","lat":43.29309,"lon":5.37171,"is_reserved":false,"is_disabled":false,"rental_uris":{"android":"levelo://app?vid=ad07d3e1-f48c-4e7c-a0df-825fe7f65ef8","ios":"levelo://app?vid=ad07d3e1-f48c-4e7c-a0df-825fe7f65ef8"},"vehicle_type_id":"4","last_reported":1751533945,"current_range_meters":4800,"station_id":"ce4bgh92rcd13ifvqb40","pricing_plan_id":"cebpf4jnsgd1na2vs0mg"},{"bike_id":"dce9a7f1-f394-4fe1-848c-00f9139aa3fc","system_id":"levelo_inurba_marseille","lat":43.30142,"lon":5.3878,"is_reserved":false,"is_disabled":false,"rental_uris":{"android":"levelo://app?vid=dce9a7f1-f394-4fe1-848c-00f9139aa3fc","ios":"levelo://app?vid=dce9a7f1-f394-4fe1-848c-00f9139aa3fc"},"vehicle_type_id":"4","last_reported":1751533945,"current_range_meters":4800,"station_id":"ce4bghh2rcd13ifvqb60","pricing_plan_id":"cebpf4jnsgd1na2vs0mg"},{"bike_id":"4b5a3d63-7a0d-46c6-80b6-35b6a381ae07","system_id":"levelo_inurba_marseille","lat":43.31203,"lon":5.38725,"is_reserved":false,"is_disabled":false,"rental_uris":{"android":"levelo://app?vid=4b5a3d63-7a0d-46c6-80b6-35b6a381ae07","ios":"levelo://app?vid=4b5a3d63-7a0d-46c6-80b6-35b6a381ae07"},"vehicle_type_id":"4","last_reported":1751533945,"current_range_meters":4800,"station_id":"ce4bgv12rcd13ifvqcp0","pricing_plan_id":"cebpf4jnsgd1na2vs0mg"},{"bike_id":"f01bc8f1-adbd-4ce7-b1a0-7a0fa10b7efb","system_id":"levelo_inurba_marseille","lat":43.33034,"lon":5.39064,"is_reserved":false,"is_disabled":false,"rental_uris":{"android":"levelo://app?vid=f01bc8f1-adbd-4ce7-b1a0-7a0fa10b7efb","ios":"levelo://app?vid=f01bc8f1-adbd-4ce7-b1a0-7a0fa10b7efb"},"vehicle_type_id":"4","last_reported":1751533945,"current_range_meters":4800,"station_id":"ce4bhr92rcd13ifvqhrg","pricing_plan_id":"cebpf4jnsgd1na2vs0mg"},{"bike_id":"cf118203-dfba-4a72-8f47-668c562e2473","system_id":"levelo_inurba_marseille","lat":43.31356,"lon":5.36711,"is_reserved":false,"is_disabled":false,"rental_uris":{"android":"levelo://app?vid=cf118203-dfba-4a72-8f47-668c562e2473","ios":"levelo://app?vid=cf118203-dfba-4a72-8f47-668c562e2473"},"vehicle_type_id":"4","last_reported":1751533945,"current_range_meters":5600,"station_id":"ce4bgr92rcd13ifvqc6g","pricing_plan_id":"cebpf4jnsgd1na2vs0mg"},{"bike_id":"edfaaa10-f501-4f03-a76c-660d1ee91efe","system_id":"levelo_inurba_marseille","lat":43.29882,"lon":5.38893,"is_reserved":false,"is_disabled":false,"rental_uris":{"android":"levelo://app?vid=edfaaa10-f501-4f03-a76c-660d1ee91efe","ios":"levelo://app?vid=edfaaa10-f501-4f03-a76c-660d1ee91efe"},"vehicle_type_id":"4","last_reported":1751533945,"current_range_meters":5600,"station_id":"ce4bh392rcd13ifvqdl0","pricing_plan_id":"cebpf4jnsgd1na2vs0mg"},{"bike_id":"4792b17c-c917-4b11-a8f3-6466f0a03dc8","system_id":"levelo_inurba_marseille","lat":43.23144,"lon":5.43721,"is_reserved":false,"is_disabled":false,"rental_uris":{"android":"levelo://app?vid=4792b17c-c917-4b11-a8f3-6466f0a03dc8","ios":"levelo://app?vid=4792b17c-c917-4b11-a8f3-6466f0a03dc8"},"vehicle_type_id":"4","last_reported":1751533945,"current_range_meters":5600,"station_id":"ce4bhmp2rcd13ifvqgog","pricing_plan_id":"cebpf4jnsgd1na2vs0mg"},{"bike_id":"8becf1b9-b72c-4763-a062-bbd587ae45bf","system_id":"levelo_inurba_marseille","lat":43.326062,"lon":5.425377,"is_reserved":false,"is_disabled":false,"rental_uris":{"android":"levelo://app?vid=8becf1b9-b72c-4763-a062-bbd587ae45bf","ios":"levelo://app?vid=8becf1b9-b72c-4763-a062-bbd587ae45bf"},"vehicle_type_id":"4","last_reported":1751533945,"current_range_meters":6000,"station_id":"","pricing_plan_id":"cebpf4jnsgd1na2vs0mg"},{"bike_id":"323016ac-ad41-496e-9c5f-4414cb2ac532","system_id":"levelo_inurba_marseille","lat":43.28156,"lon":5.42644,"is_reserved":false,"is_disabled":false,"rental_uris":{"android":"levelo://app?vid=323016ac-ad41-496e-9c5f-4414cb2ac532","ios":"levelo://app?vid=323016ac-ad41-496e-9c5f-4414cb2ac532"},"vehicle_type_id":"4","last_reported":1751533945,"current_range_meters":6000,"station_id":"ce4bhnh2rcd13ifvqgug","pricing_plan_id":"cebpf4jnsgd1na2vs0mg"},{"bike_id":"cba5b54b-79c5-4b17-abe0-2f4e94c57b41","system_id":"levelo_inurba_marseille","lat":43.28076,"lon":5.34771,"is_reserved":false,"is_disabled":false,"rental_uris":{"android":"levelo://app?vid=cba5b54b-79c5-4b17-abe0-2f4e94c57b41","ios":"levelo://app?vid=cba5b54b-79c5-4b17-abe0-2f4e94c57b41"},"vehicle_type_id":"4","last_reported":1751533945,"current_range_meters":6400,"station_id":"","pricing_plan_id":"cebpf4jnsgd1na2vs0mg"},{"bike_id":"9a41f312-d6d8-4c72-a42f-1d9f3361e168","system_id":"levelo_inurba_marseille","lat":43.28267,"lon":5.35102,"is_reserved":false,"is_disabled":false,"rental_uris":{"android":"levelo://app?vid=9a41f312-d6d8-4c72-a42f-1d9f3361e168","ios":"levelo://app?vid=9a41f312-d6d8-4c72-a42f-1d9f3361e168"},"vehicle_type_id":"4","last_reported":1751533945,"current_range_meters":6400,"station_id":"ce4bhbp2rcd13ifvqerg","pricing_plan_id":"cebpf4jnsgd1na2vs0mg"},{"bike_id":"50bd78bd-5e3c-43fd-b5e8-800f6751f469","system_id":"levelo_inurba_marseille","lat":43.28618,"lon":5.35104,"is_reserved":false,"is_disabled":false,"rental_uris":{"android":"levelo://app?vid=50bd78bd-5e3c-43fd-b5e8-800f6751f469","ios":"levelo://app?vid=50bd78bd-5e3c-43fd-b5e8-800f6751f469"},"vehicle_type_id":"4","last_reported":1751533945,"current_range_meters":6400,"station_id":"ce4bhch2rcd13ifvqeug","pricing_plan_id":"cebpf4jnsgd1na2vs0mg"},{"bike_id":"88f0d88a-1dec-4977-a19a-71293da7fba4","system_id":"levelo_inurba_marseille","lat":43.32367,"lon":5.36745,"is_reserved":false,"is_disabled":false,"rental_uris":{"android":"levelo://app?vid=88f0d88a-1dec-4977-a19a-71293da7fba4","ios":"levelo://app?vid=88f0d88a-1dec-4977-a19a-71293da7fba4"},"vehicle_type_id":"4","last_reported":1751533945,"current_range_meters":6800,"station_id":"ce4bhsh2rcd13ifvqi2g","pricing_plan_id":"cebpf4jnsgd1na2vs0mg"},{"bike_id":"3fbceb20-d877-411e-a90d-f13a05e02fc6","system_id":"levelo_inurba_marseille","lat":43.30351,"lon":5.37929,"is_reserved":false,"is_disabled":false,"rental_uris":{"android":"levelo://app?vid=3fbceb20-d877-411e-a90d-f13a05e02fc6","ios":"levelo://app?vid=3fbceb20-d877-411e-a90d-f13a05e02fc6"},"vehicle_type_id":"4","last_reported":1751533945,"current_range_meters":7200,"station_id":"","pricing_plan_id":"cebpf4jnsgd1na2vs0mg"},{"bike_id":"2f8f129f-5409-4784-b6af-72285c4b945a","system_id":"levelo_inurba_marseille","lat":43.25003,"lon":5.38935,"is_reserved":false,"is_disabled":false,"rental_uris":{"android":"levelo://app?vid=2f8f129f-5409-4784-b6af-72285c4b945a","ios":"levelo://app?vid=2f8f129f-5409-4784-b6af-72285c4b945a"},"vehicle_type_id":"4","last_reported":1751533945,"current_range_meters":7200,"station_id":"ce4bhgp2rcd13ifvqfd0","pricing_plan_id":"cebpf4jnsgd1na2vs0mg"},{"bike_id":"5bd83b71-0bef-44f6-bee6-8d941ba1aa6a","system_id":"levelo_inurba_marseille","lat":43.30796,"lon":5.3816,"is_reserved":false,"is_disabled":false,"rental_uris":{"android":"levelo://app?vid=5bd83b71-0bef-44f6-bee6-8d941ba1aa6a","ios":"levelo://app?vid=5bd83b71-0bef-44f6-bee6-8d941ba1aa6a"},"vehicle_type_id":"4","last_reported":1751533945,"current_range_meters":8000,"station_id":"ce4bgt12rcd13ifvqce0","pricing_plan_id":"cebpf4jnsgd1na2vs0mg"},{"bike_id":"63a95d03-9b9a-46f3-9fe8-36ba5f97e242","system_id":"levelo_inurba_marseille","lat":43.29794,"lon":5.39336,"is_reserved":false,"is_disabled":false,"rental_uris":{"android":"levelo://app?vid=63a95d03-9b9a-46f3-9fe8-36ba5f97e242","ios":"levelo://app?vid=63a95d03-9b9a-46f3-9fe8-36ba5f97e242"},"vehicle_type_id":"4","last_reported":1751533945,"current_range_meters":8000,"station_id":"ce4bh2p2rcd13ifvqdi0","pricing_plan_id":"cebpf4jnsgd1na2vs0mg"},{"bike_id":"b1849980-67c7-4b56-8542-9f7682bb2148","system_id":"levelo_inurba_marseille","lat":43.29046,"lon":5.39984,"is_reserved":false,"is_disabled":false,"rental_uris":{"android":"levelo://app?vid=b1849980-67c7-4b56-8542-9f7682bb2148","ios":"levelo://app?vid=b1849980-67c7-4b56-8542-9f7682bb2148"},"vehicle_type_id":"4","last_reported":1751533945,"current_range_meters":8000,"station_id":"ce4bh392rcd13ifvqdm0","pricing_plan_id":"cebpf4jnsgd1na2vs0mg"},{"bike_id":"a1de7fad-58c3-4d09-af4d-5edea1398d49","system_id":"levelo_inurba_marseille","lat":43.28972,"lon":5.37829,"is_reserved":false,"is_disabled":false,"rental_uris":{"android":"levelo://app?vid=a1de7fad-58c3-4d09-af4d-5edea1398d49","ios":"levelo://app?vid=a1de7fad-58c3-4d09-af4d-5edea1398d49"},"vehicle_type_id":"4","last_reported":1751533945,"current_range_meters":8000,"station_id":"ce4bh9p2rcd13ifvqed0","pricing_plan_id":"cebpf4jnsgd1na2vs0mg"},{"bike_id":"6ff18638-c824-4038-aeba-ac04219caf00","system_id":"levelo_inurba_marseille","lat":43.27963,"lon":5.38713,"is_reserved":false,"is_disabled":false,"rental_uris":{"android":"levelo://app?vid=6ff18638-c824-4038-aeba-ac04219caf00","ios":"levelo://app?vid=6ff18638-c824-4038-aeba-ac04219caf00"},"vehicle_type_id":"4","last_reported":1751533945,"current_range_meters":8000,"station_id":"ce4bhg12rcd13ifvqf80","pricing_plan_id":"cebpf4jnsgd1na2vs0mg"},{"bike_id":"da0f2d15-d45c-42a3-af51-7eb824cf3d16","system_id":"levelo_inurba_marseille","lat":43.27212,"lon":5.392,"is_reserved":false,"is_disabled":false,"rental_uris":{"android":"levelo://app?vid=da0f2d15-d45c-42a3-af51-7eb824cf3d16","ios":"levelo://app?vid=da0f2d15-d45c-42a3-af51-7eb824cf3d16"},"vehicle_type_id":"4","last_reported":1751533945,"current_range_meters":8000,"station_id":"ce4bhhp2rcd13ifvqfm0","pricing_plan_id":"cebpf4jnsgd1na2vs0mg"},{"bike_id":"5934534e-703d-44a6-917c-94cd1d5ceea9","system_id":"levelo_inurba_marseille","lat":43.25089,"lon":5.39523,"is_reserved":false,"is_disabled":false,"rental_uris":{"android":"levelo://app?vid=5934534e-703d-44a6-917c-94cd1d5ceea9","ios":"levelo://app?vid=5934534e-703d-44a6-917c-94cd1d5ceea9"},"vehicle_type_id":"4","last_reported":1751533945,"current_range_meters":8000,"station_id":"ce4bhm12rcd13ifvqgkg","pricing_plan_id":"cebpf4jnsgd1na2vs0mg"},{"bike_id":"0e95c039-e344-4ef2-8ae3-2271111801b3","system_id":"levelo_inurba_marseille","lat":43.22509,"lon":5.34767,"is_reserved":false,"is_disabled":false,"rental_uris":{"android":"levelo://app?vid=0e95c039-e344-4ef2-8ae3-2271111801b3","ios":"levelo://app?vid=0e95c039-e344-4ef2-8ae3-2271111801b3"},"vehicle_type_id":"4","last_reported":1751533945,"current_range_meters":8000,"station_id":"st_cvj5dfep6f1abm77gieg","pricing_plan_id":"cebpf4jnsgd1na2vs0mg"},{"bike_id":"ef50a132-c502-4afc-a8c2-7de6a0df1152","system_id":"levelo_inurba_marseille","lat":43.22505,"lon":5.34785,"is_reserved":false,"is_disabled":false,"rental_uris":{"android":"levelo://app?vid=ef50a132-c502-4afc-a8c2-7de6a0df1152","ios":"levelo://app?vid=ef50a132-c502-4afc-a8c2-7de6a0df1152"},"vehicle_type_id":"4","last_reported":1751533945,"current_range_meters":8000,"station_id":"st_cvj5dfep6f1abm77gieg","pricing_plan_id":"cebpf4jnsgd1na2vs0mg"},{"bike_id":"a62a0ef6-babe-44d3-9278-a9bccd58a7db","system_id":"levelo_inurba_marseille","lat":43.29552,"lon":5.42288,"is_reserved":false,"is_disabled":false,"rental_uris":{"android":"levelo://app?vid=a62a0ef6-babe-44d3-9278-a9bccd58a7db","ios":"levelo://app?vid=a62a0ef6-babe-44d3-9278-a9bccd58a7db"},"vehicle_type_id":"4","last_reported":1751533945,"current_range_meters":8400,"station_id":"ce4bhph2rcd13ifvqhdg","pricing_plan_id":"cebpf4jnsgd1na2vs0mg"},{"bike_id":"91ccd651-2ef5-4f95-8378-a53870ffd198","system_id":"levelo_inurba_marseille","lat":43.336976,"lon":5.392006,"is_reserved":false,"is_disabled":false,"rental_uris":{"android":"levelo://app?vid=91ccd651-2ef5-4f95-8378-a53870ffd198","ios":"levelo://app?vid=91ccd651-2ef5-4f95-8378-a53870ffd198"},"vehicle_type_id":"4","last_reported":1751533945,"current_range_meters":8400,"station_id":"ce4bhr92rcd13ifvqhsg","pricing_plan_id":"cebpf4jnsgd1na2vs0mg"},{"bike_id":"2da545cd-0049-4224-9c8e-7eaad906a5ef","system_id":"levelo_inurba_marseille","lat":43.32474,"lon":5.36557,"is_reserved":false,"is_disabled":false,"rental_uris":{"android":"levelo://app?vid=2da545cd-0049-4224-9c8e-7eaad906a5ef","ios":"levelo://app?vid=2da545cd-0049-4224-9c8e-7eaad906a5ef"},"vehicle_type_id":"4","last_reported":1751533945,"current_range_meters":8400,"station_id":"ce4bhs12rcd13ifvqhvg","pricing_plan_id":"cebpf4jnsgd1na2vs0mg"},{"bike_id":"71a8e3a0-105e-4516-b682-7162963496b5","system_id":"levelo_inurba_marseille","lat":43.32484,"lon":5.36558,"is_reserved":false,"is_disabled":false,"rental_uris":{"android":"levelo://app?vid=71a8e3a0-105e-4516-b682-7162963496b5","ios":"levelo://app?vid=71a8e3a0-105e-4516-b682-7162963496b5"},"vehicle_type_id":"4","last_reported":1751533945,"current_range_meters":8400,"station_id":"ce4bhs12rcd13ifvqhvg","pricing_plan_id":"cebpf4jnsgd1na2vs0mg"},{"bike_id":"8ad00ccc-3ccb-493b-a2b4-49cd4dd94c33","system_id":"levelo_inurba_marseille","lat":43.21752,"lon":5.34599,"is_reserved":false,"is_disabled":false,"rental_uris":{"android":"levelo://app?vid=8ad00ccc-3ccb-493b-a2b4-49cd4dd94c33","ios":"levelo://app?vid=8ad00ccc-3ccb-493b-a2b4-49cd4dd94c33"},"vehicle_type_id":"4","last_reported":1751533945,"current_range_meters":8400,"station_id":"st_cvj6r9ubvosntc0bgbag","pricing_plan_id":"cebpf4jnsgd1na2vs0mg"},{"bike_id":"75ce4616-6b04-4444-85f6-5ac4f76f1239","system_id":"levelo_inurba_marseille","lat":43.21193,"lon":5.35073,"is_reserved":false,"is_disabled":false,"rental_uris":{"android":"levelo://app?vid=75ce4616-6b04-4444-85f6-5ac4f76f1239","ios":"levelo://app?vid=75ce4616-6b04-4444-85f6-5ac4f76f1239"},"vehicle_type_id":"4","last_reported":1751533945,"current_range_meters":8400,"station_id":"st_cvj6sg6p6f1abm77japg","pricing_plan_id":"cebpf4jnsgd1na2vs0mg"},{"bike_id":"eb6f172f-68c2-4fbc-b984-276818caa76a","system_id":"levelo_inurba_marseille","lat":43.29319,"lon":5.4391,"is_reserved":false,"is_disabled":false,"rental_uris":{"android":"levelo://app?vid=eb6f172f-68c2-4fbc-b984-276818caa76a","ios":"levelo://app?vid=eb6f172f-68c2-4fbc-b984-276818caa76a"},"vehicle_type_id":"4","last_reported":1751533945,"current_range_meters":8800,"station_id":"","pricing_plan_id":"cebpf4jnsgd1na2vs0mg"},{"bike_id":"a1b5ac49-5ae6-4ca2-9638-9f1a736b019c","system_id":"levelo_inurba_marseille","lat":43.31338,"lon":5.36727,"is_reserved":false,"is_disabled":false,"rental_uris":{"android":"levelo://app?vid=a1b5ac49-5ae6-4ca2-9638-9f1a736b019c","ios":"levelo://app?vid=a1b5ac49-5ae6-4ca2-9638-9f1a736b019c"},"vehicle_type_id":"4","last_reported":1751533945,"current_range_meters":8800,"station_id":"ce4bgr92rcd13ifvqc6g","pricing_plan_id":"cebpf4jnsgd1na2vs0mg"},{"bike_id":"48ec224a-51af-4446-8b57-2282b586d15d","system_id":"levelo_inurba_marseille","lat":43.29199,"lon":5.35783,"is_reserved":false,"is_disabled":false,"rental_uris":{"android":"levelo://app?vid=48ec224a-51af-4446-8b57-2282b586d15d","ios":"levelo://app?vid=48ec224a-51af-4446-8b57-2282b586d15d"},"vehicle_type_id":"4","last_reported":1751533945,"current_range_meters":8800,"station_id":"ce4bhb12rcd13ifvqel0","pricing_plan_id":"cebpf4jnsgd1na2vs0mg"},{"bike_id":"ee0c11d7-a583-4d5a-92a6-fcb7fab0f52f","system_id":"levelo_inurba_marseille","lat":43.32105,"lon":5.36768,"is_reserved":false,"is_disabled":false,"rental_uris":{"android":"levelo://app?vid=ee0c11d7-a583-4d5a-92a6-fcb7fab0f52f","ios":"levelo://app?vid=ee0c11d7-a583-4d5a-92a6-fcb7fab0f52f"},"vehicle_type_id":"4","last_reported":1751533945,"current_range_meters":8800,"station_id":"ce4bhrh2rcd13ifvqhug","pricing_plan_id":"cebpf4jnsgd1na2vs0mg"},{"bike_id":"6b5f2251-5553-4d29-b6c6-2d7bc1acfca1","system_id":"levelo_inurba_marseille","lat":43.30958,"lon":5.39048,"is_reserved":false,"is_disabled":false,"rental_uris":{"android":"levelo://app?vid=6b5f2251-5553-4d29-b6c6-2d7bc1acfca1","ios":"levelo://app?vid=6b5f2251-5553-4d29-b6c6-2d7bc1acfca1"},"vehicle_type_id":"4","last_reported":1751533945,"current_range_meters":9200,"station_id":"ce4bgup2rcd13ifvqco0","pricing_plan_id":"cebpf4jnsgd1na2vs0mg"},{"bike_id":"b64a52c1-5a60-4e26-9cc8-a302011abf58","system_id":"levelo_inurba_marseille","lat":43.291613,"lon":5.371667,"is_reserved":false,"is_disabled":false,"rental_uris":{"android":"levelo://app?vid=b64a52c1-5a60-4e26-9cc8-a302011abf58","ios":"levelo://app?vid=b64a52c1-5a60-4e26-9cc8-a302011abf58"},"vehicle_type_id":"4","last_reported":1751533945,"current_range_meters":9200,"station_id":"ce4bha92rcd13ifvqeh0","pricing_plan_id":"cebpf4jnsgd1na2vs0mg"},{"bike_id":"6d58b70e-e5cb-4970-9256-c90f4513490f","system_id":"levelo_inurba_marseille","lat":43.27376,"lon":5.36254,"is_reserved":false,"is_disabled":false,"rental_uris":{"android":"levelo://app?vid=6d58b70e-e5cb-4970-9256-c90f4513490f","ios":"levelo://app?vid=6d58b70e-e5cb-4970-9256-c90f4513490f"},"vehicle_type_id":"4","last_reported":1751533945,"current_range_meters":9200,"station_id":"ce4bhbh2rcd13ifvqeo0","pricing_plan_id":"cebpf4jnsgd1na2vs0mg"},{"bike_id":"9f981d95-e427-4742-af4a-ccb20429fe2c","system_id":"levelo_inurba_marseille","lat":43.25902,"lon":5.40894,"is_reserved":false,"is_disabled":false,"rental_uris":{"android":"levelo://app?vid=9f981d95-e427-4742-af4a-ccb20429fe2c","ios":"levelo://app?vid=9f981d95-e427-4742-af4a-ccb20429fe2c"},"vehicle_type_id":"4","last_reported":1751533945,"current_range_meters":9200,"station_id":"ce4bhm92rcd13ifvqglg","pricing_plan_id":"cebpf4jnsgd1na2vs0mg"},{"bike_id":"bebae45e-84ae-460e-b0ae-ec2e34adfe83","system_id":"levelo_inurba_marseille","lat":43.32476,"lon":5.36558,"is_reserved":false,"is_disabled":false,"rental_uris":{"android":"levelo://app?vid=bebae45e-84ae-460e-b0ae-ec2e34adfe83","ios":"levelo://app?vid=bebae45e-84ae-460e-b0ae-ec2e34adfe83"},"vehicle_type_id":"4","last_reported":1751533945,"current_range_meters":9200,"station_id":"ce4bhs12rcd13ifvqhvg","pricing_plan_id":"cebpf4jnsgd1na2vs0mg"},{"bike_id":"2f9f249a-8433-4d90-824b-66f2265efc06","system_id":"levelo_inurba_marseille","lat":43.29962,"lon":5.37373,"is_reserved":false,"is_disabled":false,"rental_uris":{"android":"levelo://app?vid=2f9f249a-8433-4d90-824b-66f2265efc06","ios":"levelo://app?vid=2f9f249a-8433-4d90-824b-66f2265efc06"},"vehicle_type_id":"4","last_reported":1751533945,"current_range_meters":9600,"station_id":"","pricing_plan_id":"cebpf4jnsgd1na2vs0mg"},{"bike_id":"f03e6590-07d6-4c5d-b956-c0a063641957","system_id":"levelo_inurba_marseille","lat":43.29044,"lon":5.39944,"is_reserved":false,"is_disabled":false,"rental_uris":{"android":"levelo://app?vid=f03e6590-07d6-4c5d-b956-c0a063641957","ios":"levelo://app?vid=f03e6590-07d6-4c5d-b956-c0a063641957"},"vehicle_type_id":"4","last_reported":1751533945,"current_range_meters":9600,"station_id":"ce4bh392rcd13ifvqdm0","pricing_plan_id":"cebpf4jnsgd1na2vs0mg"},{"bike_id":"08e2a6c3-9b7d-484e-881e-50f9f2eb148d","system_id":"levelo_inurba_marseille","lat":43.27569,"lon":5.38407,"is_reserved":false,"is_disabled":false,"rental_uris":{"android":"levelo://app?vid=08e2a6c3-9b7d-484e-881e-50f9f2eb148d","ios":"levelo://app?vid=08e2a6c3-9b7d-484e-881e-50f9f2eb148d"},"vehicle_type_id":"4","last_reported":1751533945,"current_range_meters":9600,"station_id":"ce4bhh92rcd13ifvqfi0","pricing_plan_id":"cebpf4jnsgd1na2vs0mg"},{"bike_id":"51fc57f4-f9cf-41b8-bab6-0df4f186ed53","system_id":"levelo_inurba_marseille","lat":43.2721,"lon":5.39185,"is_reserved":false,"is_disabled":false,"rental_uris":{"android":"levelo://app?vid=51fc57f4-f9cf-41b8-bab6-0df4f186ed53","ios":"levelo://app?vid=51fc57f4-f9cf-41b8-bab6-0df4f186ed53"},"vehicle_type_id":"4","last_reported":1751533945,"current_range_meters":9600,"station_id":"ce4bhhp2rcd13ifvqfm0","pricing_plan_id":"cebpf4jnsgd1na2vs0mg"},{"bike_id":"9d06beda-1bc5-4b5e-a97e-4c40320ce321","system_id":"levelo_inurba_marseille","lat":43.33614,"lon":5.41016,"is_reserved":false,"is_disabled":false,"rental_uris":{"android":"levelo://app?vid=9d06beda-1bc5-4b5e-a97e-4c40320ce321","ios":"levelo://app?vid=9d06beda-1bc5-4b5e-a97e-4c40320ce321"},"vehicle_type_id":"4","last_reported":1751533945,"current_range_meters":9600,"station_id":"ce4bhqh2rcd13ifvqhmg","pricing_plan_id":"cebpf4jnsgd1na2vs0mg"},{"bike_id":"f5469626-344e-4334-9049-486e9f34a090","system_id":"levelo_inurba_marseille","lat":43.3211,"lon":5.36782,"is_reserved":false,"is_disabled":false,"rental_uris":{"android":"levelo://app?vid=f5469626-344e-4334-9049-486e9f34a090","ios":"levelo://app?vid=f5469626-344e-4334-9049-486e9f34a090"},"vehicle_type_id":"4","last_reported":1751533945,"current_range_meters":9600,"station_id":"ce4bhrh2rcd13ifvqhug","pricing_plan_id":"cebpf4jnsgd1na2vs0mg"},{"bike_id":"7e62b058-a7ed-4634-80f1-04d3de596de7","system_id":"levelo_inurba_marseille","lat":43.2985,"lon":5.368134,"is_reserved":false,"is_disabled":false,"rental_uris":{"android":"levelo://app?vid=7e62b058-a7ed-4634-80f1-04d3de596de7","ios":"levelo://app?vid=7e62b058-a7ed-4634-80f1-04d3de596de7"},"vehicle_type_id":"4","last_reported":1751533945,"current_range_meters":10000,"station_id":"","pricing_plan_id":"cebpf4jnsgd1na2vs0mg"},{"bike_id":"bf00a211-3496-4df0-8e4e-99767047ca09","system_id":"levelo_inurba_marseille","lat":43.29971,"lon":5.37607,"is_reserved":false,"is_disabled":false,"rental_uris":{"android":"levelo://app?vid=bf00a211-3496-4df0-8e4e-99767047ca09","ios":"levelo://app?vid=bf00a211-3496-4df0-8e4e-99767047ca09"},"vehicle_type_id":"4","last_reported":1751533945,"current_range_meters":10000,"station_id":"","pricing_plan_id":"cebpf4jnsgd1na2vs0mg"},{"bike_id":"3cc429eb-8e76-4645-8b60-be66e2d55969","system_id":"levelo_inurba_marseille","lat":43.25583,"lon":5.38229,"is_reserved":false,"is_disabled":false,"rental_uris":{"android":"levelo://app?vid=3cc429eb-8e76-4645-8b60-be66e2d55969","ios":"levelo://app?vid=3cc429eb-8e76-4645-8b60-be66e2d55969"},"vehicle_type_id":"4","last_reported":1751533945,"current_range_meters":10000,"station_id":"ce4bhih2rcd13ifvqfs0","pricing_plan_id":"cebpf4jnsgd1na2vs0mg"},{"bike_id":"89494d6e-e11a-438f-8875-5fc51e937fc2","system_id":"levelo_inurba_marseille","lat":43.303632,"lon":5.418745,"is_reserved":false,"is_disabled":false,"rental_uris":{"android":"levelo://app?vid=89494d6e-e11a-438f-8875-5fc51e937fc2","ios":"levelo://app?vid=89494d6e-e11a-438f-8875-5fc51e937fc2"},"vehicle_type_id":"4","last_reported":1751533945,"current_range_meters":10000,"station_id":"ce4bhop2rcd13ifvqh7g","pricing_plan_id":"cebpf4jnsgd1na2vs0mg"},{"bike_id":"22c65f34-5b9a-4ce8-b3b0-5a1a52b259a2","system_id":"levelo_inurba_marseille","lat":43.2971,"lon":5.40189,"is_reserved":false,"is_disabled":false,"rental_uris":{"android":"levelo://app?vid=22c65f34-5b9a-4ce8-b3b0-5a1a52b259a2","ios":"levelo://app?vid=22c65f34-5b9a-4ce8-b3b0-5a1a52b259a2"},"vehicle_type_id":"4","last_reported":1751533945,"current_range_meters":10800,"station_id":"","pricing_plan_id":"cebpf4jnsgd1na2vs0mg"},{"bike_id":"eb5c248a-04a3-4578-b50d-426fbb66deeb","system_id":"levelo_inurba_marseille","lat":43.27201,"lon":5.39176,"is_reserved":false,"is_disabled":false,"rental_uris":{"android":"levelo://app?vid=eb5c248a-04a3-4578-b50d-426fbb66deeb","ios":"levelo://app?vid=eb5c248a-04a3-4578-b50d-426fbb66deeb"},"vehicle_type_id":"4","last_reported":1751533945,"current_range_meters":10800,"station_id":"","pricing_plan_id":"cebpf4jnsgd1na2vs0mg"},{"bike_id":"9a7d342a-ff8e-46c4-af1e-6e0519bd67dc","system_id":"levelo_inurba_marseille","lat":43.291433,"lon":5.355899,"is_reserved":false,"is_disabled":false,"rental_uris":{"android":"levelo://app?vid=9a7d342a-ff8e-46c4-af1e-6e0519bd67dc","ios":"levelo://app?vid=9a7d342a-ff8e-46c4-af1e-6e0519bd67dc"},"vehicle_type_id":"4","last_reported":1751533945,"current_range_meters":10800,"station_id":"","pricing_plan_id":"cebpf4jnsgd1na2vs0mg"},{"bike_id":"e26ba497-efc7-4420-b8c5-9fa5e27f2ce4","system_id":"levelo_inurba_marseille","lat":43.313703,"lon":5.37077,"is_reserved":false,"is_disabled":false,"rental_uris":{"android":"levelo://app?vid=e26ba497-efc7-4420-b8c5-9fa5e27f2ce4","ios":"levelo://app?vid=e26ba497-efc7-4420-b8c5-9fa5e27f2ce4"},"vehicle_type_id":"4","last_reported":1751533945,"current_range_meters":10800,"station_id":"","pricing_plan_id":"cebpf4jnsgd1na2vs0mg"},{"bike_id":"5b1d85a8-db75-4f2b-a0a7-af527613677e","system_id":"levelo_inurba_marseille","lat":43.286198,"lon":5.351032,"is_reserved":false,"is_disabled":false,"rental_uris":{"android":"levelo://app?vid=5b1d85a8-db75-4f2b-a0a7-af527613677e","ios":"levelo://app?vid=5b1d85a8-db75-4f2b-a0a7-af527613677e"},"vehicle_type_id":"4","last_reported":1751533945,"current_range_meters":10800,"station_id":"ce4bhch2rcd13ifvqeug","pricing_plan_id":"cebpf4jnsgd1na2vs0mg"},{"bike_id":"bcfd0eda-b9ab-4bec-9ca3-3f2b86617415","system_id":"levelo_inurba_marseille","lat":43.21196,"lon":5.3507,"is_reserved":false,"is_disabled":false,"rental_uris":{"android":"levelo://app?vid=bcfd0eda-b9ab-4bec-9ca3-3f2b86617415","ios":"levelo://app?vid=bcfd0eda-b9ab-4bec-9ca3-3f2b86617415"},"vehicle_type_id":"4","last_reported":1751533945,"current_range_meters":10800,"station_id":"st_cvj6sg6p6f1abm77japg","pricing_plan_id":"cebpf4jnsgd1na2vs0mg"},{"bike_id":"bd66eba9-33d6-45d2-9147-f93bbecc4fb7","system_id":"levelo_inurba_marseille","lat":43.27207,"lon":5.39176,"is_reserved":false,"is_disabled":false,"rental_uris":{"android":"levelo://app?vid=bd66eba9-33d6-45d2-9147-f93bbecc4fb7","ios":"levelo://app?vid=bd66eba9-33d6-45d2-9147-f93bbecc4fb7"},"vehicle_type_id":"4","last_reported":1751533945,"current_range_meters":11200,"station_id":"","pricing_plan_id":"cebpf4jnsgd1na2vs0mg"},{"bike_id":"c8a9925e-2d13-4600-a9fa-0b1ee6b6f27d","system_id":"levelo_inurba_marseille","lat":43.29574,"lon":5.40624,"is_reserved":false,"is_disabled":false,"rental_uris":{"android":"levelo://app?vid=c8a9925e-2d13-4600-a9fa-0b1ee6b6f27d","ios":"levelo://app?vid=c8a9925e-2d13-4600-a9fa-0b1ee6b6f27d"},"vehicle_type_id":"4","last_reported":1751533945,"current_range_meters":11200,"station_id":"","pricing_plan_id":"cebpf4jnsgd1na2vs0mg"},{"bike_id":"abd7df5f-9c26-49ed-bda6-f71b36391db5","system_id":"levelo_inurba_marseille","lat":43.29528,"lon":5.39403,"is_reserved":false,"is_disabled":false,"rental_uris":{"android":"levelo://app?vid=abd7df5f-9c26-49ed-bda6-f71b36391db5","ios":"levelo://app?vid=abd7df5f-9c26-49ed-bda6-f71b36391db5"},"vehicle_type_id":"4","last_reported":1751533945,"current_range_meters":11200,"station_id":"ce4bh292rcd13ifvqdf0","pricing_plan_id":"cebpf4jnsgd1na2vs0mg"},{"bike_id":"0d0fe909-f387-407c-b589-15a09e65f6ef","system_id":"levelo_inurba_marseille","lat":43.2927,"lon":5.38432,"is_reserved":false,"is_disabled":false,"rental_uris":{"android":"levelo://app?vid=0d0fe909-f387-407c-b589-15a09e65f6ef","ios":"levelo://app?vid=0d0fe909-f387-407c-b589-15a09e65f6ef"},"vehicle_type_id":"4","last_reported":1751533945,"current_range_meters":11200,"station_id":"ce4bh692rcd13ifvqea0","pricing_plan_id":"cebpf4jnsgd1na2vs0mg"},{"bike_id":"f228e694-30f5-4a8c-ba5e-247b89fba895","system_id":"levelo_inurba_marseille","lat":43.29181,"lon":5.37158,"is_reserved":false,"is_disabled":false,"rental_uris":{"android":"levelo://app?vid=f228e694-30f5-4a8c-ba5e-247b89fba895","ios":"levelo://app?vid=f228e694-30f5-4a8c-ba5e-247b89fba895"},"vehicle_type_id":"4","last_reported":1751533945,"current_range_meters":11200,"station_id":"ce4bha92rcd13ifvqeh0","pricing_plan_id":"cebpf4jnsgd1na2vs0mg"},{"bike_id":"683054c3-91b0-4749-8c96-8a8ff46f1167","system_id":"levelo_inurba_marseille","lat":43.25934,"lon":5.409062,"is_reserved":false,"is_disabled":false,"rental_uris":{"android":"levelo://app?vid=683054c3-91b0-4749-8c96-8a8ff46f1167","ios":"levelo://app?vid=683054c3-91b0-4749-8c96-8a8ff46f1167"},"vehicle_type_id":"4","last_reported":1751533945,"current_range_meters":11200,"station_id":"ce4bhm92rcd13ifvqglg","pricing_plan_id":"cebpf4jnsgd1na2vs0mg"},{"bike_id":"682a0145-0ef0-42de-b96f-44ba52ddbe0b","system_id":"levelo_inurba_marseille","lat":43.29791,"lon":5.39337,"is_reserved":false,"is_disabled":false,"rental_uris":{"android":"levelo://app?vid=682a0145-0ef0-42de-b96f-44ba52ddbe0b","ios":"levelo://app?vid=682a0145-0ef0-42de-b96f-44ba52ddbe0b"},"vehicle_type_id":"4","last_reported":1751533945,"current_range_meters":11200,"station_id":"chh1huq6cuj3fo74tm60","pricing_plan_id":"cebpf4jnsgd1na2vs0mg"},{"bike_id":"2d659fe1-36b2-4981-bcd7-0c6fca4b3667","system_id":"levelo_inurba_marseille","lat":43.30573,"lon":5.36549,"is_reserved":false,"is_disabled":false,"rental_uris":{"android":"levelo://app?vid=2d659fe1-36b2-4981-bcd7-0c6fca4b3667","ios":"levelo://app?vid=2d659fe1-36b2-4981-bcd7-0c6fca4b3667"},"vehicle_type_id":"4","last_reported":1751533945,"current_range_meters":11600,"station_id":"ce4bgs12rcd13ifvqcag","pricing_plan_id":"cebpf4jnsgd1na2vs0mg"},{"bike_id":"110be0f7-19b6-4419-935c-8afdb1f29359","system_id":"levelo_inurba_marseille","lat":43.211919,"lon":5.350637,"is_reserved":false,"is_disabled":false,"rental_uris":{"android":"levelo://app?vid=110be0f7-19b6-4419-935c-8afdb1f29359","ios":"levelo://app?vid=110be0f7-19b6-4419-935c-8afdb1f29359"},"vehicle_type_id":"4","last_reported":1751533945,"current_range_meters":11600,"station_id":"st_cvj6sg6p6f1abm77japg","pricing_plan_id":"cebpf4jnsgd1na2vs0mg"},{"bike_id":"ef36fdff-1055-4e36-ac23-bd159d4c9f7b","system_id":"levelo_inurba_marseille","lat":43.25928,"lon":5.40907,"is_reserved":false,"is_disabled":false,"rental_uris":{"android":"levelo://app?vid=ef36fdff-1055-4e36-ac23-bd159d4c9f7b","ios":"levelo://app?vid=ef36fdff-1055-4e36-ac23-bd159d4c9f7b"},"vehicle_type_id":"4","last_reported":1751533945,"current_range_meters":12000,"station_id":"ce4bhm92rcd13ifvqglg","pricing_plan_id":"cebpf4jnsgd1na2vs0mg"},{"bike_id":"e36eeb04-35cc-4a52-97d7-6ba58bfe555b","system_id":"levelo_inurba_marseille","lat":43.295494,"lon":5.422874,"is_reserved":false,"is_disabled":false,"rental_uris":{"android":"levelo://app?vid=e36eeb04-35cc-4a52-97d7-6ba58bfe555b","ios":"levelo://app?vid=e36eeb04-35cc-4a52-97d7-6ba58bfe555b"},"vehicle_type_id":"4","last_reported":1751533945,"current_range_meters":12000,"station_id":"ce4bhph2rcd13ifvqhdg","pricing_plan_id":"cebpf4jnsgd1na2vs0mg"},{"bike_id":"7b82ce06-9a81-436b-bdf4-db08cf7b33d1","system_id":"levelo_inurba_marseille","lat":43.24175,"lon":5.363976,"is_reserved":false,"is_disabled":false,"rental_uris":{"android":"levelo://app?vid=7b82ce06-9a81-436b-bdf4-db08cf7b33d1","ios":"levelo://app?vid=7b82ce06-9a81-436b-bdf4-db08cf7b33d1"},"vehicle_type_id":"4","last_reported":1751533945,"current_range_meters":12000,"station_id":"cpo36qri1sfpv3e86is0","pricing_plan_id":"cebpf4jnsgd1na2vs0mg"},{"bike_id":"16a8afe6-e43e-4d1b-a7bd-ed83d113735a","system_id":"levelo_inurba_marseille","lat":43.32436,"lon":5.41185,"is_reserved":false,"is_disabled":false,"rental_uris":{"android":"levelo://app?vid=16a8afe6-e43e-4d1b-a7bd-ed83d113735a","ios":"levelo://app?vid=16a8afe6-e43e-4d1b-a7bd-ed83d113735a"},"vehicle_type_id":"4","last_reported":1751533945,"current_range_meters":12400,"station_id":"","pricing_plan_id":"cebpf4jnsgd1na2vs0mg"},{"bike_id":"fe16e5d6-c086-4644-bea1-4f57a2866519","system_id":"levelo_inurba_marseille","lat":43.28564,"lon":5.35064,"is_reserved":false,"is_disabled":false,"rental_uris":{"android":"levelo://app?vid=fe16e5d6-c086-4644-bea1-4f57a2866519","ios":"levelo://app?vid=fe16e5d6-c086-4644-bea1-4f57a2866519"},"vehicle_type_id":"4","last_reported":1751533945,"current_range_meters":12400,"station_id":"","pricing_plan_id":"cebpf4jnsgd1na2vs0mg"},{"bike_id":"38739cb0-7c0c-4a40-afa6-7cfac40a7ecf","system_id":"levelo_inurba_marseille","lat":43.3045,"lon":5.38891,"is_reserved":false,"is_disabled":false,"rental_uris":{"android":"levelo://app?vid=38739cb0-7c0c-4a40-afa6-7cfac40a7ecf","ios":"levelo://app?vid=38739cb0-7c0c-4a40-afa6-7cfac40a7ecf"},"vehicle_type_id":"4","last_reported":1751533945,"current_range_meters":12400,"station_id":"ce4bgk12rcd13ifvqbi0","pricing_plan_id":"cebpf4jnsgd1na2vs0mg"},{"bike_id":"1378f1f6-c1d7-4f17-9abb-f536950bd0f0","system_id":"levelo_inurba_marseille","lat":43.30555,"lon":5.36698,"is_reserved":false,"is_disabled":false,"rental_uris":{"android":"levelo://app?vid=1378f1f6-c1d7-4f17-9abb-f536950bd0f0","ios":"levelo://app?vid=1378f1f6-c1d7-4f17-9abb-f536950bd0f0"},"vehicle_type_id":"4","last_reported":1751533945,"current_range_meters":12400,"station_id":"ce4bgrp2rcd13ifvqc9g","pricing_plan_id":"cebpf4jnsgd1na2vs0mg"},{"bike_id":"cf718ccd-5176-4cf3-b2da-1b2300686018","system_id":"levelo_inurba_marseille","lat":43.26683,"lon":5.38263,"is_reserved":false,"is_disabled":false,"rental_uris":{"android":"levelo://app?vid=cf718ccd-5176-4cf3-b2da-1b2300686018","ios":"levelo://app?vid=cf718ccd-5176-4cf3-b2da-1b2300686018"},"vehicle_type_id":"4","last_reported":1751533945,"current_range_meters":12400,"station_id":"ce4bhg92rcd13ifvqf90","pricing_plan_id":"cebpf4jnsgd1na2vs0mg"},{"bike_id":"64bb485e-0856-48ce-befe-bde5a394f93d","system_id":"levelo_inurba_marseille","lat":43.27643,"lon":5.38872,"is_reserved":false,"is_disabled":false,"rental_uris":{"android":"levelo://app?vid=64bb485e-0856-48ce-befe-bde5a394f93d","ios":"levelo://app?vid=64bb485e-0856-48ce-befe-bde5a394f93d"},"vehicle_type_id":"4","last_reported":1751533945,"current_range_meters":12400,"station_id":"ce4bhi12rcd13ifvqfo0","pricing_plan_id":"cebpf4jnsgd1na2vs0mg"},{"bike_id":"8b275258-2617-4b52-9a95-0d45670b5894","system_id":"levelo_inurba_marseille","lat":43.33022,"lon":5.390375,"is_reserved":false,"is_disabled":false,"rental_uris":{"android":"levelo://app?vid=8b275258-2617-4b52-9a95-0d45670b5894","ios":"levelo://app?vid=8b275258-2617-4b52-9a95-0d45670b5894"},"vehicle_type_id":"4","last_reported":1751533945,"current_range_meters":12400,"station_id":"ce4bhr92rcd13ifvqhrg","pricing_plan_id":"cebpf4jnsgd1na2vs0mg"},{"bike_id":"959e6f20-8ed0-4d36-bc1d-3efb82d6190b","system_id":"levelo_inurba_marseille","lat":43.211933,"lon":5.350674,"is_reserved":false,"is_disabled":false,"rental_uris":{"android":"levelo://app?vid=959e6f20-8ed0-4d36-bc1d-3efb82d6190b","ios":"levelo://app?vid=959e6f20-8ed0-4d36-bc1d-3efb82d6190b"},"vehicle_type_id":"4","last_reported":1751533945,"current_range_meters":12400,"station_id":"st_cvj6sg6p6f1abm77japg","pricing_plan_id":"cebpf4jnsgd1na2vs0mg"},{"bike_id":"65666468-d673-47fc-9e04-79b0233451c4","system_id":"levelo_inurba_marseille","lat":43.30952,"lon":5.3904,"is_reserved":false,"is_disabled":false,"rental_uris":{"android":"levelo://app?vid=65666468-d673-47fc-9e04-79b0233451c4","ios":"levelo://app?vid=65666468-d673-47fc-9e04-79b0233451c4"},"vehicle_type_id":"4","last_reported":1751533945,"current_range_meters":12800,"station_id":"ce4bgup2rcd13ifvqco0","pricing_plan_id":"cebpf4jnsgd1na2vs0mg"},{"bike_id":"8b784f28-b0e0-4960-8cfe-7e3d0de16521","system_id":"levelo_inurba_marseille","lat":43.23151,"lon":5.43722,"is_reserved":false,"is_disabled":false,"rental_uris":{"android":"levelo://app?vid=8b784f28-b0e0-4960-8cfe-7e3d0de16521","ios":"levelo://app?vid=8b784f28-b0e0-4960-8cfe-7e3d0de16521"},"vehicle_type_id":"4","last_reported":1751533945,"current_range_meters":12800,"station_id":"ce4bhmp2rcd13ifvqgog","pricing_plan_id":"cebpf4jnsgd1na2vs0mg"},{"bike_id":"09a94feb-8911-4d3d-9f22-a7f611710ea1","system_id":"levelo_inurba_marseille","lat":43.21201,"lon":5.35078,"is_reserved":false,"is_disabled":false,"rental_uris":{"android":"levelo://app?vid=09a94feb-8911-4d3d-9f22-a7f611710ea1","ios":"levelo://app?vid=09a94feb-8911-4d3d-9f22-a7f611710ea1"},"vehicle_type_id":"4","last_reported":1751533945,"current_range_meters":12800,"station_id":"st_cvj6sg6p6f1abm77japg","pricing_plan_id":"cebpf4jnsgd1na2vs0mg"},{"bike_id":"a011bf6f-5b73-42df-b628-b2dcf5029277","system_id":"levelo_inurba_marseille","lat":43.24172,"lon":5.38491,"is_reserved":false,"is_disabled":false,"rental_uris":{"android":"levelo://app?vid=a011bf6f-5b73-42df-b628-b2dcf5029277","ios":"levelo://app?vid=a011bf6f-5b73-42df-b628-b2dcf5029277"},"vehicle_type_id":"4","last_reported":1751533945,"current_range_meters":13600,"station_id":"","pricing_plan_id":"cebpf4jnsgd1na2vs0mg"},{"bike_id":"a309f7b6-cc6c-462b-bf81-88494e0f3050","system_id":"levelo_inurba_marseille","lat":43.30554,"lon":5.36545,"is_reserved":false,"is_disabled":false,"rental_uris":{"android":"levelo://app?vid=a309f7b6-cc6c-462b-bf81-88494e0f3050","ios":"levelo://app?vid=a309f7b6-cc6c-462b-bf81-88494e0f3050"},"vehicle_type_id":"4","last_reported":1751533945,"current_range_meters":13600,"station_id":"ce4bgs12rcd13ifvqcag","pricing_plan_id":"cebpf4jnsgd1na2vs0mg"},{"bike_id":"0e030323-4386-4e72-9a0d-0f6a2ff539de","system_id":"levelo_inurba_marseille","lat":43.296191,"lon":5.405463,"is_reserved":false,"is_disabled":false,"rental_uris":{"android":"levelo://app?vid=0e030323-4386-4e72-9a0d-0f6a2ff539de","ios":"levelo://app?vid=0e030323-4386-4e72-9a0d-0f6a2ff539de"},"vehicle_type_id":"4","last_reported":1751533945,"current_range_meters":13600,"station_id":"ce4bh0h2rcd13ifvqd60","pricing_plan_id":"cebpf4jnsgd1na2vs0mg"},{"bike_id":"a8880219-0ade-4ad6-87d6-4cb82e2f3de1","system_id":"levelo_inurba_marseille","lat":43.29266,"lon":5.40914,"is_reserved":false,"is_disabled":false,"rental_uris":{"android":"levelo://app?vid=a8880219-0ade-4ad6-87d6-4cb82e2f3de1","ios":"levelo://app?vid=a8880219-0ade-4ad6-87d6-4cb82e2f3de1"},"vehicle_type_id":"4","last_reported":1751533945,"current_range_meters":13600,"station_id":"ce4bh192rcd13ifvqdc0","pricing_plan_id":"cebpf4jnsgd1na2vs0mg"},{"bike_id":"eac33aec-008d-40f4-b2c0-90d4f8729473","system_id":"levelo_inurba_marseille","lat":43.2418,"lon":5.39678,"is_reserved":false,"is_disabled":false,"rental_uris":{"android":"levelo://app?vid=eac33aec-008d-40f4-b2c0-90d4f8729473","ios":"levelo://app?vid=eac33aec-008d-40f4-b2c0-90d4f8729473"},"vehicle_type_id":"4","last_reported":1751533945,"current_range_meters":13600,"station_id":"ce4bhn12rcd13ifvqgpg","pricing_plan_id":"cebpf4jnsgd1na2vs0mg"},{"bike_id":"84e76eaf-b975-4e45-a90b-3bf5f547acb0","system_id":"levelo_inurba_marseille","lat":43.2175,"lon":5.34591,"is_reserved":false,"is_disabled":false,"rental_uris":{"android":"levelo://app?vid=84e76eaf-b975-4e45-a90b-3bf5f547acb0","ios":"levelo://app?vid=84e76eaf-b975-4e45-a90b-3bf5f547acb0"},"vehicle_type_id":"4","last_reported":1751533945,"current_range_meters":13600,"station_id":"st_cvj6r9ubvosntc0bgbag","pricing_plan_id":"cebpf4jnsgd1na2vs0mg"},{"bike_id":"8a74f5cd-9efa-4362-bea7-a32db4dcc85c","system_id":"levelo_inurba_marseille","lat":43.21195,"lon":5.35063,"is_reserved":false,"is_disabled":false,"rental_uris":{"android":"levelo://app?vid=8a74f5cd-9efa-4362-bea7-a32db4dcc85c","ios":"levelo://app?vid=8a74f5cd-9efa-4362-bea7-a32db4dcc85c"},"vehicle_type_id":"4","last_reported":1751533945,"current_range_meters":13600,"station_id":"st_cvj6sg6p6f1abm77japg","pricing_plan_id":"cebpf4jnsgd1na2vs0mg"},{"bike_id":"09a51d17-1b05-40aa-a16a-11c017bff622","system_id":"levelo_inurba_marseille","lat":43.29842,"lon":5.36279,"is_reserved":false,"is_disabled":false,"rental_uris":{"android":"levelo://app?vid=09a51d17-1b05-40aa-a16a-11c017bff622","ios":"levelo://app?vid=09a51d17-1b05-40aa-a16a-11c017bff622"},"vehicle_type_id":"4","last_reported":1751533945,"current_range_meters":14000,"station_id":"ce4bgpp2rcd13ifvqc3g","pricing_plan_id":"cebpf4jnsgd1na2vs0mg"},{"bike_id":"a5f6039a-6127-41a7-9d10-32f61b9abf86","system_id":"levelo_inurba_marseille","lat":43.25584,"lon":5.38226,"is_reserved":false,"is_disabled":false,"rental_uris":{"android":"levelo://app?vid=a5f6039a-6127-41a7-9d10-32f61b9abf86","ios":"levelo://app?vid=a5f6039a-6127-41a7-9d10-32f61b9abf86"},"vehicle_type_id":"4","last_reported":1751533945,"current_range_meters":14000,"station_id":"ce4bhih2rcd13ifvqfs0","pricing_plan_id":"cebpf4jnsgd1na2vs0mg"},{"bike_id":"7ca32af2-1076-4ae5-bbe9-6ff66ccc8a3f","system_id":"levelo_inurba_marseille","lat":43.24168,"lon":5.36392,"is_reserved":false,"is_disabled":false,"rental_uris":{"android":"levelo://app?vid=7ca32af2-1076-4ae5-bbe9-6ff66ccc8a3f","ios":"levelo://app?vid=7ca32af2-1076-4ae5-bbe9-6ff66ccc8a3f"},"vehicle_type_id":"4","last_reported":1751533945,"current_range_meters":14000,"station_id":"cpo36qri1sfpv3e86is0","pricing_plan_id":"cebpf4jnsgd1na2vs0mg"},{"bike_id":"b50da02d-1fb5-4383-a93d-332785610080","system_id":"levelo_inurba_marseille","lat":43.217561,"lon":5.34604,"is_reserved":false,"is_disabled":false,"rental_uris":{"android":"levelo://app?vid=b50da02d-1fb5-4383-a93d-332785610080","ios":"levelo://app?vid=b50da02d-1fb5-4383-a93d-332785610080"},"vehicle_type_id":"4","last_reported":1751533945,"current_range_meters":14000,"station_id":"st_cvj6r9ubvosntc0bgbag","pricing_plan_id":"cebpf4jnsgd1na2vs0mg"},{"bike_id":"a588469b-12ca-41c6-8c6f-3f3bda5b7f15","system_id":"levelo_inurba_marseille","lat":43.31568,"lon":5.38372,"is_reserved":false,"is_disabled":false,"rental_uris":{"android":"levelo://app?vid=a588469b-12ca-41c6-8c6f-3f3bda5b7f15","ios":"levelo://app?vid=a588469b-12ca-41c6-8c6f-3f3bda5b7f15"},"vehicle_type_id":"4","last_reported":1751533945,"current_range_meters":14400,"station_id":"","pricing_plan_id":"cebpf4jnsgd1na2vs0mg"},{"bike_id":"8a6d1724-0c32-4ba0-bfe7-21e90d16d06e","system_id":"levelo_inurba_marseille","lat":43.29556,"lon":5.39403,"is_reserved":false,"is_disabled":false,"rental_uris":{"android":"levelo://app?vid=8a6d1724-0c32-4ba0-bfe7-21e90d16d06e","ios":"levelo://app?vid=8a6d1724-0c32-4ba0-bfe7-21e90d16d06e"},"vehicle_type_id":"4","last_reported":1751533945,"current_range_meters":14400,"station_id":"ce4bh292rcd13ifvqdf0","pricing_plan_id":"cebpf4jnsgd1na2vs0mg"},{"bike_id":"e0b31604-a1dc-4221-af06-6c471433d95d","system_id":"levelo_inurba_marseille","lat":43.23195,"lon":5.35553,"is_reserved":false,"is_disabled":false,"rental_uris":{"android":"levelo://app?vid=e0b31604-a1dc-4221-af06-6c471433d95d","ios":"levelo://app?vid=e0b31604-a1dc-4221-af06-6c471433d95d"},"vehicle_type_id":"4","last_reported":1751533945,"current_range_meters":14400,"station_id":"ce4bhu92rcd13ifvqi70","pricing_plan_id":"cebpf4jnsgd1na2vs0mg"},{"bike_id":"8bf0d992-d2a0-428e-940a-091ee9b7c2a4","system_id":"levelo_inurba_marseille","lat":43.21215,"lon":5.3507,"is_reserved":false,"is_disabled":false,"rental_uris":{"android":"levelo://app?vid=8bf0d992-d2a0-428e-940a-091ee9b7c2a4","ios":"levelo://app?vid=8bf0d992-d2a0-428e-940a-091ee9b7c2a4"},"vehicle_type_id":"4","last_reported":1751533945,"current_range_meters":14400,"station_id":"st_cvj6sg6p6f1abm77japg","pricing_plan_id":"cebpf4jnsgd1na2vs0mg"},{"bike_id":"c10a4283-320d-4e64-8d75-ff83e94026ba","system_id":"levelo_inurba_marseille","lat":43.211901,"lon":5.350729,"is_reserved":false,"is_disabled":false,"rental_uris":{"android":"levelo://app?vid=c10a4283-320d-4e64-8d75-ff83e94026ba","ios":"levelo://app?vid=c10a4283-320d-4e64-8d75-ff83e94026ba"},"vehicle_type_id":"4","last_reported":1751533945,"current_range_meters":14400,"station_id":"st_cvj6sg6p6f1abm77japg","pricing_plan_id":"cebpf4jnsgd1na2vs0mg"},{"bike_id":"86f5aa82-222b-4d91-b8fa-133ba42bd186","system_id":"levelo_inurba_marseille","lat":43.30142,"lon":5.37419,"is_reserved":false,"is_disabled":false,"rental_uris":{"android":"levelo://app?vid=86f5aa82-222b-4d91-b8fa-133ba42bd186","ios":"levelo://app?vid=86f5aa82-222b-4d91-b8fa-133ba42bd186"},"vehicle_type_id":"4","last_reported":1751533945,"current_range_meters":14800,"station_id":"ce4bgs92rcd13ifvqcc0","pricing_plan_id":"cebpf4jnsgd1na2vs0mg"},{"bike_id":"c40c697f-0fe0-4085-b54a-254e8af37944","system_id":"levelo_inurba_marseille","lat":43.24655,"lon":5.38894,"is_reserved":false,"is_disabled":false,"rental_uris":{"android":"levelo://app?vid=c40c697f-0fe0-4085-b54a-254e8af37944","ios":"levelo://app?vid=c40c697f-0fe0-4085-b54a-254e8af37944"},"vehicle_type_id":"4","last_reported":1751533945,"current_range_meters":14800,"station_id":"ce4bhg12rcd13ifvqf60","pricing_plan_id":"cebpf4jnsgd1na2vs0mg"},{"bike_id":"912d67f3-78e7-48fd-8929-37f0572cfee4","system_id":"levelo_inurba_marseille","lat":43.26398,"lon":5.37429,"is_reserved":false,"is_disabled":false,"rental_uris":{"android":"levelo://app?vid=912d67f3-78e7-48fd-8929-37f0572cfee4","ios":"levelo://app?vid=912d67f3-78e7-48fd-8929-37f0572cfee4"},"vehicle_type_id":"4","last_reported":1751533945,"current_range_meters":15200,"station_id":"","pricing_plan_id":"cebpf4jnsgd1na2vs0mg"},{"bike_id":"190cfeed-d109-41bf-961c-0dc2409d0ad3","system_id":"levelo_inurba_marseille","lat":43.331493,"lon":5.381703,"is_reserved":false,"is_disabled":false,"rental_uris":{"android":"levelo://app?vid=190cfeed-d109-41bf-961c-0dc2409d0ad3","ios":"levelo://app?vid=190cfeed-d109-41bf-961c-0dc2409d0ad3"},"vehicle_type_id":"4","last_reported":1751533945,"current_range_meters":15200,"station_id":"","pricing_plan_id":"cebpf4jnsgd1na2vs0mg"},{"bike_id":"a4e15f80-53fd-417d-9757-38e79c796361","system_id":"levelo_inurba_marseille","lat":43.30534,"lon":5.36713,"is_reserved":false,"is_disabled":false,"rental_uris":{"android":"levelo://app?vid=a4e15f80-53fd-417d-9757-38e79c796361","ios":"levelo://app?vid=a4e15f80-53fd-417d-9757-38e79c796361"},"vehicle_type_id":"4","last_reported":1751533945,"current_range_meters":15200,"station_id":"ce4bgrp2rcd13ifvqc9g","pricing_plan_id":"cebpf4jnsgd1na2vs0mg"},{"bike_id":"aa0f1230-e1e9-41f1-9211-043e633764ce","system_id":"levelo_inurba_marseille","lat":43.30532,"lon":5.36524,"is_reserved":false,"is_disabled":false,"rental_uris":{"android":"levelo://app?vid=aa0f1230-e1e9-41f1-9211-043e633764ce","ios":"levelo://app?vid=aa0f1230-e1e9-41f1-9211-043e633764ce"},"vehicle_type_id":"4","last_reported":1751533945,"current_range_meters":15200,"station_id":"ce4bgs12rcd13ifvqcag","pricing_plan_id":"cebpf4jnsgd1na2vs0mg"},{"bike_id":"7bab1ae9-9e76-4bc4-8397-502ce0d2fefc","system_id":"levelo_inurba_marseille","lat":43.29034,"lon":5.39981,"is_reserved":false,"is_disabled":false,"rental_uris":{"android":"levelo://app?vid=7bab1ae9-9e76-4bc4-8397-502ce0d2fefc","ios":"levelo://app?vid=7bab1ae9-9e76-4bc4-8397-502ce0d2fefc"},"vehicle_type_id":"4","last_reported":1751533945,"current_range_meters":15200,"station_id":"ce4bh392rcd13ifvqdm0","pricing_plan_id":"cebpf4jnsgd1na2vs0mg"},{"bike_id":"d3bdb41c-8b0a-446d-98af-e6de2988fc13","system_id":"levelo_inurba_marseille","lat":43.22507,"lon":5.34783,"is_reserved":false,"is_disabled":false,"rental_uris":{"android":"levelo://app?vid=d3bdb41c-8b0a-446d-98af-e6de2988fc13","ios":"levelo://app?vid=d3bdb41c-8b0a-446d-98af-e6de2988fc13"},"vehicle_type_id":"4","last_reported":1751533945,"current_range_meters":15200,"station_id":"st_cvj5dfep6f1abm77gieg","pricing_plan_id":"cebpf4jnsgd1na2vs0mg"},{"bike_id":"3127aa94-ef1f-4ab8-b2e3-1da153a47168","system_id":"levelo_inurba_marseille","lat":43.22505,"lon":5.34784,"is_reserved":false,"is_disabled":false,"rental_uris":{"android":"levelo://app?vid=3127aa94-ef1f-4ab8-b2e3-1da153a47168","ios":"levelo://app?vid=3127aa94-ef1f-4ab8-b2e3-1da153a47168"},"vehicle_type_id":"4","last_reported":1751533945,"current_range_meters":15200,"station_id":"st_cvj5dfep6f1abm77gieg","pricing_plan_id":"cebpf4jnsgd1na2vs0mg"},{"bike_id":"53c08543-4f96-4c27-ae51-577052222647","system_id":"levelo_inurba_marseille","lat":43.29775,"lon":5.38059,"is_reserved":false,"is_disabled":false,"rental_uris":{"android":"levelo://app?vid=53c08543-4f96-4c27-ae51-577052222647","ios":"levelo://app?vid=53c08543-4f96-4c27-ae51-577052222647"},"vehicle_type_id":"4","last_reported":1751533945,"current_range_meters":16000,"station_id":"","pricing_plan_id":"cebpf4jnsgd1na2vs0mg"},{"bike_id":"ffc4ee84-d1be-4ebc-8ebf-1a1ca37b8401","system_id":"levelo_inurba_marseille","lat":43.30851,"lon":5.37417,"is_reserved":false,"is_disabled":false,"rental_uris":{"android":"levelo://app?vid=ffc4ee84-d1be-4ebc-8ebf-1a1ca37b8401","ios":"levelo://app?vid=ffc4ee84-d1be-4ebc-8ebf-1a1ca37b8401"},"vehicle_type_id":"4","last_reported":1751533945,"current_range_meters":16000,"station_id":"","pricing_plan_id":"cebpf4jnsgd1na2vs0mg"},{"bike_id":"652c661a-79b2-4990-be8e-d6435b062c70","system_id":"levelo_inurba_marseille","lat":43.3054,"lon":5.3654,"is_reserved":false,"is_disabled":false,"rental_uris":{"android":"levelo://app?vid=652c661a-79b2-4990-be8e-d6435b062c70","ios":"levelo://app?vid=652c661a-79b2-4990-be8e-d6435b062c70"},"vehicle_type_id":"4","last_reported":1751533945,"current_range_meters":16000,"station_id":"ce4bgs12rcd13ifvqcag","pricing_plan_id":"cebpf4jnsgd1na2vs0mg"},{"bike_id":"77962f41-f19d-4050-be70-108283babbb8","system_id":"levelo_inurba_marseille","lat":43.27218,"lon":5.39181,"is_reserved":false,"is_disabled":false,"rental_uris":{"android":"levelo://app?vid=77962f41-f19d-4050-be70-108283babbb8","ios":"levelo://app?vid=77962f41-f19d-4050-be70-108283babbb8"},"vehicle_type_id":"4","last_reported":1751533945,"current_range_meters":16000,"station_id":"ce4bhhp2rcd13ifvqfm0","pricing_plan_id":"cebpf4jnsgd1na2vs0mg"},{"bike_id":"f1d574fe-b8fe-4c96-8b6e-6b6371138207","system_id":"levelo_inurba_marseille","lat":43.3237,"lon":5.38881,"is_reserved":false,"is_disabled":false,"rental_uris":{"android":"levelo://app?vid=f1d574fe-b8fe-4c96-8b6e-6b6371138207","ios":"levelo://app?vid=f1d574fe-b8fe-4c96-8b6e-6b6371138207"},"vehicle_type_id":"4","last_reported":1751533945,"current_range_meters":16000,"station_id":"ce4bhqp2rcd13ifvqhog","pricing_plan_id":"cebpf4jnsgd1na2vs0mg"},{"bike_id":"0f590c2a-c81e-469d-a7d1-2741de3642a2","system_id":"levelo_inurba_marseille","lat":43.21189,"lon":5.35068,"is_reserved":false,"is_disabled":false,"rental_uris":{"android":"levelo://app?vid=0f590c2a-c81e-469d-a7d1-2741de3642a2","ios":"levelo://app?vid=0f590c2a-c81e-469d-a7d1-2741de3642a2"},"vehicle_type_id":"4","last_reported":1751533945,"current_range_meters":16000,"station_id":"st_cvj6sg6p6f1abm77japg","pricing_plan_id":"cebpf4jnsgd1na2vs0mg"},{"bike_id":"ba154a12-11bd-42a5-958a-5992f5d043d1","system_id":"levelo_inurba_marseille","lat":43.30527,"lon":5.37098,"is_reserved":false,"is_disabled":false,"rental_uris":{"android":"levelo://app?vid=ba154a12-11bd-42a5-958a-5992f5d043d1","ios":"levelo://app?vid=ba154a12-11bd-42a5-958a-5992f5d043d1"},"vehicle_type_id":"4","last_reported":1751533945,"current_range_meters":16400,"station_id":"","pricing_plan_id":"cebpf4jnsgd1na2vs0mg"},{"bike_id":"8272de41-f34b-4778-a5bd-6514fd1c2948","system_id":"levelo_inurba_marseille","lat":43.296911,"lon":5.372844,"is_reserved":false,"is_disabled":false,"rental_uris":{"android":"levelo://app?vid=8272de41-f34b-4778-a5bd-6514fd1c2948","ios":"levelo://app?vid=8272de41-f34b-4778-a5bd-6514fd1c2948"},"vehicle_type_id":"4","last_reported":1751533945,"current_range_meters":16400,"station_id":"ce4bgk12rcd13ifvqbj0","pricing_plan_id":"cebpf4jnsgd1na2vs0mg"},{"bike_id":"4e0ceeee-cc6c-4d5b-9838-93c57bc1c3b0","system_id":"levelo_inurba_marseille","lat":43.312377,"lon":5.368571,"is_reserved":false,"is_disabled":false,"rental_uris":{"android":"levelo://app?vid=4e0ceeee-cc6c-4d5b-9838-93c57bc1c3b0","ios":"levelo://app?vid=4e0ceeee-cc6c-4d5b-9838-93c57bc1c3b0"},"vehicle_type_id":"4","last_reported":1751533945,"current_range_meters":16400,"station_id":"ce4bgl92rcd13ifvqbq0","pricing_plan_id":"cebpf4jnsgd1na2vs0mg"},{"bike_id":"7a1c957a-4f44-46df-8e1f-c21a83d4b4b9","system_id":"levelo_inurba_marseille","lat":43.30886,"lon":5.3719,"is_reserved":false,"is_disabled":false,"rental_uris":{"android":"levelo://app?vid=7a1c957a-4f44-46df-8e1f-c21a83d4b4b9","ios":"levelo://app?vid=7a1c957a-4f44-46df-8e1f-c21a83d4b4b9"},"vehicle_type_id":"4","last_reported":1751533945,"current_range_meters":16400,"station_id":"ce4bguh2rcd13ifvqckg","pricing_plan_id":"cebpf4jnsgd1na2vs0mg"},{"bike_id":"b114c7d7-5812-4f16-aaa4-1d26988844ab","system_id":"levelo_inurba_marseille","lat":43.27188,"lon":5.40983,"is_reserved":false,"is_disabled":false,"rental_uris":{"android":"levelo://app?vid=b114c7d7-5812-4f16-aaa4-1d26988844ab","ios":"levelo://app?vid=b114c7d7-5812-4f16-aaa4-1d26988844ab"},"vehicle_type_id":"4","last_reported":1751533945,"current_range_meters":16400,"station_id":"ce4bhl12rcd13ifvqgf0","pricing_plan_id":"cebpf4jnsgd1na2vs0mg"},{"bike_id":"da921d92-526f-401b-95dc-b12109d1091d","system_id":"levelo_inurba_marseille","lat":43.33504,"lon":5.36349,"is_reserved":false,"is_disabled":false,"rental_uris":{"android":"levelo://app?vid=da921d92-526f-401b-95dc-b12109d1091d","ios":"levelo://app?vid=da921d92-526f-401b-95dc-b12109d1091d"},"vehicle_type_id":"4","last_reported":1751533945,"current_range_meters":16800,"station_id":"","pricing_plan_id":"cebpf4jnsgd1na2vs0mg"},{"bike_id":"7c67e7dd-7a7f-426b-9249-641f91643932","system_id":"levelo_inurba_marseille","lat":43.24169,"lon":5.36396,"is_reserved":false,"is_disabled":false,"rental_uris":{"android":"levelo://app?vid=7c67e7dd-7a7f-426b-9249-641f91643932","ios":"levelo://app?vid=7c67e7dd-7a7f-426b-9249-641f91643932"},"vehicle_type_id":"4","last_reported":1751533945,"current_range_meters":16800,"station_id":"","pricing_plan_id":"cebpf4jnsgd1na2vs0mg"},{"bike_id":"99c01276-33a5-45a7-b325-33368be4a458","system_id":"levelo_inurba_marseille","lat":43.31226,"lon":5.36856,"is_reserved":false,"is_disabled":false,"rental_uris":{"android":"levelo://app?vid=99c01276-33a5-45a7-b325-33368be4a458","ios":"levelo://app?vid=99c01276-33a5-45a7-b325-33368be4a458"},"vehicle_type_id":"4","last_reported":1751533945,"current_range_meters":16800,"station_id":"ce4bgl92rcd13ifvqbq0","pricing_plan_id":"cebpf4jnsgd1na2vs0mg"},{"bike_id":"edd0dadd-87f4-4c2e-bcb9-48eff12407b8","system_id":"levelo_inurba_marseille","lat":43.32474,"lon":5.36565,"is_reserved":false,"is_disabled":false,"rental_uris":{"android":"levelo://app?vid=edd0dadd-87f4-4c2e-bcb9-48eff12407b8","ios":"levelo://app?vid=edd0dadd-87f4-4c2e-bcb9-48eff12407b8"},"vehicle_type_id":"4","last_reported":1751533945,"current_range_meters":16800,"station_id":"ce4bhs12rcd13ifvqhvg","pricing_plan_id":"cebpf4jnsgd1na2vs0mg"},{"bike_id":"37b84a38-055a-4a6e-a56a-8ff3d0c1b2ec","system_id":"levelo_inurba_marseille","lat":43.21199,"lon":5.350718,"is_reserved":false,"is_disabled":false,"rental_uris":{"android":"levelo://app?vid=37b84a38-055a-4a6e-a56a-8ff3d0c1b2ec","ios":"levelo://app?vid=37b84a38-055a-4a6e-a56a-8ff3d0c1b2ec"},"vehicle_type_id":"4","last_reported":1751533945,"current_range_meters":16800,"station_id":"st_cvj6sg6p6f1abm77japg","pricing_plan_id":"cebpf4jnsgd1na2vs0mg"},{"bike_id":"4d4995e7-0bba-4ac2-a238-afd84a5e99b5","system_id":"levelo_inurba_marseille","lat":43.304848,"lon":5.398345,"is_reserved":false,"is_disabled":false,"rental_uris":{"android":"levelo://app?vid=4d4995e7-0bba-4ac2-a238-afd84a5e99b5","ios":"levelo://app?vid=4d4995e7-0bba-4ac2-a238-afd84a5e99b5"},"vehicle_type_id":"4","last_reported":1751533945,"current_range_meters":17200,"station_id":"","pricing_plan_id":"cebpf4jnsgd1na2vs0mg"},{"bike_id":"d6a97fc8-7c5d-4b77-9d38-d22003db8fe5","system_id":"levelo_inurba_marseille","lat":43.34721,"lon":5.36602,"is_reserved":false,"is_disabled":false,"rental_uris":{"android":"levelo://app?vid=d6a97fc8-7c5d-4b77-9d38-d22003db8fe5","ios":"levelo://app?vid=d6a97fc8-7c5d-4b77-9d38-d22003db8fe5"},"vehicle_type_id":"4","last_reported":1751533945,"current_range_meters":17200,"station_id":"","pricing_plan_id":"cebpf4jnsgd1na2vs0mg"},{"bike_id":"b7b09818-17dd-4f4c-b0d1-56f89c474339","system_id":"levelo_inurba_marseille","lat":43.29934,"lon":5.36547,"is_reserved":false,"is_disabled":false,"rental_uris":{"android":"levelo://app?vid=b7b09818-17dd-4f4c-b0d1-56f89c474339","ios":"levelo://app?vid=b7b09818-17dd-4f4c-b0d1-56f89c474339"},"vehicle_type_id":"4","last_reported":1751533945,"current_range_meters":17200,"station_id":"ce4bgm92rcd13ifvqbr0","pricing_plan_id":"cebpf4jnsgd1na2vs0mg"},{"bike_id":"047fad09-98ed-481f-98cd-10a467775053","system_id":"levelo_inurba_marseille","lat":43.30918,"lon":5.36862,"is_reserved":false,"is_disabled":false,"rental_uris":{"android":"levelo://app?vid=047fad09-98ed-481f-98cd-10a467775053","ios":"levelo://app?vid=047fad09-98ed-481f-98cd-10a467775053"},"vehicle_type_id":"4","last_reported":1751533945,"current_range_meters":17200,"station_id":"ce4bgn92rcd13ifvqbvg","pricing_plan_id":"cebpf4jnsgd1na2vs0mg"},{"bike_id":"26ae346f-ca99-4c38-9343-2199527ce8ad","system_id":"levelo_inurba_marseille","lat":43.29038,"lon":5.39954,"is_reserved":false,"is_disabled":false,"rental_uris":{"android":"levelo://app?vid=26ae346f-ca99-4c38-9343-2199527ce8ad","ios":"levelo://app?vid=26ae346f-ca99-4c38-9343-2199527ce8ad"},"vehicle_type_id":"4","last_reported":1751533945,"current_range_meters":17200,"station_id":"ce4bh392rcd13ifvqdm0","pricing_plan_id":"cebpf4jnsgd1na2vs0mg"},{"bike_id":"bb4d6d50-9e76-429d-87e3-72a9b3336d59","system_id":"levelo_inurba_marseille","lat":43.26215,"lon":5.37933,"is_reserved":false,"is_disabled":false,"rental_uris":{"android":"levelo://app?vid=bb4d6d50-9e76-429d-87e3-72a9b3336d59","ios":"levelo://app?vid=bb4d6d50-9e76-429d-87e3-72a9b3336d59"},"vehicle_type_id":"4","last_reported":1751533945,"current_range_meters":17200,"station_id":"ce4bhjp2rcd13ifvqg90","pricing_plan_id":"cebpf4jnsgd1na2vs0mg"},{"bike_id":"705c4aaa-1439-4ad2-8816-54381199b97c","system_id":"levelo_inurba_marseille","lat":43.28438,"lon":5.3919,"is_reserved":false,"is_disabled":false,"rental_uris":{"android":"levelo://app?vid=705c4aaa-1439-4ad2-8816-54381199b97c","ios":"levelo://app?vid=705c4aaa-1439-4ad2-8816-54381199b97c"},"vehicle_type_id":"4","last_reported":1751533945,"current_range_meters":17200,"station_id":"ce4bhoh2rcd13ifvqh5g","pricing_plan_id":"cebpf4jnsgd1na2vs0mg"},{"bike_id":"a6715104-7492-4ec6-a996-23050baf8551","system_id":"levelo_inurba_marseille","lat":43.22526,"lon":5.34797,"is_reserved":false,"is_disabled":false,"rental_uris":{"android":"levelo://app?vid=a6715104-7492-4ec6-a996-23050baf8551","ios":"levelo://app?vid=a6715104-7492-4ec6-a996-23050baf8551"},"vehicle_type_id":"4","last_reported":1751533945,"current_range_meters":17200,"station_id":"st_cvj5dfep6f1abm77gieg","pricing_plan_id":"cebpf4jnsgd1na2vs0mg"},{"bike_id":"0c5e46df-9adb-4aa5-842c-17a1961c0106","system_id":"levelo_inurba_marseille","lat":43.279848,"lon":5.407091,"is_reserved":false,"is_disabled":false,"rental_uris":{"android":"levelo://app?vid=0c5e46df-9adb-4aa5-842c-17a1961c0106","ios":"levelo://app?vid=0c5e46df-9adb-4aa5-842c-17a1961c0106"},"vehicle_type_id":"4","last_reported":1751533945,"current_range_meters":17600,"station_id":"","pricing_plan_id":"cebpf4jnsgd1na2vs0mg"},{"bike_id":"0c4b7fdb-b39e-49b3-a2b0-ae3d0f43e89d","system_id":"levelo_inurba_marseille","lat":43.32866,"lon":5.40725,"is_reserved":false,"is_disabled":false,"rental_uris":{"android":"levelo://app?vid=0c4b7fdb-b39e-49b3-a2b0-ae3d0f43e89d","ios":"levelo://app?vid=0c4b7fdb-b39e-49b3-a2b0-ae3d0f43e89d"},"vehicle_type_id":"4","last_reported":1751533945,"current_range_meters":17600,"station_id":"","pricing_plan_id":"cebpf4jnsgd1na2vs0mg"},{"bike_id":"2ef81746-0fca-469c-ad0f-71b1d40821c4","system_id":"levelo_inurba_marseille","lat":43.29584,"lon":5.36732,"is_reserved":false,"is_disabled":false,"rental_uris":{"android":"levelo://app?vid=2ef81746-0fca-469c-ad0f-71b1d40821c4","ios":"levelo://app?vid=2ef81746-0fca-469c-ad0f-71b1d40821c4"},"vehicle_type_id":"4","last_reported":1751533945,"current_range_meters":17600,"station_id":"ce4bgph2rcd13ifvqc2g","pricing_plan_id":"cebpf4jnsgd1na2vs0mg"},{"bike_id":"a985f2f4-6a3b-46ba-a738-e84bc568026c","system_id":"levelo_inurba_marseille","lat":43.30538,"lon":5.36553,"is_reserved":false,"is_disabled":false,"rental_uris":{"android":"levelo://app?vid=a985f2f4-6a3b-46ba-a738-e84bc568026c","ios":"levelo://app?vid=a985f2f4-6a3b-46ba-a738-e84bc568026c"},"vehicle_type_id":"4","last_reported":1751533945,"current_range_meters":17600,"station_id":"ce4bgs12rcd13ifvqcag","pricing_plan_id":"cebpf4jnsgd1na2vs0mg"},{"bike_id":"3f591852-ce23-4a61-a250-d6c35138bef4","system_id":"levelo_inurba_marseille","lat":43.31451,"lon":5.37342,"is_reserved":false,"is_disabled":false,"rental_uris":{"android":"levelo://app?vid=3f591852-ce23-4a61-a250-d6c35138bef4","ios":"levelo://app?vid=3f591852-ce23-4a61-a250-d6c35138bef4"},"vehicle_type_id":"4","last_reported":1751533945,"current_range_meters":17600,"station_id":"ce4bgt12rcd13ifvqcd0","pricing_plan_id":"cebpf4jnsgd1na2vs0mg"},{"bike_id":"a4bfd3cb-3b24-4535-a2db-c92bb8cbeef1","system_id":"levelo_inurba_marseille","lat":43.29266,"lon":5.3844,"is_reserved":false,"is_disabled":false,"rental_uris":{"android":"levelo://app?vid=a4bfd3cb-3b24-4535-a2db-c92bb8cbeef1","ios":"levelo://app?vid=a4bfd3cb-3b24-4535-a2db-c92bb8cbeef1"},"vehicle_type_id":"4","last_reported":1751533945,"current_range_meters":17600,"station_id":"ce4bh692rcd13ifvqea0","pricing_plan_id":"cebpf4jnsgd1na2vs0mg"},{"bike_id":"603f229c-09b9-4145-9510-d250a8eff49b","system_id":"levelo_inurba_marseille","lat":43.28629,"lon":5.35103,"is_reserved":false,"is_disabled":false,"rental_uris":{"android":"levelo://app?vid=603f229c-09b9-4145-9510-d250a8eff49b","ios":"levelo://app?vid=603f229c-09b9-4145-9510-d250a8eff49b"},"vehicle_type_id":"4","last_reported":1751533945,"current_range_meters":17600,"station_id":"ce4bhch2rcd13ifvqeug","pricing_plan_id":"cebpf4jnsgd1na2vs0mg"},{"bike_id":"9de5e5eb-7aca-47d5-a8fb-d44c5761fb80","system_id":"levelo_inurba_marseille","lat":43.2985,"lon":5.3628,"is_reserved":false,"is_disabled":false,"rental_uris":{"android":"levelo://app?vid=9de5e5eb-7aca-47d5-a8fb-d44c5761fb80","ios":"levelo://app?vid=9de5e5eb-7aca-47d5-a8fb-d44c5761fb80"},"vehicle_type_id":"4","last_reported":1751533945,"current_range_meters":18000,"station_id":"ce4bgpp2rcd13ifvqc3g","pricing_plan_id":"cebpf4jnsgd1na2vs0mg"},{"bike_id":"86965996-fbd0-4775-a56d-fecc5d1f4e12","system_id":"levelo_inurba_marseille","lat":43.27563,"lon":5.38412,"is_reserved":false,"is_disabled":false,"rental_uris":{"android":"levelo://app?vid=86965996-fbd0-4775-a56d-fecc5d1f4e12","ios":"levelo://app?vid=86965996-fbd0-4775-a56d-fecc5d1f4e12"},"vehicle_type_id":"4","last_reported":1751533945,"current_range_meters":18000,"station_id":"ce4bhh92rcd13ifvqfi0","pricing_plan_id":"cebpf4jnsgd1na2vs0mg"},{"bike_id":"57e84e33-8ef2-49b0-9c52-2dd89adcc82a","system_id":"levelo_inurba_marseille","lat":43.23157,"lon":5.43711,"is_reserved":false,"is_disabled":false,"rental_uris":{"android":"levelo://app?vid=57e84e33-8ef2-49b0-9c52-2dd89adcc82a","ios":"levelo://app?vid=57e84e33-8ef2-49b0-9c52-2dd89adcc82a"},"vehicle_type_id":"4","last_reported":1751533945,"current_range_meters":18000,"station_id":"ce4bhmp2rcd13ifvqgog","pricing_plan_id":"cebpf4jnsgd1na2vs0mg"},{"bike_id":"53448929-ad6a-47c2-8f36-ea03d61aefc9","system_id":"levelo_inurba_marseille","lat":43.29799,"lon":5.39344,"is_reserved":false,"is_disabled":false,"rental_uris":{"android":"levelo://app?vid=53448929-ad6a-47c2-8f36-ea03d61aefc9","ios":"levelo://app?vid=53448929-ad6a-47c2-8f36-ea03d61aefc9"},"vehicle_type_id":"4","last_reported":1751533945,"current_range_meters":18000,"station_id":"chh1huq6cuj3fo74tm60","pricing_plan_id":"cebpf4jnsgd1na2vs0mg"},{"bike_id":"7e21e8f2-09c8-4cc5-8113-278ebd23888d","system_id":"levelo_inurba_marseille","lat":43.211974,"lon":5.350613,"is_reserved":false,"is_disabled":false,"rental_uris":{"android":"levelo://app?vid=7e21e8f2-09c8-4cc5-8113-278ebd23888d","ios":"levelo://app?vid=7e21e8f2-09c8-4cc5-8113-278ebd23888d"},"vehicle_type_id":"4","last_reported":1751533945,"current_range_meters":18000,"station_id":"st_cvj6sg6p6f1abm77japg","pricing_plan_id":"cebpf4jnsgd1na2vs0mg"},{"bike_id":"cc04118e-9312-4bf8-9106-d64e829afbaa","system_id":"levelo_inurba_marseille","lat":43.212,"lon":5.35066,"is_reserved":false,"is_disabled":false,"rental_uris":{"android":"levelo://app?vid=cc04118e-9312-4bf8-9106-d64e829afbaa","ios":"levelo://app?vid=cc04118e-9312-4bf8-9106-d64e829afbaa"},"vehicle_type_id":"4","last_reported":1751533945,"current_range_meters":18000,"station_id":"st_cvj6sg6p6f1abm77japg","pricing_plan_id":"cebpf4jnsgd1na2vs0mg"},{"bike_id":"b2ce53ca-166b-417e-9d70-9bee393f75bb","system_id":"levelo_inurba_marseille","lat":43.21197,"lon":5.35071,"is_reserved":false,"is_disabled":false,"rental_uris":{"android":"levelo://app?vid=b2ce53ca-166b-417e-9d70-9bee393f75bb","ios":"levelo://app?vid=b2ce53ca-166b-417e-9d70-9bee393f75bb"},"vehicle_type_id":"4","last_reported":1751533945,"current_range_meters":18000,"station_id":"st_cvj6sg6p6f1abm77japg","pricing_plan_id":"cebpf4jnsgd1na2vs0mg"},{"bike_id":"1c8ab180-05fd-405f-9922-b2b2c2d5142f","system_id":"levelo_inurba_marseille","lat":43.337913,"lon":5.381199,"is_reserved":false,"is_disabled":false,"rental_uris":{"android":"levelo://app?vid=1c8ab180-05fd-405f-9922-b2b2c2d5142f","ios":"levelo://app?vid=1c8ab180-05fd-405f-9922-b2b2c2d5142f"},"vehicle_type_id":"4","last_reported":1751533945,"current_range_meters":18800,"station_id":"","pricing_plan_id":"cebpf4jnsgd1na2vs0mg"},{"bike_id":"6549ee4c-bc17-4f46-9a88-6a1fb0f90881","system_id":"levelo_inurba_marseille","lat":43.28998,"lon":5.386768,"is_reserved":false,"is_disabled":false,"rental_uris":{"android":"levelo://app?vid=6549ee4c-bc17-4f46-9a88-6a1fb0f90881","ios":"levelo://app?vid=6549ee4c-bc17-4f46-9a88-6a1fb0f90881"},"vehicle_type_id":"4","last_reported":1751533945,"current_range_meters":18800,"station_id":"ce4bh4p2rcd13ifvqe0g","pricing_plan_id":"cebpf4jnsgd1na2vs0mg"},{"bike_id":"c720ddc0-789d-41bd-8c6f-760ef217b249","system_id":"levelo_inurba_marseille","lat":43.292662,"lon":5.384379,"is_reserved":false,"is_disabled":false,"rental_uris":{"android":"levelo://app?vid=c720ddc0-789d-41bd-8c6f-760ef217b249","ios":"levelo://app?vid=c720ddc0-789d-41bd-8c6f-760ef217b249"},"vehicle_type_id":"4","last_reported":1751533945,"current_range_meters":18800,"station_id":"ce4bh692rcd13ifvqea0","pricing_plan_id":"cebpf4jnsgd1na2vs0mg"},{"bike_id":"df2ad5da-c9c7-4100-b825-8bb9694e84cb","system_id":"levelo_inurba_marseille","lat":43.26209,"lon":5.37436,"is_reserved":false,"is_disabled":false,"rental_uris":{"android":"levelo://app?vid=df2ad5da-c9c7-4100-b825-8bb9694e84cb","ios":"levelo://app?vid=df2ad5da-c9c7-4100-b825-8bb9694e84cb"},"vehicle_type_id":"4","last_reported":1751533945,"current_range_meters":18800,"station_id":"ce4bhgp2rcd13ifvqfc0","pricing_plan_id":"cebpf4jnsgd1na2vs0mg"},{"bike_id":"32fc2626-3706-4a1f-8698-4b5854fdb070","system_id":"levelo_inurba_marseille","lat":43.27213,"lon":5.39181,"is_reserved":false,"is_disabled":false,"rental_uris":{"android":"levelo://app?vid=32fc2626-3706-4a1f-8698-4b5854fdb070","ios":"levelo://app?vid=32fc2626-3706-4a1f-8698-4b5854fdb070"},"vehicle_type_id":"4","last_reported":1751533945,"current_range_meters":18800,"station_id":"ce4bhhp2rcd13ifvqfm0","pricing_plan_id":"cebpf4jnsgd1na2vs0mg"},{"bike_id":"9e407ba8-2841-4932-8f97-01cd9325a67e","system_id":"levelo_inurba_marseille","lat":43.25727,"lon":5.41108,"is_reserved":false,"is_disabled":false,"rental_uris":{"android":"levelo://app?vid=9e407ba8-2841-4932-8f97-01cd9325a67e","ios":"levelo://app?vid=9e407ba8-2841-4932-8f97-01cd9325a67e"},"vehicle_type_id":"4","last_reported":1751533945,"current_range_meters":18800,"station_id":"ce4bhkp2rcd13ifvqgd0","pricing_plan_id":"cebpf4jnsgd1na2vs0mg"},{"bike_id":"51028876-31ee-4e14-9aaf-eac088c567df","system_id":"levelo_inurba_marseille","lat":43.25943,"lon":5.40875,"is_reserved":false,"is_disabled":false,"rental_uris":{"android":"levelo://app?vid=51028876-31ee-4e14-9aaf-eac088c567df","ios":"levelo://app?vid=51028876-31ee-4e14-9aaf-eac088c567df"},"vehicle_type_id":"4","last_reported":1751533945,"current_range_meters":18800,"station_id":"ce4bhm92rcd13ifvqglg","pricing_plan_id":"cebpf4jnsgd1na2vs0mg"},{"bike_id":"072c1623-0cde-4bde-882e-9ebd9afe837d","system_id":"levelo_inurba_marseille","lat":43.23154,"lon":5.43714,"is_reserved":false,"is_disabled":false,"rental_uris":{"android":"levelo://app?vid=072c1623-0cde-4bde-882e-9ebd9afe837d","ios":"levelo://app?vid=072c1623-0cde-4bde-882e-9ebd9afe837d"},"vehicle_type_id":"4","last_reported":1751533945,"current_range_meters":18800,"station_id":"ce4bhmp2rcd13ifvqgog","pricing_plan_id":"cebpf4jnsgd1na2vs0mg"},{"bike_id":"0dbbfd7c-5e93-4301-aea8-6d89ce7ed33b","system_id":"levelo_inurba_marseille","lat":43.217519,"lon":5.346006,"is_reserved":false,"is_disabled":false,"rental_uris":{"android":"levelo://app?vid=0dbbfd7c-5e93-4301-aea8-6d89ce7ed33b","ios":"levelo://app?vid=0dbbfd7c-5e93-4301-aea8-6d89ce7ed33b"},"vehicle_type_id":"4","last_reported":1751533945,"current_range_meters":18800,"station_id":"st_cvj6r9ubvosntc0bgbag","pricing_plan_id":"cebpf4jnsgd1na2vs0mg"},{"bike_id":"587e85fa-90f1-4359-a39f-d6529b993743","system_id":"levelo_inurba_marseille","lat":43.298049,"lon":5.362887,"is_reserved":false,"is_disabled":false,"rental_uris":{"android":"levelo://app?vid=587e85fa-90f1-4359-a39f-d6529b993743","ios":"levelo://app?vid=587e85fa-90f1-4359-a39f-d6529b993743"},"vehicle_type_id":"4","last_reported":1751533945,"current_range_meters":19200,"station_id":"ce4bgpp2rcd13ifvqc3g","pricing_plan_id":"cebpf4jnsgd1na2vs0mg"},{"bike_id":"6d6660c9-6045-4f5e-bc25-d9cc64b6e68e","system_id":"levelo_inurba_marseille","lat":43.28942,"lon":5.39629,"is_reserved":false,"is_disabled":false,"rental_uris":{"android":"levelo://app?vid=6d6660c9-6045-4f5e-bc25-d9cc64b6e68e","ios":"levelo://app?vid=6d6660c9-6045-4f5e-bc25-d9cc64b6e68e"},"vehicle_type_id":"4","last_reported":1751533945,"current_range_meters":19200,"station_id":"ce4bh3h2rcd13ifvqdn0","pricing_plan_id":"cebpf4jnsgd1na2vs0mg"},{"bike_id":"033b3aed-dfdd-464c-ab97-321e6947c9bd","system_id":"levelo_inurba_marseille","lat":43.24385,"lon":5.37046,"is_reserved":false,"is_disabled":false,"rental_uris":{"android":"levelo://app?vid=033b3aed-dfdd-464c-ab97-321e6947c9bd","ios":"levelo://app?vid=033b3aed-dfdd-464c-ab97-321e6947c9bd"},"vehicle_type_id":"4","last_reported":1751533945,"current_range_meters":19200,"station_id":"ce4bhhh2rcd13ifvqfk0","pricing_plan_id":"cebpf4jnsgd1na2vs0mg"},{"bike_id":"b4c35204-b5e4-4dac-8702-34316c5de557","system_id":"levelo_inurba_marseille","lat":43.24177,"lon":5.39722,"is_reserved":false,"is_disabled":false,"rental_uris":{"android":"levelo://app?vid=b4c35204-b5e4-4dac-8702-34316c5de557","ios":"levelo://app?vid=b4c35204-b5e4-4dac-8702-34316c5de557"},"vehicle_type_id":"4","last_reported":1751533945,"current_range_meters":19200,"station_id":"ce4bhn12rcd13ifvqgpg","pricing_plan_id":"cebpf4jnsgd1na2vs0mg"},{"bike_id":"5f1e5526-9ff8-4075-8194-48a897f058b4","system_id":"levelo_inurba_marseille","lat":43.212117,"lon":5.350836,"is_reserved":false,"is_disabled":false,"rental_uris":{"android":"levelo://app?vid=5f1e5526-9ff8-4075-8194-48a897f058b4","ios":"levelo://app?vid=5f1e5526-9ff8-4075-8194-48a897f058b4"},"vehicle_type_id":"4","last_reported":1751533945,"current_range_meters":19200,"station_id":"st_cvj6sg6p6f1abm77japg","pricing_plan_id":"cebpf4jnsgd1na2vs0mg"},{"bike_id":"0842b60a-2aa4-435e-9c3c-52a922da68f4","system_id":"levelo_inurba_marseille","lat":43.31168,"lon":5.38719,"is_reserved":false,"is_disabled":false,"rental_uris":{"android":"levelo://app?vid=0842b60a-2aa4-435e-9c3c-52a922da68f4","ios":"levelo://app?vid=0842b60a-2aa4-435e-9c3c-52a922da68f4"},"vehicle_type_id":"4","last_reported":1751533945,"current_range_meters":19600,"station_id":"","pricing_plan_id":"cebpf4jnsgd1na2vs0mg"},{"bike_id":"21522ee2-42a9-4834-bba1-e2afe9a37c3d","system_id":"levelo_inurba_marseille","lat":43.30918,"lon":5.36845,"is_reserved":false,"is_disabled":false,"rental_uris":{"android":"levelo://app?vid=21522ee2-42a9-4834-bba1-e2afe9a37c3d","ios":"levelo://app?vid=21522ee2-42a9-4834-bba1-e2afe9a37c3d"},"vehicle_type_id":"4","last_reported":1751533945,"current_range_meters":19600,"station_id":"ce4bgn92rcd13ifvqbvg","pricing_plan_id":"cebpf4jnsgd1na2vs0mg"},{"bike_id":"62216843-d9c4-47b8-bcd2-70812d8e2b95","system_id":"levelo_inurba_marseille","lat":43.304626,"lon":5.37911,"is_reserved":false,"is_disabled":false,"rental_uris":{"android":"levelo://app?vid=62216843-d9c4-47b8-bcd2-70812d8e2b95","ios":"levelo://app?vid=62216843-d9c4-47b8-bcd2-70812d8e2b95"},"vehicle_type_id":"4","last_reported":1751533945,"current_range_meters":19600,"station_id":"ce4bgup2rcd13ifvqcn0","pricing_plan_id":"cebpf4jnsgd1na2vs0mg"},{"bike_id":"ec19b26d-8eae-4bd6-97bb-8c8b96809804","system_id":"levelo_inurba_marseille","lat":43.30951,"lon":5.39029,"is_reserved":false,"is_disabled":false,"rental_uris":{"android":"levelo://app?vid=ec19b26d-8eae-4bd6-97bb-8c8b96809804","ios":"levelo://app?vid=ec19b26d-8eae-4bd6-97bb-8c8b96809804"},"vehicle_type_id":"4","last_reported":1751533945,"current_range_meters":19600,"station_id":"ce4bgup2rcd13ifvqco0","pricing_plan_id":"cebpf4jnsgd1na2vs0mg"},{"bike_id":"e9d26c79-d78f-4002-bc79-c4aa63e66364","system_id":"levelo_inurba_marseille","lat":43.31174,"lon":5.38696,"is_reserved":false,"is_disabled":false,"rental_uris":{"android":"levelo://app?vid=e9d26c79-d78f-4002-bc79-c4aa63e66364","ios":"levelo://app?vid=e9d26c79-d78f-4002-bc79-c4aa63e66364"},"vehicle_type_id":"4","last_reported":1751533945,"current_range_meters":19600,"station_id":"ce4bgv12rcd13ifvqcp0","pricing_plan_id":"cebpf4jnsgd1na2vs0mg"},{"bike_id":"6a954f3a-d8ec-4641-b29c-6dd0943e2967","system_id":"levelo_inurba_marseille","lat":43.295155,"lon":5.394002,"is_reserved":false,"is_disabled":false,"rental_uris":{"android":"levelo://app?vid=6a954f3a-d8ec-4641-b29c-6dd0943e2967","ios":"levelo://app?vid=6a954f3a-d8ec-4641-b29c-6dd0943e2967"},"vehicle_type_id":"4","last_reported":1751533945,"current_range_meters":19600,"station_id":"ce4bh292rcd13ifvqdf0","pricing_plan_id":"cebpf4jnsgd1na2vs0mg"},{"bike_id":"ee0a9c2f-7f3d-4efa-b63a-8bd1d6102b5b","system_id":"levelo_inurba_marseille","lat":43.25935,"lon":5.40909,"is_reserved":false,"is_disabled":false,"rental_uris":{"android":"levelo://app?vid=ee0a9c2f-7f3d-4efa-b63a-8bd1d6102b5b","ios":"levelo://app?vid=ee0a9c2f-7f3d-4efa-b63a-8bd1d6102b5b"},"vehicle_type_id":"4","last_reported":1751533945,"current_range_meters":19600,"station_id":"ce4bhm92rcd13ifvqglg","pricing_plan_id":"cebpf4jnsgd1na2vs0mg"},{"bike_id":"b7f4c6d1-5c77-4a9b-8e4e-6c52d4c8d7ce","system_id":"levelo_inurba_marseille","lat":43.24177,"lon":5.39717,"is_reserved":false,"is_disabled":false,"rental_uris":{"android":"levelo://app?vid=b7f4c6d1-5c77-4a9b-8e4e-6c52d4c8d7ce","ios":"levelo://app?vid=b7f4c6d1-5c77-4a9b-8e4e-6c52d4c8d7ce"},"vehicle_type_id":"4","last_reported":1751533945,"current_range_meters":19600,"station_id":"ce4bhn12rcd13ifvqgpg","pricing_plan_id":"cebpf4jnsgd1na2vs0mg"},{"bike_id":"5ecbe7d9-b835-47e3-87d6-0fd67017673c","system_id":"levelo_inurba_marseille","lat":43.32115,"lon":5.36765,"is_reserved":false,"is_disabled":false,"rental_uris":{"android":"levelo://app?vid=5ecbe7d9-b835-47e3-87d6-0fd67017673c","ios":"levelo://app?vid=5ecbe7d9-b835-47e3-87d6-0fd67017673c"},"vehicle_type_id":"4","last_reported":1751533945,"current_range_meters":19600,"station_id":"ce4bhrh2rcd13ifvqhug","pricing_plan_id":"cebpf4jnsgd1na2vs0mg"},{"bike_id":"32c0fc37-6823-41d0-9497-8d1eea24742c","system_id":"levelo_inurba_marseille","lat":43.2417,"lon":5.363979,"is_reserved":false,"is_disabled":false,"rental_uris":{"android":"levelo://app?vid=32c0fc37-6823-41d0-9497-8d1eea24742c","ios":"levelo://app?vid=32c0fc37-6823-41d0-9497-8d1eea24742c"},"vehicle_type_id":"4","last_reported":1751533945,"current_range_meters":19600,"station_id":"cpo36qri1sfpv3e86is0","pricing_plan_id":"cebpf4jnsgd1na2vs0mg"},{"bike_id":"5ca573f7-adce-4e65-a0a5-8aecba433aef","system_id":"levelo_inurba_marseille","lat":43.30969,"lon":5.39046,"is_reserved":false,"is_disabled":false,"rental_uris":{"android":"levelo://app?vid=5ca573f7-adce-4e65-a0a5-8aecba433aef","ios":"levelo://app?vid=5ca573f7-adce-4e65-a0a5-8aecba433aef"},"vehicle_type_id":"4","last_reported":1751533945,"current_range_meters":20000,"station_id":"ce4bgup2rcd13ifvqco0","pricing_plan_id":"cebpf4jnsgd1na2vs0mg"},{"bike_id":"a8da4edb-61f5-40dc-9dfa-513915f9c982","system_id":"levelo_inurba_marseille","lat":43.290056,"lon":5.355964,"is_reserved":false,"is_disabled":false,"rental_uris":{"android":"levelo://app?vid=a8da4edb-61f5-40dc-9dfa-513915f9c982","ios":"levelo://app?vid=a8da4edb-61f5-40dc-9dfa-513915f9c982"},"vehicle_type_id":"4","last_reported":1751533945,"current_range_meters":20000,"station_id":"ce4bhb92rcd13ifvqen0","pricing_plan_id":"cebpf4jnsgd1na2vs0mg"},{"bike_id":"08e81811-c9ab-430d-a98b-a4424b37dd49","system_id":"levelo_inurba_marseille","lat":43.29562,"lon":5.42291,"is_reserved":false,"is_disabled":false,"rental_uris":{"android":"levelo://app?vid=08e81811-c9ab-430d-a98b-a4424b37dd49","ios":"levelo://app?vid=08e81811-c9ab-430d-a98b-a4424b37dd49"},"vehicle_type_id":"4","last_reported":1751533945,"current_range_meters":20000,"station_id":"ce4bhph2rcd13ifvqhdg","pricing_plan_id":"cebpf4jnsgd1na2vs0mg"},{"bike_id":"3eabe1e2-f9f5-41cb-a4ed-73ca7f909c5c","system_id":"levelo_inurba_marseille","lat":43.212,"lon":5.35071,"is_reserved":false,"is_disabled":false,"rental_uris":{"android":"levelo://app?vid=3eabe1e2-f9f5-41cb-a4ed-73ca7f909c5c","ios":"levelo://app?vid=3eabe1e2-f9f5-41cb-a4ed-73ca7f909c5c"},"vehicle_type_id":"4","last_reported":1751533945,"current_range_meters":20000,"station_id":"st_cvj6sg6p6f1abm77japg","pricing_plan_id":"cebpf4jnsgd1na2vs0mg"},{"bike_id":"ba926bfc-9632-4680-b0ed-32a040d6fb83","system_id":"levelo_inurba_marseille","lat":43.211911,"lon":5.350698,"is_reserved":false,"is_disabled":false,"rental_uris":{"android":"levelo://app?vid=ba926bfc-9632-4680-b0ed-32a040d6fb83","ios":"levelo://app?vid=ba926bfc-9632-4680-b0ed-32a040d6fb83"},"vehicle_type_id":"4","last_reported":1751533945,"current_range_meters":20000,"station_id":"st_cvj6sg6p6f1abm77japg","pricing_plan_id":"cebpf4jnsgd1na2vs0mg"},{"bike_id":"b13877a6-4825-4d82-b46b-67fa8ad66c5d","system_id":"levelo_inurba_marseille","lat":43.2119,"lon":5.35067,"is_reserved":false,"is_disabled":false,"rental_uris":{"android":"levelo://app?vid=b13877a6-4825-4d82-b46b-67fa8ad66c5d","ios":"levelo://app?vid=b13877a6-4825-4d82-b46b-67fa8ad66c5d"},"vehicle_type_id":"4","last_reported":1751533945,"current_range_meters":20000,"station_id":"st_cvj6sg6p6f1abm77japg","pricing_plan_id":"cebpf4jnsgd1na2vs0mg"},{"bike_id":"7712491c-e18b-4b09-bb79-30880b357c07","system_id":"levelo_inurba_marseille","lat":43.21202,"lon":5.35074,"is_reserved":false,"is_disabled":false,"rental_uris":{"android":"levelo://app?vid=7712491c-e18b-4b09-bb79-30880b357c07","ios":"levelo://app?vid=7712491c-e18b-4b09-bb79-30880b357c07"},"vehicle_type_id":"4","last_reported":1751533945,"current_range_meters":20000,"station_id":"st_cvj6sg6p6f1abm77japg","pricing_plan_id":"cebpf4jnsgd1na2vs0mg"},{"bike_id":"63acad33-6ce0-4879-bb8b-7b4910bd10f3","system_id":"levelo_inurba_marseille","lat":43.24737,"lon":5.411651,"is_reserved":false,"is_disabled":false,"rental_uris":{"android":"levelo://app?vid=63acad33-6ce0-4879-bb8b-7b4910bd10f3","ios":"levelo://app?vid=63acad33-6ce0-4879-bb8b-7b4910bd10f3"},"vehicle_type_id":"4","last_reported":1751533945,"current_range_meters":20400,"station_id":"","pricing_plan_id":"cebpf4jnsgd1na2vs0mg"},{"bike_id":"40c6fba7-28de-4803-b068-81ef3b111e82","system_id":"levelo_inurba_marseille","lat":43.29533,"lon":5.38537,"is_reserved":false,"is_disabled":false,"rental_uris":{"android":"levelo://app?vid=40c6fba7-28de-4803-b068-81ef3b111e82","ios":"levelo://app?vid=40c6fba7-28de-4803-b068-81ef3b111e82"},"vehicle_type_id":"4","last_reported":1751533945,"current_range_meters":20400,"station_id":"ce4bgih2rcd13ifvqba0","pricing_plan_id":"cebpf4jnsgd1na2vs0mg"},{"bike_id":"344c53ee-cbed-45a0-b3aa-9e2c1be5eb1a","system_id":"levelo_inurba_marseille","lat":43.29178,"lon":5.37169,"is_reserved":false,"is_disabled":false,"rental_uris":{"android":"levelo://app?vid=344c53ee-cbed-45a0-b3aa-9e2c1be5eb1a","ios":"levelo://app?vid=344c53ee-cbed-45a0-b3aa-9e2c1be5eb1a"},"vehicle_type_id":"4","last_reported":1751533945,"current_range_meters":20400,"station_id":"ce4bha92rcd13ifvqeh0","pricing_plan_id":"cebpf4jnsgd1na2vs0mg"},{"bike_id":"d1417020-35ca-4f6e-8915-b71738e62cd1","system_id":"levelo_inurba_marseille","lat":43.28426,"lon":5.34972,"is_reserved":false,"is_disabled":false,"rental_uris":{"android":"levelo://app?vid=d1417020-35ca-4f6e-8915-b71738e62cd1","ios":"levelo://app?vid=d1417020-35ca-4f6e-8915-b71738e62cd1"},"vehicle_type_id":"4","last_reported":1751533945,"current_range_meters":20400,"station_id":"ce4bhbh2rcd13ifvqepg","pricing_plan_id":"cebpf4jnsgd1na2vs0mg"},{"bike_id":"d747e402-022e-4034-85df-4dd8bda8fba0","system_id":"levelo_inurba_marseille","lat":43.267786,"lon":5.394186,"is_reserved":false,"is_disabled":false,"rental_uris":{"android":"levelo://app?vid=d747e402-022e-4034-85df-4dd8bda8fba0","ios":"levelo://app?vid=d747e402-022e-4034-85df-4dd8bda8fba0"},"vehicle_type_id":"4","last_reported":1751533945,"current_range_meters":20400,"station_id":"ce4bhh12rcd13ifvqfg0","pricing_plan_id":"cebpf4jnsgd1na2vs0mg"},{"bike_id":"59f35f85-0f31-4708-81f7-b41aa3ffa0cf","system_id":"levelo_inurba_marseille","lat":43.29799,"lon":5.39329,"is_reserved":false,"is_disabled":false,"rental_uris":{"android":"levelo://app?vid=59f35f85-0f31-4708-81f7-b41aa3ffa0cf","ios":"levelo://app?vid=59f35f85-0f31-4708-81f7-b41aa3ffa0cf"},"vehicle_type_id":"4","last_reported":1751533945,"current_range_meters":20400,"station_id":"chh1huq6cuj3fo74tm60","pricing_plan_id":"cebpf4jnsgd1na2vs0mg"},{"bike_id":"b3d7a6ac-4ad8-404e-91ae-53d96dbbd9fb","system_id":"levelo_inurba_marseille","lat":43.21202,"lon":5.35064,"is_reserved":false,"is_disabled":false,"rental_uris":{"android":"levelo://app?vid=b3d7a6ac-4ad8-404e-91ae-53d96dbbd9fb","ios":"levelo://app?vid=b3d7a6ac-4ad8-404e-91ae-53d96dbbd9fb"},"vehicle_type_id":"4","last_reported":1751533945,"current_range_meters":20400,"station_id":"st_cvj6sg6p6f1abm77japg","pricing_plan_id":"cebpf4jnsgd1na2vs0mg"},{"bike_id":"39fa5f31-4afa-4271-a36e-400e3970d6f0","system_id":"levelo_inurba_marseille","lat":43.303746,"lon":5.375892,"is_reserved":false,"is_disabled":false,"rental_uris":{"android":"levelo://app?vid=39fa5f31-4afa-4271-a36e-400e3970d6f0","ios":"levelo://app?vid=39fa5f31-4afa-4271-a36e-400e3970d6f0"},"vehicle_type_id":"4","last_reported":1751533945,"current_range_meters":20800,"station_id":"","pricing_plan_id":"cebpf4jnsgd1na2vs0mg"},{"bike_id":"8f126d01-7777-4273-9e9a-2e4990af4bc5","system_id":"levelo_inurba_marseille","lat":43.31088,"lon":5.387433,"is_reserved":false,"is_disabled":false,"rental_uris":{"android":"levelo://app?vid=8f126d01-7777-4273-9e9a-2e4990af4bc5","ios":"levelo://app?vid=8f126d01-7777-4273-9e9a-2e4990af4bc5"},"vehicle_type_id":"4","last_reported":1751533945,"current_range_meters":20800,"station_id":"","pricing_plan_id":"cebpf4jnsgd1na2vs0mg"},{"bike_id":"02f4906e-ff44-4278-8ff8-ba1672c9bbc5","system_id":"levelo_inurba_marseille","lat":43.29573,"lon":5.37519,"is_reserved":false,"is_disabled":false,"rental_uris":{"android":"levelo://app?vid=02f4906e-ff44-4278-8ff8-ba1672c9bbc5","ios":"levelo://app?vid=02f4906e-ff44-4278-8ff8-ba1672c9bbc5"},"vehicle_type_id":"4","last_reported":1751533945,"current_range_meters":20800,"station_id":"ce4bgh92rcd13ifvqb50","pricing_plan_id":"cebpf4jnsgd1na2vs0mg"},{"bike_id":"fc32e8d4-8744-424d-aa7c-e9cdf4c8811d","system_id":"levelo_inurba_marseille","lat":43.2842,"lon":5.34988,"is_reserved":false,"is_disabled":false,"rental_uris":{"android":"levelo://app?vid=fc32e8d4-8744-424d-aa7c-e9cdf4c8811d","ios":"levelo://app?vid=fc32e8d4-8744-424d-aa7c-e9cdf4c8811d"},"vehicle_type_id":"4","last_reported":1751533945,"current_range_meters":20800,"station_id":"ce4bhbh2rcd13ifvqepg","pricing_plan_id":"cebpf4jnsgd1na2vs0mg"},{"bike_id":"c56df87e-156e-4f44-9a47-e39c9325c1d2","system_id":"levelo_inurba_marseille","lat":43.26209,"lon":5.37929,"is_reserved":false,"is_disabled":false,"rental_uris":{"android":"levelo://app?vid=c56df87e-156e-4f44-9a47-e39c9325c1d2","ios":"levelo://app?vid=c56df87e-156e-4f44-9a47-e39c9325c1d2"},"vehicle_type_id":"4","last_reported":1751533945,"current_range_meters":20800,"station_id":"ce4bhjp2rcd13ifvqg90","pricing_plan_id":"cebpf4jnsgd1na2vs0mg"},{"bike_id":"228a7273-e503-48c1-82b0-500bfbb95c4a","system_id":"levelo_inurba_marseille","lat":43.30376,"lon":5.42481,"is_reserved":false,"is_disabled":false,"rental_uris":{"android":"levelo://app?vid=228a7273-e503-48c1-82b0-500bfbb95c4a","ios":"levelo://app?vid=228a7273-e503-48c1-82b0-500bfbb95c4a"},"vehicle_type_id":"4","last_reported":1751533945,"current_range_meters":20800,"station_id":"ce4bhoh2rcd13ifvqh6g","pricing_plan_id":"cebpf4jnsgd1na2vs0mg"},