{"last_updated":1740676147,"ttl":60,"version":"2.2","data":{"bikes":[{"bike_id":"b2e82e21-c98b-4e63-8e51-83c1d0351c3c","system_id":"levelo_inurba_marseille","lat":43.299024,"lon":5.374778,"is_reserved":false,"is_disabled":false,"rental_uris":{"android":"levelo://app?vid=b2e82e21-c98b-4e63-8e51-83c1d0351c3c","ios":"levelo://app?vid=b2e82e21-c98b-4e63-8e51-83c1d0351c3c"},"vehicle_type_id":"4","last_reported":1740676148,"current_range_meters":3200,"station_id":"ce4bgjh2rcd13ifvqbg0","pricing_plan_id":"cebpf4jnsgd1na2vs0mg"},{"bike_id":"7aa33964-d6a2-4c41-8197-056d0b5029b5","system_id":"levelo_inurba_marseille","lat":43.3372,"lon":5.39184,"is_reserved":false,"is_disabled":false,"rental_uris":{"android":"levelo://app?vid=7aa33964-d6a2-4c41-8197-056d0b5029b5","ios":"levelo://app?vid=7aa33964-d6a2-4c41-8197-056d0b5029b5"},"vehicle_type_id":"4","last_reported":1740676148,"current_range_meters":2800,"station_id":"ce4bhr92rcd13ifvqhsg","pricing_plan_id":"cebpf4jnsgd1na2vs0mg"},{"bike_id":"10d00703-8272-4375-85e3-a2b8a51bc69b","system_id":"levelo_inurba_marseille","lat":43.30263,"lon":5.39399,"is_reserved":false,"is_disabled":false,"rental_uris":{"android":"levelo://app?vid=10d00703-8272-4375-85e3-a2b8a51bc69b","ios":"levelo://app?vid=10d00703-8272-4375-85e3-a2b8a51bc69b"},"vehicle_type_id":"4","last_reported":1740676148,"current_range_meters":3200,"station_id":"","pricing_plan_id":"cebpf4jnsgd1na2vs0mg"},{"bike_id":"c01e38fb-356e-44ab-8ea6-74e446ca29e4","system_id":"levelo_inurba_marseille","lat":43.27941,"lon":5.41051,"is_reserved":false,"is_disabled":false,"rental_uris":{"android":"levelo://app?vid=c01e38fb-356e-44ab-8ea6-74e446ca29e4","ios":"levelo://app?vid=c01e38fb-356e-44ab-8ea6-74e446ca29e4"},"vehicle_type_id":"4","last_reported":1740676148,"current_range_meters":2800,"station_id":"ce4bhnp2rcd13ifvqh0g","pricing_plan_id":"cebpf4jnsgd1na2vs0mg"},{"bike_id":"8d106a55-62e0-4c11-8627-92ac9349a131","system_id":"levelo_inurba_marseille","lat":43.32756,"lon":5.39234,"is_reserved":false,"is_disabled":false,"rental_uris":{"android":"levelo://app?vid=8d106a55-62e0-4c11-8627-92ac9349a131","ios":"levelo://app?vid=8d106a55-62e0-4c11-8627-92ac9349a131"},"vehicle_type_id":"4","last_reported":1740676148,"current_range_meters":400,"station_id":"","pricing_plan_id":"cebpf4jnsgd1na2vs0mg"},{"bike_id":"90ee3222-d5ed-4386-a184-6a76944b1f49","system_id":"levelo_inurba_marseille","lat":43.24168,"lon":5.3971,"is_reserved":false,"is_disabled":false,"rental_uris":{"android":"levelo://app?vid=90ee3222-d5ed-4386-a184-6a76944b1f49","ios":"levelo://app?vid=90ee3222-d5ed-4386-a184-6a76944b1f49"},"vehicle_type_id":"4","last_reported":1740676148,"current_range_meters":3200,"station_id":"ce4bhn12rcd13ifvqgpg","pricing_plan_id":"cebpf4jnsgd1na2vs0mg"},{"bike_id":"6f980513-5b01-440b-8f70-ce852bb3e838","system_id":"levelo_inurba_marseille","lat":43.2587,"lon":5.39888,"is_reserved":false,"is_disabled":false,"rental_uris":{"android":"levelo://app?vid=6f980513-5b01-440b-8f70-ce852bb3e838","ios":"levelo://app?vid=6f980513-5b01-440b-8f70-ce852bb3e838"},"vehicle_type_id":"4","last_reported":1740676148,"current_range_meters":2800,"station_id":"ce4bhl92rcd13ifvqghg","pricing_plan_id":"cebpf4jnsgd1na2vs0mg"},{"bike_id":"b5368874-e19e-4e33-8e44-b3ac25e43af6","system_id":"levelo_inurba_marseille","lat":43.31314,"lon":5.37082,"is_reserved":false,"is_disabled":false,"rental_uris":{"android":"levelo://app?vid=b5368874-e19e-4e33-8e44-b3ac25e43af6","ios":"levelo://app?vid=b5368874-e19e-4e33-8e44-b3ac25e43af6"},"vehicle_type_id":"4","last_reported":1740676148,"current_range_meters":3200,"station_id":"","pricing_plan_id":"cebpf4jnsgd1na2vs0mg"},{"bike_id":"a346541e-d800-485e-9645-ad7038896c78","system_id":"levelo_inurba_marseille","lat":43.29502,"lon":5.39046,"is_reserved":false,"is_disabled":false,"rental_uris":{"android":"levelo://app?vid=a346541e-d800-485e-9645-ad7038896c78","ios":"levelo://app?vid=a346541e-d800-485e-9645-ad7038896c78"},"vehicle_type_id":"4","last_reported":1740676148,"current_range_meters":3200,"station_id":"ce4bh3p2rcd13ifvqdp0","pricing_plan_id":"cebpf4jnsgd1na2vs0mg"},{"bike_id":"b6d6f8e3-6313-4ab4-96cd-bcb3a98b99b9","system_id":"levelo_inurba_marseille","lat":43.292668,"lon":5.408935,"is_reserved":false,"is_disabled":false,"rental_uris":{"android":"levelo://app?vid=b6d6f8e3-6313-4ab4-96cd-bcb3a98b99b9","ios":"levelo://app?vid=b6d6f8e3-6313-4ab4-96cd-bcb3a98b99b9"},"vehicle_type_id":"4","last_reported":1740676148,"current_range_meters":3200,"station_id":"ce4bh192rcd13ifvqdc0","pricing_plan_id":"cebpf4jnsgd1na2vs0mg"},{"bike_id":"88406f65-b4b2-4c3f-9fc7-03f5d8cd7d83","system_id":"levelo_inurba_marseille","lat":43.27802,"lon":5.40728,"is_reserved":false,"is_disabled":false,"rental_uris":{"android":"levelo://app?vid=88406f65-b4b2-4c3f-9fc7-03f5d8cd7d83","ios":"levelo://app?vid=88406f65-b4b2-4c3f-9fc7-03f5d8cd7d83"},"vehicle_type_id":"4","last_reported":1740676148,"current_range_meters":3200,"station_id":"ce4bhnh2rcd13ifvqgtg","pricing_plan_id":"cebpf4jnsgd1na2vs0mg"},{"bike_id":"ce27d0f1-aef9-4289-af99-9497b099fc18","system_id":"levelo_inurba_marseille","lat":43.32335,"lon":5.40624,"is_reserved":false,"is_disabled":false,"rental_uris":{"android":"levelo://app?vid=ce27d0f1-aef9-4289-af99-9497b099fc18","ios":"levelo://app?vid=ce27d0f1-aef9-4289-af99-9497b099fc18"},"vehicle_type_id":"4","last_reported":1740676148,"current_range_meters":3200,"station_id":"ce4bhq92rcd13ifvqhjg","pricing_plan_id":"cebpf4jnsgd1na2vs0mg"},{"bike_id":"140055c0-2932-4f05-a210-a6d78d8f944e","system_id":"levelo_inurba_marseille","lat":43.27784,"lon":5.40719,"is_reserved":false,"is_disabled":false,"rental_uris":{"android":"levelo://app?vid=140055c0-2932-4f05-a210-a6d78d8f944e","ios":"levelo://app?vid=140055c0-2932-4f05-a210-a6d78d8f944e"},"vehicle_type_id":"4","last_reported":1740676148,"current_range_meters":1600,"station_id":"ce4bhnh2rcd13ifvqgtg","pricing_plan_id":"cebpf4jnsgd1na2vs0mg"},{"bike_id":"78f82992-06a0-42d2-a600-a62f6a13c390","system_id":"levelo_inurba_marseille","lat":43.25578,"lon":5.38227,"is_reserved":false,"is_disabled":false,"rental_uris":{"android":"levelo://app?vid=78f82992-06a0-42d2-a600-a62f6a13c390","ios":"levelo://app?vid=78f82992-06a0-42d2-a600-a62f6a13c390"},"vehicle_type_id":"4","last_reported":1740676148,"current_range_meters":3200,"station_id":"ce4bhih2rcd13ifvqfs0","pricing_plan_id":"cebpf4jnsgd1na2vs0mg"},{"bike_id":"c74b4061-6aca-4ee7-97a8-6c7bff98fd7d","system_id":"levelo_inurba_marseille","lat":43.30657,"lon":5.40087,"is_reserved":false,"is_disabled":false,"rental_uris":{"android":"levelo://app?vid=c74b4061-6aca-4ee7-97a8-6c7bff98fd7d","ios":"levelo://app?vid=c74b4061-6aca-4ee7-97a8-6c7bff98fd7d"},"vehicle_type_id":"4","last_reported":1740676148,"current_range_meters":1200,"station_id":"ce4bh112rcd13ifvqda0","pricing_plan_id":"cebpf4jnsgd1na2vs0mg"},{"bike_id":"548774ee-ba86-4b27-bf39-d2188cab3985","system_id":"levelo_inurba_marseille","lat":43.24661,"lon":5.38162,"is_reserved":false,"is_disabled":false,"rental_uris":{"android":"levelo://app?vid=548774ee-ba86-4b27-bf39-d2188cab3985","ios":"levelo://app?vid=548774ee-ba86-4b27-bf39-d2188cab3985"},"vehicle_type_id":"4","last_reported":1740676148,"current_range_meters":3600,"station_id":"ce4bhih2rcd13ifvqfr0","pricing_plan_id":"cebpf4jnsgd1na2vs0mg"},{"bike_id":"b59fb319-85c5-48a9-9d58-1bbd13b4a177","system_id":"levelo_inurba_marseille","lat":43.25826,"lon":5.39404,"is_reserved":false,"is_disabled":false,"rental_uris":{"android":"levelo://app?vid=b59fb319-85c5-48a9-9d58-1bbd13b4a177","ios":"levelo://app?vid=b59fb319-85c5-48a9-9d58-1bbd13b4a177"},"vehicle_type_id":"4","last_reported":1740676148,"current_range_meters":4000,"station_id":"ce4bhip2rcd13ifvqft0","pricing_plan_id":"cebpf4jnsgd1na2vs0mg"},{"bike_id":"f8729ff8-e714-4afc-9121-272f5471a32d","system_id":"levelo_inurba_marseille","lat":43.22923,"lon":5.35368,"is_reserved":false,"is_disabled":false,"rental_uris":{"android":"levelo://app?vid=f8729ff8-e714-4afc-9121-272f5471a32d","ios":"levelo://app?vid=f8729ff8-e714-4afc-9121-272f5471a32d"},"vehicle_type_id":"4","last_reported":1740676148,"current_range_meters":4000,"station_id":"cpo3532slgdg3j2ikp40","pricing_plan_id":"cebpf4jnsgd1na2vs0mg"},{"bike_id":"54c31ebb-3951-40cd-a63d-6a7618eddad9","system_id":"levelo_inurba_marseille","lat":43.26077,"lon":5.39394,"is_reserved":false,"is_disabled":false,"rental_uris":{"android":"levelo://app?vid=54c31ebb-3951-40cd-a63d-6a7618eddad9","ios":"levelo://app?vid=54c31ebb-3951-40cd-a63d-6a7618eddad9"},"vehicle_type_id":"4","last_reported":1740676148,"current_range_meters":4000,"station_id":"ce4bhh92rcd13ifvqfj0","pricing_plan_id":"cebpf4jnsgd1na2vs0mg"},{"bike_id":"ef5e42e5-56f8-46ea-89ed-a14ff0564c46","system_id":"levelo_inurba_marseille","lat":43.30325,"lon":5.40437,"is_reserved":false,"is_disabled":false,"rental_uris":{"android":"levelo://app?vid=ef5e42e5-56f8-46ea-89ed-a14ff0564c46","ios":"levelo://app?vid=ef5e42e5-56f8-46ea-89ed-a14ff0564c46"},"vehicle_type_id":"4","last_reported":1740676148,"current_range_meters":0,"station_id":"ce4bh012rcd13ifvqd10","pricing_plan_id":"cebpf4jnsgd1na2vs0mg"},{"bike_id":"e4e7d22b-f8a1-4857-8d96-bad1307ff50d","system_id":"levelo_inurba_marseille","lat":43.33026,"lon":5.39044,"is_reserved":false,"is_disabled":false,"rental_uris":{"android":"levelo://app?vid=e4e7d22b-f8a1-4857-8d96-bad1307ff50d","ios":"levelo://app?vid=e4e7d22b-f8a1-4857-8d96-bad1307ff50d"},"vehicle_type_id":"4","last_reported":1740676148,"current_range_meters":4000,"station_id":"ce4bhr92rcd13ifvqhrg","pricing_plan_id":"cebpf4jnsgd1na2vs0mg"},{"bike_id":"32ee2440-69d5-460e-8fac-e02c1078855f","system_id":"levelo_inurba_marseille","lat":43.27687,"lon":5.38871,"is_reserved":false,"is_disabled":false,"rental_uris":{"android":"levelo://app?vid=32ee2440-69d5-460e-8fac-e02c1078855f","ios":"levelo://app?vid=32ee2440-69d5-460e-8fac-e02c1078855f"},"vehicle_type_id":"4","last_reported":1740676148,"current_range_meters":4400,"station_id":"ce4bhi12rcd13ifvqfo0","pricing_plan_id":"cebpf4jnsgd1na2vs0mg"},{"bike_id":"fdeed4a4-213f-451c-888b-27630e84653b","system_id":"levelo_inurba_marseille","lat":43.232729,"lon":5.360694,"is_reserved":false,"is_disabled":false,"rental_uris":{"android":"levelo://app?vid=fdeed4a4-213f-451c-888b-27630e84653b","ios":"levelo://app?vid=fdeed4a4-213f-451c-888b-27630e84653b"},"vehicle_type_id":"4","last_reported":1740676148,"current_range_meters":2800,"station_id":"ce4bhgp2rcd13ifvqfd0","pricing_plan_id":"cebpf4jnsgd1na2vs0mg"},{"bike_id":"d9cb0ee2-cc49-4099-a486-6d65ed4ea252","system_id":"levelo_inurba_marseille","lat":43.299673,"lon":5.384913,"is_reserved":false,"is_disabled":false,"rental_uris":{"android":"levelo://app?vid=d9cb0ee2-cc49-4099-a486-6d65ed4ea252","ios":"levelo://app?vid=d9cb0ee2-cc49-4099-a486-6d65ed4ea252"},"vehicle_type_id":"4","last_reported":1740676148,"current_range_meters":3600,"station_id":"ce4bgph2rcd13ifvqc2g","pricing_plan_id":"cebpf4jnsgd1na2vs0mg"},{"bike_id":"54c85b7f-af8e-45ed-8019-52cb58a6b439","system_id":"levelo_inurba_marseille","lat":43.26943,"lon":5.40247,"is_reserved":false,"is_disabled":false,"rental_uris":{"android":"levelo://app?vid=54c85b7f-af8e-45ed-8019-52cb58a6b439","ios":"levelo://app?vid=54c85b7f-af8e-45ed-8019-52cb58a6b439"},"vehicle_type_id":"4","last_reported":1740676148,"current_range_meters":4400,"station_id":"cjm6bp8fraef2m0cb0m0","pricing_plan_id":"cebpf4jnsgd1na2vs0mg"},{"bike_id":"a2c85ab7-1e06-4246-89e2-5126635f3241","system_id":"levelo_inurba_marseille","lat":43.25578,"lon":5.38246,"is_reserved":false,"is_disabled":false,"rental_uris":{"android":"levelo://app?vid=a2c85ab7-1e06-4246-89e2-5126635f3241","ios":"levelo://app?vid=a2c85ab7-1e06-4246-89e2-5126635f3241"},"vehicle_type_id":"4","last_reported":1740676148,"current_range_meters":4800,"station_id":"ce4bhih2rcd13ifvqfs0","pricing_plan_id":"cebpf4jnsgd1na2vs0mg"},{"bike_id":"b1278f7d-444d-48e5-b3a9-47269329bdf1","system_id":"levelo_inurba_marseille","lat":43.291996,"lon":5.393193,"is_reserved":false,"is_disabled":false,"rental_uris":{"android":"levelo://app?vid=b1278f7d-444d-48e5-b3a9-47269329bdf1","ios":"levelo://app?vid=b1278f7d-444d-48e5-b3a9-47269329bdf1"},"vehicle_type_id":"4","last_reported":1740676148,"current_range_meters":3200,"station_id":"ce4bgj92rcd13ifvqbd0","pricing_plan_id":"cebpf4jnsgd1na2vs0mg"},{"bike_id":"720bccdc-ab86-457c-a5ca-6da8f90657c9","system_id":"levelo_inurba_marseille","lat":43.30128,"lon":5.388,"is_reserved":false,"is_disabled":false,"rental_uris":{"android":"levelo://app?vid=720bccdc-ab86-457c-a5ca-6da8f90657c9","ios":"levelo://app?vid=720bccdc-ab86-457c-a5ca-6da8f90657c9"},"vehicle_type_id":"4","last_reported":1740676148,"current_range_meters":5600,"station_id":"ce4bghh2rcd13ifvqb60","pricing_plan_id":"cebpf4jnsgd1na2vs0mg"},{"bike_id":"9dc874b4-3b68-480d-a91e-10d1ee99af67","system_id":"levelo_inurba_marseille","lat":43.29523,"lon":5.39408,"is_reserved":false,"is_disabled":false,"rental_uris":{"android":"levelo://app?vid=9dc874b4-3b68-480d-a91e-10d1ee99af67","ios":"levelo://app?vid=9dc874b4-3b68-480d-a91e-10d1ee99af67"},"vehicle_type_id":"4","last_reported":1740676148,"current_range_meters":10000,"station_id":"ce4bh292rcd13ifvqdf0","pricing_plan_id":"cebpf4jnsgd1na2vs0mg"},{"bike_id":"01bfb5d9-6080-452c-b6bf-2a0a33aa1ddb","system_id":"levelo_inurba_marseille","lat":43.25578,"lon":5.38246,"is_reserved":false,"is_disabled":false,"rental_uris":{"android":"levelo://app?vid=01bfb5d9-6080-452c-b6bf-2a0a33aa1ddb","ios":"levelo://app?vid=01bfb5d9-6080-452c-b6bf-2a0a33aa1ddb"},"vehicle_type_id":"4","last_reported":1740676148,"current_range_meters":6000,"station_id":"ce4bhih2rcd13ifvqfs0","pricing_plan_id":"cebpf4jnsgd1na2vs0mg"},{"bike_id":"346455dc-f429-4c00-871e-07a2364297f3","system_id":"levelo_inurba_marseille","lat":43.27979,"lon":5.38779,"is_reserved":false,"is_disabled":false,"rental_uris":{"android":"levelo://app?vid=346455dc-f429-4c00-871e-07a2364297f3","ios":"levelo://app?vid=346455dc-f429-4c00-871e-07a2364297f3"},"vehicle_type_id":"4","last_reported":1740676148,"current_range_meters":6000,"station_id":"","pricing_plan_id":"cebpf4jnsgd1na2vs0mg"},{"bike_id":"cede3cd9-b287-4e84-a051-2feb15a3c91a","system_id":"levelo_inurba_marseille","lat":43.30412,"lon":5.41301,"is_reserved":false,"is_disabled":false,"rental_uris":{"android":"levelo://app?vid=cede3cd9-b287-4e84-a051-2feb15a3c91a","ios":"levelo://app?vid=cede3cd9-b287-4e84-a051-2feb15a3c91a"},"vehicle_type_id":"4","last_reported":1740676148,"current_range_meters":6000,"station_id":"ce4bhop2rcd13ifvqh8g","pricing_plan_id":"cebpf4jnsgd1na2vs0mg"},{"bike_id":"30496587-a8cb-40b1-b26a-cb9ee514f00d","system_id":"levelo_inurba_marseille","lat":43.29004,"lon":5.35615,"is_reserved":false,"is_disabled":false,"rental_uris":{"android":"levelo://app?vid=30496587-a8cb-40b1-b26a-cb9ee514f00d","ios":"levelo://app?vid=30496587-a8cb-40b1-b26a-cb9ee514f00d"},"vehicle_type_id":"4","last_reported":1740676148,"current_range_meters":2800,"station_id":"ce4bhb92rcd13ifvqen0","pricing_plan_id":"cebpf4jnsgd1na2vs0mg"},{"bike_id":"523fd75d-b9dc-4418-870f-3fac2a0c279b","system_id":"levelo_inurba_marseille","lat":43.28997,"lon":5.35602,"is_reserved":false,"is_disabled":false,"rental_uris":{"android":"levelo://app?vid=523fd75d-b9dc-4418-870f-3fac2a0c279b","ios":"levelo://app?vid=523fd75d-b9dc-4418-870f-3fac2a0c279b"},"vehicle_type_id":"4","last_reported":1740676148,"current_range_meters":6000,"station_id":"ce4bhb92rcd13ifvqen0","pricing_plan_id":"cebpf4jnsgd1na2vs0mg"},{"bike_id":"5e07fab9-6d09-42a9-b754-40e4e48c9e90","system_id":"levelo_inurba_marseille","lat":43.29581,"lon":5.36744,"is_reserved":false,"is_disabled":false,"rental_uris":{"android":"levelo://app?vid=5e07fab9-6d09-42a9-b754-40e4e48c9e90","ios":"levelo://app?vid=5e07fab9-6d09-42a9-b754-40e4e48c9e90"},"vehicle_type_id":"4","last_reported":1740676148,"current_range_meters":6400,"station_id":"","pricing_plan_id":"cebpf4jnsgd1na2vs0mg"},{"bike_id":"c6cb7573-2753-4147-8f1a-c552c41c610f","system_id":"levelo_inurba_marseille","lat":43.26793,"lon":5.39429,"is_reserved":false,"is_disabled":true,"rental_uris":{"android":"levelo://app?vid=c6cb7573-2753-4147-8f1a-c552c41c610f","ios":"levelo://app?vid=c6cb7573-2753-4147-8f1a-c552c41c610f"},"vehicle_type_id":"4","last_reported":1740676148,"current_range_meters":6400,"station_id":"ce4bhh12rcd13ifvqfg0","pricing_plan_id":"cebpf4jnsgd1na2vs0mg"},{"bike_id":"882cac04-fa7f-4f03-9238-14946d05ea85","system_id":"levelo_inurba_marseille","lat":43.29005,"lon":5.35608,"is_reserved":false,"is_disabled":false,"rental_uris":{"android":"levelo://app?vid=882cac04-fa7f-4f03-9238-14946d05ea85","ios":"levelo://app?vid=882cac04-fa7f-4f03-9238-14946d05ea85"},"vehicle_type_id":"4","last_reported":1740676148,"current_range_meters":6400,"station_id":"ce4bhb92rcd13ifvqen0","pricing_plan_id":"cebpf4jnsgd1na2vs0mg"},{"bike_id":"b93ef1ff-5c27-4f48-bc86-fbe32cc8a6d4","system_id":"levelo_inurba_marseille","lat":43.26031,"lon":5.37544,"is_reserved":false,"is_disabled":false,"rental_uris":{"android":"levelo://app?vid=b93ef1ff-5c27-4f48-bc86-fbe32cc8a6d4","ios":"levelo://app?vid=b93ef1ff-5c27-4f48-bc86-fbe32cc8a6d4"},"vehicle_type_id":"4","last_reported":1740676148,"current_range_meters":6400,"station_id":"ce4bhgh2rcd13ifvqfa0","pricing_plan_id":"cebpf4jnsgd1na2vs0mg"},{"bike_id":"e4e2407e-ea13-4fad-b551-81bfa5e7f924","system_id":"levelo_inurba_marseille","lat":43.32111,"lon":5.36778,"is_reserved":false,"is_disabled":false,"rental_uris":{"android":"levelo://app?vid=e4e2407e-ea13-4fad-b551-81bfa5e7f924","ios":"levelo://app?vid=e4e2407e-ea13-4fad-b551-81bfa5e7f924"},"vehicle_type_id":"4","last_reported":1740676148,"current_range_meters":400,"station_id":"ce4bhrh2rcd13ifvqhug","pricing_plan_id":"cebpf4jnsgd1na2vs0mg"},{"bike_id":"09004143-84b1-48d9-ae6a-819ced5ad41d","system_id":"levelo_inurba_marseille","lat":43.29245,"lon":5.38449,"is_reserved":false,"is_disabled":false,"rental_uris":{"android":"levelo://app?vid=09004143-84b1-48d9-ae6a-819ced5ad41d","ios":"levelo://app?vid=09004143-84b1-48d9-ae6a-819ced5ad41d"},"vehicle_type_id":"4","last_reported":1740676148,"current_range_meters":6400,"station_id":"ce4bh692rcd13ifvqea0","pricing_plan_id":"cebpf4jnsgd1na2vs0mg"},{"bike_id":"808cfc00-b738-40fa-973c-21098d28eaba","system_id":"levelo_inurba_marseille","lat":43.29522,"lon":5.39034,"is_reserved":false,"is_disabled":false,"rental_uris":{"android":"levelo://app?vid=808cfc00-b738-40fa-973c-21098d28eaba","ios":"levelo://app?vid=808cfc00-b738-40fa-973c-21098d28eaba"},"vehicle_type_id":"4","last_reported":1740676148,"current_range_meters":6400,"station_id":"ce4bh3p2rcd13ifvqdp0","pricing_plan_id":"cebpf4jnsgd1na2vs0mg"},{"bike_id":"da3c4fb5-c137-4b78-a6d7-9e67786b17b0","system_id":"levelo_inurba_marseille","lat":43.31382,"lon":5.36708,"is_reserved":false,"is_disabled":false,"rental_uris":{"android":"levelo://app?vid=da3c4fb5-c137-4b78-a6d7-9e67786b17b0","ios":"levelo://app?vid=da3c4fb5-c137-4b78-a6d7-9e67786b17b0"},"vehicle_type_id":"4","last_reported":1740676148,"current_range_meters":6800,"station_id":"ce4bgr92rcd13ifvqc6g","pricing_plan_id":"cebpf4jnsgd1na2vs0mg"},{"bike_id":"698e8821-6db4-4b0a-a0fc-81441643da35","system_id":"levelo_inurba_marseille","lat":43.29255,"lon":5.38446,"is_reserved":false,"is_disabled":false,"rental_uris":{"android":"levelo://app?vid=698e8821-6db4-4b0a-a0fc-81441643da35","ios":"levelo://app?vid=698e8821-6db4-4b0a-a0fc-81441643da35"},"vehicle_type_id":"4","last_reported":1740676148,"current_range_meters":6800,"station_id":"ce4bh692rcd13ifvqea0","pricing_plan_id":"cebpf4jnsgd1na2vs0mg"},{"bike_id":"f51ad1c2-9f21-41f7-8e95-c5c03b4303a8","system_id":"levelo_inurba_marseille","lat":43.25831,"lon":5.39429,"is_reserved":false,"is_disabled":false,"rental_uris":{"android":"levelo://app?vid=f51ad1c2-9f21-41f7-8e95-c5c03b4303a8","ios":"levelo://app?vid=f51ad1c2-9f21-41f7-8e95-c5c03b4303a8"},"vehicle_type_id":"4","last_reported":1740676148,"current_range_meters":6800,"station_id":"ce4bhip2rcd13ifvqft0","pricing_plan_id":"cebpf4jnsgd1na2vs0mg"},{"bike_id":"dd204952-a29a-403d-b2be-ae52722814ec","system_id":"levelo_inurba_marseille","lat":43.28457,"lon":5.35897,"is_reserved":false,"is_disabled":false,"rental_uris":{"android":"levelo://app?vid=dd204952-a29a-403d-b2be-ae52722814ec","ios":"levelo://app?vid=dd204952-a29a-403d-b2be-ae52722814ec"},"vehicle_type_id":"4","last_reported":1740676148,"current_range_meters":7200,"station_id":"ce4bhah2rcd13ifvqei0","pricing_plan_id":"cebpf4jnsgd1na2vs0mg"},{"bike_id":"d72e38b7-3023-4e0f-bb51-1e4ce27afb01","system_id":"levelo_inurba_marseille","lat":43.28263,"lon":5.35061,"is_reserved":false,"is_disabled":false,"rental_uris":{"android":"levelo://app?vid=d72e38b7-3023-4e0f-bb51-1e4ce27afb01","ios":"levelo://app?vid=d72e38b7-3023-4e0f-bb51-1e4ce27afb01"},"vehicle_type_id":"4","last_reported":1740676148,"current_range_meters":6800,"station_id":"ce4bhbp2rcd13ifvqerg","pricing_plan_id":"cebpf4jnsgd1na2vs0mg"},{"bike_id":"f0333f81-6f9d-4206-a285-bd6e4b0dbfc4","system_id":"levelo_inurba_marseille","lat":43.32364,"lon":5.3888,"is_reserved":false,"is_disabled":false,"rental_uris":{"android":"levelo://app?vid=f0333f81-6f9d-4206-a285-bd6e4b0dbfc4","ios":"levelo://app?vid=f0333f81-6f9d-4206-a285-bd6e4b0dbfc4"},"vehicle_type_id":"4","last_reported":1740676148,"current_range_meters":8000,"station_id":"ce4bhqp2rcd13ifvqhog","pricing_plan_id":"cebpf4jnsgd1na2vs0mg"},{"bike_id":"c3da6b7c-1822-4b3f-8dd0-d2e6f00c14c9","system_id":"levelo_inurba_marseille","lat":43.30584,"lon":5.39347,"is_reserved":false,"is_disabled":false,"rental_uris":{"android":"levelo://app?vid=c3da6b7c-1822-4b3f-8dd0-d2e6f00c14c9","ios":"levelo://app?vid=c3da6b7c-1822-4b3f-8dd0-d2e6f00c14c9"},"vehicle_type_id":"4","last_reported":1740676148,"current_range_meters":7200,"station_id":"ce4bh0p2rcd13ifvqd80","pricing_plan_id":"cebpf4jnsgd1na2vs0mg"},{"bike_id":"acf901a5-f1b2-4b14-be8d-312c60ce096d","system_id":"levelo_inurba_marseille","lat":43.3108,"lon":5.42431,"is_reserved":false,"is_disabled":false,"rental_uris":{"android":"levelo://app?vid=acf901a5-f1b2-4b14-be8d-312c60ce096d","ios":"levelo://app?vid=acf901a5-f1b2-4b14-be8d-312c60ce096d"},"vehicle_type_id":"4","last_reported":1740676148,"current_range_meters":7200,"station_id":"ce4bhp92rcd13ifvqhag","pricing_plan_id":"cebpf4jnsgd1na2vs0mg"},{"bike_id":"afdd3ea6-6abf-4462-a045-5447f44935b0","system_id":"levelo_inurba_marseille","lat":43.29631,"lon":5.40597,"is_reserved":false,"is_disabled":false,"rental_uris":{"android":"levelo://app?vid=afdd3ea6-6abf-4462-a045-5447f44935b0","ios":"levelo://app?vid=afdd3ea6-6abf-4462-a045-5447f44935b0"},"vehicle_type_id":"4","last_reported":1740676148,"current_range_meters":5600,"station_id":"ce4bh0h2rcd13ifvqd60","pricing_plan_id":"cebpf4jnsgd1na2vs0mg"},{"bike_id":"a65eff89-f69a-4180-97e5-8016061ff782","system_id":"levelo_inurba_marseille","lat":43.29262,"lon":5.38454,"is_reserved":false,"is_disabled":false,"rental_uris":{"android":"levelo://app?vid=a65eff89-f69a-4180-97e5-8016061ff782","ios":"levelo://app?vid=a65eff89-f69a-4180-97e5-8016061ff782"},"vehicle_type_id":"4","last_reported":1740676148,"current_range_meters":9600,"station_id":"ce4bh692rcd13ifvqea0","pricing_plan_id":"cebpf4jnsgd1na2vs0mg"},{"bike_id":"43229c1e-4bf8-4302-8f63-ab7667c2ea5c","system_id":"levelo_inurba_marseille","lat":43.27954,"lon":5.39554,"is_reserved":false,"is_disabled":false,"rental_uris":{"android":"levelo://app?vid=43229c1e-4bf8-4302-8f63-ab7667c2ea5c","ios":"levelo://app?vid=43229c1e-4bf8-4302-8f63-ab7667c2ea5c"},"vehicle_type_id":"4","last_reported":1740676148,"current_range_meters":8000,"station_id":"ce4bhf92rcd13ifvqf40","pricing_plan_id":"cebpf4jnsgd1na2vs0mg"},{"bike_id":"f10f9796-7541-497b-b6e6-805f6c2689ac","system_id":"levelo_inurba_marseille","lat":43.24654,"lon":5.38167,"is_reserved":false,"is_disabled":false,"rental_uris":{"android":"levelo://app?vid=f10f9796-7541-497b-b6e6-805f6c2689ac","ios":"levelo://app?vid=f10f9796-7541-497b-b6e6-805f6c2689ac"},"vehicle_type_id":"4","last_reported":1740676148,"current_range_meters":8000,"station_id":"ce4bhih2rcd13ifvqfr0","pricing_plan_id":"cebpf4jnsgd1na2vs0mg"},{"bike_id":"b6778b1a-e26d-43f5-b778-68c66e758a57","system_id":"levelo_inurba_marseille","lat":43.29896,"lon":5.43673,"is_reserved":false,"is_disabled":false,"rental_uris":{"android":"levelo://app?vid=b6778b1a-e26d-43f5-b778-68c66e758a57","ios":"levelo://app?vid=b6778b1a-e26d-43f5-b778-68c66e758a57"},"vehicle_type_id":"4","last_reported":1740676148,"current_range_meters":8000,"station_id":"ce4bhpp2rcd13ifvqhfg","pricing_plan_id":"cebpf4jnsgd1na2vs0mg"},{"bike_id":"ad56156f-7540-4925-b279-f56094caaa87","system_id":"levelo_inurba_marseille","lat":43.28964,"lon":5.37837,"is_reserved":false,"is_disabled":false,"rental_uris":{"android":"levelo://app?vid=ad56156f-7540-4925-b279-f56094caaa87","ios":"levelo://app?vid=ad56156f-7540-4925-b279-f56094caaa87"},"vehicle_type_id":"4","last_reported":1740676148,"current_range_meters":8000,"station_id":"ce4bh9p2rcd13ifvqed0","pricing_plan_id":"cebpf4jnsgd1na2vs0mg"},{"bike_id":"cde1fd38-4a7c-41ce-a9c4-4ac899852bd2","system_id":"levelo_inurba_marseille","lat":43.27424,"lon":5.39413,"is_reserved":false,"is_disabled":false,"rental_uris":{"android":"levelo://app?vid=cde1fd38-4a7c-41ce-a9c4-4ac899852bd2","ios":"levelo://app?vid=cde1fd38-4a7c-41ce-a9c4-4ac899852bd2"},"vehicle_type_id":"4","last_reported":1740676148,"current_range_meters":8000,"station_id":"ce4bhdp2rcd13ifvqf20","pricing_plan_id":"cebpf4jnsgd1na2vs0mg"},{"bike_id":"1db0b783-653b-442a-9dc5-1fc1a893bdf7","system_id":"levelo_inurba_marseille","lat":43.29971,"lon":5.3717,"is_reserved":false,"is_disabled":false,"rental_uris":{"android":"levelo://app?vid=1db0b783-653b-442a-9dc5-1fc1a893bdf7","ios":"levelo://app?vid=1db0b783-653b-442a-9dc5-1fc1a893bdf7"},"vehicle_type_id":"4","last_reported":1740676148,"current_range_meters":4800,"station_id":"ce4bgr92rcd13ifvqc7g","pricing_plan_id":"cebpf4jnsgd1na2vs0mg"},{"bike_id":"bd2f9a62-eeb9-41f5-9d74-63e0fd521ee5","system_id":"levelo_inurba_marseille","lat":43.26921,"lon":5.38927,"is_reserved":false,"is_disabled":false,"rental_uris":{"android":"levelo://app?vid=bd2f9a62-eeb9-41f5-9d74-63e0fd521ee5","ios":"levelo://app?vid=bd2f9a62-eeb9-41f5-9d74-63e0fd521ee5"},"vehicle_type_id":"4","last_reported":1740676148,"current_range_meters":8400,"station_id":"ce4bhhh2rcd13ifvqfl0","pricing_plan_id":"cebpf4jnsgd1na2vs0mg"},{"bike_id":"723e8dac-10ec-42b9-8c56-bbb1bb10f9ac","system_id":"levelo_inurba_marseille","lat":43.28926,"lon":5.36378,"is_reserved":false,"is_disabled":false,"rental_uris":{"android":"levelo://app?vid=723e8dac-10ec-42b9-8c56-bbb1bb10f9ac","ios":"levelo://app?vid=723e8dac-10ec-42b9-8c56-bbb1bb10f9ac"},"vehicle_type_id":"4","last_reported":1740676148,"current_range_meters":8000,"station_id":"ce4bhc92rcd13ifvqetg","pricing_plan_id":"cebpf4jnsgd1na2vs0mg"},{"bike_id":"01804679-3e33-4199-9766-ae81ed95c224","system_id":"levelo_inurba_marseille","lat":43.29897,"lon":5.43667,"is_reserved":false,"is_disabled":false,"rental_uris":{"android":"levelo://app?vid=01804679-3e33-4199-9766-ae81ed95c224","ios":"levelo://app?vid=01804679-3e33-4199-9766-ae81ed95c224"},"vehicle_type_id":"4","last_reported":1740676148,"current_range_meters":4400,"station_id":"ce4bhpp2rcd13ifvqhfg","pricing_plan_id":"cebpf4jnsgd1na2vs0mg"},{"bike_id":"31fb4bd7-ca6b-4c18-aeb3-70e8f0d17dde","system_id":"levelo_inurba_marseille","lat":43.28344,"lon":5.38107,"is_reserved":false,"is_disabled":false,"rental_uris":{"android":"levelo://app?vid=31fb4bd7-ca6b-4c18-aeb3-70e8f0d17dde","ios":"levelo://app?vid=31fb4bd7-ca6b-4c18-aeb3-70e8f0d17dde"},"vehicle_type_id":"4","last_reported":1740676148,"current_range_meters":8000,"station_id":"ce4bh412rcd13ifvqdr0","pricing_plan_id":"cebpf4jnsgd1na2vs0mg"},{"bike_id":"39369c67-b6b1-4351-9f37-e16f04ac94c9","system_id":"levelo_inurba_marseille","lat":43.2319,"lon":5.3555,"is_reserved":false,"is_disabled":false,"rental_uris":{"android":"levelo://app?vid=39369c67-b6b1-4351-9f37-e16f04ac94c9","ios":"levelo://app?vid=39369c67-b6b1-4351-9f37-e16f04ac94c9"},"vehicle_type_id":"4","last_reported":1740676148,"current_range_meters":8400,"station_id":"ce4bhu92rcd13ifvqi70","pricing_plan_id":"cebpf4jnsgd1na2vs0mg"},{"bike_id":"8b12f042-66ff-4f72-8110-b87f1cf65c0b","system_id":"levelo_inurba_marseille","lat":43.3341,"lon":5.40076,"is_reserved":false,"is_disabled":false,"rental_uris":{"android":"levelo://app?vid=8b12f042-66ff-4f72-8110-b87f1cf65c0b","ios":"levelo://app?vid=8b12f042-66ff-4f72-8110-b87f1cf65c0b"},"vehicle_type_id":"4","last_reported":1740676148,"current_range_meters":6800,"station_id":"","pricing_plan_id":"cebpf4jnsgd1na2vs0mg"},{"bike_id":"ea8cb564-d405-42e3-911c-0afdd772ee76","system_id":"levelo_inurba_marseille","lat":43.32763,"lon":5.39226,"is_reserved":false,"is_disabled":false,"rental_uris":{"android":"levelo://app?vid=ea8cb564-d405-42e3-911c-0afdd772ee76","ios":"levelo://app?vid=ea8cb564-d405-42e3-911c-0afdd772ee76"},"vehicle_type_id":"4","last_reported":1740676148,"current_range_meters":8400,"station_id":"","pricing_plan_id":"cebpf4jnsgd1na2vs0mg"},{"bike_id":"e498da67-c6b0-4a0b-bddc-9ab88614b55e","system_id":"levelo_inurba_marseille","lat":43.26195,"lon":5.37929,"is_reserved":false,"is_disabled":false,"rental_uris":{"android":"levelo://app?vid=e498da67-c6b0-4a0b-bddc-9ab88614b55e","ios":"levelo://app?vid=e498da67-c6b0-4a0b-bddc-9ab88614b55e"},"vehicle_type_id":"4","last_reported":1740676148,"current_range_meters":8000,"station_id":"ce4bhjp2rcd13ifvqg90","pricing_plan_id":"cebpf4jnsgd1na2vs0mg"},{"bike_id":"d9275793-c2f0-4889-a31d-5dd8ad0f17e3","system_id":"levelo_inurba_marseille","lat":43.29004,"lon":5.35619,"is_reserved":false,"is_disabled":false,"rental_uris":{"android":"levelo://app?vid=d9275793-c2f0-4889-a31d-5dd8ad0f17e3","ios":"levelo://app?vid=d9275793-c2f0-4889-a31d-5dd8ad0f17e3"},"vehicle_type_id":"4","last_reported":1740676148,"current_range_meters":8400,"station_id":"ce4bhb92rcd13ifvqen0","pricing_plan_id":"cebpf4jnsgd1na2vs0mg"},{"bike_id":"df60e2c1-34de-46d2-b406-ec157fe3436b","system_id":"levelo_inurba_marseille","lat":43.25582,"lon":5.38233,"is_reserved":false,"is_disabled":false,"rental_uris":{"android":"levelo://app?vid=df60e2c1-34de-46d2-b406-ec157fe3436b","ios":"levelo://app?vid=df60e2c1-34de-46d2-b406-ec157fe3436b"},"vehicle_type_id":"4","last_reported":1740676148,"current_range_meters":8400,"station_id":"ce4bhih2rcd13ifvqfs0","pricing_plan_id":"cebpf4jnsgd1na2vs0mg"},{"bike_id":"769b752f-9510-4423-84bf-b292599e0188","system_id":"levelo_inurba_marseille","lat":43.32475,"lon":5.36552,"is_reserved":false,"is_disabled":false,"rental_uris":{"android":"levelo://app?vid=769b752f-9510-4423-84bf-b292599e0188","ios":"levelo://app?vid=769b752f-9510-4423-84bf-b292599e0188"},"vehicle_type_id":"4","last_reported":1740676148,"current_range_meters":8400,"station_id":"ce4bhs12rcd13ifvqhvg","pricing_plan_id":"cebpf4jnsgd1na2vs0mg"},{"bike_id":"1c72a9c5-23de-4c16-a642-67f6a30e4f61","system_id":"levelo_inurba_marseille","lat":43.29787,"lon":5.39345,"is_reserved":false,"is_disabled":false,"rental_uris":{"android":"levelo://app?vid=1c72a9c5-23de-4c16-a642-67f6a30e4f61","ios":"levelo://app?vid=1c72a9c5-23de-4c16-a642-67f6a30e4f61"},"vehicle_type_id":"4","last_reported":1740676148,"current_range_meters":8000,"station_id":"chh1huq6cuj3fo74tm60","pricing_plan_id":"cebpf4jnsgd1na2vs0mg"},{"bike_id":"dc0a5a2e-33f9-4dbc-8776-7b444f7d88bf","system_id":"levelo_inurba_marseille","lat":43.29305,"lon":5.37169,"is_reserved":false,"is_disabled":false,"rental_uris":{"android":"levelo://app?vid=dc0a5a2e-33f9-4dbc-8776-7b444f7d88bf","ios":"levelo://app?vid=dc0a5a2e-33f9-4dbc-8776-7b444f7d88bf"},"vehicle_type_id":"4","last_reported":1740676148,"current_range_meters":8400,"station_id":"ce4bgh92rcd13ifvqb40","pricing_plan_id":"cebpf4jnsgd1na2vs0mg"},{"bike_id":"97180261-4a48-4d27-bc65-e73cb7d11507","system_id":"levelo_inurba_marseille","lat":43.29412,"lon":5.38622,"is_reserved":false,"is_disabled":false,"rental_uris":{"android":"levelo://app?vid=97180261-4a48-4d27-bc65-e73cb7d11507","ios":"levelo://app?vid=97180261-4a48-4d27-bc65-e73cb7d11507"},"vehicle_type_id":"4","last_reported":1740676148,"current_range_meters":8800,"station_id":"ce4bh2h2rcd13ifvqdh0","pricing_plan_id":"cebpf4jnsgd1na2vs0mg"},{"bike_id":"997d79ae-be30-4d50-979d-321620cb42bc","system_id":"levelo_inurba_marseille","lat":43.25572,"lon":5.3824,"is_reserved":false,"is_disabled":false,"rental_uris":{"android":"levelo://app?vid=997d79ae-be30-4d50-979d-321620cb42bc","ios":"levelo://app?vid=997d79ae-be30-4d50-979d-321620cb42bc"},"vehicle_type_id":"4","last_reported":1740676148,"current_range_meters":8800,"station_id":"ce4bhih2rcd13ifvqfs0","pricing_plan_id":"cebpf4jnsgd1na2vs0mg"},{"bike_id":"039ef6be-b708-42df-a6eb-d41656f1ce53","system_id":"levelo_inurba_marseille","lat":43.2511,"lon":5.40353,"is_reserved":false,"is_disabled":false,"rental_uris":{"android":"levelo://app?vid=039ef6be-b708-42df-a6eb-d41656f1ce53","ios":"levelo://app?vid=039ef6be-b708-42df-a6eb-d41656f1ce53"},"vehicle_type_id":"4","last_reported":1740676148,"current_range_meters":8800,"station_id":"ce4bhlh2rcd13ifvqgig","pricing_plan_id":"cebpf4jnsgd1na2vs0mg"},{"bike_id":"a1bced72-653f-4767-ba45-f51f0f424aee","system_id":"levelo_inurba_marseille","lat":43.29275,"lon":5.36846,"is_reserved":false,"is_disabled":false,"rental_uris":{"android":"levelo://app?vid=a1bced72-653f-4767-ba45-f51f0f424aee","ios":"levelo://app?vid=a1bced72-653f-4767-ba45-f51f0f424aee"},"vehicle_type_id":"4","last_reported":1740676148,"current_range_meters":8800,"station_id":"ce4bhbp2rcd13ifvqesg","pricing_plan_id":"cebpf4jnsgd1na2vs0mg"},{"bike_id":"a8c90833-ddb5-47b3-9888-02d50da1b0e6","system_id":"levelo_inurba_marseille","lat":43.29781,"lon":5.39344,"is_reserved":false,"is_disabled":false,"rental_uris":{"android":"levelo://app?vid=a8c90833-ddb5-47b3-9888-02d50da1b0e6","ios":"levelo://app?vid=a8c90833-ddb5-47b3-9888-02d50da1b0e6"},"vehicle_type_id":"4","last_reported":1740676148,"current_range_meters":8800,"station_id":"chh1huq6cuj3fo74tm60","pricing_plan_id":"cebpf4jnsgd1na2vs0mg"},{"bike_id":"4dcd9f60-32d9-44fe-ab24-79d6dd9f8b83","system_id":"levelo_inurba_marseille","lat":43.29003,"lon":5.35607,"is_reserved":false,"is_disabled":false,"rental_uris":{"android":"levelo://app?vid=4dcd9f60-32d9-44fe-ab24-79d6dd9f8b83","ios":"levelo://app?vid=4dcd9f60-32d9-44fe-ab24-79d6dd9f8b83"},"vehicle_type_id":"4","last_reported":1740676148,"current_range_meters":8800,"station_id":"ce4bhb92rcd13ifvqen0","pricing_plan_id":"cebpf4jnsgd1na2vs0mg"},{"bike_id":"d97641c6-3896-48c6-9101-b2dc4dc19827","system_id":"levelo_inurba_marseille","lat":43.27822,"lon":5.39203,"is_reserved":false,"is_disabled":false,"rental_uris":{"android":"levelo://app?vid=d97641c6-3896-48c6-9101-b2dc4dc19827","ios":"levelo://app?vid=d97641c6-3896-48c6-9101-b2dc4dc19827"},"vehicle_type_id":"4","last_reported":1740676148,"current_range_meters":8800,"station_id":"ce4bhjp2rcd13ifvqga0","pricing_plan_id":"cebpf4jnsgd1na2vs0mg"},{"bike_id":"4427d100-32ac-40dc-8363-d5346194255b","system_id":"levelo_inurba_marseille","lat":43.29908,"lon":5.37472,"is_reserved":false,"is_disabled":false,"rental_uris":{"android":"levelo://app?vid=4427d100-32ac-40dc-8363-d5346194255b","ios":"levelo://app?vid=4427d100-32ac-40dc-8363-d5346194255b"},"vehicle_type_id":"4","last_reported":1740676148,"current_range_meters":8800,"station_id":"ce4bgjh2rcd13ifvqbg0","pricing_plan_id":"cebpf4jnsgd1na2vs0mg"},{"bike_id":"61aef3c7-6ad6-477b-9e19-da7fbf2c14fc","system_id":"levelo_inurba_marseille","lat":43.28272,"lon":5.35062,"is_reserved":false,"is_disabled":false,"rental_uris":{"android":"levelo://app?vid=61aef3c7-6ad6-477b-9e19-da7fbf2c14fc","ios":"levelo://app?vid=61aef3c7-6ad6-477b-9e19-da7fbf2c14fc"},"vehicle_type_id":"4","last_reported":1740676148,"current_range_meters":8800,"station_id":"ce4bhbp2rcd13ifvqerg","pricing_plan_id":"cebpf4jnsgd1na2vs0mg"},{"bike_id":"f0576d22-fcf7-4c63-af0a-312c2bbda224","system_id":"levelo_inurba_marseille","lat":43.30957,"lon":5.39033,"is_reserved":false,"is_disabled":false,"rental_uris":{"android":"levelo://app?vid=f0576d22-fcf7-4c63-af0a-312c2bbda224","ios":"levelo://app?vid=f0576d22-fcf7-4c63-af0a-312c2bbda224"},"vehicle_type_id":"4","last_reported":1740676148,"current_range_meters":8800,"station_id":"ce4bgup2rcd13ifvqco0","pricing_plan_id":"cebpf4jnsgd1na2vs0mg"},{"bike_id":"62846203-a833-4f01-9203-784003dcac92","system_id":"levelo_inurba_marseille","lat":43.23178,"lon":5.39995,"is_reserved":false,"is_disabled":false,"rental_uris":{"android":"levelo://app?vid=62846203-a833-4f01-9203-784003dcac92","ios":"levelo://app?vid=62846203-a833-4f01-9203-784003dcac92"},"vehicle_type_id":"4","last_reported":1740676148,"current_range_meters":9200,"station_id":"ce4bhn12rcd13ifvqgqg","pricing_plan_id":"cebpf4jnsgd1na2vs0mg"},{"bike_id":"8c830c42-d688-4664-a72d-ae8040bda5f7","system_id":"levelo_inurba_marseille","lat":43.25818,"lon":5.39435,"is_reserved":false,"is_disabled":false,"rental_uris":{"android":"levelo://app?vid=8c830c42-d688-4664-a72d-ae8040bda5f7","ios":"levelo://app?vid=8c830c42-d688-4664-a72d-ae8040bda5f7"},"vehicle_type_id":"4","last_reported":1740676148,"current_range_meters":8800,"station_id":"ce4bhip2rcd13ifvqft0","pricing_plan_id":"cebpf4jnsgd1na2vs0mg"},{"bike_id":"5d620ea8-28a8-4cda-aa38-a24e93caad96","system_id":"levelo_inurba_marseille","lat":43.28996,"lon":5.35612,"is_reserved":false,"is_disabled":false,"rental_uris":{"android":"levelo://app?vid=5d620ea8-28a8-4cda-aa38-a24e93caad96","ios":"levelo://app?vid=5d620ea8-28a8-4cda-aa38-a24e93caad96"},"vehicle_type_id":"4","last_reported":1740676148,"current_range_meters":8800,"station_id":"ce4bhb92rcd13ifvqen0","pricing_plan_id":"cebpf4jnsgd1na2vs0mg"},{"bike_id":"893e59c6-6228-4d92-9be2-f97e74283a83","system_id":"levelo_inurba_marseille","lat":43.30636,"lon":5.4009,"is_reserved":false,"is_disabled":false,"rental_uris":{"android":"levelo://app?vid=893e59c6-6228-4d92-9be2-f97e74283a83","ios":"levelo://app?vid=893e59c6-6228-4d92-9be2-f97e74283a83"},"vehicle_type_id":"4","last_reported":1740676148,"current_range_meters":9200,"station_id":"ce4bh112rcd13ifvqda0","pricing_plan_id":"cebpf4jnsgd1na2vs0mg"},{"bike_id":"745c5d38-332d-426b-8e7b-acb525d1c540","system_id":"levelo_inurba_marseille","lat":43.25083,"lon":5.39523,"is_reserved":false,"is_disabled":false,"rental_uris":{"android":"levelo://app?vid=745c5d38-332d-426b-8e7b-acb525d1c540","ios":"levelo://app?vid=745c5d38-332d-426b-8e7b-acb525d1c540"},"vehicle_type_id":"4","last_reported":1740676148,"current_range_meters":9200,"station_id":"ce4bhm12rcd13ifvqgkg","pricing_plan_id":"cebpf4jnsgd1na2vs0mg"},{"bike_id":"afd98e29-9e65-49b1-96e9-da6c0e62de76","system_id":"levelo_inurba_marseille","lat":43.29249,"lon":5.38193,"is_reserved":false,"is_disabled":false,"rental_uris":{"android":"levelo://app?vid=afd98e29-9e65-49b1-96e9-da6c0e62de76","ios":"levelo://app?vid=afd98e29-9e65-49b1-96e9-da6c0e62de76"},"vehicle_type_id":"4","last_reported":1740676148,"current_range_meters":9200,"station_id":"","pricing_plan_id":"cebpf4jnsgd1na2vs0mg"},{"bike_id":"7701e8e9-1b70-4da9-b0d6-f640f219fd92","system_id":"levelo_inurba_marseille","lat":43.289819,"lon":5.386728,"is_reserved":false,"is_disabled":false,"rental_uris":{"android":"levelo://app?vid=7701e8e9-1b70-4da9-b0d6-f640f219fd92","ios":"levelo://app?vid=7701e8e9-1b70-4da9-b0d6-f640f219fd92"},"vehicle_type_id":"4","last_reported":1740676148,"current_range_meters":8800,"station_id":"ce4bhn12rcd13ifvqgqg","pricing_plan_id":"cebpf4jnsgd1na2vs0mg"},{"bike_id":"d90a830f-d27c-4c9b-a0b9-d70c13b1d7ec","system_id":"levelo_inurba_marseille","lat":43.26955,"lon":5.38641,"is_reserved":false,"is_disabled":false,"rental_uris":{"android":"levelo://app?vid=d90a830f-d27c-4c9b-a0b9-d70c13b1d7ec","ios":"levelo://app?vid=d90a830f-d27c-4c9b-a0b9-d70c13b1d7ec"},"vehicle_type_id":"4","last_reported":1740676148,"current_range_meters":8800,"station_id":"ce4bhh92rcd13ifvqfh0","pricing_plan_id":"cebpf4jnsgd1na2vs0mg"},{"bike_id":"92843cb8-61f9-43d7-865e-1a0f31224041","system_id":"levelo_inurba_marseille","lat":43.30148,"lon":5.38082,"is_reserved":false,"is_disabled":false,"rental_uris":{"android":"levelo://app?vid=92843cb8-61f9-43d7-865e-1a0f31224041","ios":"levelo://app?vid=92843cb8-61f9-43d7-865e-1a0f31224041"},"vehicle_type_id":"4","last_reported":1740676148,"current_range_meters":9200,"station_id":"ce4bgjp2rcd13ifvqbh0","pricing_plan_id":"cebpf4jnsgd1na2vs0mg"},{"bike_id":"927ccb1a-4e91-4dc6-b099-5a543622a5f9","system_id":"levelo_inurba_marseille","lat":43.29545,"lon":5.42274,"is_reserved":false,"is_disabled":false,"rental_uris":{"android":"levelo://app?vid=927ccb1a-4e91-4dc6-b099-5a543622a5f9","ios":"levelo://app?vid=927ccb1a-4e91-4dc6-b099-5a543622a5f9"},"vehicle_type_id":"4","last_reported":1740676148,"current_range_meters":9200,"station_id":"ce4bhph2rcd13ifvqhdg","pricing_plan_id":"cebpf4jnsgd1na2vs0mg"},{"bike_id":"ef8585e0-7e12-45bf-aeb3-8784d241e46e","system_id":"levelo_inurba_marseille","lat":43.3035,"lon":5.4188,"is_reserved":false,"is_disabled":false,"rental_uris":{"android":"levelo://app?vid=ef8585e0-7e12-45bf-aeb3-8784d241e46e","ios":"levelo://app?vid=ef8585e0-7e12-45bf-aeb3-8784d241e46e"},"vehicle_type_id":"4","last_reported":1740676148,"current_range_meters":8800,"station_id":"ce4bhop2rcd13ifvqh7g","pricing_plan_id":"cebpf4jnsgd1na2vs0mg"},{"bike_id":"c997b30a-bd84-4943-809c-ccf6d5b32c4f","system_id":"levelo_inurba_marseille","lat":43.2762,"lon":5.36109,"is_reserved":false,"is_disabled":false,"rental_uris":{"android":"levelo://app?vid=c997b30a-bd84-4943-809c-ccf6d5b32c4f","ios":"levelo://app?vid=c997b30a-bd84-4943-809c-ccf6d5b32c4f"},"vehicle_type_id":"4","last_reported":1740676148,"current_range_meters":11600,"station_id":"ce4bgj92rcd13ifvqbe0","pricing_plan_id":"cebpf4jnsgd1na2vs0mg"},{"bike_id":"3f0907b3-da2b-41a5-8662-a0489e1a0f25","system_id":"levelo_inurba_marseille","lat":43.32121,"lon":5.36757,"is_reserved":false,"is_disabled":false,"rental_uris":{"android":"levelo://app?vid=3f0907b3-da2b-41a5-8662-a0489e1a0f25","ios":"levelo://app?vid=3f0907b3-da2b-41a5-8662-a0489e1a0f25"},"vehicle_type_id":"4","last_reported":1740676148,"current_range_meters":9200,"station_id":"ce4bhrh2rcd13ifvqhug","pricing_plan_id":"cebpf4jnsgd1na2vs0mg"},{"bike_id":"f968801d-828a-453a-8567-66f1c972a56e","system_id":"levelo_inurba_marseille","lat":43.258644,"lon":5.398965,"is_reserved":false,"is_disabled":false,"rental_uris":{"android":"levelo://app?vid=f968801d-828a-453a-8567-66f1c972a56e","ios":"levelo://app?vid=f968801d-828a-453a-8567-66f1c972a56e"},"vehicle_type_id":"4","last_reported":1740676148,"current_range_meters":9600,"station_id":"ce4bgk12rcd13ifvqbi0","pricing_plan_id":"cebpf4jnsgd1na2vs0mg"},{"bike_id":"91f909e9-358e-43ed-a45f-822af931a978","system_id":"levelo_inurba_marseille","lat":43.232157,"lon":5.403709,"is_reserved":false,"is_disabled":false,"rental_uris":{"android":"levelo://app?vid=91f909e9-358e-43ed-a45f-822af931a978","ios":"levelo://app?vid=91f909e9-358e-43ed-a45f-822af931a978"},"vehicle_type_id":"4","last_reported":1740676148,"current_range_meters":9600,"station_id":"","pricing_plan_id":"cebpf4jnsgd1na2vs0mg"},{"bike_id":"0303f107-b6aa-485d-b76e-e2a593da7b2e","system_id":"levelo_inurba_marseille","lat":43.2319,"lon":5.35552,"is_reserved":false,"is_disabled":false,"rental_uris":{"android":"levelo://app?vid=0303f107-b6aa-485d-b76e-e2a593da7b2e","ios":"levelo://app?vid=0303f107-b6aa-485d-b76e-e2a593da7b2e"},"vehicle_type_id":"4","last_reported":1740676148,"current_range_meters":9600,"station_id":"ce4bhu92rcd13ifvqi70","pricing_plan_id":"cebpf4jnsgd1na2vs0mg"},{"bike_id":"82d64e81-8d40-4c80-b5b5-a958f80dbced","system_id":"levelo_inurba_marseille","lat":43.28416,"lon":5.34983,"is_reserved":false,"is_disabled":false,"rental_uris":{"android":"levelo://app?vid=82d64e81-8d40-4c80-b5b5-a958f80dbced","ios":"levelo://app?vid=82d64e81-8d40-4c80-b5b5-a958f80dbced"},"vehicle_type_id":"4","last_reported":1740676148,"current_range_meters":9600,"station_id":"ce4bhbh2rcd13ifvqepg","pricing_plan_id":"cebpf4jnsgd1na2vs0mg"},{"bike_id":"5e0e22b0-e973-48d0-8bed-a771273f721a","system_id":"levelo_inurba_marseille","lat":43.27372,"lon":5.36245,"is_reserved":false,"is_disabled":false,"rental_uris":{"android":"levelo://app?vid=5e0e22b0-e973-48d0-8bed-a771273f721a","ios":"levelo://app?vid=5e0e22b0-e973-48d0-8bed-a771273f721a"},"vehicle_type_id":"4","last_reported":1740676148,"current_range_meters":10000,"station_id":"ce4bhbh2rcd13ifvqeo0","pricing_plan_id":"cebpf4jnsgd1na2vs0mg"},{"bike_id":"03ecd382-3850-4874-86ef-0467a1a8c988","system_id":"levelo_inurba_marseille","lat":43.24164,"lon":5.39743,"is_reserved":false,"is_disabled":true,"rental_uris":{"android":"levelo://app?vid=03ecd382-3850-4874-86ef-0467a1a8c988","ios":"levelo://app?vid=03ecd382-3850-4874-86ef-0467a1a8c988"},"vehicle_type_id":"4","last_reported":1740676148,"current_range_meters":9600,"station_id":"ce4bhn12rcd13ifvqgpg","pricing_plan_id":"cebpf4jnsgd1na2vs0mg"},{"bike_id":"32efb4a1-31ce-4348-a313-05d290f57e99","system_id":"levelo_inurba_marseille","lat":43.28355,"lon":5.38106,"is_reserved":false,"is_disabled":false,"rental_uris":{"android":"levelo://app?vid=32efb4a1-31ce-4348-a313-05d290f57e99","ios":"levelo://app?vid=32efb4a1-31ce-4348-a313-05d290f57e99"},"vehicle_type_id":"4","last_reported":1740676148,"current_range_meters":9200,"station_id":"ce4bh412rcd13ifvqdr0","pricing_plan_id":"cebpf4jnsgd1na2vs0mg"},{"bike_id":"4f9c9666-accb-4a25-829a-d2ab592344b6","system_id":"levelo_inurba_marseille","lat":43.28412,"lon":5.37516,"is_reserved":false,"is_disabled":false,"rental_uris":{"android":"levelo://app?vid=4f9c9666-accb-4a25-829a-d2ab592344b6","ios":"levelo://app?vid=4f9c9666-accb-4a25-829a-d2ab592344b6"},"vehicle_type_id":"4","last_reported":1740676148,"current_range_meters":9600,"station_id":"ce4bh412rcd13ifvqds0","pricing_plan_id":"cebpf4jnsgd1na2vs0mg"},{"bike_id":"83cba075-0d3b-49d1-ab65-c70c786f0d3d","system_id":"levelo_inurba_marseille","lat":43.30546,"lon":5.36546,"is_reserved":false,"is_disabled":false,"rental_uris":{"android":"levelo://app?vid=83cba075-0d3b-49d1-ab65-c70c786f0d3d","ios":"levelo://app?vid=83cba075-0d3b-49d1-ab65-c70c786f0d3d"},"vehicle_type_id":"4","last_reported":1740676148,"current_range_meters":9600,"station_id":"ce4bgs12rcd13ifvqcag","pricing_plan_id":"cebpf4jnsgd1na2vs0mg"},{"bike_id":"f942adb6-7fed-48bd-91f1-d93d517331bb","system_id":"levelo_inurba_marseille","lat":43.29787,"lon":5.38097,"is_reserved":false,"is_disabled":false,"rental_uris":{"android":"levelo://app?vid=f942adb6-7fed-48bd-91f1-d93d517331bb","ios":"levelo://app?vid=f942adb6-7fed-48bd-91f1-d93d517331bb"},"vehicle_type_id":"4","last_reported":1740676148,"current_range_meters":9200,"station_id":"ce4bgip2rcd13ifvqbb0","pricing_plan_id":"cebpf4jnsgd1na2vs0mg"},{"bike_id":"a62fce1f-3867-4f8c-b704-17292808a065","system_id":"levelo_inurba_marseille","lat":43.29263,"lon":5.36851,"is_reserved":false,"is_disabled":false,"rental_uris":{"android":"levelo://app?vid=a62fce1f-3867-4f8c-b704-17292808a065","ios":"levelo://app?vid=a62fce1f-3867-4f8c-b704-17292808a065"},"vehicle_type_id":"4","last_reported":1740676148,"current_range_meters":8800,"station_id":"ce4bhbp2rcd13ifvqesg","pricing_plan_id":"cebpf4jnsgd1na2vs0mg"},{"bike_id":"1de4e1c6-74d3-419d-9be1-fd145db40905","system_id":"levelo_inurba_marseille","lat":43.293,"lon":5.37459,"is_reserved":false,"is_disabled":false,"rental_uris":{"android":"levelo://app?vid=1de4e1c6-74d3-419d-9be1-fd145db40905","ios":"levelo://app?vid=1de4e1c6-74d3-419d-9be1-fd145db40905"},"vehicle_type_id":"4","last_reported":1740676148,"current_range_meters":10000,"station_id":"ce4bgi12rcd13ifvqb70","pricing_plan_id":"cebpf4jnsgd1na2vs0mg"},{"bike_id":"f76c9185-05ba-4309-b734-f3c32fd2cb5a","system_id":"levelo_inurba_marseille","lat":43.31112,"lon":5.37759,"is_reserved":false,"is_disabled":false,"rental_uris":{"android":"levelo://app?vid=f76c9185-05ba-4309-b734-f3c32fd2cb5a","ios":"levelo://app?vid=f76c9185-05ba-4309-b734-f3c32fd2cb5a"},"vehicle_type_id":"4","last_reported":1740676148,"current_range_meters":10000,"station_id":"ce4bgt92rcd13ifvqcg0","pricing_plan_id":"cebpf4jnsgd1na2vs0mg"},{"bike_id":"8c8d4d9e-6dac-44f1-9769-5bc799332ab4","system_id":"levelo_inurba_marseille","lat":43.29304,"lon":5.37453,"is_reserved":false,"is_disabled":false,"rental_uris":{"android":"levelo://app?vid=8c8d4d9e-6dac-44f1-9769-5bc799332ab4","ios":"levelo://app?vid=8c8d4d9e-6dac-44f1-9769-5bc799332ab4"},"vehicle_type_id":"4","last_reported":1740676148,"current_range_meters":10800,"station_id":"ce4bgi12rcd13ifvqb70","pricing_plan_id":"cebpf4jnsgd1na2vs0mg"},{"bike_id":"f0372ee5-e4eb-47e2-bfcc-8d2bac8c2daf","system_id":"levelo_inurba_marseille","lat":43.284882,"lon":5.384332,"is_reserved":false,"is_disabled":false,"rental_uris":{"android":"levelo://app?vid=f0372ee5-e4eb-47e2-bfcc-8d2bac8c2daf","ios":"levelo://app?vid=f0372ee5-e4eb-47e2-bfcc-8d2bac8c2daf"},"vehicle_type_id":"4","last_reported":1740676148,"current_range_meters":10000,"station_id":"ce4bh512rcd13ifvqe3g","pricing_plan_id":"cebpf4jnsgd1na2vs0mg"},{"bike_id":"9239bc70-60ac-4e2f-8508-c0538674d7ce","system_id":"levelo_inurba_marseille","lat":43.30116,"lon":5.39863,"is_reserved":false,"is_disabled":false,"rental_uris":{"android":"levelo://app?vid=9239bc70-60ac-4e2f-8508-c0538674d7ce","ios":"levelo://app?vid=9239bc70-60ac-4e2f-8508-c0538674d7ce"},"vehicle_type_id":"4","last_reported":1740676148,"current_range_meters":9600,"station_id":"ce4bh0h2rcd13ifvqd40","pricing_plan_id":"cebpf4jnsgd1na2vs0mg"},{"bike_id":"5dcfc6c2-3bb2-48cf-a7a2-f25565663c00","system_id":"levelo_inurba_marseille","lat":43.29885,"lon":5.38907,"is_reserved":false,"is_disabled":false,"rental_uris":{"android":"levelo://app?vid=5dcfc6c2-3bb2-48cf-a7a2-f25565663c00","ios":"levelo://app?vid=5dcfc6c2-3bb2-48cf-a7a2-f25565663c00"},"vehicle_type_id":"4","last_reported":1740676148,"current_range_meters":9600,"station_id":"ce4bh392rcd13ifvqdl0","pricing_plan_id":"cebpf4jnsgd1na2vs0mg"},{"bike_id":"e5c4159e-1b69-403c-900c-f56cee27c4b9","system_id":"levelo_inurba_marseille","lat":43.29002,"lon":5.35616,"is_reserved":false,"is_disabled":false,"rental_uris":{"android":"levelo://app?vid=e5c4159e-1b69-403c-900c-f56cee27c4b9","ios":"levelo://app?vid=e5c4159e-1b69-403c-900c-f56cee27c4b9"},"vehicle_type_id":"4","last_reported":1740676148,"current_range_meters":10000,"station_id":"ce4bhb92rcd13ifvqen0","pricing_plan_id":"cebpf4jnsgd1na2vs0mg"},{"bike_id":"ceada319-f43c-489f-8514-905ab74c8e1c","system_id":"levelo_inurba_marseille","lat":43.29907,"lon":5.37463,"is_reserved":false,"is_disabled":false,"rental_uris":{"android":"levelo://app?vid=ceada319-f43c-489f-8514-905ab74c8e1c","ios":"levelo://app?vid=ceada319-f43c-489f-8514-905ab74c8e1c"},"vehicle_type_id":"4","last_reported":1740676148,"current_range_meters":10800,"station_id":"ce4bgjh2rcd13ifvqbg0","pricing_plan_id":"cebpf4jnsgd1na2vs0mg"},{"bike_id":"17209f80-451e-4586-b620-381cc150687e","system_id":"levelo_inurba_marseille","lat":43.29871,"lon":5.38905,"is_reserved":false,"is_disabled":false,"rental_uris":{"android":"levelo://app?vid=17209f80-451e-4586-b620-381cc150687e","ios":"levelo://app?vid=17209f80-451e-4586-b620-381cc150687e"},"vehicle_type_id":"4","last_reported":1740676148,"current_range_meters":10800,"station_id":"ce4bh392rcd13ifvqdl0","pricing_plan_id":"cebpf4jnsgd1na2vs0mg"},{"bike_id":"c5cc055a-2f58-4a98-88a9-f076fac7d208","system_id":"levelo_inurba_marseille","lat":43.311725,"lon":5.387199,"is_reserved":false,"is_disabled":false,"rental_uris":{"android":"levelo://app?vid=c5cc055a-2f58-4a98-88a9-f076fac7d208","ios":"levelo://app?vid=c5cc055a-2f58-4a98-88a9-f076fac7d208"},"vehicle_type_id":"4","last_reported":1740676148,"current_range_meters":10800,"station_id":"ce4bgv12rcd13ifvqcp0","pricing_plan_id":"cebpf4jnsgd1na2vs0mg"},{"bike_id":"6cfcfbdb-025c-40fe-89c8-e889aea104de","system_id":"levelo_inurba_marseille","lat":43.28608,"lon":5.37073,"is_reserved":false,"is_disabled":false,"rental_uris":{"android":"levelo://app?vid=6cfcfbdb-025c-40fe-89c8-e889aea104de","ios":"levelo://app?vid=6cfcfbdb-025c-40fe-89c8-e889aea104de"},"vehicle_type_id":"4","last_reported":1740676148,"current_range_meters":10800,"station_id":"ce4bht12rcd13ifvqi60","pricing_plan_id":"cebpf4jnsgd1na2vs0mg"},{"bike_id":"64d5bd85-58b2-4b54-b93c-4a6aef9a8da8","system_id":"levelo_inurba_marseille","lat":43.30539,"lon":5.36529,"is_reserved":false,"is_disabled":true,"rental_uris":{"android":"levelo://app?vid=64d5bd85-58b2-4b54-b93c-4a6aef9a8da8","ios":"levelo://app?vid=64d5bd85-58b2-4b54-b93c-4a6aef9a8da8"},"vehicle_type_id":"4","last_reported":1740676148,"current_range_meters":12400,"station_id":"ce4bgs12rcd13ifvqcag","pricing_plan_id":"cebpf4jnsgd1na2vs0mg"},{"bike_id":"cd55dab6-f16f-477a-8396-951702ed9ff6","system_id":"levelo_inurba_marseille","lat":43.29574,"lon":5.36769,"is_reserved":false,"is_disabled":false,"rental_uris":{"android":"levelo://app?vid=cd55dab6-f16f-477a-8396-951702ed9ff6","ios":"levelo://app?vid=cd55dab6-f16f-477a-8396-951702ed9ff6"},"vehicle_type_id":"4","last_reported":1740676148,"current_range_meters":10800,"station_id":"ce4bgph2rcd13ifvqc2g","pricing_plan_id":"cebpf4jnsgd1na2vs0mg"},{"bike_id":"0684c9b8-68d1-4121-82b2-00c0eebe64db","system_id":"levelo_inurba_marseille","lat":43.2795,"lon":5.41029,"is_reserved":false,"is_disabled":false,"rental_uris":{"android":"levelo://app?vid=0684c9b8-68d1-4121-82b2-00c0eebe64db","ios":"levelo://app?vid=0684c9b8-68d1-4121-82b2-00c0eebe64db"},"vehicle_type_id":"4","last_reported":1740676148,"current_range_meters":10800,"station_id":"ce4bhnp2rcd13ifvqh0g","pricing_plan_id":"cebpf4jnsgd1na2vs0mg"},{"bike_id":"2837d85d-02af-49af-900a-3b751e6ef0d6","system_id":"levelo_inurba_marseille","lat":43.32116,"lon":5.36799,"is_reserved":false,"is_disabled":false,"rental_uris":{"android":"levelo://app?vid=2837d85d-02af-49af-900a-3b751e6ef0d6","ios":"levelo://app?vid=2837d85d-02af-49af-900a-3b751e6ef0d6"},"vehicle_type_id":"4","last_reported":1740676148,"current_range_meters":11200,"station_id":"ce4bhrh2rcd13ifvqhug","pricing_plan_id":"cebpf4jnsgd1na2vs0mg"},{"bike_id":"110ccb2f-2b08-4871-bba0-e6cb06e64180","system_id":"levelo_inurba_marseille","lat":43.27363,"lon":5.36248,"is_reserved":false,"is_disabled":false,"rental_uris":{"android":"levelo://app?vid=110ccb2f-2b08-4871-bba0-e6cb06e64180","ios":"levelo://app?vid=110ccb2f-2b08-4871-bba0-e6cb06e64180"},"vehicle_type_id":"4","last_reported":1740676148,"current_range_meters":10800,"station_id":"ce4bhbh2rcd13ifvqeo0","pricing_plan_id":"cebpf4jnsgd1na2vs0mg"},{"bike_id":"707d8e6d-b539-480c-8d90-4361534d7db3","system_id":"levelo_inurba_marseille","lat":43.29347,"lon":5.37843,"is_reserved":false,"is_disabled":false,"rental_uris":{"android":"levelo://app?vid=707d8e6d-b539-480c-8d90-4361534d7db3","ios":"levelo://app?vid=707d8e6d-b539-480c-8d90-4361534d7db3"},"vehicle_type_id":"4","last_reported":1740676148,"current_range_meters":4800,"station_id":"ce4bgjh2rcd13ifvqbf0","pricing_plan_id":"cebpf4jnsgd1na2vs0mg"},{"bike_id":"4517841d-f497-4adf-b7bc-cc9acc9fc2a5","system_id":"levelo_inurba_marseille","lat":43.29699,"lon":5.36592,"is_reserved":false,"is_disabled":false,"rental_uris":{"android":"levelo://app?vid=4517841d-f497-4adf-b7bc-cc9acc9fc2a5","ios":"levelo://app?vid=4517841d-f497-4adf-b7bc-cc9acc9fc2a5"},"vehicle_type_id":"4","last_reported":1740676148,"current_range_meters":11200,"station_id":"ce4bgn12rcd13ifvqbt0","pricing_plan_id":"cebpf4jnsgd1na2vs0mg"},{"bike_id":"f5dbfbb4-c9a8-4ab0-931e-b7b53fe4c0ee","system_id":"levelo_inurba_marseille","lat":43.30823,"lon":5.40099,"is_reserved":false,"is_disabled":false,"rental_uris":{"android":"levelo://app?vid=f5dbfbb4-c9a8-4ab0-931e-b7b53fe4c0ee","ios":"levelo://app?vid=f5dbfbb4-c9a8-4ab0-931e-b7b53fe4c0ee"},"vehicle_type_id":"4","last_reported":1740676148,"current_range_meters":11200,"station_id":"ce4bgvp2rcd13ifvqct0","pricing_plan_id":"cebpf4jnsgd1na2vs0mg"},{"bike_id":"d498de9e-c2d4-485f-991f-089180372b03","system_id":"levelo_inurba_marseille","lat":43.30139,"lon":5.37425,"is_reserved":false,"is_disabled":false,"rental_uris":{"android":"levelo://app?vid=d498de9e-c2d4-485f-991f-089180372b03","ios":"levelo://app?vid=d498de9e-c2d4-485f-991f-089180372b03"},"vehicle_type_id":"4","last_reported":1740676148,"current_range_meters":11200,"station_id":"ce4bgs92rcd13ifvqcc0","pricing_plan_id":"cebpf4jnsgd1na2vs0mg"},{"bike_id":"4b001d07-9816-415a-ba69-19cb2ea73f53","system_id":"levelo_inurba_marseille","lat":43.26943,"lon":5.40252,"is_reserved":false,"is_disabled":false,"rental_uris":{"android":"levelo://app?vid=4b001d07-9816-415a-ba69-19cb2ea73f53","ios":"levelo://app?vid=4b001d07-9816-415a-ba69-19cb2ea73f53"},"vehicle_type_id":"4","last_reported":1740676148,"current_range_meters":11200,"station_id":"cjm6bp8fraef2m0cb0m0","pricing_plan_id":"cebpf4jnsgd1na2vs0mg"},{"bike_id":"7a87cae8-34f1-4f9d-95a3-cdf9e15f956d","system_id":"levelo_inurba_marseille","lat":43.25577,"lon":5.38235,"is_reserved":false,"is_disabled":false,"rental_uris":{"android":"levelo://app?vid=7a87cae8-34f1-4f9d-95a3-cdf9e15f956d","ios":"levelo://app?vid=7a87cae8-34f1-4f9d-95a3-cdf9e15f956d"},"vehicle_type_id":"4","last_reported":1740676148,"current_range_meters":11200,"station_id":"ce4bhih2rcd13ifvqfs0","pricing_plan_id":"cebpf4jnsgd1na2vs0mg"},{"bike_id":"1787e83b-f581-4acf-ace0-c9c859ee5d16","system_id":"levelo_inurba_marseille","lat":43.25005,"lon":5.38923,"is_reserved":false,"is_disabled":false,"rental_uris":{"android":"levelo://app?vid=1787e83b-f581-4acf-ace0-c9c859ee5d16","ios":"levelo://app?vid=1787e83b-f581-4acf-ace0-c9c859ee5d16"},"vehicle_type_id":"4","last_reported":1740676148,"current_range_meters":11200,"station_id":"ce4bhgp2rcd13ifvqfd0","pricing_plan_id":"cebpf4jnsgd1na2vs0mg"},{"bike_id":"1181ce1e-a248-40b0-9ad6-bb150270a904","system_id":"levelo_inurba_marseille","lat":43.31579,"lon":5.37631,"is_reserved":false,"is_disabled":false,"rental_uris":{"android":"levelo://app?vid=1181ce1e-a248-40b0-9ad6-bb150270a904","ios":"levelo://app?vid=1181ce1e-a248-40b0-9ad6-bb150270a904"},"vehicle_type_id":"4","last_reported":1740676148,"current_range_meters":12000,"station_id":"","pricing_plan_id":"cebpf4jnsgd1na2vs0mg"},{"bike_id":"026bea55-d354-48d1-b247-aad9cb007771","system_id":"levelo_inurba_marseille","lat":43.29413,"lon":5.38619,"is_reserved":false,"is_disabled":false,"rental_uris":{"android":"levelo://app?vid=026bea55-d354-48d1-b247-aad9cb007771","ios":"levelo://app?vid=026bea55-d354-48d1-b247-aad9cb007771"},"vehicle_type_id":"4","last_reported":1740676148,"current_range_meters":12400,"station_id":"ce4bh2h2rcd13ifvqdh0","pricing_plan_id":"cebpf4jnsgd1na2vs0mg"},{"bike_id":"4e9e21c5-e044-496f-85dd-aeb7f2cdf9c6","system_id":"levelo_inurba_marseille","lat":43.23147,"lon":5.43723,"is_reserved":false,"is_disabled":false,"rental_uris":{"android":"levelo://app?vid=4e9e21c5-e044-496f-85dd-aeb7f2cdf9c6","ios":"levelo://app?vid=4e9e21c5-e044-496f-85dd-aeb7f2cdf9c6"},"vehicle_type_id":"4","last_reported":1740676148,"current_range_meters":12000,"station_id":"ce4bhmp2rcd13ifvqgog","pricing_plan_id":"cebpf4jnsgd1na2vs0mg"},{"bike_id":"907b990b-0a8a-4924-acec-37622f347ce1","system_id":"levelo_inurba_marseille","lat":43.28619,"lon":5.35101,"is_reserved":false,"is_disabled":false,"rental_uris":{"android":"levelo://app?vid=907b990b-0a8a-4924-acec-37622f347ce1","ios":"levelo://app?vid=907b990b-0a8a-4924-acec-37622f347ce1"},"vehicle_type_id":"4","last_reported":1740676148,"current_range_meters":11600,"station_id":"ce4bhch2rcd13ifvqeug","pricing_plan_id":"cebpf4jnsgd1na2vs0mg"},{"bike_id":"6ef4003b-68c9-49e7-b19c-e74b6b523ada","system_id":"levelo_inurba_marseille","lat":43.29027,"lon":5.3863,"is_reserved":false,"is_disabled":false,"rental_uris":{"android":"levelo://app?vid=6ef4003b-68c9-49e7-b19c-e74b6b523ada","ios":"levelo://app?vid=6ef4003b-68c9-49e7-b19c-e74b6b523ada"},"vehicle_type_id":"4","last_reported":1740676148,"current_range_meters":10800,"station_id":"ce4bh4p2rcd13ifvqe0g","pricing_plan_id":"cebpf4jnsgd1na2vs0mg"},{"bike_id":"40898e08-75ac-48c7-85f0-76e1a104237e","system_id":"levelo_inurba_marseille","lat":43.26204,"lon":5.37928,"is_reserved":false,"is_disabled":false,"rental_uris":{"android":"levelo://app?vid=40898e08-75ac-48c7-85f0-76e1a104237e","ios":"levelo://app?vid=40898e08-75ac-48c7-85f0-76e1a104237e"},"vehicle_type_id":"4","last_reported":1740676148,"current_range_meters":12000,"station_id":"ce4bhjp2rcd13ifvqg90","pricing_plan_id":"cebpf4jnsgd1na2vs0mg"},{"bike_id":"9750b47d-790a-412a-877d-2d76b3350e12","system_id":"levelo_inurba_marseille","lat":43.28447,"lon":5.35891,"is_reserved":false,"is_disabled":false,"rental_uris":{"android":"levelo://app?vid=9750b47d-790a-412a-877d-2d76b3350e12","ios":"levelo://app?vid=9750b47d-790a-412a-877d-2d76b3350e12"},"vehicle_type_id":"4","last_reported":1740676148,"current_range_meters":12400,"station_id":"ce4bhah2rcd13ifvqei0","pricing_plan_id":"cebpf4jnsgd1na2vs0mg"},{"bike_id":"ad5c481c-980f-4d1a-bdc9-fb0e902fdf20","system_id":"levelo_inurba_marseille","lat":43.29678,"lon":5.37305,"is_reserved":false,"is_disabled":false,"rental_uris":{"android":"levelo://app?vid=ad5c481c-980f-4d1a-bdc9-fb0e902fdf20","ios":"levelo://app?vid=ad5c481c-980f-4d1a-bdc9-fb0e902fdf20"},"vehicle_type_id":"4","last_reported":1740676148,"current_range_meters":12400,"station_id":"ce4bgk12rcd13ifvqbj0","pricing_plan_id":"cebpf4jnsgd1na2vs0mg"},{"bike_id":"443370dd-f8b8-457a-b6f8-389b804ff6fc","system_id":"levelo_inurba_marseille","lat":43.32357,"lon":5.38882,"is_reserved":false,"is_disabled":false,"rental_uris":{"android":"levelo://app?vid=443370dd-f8b8-457a-b6f8-389b804ff6fc","ios":"levelo://app?vid=443370dd-f8b8-457a-b6f8-389b804ff6fc"},"vehicle_type_id":"4","last_reported":1740676148,"current_range_meters":12400,"station_id":"ce4bhqp2rcd13ifvqhog","pricing_plan_id":"cebpf4jnsgd1na2vs0mg"},{"bike_id":"829ad463-1761-42c7-ba1b-51f9f85fd93e","system_id":"levelo_inurba_marseille","lat":43.2798,"lon":5.41645,"is_reserved":false,"is_disabled":false,"rental_uris":{"android":"levelo://app?vid=829ad463-1761-42c7-ba1b-51f9f85fd93e","ios":"levelo://app?vid=829ad463-1761-42c7-ba1b-51f9f85fd93e"},"vehicle_type_id":"4","last_reported":1740676148,"current_range_meters":12400,"station_id":"ce4bho12rcd13ifvqh1g","pricing_plan_id":"cebpf4jnsgd1na2vs0mg"},{"bike_id":"aa76c55d-40e3-432b-b2a7-7aeb7b04efde","system_id":"levelo_inurba_marseille","lat":43.3031,"lon":5.39212,"is_reserved":false,"is_disabled":false,"rental_uris":{"android":"levelo://app?vid=aa76c55d-40e3-432b-b2a7-7aeb7b04efde","ios":"levelo://app?vid=aa76c55d-40e3-432b-b2a7-7aeb7b04efde"},"vehicle_type_id":"4","last_reported":1740676148,"current_range_meters":12800,"station_id":"ce4bgkh2rcd13ifvqbk0","pricing_plan_id":"cebpf4jnsgd1na2vs0mg"},{"bike_id":"3e77ecee-8d85-493f-9e63-cf7323c34875","system_id":"levelo_inurba_marseille","lat":43.31056,"lon":5.40098,"is_reserved":false,"is_disabled":false,"rental_uris":{"android":"levelo://app?vid=3e77ecee-8d85-493f-9e63-cf7323c34875","ios":"levelo://app?vid=3e77ecee-8d85-493f-9e63-cf7323c34875"},"vehicle_type_id":"4","last_reported":1740676148,"current_range_meters":12800,"station_id":"","pricing_plan_id":"cebpf4jnsgd1na2vs0mg"},{"bike_id":"3de9aeda-1f9a-4bbc-8b90-e02a49e56ca9","system_id":"levelo_inurba_marseille","lat":43.23195,"lon":5.35569,"is_reserved":false,"is_disabled":false,"rental_uris":{"android":"levelo://app?vid=3de9aeda-1f9a-4bbc-8b90-e02a49e56ca9","ios":"levelo://app?vid=3de9aeda-1f9a-4bbc-8b90-e02a49e56ca9"},"vehicle_type_id":"4","last_reported":1740676148,"current_range_meters":12800,"station_id":"ce4bhu92rcd13ifvqi70","pricing_plan_id":"cebpf4jnsgd1na2vs0mg"},{"bike_id":"5d0980d3-acd0-4767-88ae-d04889f0bc30","system_id":"levelo_inurba_marseille","lat":43.29305,"lon":5.371835,"is_reserved":false,"is_disabled":false,"rental_uris":{"android":"levelo://app?vid=5d0980d3-acd0-4767-88ae-d04889f0bc30","ios":"levelo://app?vid=5d0980d3-acd0-4767-88ae-d04889f0bc30"},"vehicle_type_id":"4","last_reported":1740676148,"current_range_meters":13600,"station_id":"ce4bh2p2rcd13ifvqdi0","pricing_plan_id":"cebpf4jnsgd1na2vs0mg"},{"bike_id":"1393e48a-5096-48c2-8ef4-ef737b7b43ae","system_id":"levelo_inurba_marseille","lat":43.25094,"lon":5.3952,"is_reserved":false,"is_disabled":false,"rental_uris":{"android":"levelo://app?vid=1393e48a-5096-48c2-8ef4-ef737b7b43ae","ios":"levelo://app?vid=1393e48a-5096-48c2-8ef4-ef737b7b43ae"},"vehicle_type_id":"4","last_reported":1740676148,"current_range_meters":13600,"station_id":"ce4bhm12rcd13ifvqgkg","pricing_plan_id":"cebpf4jnsgd1na2vs0mg"},{"bike_id":"03d30b14-9fba-4075-a3ad-1fddec42e481","system_id":"levelo_inurba_marseille","lat":43.26025,"lon":5.3755,"is_reserved":false,"is_disabled":false,"rental_uris":{"android":"levelo://app?vid=03d30b14-9fba-4075-a3ad-1fddec42e481","ios":"levelo://app?vid=03d30b14-9fba-4075-a3ad-1fddec42e481"},"vehicle_type_id":"4","last_reported":1740676148,"current_range_meters":13600,"station_id":"ce4bhgh2rcd13ifvqfa0","pricing_plan_id":"cebpf4jnsgd1na2vs0mg"},{"bike_id":"7cf7b894-d393-4f1a-903c-6b57f99cdc54","system_id":"levelo_inurba_marseille","lat":43.26401,"lon":5.38423,"is_reserved":false,"is_disabled":false,"rental_uris":{"android":"levelo://app?vid=7cf7b894-d393-4f1a-903c-6b57f99cdc54","ios":"levelo://app?vid=7cf7b894-d393-4f1a-903c-6b57f99cdc54"},"vehicle_type_id":"4","last_reported":1740676148,"current_range_meters":14000,"station_id":"","pricing_plan_id":"cebpf4jnsgd1na2vs0mg"},{"bike_id":"5169bf4e-5ac4-4560-9d3b-f48581611c45","system_id":"levelo_inurba_marseille","lat":43.2509,"lon":5.39523,"is_reserved":false,"is_disabled":false,"rental_uris":{"android":"levelo://app?vid=5169bf4e-5ac4-4560-9d3b-f48581611c45","ios":"levelo://app?vid=5169bf4e-5ac4-4560-9d3b-f48581611c45"},"vehicle_type_id":"4","last_reported":1740676148,"current_range_meters":13600,"station_id":"ce4bhm12rcd13ifvqgkg","pricing_plan_id":"cebpf4jnsgd1na2vs0mg"},{"bike_id":"86274e78-5d40-4eb8-a103-6504f132db34","system_id":"levelo_inurba_marseille","lat":43.30193,"lon":5.36626,"is_reserved":false,"is_disabled":false,"rental_uris":{"android":"levelo://app?vid=86274e78-5d40-4eb8-a103-6504f132db34","ios":"levelo://app?vid=86274e78-5d40-4eb8-a103-6504f132db34"},"vehicle_type_id":"4","last_reported":1740676148,"current_range_meters":12800,"station_id":"ce4bgrh2rcd13ifvqc8g","pricing_plan_id":"cebpf4jnsgd1na2vs0mg"},{"bike_id":"6bf62df5-9f2c-4676-be2e-3425368f3119","system_id":"levelo_inurba_marseille","lat":43.29345,"lon":5.38237,"is_reserved":false,"is_disabled":false,"rental_uris":{"android":"levelo://app?vid=6bf62df5-9f2c-4676-be2e-3425368f3119","ios":"levelo://app?vid=6bf62df5-9f2c-4676-be2e-3425368f3119"},"vehicle_type_id":"4","last_reported":1740676148,"current_range_meters":13600,"station_id":"","pricing_plan_id":"cebpf4jnsgd1na2vs0mg"},{"bike_id":"07a70f40-d064-434b-83aa-228acdf7dd53","system_id":"levelo_inurba_marseille","lat":43.23181,"lon":5.39984,"is_reserved":false,"is_disabled":false,"rental_uris":{"android":"levelo://app?vid=07a70f40-d064-434b-83aa-228acdf7dd53","ios":"levelo://app?vid=07a70f40-d064-434b-83aa-228acdf7dd53"},"vehicle_type_id":"4","last_reported":1740676148,"current_range_meters":14000,"station_id":"ce4bhn12rcd13ifvqgqg","pricing_plan_id":"cebpf4jnsgd1na2vs0mg"},{"bike_id":"e5de573c-b6a8-4316-beb5-25b221a5bf42","system_id":"levelo_inurba_marseille","lat":43.32336,"lon":5.40616,"is_reserved":false,"is_disabled":false,"rental_uris":{"android":"levelo://app?vid=e5de573c-b6a8-4316-beb5-25b221a5bf42","ios":"levelo://app?vid=e5de573c-b6a8-4316-beb5-25b221a5bf42"},"vehicle_type_id":"4","last_reported":1740676148,"current_range_meters":14000,"station_id":"ce4bhq92rcd13ifvqhjg","pricing_plan_id":"cebpf4jnsgd1na2vs0mg"},{"bike_id":"e0475c8a-8fa7-4faa-bda0-4b5b7b8a276b","system_id":"levelo_inurba_marseille","lat":43.28549,"lon":5.38258,"is_reserved":false,"is_disabled":false,"rental_uris":{"android":"levelo://app?vid=e0475c8a-8fa7-4faa-bda0-4b5b7b8a276b","ios":"levelo://app?vid=e0475c8a-8fa7-4faa-bda0-4b5b7b8a276b"},"vehicle_type_id":"4","last_reported":1740676148,"current_range_meters":14800,"station_id":"","pricing_plan_id":"cebpf4jnsgd1na2vs0mg"},{"bike_id":"807d77e3-c4c9-4749-860f-c69f90ae10dc","system_id":"levelo_inurba_marseille","lat":43.29916,"lon":5.37475,"is_reserved":false,"is_disabled":false,"rental_uris":{"android":"levelo://app?vid=807d77e3-c4c9-4749-860f-c69f90ae10dc","ios":"levelo://app?vid=807d77e3-c4c9-4749-860f-c69f90ae10dc"},"vehicle_type_id":"4","last_reported":1740676148,"current_range_meters":14000,"station_id":"ce4bgjh2rcd13ifvqbg0","pricing_plan_id":"cebpf4jnsgd1na2vs0mg"},{"bike_id":"2bc6b0c1-7127-4e48-b7f5-50a3d89bfd6a","system_id":"levelo_inurba_marseille","lat":43.30922,"lon":5.3729,"is_reserved":false,"is_disabled":false,"rental_uris":{"android":"levelo://app?vid=2bc6b0c1-7127-4e48-b7f5-50a3d89bfd6a","ios":"levelo://app?vid=2bc6b0c1-7127-4e48-b7f5-50a3d89bfd6a"},"vehicle_type_id":"4","last_reported":1740676148,"current_range_meters":14000,"station_id":"","pricing_plan_id":"cebpf4jnsgd1na2vs0mg"},{"bike_id":"b22a9ff5-6cd9-43f4-a196-5360e7082418","system_id":"levelo_inurba_marseille","lat":43.295339,"lon":5.424486,"is_reserved":false,"is_disabled":false,"rental_uris":{"android":"levelo://app?vid=b22a9ff5-6cd9-43f4-a196-5360e7082418","ios":"levelo://app?vid=b22a9ff5-6cd9-43f4-a196-5360e7082418"},"vehicle_type_id":"4","last_reported":1740676148,"current_range_meters":14400,"station_id":"ce4bhph2rcd13ifvqhdg","pricing_plan_id":"cebpf4jnsgd1na2vs0mg"},{"bike_id":"45087991-608b-4684-b4cd-17159956c752","system_id":"levelo_inurba_marseille","lat":43.29027,"lon":5.38651,"is_reserved":false,"is_disabled":false,"rental_uris":{"android":"levelo://app?vid=45087991-608b-4684-b4cd-17159956c752","ios":"levelo://app?vid=45087991-608b-4684-b4cd-17159956c752"},"vehicle_type_id":"4","last_reported":1740676148,"current_range_meters":14400,"station_id":"ce4bh4p2rcd13ifvqe0g","pricing_plan_id":"cebpf4jnsgd1na2vs0mg"},{"bike_id":"5293837c-4ef4-4eb4-b4e6-4ec2a1565954","system_id":"levelo_inurba_marseille","lat":43.2995,"lon":5.374253,"is_reserved":false,"is_disabled":false,"rental_uris":{"android":"levelo://app?vid=5293837c-4ef4-4eb4-b4e6-4ec2a1565954","ios":"levelo://app?vid=5293837c-4ef4-4eb4-b4e6-4ec2a1565954"},"vehicle_type_id":"4","last_reported":1740676148,"current_range_meters":14400,"station_id":"ce4bgjh2rcd13ifvqbg0","pricing_plan_id":"cebpf4jnsgd1na2vs0mg"},{"bike_id":"20d08730-d04f-482a-9ed2-1d3e29b92784","system_id":"levelo_inurba_marseille","lat":43.32372,"lon":5.38911,"is_reserved":false,"is_disabled":false,"rental_uris":{"android":"levelo://app?vid=20d08730-d04f-482a-9ed2-1d3e29b92784","ios":"levelo://app?vid=20d08730-d04f-482a-9ed2-1d3e29b92784"},"vehicle_type_id":"4","last_reported":1740676148,"current_range_meters":14400,"station_id":"ce4bhqp2rcd13ifvqhog","pricing_plan_id":"cebpf4jnsgd1na2vs0mg"},{"bike_id":"f6003313-c6fa-42d7-b5bc-611f2014d793","system_id":"levelo_inurba_marseille","lat":43.27829,"lon":5.39218,"is_reserved":false,"is_disabled":false,"rental_uris":{"android":"levelo://app?vid=f6003313-c6fa-42d7-b5bc-611f2014d793","ios":"levelo://app?vid=f6003313-c6fa-42d7-b5bc-611f2014d793"},"vehicle_type_id":"4","last_reported":1740676148,"current_range_meters":14400,"station_id":"ce4bhjp2rcd13ifvqga0","pricing_plan_id":"cebpf4jnsgd1na2vs0mg"},{"bike_id":"d53fb70a-6708-4ff2-a2f4-4d1115ea53f1","system_id":"levelo_inurba_marseille","lat":43.29704,"lon":5.36604,"is_reserved":false,"is_disabled":false,"rental_uris":{"android":"levelo://app?vid=d53fb70a-6708-4ff2-a2f4-4d1115ea53f1","ios":"levelo://app?vid=d53fb70a-6708-4ff2-a2f4-4d1115ea53f1"},"vehicle_type_id":"4","last_reported":1740676148,"current_range_meters":14400,"station_id":"ce4bgn12rcd13ifvqbt0","pricing_plan_id":"cebpf4jnsgd1na2vs0mg"},{"bike_id":"5b28cd77-a409-482f-8702-f764eef9151e","system_id":"levelo_inurba_marseille","lat":43.25929,"lon":5.40904,"is_reserved":false,"is_disabled":true,"rental_uris":{"android":"levelo://app?vid=5b28cd77-a409-482f-8702-f764eef9151e","ios":"levelo://app?vid=5b28cd77-a409-482f-8702-f764eef9151e"},"vehicle_type_id":"4","last_reported":1740676148,"current_range_meters":14400,"station_id":"ce4bhm92rcd13ifvqglg","pricing_plan_id":"cebpf4jnsgd1na2vs0mg"},{"bike_id":"4faa25b2-6d20-4258-a63e-5adea7aec14e","system_id":"levelo_inurba_marseille","lat":43.28454,"lon":5.35897,"is_reserved":false,"is_disabled":true,"rental_uris":{"android":"levelo://app?vid=4faa25b2-6d20-4258-a63e-5adea7aec14e","ios":"levelo://app?vid=4faa25b2-6d20-4258-a63e-5adea7aec14e"},"vehicle_type_id":"4","last_reported":1740676148,"current_range_meters":14800,"station_id":"ce4bhah2rcd13ifvqei0","pricing_plan_id":"cebpf4jnsgd1na2vs0mg"},{"bike_id":"d4918d6a-5525-4be8-b0c4-7af64b54343d","system_id":"levelo_inurba_marseille","lat":43.24169,"lon":5.36402,"is_reserved":false,"is_disabled":false,"rental_uris":{"android":"levelo://app?vid=d4918d6a-5525-4be8-b0c4-7af64b54343d","ios":"levelo://app?vid=d4918d6a-5525-4be8-b0c4-7af64b54343d"},"vehicle_type_id":"4","last_reported":1740676148,"current_range_meters":14800,"station_id":"cpo36qri1sfpv3e86is0","pricing_plan_id":"cebpf4jnsgd1na2vs0mg"},{"bike_id":"10b6c0d0-a3ef-460e-ad30-22fe050ad6b8","system_id":"levelo_inurba_marseille","lat":43.28988,"lon":5.36633,"is_reserved":false,"is_disabled":false,"rental_uris":{"android":"levelo://app?vid=10b6c0d0-a3ef-460e-ad30-22fe050ad6b8","ios":"levelo://app?vid=10b6c0d0-a3ef-460e-ad30-22fe050ad6b8"},"vehicle_type_id":"4","last_reported":1740676148,"current_range_meters":14800,"station_id":"ce4bhap2rcd13ifvqek0","pricing_plan_id":"cebpf4jnsgd1na2vs0mg"},{"bike_id":"0f665076-3e0b-47a6-8189-e37583df5925","system_id":"levelo_inurba_marseille","lat":43.29251,"lon":5.37611,"is_reserved":false,"is_disabled":false,"rental_uris":{"android":"levelo://app?vid=0f665076-3e0b-47a6-8189-e37583df5925","ios":"levelo://app?vid=0f665076-3e0b-47a6-8189-e37583df5925"},"vehicle_type_id":"4","last_reported":1740676148,"current_range_meters":14800,"station_id":"ce4bgi12rcd13ifvqb80","pricing_plan_id":"cebpf4jnsgd1na2vs0mg"},{"bike_id":"31b39e04-7e56-4b4d-8262-2815b59cf4a3","system_id":"levelo_inurba_marseille","lat":43.24995,"lon":5.38925,"is_reserved":false,"is_disabled":false,"rental_uris":{"android":"levelo://app?vid=31b39e04-7e56-4b4d-8262-2815b59cf4a3","ios":"levelo://app?vid=31b39e04-7e56-4b4d-8262-2815b59cf4a3"},"vehicle_type_id":"4","last_reported":1740676148,"current_range_meters":12000,"station_id":"ce4bhgp2rcd13ifvqfd0","pricing_plan_id":"cebpf4jnsgd1na2vs0mg"},{"bike_id":"ffe554ba-eafb-4f14-8da1-1a15747a2162","system_id":"levelo_inurba_marseille","lat":43.31538,"lon":5.38034,"is_reserved":false,"is_disabled":false,"rental_uris":{"android":"levelo://app?vid=ffe554ba-eafb-4f14-8da1-1a15747a2162","ios":"levelo://app?vid=ffe554ba-eafb-4f14-8da1-1a15747a2162"},"vehicle_type_id":"4","last_reported":1740676148,"current_range_meters":14800,"station_id":"ce4bhsp2rcd13ifvqi50","pricing_plan_id":"cebpf4jnsgd1na2vs0mg"},{"bike_id":"6f08793c-0e13-4755-8250-eb14e46e9c0b","system_id":"levelo_inurba_marseille","lat":43.23185,"lon":5.39976,"is_reserved":false,"is_disabled":false,"rental_uris":{"android":"levelo://app?vid=6f08793c-0e13-4755-8250-eb14e46e9c0b","ios":"levelo://app?vid=6f08793c-0e13-4755-8250-eb14e46e9c0b"},"vehicle_type_id":"4","last_reported":1740676148,"current_range_meters":14800,"station_id":"ce4bhn12rcd13ifvqgqg","pricing_plan_id":"cebpf4jnsgd1na2vs0mg"},{"bike_id":"ef77bf7f-5b88-41c9-8d3b-c8c9c0447dd9","system_id":"levelo_inurba_marseille","lat":43.28072,"lon":5.3503,"is_reserved":false,"is_disabled":false,"rental_uris":{"android":"levelo://app?vid=ef77bf7f-5b88-41c9-8d3b-c8c9c0447dd9","ios":"levelo://app?vid=ef77bf7f-5b88-41c9-8d3b-c8c9c0447dd9"},"vehicle_type_id":"4","last_reported":1740676148,"current_range_meters":14800,"station_id":"","pricing_plan_id":"cebpf4jnsgd1na2vs0mg"},{"bike_id":"2b4b674d-5bc5-423b-aeeb-b4285d15078d","system_id":"levelo_inurba_marseille","lat":43.27999,"lon":5.40008,"is_reserved":false,"is_disabled":false,"rental_uris":{"android":"levelo://app?vid=2b4b674d-5bc5-423b-aeeb-b4285d15078d","ios":"levelo://app?vid=2b4b674d-5bc5-423b-aeeb-b4285d15078d"},"vehicle_type_id":"4","last_reported":1740676148,"current_range_meters":14800,"station_id":"ce4bho92rcd13ifvqh4g","pricing_plan_id":"cebpf4jnsgd1na2vs0mg"},{"bike_id":"737315e8-e42f-478d-8994-74c9331bd58d","system_id":"levelo_inurba_marseille","lat":43.30804,"lon":5.4352,"is_reserved":false,"is_disabled":false,"rental_uris":{"android":"levelo://app?vid=737315e8-e42f-478d-8994-74c9331bd58d","ios":"levelo://app?vid=737315e8-e42f-478d-8994-74c9331bd58d"},"vehicle_type_id":"4","last_reported":1740676148,"current_range_meters":15200,"station_id":"","pricing_plan_id":"cebpf4jnsgd1na2vs0mg"},{"bike_id":"019695ef-8c54-4c4f-a439-e56ed0555c70","system_id":"levelo_inurba_marseille","lat":43.29516,"lon":5.39393,"is_reserved":false,"is_disabled":false,"rental_uris":{"android":"levelo://app?vid=019695ef-8c54-4c4f-a439-e56ed0555c70","ios":"levelo://app?vid=019695ef-8c54-4c4f-a439-e56ed0555c70"},"vehicle_type_id":"4","last_reported":1740676148,"current_range_meters":15200,"station_id":"ce4bh292rcd13ifvqdf0","pricing_plan_id":"cebpf4jnsgd1na2vs0mg"},{"bike_id":"2b76132a-aa13-42a3-8355-59b9011ba2c7","system_id":"levelo_inurba_marseille","lat":43.2466,"lon":5.38166,"is_reserved":false,"is_disabled":false,"rental_uris":{"android":"levelo://app?vid=2b76132a-aa13-42a3-8355-59b9011ba2c7","ios":"levelo://app?vid=2b76132a-aa13-42a3-8355-59b9011ba2c7"},"vehicle_type_id":"4","last_reported":1740676148,"current_range_meters":15200,"station_id":"ce4bhih2rcd13ifvqfr0","pricing_plan_id":"cebpf4jnsgd1na2vs0mg"},{"bike_id":"87f4694a-7002-40c0-9a0e-2123fd36309b","system_id":"levelo_inurba_marseille","lat":43.29025,"lon":5.35621,"is_reserved":false,"is_disabled":false,"rental_uris":{"android":"levelo://app?vid=87f4694a-7002-40c0-9a0e-2123fd36309b","ios":"levelo://app?vid=87f4694a-7002-40c0-9a0e-2123fd36309b"},"vehicle_type_id":"4","last_reported":1740676148,"current_range_meters":15200,"station_id":"ce4bhb92rcd13ifvqen0","pricing_plan_id":"cebpf4jnsgd1na2vs0mg"},{"bike_id":"605f08bc-b344-41eb-b6bb-86f752625f37","system_id":"levelo_inurba_marseille","lat":43.28706,"lon":5.39994,"is_reserved":false,"is_disabled":false,"rental_uris":{"android":"levelo://app?vid=605f08bc-b344-41eb-b6bb-86f752625f37","ios":"levelo://app?vid=605f08bc-b344-41eb-b6bb-86f752625f37"},"vehicle_type_id":"4","last_reported":1740676148,"current_range_meters":16000,"station_id":"ce4bho92rcd13ifvqh3g","pricing_plan_id":"cebpf4jnsgd1na2vs0mg"},{"bike_id":"9aa0d9d2-b1d5-4bc5-982a-bfd3a90e078a","system_id":"levelo_inurba_marseille","lat":43.29302,"lon":5.37181,"is_reserved":false,"is_disabled":false,"rental_uris":{"android":"levelo://app?vid=9aa0d9d2-b1d5-4bc5-982a-bfd3a90e078a","ios":"levelo://app?vid=9aa0d9d2-b1d5-4bc5-982a-bfd3a90e078a"},"vehicle_type_id":"4","last_reported":1740676148,"current_range_meters":15200,"station_id":"ce4bgh92rcd13ifvqb40","pricing_plan_id":"cebpf4jnsgd1na2vs0mg"},{"bike_id":"7562303f-eb2b-41bb-be54-db23a576d5e8","system_id":"levelo_inurba_marseille","lat":43.28621,"lon":5.35106,"is_reserved":false,"is_disabled":false,"rental_uris":{"android":"levelo://app?vid=7562303f-eb2b-41bb-be54-db23a576d5e8","ios":"levelo://app?vid=7562303f-eb2b-41bb-be54-db23a576d5e8"},"vehicle_type_id":"4","last_reported":1740676148,"current_range_meters":16000,"station_id":"ce4bhch2rcd13ifvqeug","pricing_plan_id":"cebpf4jnsgd1na2vs0mg"},{"bike_id":"141c5b59-ea70-447f-bcd0-cfecb9569416","system_id":"levelo_inurba_marseille","lat":43.28263,"lon":5.35059,"is_reserved":false,"is_disabled":false,"rental_uris":{"android":"levelo://app?vid=141c5b59-ea70-447f-bcd0-cfecb9569416","ios":"levelo://app?vid=141c5b59-ea70-447f-bcd0-cfecb9569416"},"vehicle_type_id":"4","last_reported":1740676148,"current_range_meters":16000,"station_id":"ce4bhbp2rcd13ifvqerg","pricing_plan_id":"cebpf4jnsgd1na2vs0mg"},{"bike_id":"3f5e4c77-943b-4a46-b257-614bf13afec4","system_id":"levelo_inurba_marseille","lat":43.24169,"lon":5.36397,"is_reserved":false,"is_disabled":false,"rental_uris":{"android":"levelo://app?vid=3f5e4c77-943b-4a46-b257-614bf13afec4","ios":"levelo://app?vid=3f5e4c77-943b-4a46-b257-614bf13afec4"},"vehicle_type_id":"4","last_reported":1740676148,"current_range_meters":16000,"station_id":"cpo36qri1sfpv3e86is0","pricing_plan_id":"cebpf4jnsgd1na2vs0mg"},{"bike_id":"47830041-a23a-4ff3-a5ce-c5f2f45da76f","system_id":"levelo_inurba_marseille","lat":43.24544,"lon":5.39522,"is_reserved":false,"is_disabled":false,"rental_uris":{"android":"levelo://app?vid=47830041-a23a-4ff3-a5ce-c5f2f45da76f","ios":"levelo://app?vid=47830041-a23a-4ff3-a5ce-c5f2f45da76f"},"vehicle_type_id":"4","last_reported":1740676148,"current_range_meters":15200,"station_id":"ce4bhlp2rcd13ifvqgjg","pricing_plan_id":"cebpf4jnsgd1na2vs0mg"},{"bike_id":"43d6aa6f-20c7-4a1b-bcb8-31b660876567","system_id":"levelo_inurba_marseille","lat":43.26552,"lon":5.37289,"is_reserved":false,"is_disabled":false,"rental_uris":{"android":"levelo://app?vid=43d6aa6f-20c7-4a1b-bcb8-31b660876567","ios":"levelo://app?vid=43d6aa6f-20c7-4a1b-bcb8-31b660876567"},"vehicle_type_id":"4","last_reported":1740676148,"current_range_meters":16400,"station_id":"ce4bhg12rcd13ifvqf70","pricing_plan_id":"cebpf4jnsgd1na2vs0mg"},{"bike_id":"aa99bbd9-2fe8-4f1b-ac75-32448eba08f7","system_id":"levelo_inurba_marseille","lat":43.24823,"lon":5.37451,"is_reserved":false,"is_disabled":false,"rental_uris":{"android":"levelo://app?vid=aa99bbd9-2fe8-4f1b-ac75-32448eba08f7","ios":"levelo://app?vid=aa99bbd9-2fe8-4f1b-ac75-32448eba08f7"},"vehicle_type_id":"4","last_reported":1740676148,"current_range_meters":16400,"station_id":"ce4bhgh2rcd13ifvqfb0","pricing_plan_id":"cebpf4jnsgd1na2vs0mg"},{"bike_id":"63377059-7385-4331-906d-cc0f052276c7","system_id":"levelo_inurba_marseille","lat":43.2968,"lon":5.37277,"is_reserved":false,"is_disabled":false,"rental_uris":{"android":"levelo://app?vid=63377059-7385-4331-906d-cc0f052276c7","ios":"levelo://app?vid=63377059-7385-4331-906d-cc0f052276c7"},"vehicle_type_id":"4","last_reported":1740676148,"current_range_meters":14000,"station_id":"ce4bgk12rcd13ifvqbj0","pricing_plan_id":"cebpf4jnsgd1na2vs0mg"},{"bike_id":"22552190-1747-4bc4-810b-75fef106aacd","system_id":"levelo_inurba_marseille","lat":43.2842,"lon":5.34986,"is_reserved":false,"is_disabled":false,"rental_uris":{"android":"levelo://app?vid=22552190-1747-4bc4-810b-75fef106aacd","ios":"levelo://app?vid=22552190-1747-4bc4-810b-75fef106aacd"},"vehicle_type_id":"4","last_reported":1740676148,"current_range_meters":16400,"station_id":"ce4bhbh2rcd13ifvqepg","pricing_plan_id":"cebpf4jnsgd1na2vs0mg"},{"bike_id":"5c7be159-75b0-44be-ba5e-4b1c7af33465","system_id":"levelo_inurba_marseille","lat":43.30252,"lon":5.40072,"is_reserved":false,"is_disabled":false,"rental_uris":{"android":"levelo://app?vid=5c7be159-75b0-44be-ba5e-4b1c7af33465","ios":"levelo://app?vid=5c7be159-75b0-44be-ba5e-4b1c7af33465"},"vehicle_type_id":"4","last_reported":1740676148,"current_range_meters":14800,"station_id":"ce4bgvh2rcd13ifvqcs0","pricing_plan_id":"cebpf4jnsgd1na2vs0mg"},{"bike_id":"ca8a3681-e277-4173-9c51-40c7634a4408","system_id":"levelo_inurba_marseille","lat":43.312684,"lon":5.401705,"is_reserved":false,"is_disabled":false,"rental_uris":{"android":"levelo://app?vid=ca8a3681-e277-4173-9c51-40c7634a4408","ios":"levelo://app?vid=ca8a3681-e277-4173-9c51-40c7634a4408"},"vehicle_type_id":"4","last_reported":1740676148,"current_range_meters":16400,"station_id":"","pricing_plan_id":"cebpf4jnsgd1na2vs0mg"},{"bike_id":"59599844-f91a-4bc5-834a-41e4adbea6f7","system_id":"levelo_inurba_marseille","lat":43.301423,"lon":5.374259,"is_reserved":false,"is_disabled":false,"rental_uris":{"android":"levelo://app?vid=59599844-f91a-4bc5-834a-41e4adbea6f7","ios":"levelo://app?vid=59599844-f91a-4bc5-834a-41e4adbea6f7"},"vehicle_type_id":"4","last_reported":1740676148,"current_range_meters":16000,"station_id":"ce4bh112rcd13ifvqd90","pricing_plan_id":"cebpf4jnsgd1na2vs0mg"},{"bike_id":"c7b545f1-a1e4-4159-9c02-ff5f0f3c6fb7","system_id":"levelo_inurba_marseille","lat":43.27912,"lon":5.39591,"is_reserved":false,"is_disabled":false,"rental_uris":{"android":"levelo://app?vid=c7b545f1-a1e4-4159-9c02-ff5f0f3c6fb7","ios":"levelo://app?vid=c7b545f1-a1e4-4159-9c02-ff5f0f3c6fb7"},"vehicle_type_id":"4","last_reported":1740676148,"current_range_meters":16400,"station_id":"ce4bhf92rcd13ifvqf40","pricing_plan_id":"cebpf4jnsgd1na2vs0mg"},{"bike_id":"2fc11655-8f8e-48d7-b028-2f82ea523f3f","system_id":"levelo_inurba_marseille","lat":43.26203,"lon":5.37925,"is_reserved":false,"is_disabled":false,"rental_uris":{"android":"levelo://app?vid=2fc11655-8f8e-48d7-b028-2f82ea523f3f","ios":"levelo://app?vid=2fc11655-8f8e-48d7-b028-2f82ea523f3f"},"vehicle_type_id":"4","last_reported":1740676148,"current_range_meters":16800,"station_id":"ce4bhjp2rcd13ifvqg90","pricing_plan_id":"cebpf4jnsgd1na2vs0mg"},{"bike_id":"1aea0dde-a7bb-4730-8e2c-695419b49399","system_id":"levelo_inurba_marseille","lat":43.32356,"lon":5.389,"is_reserved":false,"is_disabled":false,"rental_uris":{"android":"levelo://app?vid=1aea0dde-a7bb-4730-8e2c-695419b49399","ios":"levelo://app?vid=1aea0dde-a7bb-4730-8e2c-695419b49399"},"vehicle_type_id":"4","last_reported":1740676148,"current_range_meters":17200,"station_id":"ce4bhqp2rcd13ifvqhog","pricing_plan_id":"cebpf4jnsgd1na2vs0mg"},{"bike_id":"5edc6d33-2846-4bfc-af96-c4e78f854258","system_id":"levelo_inurba_marseille","lat":43.28941,"lon":5.36407,"is_reserved":false,"is_disabled":false,"rental_uris":{"android":"levelo://app?vid=5edc6d33-2846-4bfc-af96-c4e78f854258","ios":"levelo://app?vid=5edc6d33-2846-4bfc-af96-c4e78f854258"},"vehicle_type_id":"4","last_reported":1740676148,"current_range_meters":16800,"station_id":"ce4bhc92rcd13ifvqetg","pricing_plan_id":"cebpf4jnsgd1na2vs0mg"},{"bike_id":"6d428432-8be2-47ad-b84d-a58bf7f395bd","system_id":"levelo_inurba_marseille","lat":43.28944,"lon":5.36391,"is_reserved":false,"is_disabled":false,"rental_uris":{"android":"levelo://app?vid=6d428432-8be2-47ad-b84d-a58bf7f395bd","ios":"levelo://app?vid=6d428432-8be2-47ad-b84d-a58bf7f395bd"},"vehicle_type_id":"4","last_reported":1740676148,"current_range_meters":16800,"station_id":"ce4bhc92rcd13ifvqetg","pricing_plan_id":"cebpf4jnsgd1na2vs0mg"},{"bike_id":"e1a8ee5b-3bd1-4e34-9d45-b3fba6bd326f","system_id":"levelo_inurba_marseille","lat":43.29711,"lon":5.36606,"is_reserved":false,"is_disabled":false,"rental_uris":{"android":"levelo://app?vid=e1a8ee5b-3bd1-4e34-9d45-b3fba6bd326f","ios":"levelo://app?vid=e1a8ee5b-3bd1-4e34-9d45-b3fba6bd326f"},"vehicle_type_id":"4","last_reported":1740676148,"current_range_meters":16800,"station_id":"ce4bgn12rcd13ifvqbt0","pricing_plan_id":"cebpf4jnsgd1na2vs0mg"},{"bike_id":"28037ae9-b14b-4671-a326-785cb75254ad","system_id":"levelo_inurba_marseille","lat":43.29519,"lon":5.39051,"is_reserved":false,"is_disabled":false,"rental_uris":{"android":"levelo://app?vid=28037ae9-b14b-4671-a326-785cb75254ad","ios":"levelo://app?vid=28037ae9-b14b-4671-a326-785cb75254ad"},"vehicle_type_id":"4","last_reported":1740676148,"current_range_meters":16400,"station_id":"ce4bh3p2rcd13ifvqdp0","pricing_plan_id":"cebpf4jnsgd1na2vs0mg"},{"bike_id":"60fddeac-c195-4726-ae47-739a46e3ec5d","system_id":"levelo_inurba_marseille","lat":43.29184,"lon":5.35793,"is_reserved":false,"is_disabled":false,"rental_uris":{"android":"levelo://app?vid=60fddeac-c195-4726-ae47-739a46e3ec5d","ios":"levelo://app?vid=60fddeac-c195-4726-ae47-739a46e3ec5d"},"vehicle_type_id":"4","last_reported":1740676148,"current_range_meters":18800,"station_id":"ce4bhb12rcd13ifvqel0","pricing_plan_id":"cebpf4jnsgd1na2vs0mg"},{"bike_id":"a9757b2e-0188-4e2f-9062-079c74f7d4d4","system_id":"levelo_inurba_marseille","lat":43.255812,"lon":5.382462,"is_reserved":false,"is_disabled":false,"rental_uris":{"android":"levelo://app?vid=a9757b2e-0188-4e2f-9062-079c74f7d4d4","ios":"levelo://app?vid=a9757b2e-0188-4e2f-9062-079c74f7d4d4"},"vehicle_type_id":"4","last_reported":1740676148,"current_range_meters":16800,"station_id":"ce4bhih2rcd13ifvqfs0","pricing_plan_id":"cebpf4jnsgd1na2vs0mg"},{"bike_id":"6c03af07-43d6-40b5-b0cf-7c33497afc57","system_id":"levelo_inurba_marseille","lat":43.28626,"lon":5.35084,"is_reserved":false,"is_disabled":false,"rental_uris":{"android":"levelo://app?vid=6c03af07-43d6-40b5-b0cf-7c33497afc57","ios":"levelo://app?vid=6c03af07-43d6-40b5-b0cf-7c33497afc57"},"vehicle_type_id":"4","last_reported":1740676148,"current_range_meters":16800,"station_id":"ce4bhch2rcd13ifvqeug","pricing_plan_id":"cebpf4jnsgd1na2vs0mg"},{"bike_id":"39d5d8ff-30a3-4d04-91b5-faf7a6bb6613","system_id":"levelo_inurba_marseille","lat":43.25583,"lon":5.38237,"is_reserved":false,"is_disabled":false,"rental_uris":{"android":"levelo://app?vid=39d5d8ff-30a3-4d04-91b5-faf7a6bb6613","ios":"levelo://app?vid=39d5d8ff-30a3-4d04-91b5-faf7a6bb6613"},"vehicle_type_id":"4","last_reported":1740676148,"current_range_meters":17200,"station_id":"ce4bhih2rcd13ifvqfs0","pricing_plan_id":"cebpf4jnsgd1na2vs0mg"},{"bike_id":"ca115a20-a8ee-40db-a867-031500bdc26a","system_id":"levelo_inurba_marseille","lat":43.30794,"lon":5.38162,"is_reserved":false,"is_disabled":false,"rental_uris":{"android":"levelo://app?vid=ca115a20-a8ee-40db-a867-031500bdc26a","ios":"levelo://app?vid=ca115a20-a8ee-40db-a867-031500bdc26a"},"vehicle_type_id":"4","last_reported":1740676148,"current_range_meters":16800,"station_id":"ce4bgt12rcd13ifvqce0","pricing_plan_id":"cebpf4jnsgd1na2vs0mg"},{"bike_id":"24476cb6-9c12-4997-ab8d-8cfe9d8b4bb4","system_id":"levelo_inurba_marseille","lat":43.28603,"lon":5.35129,"is_reserved":false,"is_disabled":false,"rental_uris":{"android":"levelo://app?vid=24476cb6-9c12-4997-ab8d-8cfe9d8b4bb4","ios":"levelo://app?vid=24476cb6-9c12-4997-ab8d-8cfe9d8b4bb4"},"vehicle_type_id":"4","last_reported":1740676148,"current_range_meters":17200,"station_id":"ce4bhch2rcd13ifvqeug","pricing_plan_id":"cebpf4jnsgd1na2vs0mg"},{"bike_id":"b6ab9a61-8985-4d83-8f2e-45b4984d4c17","system_id":"levelo_inurba_marseille","lat":43.29278,"lon":5.37627,"is_reserved":false,"is_disabled":false,"rental_uris":{"android":"levelo://app?vid=b6ab9a61-8985-4d83-8f2e-45b4984d4c17","ios":"levelo://app?vid=b6ab9a61-8985-4d83-8f2e-45b4984d4c17"},"vehicle_type_id":"4","last_reported":1740676148,"current_range_meters":17200,"station_id":"ce4bgi12rcd13ifvqb80","pricing_plan_id":"cebpf4jnsgd1na2vs0mg"},{"bike_id":"367622df-8cff-4183-9f9a-9fb9cb463dab","system_id":"levelo_inurba_marseille","lat":43.30324,"lon":5.40441,"is_reserved":false,"is_disabled":false,"rental_uris":{"android":"levelo://app?vid=367622df-8cff-4183-9f9a-9fb9cb463dab","ios":"levelo://app?vid=367622df-8cff-4183-9f9a-9fb9cb463dab"},"vehicle_type_id":"4","last_reported":1740676148,"current_range_meters":17200,"station_id":"ce4bh012rcd13ifvqd10","pricing_plan_id":"cebpf4jnsgd1na2vs0mg"},{"bike_id":"8ab47b9f-1790-4938-a51e-fe10ee35f16b","system_id":"levelo_inurba_marseille","lat":43.27699,"lon":5.38378,"is_reserved":false,"is_disabled":false,"rental_uris":{"android":"levelo://app?vid=8ab47b9f-1790-4938-a51e-fe10ee35f16b","ios":"levelo://app?vid=8ab47b9f-1790-4938-a51e-fe10ee35f16b"},"vehicle_type_id":"4","last_reported":1740676148,"current_range_meters":17200,"station_id":"ce4bhh92rcd13ifvqfi0","pricing_plan_id":"cebpf4jnsgd1na2vs0mg"},{"bike_id":"4991beba-5d35-4f13-935f-55ac03234e89","system_id":"levelo_inurba_marseille","lat":43.2969,"lon":5.36601,"is_reserved":false,"is_disabled":false,"rental_uris":{"android":"levelo://app?vid=4991beba-5d35-4f13-935f-55ac03234e89","ios":"levelo://app?vid=4991beba-5d35-4f13-935f-55ac03234e89"},"vehicle_type_id":"4","last_reported":1740676148,"current_range_meters":17600,"station_id":"ce4bgn12rcd13ifvqbt0","pricing_plan_id":"cebpf4jnsgd1na2vs0mg"},{"bike_id":"42613b90-f96e-41c5-8864-90dd1b35a09d","system_id":"levelo_inurba_marseille","lat":43.32355,"lon":5.36757,"is_reserved":false,"is_disabled":false,"rental_uris":{"android":"levelo://app?vid=42613b90-f96e-41c5-8864-90dd1b35a09d","ios":"levelo://app?vid=42613b90-f96e-41c5-8864-90dd1b35a09d"},"vehicle_type_id":"4","last_reported":1740676148,"current_range_meters":17600,"station_id":"ce4bhsh2rcd13ifvqi2g","pricing_plan_id":"cebpf4jnsgd1na2vs0mg"},{"bike_id":"cb3707bf-5ae0-4061-b6c8-982588f84b39","system_id":"levelo_inurba_marseille","lat":43.27409,"lon":5.39402,"is_reserved":false,"is_disabled":true,"rental_uris":{"android":"levelo://app?vid=cb3707bf-5ae0-4061-b6c8-982588f84b39","ios":"levelo://app?vid=cb3707bf-5ae0-4061-b6c8-982588f84b39"},"vehicle_type_id":"4","last_reported":1740676148,"current_range_meters":17600,"station_id":"ce4bhdp2rcd13ifvqf20","pricing_plan_id":"cebpf4jnsgd1na2vs0mg"},{"bike_id":"014d6cf0-b028-4e81-9bbc-d2c11d154817","system_id":"levelo_inurba_marseille","lat":43.30901,"lon":5.36837,"is_reserved":false,"is_disabled":false,"rental_uris":{"android":"levelo://app?vid=014d6cf0-b028-4e81-9bbc-d2c11d154817","ios":"levelo://app?vid=014d6cf0-b028-4e81-9bbc-d2c11d154817"},"vehicle_type_id":"4","last_reported":1740676148,"current_range_meters":17200,"station_id":"ce4bgn92rcd13ifvqbvg","pricing_plan_id":"cebpf4jnsgd1na2vs0mg"},{"bike_id":"3e646d41-15e4-494e-a262-baa98ada70f5","system_id":"levelo_inurba_marseille","lat":43.26647,"lon":5.394595,"is_reserved":false,"is_disabled":false,"rental_uris":{"android":"levelo://app?vid=3e646d41-15e4-494e-a262-baa98ada70f5","ios":"levelo://app?vid=3e646d41-15e4-494e-a262-baa98ada70f5"},"vehicle_type_id":"4","last_reported":1740676148,"current_range_meters":17600,"station_id":"ce501612rcd8frsf0b60","pricing_plan_id":"cebpf4jnsgd1na2vs0mg"},{"bike_id":"828b9298-e4b1-474f-bae7-384903bfa4f0","system_id":"levelo_inurba_marseille","lat":43.258641,"lon":5.399,"is_reserved":false,"is_disabled":false,"rental_uris":{"android":"levelo://app?vid=828b9298-e4b1-474f-bae7-384903bfa4f0","ios":"levelo://app?vid=828b9298-e4b1-474f-bae7-384903bfa4f0"},"vehicle_type_id":"4","last_reported":1740676148,"current_range_meters":17600,"station_id":"ce4bhi12rcd13ifvqfq0","pricing_plan_id":"cebpf4jnsgd1na2vs0mg"},{"bike_id":"6235cd94-ddf7-4f14-8b2e-13a7acc4bb6f","system_id":"levelo_inurba_marseille","lat":43.30135,"lon":5.38774,"is_reserved":false,"is_disabled":false,"rental_uris":{"android":"levelo://app?vid=6235cd94-ddf7-4f14-8b2e-13a7acc4bb6f","ios":"levelo://app?vid=6235cd94-ddf7-4f14-8b2e-13a7acc4bb6f"},"vehicle_type_id":"4","last_reported":1740676148,"current_range_meters":17600,"station_id":"ce4bghh2rcd13ifvqb60","pricing_plan_id":"cebpf4jnsgd1na2vs0mg"},{"bike_id":"cc8e411a-328c-4e05-b5de-788c4281ee6f","system_id":"levelo_inurba_marseille","lat":43.30187,"lon":5.39877,"is_reserved":false,"is_disabled":false,"rental_uris":{"android":"levelo://app?vid=cc8e411a-328c-4e05-b5de-788c4281ee6f","ios":"levelo://app?vid=cc8e411a-328c-4e05-b5de-788c4281ee6f"},"vehicle_type_id":"4","last_reported":1740676148,"current_range_meters":18800,"station_id":"ce4bh0h2rcd13ifvqd40","pricing_plan_id":"cebpf4jnsgd1na2vs0mg"},{"bike_id":"3a7a2ed4-036e-4c00-869d-d39cf4f343a3","system_id":"levelo_inurba_marseille","lat":43.29003,"lon":5.35615,"is_reserved":false,"is_disabled":false,"rental_uris":{"android":"levelo://app?vid=3a7a2ed4-036e-4c00-869d-d39cf4f343a3","ios":"levelo://app?vid=3a7a2ed4-036e-4c00-869d-d39cf4f343a3"},"vehicle_type_id":"4","last_reported":1740676148,"current_range_meters":18000,"station_id":"ce4bhb92rcd13ifvqen0","pricing_plan_id":"cebpf4jnsgd1na2vs0mg"},{"bike_id":"85d22fb2-beca-412c-88c7-3067c93df546","system_id":"levelo_inurba_marseille","lat":43.28271,"lon":5.35074,"is_reserved":false,"is_disabled":false,"rental_uris":{"android":"levelo://app?vid=85d22fb2-beca-412c-88c7-3067c93df546","ios":"levelo://app?vid=85d22fb2-beca-412c-88c7-3067c93df546"},"vehicle_type_id":"4","last_reported":1740676148,"current_range_meters":16800,"station_id":"ce4bhbp2rcd13ifvqerg","pricing_plan_id":"cebpf4jnsgd1na2vs0mg"},{"bike_id":"1ec95ae8-47b1-46be-ab6f-633627e7d180","system_id":"levelo_inurba_marseille","lat":43.25083,"lon":5.39525,"is_reserved":false,"is_disabled":false,"rental_uris":{"android":"levelo://app?vid=1ec95ae8-47b1-46be-ab6f-633627e7d180","ios":"levelo://app?vid=1ec95ae8-47b1-46be-ab6f-633627e7d180"},"vehicle_type_id":"4","last_reported":1740676148,"current_range_meters":18000,"station_id":"ce4bhm12rcd13ifvqgkg","pricing_plan_id":"cebpf4jnsgd1na2vs0mg"},{"bike_id":"7bcb50b9-2864-42f1-8bb1-e4b001469ac6","system_id":"levelo_inurba_marseille","lat":43.25586,"lon":5.38239,"is_reserved":false,"is_disabled":false,"rental_uris":{"android":"levelo://app?vid=7bcb50b9-2864-42f1-8bb1-e4b001469ac6","ios":"levelo://app?vid=7bcb50b9-2864-42f1-8bb1-e4b001469ac6"},"vehicle_type_id":"4","last_reported":1740676148,"current_range_meters":18000,"station_id":"ce4bhih2rcd13ifvqfs0","pricing_plan_id":"cebpf4jnsgd1na2vs0mg"},{"bike_id":"51aa4d20-d640-43ec-8b74-f94b7901c2b9","system_id":"levelo_inurba_marseille","lat":43.28449,"lon":5.35881,"is_reserved":false,"is_disabled":false,"rental_uris":{"android":"levelo://app?vid=51aa4d20-d640-43ec-8b74-f94b7901c2b9","ios":"levelo://app?vid=51aa4d20-d640-43ec-8b74-f94b7901c2b9"},"vehicle_type_id":"4","last_reported":1740676148,"current_range_meters":18000,"station_id":"ce4bhah2rcd13ifvqei0","pricing_plan_id":"cebpf4jnsgd1na2vs0mg"},{"bike_id":"349c2ccc-46a2-4ed2-9405-4a984a2e7d7e","system_id":"levelo_inurba_marseille","lat":43.29908,"lon":5.38134,"is_reserved":false,"is_disabled":false,"rental_uris":{"android":"levelo://app?vid=349c2ccc-46a2-4ed2-9405-4a984a2e7d7e","ios":"levelo://app?vid=349c2ccc-46a2-4ed2-9405-4a984a2e7d7e"},"vehicle_type_id":"4","last_reported":1740676148,"current_range_meters":18000,"station_id":"ce4bgj12rcd13ifvqbc0","pricing_plan_id":"cebpf4jnsgd1na2vs0mg"},{"bike_id":"364b209e-752e-45ea-b26c-06b2552c1833","system_id":"levelo_inurba_marseille","lat":43.23192,"lon":5.35545,"is_reserved":false,"is_disabled":false,"rental_uris":{"android":"levelo://app?vid=364b209e-752e-45ea-b26c-06b2552c1833","ios":"levelo://app?vid=364b209e-752e-45ea-b26c-06b2552c1833"},"vehicle_type_id":"4","last_reported":1740676148,"current_range_meters":18000,"station_id":"ce4bhu92rcd13ifvqi70","pricing_plan_id":"cebpf4jnsgd1na2vs0mg"},{"bike_id":"ab16eb01-a151-4998-92ed-734e6fe3fbac","system_id":"levelo_inurba_marseille","lat":43.29781,"lon":5.39348,"is_reserved":false,"is_disabled":false,"rental_uris":{"android":"levelo://app?vid=ab16eb01-a151-4998-92ed-734e6fe3fbac","ios":"levelo://app?vid=ab16eb01-a151-4998-92ed-734e6fe3fbac"},"vehicle_type_id":"4","last_reported":1740676148,"current_range_meters":18000,"station_id":"chh1huq6cuj3fo74tm60","pricing_plan_id":"cebpf4jnsgd1na2vs0mg"},{"bike_id":"d2a764d3-d585-4662-9261-679df0948efe","system_id":"levelo_inurba_marseille","lat":43.3095,"lon":5.39037,"is_reserved":false,"is_disabled":false,"rental_uris":{"android":"levelo://app?vid=d2a764d3-d585-4662-9261-679df0948efe","ios":"levelo://app?vid=d2a764d3-d585-4662-9261-679df0948efe"},"vehicle_type_id":"4","last_reported":1740676148,"current_range_meters":18000,"station_id":"ce4bgup2rcd13ifvqco0","pricing_plan_id":"cebpf4jnsgd1na2vs0mg"},{"bike_id":"480f3a54-f773-4d18-93d1-f8afa7b0f2dc","system_id":"levelo_inurba_marseille","lat":43.23191,"lon":5.35544,"is_reserved":false,"is_disabled":false,"rental_uris":{"android":"levelo://app?vid=480f3a54-f773-4d18-93d1-f8afa7b0f2dc","ios":"levelo://app?vid=480f3a54-f773-4d18-93d1-f8afa7b0f2dc"},"vehicle_type_id":"4","last_reported":1740676148,"current_range_meters":18800,"station_id":"ce4bhu92rcd13ifvqi70","pricing_plan_id":"cebpf4jnsgd1na2vs0mg"},{"bike_id":"09a08648-2d6f-4bd8-8ba2-f195a36f435c","system_id":"levelo_inurba_marseille","lat":43.29988,"lon":5.37434,"is_reserved":false,"is_disabled":false,"rental_uris":{"android":"levelo://app?vid=09a08648-2d6f-4bd8-8ba2-f195a36f435c","ios":"levelo://app?vid=09a08648-2d6f-4bd8-8ba2-f195a36f435c"},