{"last_updated":1747980933,"ttl":60,"version":"2.2","data":{"bikes":[{"bike_id":"9923a36f-ade4-4d63-b46a-e9964f737c33","system_id":"levelo_inurba_marseille","lat":43.29596,"lon":5.38099,"is_reserved":false,"is_disabled":false,"rental_uris":{"android":"levelo://app?vid=9923a36f-ade4-4d63-b46a-e9964f737c33","ios":"levelo://app?vid=9923a36f-ade4-4d63-b46a-e9964f737c33"},"vehicle_type_id":"4","last_reported":1747980933,"current_range_meters":2800,"station_id":"ce4bgl12rcd13ifvqbo0","pricing_plan_id":"cebpf4jnsgd1na2vs0mg"},{"bike_id":"47bcc929-dd88-4daf-a0f7-f02612d3e853","system_id":"levelo_inurba_marseille","lat":43.31154,"lon":5.38712,"is_reserved":false,"is_disabled":false,"rental_uris":{"android":"levelo://app?vid=47bcc929-dd88-4daf-a0f7-f02612d3e853","ios":"levelo://app?vid=47bcc929-dd88-4daf-a0f7-f02612d3e853"},"vehicle_type_id":"4","last_reported":1747980933,"current_range_meters":2800,"station_id":"ce4bgv12rcd13ifvqcp0","pricing_plan_id":"cebpf4jnsgd1na2vs0mg"},{"bike_id":"61d8eb40-26a9-45b4-8064-ae9b3d267b43","system_id":"levelo_inurba_marseille","lat":43.27313,"lon":5.39115,"is_reserved":false,"is_disabled":false,"rental_uris":{"android":"levelo://app?vid=61d8eb40-26a9-45b4-8064-ae9b3d267b43","ios":"levelo://app?vid=61d8eb40-26a9-45b4-8064-ae9b3d267b43"},"vehicle_type_id":"4","last_reported":1747980933,"current_range_meters":3200,"station_id":"ce4bhgp2rcd13ifvqfe0","pricing_plan_id":"cebpf4jnsgd1na2vs0mg"},{"bike_id":"35b62aa6-a570-48d8-8fff-f4a2c0f14560","system_id":"levelo_inurba_marseille","lat":43.22932,"lon":5.35383,"is_reserved":false,"is_disabled":false,"rental_uris":{"android":"levelo://app?vid=35b62aa6-a570-48d8-8fff-f4a2c0f14560","ios":"levelo://app?vid=35b62aa6-a570-48d8-8fff-f4a2c0f14560"},"vehicle_type_id":"4","last_reported":1747980933,"current_range_meters":3600,"station_id":"cpo3532slgdg3j2ikp40","pricing_plan_id":"cebpf4jnsgd1na2vs0mg"},{"bike_id":"c28a6516-7465-4824-9f06-d954405482e7","system_id":"levelo_inurba_marseille","lat":43.26922,"lon":5.3892,"is_reserved":false,"is_disabled":false,"rental_uris":{"android":"levelo://app?vid=c28a6516-7465-4824-9f06-d954405482e7","ios":"levelo://app?vid=c28a6516-7465-4824-9f06-d954405482e7"},"vehicle_type_id":"4","last_reported":1747980933,"current_range_meters":3600,"station_id":"ce4bhhh2rcd13ifvqfl0","pricing_plan_id":"cebpf4jnsgd1na2vs0mg"},{"bike_id":"b2d1f41d-36e8-41aa-bb44-6f0169a18dcf","system_id":"levelo_inurba_marseille","lat":43.24808,"lon":5.3746,"is_reserved":false,"is_disabled":false,"rental_uris":{"android":"levelo://app?vid=b2d1f41d-36e8-41aa-bb44-6f0169a18dcf","ios":"levelo://app?vid=b2d1f41d-36e8-41aa-bb44-6f0169a18dcf"},"vehicle_type_id":"4","last_reported":1747980933,"current_range_meters":3600,"station_id":"ce4bhgh2rcd13ifvqfb0","pricing_plan_id":"cebpf4jnsgd1na2vs0mg"},{"bike_id":"4e8caf75-7657-4507-b4b0-142786a9448d","system_id":"levelo_inurba_marseille","lat":43.31881,"lon":5.40732,"is_reserved":false,"is_disabled":false,"rental_uris":{"android":"levelo://app?vid=4e8caf75-7657-4507-b4b0-142786a9448d","ios":"levelo://app?vid=4e8caf75-7657-4507-b4b0-142786a9448d"},"vehicle_type_id":"4","last_reported":1747980933,"current_range_meters":4000,"station_id":"ce4bhq12rcd13ifvqhig","pricing_plan_id":"cebpf4jnsgd1na2vs0mg"},{"bike_id":"4ce0010a-10e2-4d4a-8e62-47336a3c317e","system_id":"levelo_inurba_marseille","lat":43.30558,"lon":5.39015,"is_reserved":false,"is_disabled":false,"rental_uris":{"android":"levelo://app?vid=4ce0010a-10e2-4d4a-8e62-47336a3c317e","ios":"levelo://app?vid=4ce0010a-10e2-4d4a-8e62-47336a3c317e"},"vehicle_type_id":"4","last_reported":1747980933,"current_range_meters":4400,"station_id":"","pricing_plan_id":"cebpf4jnsgd1na2vs0mg"},{"bike_id":"8533a962-286c-4f1d-b630-19ba08858a33","system_id":"levelo_inurba_marseille","lat":43.29269,"lon":5.40117,"is_reserved":false,"is_disabled":false,"rental_uris":{"android":"levelo://app?vid=8533a962-286c-4f1d-b630-19ba08858a33","ios":"levelo://app?vid=8533a962-286c-4f1d-b630-19ba08858a33"},"vehicle_type_id":"4","last_reported":1747980933,"current_range_meters":4800,"station_id":"ce4bh312rcd13ifvqdk0","pricing_plan_id":"cebpf4jnsgd1na2vs0mg"},{"bike_id":"490cfea9-fbaf-4353-81f0-ee1052d69c71","system_id":"levelo_inurba_marseille","lat":43.25491,"lon":5.37656,"is_reserved":false,"is_disabled":false,"rental_uris":{"android":"levelo://app?vid=490cfea9-fbaf-4353-81f0-ee1052d69c71","ios":"levelo://app?vid=490cfea9-fbaf-4353-81f0-ee1052d69c71"},"vehicle_type_id":"4","last_reported":1747980933,"current_range_meters":4800,"station_id":"ce4bhh12rcd13ifvqff0","pricing_plan_id":"cebpf4jnsgd1na2vs0mg"},{"bike_id":"7f374a0c-9ab4-412c-a8dd-1f59fe7a5317","system_id":"levelo_inurba_marseille","lat":43.25577,"lon":5.38234,"is_reserved":false,"is_disabled":false,"rental_uris":{"android":"levelo://app?vid=7f374a0c-9ab4-412c-a8dd-1f59fe7a5317","ios":"levelo://app?vid=7f374a0c-9ab4-412c-a8dd-1f59fe7a5317"},"vehicle_type_id":"4","last_reported":1747980933,"current_range_meters":4800,"station_id":"ce4bhih2rcd13ifvqfs0","pricing_plan_id":"cebpf4jnsgd1na2vs0mg"},{"bike_id":"1de35bce-a5ec-4f14-bcfc-48928d8e7b59","system_id":"levelo_inurba_marseille","lat":43.29036,"lon":5.3996,"is_reserved":false,"is_disabled":false,"rental_uris":{"android":"levelo://app?vid=1de35bce-a5ec-4f14-bcfc-48928d8e7b59","ios":"levelo://app?vid=1de35bce-a5ec-4f14-bcfc-48928d8e7b59"},"vehicle_type_id":"4","last_reported":1747980933,"current_range_meters":5600,"station_id":"ce4bh392rcd13ifvqdm0","pricing_plan_id":"cebpf4jnsgd1na2vs0mg"},{"bike_id":"d5a1dc7e-b461-4f5d-832d-faaca881d5a3","system_id":"levelo_inurba_marseille","lat":43.27053,"lon":5.4027,"is_reserved":false,"is_disabled":false,"rental_uris":{"android":"levelo://app?vid=d5a1dc7e-b461-4f5d-832d-faaca881d5a3","ios":"levelo://app?vid=d5a1dc7e-b461-4f5d-832d-faaca881d5a3"},"vehicle_type_id":"4","last_reported":1747980933,"current_range_meters":5600,"station_id":"ce4bhk92rcd13ifvqgc0","pricing_plan_id":"cebpf4jnsgd1na2vs0mg"},{"bike_id":"86e4a14e-e5f9-4ad9-a7d4-fbd14a9d53cc","system_id":"levelo_inurba_marseille","lat":43.26562,"lon":5.39031,"is_reserved":false,"is_disabled":false,"rental_uris":{"android":"levelo://app?vid=86e4a14e-e5f9-4ad9-a7d4-fbd14a9d53cc","ios":"levelo://app?vid=86e4a14e-e5f9-4ad9-a7d4-fbd14a9d53cc"},"vehicle_type_id":"4","last_reported":1747980933,"current_range_meters":5600,"station_id":"ce4bhe12rcd13ifvqf30","pricing_plan_id":"cebpf4jnsgd1na2vs0mg"},{"bike_id":"81e6d09b-47aa-494c-ae88-d9068255f922","system_id":"levelo_inurba_marseille","lat":43.30509,"lon":5.36719,"is_reserved":false,"is_disabled":false,"rental_uris":{"android":"levelo://app?vid=81e6d09b-47aa-494c-ae88-d9068255f922","ios":"levelo://app?vid=81e6d09b-47aa-494c-ae88-d9068255f922"},"vehicle_type_id":"4","last_reported":1747980933,"current_range_meters":6000,"station_id":"ce4bgrp2rcd13ifvqc9g","pricing_plan_id":"cebpf4jnsgd1na2vs0mg"},{"bike_id":"3fe3d6c4-138a-47df-b6b4-e6f19e8f7d46","system_id":"levelo_inurba_marseille","lat":43.21404,"lon":5.34125,"is_reserved":false,"is_disabled":false,"rental_uris":{"android":"levelo://app?vid=3fe3d6c4-138a-47df-b6b4-e6f19e8f7d46","ios":"levelo://app?vid=3fe3d6c4-138a-47df-b6b4-e6f19e8f7d46"},"vehicle_type_id":"4","last_reported":1747980933,"current_range_meters":6000,"station_id":"","pricing_plan_id":"cebpf4jnsgd1na2vs0mg"},{"bike_id":"6dc51f05-67d8-484d-b665-58ce95048be0","system_id":"levelo_inurba_marseille","lat":43.3053,"lon":5.36697,"is_reserved":false,"is_disabled":false,"rental_uris":{"android":"levelo://app?vid=6dc51f05-67d8-484d-b665-58ce95048be0","ios":"levelo://app?vid=6dc51f05-67d8-484d-b665-58ce95048be0"},"vehicle_type_id":"4","last_reported":1747980933,"current_range_meters":6000,"station_id":"ce4bgrp2rcd13ifvqc9g","pricing_plan_id":"cebpf4jnsgd1na2vs0mg"},{"bike_id":"c3c7ae58-40dc-49fe-91c8-045c830c98b8","system_id":"levelo_inurba_marseille","lat":43.31769,"lon":5.44939,"is_reserved":false,"is_disabled":false,"rental_uris":{"android":"levelo://app?vid=c3c7ae58-40dc-49fe-91c8-045c830c98b8","ios":"levelo://app?vid=c3c7ae58-40dc-49fe-91c8-045c830c98b8"},"vehicle_type_id":"4","last_reported":1747980933,"current_range_meters":6400,"station_id":"","pricing_plan_id":"cebpf4jnsgd1na2vs0mg"},{"bike_id":"ad4d8099-03a6-43ca-966f-189fb83ff678","system_id":"levelo_inurba_marseille","lat":43.3127,"lon":5.37376,"is_reserved":false,"is_disabled":false,"rental_uris":{"android":"levelo://app?vid=ad4d8099-03a6-43ca-966f-189fb83ff678","ios":"levelo://app?vid=ad4d8099-03a6-43ca-966f-189fb83ff678"},"vehicle_type_id":"4","last_reported":1747980933,"current_range_meters":6400,"station_id":"","pricing_plan_id":"cebpf4jnsgd1na2vs0mg"},{"bike_id":"f9fb40c0-1fcd-48cb-8e26-3f2dc0fb2451","system_id":"levelo_inurba_marseille","lat":43.33751,"lon":5.37509,"is_reserved":false,"is_disabled":false,"rental_uris":{"android":"levelo://app?vid=f9fb40c0-1fcd-48cb-8e26-3f2dc0fb2451","ios":"levelo://app?vid=f9fb40c0-1fcd-48cb-8e26-3f2dc0fb2451"},"vehicle_type_id":"4","last_reported":1747980933,"current_range_meters":6400,"station_id":"","pricing_plan_id":"cebpf4jnsgd1na2vs0mg"},{"bike_id":"3944f00c-e9fc-4706-a38a-ade0f43ef779","system_id":"levelo_inurba_marseille","lat":43.25138,"lon":5.4032,"is_reserved":false,"is_disabled":false,"rental_uris":{"android":"levelo://app?vid=3944f00c-e9fc-4706-a38a-ade0f43ef779","ios":"levelo://app?vid=3944f00c-e9fc-4706-a38a-ade0f43ef779"},"vehicle_type_id":"4","last_reported":1747980933,"current_range_meters":6400,"station_id":"ce4bhlh2rcd13ifvqgig","pricing_plan_id":"cebpf4jnsgd1na2vs0mg"},{"bike_id":"b99e8633-de01-4259-88d4-efb2ee19f3ed","system_id":"levelo_inurba_marseille","lat":43.240658,"lon":5.377629,"is_reserved":false,"is_disabled":false,"rental_uris":{"android":"levelo://app?vid=b99e8633-de01-4259-88d4-efb2ee19f3ed","ios":"levelo://app?vid=b99e8633-de01-4259-88d4-efb2ee19f3ed"},"vehicle_type_id":"4","last_reported":1747980933,"current_range_meters":6800,"station_id":"ce4bhnp2rcd13ifvqgvg","pricing_plan_id":"cebpf4jnsgd1na2vs0mg"},{"bike_id":"b91980aa-60ff-467c-bd75-7d53cde9d475","system_id":"levelo_inurba_marseille","lat":43.25123,"lon":5.40345,"is_reserved":false,"is_disabled":false,"rental_uris":{"android":"levelo://app?vid=b91980aa-60ff-467c-bd75-7d53cde9d475","ios":"levelo://app?vid=b91980aa-60ff-467c-bd75-7d53cde9d475"},"vehicle_type_id":"4","last_reported":1747980933,"current_range_meters":6800,"station_id":"ce4bhlh2rcd13ifvqgig","pricing_plan_id":"cebpf4jnsgd1na2vs0mg"},{"bike_id":"cd2b9d97-3676-4c83-8e3b-aa4857457d9a","system_id":"levelo_inurba_marseille","lat":43.31498,"lon":5.37037,"is_reserved":false,"is_disabled":false,"rental_uris":{"android":"levelo://app?vid=cd2b9d97-3676-4c83-8e3b-aa4857457d9a","ios":"levelo://app?vid=cd2b9d97-3676-4c83-8e3b-aa4857457d9a"},"vehicle_type_id":"4","last_reported":1747980933,"current_range_meters":6800,"station_id":"","pricing_plan_id":"cebpf4jnsgd1na2vs0mg"},{"bike_id":"dd190780-4074-4c96-be71-3da41fe9e38d","system_id":"levelo_inurba_marseille","lat":43.2511,"lon":5.40324,"is_reserved":false,"is_disabled":false,"rental_uris":{"android":"levelo://app?vid=dd190780-4074-4c96-be71-3da41fe9e38d","ios":"levelo://app?vid=dd190780-4074-4c96-be71-3da41fe9e38d"},"vehicle_type_id":"4","last_reported":1747980933,"current_range_meters":6800,"station_id":"ce4bhlh2rcd13ifvqgig","pricing_plan_id":"cebpf4jnsgd1na2vs0mg"},{"bike_id":"d244acb9-ff2a-4436-9922-a870cc827345","system_id":"levelo_inurba_marseille","lat":43.30294,"lon":5.39198,"is_reserved":false,"is_disabled":false,"rental_uris":{"android":"levelo://app?vid=d244acb9-ff2a-4436-9922-a870cc827345","ios":"levelo://app?vid=d244acb9-ff2a-4436-9922-a870cc827345"},"vehicle_type_id":"4","last_reported":1747980933,"current_range_meters":6800,"station_id":"ce4bgkh2rcd13ifvqbk0","pricing_plan_id":"cebpf4jnsgd1na2vs0mg"},{"bike_id":"a8cec40b-61c6-447f-8322-cc0f71214283","system_id":"levelo_inurba_marseille","lat":43.278334,"lon":5.392137,"is_reserved":false,"is_disabled":false,"rental_uris":{"android":"levelo://app?vid=a8cec40b-61c6-447f-8322-cc0f71214283","ios":"levelo://app?vid=a8cec40b-61c6-447f-8322-cc0f71214283"},"vehicle_type_id":"4","last_reported":1747980933,"current_range_meters":6800,"station_id":"ce4bgr92rcd13ifvqc6g","pricing_plan_id":"cebpf4jnsgd1na2vs0mg"},{"bike_id":"7aae4ae8-7818-4c68-aea7-b7f338b36e37","system_id":"levelo_inurba_marseille","lat":43.240793,"lon":5.377599,"is_reserved":false,"is_disabled":false,"rental_uris":{"android":"levelo://app?vid=7aae4ae8-7818-4c68-aea7-b7f338b36e37","ios":"levelo://app?vid=7aae4ae8-7818-4c68-aea7-b7f338b36e37"},"vehicle_type_id":"4","last_reported":1747980933,"current_range_meters":7200,"station_id":"ce4bhnp2rcd13ifvqgvg","pricing_plan_id":"cebpf4jnsgd1na2vs0mg"},{"bike_id":"3022497e-9a24-4d16-b5d2-78aa7c07375d","system_id":"levelo_inurba_marseille","lat":43.2903,"lon":5.37834,"is_reserved":false,"is_disabled":false,"rental_uris":{"android":"levelo://app?vid=3022497e-9a24-4d16-b5d2-78aa7c07375d","ios":"levelo://app?vid=3022497e-9a24-4d16-b5d2-78aa7c07375d"},"vehicle_type_id":"4","last_reported":1747980933,"current_range_meters":7200,"station_id":"","pricing_plan_id":"cebpf4jnsgd1na2vs0mg"},{"bike_id":"63734ce8-02b3-42c0-bee9-218e784cbe7f","system_id":"levelo_inurba_marseille","lat":43.322919,"lon":5.38268,"is_reserved":false,"is_disabled":false,"rental_uris":{"android":"levelo://app?vid=63734ce8-02b3-42c0-bee9-218e784cbe7f","ios":"levelo://app?vid=63734ce8-02b3-42c0-bee9-218e784cbe7f"},"vehicle_type_id":"4","last_reported":1747980933,"current_range_meters":7200,"station_id":"ce4bhr12rcd13ifvqhqg","pricing_plan_id":"cebpf4jnsgd1na2vs0mg"},{"bike_id":"6d1aaab7-76fe-4e79-ab70-25a00e8241c9","system_id":"levelo_inurba_marseille","lat":43.30668,"lon":5.40075,"is_reserved":false,"is_disabled":false,"rental_uris":{"android":"levelo://app?vid=6d1aaab7-76fe-4e79-ab70-25a00e8241c9","ios":"levelo://app?vid=6d1aaab7-76fe-4e79-ab70-25a00e8241c9"},"vehicle_type_id":"4","last_reported":1747980933,"current_range_meters":7200,"station_id":"ce4bh112rcd13ifvqda0","pricing_plan_id":"cebpf4jnsgd1na2vs0mg"},{"bike_id":"a07478c7-80ac-4f15-a1ee-c92951f16d5e","system_id":"levelo_inurba_marseille","lat":43.30805,"lon":5.43528,"is_reserved":false,"is_disabled":true,"rental_uris":{"android":"levelo://app?vid=a07478c7-80ac-4f15-a1ee-c92951f16d5e","ios":"levelo://app?vid=a07478c7-80ac-4f15-a1ee-c92951f16d5e"},"vehicle_type_id":"4","last_reported":1747980933,"current_range_meters":8000,"station_id":"ce4bhph2rcd13ifvqheg","pricing_plan_id":"cebpf4jnsgd1na2vs0mg"},{"bike_id":"971c8a5c-db56-48ea-b476-188519cb0562","system_id":"levelo_inurba_marseille","lat":43.3007,"lon":5.40513,"is_reserved":false,"is_disabled":false,"rental_uris":{"android":"levelo://app?vid=971c8a5c-db56-48ea-b476-188519cb0562","ios":"levelo://app?vid=971c8a5c-db56-48ea-b476-188519cb0562"},"vehicle_type_id":"4","last_reported":1747980933,"current_range_meters":8000,"station_id":"","pricing_plan_id":"cebpf4jnsgd1na2vs0mg"},{"bike_id":"b57ac6a9-d433-42b7-9163-cc0feeee9ae9","system_id":"levelo_inurba_marseille","lat":43.31352,"lon":5.36716,"is_reserved":false,"is_disabled":false,"rental_uris":{"android":"levelo://app?vid=b57ac6a9-d433-42b7-9163-cc0feeee9ae9","ios":"levelo://app?vid=b57ac6a9-d433-42b7-9163-cc0feeee9ae9"},"vehicle_type_id":"4","last_reported":1747980933,"current_range_meters":8000,"station_id":"ce4bgr92rcd13ifvqc6g","pricing_plan_id":"cebpf4jnsgd1na2vs0mg"},{"bike_id":"b2421589-4e6b-4946-a0a8-9c5526af668b","system_id":"levelo_inurba_marseille","lat":43.240566,"lon":5.377639,"is_reserved":false,"is_disabled":false,"rental_uris":{"android":"levelo://app?vid=b2421589-4e6b-4946-a0a8-9c5526af668b","ios":"levelo://app?vid=b2421589-4e6b-4946-a0a8-9c5526af668b"},"vehicle_type_id":"4","last_reported":1747980933,"current_range_meters":8000,"station_id":"ce4bhnp2rcd13ifvqgvg","pricing_plan_id":"cebpf4jnsgd1na2vs0mg"},{"bike_id":"6f292ab3-2899-4f1b-8b79-40d26ddd0df1","system_id":"levelo_inurba_marseille","lat":43.27106,"lon":5.38506,"is_reserved":false,"is_disabled":false,"rental_uris":{"android":"levelo://app?vid=6f292ab3-2899-4f1b-8b79-40d26ddd0df1","ios":"levelo://app?vid=6f292ab3-2899-4f1b-8b79-40d26ddd0df1"},"vehicle_type_id":"4","last_reported":1747980933,"current_range_meters":8000,"station_id":"","pricing_plan_id":"cebpf4jnsgd1na2vs0mg"},{"bike_id":"6e82a09d-9176-4727-8952-1b5ea9ff5244","system_id":"levelo_inurba_marseille","lat":43.30466,"lon":5.37899,"is_reserved":false,"is_disabled":false,"rental_uris":{"android":"levelo://app?vid=6e82a09d-9176-4727-8952-1b5ea9ff5244","ios":"levelo://app?vid=6e82a09d-9176-4727-8952-1b5ea9ff5244"},"vehicle_type_id":"4","last_reported":1747980933,"current_range_meters":8000,"station_id":"ce4bgup2rcd13ifvqcn0","pricing_plan_id":"cebpf4jnsgd1na2vs0mg"},{"bike_id":"950cad50-4e47-43b4-ba8e-d97ac6386634","system_id":"levelo_inurba_marseille","lat":43.25563,"lon":5.38251,"is_reserved":false,"is_disabled":false,"rental_uris":{"android":"levelo://app?vid=950cad50-4e47-43b4-ba8e-d97ac6386634","ios":"levelo://app?vid=950cad50-4e47-43b4-ba8e-d97ac6386634"},"vehicle_type_id":"4","last_reported":1747980933,"current_range_meters":8000,"station_id":"","pricing_plan_id":"cebpf4jnsgd1na2vs0mg"},{"bike_id":"27653dcd-dec9-4f13-b172-8968c20c1725","system_id":"levelo_inurba_marseille","lat":43.238538,"lon":5.430886,"is_reserved":false,"is_disabled":false,"rental_uris":{"android":"levelo://app?vid=27653dcd-dec9-4f13-b172-8968c20c1725","ios":"levelo://app?vid=27653dcd-dec9-4f13-b172-8968c20c1725"},"vehicle_type_id":"4","last_reported":1747980933,"current_range_meters":8000,"station_id":"","pricing_plan_id":"cebpf4jnsgd1na2vs0mg"},{"bike_id":"7840330f-1868-47b7-b454-a81947a4dcc6","system_id":"levelo_inurba_marseille","lat":43.217466,"lon":5.346166,"is_reserved":false,"is_disabled":false,"rental_uris":{"android":"levelo://app?vid=7840330f-1868-47b7-b454-a81947a4dcc6","ios":"levelo://app?vid=7840330f-1868-47b7-b454-a81947a4dcc6"},"vehicle_type_id":"4","last_reported":1747980933,"current_range_meters":8000,"station_id":"st_cvj6r9ubvosntc0bgbag","pricing_plan_id":"cebpf4jnsgd1na2vs0mg"},{"bike_id":"0815fd33-a825-49ef-90ec-ee19dc7387e0","system_id":"levelo_inurba_marseille","lat":43.27779,"lon":5.39972,"is_reserved":false,"is_disabled":false,"rental_uris":{"android":"levelo://app?vid=0815fd33-a825-49ef-90ec-ee19dc7387e0","ios":"levelo://app?vid=0815fd33-a825-49ef-90ec-ee19dc7387e0"},"vehicle_type_id":"4","last_reported":1747980933,"current_range_meters":8000,"station_id":"","pricing_plan_id":"cebpf4jnsgd1na2vs0mg"},{"bike_id":"c0b3d8ef-98e0-480a-81ce-3c2423a041be","system_id":"levelo_inurba_marseille","lat":43.30196,"lon":5.36607,"is_reserved":false,"is_disabled":true,"rental_uris":{"android":"levelo://app?vid=c0b3d8ef-98e0-480a-81ce-3c2423a041be","ios":"levelo://app?vid=c0b3d8ef-98e0-480a-81ce-3c2423a041be"},"vehicle_type_id":"4","last_reported":1747980933,"current_range_meters":8400,"station_id":"ce4bgrh2rcd13ifvqc8g","pricing_plan_id":"cebpf4jnsgd1na2vs0mg"},{"bike_id":"daa1fa20-a4fc-4e4c-a5e0-a46c69fa4a94","system_id":"levelo_inurba_marseille","lat":43.25107,"lon":5.40319,"is_reserved":false,"is_disabled":false,"rental_uris":{"android":"levelo://app?vid=daa1fa20-a4fc-4e4c-a5e0-a46c69fa4a94","ios":"levelo://app?vid=daa1fa20-a4fc-4e4c-a5e0-a46c69fa4a94"},"vehicle_type_id":"4","last_reported":1747980933,"current_range_meters":8400,"station_id":"ce4bhlh2rcd13ifvqgig","pricing_plan_id":"cebpf4jnsgd1na2vs0mg"},{"bike_id":"f6060218-a4fa-4cc9-bdb7-79b96992d8b3","system_id":"levelo_inurba_marseille","lat":43.29975,"lon":5.38493,"is_reserved":false,"is_disabled":true,"rental_uris":{"android":"levelo://app?vid=f6060218-a4fa-4cc9-bdb7-79b96992d8b3","ios":"levelo://app?vid=f6060218-a4fa-4cc9-bdb7-79b96992d8b3"},"vehicle_type_id":"4","last_reported":1747980933,"current_range_meters":8400,"station_id":"ce4bgj92rcd13ifvqbd0","pricing_plan_id":"cebpf4jnsgd1na2vs0mg"},{"bike_id":"6a85369f-636f-4448-91f6-e3994a0fb52b","system_id":"levelo_inurba_marseille","lat":43.27749,"lon":5.38694,"is_reserved":false,"is_disabled":false,"rental_uris":{"android":"levelo://app?vid=6a85369f-636f-4448-91f6-e3994a0fb52b","ios":"levelo://app?vid=6a85369f-636f-4448-91f6-e3994a0fb52b"},"vehicle_type_id":"4","last_reported":1747980933,"current_range_meters":8400,"station_id":"","pricing_plan_id":"cebpf4jnsgd1na2vs0mg"},{"bike_id":"a39337e5-6395-48fc-bb51-5ffcbf33317f","system_id":"levelo_inurba_marseille","lat":43.2871,"lon":5.37932,"is_reserved":false,"is_disabled":false,"rental_uris":{"android":"levelo://app?vid=a39337e5-6395-48fc-bb51-5ffcbf33317f","ios":"levelo://app?vid=a39337e5-6395-48fc-bb51-5ffcbf33317f"},"vehicle_type_id":"4","last_reported":1747980933,"current_range_meters":8400,"station_id":"ce4bh9p2rcd13ifvqec0","pricing_plan_id":"cebpf4jnsgd1na2vs0mg"},{"bike_id":"895fec85-4848-4820-b938-243da6ee2367","system_id":"levelo_inurba_marseille","lat":43.304598,"lon":5.379112,"is_reserved":false,"is_disabled":false,"rental_uris":{"android":"levelo://app?vid=895fec85-4848-4820-b938-243da6ee2367","ios":"levelo://app?vid=895fec85-4848-4820-b938-243da6ee2367"},"vehicle_type_id":"4","last_reported":1747980933,"current_range_meters":8400,"station_id":"ce4bhs12rcd13ifvqhvg","pricing_plan_id":"cebpf4jnsgd1na2vs0mg"},{"bike_id":"31110881-d64f-45f8-9810-bbf84a002836","system_id":"levelo_inurba_marseille","lat":43.28347,"lon":5.46002,"is_reserved":false,"is_disabled":false,"rental_uris":{"android":"levelo://app?vid=31110881-d64f-45f8-9810-bbf84a002836","ios":"levelo://app?vid=31110881-d64f-45f8-9810-bbf84a002836"},"vehicle_type_id":"4","last_reported":1747980933,"current_range_meters":8400,"station_id":"","pricing_plan_id":"cebpf4jnsgd1na2vs0mg"},{"bike_id":"5d24afeb-d275-4f73-a0ea-a839b51088ac","system_id":"levelo_inurba_marseille","lat":43.248237,"lon":5.37457,"is_reserved":false,"is_disabled":false,"rental_uris":{"android":"levelo://app?vid=5d24afeb-d275-4f73-a0ea-a839b51088ac","ios":"levelo://app?vid=5d24afeb-d275-4f73-a0ea-a839b51088ac"},"vehicle_type_id":"4","last_reported":1747980933,"current_range_meters":8400,"station_id":"ce4bhgh2rcd13ifvqfb0","pricing_plan_id":"cebpf4jnsgd1na2vs0mg"},{"bike_id":"4b043e01-a5de-42bf-a94a-514363515081","system_id":"levelo_inurba_marseille","lat":43.25117,"lon":5.40336,"is_reserved":false,"is_disabled":false,"rental_uris":{"android":"levelo://app?vid=4b043e01-a5de-42bf-a94a-514363515081","ios":"levelo://app?vid=4b043e01-a5de-42bf-a94a-514363515081"},"vehicle_type_id":"4","last_reported":1747980933,"current_range_meters":8400,"station_id":"ce4bhlh2rcd13ifvqgig","pricing_plan_id":"cebpf4jnsgd1na2vs0mg"},{"bike_id":"d2154540-b55c-455c-bf22-0708547dd516","system_id":"levelo_inurba_marseille","lat":43.25116,"lon":5.40357,"is_reserved":false,"is_disabled":false,"rental_uris":{"android":"levelo://app?vid=d2154540-b55c-455c-bf22-0708547dd516","ios":"levelo://app?vid=d2154540-b55c-455c-bf22-0708547dd516"},"vehicle_type_id":"4","last_reported":1747980933,"current_range_meters":8800,"station_id":"ce4bhlh2rcd13ifvqgig","pricing_plan_id":"cebpf4jnsgd1na2vs0mg"},{"bike_id":"ca5d4306-f84c-4e20-9b88-830ffa4263d2","system_id":"levelo_inurba_marseille","lat":43.22948,"lon":5.35427,"is_reserved":false,"is_disabled":false,"rental_uris":{"android":"levelo://app?vid=ca5d4306-f84c-4e20-9b88-830ffa4263d2","ios":"levelo://app?vid=ca5d4306-f84c-4e20-9b88-830ffa4263d2"},"vehicle_type_id":"4","last_reported":1747980933,"current_range_meters":8800,"station_id":"cpo3532slgdg3j2ikp40","pricing_plan_id":"cebpf4jnsgd1na2vs0mg"},{"bike_id":"7dfdfdc8-9c79-46b6-9a4b-924773b53f29","system_id":"levelo_inurba_marseille","lat":43.26855,"lon":5.39147,"is_reserved":false,"is_disabled":false,"rental_uris":{"android":"levelo://app?vid=7dfdfdc8-9c79-46b6-9a4b-924773b53f29","ios":"levelo://app?vid=7dfdfdc8-9c79-46b6-9a4b-924773b53f29"},"vehicle_type_id":"4","last_reported":1747980933,"current_range_meters":8800,"station_id":"","pricing_plan_id":"cebpf4jnsgd1na2vs0mg"},{"bike_id":"4ce9bab9-5df6-4d64-972d-b53fbc1c81d1","system_id":"levelo_inurba_marseille","lat":43.31746,"lon":5.39001,"is_reserved":false,"is_disabled":false,"rental_uris":{"android":"levelo://app?vid=4ce9bab9-5df6-4d64-972d-b53fbc1c81d1","ios":"levelo://app?vid=4ce9bab9-5df6-4d64-972d-b53fbc1c81d1"},"vehicle_type_id":"4","last_reported":1747980933,"current_range_meters":8800,"station_id":"ce4bhqp2rcd13ifvqhng","pricing_plan_id":"cebpf4jnsgd1na2vs0mg"},{"bike_id":"44304d33-9683-47e3-bc91-caadd304a557","system_id":"levelo_inurba_marseille","lat":43.27168,"lon":5.41014,"is_reserved":false,"is_disabled":true,"rental_uris":{"android":"levelo://app?vid=44304d33-9683-47e3-bc91-caadd304a557","ios":"levelo://app?vid=44304d33-9683-47e3-bc91-caadd304a557"},"vehicle_type_id":"4","last_reported":1747980933,"current_range_meters":8800,"station_id":"ce4bhl12rcd13ifvqgf0","pricing_plan_id":"cebpf4jnsgd1na2vs0mg"},{"bike_id":"f2078ae5-2f5e-4d79-b314-93d80adc7ac8","system_id":"levelo_inurba_marseille","lat":43.304356,"lon":5.388943,"is_reserved":false,"is_disabled":false,"rental_uris":{"android":"levelo://app?vid=f2078ae5-2f5e-4d79-b314-93d80adc7ac8","ios":"levelo://app?vid=f2078ae5-2f5e-4d79-b314-93d80adc7ac8"},"vehicle_type_id":"4","last_reported":1747980933,"current_range_meters":8800,"station_id":"ce4bgk12rcd13ifvqbi0","pricing_plan_id":"cebpf4jnsgd1na2vs0mg"},{"bike_id":"d7fa22b5-1bed-4592-894a-ee5cf0016828","system_id":"levelo_inurba_marseille","lat":43.23959,"lon":5.36628,"is_reserved":false,"is_disabled":false,"rental_uris":{"android":"levelo://app?vid=d7fa22b5-1bed-4592-894a-ee5cf0016828","ios":"levelo://app?vid=d7fa22b5-1bed-4592-894a-ee5cf0016828"},"vehicle_type_id":"4","last_reported":1747980933,"current_range_meters":8800,"station_id":"ce4bhi12rcd13ifvqfp0","pricing_plan_id":"cebpf4jnsgd1na2vs0mg"},{"bike_id":"fb338999-43d7-40ab-8484-01e01b2819d8","system_id":"levelo_inurba_marseille","lat":43.27375,"lon":5.362498,"is_reserved":false,"is_disabled":false,"rental_uris":{"android":"levelo://app?vid=fb338999-43d7-40ab-8484-01e01b2819d8","ios":"levelo://app?vid=fb338999-43d7-40ab-8484-01e01b2819d8"},"vehicle_type_id":"4","last_reported":1747980933,"current_range_meters":8800,"station_id":"ce4bhbh2rcd13ifvqeo0","pricing_plan_id":"cebpf4jnsgd1na2vs0mg"},{"bike_id":"bb0108c8-892a-4333-8ce4-a9d767f2b176","system_id":"levelo_inurba_marseille","lat":43.29604,"lon":5.38102,"is_reserved":false,"is_disabled":false,"rental_uris":{"android":"levelo://app?vid=bb0108c8-892a-4333-8ce4-a9d767f2b176","ios":"levelo://app?vid=bb0108c8-892a-4333-8ce4-a9d767f2b176"},"vehicle_type_id":"4","last_reported":1747980933,"current_range_meters":8800,"station_id":"ce4bgl12rcd13ifvqbo0","pricing_plan_id":"cebpf4jnsgd1na2vs0mg"},{"bike_id":"0f590af5-5348-43c4-92f2-0b855bfc59b6","system_id":"levelo_inurba_marseille","lat":43.24649,"lon":5.38897,"is_reserved":false,"is_disabled":false,"rental_uris":{"android":"levelo://app?vid=0f590af5-5348-43c4-92f2-0b855bfc59b6","ios":"levelo://app?vid=0f590af5-5348-43c4-92f2-0b855bfc59b6"},"vehicle_type_id":"4","last_reported":1747980933,"current_range_meters":8800,"station_id":"ce4bhg12rcd13ifvqf60","pricing_plan_id":"cebpf4jnsgd1na2vs0mg"},{"bike_id":"cf83951d-ed6e-4a4b-8e4c-87200c0a89b0","system_id":"levelo_inurba_marseille","lat":43.30596,"lon":5.39354,"is_reserved":false,"is_disabled":false,"rental_uris":{"android":"levelo://app?vid=cf83951d-ed6e-4a4b-8e4c-87200c0a89b0","ios":"levelo://app?vid=cf83951d-ed6e-4a4b-8e4c-87200c0a89b0"},"vehicle_type_id":"4","last_reported":1747980933,"current_range_meters":9200,"station_id":"ce4bh0p2rcd13ifvqd80","pricing_plan_id":"cebpf4jnsgd1na2vs0mg"},{"bike_id":"89495d62-122a-4e69-ab37-b811c27f0462","system_id":"levelo_inurba_marseille","lat":43.25111,"lon":5.40312,"is_reserved":false,"is_disabled":false,"rental_uris":{"android":"levelo://app?vid=89495d62-122a-4e69-ab37-b811c27f0462","ios":"levelo://app?vid=89495d62-122a-4e69-ab37-b811c27f0462"},"vehicle_type_id":"4","last_reported":1747980933,"current_range_meters":9200,"station_id":"ce4bhlh2rcd13ifvqgig","pricing_plan_id":"cebpf4jnsgd1na2vs0mg"},{"bike_id":"c300bf53-b9e2-4231-85bb-8029bac3b95b","system_id":"levelo_inurba_marseille","lat":43.29798,"lon":5.38082,"is_reserved":false,"is_disabled":false,"rental_uris":{"android":"levelo://app?vid=c300bf53-b9e2-4231-85bb-8029bac3b95b","ios":"levelo://app?vid=c300bf53-b9e2-4231-85bb-8029bac3b95b"},"vehicle_type_id":"4","last_reported":1747980933,"current_range_meters":9200,"station_id":"ce4bgip2rcd13ifvqbb0","pricing_plan_id":"cebpf4jnsgd1na2vs0mg"},{"bike_id":"e4562ad1-0a39-4300-91ec-1f0dc2c1ff97","system_id":"levelo_inurba_marseille","lat":43.32475,"lon":5.36573,"is_reserved":false,"is_disabled":false,"rental_uris":{"android":"levelo://app?vid=e4562ad1-0a39-4300-91ec-1f0dc2c1ff97","ios":"levelo://app?vid=e4562ad1-0a39-4300-91ec-1f0dc2c1ff97"},"vehicle_type_id":"4","last_reported":1747980933,"current_range_meters":9200,"station_id":"ce4bhs12rcd13ifvqhvg","pricing_plan_id":"cebpf4jnsgd1na2vs0mg"},{"bike_id":"e61ffd66-609d-40f0-bfdc-1af5f284f921","system_id":"levelo_inurba_marseille","lat":43.286141,"lon":5.351188,"is_reserved":false,"is_disabled":false,"rental_uris":{"android":"levelo://app?vid=e61ffd66-609d-40f0-bfdc-1af5f284f921","ios":"levelo://app?vid=e61ffd66-609d-40f0-bfdc-1af5f284f921"},"vehicle_type_id":"4","last_reported":1747980933,"current_range_meters":9200,"station_id":"ce4bhch2rcd13ifvqeug","pricing_plan_id":"cebpf4jnsgd1na2vs0mg"},{"bike_id":"77d351e7-4031-43fb-a118-368e81529b6f","system_id":"levelo_inurba_marseille","lat":43.286187,"lon":5.351122,"is_reserved":false,"is_disabled":false,"rental_uris":{"android":"levelo://app?vid=77d351e7-4031-43fb-a118-368e81529b6f","ios":"levelo://app?vid=77d351e7-4031-43fb-a118-368e81529b6f"},"vehicle_type_id":"4","last_reported":1747980933,"current_range_meters":9200,"station_id":"ce4bhch2rcd13ifvqeug","pricing_plan_id":"cebpf4jnsgd1na2vs0mg"},{"bike_id":"4e8fa508-b328-4cf6-af3c-1336267fe6b6","system_id":"levelo_inurba_marseille","lat":43.3249,"lon":5.36563,"is_reserved":false,"is_disabled":false,"rental_uris":{"android":"levelo://app?vid=4e8fa508-b328-4cf6-af3c-1336267fe6b6","ios":"levelo://app?vid=4e8fa508-b328-4cf6-af3c-1336267fe6b6"},"vehicle_type_id":"4","last_reported":1747980933,"current_range_meters":9200,"station_id":"ce4bhs12rcd13ifvqhvg","pricing_plan_id":"cebpf4jnsgd1na2vs0mg"},{"bike_id":"b5f9e8c1-abe5-4841-898d-cc6d95725c25","system_id":"levelo_inurba_marseille","lat":43.24175,"lon":5.39728,"is_reserved":false,"is_disabled":false,"rental_uris":{"android":"levelo://app?vid=b5f9e8c1-abe5-4841-898d-cc6d95725c25","ios":"levelo://app?vid=b5f9e8c1-abe5-4841-898d-cc6d95725c25"},"vehicle_type_id":"4","last_reported":1747980933,"current_range_meters":9200,"station_id":"ce4bhn12rcd13ifvqgpg","pricing_plan_id":"cebpf4jnsgd1na2vs0mg"},{"bike_id":"c2ea5a9c-8fd7-40ac-8515-427466010d70","system_id":"levelo_inurba_marseille","lat":43.32116,"lon":5.36772,"is_reserved":false,"is_disabled":false,"rental_uris":{"android":"levelo://app?vid=c2ea5a9c-8fd7-40ac-8515-427466010d70","ios":"levelo://app?vid=c2ea5a9c-8fd7-40ac-8515-427466010d70"},"vehicle_type_id":"4","last_reported":1747980933,"current_range_meters":9200,"station_id":"ce4bhrh2rcd13ifvqhug","pricing_plan_id":"cebpf4jnsgd1na2vs0mg"},{"bike_id":"65497611-89a4-4f30-9da2-953819547996","system_id":"levelo_inurba_marseille","lat":43.29632,"lon":5.40596,"is_reserved":false,"is_disabled":true,"rental_uris":{"android":"levelo://app?vid=65497611-89a4-4f30-9da2-953819547996","ios":"levelo://app?vid=65497611-89a4-4f30-9da2-953819547996"},"vehicle_type_id":"4","last_reported":1747980933,"current_range_meters":8800,"station_id":"ce4bh0h2rcd13ifvqd60","pricing_plan_id":"cebpf4jnsgd1na2vs0mg"},{"bike_id":"2aa52d73-83e9-44f9-80ca-e0ce5c9fc417","system_id":"levelo_inurba_marseille","lat":43.27073,"lon":5.42273,"is_reserved":false,"is_disabled":false,"rental_uris":{"android":"levelo://app?vid=2aa52d73-83e9-44f9-80ca-e0ce5c9fc417","ios":"levelo://app?vid=2aa52d73-83e9-44f9-80ca-e0ce5c9fc417"},"vehicle_type_id":"4","last_reported":1747980933,"current_range_meters":9600,"station_id":"ce4bhk92rcd13ifvqgb0","pricing_plan_id":"cebpf4jnsgd1na2vs0mg"},{"bike_id":"ae3cd29c-d097-40bc-80f5-6173f58b93db","system_id":"levelo_inurba_marseille","lat":43.25581,"lon":5.38224,"is_reserved":false,"is_disabled":false,"rental_uris":{"android":"levelo://app?vid=ae3cd29c-d097-40bc-80f5-6173f58b93db","ios":"levelo://app?vid=ae3cd29c-d097-40bc-80f5-6173f58b93db"},"vehicle_type_id":"4","last_reported":1747980933,"current_range_meters":9600,"station_id":"ce4bhih2rcd13ifvqfs0","pricing_plan_id":"cebpf4jnsgd1na2vs0mg"},{"bike_id":"beba2d62-15d6-47a9-a467-1e6c70004af0","system_id":"levelo_inurba_marseille","lat":43.260276,"lon":5.375534,"is_reserved":false,"is_disabled":false,"rental_uris":{"android":"levelo://app?vid=beba2d62-15d6-47a9-a467-1e6c70004af0","ios":"levelo://app?vid=beba2d62-15d6-47a9-a467-1e6c70004af0"},"vehicle_type_id":"4","last_reported":1747980933,"current_range_meters":9600,"station_id":"ce4bhgh2rcd13ifvqfa0","pricing_plan_id":"cebpf4jnsgd1na2vs0mg"},{"bike_id":"d5ef9bfd-47f0-45d4-b59f-f18ac0ae1387","system_id":"levelo_inurba_marseille","lat":43.24074,"lon":5.37783,"is_reserved":false,"is_disabled":false,"rental_uris":{"android":"levelo://app?vid=d5ef9bfd-47f0-45d4-b59f-f18ac0ae1387","ios":"levelo://app?vid=d5ef9bfd-47f0-45d4-b59f-f18ac0ae1387"},"vehicle_type_id":"4","last_reported":1747980933,"current_range_meters":9600,"station_id":"ce4bhnp2rcd13ifvqgvg","pricing_plan_id":"cebpf4jnsgd1na2vs0mg"},{"bike_id":"822ccc78-e6ce-43ae-9a12-cbd2ca17d551","system_id":"levelo_inurba_marseille","lat":43.30444,"lon":5.38882,"is_reserved":false,"is_disabled":false,"rental_uris":{"android":"levelo://app?vid=822ccc78-e6ce-43ae-9a12-cbd2ca17d551","ios":"levelo://app?vid=822ccc78-e6ce-43ae-9a12-cbd2ca17d551"},"vehicle_type_id":"4","last_reported":1747980933,"current_range_meters":9200,"station_id":"ce4bgk12rcd13ifvqbi0","pricing_plan_id":"cebpf4jnsgd1na2vs0mg"},{"bike_id":"d728391c-c980-4ed4-9760-86ff41c7f94b","system_id":"levelo_inurba_marseille","lat":43.24674,"lon":5.3889,"is_reserved":false,"is_disabled":false,"rental_uris":{"android":"levelo://app?vid=d728391c-c980-4ed4-9760-86ff41c7f94b","ios":"levelo://app?vid=d728391c-c980-4ed4-9760-86ff41c7f94b"},"vehicle_type_id":"4","last_reported":1747980933,"current_range_meters":9600,"station_id":"ce4bhg12rcd13ifvqf60","pricing_plan_id":"cebpf4jnsgd1na2vs0mg"},{"bike_id":"fc478b53-8c86-4331-b685-e08cb1f0dc78","system_id":"levelo_inurba_marseille","lat":43.284182,"lon":5.349945,"is_reserved":false,"is_disabled":false,"rental_uris":{"android":"levelo://app?vid=fc478b53-8c86-4331-b685-e08cb1f0dc78","ios":"levelo://app?vid=fc478b53-8c86-4331-b685-e08cb1f0dc78"},"vehicle_type_id":"4","last_reported":1747980933,"current_range_meters":9600,"station_id":"ce4bhbh2rcd13ifvqepg","pricing_plan_id":"cebpf4jnsgd1na2vs0mg"},{"bike_id":"3e6160a0-1ddb-4755-ba64-615aa2815cea","system_id":"levelo_inurba_marseille","lat":43.30253,"lon":5.4004,"is_reserved":false,"is_disabled":false,"rental_uris":{"android":"levelo://app?vid=3e6160a0-1ddb-4755-ba64-615aa2815cea","ios":"levelo://app?vid=3e6160a0-1ddb-4755-ba64-615aa2815cea"},"vehicle_type_id":"4","last_reported":1747980933,"current_range_meters":9600,"station_id":"ce4bgvh2rcd13ifvqcs0","pricing_plan_id":"cebpf4jnsgd1na2vs0mg"},{"bike_id":"2fbf1602-d254-4c97-925b-e489870acf99","system_id":"levelo_inurba_marseille","lat":43.27904,"lon":5.38008,"is_reserved":false,"is_disabled":false,"rental_uris":{"android":"levelo://app?vid=2fbf1602-d254-4c97-925b-e489870acf99","ios":"levelo://app?vid=2fbf1602-d254-4c97-925b-e489870acf99"},"vehicle_type_id":"4","last_reported":1747980933,"current_range_meters":9600,"station_id":"ce4bhf92rcd13ifvqf50","pricing_plan_id":"cebpf4jnsgd1na2vs0mg"},{"bike_id":"af3ff304-0657-4097-865e-cc038f6001f7","system_id":"levelo_inurba_marseille","lat":43.24651,"lon":5.3887,"is_reserved":false,"is_disabled":false,"rental_uris":{"android":"levelo://app?vid=af3ff304-0657-4097-865e-cc038f6001f7","ios":"levelo://app?vid=af3ff304-0657-4097-865e-cc038f6001f7"},"vehicle_type_id":"4","last_reported":1747980933,"current_range_meters":10000,"station_id":"ce4bhg12rcd13ifvqf60","pricing_plan_id":"cebpf4jnsgd1na2vs0mg"},{"bike_id":"682e8c54-3f77-4582-937b-7490f31456f6","system_id":"levelo_inurba_marseille","lat":43.25839,"lon":5.39839,"is_reserved":false,"is_disabled":false,"rental_uris":{"android":"levelo://app?vid=682e8c54-3f77-4582-937b-7490f31456f6","ios":"levelo://app?vid=682e8c54-3f77-4582-937b-7490f31456f6"},"vehicle_type_id":"4","last_reported":1747980933,"current_range_meters":10000,"station_id":"","pricing_plan_id":"cebpf4jnsgd1na2vs0mg"},{"bike_id":"84f00b51-2429-41be-8a43-83978d7764de","system_id":"levelo_inurba_marseille","lat":43.279939,"lon":5.400246,"is_reserved":false,"is_disabled":false,"rental_uris":{"android":"levelo://app?vid=84f00b51-2429-41be-8a43-83978d7764de","ios":"levelo://app?vid=84f00b51-2429-41be-8a43-83978d7764de"},"vehicle_type_id":"4","last_reported":1747980933,"current_range_meters":10000,"station_id":"ce4bho92rcd13ifvqh4g","pricing_plan_id":"cebpf4jnsgd1na2vs0mg"},{"bike_id":"5d816b85-ba40-4a0a-97fd-8dbd83afac8b","system_id":"levelo_inurba_marseille","lat":43.2971,"lon":5.3659,"is_reserved":false,"is_disabled":false,"rental_uris":{"android":"levelo://app?vid=5d816b85-ba40-4a0a-97fd-8dbd83afac8b","ios":"levelo://app?vid=5d816b85-ba40-4a0a-97fd-8dbd83afac8b"},"vehicle_type_id":"4","last_reported":1747980933,"current_range_meters":10000,"station_id":"ce4bgn12rcd13ifvqbt0","pricing_plan_id":"cebpf4jnsgd1na2vs0mg"},{"bike_id":"7d54cba5-aaea-49ac-8e4e-11319fd55413","system_id":"levelo_inurba_marseille","lat":43.2963,"lon":5.40597,"is_reserved":false,"is_disabled":false,"rental_uris":{"android":"levelo://app?vid=7d54cba5-aaea-49ac-8e4e-11319fd55413","ios":"levelo://app?vid=7d54cba5-aaea-49ac-8e4e-11319fd55413"},"vehicle_type_id":"4","last_reported":1747980933,"current_range_meters":10000,"station_id":"ce4bh0h2rcd13ifvqd60","pricing_plan_id":"cebpf4jnsgd1na2vs0mg"},{"bike_id":"4e9782db-1d29-4771-b752-03ec1f49fc2a","system_id":"levelo_inurba_marseille","lat":43.2749,"lon":5.42436,"is_reserved":false,"is_disabled":false,"rental_uris":{"android":"levelo://app?vid=4e9782db-1d29-4771-b752-03ec1f49fc2a","ios":"levelo://app?vid=4e9782db-1d29-4771-b752-03ec1f49fc2a"},"vehicle_type_id":"4","last_reported":1747980933,"current_range_meters":10000,"station_id":"ce4bhn92rcd13ifvqgrg","pricing_plan_id":"cebpf4jnsgd1na2vs0mg"},{"bike_id":"bf21fbac-8cdf-4a10-916c-dcceec71ff08","system_id":"levelo_inurba_marseille","lat":43.240718,"lon":5.377608,"is_reserved":false,"is_disabled":false,"rental_uris":{"android":"levelo://app?vid=bf21fbac-8cdf-4a10-916c-dcceec71ff08","ios":"levelo://app?vid=bf21fbac-8cdf-4a10-916c-dcceec71ff08"},"vehicle_type_id":"4","last_reported":1747980933,"current_range_meters":10000,"station_id":"ce4bhnp2rcd13ifvqgvg","pricing_plan_id":"cebpf4jnsgd1na2vs0mg"},{"bike_id":"14feda73-7baf-4b64-8ae9-79f4fe7d4a5f","system_id":"levelo_inurba_marseille","lat":43.323724,"lon":5.367613,"is_reserved":false,"is_disabled":false,"rental_uris":{"android":"levelo://app?vid=14feda73-7baf-4b64-8ae9-79f4fe7d4a5f","ios":"levelo://app?vid=14feda73-7baf-4b64-8ae9-79f4fe7d4a5f"},"vehicle_type_id":"4","last_reported":1747980933,"current_range_meters":10000,"station_id":"ce4bhsh2rcd13ifvqi2g","pricing_plan_id":"cebpf4jnsgd1na2vs0mg"},{"bike_id":"e28ac931-3ffd-4918-a141-beb765a6a446","system_id":"levelo_inurba_marseille","lat":43.25887,"lon":5.39913,"is_reserved":false,"is_disabled":false,"rental_uris":{"android":"levelo://app?vid=e28ac931-3ffd-4918-a141-beb765a6a446","ios":"levelo://app?vid=e28ac931-3ffd-4918-a141-beb765a6a446"},"vehicle_type_id":"4","last_reported":1747980933,"current_range_meters":10000,"station_id":"ce4bhl92rcd13ifvqghg","pricing_plan_id":"cebpf4jnsgd1na2vs0mg"},{"bike_id":"e3e19b90-9823-4b53-b8a7-4c599b3176c2","system_id":"levelo_inurba_marseille","lat":43.25101,"lon":5.40336,"is_reserved":false,"is_disabled":false,"rental_uris":{"android":"levelo://app?vid=e3e19b90-9823-4b53-b8a7-4c599b3176c2","ios":"levelo://app?vid=e3e19b90-9823-4b53-b8a7-4c599b3176c2"},"vehicle_type_id":"4","last_reported":1747980933,"current_range_meters":10800,"station_id":"ce4bhlh2rcd13ifvqgig","pricing_plan_id":"cebpf4jnsgd1na2vs0mg"},{"bike_id":"fff02824-4234-418e-8566-dca74bab271b","system_id":"levelo_inurba_marseille","lat":43.24638,"lon":5.38889,"is_reserved":false,"is_disabled":false,"rental_uris":{"android":"levelo://app?vid=fff02824-4234-418e-8566-dca74bab271b","ios":"levelo://app?vid=fff02824-4234-418e-8566-dca74bab271b"},"vehicle_type_id":"4","last_reported":1747980933,"current_range_meters":10800,"station_id":"ce4bhg12rcd13ifvqf60","pricing_plan_id":"cebpf4jnsgd1na2vs0mg"},{"bike_id":"18ca849a-bab9-472d-80e2-f3856fcd9684","system_id":"levelo_inurba_marseille","lat":43.2396,"lon":5.36639,"is_reserved":false,"is_disabled":false,"rental_uris":{"android":"levelo://app?vid=18ca849a-bab9-472d-80e2-f3856fcd9684","ios":"levelo://app?vid=18ca849a-bab9-472d-80e2-f3856fcd9684"},"vehicle_type_id":"4","last_reported":1747980933,"current_range_meters":10800,"station_id":"ce4bhi12rcd13ifvqfp0","pricing_plan_id":"cebpf4jnsgd1na2vs0mg"},{"bike_id":"2118b775-a212-4cde-9a12-650bdcd2bf8a","system_id":"levelo_inurba_marseille","lat":43.34151,"lon":5.40901,"is_reserved":false,"is_disabled":false,"rental_uris":{"android":"levelo://app?vid=2118b775-a212-4cde-9a12-650bdcd2bf8a","ios":"levelo://app?vid=2118b775-a212-4cde-9a12-650bdcd2bf8a"},"vehicle_type_id":"4","last_reported":1747980933,"current_range_meters":10800,"station_id":"ce4bhqh2rcd13ifvqhlg","pricing_plan_id":"cebpf4jnsgd1na2vs0mg"},{"bike_id":"e77b9d43-a803-4f5c-912a-7a91f5e7da59","system_id":"levelo_inurba_marseille","lat":43.28424,"lon":5.34982,"is_reserved":false,"is_disabled":false,"rental_uris":{"android":"levelo://app?vid=e77b9d43-a803-4f5c-912a-7a91f5e7da59","ios":"levelo://app?vid=e77b9d43-a803-4f5c-912a-7a91f5e7da59"},"vehicle_type_id":"4","last_reported":1747980933,"current_range_meters":10800,"station_id":"ce4bhbh2rcd13ifvqepg","pricing_plan_id":"cebpf4jnsgd1na2vs0mg"},{"bike_id":"e419142e-5e0d-4369-905c-9c0effc25660","system_id":"levelo_inurba_marseille","lat":43.28349,"lon":5.38088,"is_reserved":false,"is_disabled":false,"rental_uris":{"android":"levelo://app?vid=e419142e-5e0d-4369-905c-9c0effc25660","ios":"levelo://app?vid=e419142e-5e0d-4369-905c-9c0effc25660"},"vehicle_type_id":"4","last_reported":1747980933,"current_range_meters":11200,"station_id":"ce4bh412rcd13ifvqdr0","pricing_plan_id":"cebpf4jnsgd1na2vs0mg"},{"bike_id":"174b104e-9dbf-4977-9875-ad8de535145c","system_id":"levelo_inurba_marseille","lat":43.26233,"lon":5.3877,"is_reserved":false,"is_disabled":false,"rental_uris":{"android":"levelo://app?vid=174b104e-9dbf-4977-9875-ad8de535145c","ios":"levelo://app?vid=174b104e-9dbf-4977-9875-ad8de535145c"},"vehicle_type_id":"4","last_reported":1747980933,"current_range_meters":11200,"station_id":"","pricing_plan_id":"cebpf4jnsgd1na2vs0mg"},{"bike_id":"c11c8c62-cdce-4e99-9e2c-b22fcc6ab25c","system_id":"levelo_inurba_marseille","lat":43.30937,"lon":5.40143,"is_reserved":false,"is_disabled":false,"rental_uris":{"android":"levelo://app?vid=c11c8c62-cdce-4e99-9e2c-b22fcc6ab25c","ios":"levelo://app?vid=c11c8c62-cdce-4e99-9e2c-b22fcc6ab25c"},"vehicle_type_id":"4","last_reported":1747980933,"current_range_meters":11200,"station_id":"ce4bgvp2rcd13ifvqct0","pricing_plan_id":"cebpf4jnsgd1na2vs0mg"},{"bike_id":"23d143d1-3ad0-448c-a704-752010e19e0b","system_id":"levelo_inurba_marseille","lat":43.25513,"lon":5.37648,"is_reserved":false,"is_disabled":false,"rental_uris":{"android":"levelo://app?vid=23d143d1-3ad0-448c-a704-752010e19e0b","ios":"levelo://app?vid=23d143d1-3ad0-448c-a704-752010e19e0b"},"vehicle_type_id":"4","last_reported":1747980933,"current_range_meters":11200,"station_id":"ce4bhh12rcd13ifvqff0","pricing_plan_id":"cebpf4jnsgd1na2vs0mg"},{"bike_id":"4f68f3da-66ac-440c-8547-f73df5679140","system_id":"levelo_inurba_marseille","lat":43.29042,"lon":5.39976,"is_reserved":false,"is_disabled":false,"rental_uris":{"android":"levelo://app?vid=4f68f3da-66ac-440c-8547-f73df5679140","ios":"levelo://app?vid=4f68f3da-66ac-440c-8547-f73df5679140"},"vehicle_type_id":"4","last_reported":1747980933,"current_range_meters":11200,"station_id":"ce4bh392rcd13ifvqdm0","pricing_plan_id":"cebpf4jnsgd1na2vs0mg"},{"bike_id":"13684d16-f2e9-4f3f-8955-45e3cfb9e261","system_id":"levelo_inurba_marseille","lat":43.24176,"lon":5.39736,"is_reserved":false,"is_disabled":false,"rental_uris":{"android":"levelo://app?vid=13684d16-f2e9-4f3f-8955-45e3cfb9e261","ios":"levelo://app?vid=13684d16-f2e9-4f3f-8955-45e3cfb9e261"},"vehicle_type_id":"4","last_reported":1747980933,"current_range_meters":11200,"station_id":"ce4bhn12rcd13ifvqgpg","pricing_plan_id":"cebpf4jnsgd1na2vs0mg"},{"bike_id":"60e4ed4d-cb67-42d1-aa59-cd42a0868b56","system_id":"levelo_inurba_marseille","lat":43.241937,"lon":5.397407,"is_reserved":false,"is_disabled":false,"rental_uris":{"android":"levelo://app?vid=60e4ed4d-cb67-42d1-aa59-cd42a0868b56","ios":"levelo://app?vid=60e4ed4d-cb67-42d1-aa59-cd42a0868b56"},"vehicle_type_id":"4","last_reported":1747980933,"current_range_meters":11200,"station_id":"ce4bhn12rcd13ifvqgpg","pricing_plan_id":"cebpf4jnsgd1na2vs0mg"},{"bike_id":"7b8dafff-9079-40f1-aeef-34f7aff0021a","system_id":"levelo_inurba_marseille","lat":43.28414,"lon":5.34981,"is_reserved":false,"is_disabled":false,"rental_uris":{"android":"levelo://app?vid=7b8dafff-9079-40f1-aeef-34f7aff0021a","ios":"levelo://app?vid=7b8dafff-9079-40f1-aeef-34f7aff0021a"},"vehicle_type_id":"4","last_reported":1747980933,"current_range_meters":11200,"station_id":"ce4bhbh2rcd13ifvqepg","pricing_plan_id":"cebpf4jnsgd1na2vs0mg"},{"bike_id":"2c87c810-7a38-4e57-b8f4-53b1ff151be1","system_id":"levelo_inurba_marseille","lat":43.28605,"lon":5.3512,"is_reserved":false,"is_disabled":false,"rental_uris":{"android":"levelo://app?vid=2c87c810-7a38-4e57-b8f4-53b1ff151be1","ios":"levelo://app?vid=2c87c810-7a38-4e57-b8f4-53b1ff151be1"},"vehicle_type_id":"4","last_reported":1747980933,"current_range_meters":11200,"station_id":"ce4bhch2rcd13ifvqeug","pricing_plan_id":"cebpf4jnsgd1na2vs0mg"},{"bike_id":"eed511be-1a62-4434-a2ef-3b183c6b312b","system_id":"levelo_inurba_marseille","lat":43.30372,"lon":5.42508,"is_reserved":false,"is_disabled":false,"rental_uris":{"android":"levelo://app?vid=eed511be-1a62-4434-a2ef-3b183c6b312b","ios":"levelo://app?vid=eed511be-1a62-4434-a2ef-3b183c6b312b"},"vehicle_type_id":"4","last_reported":1747980933,"current_range_meters":11200,"station_id":"ce4bhoh2rcd13ifvqh6g","pricing_plan_id":"cebpf4jnsgd1na2vs0mg"},{"bike_id":"d0e8ed97-6f9e-4913-b1be-2fc698d05717","system_id":"levelo_inurba_marseille","lat":43.29935,"lon":5.36549,"is_reserved":false,"is_disabled":false,"rental_uris":{"android":"levelo://app?vid=d0e8ed97-6f9e-4913-b1be-2fc698d05717","ios":"levelo://app?vid=d0e8ed97-6f9e-4913-b1be-2fc698d05717"},"vehicle_type_id":"4","last_reported":1747980933,"current_range_meters":11200,"station_id":"ce4bgm92rcd13ifvqbr0","pricing_plan_id":"cebpf4jnsgd1na2vs0mg"},{"bike_id":"e7be9fe8-c8e4-4344-ad31-05c940b5efa9","system_id":"levelo_inurba_marseille","lat":43.30888,"lon":5.36844,"is_reserved":false,"is_disabled":false,"rental_uris":{"android":"levelo://app?vid=e7be9fe8-c8e4-4344-ad31-05c940b5efa9","ios":"levelo://app?vid=e7be9fe8-c8e4-4344-ad31-05c940b5efa9"},"vehicle_type_id":"4","last_reported":1747980933,"current_range_meters":11600,"station_id":"ce4bgn92rcd13ifvqbvg","pricing_plan_id":"cebpf4jnsgd1na2vs0mg"},{"bike_id":"fd8f6f5d-a213-413a-ba2a-2c9bbbf02a79","system_id":"levelo_inurba_marseille","lat":43.27925,"lon":5.39574,"is_reserved":false,"is_disabled":false,"rental_uris":{"android":"levelo://app?vid=fd8f6f5d-a213-413a-ba2a-2c9bbbf02a79","ios":"levelo://app?vid=fd8f6f5d-a213-413a-ba2a-2c9bbbf02a79"},"vehicle_type_id":"4","last_reported":1747980933,"current_range_meters":11600,"station_id":"ce4bhf92rcd13ifvqf40","pricing_plan_id":"cebpf4jnsgd1na2vs0mg"},{"bike_id":"70fe806d-6b8b-4310-8fe1-5a3e8b0e57d8","system_id":"levelo_inurba_marseille","lat":43.22932,"lon":5.35399,"is_reserved":false,"is_disabled":false,"rental_uris":{"android":"levelo://app?vid=70fe806d-6b8b-4310-8fe1-5a3e8b0e57d8","ios":"levelo://app?vid=70fe806d-6b8b-4310-8fe1-5a3e8b0e57d8"},"vehicle_type_id":"4","last_reported":1747980933,"current_range_meters":11600,"station_id":"cpo3532slgdg3j2ikp40","pricing_plan_id":"cebpf4jnsgd1na2vs0mg"},{"bike_id":"78d6a209-fed5-4de9-a5db-bd3b974836d1","system_id":"levelo_inurba_marseille","lat":43.286181,"lon":5.350983,"is_reserved":false,"is_disabled":false,"rental_uris":{"android":"levelo://app?vid=78d6a209-fed5-4de9-a5db-bd3b974836d1","ios":"levelo://app?vid=78d6a209-fed5-4de9-a5db-bd3b974836d1"},"vehicle_type_id":"4","last_reported":1747980933,"current_range_meters":11600,"station_id":"ce4bhch2rcd13ifvqeug","pricing_plan_id":"cebpf4jnsgd1na2vs0mg"},{"bike_id":"1cb9a5ad-419b-4b4f-943b-a3e9fce4e91a","system_id":"levelo_inurba_marseille","lat":43.31716,"lon":5.4046,"is_reserved":false,"is_disabled":false,"rental_uris":{"android":"levelo://app?vid=1cb9a5ad-419b-4b4f-943b-a3e9fce4e91a","ios":"levelo://app?vid=1cb9a5ad-419b-4b4f-943b-a3e9fce4e91a"},"vehicle_type_id":"4","last_reported":1747980933,"current_range_meters":11600,"station_id":"ce4bh012rcd13ifvqd00","pricing_plan_id":"cebpf4jnsgd1na2vs0mg"},{"bike_id":"e85710d8-0451-4310-9d43-3629429d8bc9","system_id":"levelo_inurba_marseille","lat":43.30909,"lon":5.36844,"is_reserved":false,"is_disabled":false,"rental_uris":{"android":"levelo://app?vid=e85710d8-0451-4310-9d43-3629429d8bc9","ios":"levelo://app?vid=e85710d8-0451-4310-9d43-3629429d8bc9"},"vehicle_type_id":"4","last_reported":1747980933,"current_range_meters":11600,"station_id":"ce4bgn92rcd13ifvqbvg","pricing_plan_id":"cebpf4jnsgd1na2vs0mg"},{"bike_id":"493086b0-dac6-4907-b03d-f7e96956f412","system_id":"levelo_inurba_marseille","lat":43.31243,"lon":5.3686,"is_reserved":false,"is_disabled":false,"rental_uris":{"android":"levelo://app?vid=493086b0-dac6-4907-b03d-f7e96956f412","ios":"levelo://app?vid=493086b0-dac6-4907-b03d-f7e96956f412"},"vehicle_type_id":"4","last_reported":1747980933,"current_range_meters":12000,"station_id":"ce4bgl92rcd13ifvqbq0","pricing_plan_id":"cebpf4jnsgd1na2vs0mg"},{"bike_id":"b4b7cb88-0621-40ae-a71e-e68719132e95","system_id":"levelo_inurba_marseille","lat":43.29249,"lon":5.36067,"is_reserved":false,"is_disabled":false,"rental_uris":{"android":"levelo://app?vid=b4b7cb88-0621-40ae-a71e-e68719132e95","ios":"levelo://app?vid=b4b7cb88-0621-40ae-a71e-e68719132e95"},"vehicle_type_id":"4","last_reported":1747980933,"current_range_meters":12000,"station_id":"ce4bhbh2rcd13ifvqeqg","pricing_plan_id":"cebpf4jnsgd1na2vs0mg"},{"bike_id":"d9cedd87-60a9-44d9-b244-855865e44d16","system_id":"levelo_inurba_marseille","lat":43.2602,"lon":5.37565,"is_reserved":false,"is_disabled":false,"rental_uris":{"android":"levelo://app?vid=d9cedd87-60a9-44d9-b244-855865e44d16","ios":"levelo://app?vid=d9cedd87-60a9-44d9-b244-855865e44d16"},"vehicle_type_id":"4","last_reported":1747980933,"current_range_meters":12000,"station_id":"ce4bhgh2rcd13ifvqfa0","pricing_plan_id":"cebpf4jnsgd1na2vs0mg"},{"bike_id":"bbd48f16-c6b8-435c-a262-a4bc20795b51","system_id":"levelo_inurba_marseille","lat":43.255822,"lon":5.382385,"is_reserved":false,"is_disabled":false,"rental_uris":{"android":"levelo://app?vid=bbd48f16-c6b8-435c-a262-a4bc20795b51","ios":"levelo://app?vid=bbd48f16-c6b8-435c-a262-a4bc20795b51"},"vehicle_type_id":"4","last_reported":1747980933,"current_range_meters":12000,"station_id":"ce4bhih2rcd13ifvqfs0","pricing_plan_id":"cebpf4jnsgd1na2vs0mg"},{"bike_id":"33416cf4-f5b4-4c12-8feb-dff0d93413c2","system_id":"levelo_inurba_marseille","lat":43.21746,"lon":5.34594,"is_reserved":false,"is_disabled":false,"rental_uris":{"android":"levelo://app?vid=33416cf4-f5b4-4c12-8feb-dff0d93413c2","ios":"levelo://app?vid=33416cf4-f5b4-4c12-8feb-dff0d93413c2"},"vehicle_type_id":"4","last_reported":1747980933,"current_range_meters":12000,"station_id":"","pricing_plan_id":"cebpf4jnsgd1na2vs0mg"},{"bike_id":"811bfdc2-f130-4bad-bf4f-acc07bae2e39","system_id":"levelo_inurba_marseille","lat":43.30259,"lon":5.40083,"is_reserved":false,"is_disabled":false,"rental_uris":{"android":"levelo://app?vid=811bfdc2-f130-4bad-bf4f-acc07bae2e39","ios":"levelo://app?vid=811bfdc2-f130-4bad-bf4f-acc07bae2e39"},"vehicle_type_id":"4","last_reported":1747980933,"current_range_meters":12000,"station_id":"ce4bgvh2rcd13ifvqcs0","pricing_plan_id":"cebpf4jnsgd1na2vs0mg"},{"bike_id":"3a1e6be1-b28c-44d5-9fff-616b72420ce6","system_id":"levelo_inurba_marseille","lat":43.32236,"lon":5.36772,"is_reserved":false,"is_disabled":false,"rental_uris":{"android":"levelo://app?vid=3a1e6be1-b28c-44d5-9fff-616b72420ce6","ios":"levelo://app?vid=3a1e6be1-b28c-44d5-9fff-616b72420ce6"},"vehicle_type_id":"4","last_reported":1747980933,"current_range_meters":12400,"station_id":"","pricing_plan_id":"cebpf4jnsgd1na2vs0mg"},{"bike_id":"e3704a38-2bed-44ff-80f6-05509c362ad2","system_id":"levelo_inurba_marseille","lat":43.284826,"lon":5.385688,"is_reserved":false,"is_disabled":true,"rental_uris":{"android":"levelo://app?vid=e3704a38-2bed-44ff-80f6-05509c362ad2","ios":"levelo://app?vid=e3704a38-2bed-44ff-80f6-05509c362ad2"},"vehicle_type_id":"4","last_reported":1747980933,"current_range_meters":12400,"station_id":"ce4bh8p2rcd13ifvqeb0","pricing_plan_id":"cebpf4jnsgd1na2vs0mg"},{"bike_id":"bdb49952-43ea-4fa3-9852-1c6b8d72958b","system_id":"levelo_inurba_marseille","lat":43.32539,"lon":5.41446,"is_reserved":false,"is_disabled":false,"rental_uris":{"android":"levelo://app?vid=bdb49952-43ea-4fa3-9852-1c6b8d72958b","ios":"levelo://app?vid=bdb49952-43ea-4fa3-9852-1c6b8d72958b"},"vehicle_type_id":"4","last_reported":1747980933,"current_range_meters":12400,"station_id":"ce4bhq12rcd13ifvqhhg","pricing_plan_id":"cebpf4jnsgd1na2vs0mg"},{"bike_id":"f5aa6fdf-ff4f-4431-a12e-a122171f0a50","system_id":"levelo_inurba_marseille","lat":43.31347,"lon":5.36723,"is_reserved":false,"is_disabled":false,"rental_uris":{"android":"levelo://app?vid=f5aa6fdf-ff4f-4431-a12e-a122171f0a50","ios":"levelo://app?vid=f5aa6fdf-ff4f-4431-a12e-a122171f0a50"},"vehicle_type_id":"4","last_reported":1747980933,"current_range_meters":12400,"station_id":"ce4bgr92rcd13ifvqc6g","pricing_plan_id":"cebpf4jnsgd1na2vs0mg"},{"bike_id":"1f8f2cf8-e258-4b66-9b66-66da44b9c55c","system_id":"levelo_inurba_marseille","lat":43.30989,"lon":5.40222,"is_reserved":false,"is_disabled":false,"rental_uris":{"android":"levelo://app?vid=1f8f2cf8-e258-4b66-9b66-66da44b9c55c","ios":"levelo://app?vid=1f8f2cf8-e258-4b66-9b66-66da44b9c55c"},"vehicle_type_id":"4","last_reported":1747980933,"current_range_meters":12400,"station_id":"","pricing_plan_id":"cebpf4jnsgd1na2vs0mg"},{"bike_id":"7a174cf0-49bb-442b-9787-ed977ba34ca4","system_id":"levelo_inurba_marseille","lat":43.241665,"lon":5.397362,"is_reserved":false,"is_disabled":false,"rental_uris":{"android":"levelo://app?vid=7a174cf0-49bb-442b-9787-ed977ba34ca4","ios":"levelo://app?vid=7a174cf0-49bb-442b-9787-ed977ba34ca4"},"vehicle_type_id":"4","last_reported":1747980933,"current_range_meters":12800,"station_id":"ce4bhn12rcd13ifvqgpg","pricing_plan_id":"cebpf4jnsgd1na2vs0mg"},{"bike_id":"5bc4128a-3434-4133-89a1-0af1db724532","system_id":"levelo_inurba_marseille","lat":43.24071,"lon":5.3777,"is_reserved":false,"is_disabled":false,"rental_uris":{"android":"levelo://app?vid=5bc4128a-3434-4133-89a1-0af1db724532","ios":"levelo://app?vid=5bc4128a-3434-4133-89a1-0af1db724532"},"vehicle_type_id":"4","last_reported":1747980933,"current_range_meters":12800,"station_id":"ce4bhnp2rcd13ifvqgvg","pricing_plan_id":"cebpf4jnsgd1na2vs0mg"},{"bike_id":"6a9fdd0e-1689-4094-9541-ccc3e1034ee2","system_id":"levelo_inurba_marseille","lat":43.26569,"lon":5.39006,"is_reserved":false,"is_disabled":false,"rental_uris":{"android":"levelo://app?vid=6a9fdd0e-1689-4094-9541-ccc3e1034ee2","ios":"levelo://app?vid=6a9fdd0e-1689-4094-9541-ccc3e1034ee2"},"vehicle_type_id":"4","last_reported":1747980933,"current_range_meters":12800,"station_id":"ce4bhe12rcd13ifvqf30","pricing_plan_id":"cebpf4jnsgd1na2vs0mg"},{"bike_id":"6dde22b3-be2c-4353-838d-05c85608e4d3","system_id":"levelo_inurba_marseille","lat":43.323626,"lon":5.367543,"is_reserved":false,"is_disabled":false,"rental_uris":{"android":"levelo://app?vid=6dde22b3-be2c-4353-838d-05c85608e4d3","ios":"levelo://app?vid=6dde22b3-be2c-4353-838d-05c85608e4d3"},"vehicle_type_id":"4","last_reported":1747980933,"current_range_meters":12800,"station_id":"ce4bhsh2rcd13ifvqi2g","pricing_plan_id":"cebpf4jnsgd1na2vs0mg"},{"bike_id":"0e27a530-5aca-4bdb-bcfe-2711f03311f8","system_id":"levelo_inurba_marseille","lat":43.21763,"lon":5.34606,"is_reserved":false,"is_disabled":false,"rental_uris":{"android":"levelo://app?vid=0e27a530-5aca-4bdb-bcfe-2711f03311f8","ios":"levelo://app?vid=0e27a530-5aca-4bdb-bcfe-2711f03311f8"},"vehicle_type_id":"4","last_reported":1747980933,"current_range_meters":12800,"station_id":"st_cvj6r9ubvosntc0bgbag","pricing_plan_id":"cebpf4jnsgd1na2vs0mg"},{"bike_id":"1a340bac-8012-4c7c-b50a-247d19f083a9","system_id":"levelo_inurba_marseille","lat":43.22463,"lon":5.34808,"is_reserved":false,"is_disabled":false,"rental_uris":{"android":"levelo://app?vid=1a340bac-8012-4c7c-b50a-247d19f083a9","ios":"levelo://app?vid=1a340bac-8012-4c7c-b50a-247d19f083a9"},"vehicle_type_id":"4","last_reported":1747980933,"current_range_meters":13600,"station_id":"st_cvj5dfep6f1abm77gieg","pricing_plan_id":"cebpf4jnsgd1na2vs0mg"},{"bike_id":"aa4919e0-7ad9-4a0c-b429-0f8e8c6d80ed","system_id":"levelo_inurba_marseille","lat":43.29259,"lon":5.40907,"is_reserved":false,"is_disabled":false,"rental_uris":{"android":"levelo://app?vid=aa4919e0-7ad9-4a0c-b429-0f8e8c6d80ed","ios":"levelo://app?vid=aa4919e0-7ad9-4a0c-b429-0f8e8c6d80ed"},"vehicle_type_id":"4","last_reported":1747980933,"current_range_meters":13600,"station_id":"ce4bh192rcd13ifvqdc0","pricing_plan_id":"cebpf4jnsgd1na2vs0mg"},{"bike_id":"1e164eaf-2ffb-4814-9442-b43f6b5c9f80","system_id":"levelo_inurba_marseille","lat":43.24143,"lon":5.36395,"is_reserved":false,"is_disabled":false,"rental_uris":{"android":"levelo://app?vid=1e164eaf-2ffb-4814-9442-b43f6b5c9f80","ios":"levelo://app?vid=1e164eaf-2ffb-4814-9442-b43f6b5c9f80"},"vehicle_type_id":"4","last_reported":1747980933,"current_range_meters":13600,"station_id":"cpo36qri1sfpv3e86is0","pricing_plan_id":"cebpf4jnsgd1na2vs0mg"},{"bike_id":"8f5ad702-5ff8-41ee-b034-3d5a2428c0c5","system_id":"levelo_inurba_marseille","lat":43.25133,"lon":5.40332,"is_reserved":false,"is_disabled":false,"rental_uris":{"android":"levelo://app?vid=8f5ad702-5ff8-41ee-b034-3d5a2428c0c5","ios":"levelo://app?vid=8f5ad702-5ff8-41ee-b034-3d5a2428c0c5"},"vehicle_type_id":"4","last_reported":1747980933,"current_range_meters":13600,"station_id":"ce4bhlh2rcd13ifvqgig","pricing_plan_id":"cebpf4jnsgd1na2vs0mg"},{"bike_id":"b138d1cc-9fe4-4dad-b078-790748d99d8e","system_id":"levelo_inurba_marseille","lat":43.273739,"lon":5.362505,"is_reserved":false,"is_disabled":false,"rental_uris":{"android":"levelo://app?vid=b138d1cc-9fe4-4dad-b078-790748d99d8e","ios":"levelo://app?vid=b138d1cc-9fe4-4dad-b078-790748d99d8e"},"vehicle_type_id":"4","last_reported":1747980933,"current_range_meters":13600,"station_id":"ce4bhbh2rcd13ifvqeo0","pricing_plan_id":"cebpf4jnsgd1na2vs0mg"},{"bike_id":"ab80771e-f81b-49fe-8a64-148d17007c59","system_id":"levelo_inurba_marseille","lat":43.246516,"lon":5.388955,"is_reserved":false,"is_disabled":false,"rental_uris":{"android":"levelo://app?vid=ab80771e-f81b-49fe-8a64-148d17007c59","ios":"levelo://app?vid=ab80771e-f81b-49fe-8a64-148d17007c59"},"vehicle_type_id":"4","last_reported":1747980933,"current_range_meters":14000,"station_id":"ce4bhg12rcd13ifvqf60","pricing_plan_id":"cebpf4jnsgd1na2vs0mg"},{"bike_id":"77b1dc6b-3ee8-4d01-b1b4-d6d11f01824a","system_id":"levelo_inurba_marseille","lat":43.306458,"lon":5.400948,"is_reserved":false,"is_disabled":false,"rental_uris":{"android":"levelo://app?vid=77b1dc6b-3ee8-4d01-b1b4-d6d11f01824a","ios":"levelo://app?vid=77b1dc6b-3ee8-4d01-b1b4-d6d11f01824a"},"vehicle_type_id":"4","last_reported":1747980933,"current_range_meters":14000,"station_id":"ce4bh112rcd13ifvqda0","pricing_plan_id":"cebpf4jnsgd1na2vs0mg"},{"bike_id":"c229c081-010e-4440-9048-8ff8ebe7c57a","system_id":"levelo_inurba_marseille","lat":43.3149,"lon":5.37305,"is_reserved":false,"is_disabled":false,"rental_uris":{"android":"levelo://app?vid=c229c081-010e-4440-9048-8ff8ebe7c57a","ios":"levelo://app?vid=c229c081-010e-4440-9048-8ff8ebe7c57a"},"vehicle_type_id":"4","last_reported":1747980933,"current_range_meters":14000,"station_id":"ce4bgt12rcd13ifvqcd0","pricing_plan_id":"cebpf4jnsgd1na2vs0mg"},{"bike_id":"b524f370-847d-4ec1-9ede-6a4024cf9277","system_id":"levelo_inurba_marseille","lat":43.27959,"lon":5.41049,"is_reserved":false,"is_disabled":false,"rental_uris":{"android":"levelo://app?vid=b524f370-847d-4ec1-9ede-6a4024cf9277","ios":"levelo://app?vid=b524f370-847d-4ec1-9ede-6a4024cf9277"},"vehicle_type_id":"4","last_reported":1747980933,"current_range_meters":14000,"station_id":"ce4bhnp2rcd13ifvqh0g","pricing_plan_id":"cebpf4jnsgd1na2vs0mg"},{"bike_id":"beb93ece-8a2b-401d-b7e3-ad77b01ce941","system_id":"levelo_inurba_marseille","lat":43.21748,"lon":5.34594,"is_reserved":false,"is_disabled":false,"rental_uris":{"android":"levelo://app?vid=beb93ece-8a2b-401d-b7e3-ad77b01ce941","ios":"levelo://app?vid=beb93ece-8a2b-401d-b7e3-ad77b01ce941"},"vehicle_type_id":"4","last_reported":1747980933,"current_range_meters":14000,"station_id":"st_cvj6r9ubvosntc0bgbag","pricing_plan_id":"cebpf4jnsgd1na2vs0mg"},{"bike_id":"0c713d98-0666-4d95-b0d3-651ec2560a13","system_id":"levelo_inurba_marseille","lat":43.26558,"lon":5.39012,"is_reserved":false,"is_disabled":false,"rental_uris":{"android":"levelo://app?vid=0c713d98-0666-4d95-b0d3-651ec2560a13","ios":"levelo://app?vid=0c713d98-0666-4d95-b0d3-651ec2560a13"},"vehicle_type_id":"4","last_reported":1747980933,"current_range_meters":14000,"station_id":"ce4bhe12rcd13ifvqf30","pricing_plan_id":"cebpf4jnsgd1na2vs0mg"},{"bike_id":"55e5d252-aa07-44ad-8241-5334d32d9571","system_id":"levelo_inurba_marseille","lat":43.31344,"lon":5.36723,"is_reserved":false,"is_disabled":false,"rental_uris":{"android":"levelo://app?vid=55e5d252-aa07-44ad-8241-5334d32d9571","ios":"levelo://app?vid=55e5d252-aa07-44ad-8241-5334d32d9571"},"vehicle_type_id":"4","last_reported":1747980933,"current_range_meters":14000,"station_id":"ce4bgr92rcd13ifvqc6g","pricing_plan_id":"cebpf4jnsgd1na2vs0mg"},{"bike_id":"605be4bf-deee-4b33-a4cb-0294e9797557","system_id":"levelo_inurba_marseille","lat":43.23063,"lon":5.35484,"is_reserved":false,"is_disabled":false,"rental_uris":{"android":"levelo://app?vid=605be4bf-deee-4b33-a4cb-0294e9797557","ios":"levelo://app?vid=605be4bf-deee-4b33-a4cb-0294e9797557"},"vehicle_type_id":"4","last_reported":1747980933,"current_range_meters":14000,"station_id":"cpo3342slgdg3j2ifvpg","pricing_plan_id":"cebpf4jnsgd1na2vs0mg"},{"bike_id":"b5d219f3-a9c3-4f8e-b8d9-c239463b65ad","system_id":"levelo_inurba_marseille","lat":43.246654,"lon":5.381674,"is_reserved":false,"is_disabled":false,"rental_uris":{"android":"levelo://app?vid=b5d219f3-a9c3-4f8e-b8d9-c239463b65ad","ios":"levelo://app?vid=b5d219f3-a9c3-4f8e-b8d9-c239463b65ad"},"vehicle_type_id":"4","last_reported":1747980933,"current_range_meters":14000,"station_id":"ce4bhih2rcd13ifvqfr0","pricing_plan_id":"cebpf4jnsgd1na2vs0mg"},{"bike_id":"0fbe8b2e-ab95-4b66-8ec5-d32396b46719","system_id":"levelo_inurba_marseille","lat":43.26948,"lon":5.38621,"is_reserved":false,"is_disabled":false,"rental_uris":{"android":"levelo://app?vid=0fbe8b2e-ab95-4b66-8ec5-d32396b46719","ios":"levelo://app?vid=0fbe8b2e-ab95-4b66-8ec5-d32396b46719"},"vehicle_type_id":"4","last_reported":1747980933,"current_range_meters":14400,"station_id":"ce4bhh92rcd13ifvqfh0","pricing_plan_id":"cebpf4jnsgd1na2vs0mg"},{"bike_id":"85142c3d-3ba2-4b4a-bc77-ebbfc5378a88","system_id":"levelo_inurba_marseille","lat":43.254954,"lon":5.376681,"is_reserved":false,"is_disabled":false,"rental_uris":{"android":"levelo://app?vid=85142c3d-3ba2-4b4a-bc77-ebbfc5378a88","ios":"levelo://app?vid=85142c3d-3ba2-4b4a-bc77-ebbfc5378a88"},"vehicle_type_id":"4","last_reported":1747980933,"current_range_meters":14400,"station_id":"ce4bhh12rcd13ifvqff0","pricing_plan_id":"cebpf4jnsgd1na2vs0mg"},{"bike_id":"124d038b-39ac-4185-9861-0d91e8953561","system_id":"levelo_inurba_marseille","lat":43.31395,"lon":5.38505,"is_reserved":false,"is_disabled":false,"rental_uris":{"android":"levelo://app?vid=124d038b-39ac-4185-9861-0d91e8953561","ios":"levelo://app?vid=124d038b-39ac-4185-9861-0d91e8953561"},"vehicle_type_id":"4","last_reported":1747980933,"current_range_meters":14400,"station_id":"ce4bgt92rcd13ifvqcf0","pricing_plan_id":"cebpf4jnsgd1na2vs0mg"},{"bike_id":"768e7e39-cc0b-4413-9377-1622e75b94d4","system_id":"levelo_inurba_marseille","lat":43.2749,"lon":5.42459,"is_reserved":false,"is_disabled":false,"rental_uris":{"android":"levelo://app?vid=768e7e39-cc0b-4413-9377-1622e75b94d4","ios":"levelo://app?vid=768e7e39-cc0b-4413-9377-1622e75b94d4"},"vehicle_type_id":"4","last_reported":1747980933,"current_range_meters":14000,"station_id":"ce4bhn92rcd13ifvqgrg","pricing_plan_id":"cebpf4jnsgd1na2vs0mg"},{"bike_id":"a63517d6-1d09-4803-a217-893c80757b63","system_id":"levelo_inurba_marseille","lat":43.28438,"lon":5.34999,"is_reserved":false,"is_disabled":false,"rental_uris":{"android":"levelo://app?vid=a63517d6-1d09-4803-a217-893c80757b63","ios":"levelo://app?vid=a63517d6-1d09-4803-a217-893c80757b63"},"vehicle_type_id":"4","last_reported":1747980933,"current_range_meters":14800,"station_id":"ce4bhbh2rcd13ifvqepg","pricing_plan_id":"cebpf4jnsgd1na2vs0mg"},{"bike_id":"166b3818-fb53-41f9-bcdb-edbb9f4c7daf","system_id":"levelo_inurba_marseille","lat":43.26575,"lon":5.39013,"is_reserved":false,"is_disabled":false,"rental_uris":{"android":"levelo://app?vid=166b3818-fb53-41f9-bcdb-edbb9f4c7daf","ios":"levelo://app?vid=166b3818-fb53-41f9-bcdb-edbb9f4c7daf"},"vehicle_type_id":"4","last_reported":1747980933,"current_range_meters":14800,"station_id":"ce4bhe12rcd13ifvqf30","pricing_plan_id":"cebpf4jnsgd1na2vs0mg"},{"bike_id":"1daed858-eab9-44a6-990a-cd3dc3a8078f","system_id":"levelo_inurba_marseille","lat":43.24058,"lon":5.37705,"is_reserved":false,"is_disabled":true,"rental_uris":{"android":"levelo://app?vid=1daed858-eab9-44a6-990a-cd3dc3a8078f","ios":"levelo://app?vid=1daed858-eab9-44a6-990a-cd3dc3a8078f"},"vehicle_type_id":"4","last_reported":1747980933,"current_range_meters":14800,"station_id":"ce4bhnp2rcd13ifvqgvg","pricing_plan_id":"cebpf4jnsgd1na2vs0mg"},{"bike_id":"3f66cb67-d77d-438d-9cea-3915d2842f58","system_id":"levelo_inurba_marseille","lat":43.31494,"lon":5.37267,"is_reserved":false,"is_disabled":false,"rental_uris":{"android":"levelo://app?vid=3f66cb67-d77d-438d-9cea-3915d2842f58","ios":"levelo://app?vid=3f66cb67-d77d-438d-9cea-3915d2842f58"},"vehicle_type_id":"4","last_reported":1747980933,"current_range_meters":14800,"station_id":"ce4bgt12rcd13ifvqcd0","pricing_plan_id":"cebpf4jnsgd1na2vs0mg"},{"bike_id":"c6bf2e46-fb2f-4485-b1e5-f93500b0678b","system_id":"levelo_inurba_marseille","lat":43.23048,"lon":5.35482,"is_reserved":false,"is_disabled":false,"rental_uris":{"android":"levelo://app?vid=c6bf2e46-fb2f-4485-b1e5-f93500b0678b","ios":"levelo://app?vid=c6bf2e46-fb2f-4485-b1e5-f93500b0678b"},"vehicle_type_id":"4","last_reported":1747980933,"current_range_meters":14800,"station_id":"cpo3342slgdg3j2ifvpg","pricing_plan_id":"cebpf4jnsgd1na2vs0mg"},{"bike_id":"5d4db667-067b-4829-8b02-a50562979fa9","system_id":"levelo_inurba_marseille","lat":43.299243,"lon":5.365613,"is_reserved":false,"is_disabled":false,"rental_uris":{"android":"levelo://app?vid=5d4db667-067b-4829-8b02-a50562979fa9","ios":"levelo://app?vid=5d4db667-067b-4829-8b02-a50562979fa9"},"vehicle_type_id":"4","last_reported":1747980933,"current_range_meters":14800,"station_id":"ce4bgrp2rcd13ifvqc9g","pricing_plan_id":"cebpf4jnsgd1na2vs0mg"},{"bike_id":"a798eef8-c007-4e16-853c-244b6e137a9a","system_id":"levelo_inurba_marseille","lat":43.28421,"lon":5.34979,"is_reserved":false,"is_disabled":false,"rental_uris":{"android":"levelo://app?vid=a798eef8-c007-4e16-853c-244b6e137a9a","ios":"levelo://app?vid=a798eef8-c007-4e16-853c-244b6e137a9a"},"vehicle_type_id":"4","last_reported":1747980933,"current_range_meters":14800,"station_id":"ce4bhbh2rcd13ifvqepg","pricing_plan_id":"cebpf4jnsgd1na2vs0mg"},{"bike_id":"385a65af-0f0c-4b2d-bfb3-0a61e71f87d1","system_id":"levelo_inurba_marseille","lat":43.28614,"lon":5.35092,"is_reserved":false,"is_disabled":false,"rental_uris":{"android":"levelo://app?vid=385a65af-0f0c-4b2d-bfb3-0a61e71f87d1","ios":"levelo://app?vid=385a65af-0f0c-4b2d-bfb3-0a61e71f87d1"},"vehicle_type_id":"4","last_reported":1747980933,"current_range_meters":15200,"station_id":"ce4bhch2rcd13ifvqeug","pricing_plan_id":"cebpf4jnsgd1na2vs0mg"},{"bike_id":"5521636b-a3b4-4a1b-9cc4-a0ea5c14391c","system_id":"levelo_inurba_marseille","lat":43.240712,"lon":5.377594,"is_reserved":false,"is_disabled":false,"rental_uris":{"android":"levelo://app?vid=5521636b-a3b4-4a1b-9cc4-a0ea5c14391c","ios":"levelo://app?vid=5521636b-a3b4-4a1b-9cc4-a0ea5c14391c"},"vehicle_type_id":"4","last_reported":1747980933,"current_range_meters":15200,"station_id":"ce4bhnp2rcd13ifvqgvg","pricing_plan_id":"cebpf4jnsgd1na2vs0mg"},{"bike_id":"08dfcb2c-4e60-4733-bbc4-fc42f1397daa","system_id":"levelo_inurba_marseille","lat":43.305453,"lon":5.365615,"is_reserved":false,"is_disabled":false,"rental_uris":{"android":"levelo://app?vid=08dfcb2c-4e60-4733-bbc4-fc42f1397daa","ios":"levelo://app?vid=08dfcb2c-4e60-4733-bbc4-fc42f1397daa"},"vehicle_type_id":"4","last_reported":1747980933,"current_range_meters":16000,"station_id":"ce4bgs12rcd13ifvqcag","pricing_plan_id":"cebpf4jnsgd1na2vs0mg"},{"bike_id":"44bf4f31-02f4-409f-9db8-6e3a31bb5869","system_id":"levelo_inurba_marseille","lat":43.27236,"lon":5.39192,"is_reserved":false,"is_disabled":false,"rental_uris":{"android":"levelo://app?vid=44bf4f31-02f4-409f-9db8-6e3a31bb5869","ios":"levelo://app?vid=44bf4f31-02f4-409f-9db8-6e3a31bb5869"},"vehicle_type_id":"4","last_reported":1747980933,"current_range_meters":16000,"station_id":"ce4bhhp2rcd13ifvqfm0","pricing_plan_id":"cebpf4jnsgd1na2vs0mg"},{"bike_id":"34d4113c-1559-4750-a287-aa6c21337605","system_id":"levelo_inurba_marseille","lat":43.29274,"lon":5.4017,"is_reserved":false,"is_disabled":false,"rental_uris":{"android":"levelo://app?vid=34d4113c-1559-4750-a287-aa6c21337605","ios":"levelo://app?vid=34d4113c-1559-4750-a287-aa6c21337605"},"vehicle_type_id":"4","last_reported":1747980933,"current_range_meters":16000,"station_id":"ce4bh312rcd13ifvqdk0","pricing_plan_id":"cebpf4jnsgd1na2vs0mg"},{"bike_id":"f84e7850-4e38-4a2f-8058-4b5888bcc49b","system_id":"levelo_inurba_marseille","lat":43.32096,"lon":5.36771,"is_reserved":false,"is_disabled":false,"rental_uris":{"android":"levelo://app?vid=f84e7850-4e38-4a2f-8058-4b5888bcc49b","ios":"levelo://app?vid=f84e7850-4e38-4a2f-8058-4b5888bcc49b"},"vehicle_type_id":"4","last_reported":1747980933,"current_range_meters":16000,"station_id":"ce4bhrh2rcd13ifvqhug","pricing_plan_id":"cebpf4jnsgd1na2vs0mg"},{"bike_id":"76ad4f59-0eb5-4f0d-ab80-dcdd4c7112e9","system_id":"levelo_inurba_marseille","lat":43.265524,"lon":5.372838,"is_reserved":false,"is_disabled":false,"rental_uris":{"android":"levelo://app?vid=76ad4f59-0eb5-4f0d-ab80-dcdd4c7112e9","ios":"levelo://app?vid=76ad4f59-0eb5-4f0d-ab80-dcdd4c7112e9"},"vehicle_type_id":"4","last_reported":1747980933,"current_range_meters":16000,"station_id":"ce4bhg12rcd13ifvqf70","pricing_plan_id":"cebpf4jnsgd1na2vs0mg"},{"bike_id":"3c627d69-a2b4-4f60-8a0a-c04c968f8c35","system_id":"levelo_inurba_marseille","lat":43.21744,"lon":5.3459,"is_reserved":false,"is_disabled":false,"rental_uris":{"android":"levelo://app?vid=3c627d69-a2b4-4f60-8a0a-c04c968f8c35","ios":"levelo://app?vid=3c627d69-a2b4-4f60-8a0a-c04c968f8c35"},"vehicle_type_id":"4","last_reported":1747980933,"current_range_meters":16000,"station_id":"st_cvj6r9ubvosntc0bgbag","pricing_plan_id":"cebpf4jnsgd1na2vs0mg"},{"bike_id":"1f6bca8b-903e-498d-8ef0-7f16f5de50b5","system_id":"levelo_inurba_marseille","lat":43.28918,"lon":5.36408,"is_reserved":false,"is_disabled":false,"rental_uris":{"android":"levelo://app?vid=1f6bca8b-903e-498d-8ef0-7f16f5de50b5","ios":"levelo://app?vid=1f6bca8b-903e-498d-8ef0-7f16f5de50b5"},"vehicle_type_id":"4","last_reported":1747980933,"current_range_meters":16000,"station_id":"ce4bhc92rcd13ifvqetg","pricing_plan_id":"cebpf4jnsgd1na2vs0mg"},{"bike_id":"63341ddf-e350-484d-a986-181d375b842c","system_id":"levelo_inurba_marseille","lat":43.24074,"lon":5.37755,"is_reserved":false,"is_disabled":false,"rental_uris":{"android":"levelo://app?vid=63341ddf-e350-484d-a986-181d375b842c","ios":"levelo://app?vid=63341ddf-e350-484d-a986-181d375b842c"},"vehicle_type_id":"4","last_reported":1747980933,"current_range_meters":16000,"station_id":"ce4bhnp2rcd13ifvqgvg","pricing_plan_id":"cebpf4jnsgd1na2vs0mg"},{"bike_id":"03c27706-dafc-4e44-b173-3742dda15e11","system_id":"levelo_inurba_marseille","lat":43.23201,"lon":5.35549,"is_reserved":false,"is_disabled":false,"rental_uris":{"android":"levelo://app?vid=03c27706-dafc-4e44-b173-3742dda15e11","ios":"levelo://app?vid=03c27706-dafc-4e44-b173-3742dda15e11"},"vehicle_type_id":"4","last_reported":1747980933,"current_range_meters":16000,"station_id":"ce4bhu92rcd13ifvqi70","pricing_plan_id":"cebpf4jnsgd1na2vs0mg"},{"bike_id":"6a4c7252-44b1-49df-a0f9-8b8fe5610dac","system_id":"levelo_inurba_marseille","lat":43.270621,"lon":5.402534,"is_reserved":false,"is_disabled":false,"rental_uris":{"android":"levelo://app?vid=6a4c7252-44b1-49df-a0f9-8b8fe5610dac","ios":"levelo://app?vid=6a4c7252-44b1-49df-a0f9-8b8fe5610dac"},"vehicle_type_id":"4","last_reported":1747980933,"current_range_meters":16000,"station_id":"ce4bhk92rcd13ifvqgc0","pricing_plan_id":"cebpf4jnsgd1na2vs0mg"},{"bike_id":"7a5bbfb1-dafb-4777-8f4b-4b1e0e7c5d19","system_id":"levelo_inurba_marseille","lat":43.273718,"lon":5.362494,"is_reserved":false,"is_disabled":false,"rental_uris":{"android":"levelo://app?vid=7a5bbfb1-dafb-4777-8f4b-4b1e0e7c5d19","ios":"levelo://app?vid=7a5bbfb1-dafb-4777-8f4b-4b1e0e7c5d19"},"vehicle_type_id":"4","last_reported":1747980933,"current_range_meters":16000,"station_id":"ce4bhbh2rcd13ifvqeo0","pricing_plan_id":"cebpf4jnsgd1na2vs0mg"},{"bike_id":"709b5dcf-0ff3-48ee-a683-9641d023334c","system_id":"levelo_inurba_marseille","lat":43.29242,"lon":5.36068,"is_reserved":false,"is_disabled":false,"rental_uris":{"android":"levelo://app?vid=709b5dcf-0ff3-48ee-a683-9641d023334c","ios":"levelo://app?vid=709b5dcf-0ff3-48ee-a683-9641d023334c"},"vehicle_type_id":"4","last_reported":1747980933,"current_range_meters":16400,"station_id":"ce4bhbh2rcd13ifvqeqg","pricing_plan_id":"cebpf4jnsgd1na2vs0mg"},{"bike_id":"fc8c72ad-ca61-42c6-ae90-f61b57e45328","system_id":"levelo_inurba_marseille","lat":43.27891,"lon":5.41853,"is_reserved":false,"is_disabled":false,"rental_uris":{"android":"levelo://app?vid=fc8c72ad-ca61-42c6-ae90-f61b57e45328","ios":"levelo://app?vid=fc8c72ad-ca61-42c6-ae90-f61b57e45328"},"vehicle_type_id":"4","last_reported":1747980933,"current_range_meters":16400,"station_id":"","pricing_plan_id":"cebpf4jnsgd1na2vs0mg"},{"bike_id":"a90f8e9a-f6e2-4b3d-9d6c-5156fa8f0a33","system_id":"levelo_inurba_marseille","lat":43.23186,"lon":5.35551,"is_reserved":false,"is_disabled":false,"rental_uris":{"android":"levelo://app?vid=a90f8e9a-f6e2-4b3d-9d6c-5156fa8f0a33","ios":"levelo://app?vid=a90f8e9a-f6e2-4b3d-9d6c-5156fa8f0a33"},"vehicle_type_id":"4","last_reported":1747980933,"current_range_meters":16400,"station_id":"ce4bhu92rcd13ifvqi70","pricing_plan_id":"cebpf4jnsgd1na2vs0mg"},{"bike_id":"f4fc5cdb-9c0a-4a68-a797-4a331b69922e","system_id":"levelo_inurba_marseille","lat":43.26954,"lon":5.3863,"is_reserved":false,"is_disabled":false,"rental_uris":{"android":"levelo://app?vid=f4fc5cdb-9c0a-4a68-a797-4a331b69922e","ios":"levelo://app?vid=f4fc5cdb-9c0a-4a68-a797-4a331b69922e"},"vehicle_type_id":"4","last_reported":1747980933,"current_range_meters":16400,"station_id":"ce4bhh92rcd13ifvqfh0","pricing_plan_id":"cebpf4jnsgd1na2vs0mg"},{"bike_id":"423c8253-bc75-4227-9474-eecfb2bfc1b9","system_id":"levelo_inurba_marseille","lat":43.27496,"lon":5.42448,"is_reserved":false,"is_disabled":false,"rental_uris":{"android":"levelo://app?vid=423c8253-bc75-4227-9474-eecfb2bfc1b9","ios":"levelo://app?vid=423c8253-bc75-4227-9474-eecfb2bfc1b9"},"vehicle_type_id":"4","last_reported":1747980933,"current_range_meters":16400,"station_id":"","pricing_plan_id":"cebpf4jnsgd1na2vs0mg"},{"bike_id":"59e86a7a-e8b9-481c-93cf-968bdb5ba166","system_id":"levelo_inurba_marseille","lat":43.21199,"lon":5.35067,"is_reserved":false,"is_disabled":false,"rental_uris":{"android":"levelo://app?vid=59e86a7a-e8b9-481c-93cf-968bdb5ba166","ios":"levelo://app?vid=59e86a7a-e8b9-481c-93cf-968bdb5ba166"},"vehicle_type_id":"4","last_reported":1747980933,"current_range_meters":16400,"station_id":"st_cvj6sg6p6f1abm77japg","pricing_plan_id":"cebpf4jnsgd1na2vs0mg"},{"bike_id":"ee691d4e-a26d-4171-8fbd-6def5ed786af","system_id":"levelo_inurba_marseille","lat":43.28858,"lon":5.35845,"is_reserved":false,"is_disabled":true,"rental_uris":{"android":"levelo://app?vid=ee691d4e-a26d-4171-8fbd-6def5ed786af","ios":"levelo://app?vid=ee691d4e-a26d-4171-8fbd-6def5ed786af"},"vehicle_type_id":"4","last_reported":1747980933,"current_range_meters":16800,"station_id":"ce4bhb12rcd13ifvqem0","pricing_plan_id":"cebpf4jnsgd1na2vs0mg"},{"bike_id":"75e91607-f093-41b1-947a-69b62fe724b6","system_id":"levelo_inurba_marseille","lat":43.346885,"lon":5.345373,"is_reserved":false,"is_disabled":false,"rental_uris":{"android":"levelo://app?vid=75e91607-f093-41b1-947a-69b62fe724b6","ios":"levelo://app?vid=75e91607-f093-41b1-947a-69b62fe724b6"},"vehicle_type_id":"4","last_reported":1747980933,"current_range_meters":16800,"station_id":"","pricing_plan_id":"cebpf4jnsgd1na2vs0mg"},{"bike_id":"01e09790-234a-4c0f-85e6-b033b224dd39","system_id":"levelo_inurba_marseille","lat":43.25863,"lon":5.39894,"is_reserved":false,"is_disabled":false,"rental_uris":{"android":"levelo://app?vid=01e09790-234a-4c0f-85e6-b033b224dd39","ios":"levelo://app?vid=01e09790-234a-4c0f-85e6-b033b224dd39"},"vehicle_type_id":"4","last_reported":1747980933,"current_range_meters":16800,"station_id":"ce4bhl92rcd13ifvqghg","pricing_plan_id":"cebpf4jnsgd1na2vs0mg"},{"bike_id":"41116958-307f-4e0b-9cad-fd534f87e135","system_id":"levelo_inurba_marseille","lat":43.34151,"lon":5.40899,"is_reserved":false,"is_disabled":false,"rental_uris":{"android":"levelo://app?vid=41116958-307f-4e0b-9cad-fd534f87e135","ios":"levelo://app?vid=41116958-307f-4e0b-9cad-fd534f87e135"},"vehicle_type_id":"4","last_reported":1747980933,"current_range_meters":16800,"station_id":"ce4bhqh2rcd13ifvqhlg","pricing_plan_id":"cebpf4jnsgd1na2vs0mg"},{"bike_id":"36673817-47be-4167-ba26-164a20b51350","system_id":"levelo_inurba_marseille","lat":43.31082,"lon":5.4243,"is_reserved":false,"is_disabled":false,"rental_uris":{"android":"levelo://app?vid=36673817-47be-4167-ba26-164a20b51350","ios":"levelo://app?vid=36673817-47be-4167-ba26-164a20b51350"},"vehicle_type_id":"4","last_reported":1747980933,"current_range_meters":17200,"station_id":"ce4bhp92rcd13ifvqhag","pricing_plan_id":"cebpf4jnsgd1na2vs0mg"},{"bike_id":"4805661f-b98a-4b89-b4b4-d585f7402d47","system_id":"levelo_inurba_marseille","lat":43.30616,"lon":5.37219,"is_reserved":false,"is_disabled":false,"rental_uris":{"android":"levelo://app?vid=4805661f-b98a-4b89-b4b4-d585f7402d47","ios":"levelo://app?vid=4805661f-b98a-4b89-b4b4-d585f7402d47"},"vehicle_type_id":"4","last_reported":1747980933,"current_range_meters":16800,"station_id":"ce4bgqh2rcd13ifvqc4g","pricing_plan_id":"cebpf4jnsgd1na2vs0mg"},{"bike_id":"6a42cade-1217-4e53-9913-ba135248ee6a","system_id":"levelo_inurba_marseille","lat":43.25574,"lon":5.38254,"is_reserved":false,"is_disabled":false,"rental_uris":{"android":"levelo://app?vid=6a42cade-1217-4e53-9913-ba135248ee6a","ios":"levelo://app?vid=6a42cade-1217-4e53-9913-ba135248ee6a"},"vehicle_type_id":"4","last_reported":1747980933,"current_range_meters":17200,"station_id":"ce4bhih2rcd13ifvqfs0","pricing_plan_id":"cebpf4jnsgd1na2vs0mg"},{"bike_id":"41643247-9e5b-4dce-add0-a58df4b44178","system_id":"levelo_inurba_marseille","lat":43.306613,"lon":5.368644,"is_reserved":false,"is_disabled":false,"rental_uris":{"android":"levelo://app?vid=41643247-9e5b-4dce-add0-a58df4b44178","ios":"levelo://app?vid=41643247-9e5b-4dce-add0-a58df4b44178"},"vehicle_type_id":"4","last_reported":1747980933,"current_range_meters":16800,"station_id":"ce4bgr92rcd13ifvqc6g","pricing_plan_id":"cebpf4jnsgd1na2vs0mg"},{"bike_id":"8fcdf39c-cdc3-4270-8329-72ecd32df0f9","system_id":"levelo_inurba_marseille","lat":43.25945,"lon":5.40969,"is_reserved":false,"is_disabled":false,"rental_uris":{"android":"levelo://app?vid=8fcdf39c-cdc3-4270-8329-72ecd32df0f9","ios":"levelo://app?vid=8fcdf39c-cdc3-4270-8329-72ecd32df0f9"},"vehicle_type_id":"4","last_reported":1747980933,"current_range_meters":17200,"station_id":"","pricing_plan_id":"cebpf4jnsgd1na2vs0mg"},{"bike_id":"1c9a10bb-477e-4937-b84d-7ea680dd20b0","system_id":"levelo_inurba_marseille","lat":43.307999,"lon":5.381545,"is_reserved":false,"is_disabled":false,"rental_uris":{"android":"levelo://app?vid=1c9a10bb-477e-4937-b84d-7ea680dd20b0","ios":"levelo://app?vid=1c9a10bb-477e-4937-b84d-7ea680dd20b0"},"vehicle_type_id":"4","last_reported":1747980933,"current_range_meters":16800,"station_id":"ce4bgt12rcd13ifvqce0","pricing_plan_id":"cebpf4jnsgd1na2vs0mg"},{"bike_id":"fadf463e-b476-48da-bd45-9d13d34adb3c","system_id":"levelo_inurba_marseille","lat":43.27955,"lon":5.41026,"is_reserved":false,"is_disabled":false,"rental_uris":{"android":"levelo://app?vid=fadf463e-b476-48da-bd45-9d13d34adb3c","ios":"levelo://app?vid=fadf463e-b476-48da-bd45-9d13d34adb3c"},"vehicle_type_id":"4","last_reported":1747980933,"current_range_meters":17200,"station_id":"ce4bhnp2rcd13ifvqh0g","pricing_plan_id":"cebpf4jnsgd1na2vs0mg"},{"bike_id":"f9a7351f-1dd1-42b7-aec4-8a5d40ff7dc4","system_id":"levelo_inurba_marseille","lat":43.28671,"lon":5.36338,"is_reserved":false,"is_disabled":false,"rental_uris":{"android":"levelo://app?vid=f9a7351f-1dd1-42b7-aec4-8a5d40ff7dc4","ios":"levelo://app?vid=f9a7351f-1dd1-42b7-aec4-8a5d40ff7dc4"},"vehicle_type_id":"4","last_reported":1747980933,"current_range_meters":17200,"station_id":"ce4bhah2rcd13ifvqej0","pricing_plan_id":"cebpf4jnsgd1na2vs0mg"},{"bike_id":"67847c1f-b16c-43ae-af6c-eeed2473b373","system_id":"levelo_inurba_marseille","lat":43.28078,"lon":5.39666,"is_reserved":false,"is_disabled":false,"rental_uris":{"android":"levelo://app?vid=67847c1f-b16c-43ae-af6c-eeed2473b373","ios":"levelo://app?vid=67847c1f-b16c-43ae-af6c-eeed2473b373"},"vehicle_type_id":"4","last_reported":1747980933,"current_range_meters":17600,"station_id":"ce4bho12rcd13ifvqh2g","pricing_plan_id":"cebpf4jnsgd1na2vs0mg"},{"bike_id":"06e4f6b3-d0ab-45db-b363-8413f86ed001","system_id":"levelo_inurba_marseille","lat":43.28897,"lon":5.42835,"is_reserved":false,"is_disabled":false,"rental_uris":{"android":"levelo://app?vid=06e4f6b3-d0ab-45db-b363-8413f86ed001","ios":"levelo://app?vid=06e4f6b3-d0ab-45db-b363-8413f86ed001"},"vehicle_type_id":"4","last_reported":1747980933,"current_range_meters":17600,"station_id":"","pricing_plan_id":"cebpf4jnsgd1na2vs0mg"},{"bike_id":"f3d85424-f9d8-4862-9e9c-20e0293270fa","system_id":"levelo_inurba_marseille","lat":43.23193,"lon":5.35576,"is_reserved":false,"is_disabled":false,"rental_uris":{"android":"levelo://app?vid=f3d85424-f9d8-4862-9e9c-20e0293270fa","ios":"levelo://app?vid=f3d85424-f9d8-4862-9e9c-20e0293270fa"},"vehicle_type_id":"4","last_reported":1747980933,"current_range_meters":17600,"station_id":"ce4bhu92rcd13ifvqi70","pricing_plan_id":"cebpf4jnsgd1na2vs0mg"},{"bike_id":"549cdb9d-74f7-4497-bb2f-7af942d71412","system_id":"levelo_inurba_marseille","lat":43.258678,"lon":5.398955,"is_reserved":false,"is_disabled":false,"rental_uris":{"android":"levelo://app?vid=549cdb9d-74f7-4497-bb2f-7af942d71412","ios":"levelo://app?vid=549cdb9d-74f7-4497-bb2f-7af942d71412"},"vehicle_type_id":"4","last_reported":1747980933,"current_range_meters":17600,"station_id":"ce4bhl92rcd13ifvqghg","pricing_plan_id":"cebpf4jnsgd1na2vs0mg"},{"bike_id":"9a73f662-ac31-4531-9989-1fbcb9694601","system_id":"levelo_inurba_marseille","lat":43.29263,"lon":5.40131,"is_reserved":false,"is_disabled":true,"rental_uris":{"android":"levelo://app?vid=9a73f662-ac31-4531-9989-1fbcb9694601","ios":"levelo://app?vid=9a73f662-ac31-4531-9989-1fbcb9694601"},"vehicle_type_id":"4","last_reported":1747980933,"current_range_meters":17600,"station_id":"ce4bh312rcd13ifvqdk0","pricing_plan_id":"cebpf4jnsgd1na2vs0mg"},{"bike_id":"c1cb82f7-556d-44cd-a6f7-4bc295106682","system_id":"levelo_inurba_marseille","lat":43.28493,"lon":5.38434,"is_reserved":false,"is_disabled":false,"rental_uris":{"android":"levelo://app?vid=c1cb82f7-556d-44cd-a6f7-4bc295106682","ios":"levelo://app?vid=c1cb82f7-556d-44cd-a6f7-4bc295106682"},"vehicle_type_id":"4","last_reported":1747980933,"current_range_meters":17600,"station_id":"ce4bh512rcd13ifvqe3g","pricing_plan_id":"cebpf4jnsgd1na2vs0mg"},{"bike_id":"d0a39aae-54fd-46ce-ab4f-e69a9cc3bdc9","system_id":"levelo_inurba_marseille","lat":43.25096,"lon":5.40275,"is_reserved":false,"is_disabled":false,"rental_uris":{"android":"levelo://app?vid=d0a39aae-54fd-46ce-ab4f-e69a9cc3bdc9","ios":"levelo://app?vid=d0a39aae-54fd-46ce-ab4f-e69a9cc3bdc9"},"vehicle_type_id":"4","last_reported":1747980933,"current_range_meters":17600,"station_id":"ce4bhlh2rcd13ifvqgig","pricing_plan_id":"cebpf4jnsgd1na2vs0mg"},{"bike_id":"751aa9b1-573a-4e66-8e56-feebaad39333","system_id":"levelo_inurba_marseille","lat":43.24075,"lon":5.37756,"is_reserved":false,"is_disabled":false,"rental_uris":{"android":"levelo://app?vid=751aa9b1-573a-4e66-8e56-feebaad39333","ios":"levelo://app?vid=751aa9b1-573a-4e66-8e56-feebaad39333"},"vehicle_type_id":"4","last_reported":1747980933,"current_range_meters":18000,"station_id":"ce4bhnp2rcd13ifvqgvg","pricing_plan_id":"cebpf4jnsgd1na2vs0mg"},{"bike_id":"bd0698e1-3c0a-419c-a6c6-d2a569e54153","system_id":"levelo_inurba_marseille","lat":43.24077,"lon":5.37753,"is_reserved":false,"is_disabled":false,"rental_uris":{"android":"levelo://app?vid=bd0698e1-3c0a-419c-a6c6-d2a569e54153","ios":"levelo://app?vid=bd0698e1-3c0a-419c-a6c6-d2a569e54153"},"vehicle_type_id":"4","last_reported":1747980933,"current_range_meters":18800,"station_id":"ce4bhnp2rcd13ifvqgvg","pricing_plan_id":"cebpf4jnsgd1na2vs0mg"},{"bike_id":"0570ff02-9d24-4148-8a07-1fef019d4a29","system_id":"levelo_inurba_marseille","lat":43.3059,"lon":5.39345,"is_reserved":false,"is_disabled":false,"rental_uris":{"android":"levelo://app?vid=0570ff02-9d24-4148-8a07-1fef019d4a29","ios":"levelo://app?vid=0570ff02-9d24-4148-8a07-1fef019d4a29"},"vehicle_type_id":"4","last_reported":1747980933,"current_range_meters":18000,"station_id":"ce4bh0p2rcd13ifvqd80","pricing_plan_id":"cebpf4jnsgd1na2vs0mg"},{"bike_id":"d502a9fb-e8d3-4df5-aeef-a806c8fd7412","system_id":"levelo_inurba_marseille","lat":43.31343,"lon":5.36705,"is_reserved":false,"is_disabled":false,"rental_uris":{"android":"levelo://app?vid=d502a9fb-e8d3-4df5-aeef-a806c8fd7412","ios":"levelo://app?vid=d502a9fb-e8d3-4df5-aeef-a806c8fd7412"},"vehicle_type_id":"4","last_reported":1747980933,"current_range_meters":18000,"station_id":"ce4bgr92rcd13ifvqc6g","pricing_plan_id":"cebpf4jnsgd1na2vs0mg"},{"bike_id":"fa728643-ef77-4823-a4e8-335fa68c8f0e","system_id":"levelo_inurba_marseille","lat":43.22505,"lon":5.34784,"is_reserved":false,"is_disabled":false,"rental_uris":{"android":"levelo://app?vid=fa728643-ef77-4823-a4e8-335fa68c8f0e","ios":"levelo://app?vid=fa728643-ef77-4823-a4e8-335fa68c8f0e"},"vehicle_type_id":"4","last_reported":1747980933,"current_range_meters":18000,"station_id":"","pricing_plan_id":"cebpf4jnsgd1na2vs0mg"},{"bike_id":"3d12765f-feab-4bf3-a2af-2c3346c54951","system_id":"levelo_inurba_marseille","lat":43.29263,"lon":5.40064,"is_reserved":false,"is_disabled":true,"rental_uris":{"android":"levelo://app?vid=3d12765f-feab-4bf3-a2af-2c3346c54951","ios":"levelo://app?vid=3d12765f-feab-4bf3-a2af-2c3346c54951"},"vehicle_type_id":"4","last_reported":1747980933,"current_range_meters":18000,"station_id":"ce4bh312rcd13ifvqdk0","pricing_plan_id":"cebpf4jnsgd1na2vs0mg"},{"bike_id":"c316ab04-03d3-4bba-bf18-70407493d45f","system_id":"levelo_inurba_marseille","lat":43.31708,"lon":5.43692,"is_reserved":false,"is_disabled":true,"rental_uris":{"android":"levelo://app?vid=c316ab04-03d3-4bba-bf18-70407493d45f","ios":"levelo://app?vid=c316ab04-03d3-4bba-bf18-70407493d45f"},"vehicle_type_id":"4","last_reported":1747980933,"current_range_meters":18000,"station_id":"ce4bhp92rcd13ifvqhcg","pricing_plan_id":"cebpf4jnsgd1na2vs0mg"},{"bike_id":"8f170d27-1eec-426e-b4ea-3593c59cd5b2","system_id":"levelo_inurba_marseille","lat":43.28931,"lon":5.38191,"is_reserved":false,"is_disabled":false,"rental_uris":{"android":"levelo://app?vid=8f170d27-1eec-426e-b4ea-3593c59cd5b2","ios":"levelo://app?vid=8f170d27-1eec-426e-b4ea-3593c59cd5b2"},"vehicle_type_id":"4","last_reported":1747980933,"current_range_meters":18800,"station_id":"","pricing_plan_id":"cebpf4jnsgd1na2vs0mg"},{"bike_id":"31158137-4c13-4424-885f-487bb8f713a2","system_id":"levelo_inurba_marseille","lat":43.24657,"lon":5.38163,"is_reserved":false,"is_disabled":false,"rental_uris":{"android":"levelo://app?vid=31158137-4c13-4424-885f-487bb8f713a2","ios":"levelo://app?vid=31158137-4c13-4424-885f-487bb8f713a2"},"vehicle_type_id":"4","last_reported":1747980933,"current_range_meters":18000,"station_id":"ce4bhih2rcd13ifvqfr0","pricing_plan_id":"cebpf4jnsgd1na2vs0mg"},{"bike_id":"05dabce4-7508-46a8-9cde-923cc596d37f","system_id":"levelo_inurba_marseille","lat":43.309492,"lon":5.39036,"is_reserved":false,"is_disabled":true,"rental_uris":{"android":"levelo://app?vid=05dabce4-7508-46a8-9cde-923cc596d37f","ios":"levelo://app?vid=05dabce4-7508-46a8-9cde-923cc596d37f"},"vehicle_type_id":"4","last_reported":1747980933,"current_range_meters":18800,"station_id":"ce4bgup2rcd13ifvqco0","pricing_plan_id":"cebpf4jnsgd1na2vs0mg"},{"bike_id":"8459ce8e-60e5-4912-ad1b-ef34a77ebf7d","system_id":"levelo_inurba_marseille","lat":43.28935,"lon":5.36634,"is_reserved":false,"is_disabled":false,"rental_uris":{"android":"levelo://app?vid=8459ce8e-60e5-4912-ad1b-ef34a77ebf7d","ios":"levelo://app?vid=8459ce8e-60e5-4912-ad1b-ef34a77ebf7d"},"vehicle_type_id":"4","last_reported":1747980933,"current_range_meters":18000,"station_id":"ce4bhap2rcd13ifvqek0","pricing_plan_id":"cebpf4jnsgd1na2vs0mg"},{"bike_id":"12153089-df57-4237-aeb4-0a653d801661","system_id":"levelo_inurba_marseille","lat":43.3048,"lon":5.37894,"is_reserved":false,"is_disabled":false,"rental_uris":{"android":"levelo://app?vid=12153089-df57-4237-aeb4-0a653d801661","ios":"levelo://app?vid=12153089-df57-4237-aeb4-0a653d801661"},"vehicle_type_id":"4","last_reported":1747980933,"current_range_meters":18800,"station_id":"ce4bgup2rcd13ifvqcn0","pricing_plan_id":"cebpf4jnsgd1na2vs0mg"},{"bike_id":"f9bd3725-a52f-4288-9bf9-1c3c7bc36a80","system_id":"levelo_inurba_marseille","lat":43.28417,"lon":5.34994,"is_reserved":false,"is_disabled":false,"rental_uris":{"android":"levelo://app?vid=f9bd3725-a52f-4288-9bf9-1c3c7bc36a80","ios":"levelo://app?vid=f9bd3725-a52f-4288-9bf9-1c3c7bc36a80"},"vehicle_type_id":"4","last_reported":1747980933,"current_range_meters":18800,"station_id":"ce4bhbh2rcd13ifvqepg","pricing_plan_id":"cebpf4jnsgd1na2vs0mg"},{"bike_id":"b2f4d418-d0ff-4f2d-a183-038cabae48f6","system_id":"levelo_inurba_marseille","lat":43.24072,"lon":5.37757,"is_reserved":false,"is_disabled":false,"rental_uris":{"android":"levelo://app?vid=b2f4d418-d0ff-4f2d-a183-038cabae48f6","ios":"levelo://app?vid=b2f4d418-d0ff-4f2d-a183-038cabae48f6"},"vehicle_type_id":"4","last_reported":1747980933,"current_range_meters":18800,"station_id":"ce4bhnp2rcd13ifvqgvg","pricing_plan_id":"cebpf4jnsgd1na2vs0mg"},{"bike_id":"87fc21bf-d497-442b-ac08-f0fe66da3e84","system_id":"levelo_inurba_marseille","lat":43.22499,"lon":5.34792,"is_reserved":false,"is_disabled":false,"rental_uris":{"android":"levelo://app?vid=87fc21bf-d497-442b-ac08-f0fe66da3e84","ios":"levelo://app?vid=87fc21bf-d497-442b-ac08-f0fe66da3e84"},"vehicle_type_id":"4","last_reported":1747980933,"current_range_meters":18800,"station_id":"","pricing_plan_id":"cebpf4jnsgd1na2vs0mg"},{"bike_id":"a7ce6ec2-5778-4c61-b1c6-cfc303e12f95","system_id":"levelo_inurba_marseille","lat":43.289145,"lon":5.372941,"is_reserved":false,"is_disabled":false,"rental_uris":{"android":"levelo://app?vid=a7ce6ec2-5778-4c61-b1c6-cfc303e12f95","ios":"levelo://app?vid=a7ce6ec2-5778-4c61-b1c6-cfc303e12f95"},"vehicle_type_id":"4","last_reported":1747980933,"current_range_meters":18800,"station_id":"","pricing_plan_id":"cebpf4jnsgd1na2vs0mg"},{"bike_id":"8928326c-648b-48ca-ac72-50af7132758b","system_id":"levelo_inurba_marseille","lat":43.229294,"lon":5.353832,"is_reserved":false,"is_disabled":false,"rental_uris":{"android":"levelo://app?vid=8928326c-648b-48ca-ac72-50af7132758b","ios":"levelo://app?vid=8928326c-648b-48ca-ac72-50af7132758b"},"vehicle_type_id":"4","last_reported":1747980933,"current_range_meters":19200,"station_id":"cpo3532slgdg3j2ikp40","pricing_plan_id":"cebpf4jnsgd1na2vs0mg"},{"bike_id":"fdd6678a-46ba-4191-a6a8-2e5954c7f96b","system_id":"levelo_inurba_marseille","lat":43.307906,"lon":5.435348,"is_reserved":false,"is_disabled":false,"rental_uris":{"android":"levelo://app?vid=fdd6678a-46ba-4191-a6a8-2e5954c7f96b","ios":"levelo://app?vid=fdd6678a-46ba-4191-a6a8-2e5954c7f96b"},"vehicle_type_id":"4","last_reported":1747980933,"current_range_meters":19200,"station_id":"ce4bhph2rcd13ifvqheg","pricing_plan_id":"cebpf4jnsgd1na2vs0mg"},{"bike_id":"1250df6b-3215-48f9-a97e-9704c1ebdc7d","system_id":"levelo_inurba_marseille","lat":43.27494,"lon":5.42444,"is_reserved":false,"is_disabled":false,"rental_uris":{"android":"levelo://app?vid=1250df6b-3215-48f9-a97e-9704c1ebdc7d","ios":"levelo://app?vid=1250df6b-3215-48f9-a97e-9704c1ebdc7d"},"vehicle_type_id":"4","last_reported":1747980933,"current_range_meters":19200,"station_id":"ce4bhn92rcd13ifvqgrg","pricing_plan_id":"cebpf4jnsgd1na2vs0mg"},{"bike_id":"013db8c3-0739-404b-b923-480ea6d220cd","system_id":"levelo_inurba_marseille","lat":43.265646,"lon":5.403194,"is_reserved":false,"is_disabled":true,"rental_uris":{"android":"levelo://app?vid=013db8c3-0739-404b-b923-480ea6d220cd","ios":"levelo://app?vid=013db8c3-0739-404b-b923-480ea6d220cd"},"vehicle_type_id":"4","last_reported":1747980933,"current_range_meters":19200,"station_id":"","pricing_plan_id":"cebpf4jnsgd1na2vs0mg"},{"bike_id":"90398f96-fd6c-43e0-a7ee-9b318c7e482f","system_id":"levelo_inurba_marseille","lat":43.24818,"lon":5.40615,"is_reserved":false,"is_disabled":true,"rental_uris":{"android":"levelo://app?vid=90398f96-fd6c-43e0-a7ee-9b318c7e482f","ios":"levelo://app?vid=90398f96-fd6c-43e0-a7ee-9b318c7e482f"},"vehicle_type_id":"4","last_reported":1747980933,"current_range_meters":19200,"station_id":"","pricing_plan_id":"cebpf4jnsgd1na2vs0mg"},{"bike_id":"4c2a4c58-d2c6-48c4-a352-dd11fb06beb5","system_id":"levelo_inurba_marseille","lat":43.25131,"lon":5.40376,"is_reserved":false,"is_disabled":false,"rental_uris":{"android":"levelo://app?vid=4c2a4c58-d2c6-48c4-a352-dd11fb06beb5","ios":"levelo://app?vid=4c2a4c58-d2c6-48c4-a352-dd11fb06beb5"},"vehicle_type_id":"4","last_reported":1747980933,"current_range_meters":19200,"station_id":"","pricing_plan_id":"cebpf4jnsgd1na2vs0mg"},{"bike_id":"33268ce1-ed29-4af7-99cf-65bf33fe625d","system_id":"levelo_inurba_marseille","lat":43.25583,"lon":5.382338,"is_reserved":false,"is_disabled":false,"rental_uris":{"android":"levelo://app?vid=33268ce1-ed29-4af7-99cf-65bf33fe625d","ios":"levelo://app?vid=33268ce1-ed29-4af7-99cf-65bf33fe625d"},"vehicle_type_id":"4","last_reported":1747980933,"current_range_meters":19200,"station_id":"ce4bhih2rcd13ifvqfs0","pricing_plan_id":"cebpf4jnsgd1na2vs0mg"},{"bike_id":"b087816c-33ef-4cc0-bc64-3184960ec905","system_id":"levelo_inurba_marseille","lat":43.24069,"lon":5.3776,"is_reserved":false,"is_disabled":false,"rental_uris":{"android":"levelo://app?vid=b087816c-33ef-4cc0-bc64-3184960ec905","ios":"levelo://app?vid=b087816c-33ef-4cc0-bc64-3184960ec905"},"vehicle_type_id":"4","last_reported":1747980933,"current_range_meters":19200,"station_id":"ce4bhnp2rcd13ifvqgvg","pricing_plan_id":"cebpf4jnsgd1na2vs0mg"},{"bike_id":"1940d0e8-a2c6-4d18-82d1-6c46737683d2","system_id":"levelo_inurba_marseille","lat":43.229373,"lon":5.353811,"is_reserved":false,"is_disabled":false,"rental_uris":{"android":"levelo://app?vid=1940d0e8-a2c6-4d18-82d1-6c46737683d2","ios":"levelo://app?vid=1940d0e8-a2c6-4d18-82d1-6c46737683d2"},"vehicle_type_id":"4","last_reported":1747980933,"current_range_meters":19200,"station_id":"cpo3532slgdg3j2ikp40","pricing_plan_id":"cebpf4jnsgd1na2vs0mg"},{"bike_id":"7cb5e92b-e89e-40ea-bf43-4953d42a7c76","system_id":"levelo_inurba_marseille","lat":43.25001,"lon":5.37913,"is_reserved":false,"is_disabled":false,"rental_uris":{"android":"levelo://app?vid=7cb5e92b-e89e-40ea-bf43-4953d42a7c76","ios":"levelo://app?vid=7cb5e92b-e89e-40ea-bf43-4953d42a7c76"},"vehicle_type_id":"4","last_reported":1747980933,"current_range_meters":19600,"station_id":"","pricing_plan_id":"cebpf4jnsgd1na2vs0mg"},{"bike_id":"da453a88-f81b-4e0f-9781-5a7f6c1d364c","system_id":"levelo_inurba_marseille","lat":43.337499,"lon":5.374469,"is_reserved":false,"is_disabled":false,"rental_uris":{"android":"levelo://app?vid=da453a88-f81b-4e0f-9781-5a7f6c1d364c","ios":"levelo://app?vid=da453a88-f81b-4e0f-9781-5a7f6c1d364c"},"vehicle_type_id":"4","last_reported":1747980933,"current_range_meters":19600,"station_id":"","pricing_plan_id":"cebpf4jnsgd1na2vs0mg"},{"bike_id":"66ebe8f9-cc37-49d8-8e67-4e93280a981b","system_id":"levelo_inurba_marseille","lat":43.24072,"lon":5.3776,"is_reserved":false,"is_disabled":false,"rental_uris":{"android":"levelo://app?vid=66ebe8f9-cc37-49d8-8e67-4e93280a981b","ios":"levelo://app?vid=66ebe8f9-cc37-49d8-8e67-4e93280a981b"},"vehicle_type_id":"4","last_reported":1747980933,"current_range_meters":19600,"station_id":"ce4bhnp2rcd13ifvqgvg","pricing_plan_id":"cebpf4jnsgd1na2vs0mg"},{"bike_id":"f16bcea9-fc5e-4ea9-9ed1-3fddfca8147b","system_id":"levelo_inurba_marseille","lat":43.2408,"lon":5.37756,"is_reserved":false,"is_disabled":false,"rental_uris":{"android":"levelo://app?vid=f16bcea9-fc5e-4ea9-9ed1-3fddfca8147b","ios":"levelo://app?vid=f16bcea9-fc5e-4ea9-9ed1-3fddfca8147b"},"vehicle_type_id":"4","last_reported":1747980933,"current_range_meters":19600,"station_id":"ce4bhnp2rcd13ifvqgvg","pricing_plan_id":"cebpf4jnsgd1na2vs0mg"},{"bike_id":"0f6a9b28-527d-4b70-9542-d95424de9942","system_id":"levelo_inurba_marseille","lat":43.26943,"lon":5.38635,"is_reserved":false,"is_disabled":false,"rental_uris":{"android":"levelo://app?vid=0f6a9b28-527d-4b70-9542-d95424de9942","ios":"levelo://app?vid=0f6a9b28-527d-4b70-9542-d95424de9942"},"vehicle_type_id":"4","last_reported":1747980933,"current_range_meters":19600,"station_id":"ce4bhh92rcd13ifvqfh0","pricing_plan_id":"cebpf4jnsgd1na2vs0mg"},{"bike_id":"8238469b-13e3-495e-afeb-1e82b1bbd52f","system_id":"levelo_inurba_marseille","lat":43.25496,"lon":5.37649,"is_reserved":false,"is_disabled":false,"rental_uris":{"android":"levelo://app?vid=8238469b-13e3-495e-afeb-1e82b1bbd52f","ios":"levelo://app?vid=8238469b-13e3-495e-afeb-1e82b1bbd52f"},"vehicle_type_id":"4","last_reported":1747980933,"current_range_meters":19200,"station_id":"ce4bhh12rcd13ifvqff0","pricing_plan_id":"cebpf4jnsgd1na2vs0mg"},