{"last_updated":1727777402,"ttl":60,"version":"2.2","data":{"bikes":[{"bike_id":"4d3cd05f-bdaf-46df-aa6a-2f774239d020","system_id":"levelo_inurba_marseille","lat":43.24389,"lon":5.37061,"is_reserved":false,"is_disabled":false,"rental_uris":{"android":"levelo://app?vid=4d3cd05f-bdaf-46df-aa6a-2f774239d020","ios":"levelo://app?vid=4d3cd05f-bdaf-46df-aa6a-2f774239d020"},"vehicle_type_id":"4","last_reported":1727777402,"current_range_meters":14000,"station_id":"ce4bhhh2rcd13ifvqfk0","pricing_plan_id":"cebpf4jnsgd1na2vs0mg"},{"bike_id":"1130429c-df85-4fb8-913c-ab388695ae0b","system_id":"levelo_inurba_marseille","lat":43.27313,"lon":5.39075,"is_reserved":false,"is_disabled":false,"rental_uris":{"android":"levelo://app?vid=1130429c-df85-4fb8-913c-ab388695ae0b","ios":"levelo://app?vid=1130429c-df85-4fb8-913c-ab388695ae0b"},"vehicle_type_id":"4","last_reported":1727777402,"current_range_meters":32800,"station_id":"ce4bhgp2rcd13ifvqfe0","pricing_plan_id":"cebpf4jnsgd1na2vs0mg"},{"bike_id":"45278508-ffed-42b8-b0fa-7766eabb2075","system_id":"levelo_inurba_marseille","lat":43.3415,"lon":5.40904,"is_reserved":false,"is_disabled":false,"rental_uris":{"android":"levelo://app?vid=45278508-ffed-42b8-b0fa-7766eabb2075","ios":"levelo://app?vid=45278508-ffed-42b8-b0fa-7766eabb2075"},"vehicle_type_id":"4","last_reported":1727777402,"current_range_meters":36000,"station_id":"ce4bhqh2rcd13ifvqhlg","pricing_plan_id":"cebpf4jnsgd1na2vs0mg"},{"bike_id":"dad62afc-f55e-4d7d-8a4c-c944cff61821","system_id":"levelo_inurba_marseille","lat":43.24346,"lon":5.37001,"is_reserved":false,"is_disabled":false,"rental_uris":{"android":"levelo://app?vid=dad62afc-f55e-4d7d-8a4c-c944cff61821","ios":"levelo://app?vid=dad62afc-f55e-4d7d-8a4c-c944cff61821"},"vehicle_type_id":"4","last_reported":1727777402,"current_range_meters":31200,"station_id":"ce4bhhh2rcd13ifvqfk0","pricing_plan_id":"cebpf4jnsgd1na2vs0mg"},{"bike_id":"d3eb2a38-a0e9-4d73-8c7e-7a25de6200d4","system_id":"levelo_inurba_marseille","lat":43.33773,"lon":5.37433,"is_reserved":false,"is_disabled":false,"rental_uris":{"android":"levelo://app?vid=d3eb2a38-a0e9-4d73-8c7e-7a25de6200d4","ios":"levelo://app?vid=d3eb2a38-a0e9-4d73-8c7e-7a25de6200d4"},"vehicle_type_id":"4","last_reported":1727777402,"current_range_meters":36800,"station_id":"","pricing_plan_id":"cebpf4jnsgd1na2vs0mg"},{"bike_id":"513c5bd8-bf1f-4410-a827-c1858341840c","system_id":"levelo_inurba_marseille","lat":43.24372,"lon":5.37053,"is_reserved":false,"is_disabled":false,"rental_uris":{"android":"levelo://app?vid=513c5bd8-bf1f-4410-a827-c1858341840c","ios":"levelo://app?vid=513c5bd8-bf1f-4410-a827-c1858341840c"},"vehicle_type_id":"4","last_reported":1727777402,"current_range_meters":28400,"station_id":"ce4bhhh2rcd13ifvqfk0","pricing_plan_id":"cebpf4jnsgd1na2vs0mg"},{"bike_id":"f7ab1ff5-e3c9-48ef-bb52-3f7e8d2513a3","system_id":"levelo_inurba_marseille","lat":43.3054,"lon":5.36708,"is_reserved":false,"is_disabled":false,"rental_uris":{"android":"levelo://app?vid=f7ab1ff5-e3c9-48ef-bb52-3f7e8d2513a3","ios":"levelo://app?vid=f7ab1ff5-e3c9-48ef-bb52-3f7e8d2513a3"},"vehicle_type_id":"4","last_reported":1727777402,"current_range_meters":6800,"station_id":"ce4bgrp2rcd13ifvqc9g","pricing_plan_id":"cebpf4jnsgd1na2vs0mg"},{"bike_id":"1b400345-b08d-4820-99e7-c59ac8771685","system_id":"levelo_inurba_marseille","lat":43.31714,"lon":5.43707,"is_reserved":false,"is_disabled":false,"rental_uris":{"android":"levelo://app?vid=1b400345-b08d-4820-99e7-c59ac8771685","ios":"levelo://app?vid=1b400345-b08d-4820-99e7-c59ac8771685"},"vehicle_type_id":"4","last_reported":1727777402,"current_range_meters":20400,"station_id":"ce4bhp92rcd13ifvqhcg","pricing_plan_id":"cebpf4jnsgd1na2vs0mg"},{"bike_id":"96fc2d61-401a-4679-b3d0-fe240de168f4","system_id":"levelo_inurba_marseille","lat":43.33756,"lon":5.37461,"is_reserved":false,"is_disabled":false,"rental_uris":{"android":"levelo://app?vid=96fc2d61-401a-4679-b3d0-fe240de168f4","ios":"levelo://app?vid=96fc2d61-401a-4679-b3d0-fe240de168f4"},"vehicle_type_id":"4","last_reported":1727777402,"current_range_meters":17200,"station_id":"","pricing_plan_id":"cebpf4jnsgd1na2vs0mg"},{"bike_id":"4f5f571b-2480-4e15-9c00-aa4e592bddbe","system_id":"levelo_inurba_marseille","lat":43.31344,"lon":5.36711,"is_reserved":false,"is_disabled":false,"rental_uris":{"android":"levelo://app?vid=4f5f571b-2480-4e15-9c00-aa4e592bddbe","ios":"levelo://app?vid=4f5f571b-2480-4e15-9c00-aa4e592bddbe"},"vehicle_type_id":"4","last_reported":1727777402,"current_range_meters":35200,"station_id":"","pricing_plan_id":"cebpf4jnsgd1na2vs0mg"},{"bike_id":"5fc7f6b1-9a5d-442e-a59a-c5c71593d4b5","system_id":"levelo_inurba_marseille","lat":43.29578,"lon":5.36736,"is_reserved":false,"is_disabled":false,"rental_uris":{"android":"levelo://app?vid=5fc7f6b1-9a5d-442e-a59a-c5c71593d4b5","ios":"levelo://app?vid=5fc7f6b1-9a5d-442e-a59a-c5c71593d4b5"},"vehicle_type_id":"4","last_reported":1727777402,"current_range_meters":38800,"station_id":"ce4bgph2rcd13ifvqc2g","pricing_plan_id":"cebpf4jnsgd1na2vs0mg"},{"bike_id":"9e03787a-2278-4bc0-9f90-d1b5cb4d5e8e","system_id":"levelo_inurba_marseille","lat":43.30536,"lon":5.36535,"is_reserved":false,"is_disabled":false,"rental_uris":{"android":"levelo://app?vid=9e03787a-2278-4bc0-9f90-d1b5cb4d5e8e","ios":"levelo://app?vid=9e03787a-2278-4bc0-9f90-d1b5cb4d5e8e"},"vehicle_type_id":"4","last_reported":1727777402,"current_range_meters":35600,"station_id":"ce4bgs12rcd13ifvqcag","pricing_plan_id":"cebpf4jnsgd1na2vs0mg"},{"bike_id":"765b7c1c-7a29-4194-923c-5a562fb59f92","system_id":"levelo_inurba_marseille","lat":43.29435,"lon":5.39747,"is_reserved":false,"is_disabled":false,"rental_uris":{"android":"levelo://app?vid=765b7c1c-7a29-4194-923c-5a562fb59f92","ios":"levelo://app?vid=765b7c1c-7a29-4194-923c-5a562fb59f92"},"vehicle_type_id":"4","last_reported":1727777402,"current_range_meters":24000,"station_id":"ce4bh3h2rcd13ifvqdo0","pricing_plan_id":"cebpf4jnsgd1na2vs0mg"},{"bike_id":"5e87f478-c09c-494d-a2b5-5ca38b197262","system_id":"levelo_inurba_marseille","lat":43.29519,"lon":5.37508,"is_reserved":false,"is_disabled":false,"rental_uris":{"android":"levelo://app?vid=5e87f478-c09c-494d-a2b5-5ca38b197262","ios":"levelo://app?vid=5e87f478-c09c-494d-a2b5-5ca38b197262"},"vehicle_type_id":"4","last_reported":1727777402,"current_range_meters":32000,"station_id":"ce4bgkp2rcd13ifvqbmg","pricing_plan_id":"cebpf4jnsgd1na2vs0mg"},{"bike_id":"a09f389b-08fe-436a-9fac-a332159c7a30","system_id":"levelo_inurba_marseille","lat":43.27488,"lon":5.42451,"is_reserved":false,"is_disabled":false,"rental_uris":{"android":"levelo://app?vid=a09f389b-08fe-436a-9fac-a332159c7a30","ios":"levelo://app?vid=a09f389b-08fe-436a-9fac-a332159c7a30"},"vehicle_type_id":"4","last_reported":1727777402,"current_range_meters":18000,"station_id":"ce4bhn92rcd13ifvqgrg","pricing_plan_id":"cebpf4jnsgd1na2vs0mg"},{"bike_id":"74dcd09d-9212-4b44-9964-c7ba6bc4fdfc","system_id":"levelo_inurba_marseille","lat":43.25943,"lon":5.40905,"is_reserved":false,"is_disabled":false,"rental_uris":{"android":"levelo://app?vid=74dcd09d-9212-4b44-9964-c7ba6bc4fdfc","ios":"levelo://app?vid=74dcd09d-9212-4b44-9964-c7ba6bc4fdfc"},"vehicle_type_id":"4","last_reported":1727777402,"current_range_meters":30400,"station_id":"ce4bhm92rcd13ifvqglg","pricing_plan_id":"cebpf4jnsgd1na2vs0mg"},{"bike_id":"17a80a33-3097-4e51-92ad-4b617da8a0d7","system_id":"levelo_inurba_marseille","lat":43.23195,"lon":5.35553,"is_reserved":false,"is_disabled":false,"rental_uris":{"android":"levelo://app?vid=17a80a33-3097-4e51-92ad-4b617da8a0d7","ios":"levelo://app?vid=17a80a33-3097-4e51-92ad-4b617da8a0d7"},"vehicle_type_id":"4","last_reported":1727777402,"current_range_meters":22800,"station_id":"ce4bhu92rcd13ifvqi70","pricing_plan_id":"cebpf4jnsgd1na2vs0mg"},{"bike_id":"07fa3a91-d9cb-4341-aedb-58cdeac5263a","system_id":"levelo_inurba_marseille","lat":43.26213,"lon":5.37442,"is_reserved":false,"is_disabled":false,"rental_uris":{"android":"levelo://app?vid=07fa3a91-d9cb-4341-aedb-58cdeac5263a","ios":"levelo://app?vid=07fa3a91-d9cb-4341-aedb-58cdeac5263a"},"vehicle_type_id":"4","last_reported":1727777402,"current_range_meters":36800,"station_id":"ce4bhgp2rcd13ifvqfc0","pricing_plan_id":"cebpf4jnsgd1na2vs0mg"},{"bike_id":"068b2f9a-ba2d-481e-a87a-d34831ca26cb","system_id":"levelo_inurba_marseille","lat":43.30152,"lon":5.38077,"is_reserved":false,"is_disabled":false,"rental_uris":{"android":"levelo://app?vid=068b2f9a-ba2d-481e-a87a-d34831ca26cb","ios":"levelo://app?vid=068b2f9a-ba2d-481e-a87a-d34831ca26cb"},"vehicle_type_id":"4","last_reported":1727777402,"current_range_meters":24400,"station_id":"ce4bgjp2rcd13ifvqbh0","pricing_plan_id":"cebpf4jnsgd1na2vs0mg"},{"bike_id":"796cc55c-1a83-42df-97e9-a8fb27f57ab9","system_id":"levelo_inurba_marseille","lat":43.30807,"lon":5.38152,"is_reserved":false,"is_disabled":false,"rental_uris":{"android":"levelo://app?vid=796cc55c-1a83-42df-97e9-a8fb27f57ab9","ios":"levelo://app?vid=796cc55c-1a83-42df-97e9-a8fb27f57ab9"},"vehicle_type_id":"4","last_reported":1727777402,"current_range_meters":11200,"station_id":"ce4bgt12rcd13ifvqce0","pricing_plan_id":"cebpf4jnsgd1na2vs0mg"},{"bike_id":"6ab918ad-6b0d-4d12-b15c-67a2cccf6160","system_id":"levelo_inurba_marseille","lat":43.25934,"lon":5.40906,"is_reserved":false,"is_disabled":false,"rental_uris":{"android":"levelo://app?vid=6ab918ad-6b0d-4d12-b15c-67a2cccf6160","ios":"levelo://app?vid=6ab918ad-6b0d-4d12-b15c-67a2cccf6160"},"vehicle_type_id":"4","last_reported":1727777402,"current_range_meters":6800,"station_id":"ce4bhm92rcd13ifvqglg","pricing_plan_id":"cebpf4jnsgd1na2vs0mg"},{"bike_id":"b8a987a8-7d48-46bc-9ea0-bbe5bfc1956f","system_id":"levelo_inurba_marseille","lat":43.29709,"lon":5.37698,"is_reserved":false,"is_disabled":false,"rental_uris":{"android":"levelo://app?vid=b8a987a8-7d48-46bc-9ea0-bbe5bfc1956f","ios":"levelo://app?vid=b8a987a8-7d48-46bc-9ea0-bbe5bfc1956f"},"vehicle_type_id":"4","last_reported":1727777402,"current_range_meters":35200,"station_id":"ce4bgkh2rcd13ifvqbl0","pricing_plan_id":"cebpf4jnsgd1na2vs0mg"},{"bike_id":"f40907cb-16fc-4b0e-9513-8d6d9ed41c19","system_id":"levelo_inurba_marseille","lat":43.30309,"lon":5.369,"is_reserved":false,"is_disabled":false,"rental_uris":{"android":"levelo://app?vid=f40907cb-16fc-4b0e-9513-8d6d9ed41c19","ios":"levelo://app?vid=f40907cb-16fc-4b0e-9513-8d6d9ed41c19"},"vehicle_type_id":"4","last_reported":1727777402,"current_range_meters":6800,"station_id":"ce4bgqh2rcd13ifvqc5g","pricing_plan_id":"cebpf4jnsgd1na2vs0mg"},{"bike_id":"8b6093db-3634-446a-b668-55835c0dbcfb","system_id":"levelo_inurba_marseille","lat":43.2593,"lon":5.40909,"is_reserved":false,"is_disabled":false,"rental_uris":{"android":"levelo://app?vid=8b6093db-3634-446a-b668-55835c0dbcfb","ios":"levelo://app?vid=8b6093db-3634-446a-b668-55835c0dbcfb"},"vehicle_type_id":"4","last_reported":1727777402,"current_range_meters":5600,"station_id":"ce4bhm92rcd13ifvqglg","pricing_plan_id":"cebpf4jnsgd1na2vs0mg"},{"bike_id":"609515ae-9965-41fb-9a99-3616bd005e5c","system_id":"levelo_inurba_marseille","lat":43.24655,"lon":5.39911,"is_reserved":false,"is_disabled":false,"rental_uris":{"android":"levelo://app?vid=609515ae-9965-41fb-9a99-3616bd005e5c","ios":"levelo://app?vid=609515ae-9965-41fb-9a99-3616bd005e5c"},"vehicle_type_id":"4","last_reported":1727777402,"current_range_meters":15200,"station_id":"ce4bhgh2rcd13ifvqfb0","pricing_plan_id":"cebpf4jnsgd1na2vs0mg"},{"bike_id":"cebd3eee-4d43-48d2-bc20-08ae08a02893","system_id":"levelo_inurba_marseille","lat":43.33606,"lon":5.41036,"is_reserved":false,"is_disabled":false,"rental_uris":{"android":"levelo://app?vid=cebd3eee-4d43-48d2-bc20-08ae08a02893","ios":"levelo://app?vid=cebd3eee-4d43-48d2-bc20-08ae08a02893"},"vehicle_type_id":"4","last_reported":1727777402,"current_range_meters":9200,"station_id":"ce4bhqh2rcd13ifvqhmg","pricing_plan_id":"cebpf4jnsgd1na2vs0mg"},{"bike_id":"19d627ed-afc0-481a-b612-4b6b09430005","system_id":"levelo_inurba_marseille","lat":43.29018,"lon":5.38144,"is_reserved":false,"is_disabled":false,"rental_uris":{"android":"levelo://app?vid=19d627ed-afc0-481a-b612-4b6b09430005","ios":"levelo://app?vid=19d627ed-afc0-481a-b612-4b6b09430005"},"vehicle_type_id":"4","last_reported":1727777402,"current_range_meters":8800,"station_id":"ce4bh4p2rcd13ifvqe1g","pricing_plan_id":"cebpf4jnsgd1na2vs0mg"},{"bike_id":"6a2cee02-1f8e-49df-80d7-fb7df525efe7","system_id":"levelo_inurba_marseille","lat":43.27556,"lon":5.38425,"is_reserved":false,"is_disabled":false,"rental_uris":{"android":"levelo://app?vid=6a2cee02-1f8e-49df-80d7-fb7df525efe7","ios":"levelo://app?vid=6a2cee02-1f8e-49df-80d7-fb7df525efe7"},"vehicle_type_id":"4","last_reported":1727777402,"current_range_meters":31200,"station_id":"ce4bhh92rcd13ifvqfi0","pricing_plan_id":"cebpf4jnsgd1na2vs0mg"},{"bike_id":"91d85fdb-b072-4e36-8ea7-0a8472881dde","system_id":"levelo_inurba_marseille","lat":43.29596,"lon":5.37384,"is_reserved":false,"is_disabled":false,"rental_uris":{"android":"levelo://app?vid=91d85fdb-b072-4e36-8ea7-0a8472881dde","ios":"levelo://app?vid=91d85fdb-b072-4e36-8ea7-0a8472881dde"},"vehicle_type_id":"4","last_reported":1727777402,"current_range_meters":21600,"station_id":"ce4bhb12rcd13ifvqel0","pricing_plan_id":"cebpf4jnsgd1na2vs0mg"},{"bike_id":"168e8ccc-5d9b-4b86-97df-32bc2d94161c","system_id":"levelo_inurba_marseille","lat":43.29014,"lon":5.38139,"is_reserved":false,"is_disabled":false,"rental_uris":{"android":"levelo://app?vid=168e8ccc-5d9b-4b86-97df-32bc2d94161c","ios":"levelo://app?vid=168e8ccc-5d9b-4b86-97df-32bc2d94161c"},"vehicle_type_id":"4","last_reported":1727777402,"current_range_meters":18800,"station_id":"ce4bh4p2rcd13ifvqe1g","pricing_plan_id":"cebpf4jnsgd1na2vs0mg"},{"bike_id":"e2f2008d-89bf-4f56-a11f-e3169bea2cfd","system_id":"levelo_inurba_marseille","lat":43.29271,"lon":5.38443,"is_reserved":false,"is_disabled":false,"rental_uris":{"android":"levelo://app?vid=e2f2008d-89bf-4f56-a11f-e3169bea2cfd","ios":"levelo://app?vid=e2f2008d-89bf-4f56-a11f-e3169bea2cfd"},"vehicle_type_id":"4","last_reported":1727777402,"current_range_meters":31200,"station_id":"ce4bh692rcd13ifvqea0","pricing_plan_id":"cebpf4jnsgd1na2vs0mg"},{"bike_id":"8071721c-cc18-43c0-a682-59552b4b5825","system_id":"levelo_inurba_marseille","lat":43.30434,"lon":5.38881,"is_reserved":false,"is_disabled":false,"rental_uris":{"android":"levelo://app?vid=8071721c-cc18-43c0-a682-59552b4b5825","ios":"levelo://app?vid=8071721c-cc18-43c0-a682-59552b4b5825"},"vehicle_type_id":"4","last_reported":1727777402,"current_range_meters":23200,"station_id":"","pricing_plan_id":"cebpf4jnsgd1na2vs0mg"},{"bike_id":"ee4c39f0-bb30-48bd-be92-5e42c02027fc","system_id":"levelo_inurba_marseille","lat":43.2668,"lon":5.38263,"is_reserved":false,"is_disabled":false,"rental_uris":{"android":"levelo://app?vid=ee4c39f0-bb30-48bd-be92-5e42c02027fc","ios":"levelo://app?vid=ee4c39f0-bb30-48bd-be92-5e42c02027fc"},"vehicle_type_id":"4","last_reported":1727777402,"current_range_meters":20400,"station_id":"ce4bhg92rcd13ifvqf90","pricing_plan_id":"cebpf4jnsgd1na2vs0mg"},{"bike_id":"43bdf11c-7f04-4c41-9c16-9f7e4a1248c8","system_id":"levelo_inurba_marseille","lat":43.29565,"lon":5.37532,"is_reserved":false,"is_disabled":false,"rental_uris":{"android":"levelo://app?vid=43bdf11c-7f04-4c41-9c16-9f7e4a1248c8","ios":"levelo://app?vid=43bdf11c-7f04-4c41-9c16-9f7e4a1248c8"},"vehicle_type_id":"4","last_reported":1727777402,"current_range_meters":36800,"station_id":"ce4bgop2rcd13ifvqc1g","pricing_plan_id":"cebpf4jnsgd1na2vs0mg"},{"bike_id":"1dcdcf5f-3bcb-4a0d-b1b8-2ae7e82479ef","system_id":"levelo_inurba_marseille","lat":43.23154,"lon":5.43701,"is_reserved":false,"is_disabled":false,"rental_uris":{"android":"levelo://app?vid=1dcdcf5f-3bcb-4a0d-b1b8-2ae7e82479ef","ios":"levelo://app?vid=1dcdcf5f-3bcb-4a0d-b1b8-2ae7e82479ef"},"vehicle_type_id":"4","last_reported":1727777402,"current_range_meters":18000,"station_id":"ce4bhmp2rcd13ifvqgog","pricing_plan_id":"cebpf4jnsgd1na2vs0mg"},{"bike_id":"61655881-16c9-4131-ab8d-8f63c999894c","system_id":"levelo_inurba_marseille","lat":43.30556,"lon":5.36546,"is_reserved":false,"is_disabled":false,"rental_uris":{"android":"levelo://app?vid=61655881-16c9-4131-ab8d-8f63c999894c","ios":"levelo://app?vid=61655881-16c9-4131-ab8d-8f63c999894c"},"vehicle_type_id":"4","last_reported":1727777402,"current_range_meters":40000,"station_id":"ce4bgs12rcd13ifvqcag","pricing_plan_id":"cebpf4jnsgd1na2vs0mg"},{"bike_id":"d6778df2-5b73-4b02-b63b-972393badd87","system_id":"levelo_inurba_marseille","lat":43.28696,"lon":5.374,"is_reserved":false,"is_disabled":false,"rental_uris":{"android":"levelo://app?vid=d6778df2-5b73-4b02-b63b-972393badd87","ios":"levelo://app?vid=d6778df2-5b73-4b02-b63b-972393badd87"},"vehicle_type_id":"4","last_reported":1727777402,"current_range_meters":28800,"station_id":"ce4bh3p2rcd13ifvqdq0","pricing_plan_id":"cebpf4jnsgd1na2vs0mg"},{"bike_id":"4edeb951-dcde-4453-b918-a44c6fd1e527","system_id":"levelo_inurba_marseille","lat":43.29015,"lon":5.38133,"is_reserved":false,"is_disabled":false,"rental_uris":{"android":"levelo://app?vid=4edeb951-dcde-4453-b918-a44c6fd1e527","ios":"levelo://app?vid=4edeb951-dcde-4453-b918-a44c6fd1e527"},"vehicle_type_id":"4","last_reported":1727777402,"current_range_meters":9600,"station_id":"ce4bh4p2rcd13ifvqe1g","pricing_plan_id":"cebpf4jnsgd1na2vs0mg"},{"bike_id":"a1e449c9-30e5-460e-ba67-82a7d6db830f","system_id":"levelo_inurba_marseille","lat":43.24175,"lon":5.39736,"is_reserved":false,"is_disabled":false,"rental_uris":{"android":"levelo://app?vid=a1e449c9-30e5-460e-ba67-82a7d6db830f","ios":"levelo://app?vid=a1e449c9-30e5-460e-ba67-82a7d6db830f"},"vehicle_type_id":"4","last_reported":1727777402,"current_range_meters":27200,"station_id":"ce4bhn12rcd13ifvqgpg","pricing_plan_id":"cebpf4jnsgd1na2vs0mg"},{"bike_id":"339388e8-ee6b-4b29-9911-0612c4420461","system_id":"levelo_inurba_marseille","lat":43.337444,"lon":5.374475,"is_reserved":false,"is_disabled":false,"rental_uris":{"android":"levelo://app?vid=339388e8-ee6b-4b29-9911-0612c4420461","ios":"levelo://app?vid=339388e8-ee6b-4b29-9911-0612c4420461"},"vehicle_type_id":"4","last_reported":1727777402,"current_range_meters":36800,"station_id":"","pricing_plan_id":"cebpf4jnsgd1na2vs0mg"},{"bike_id":"040c0dee-6f56-4696-bc60-b436e0337a3a","system_id":"levelo_inurba_marseille","lat":43.30194,"lon":5.36619,"is_reserved":false,"is_disabled":false,"rental_uris":{"android":"levelo://app?vid=040c0dee-6f56-4696-bc60-b436e0337a3a","ios":"levelo://app?vid=040c0dee-6f56-4696-bc60-b436e0337a3a"},"vehicle_type_id":"4","last_reported":1727777402,"current_range_meters":28000,"station_id":"ce4bgrh2rcd13ifvqc8g","pricing_plan_id":"cebpf4jnsgd1na2vs0mg"},{"bike_id":"7fb5d065-2ef8-4492-8b6f-c63a16373982","system_id":"levelo_inurba_marseille","lat":43.3054,"lon":5.36547,"is_reserved":false,"is_disabled":false,"rental_uris":{"android":"levelo://app?vid=7fb5d065-2ef8-4492-8b6f-c63a16373982","ios":"levelo://app?vid=7fb5d065-2ef8-4492-8b6f-c63a16373982"},"vehicle_type_id":"4","last_reported":1727777402,"current_range_meters":40000,"station_id":"ce4bgs12rcd13ifvqcag","pricing_plan_id":"cebpf4jnsgd1na2vs0mg"},{"bike_id":"e17d2d3d-fbf7-414a-bb9b-f7b19bbb1986","system_id":"levelo_inurba_marseille","lat":43.2749,"lon":5.42455,"is_reserved":false,"is_disabled":false,"rental_uris":{"android":"levelo://app?vid=e17d2d3d-fbf7-414a-bb9b-f7b19bbb1986","ios":"levelo://app?vid=e17d2d3d-fbf7-414a-bb9b-f7b19bbb1986"},"vehicle_type_id":"4","last_reported":1727777402,"current_range_meters":32800,"station_id":"ce4bhn92rcd13ifvqgrg","pricing_plan_id":"cebpf4jnsgd1na2vs0mg"},{"bike_id":"5bdc1fa4-140d-433c-819d-10b9de658c4f","system_id":"levelo_inurba_marseille","lat":43.26028,"lon":5.37551,"is_reserved":false,"is_disabled":false,"rental_uris":{"android":"levelo://app?vid=5bdc1fa4-140d-433c-819d-10b9de658c4f","ios":"levelo://app?vid=5bdc1fa4-140d-433c-819d-10b9de658c4f"},"vehicle_type_id":"4","last_reported":1727777402,"current_range_meters":25200,"station_id":"ce4bhgh2rcd13ifvqfa0","pricing_plan_id":"cebpf4jnsgd1na2vs0mg"},{"bike_id":"f8f20fa6-f1d5-43f8-9c31-1ab159b24e4b","system_id":"levelo_inurba_marseille","lat":43.29623,"lon":5.37161,"is_reserved":false,"is_disabled":false,"rental_uris":{"android":"levelo://app?vid=f8f20fa6-f1d5-43f8-9c31-1ab159b24e4b","ios":"levelo://app?vid=f8f20fa6-f1d5-43f8-9c31-1ab159b24e4b"},"vehicle_type_id":"4","last_reported":1727777402,"current_range_meters":25200,"station_id":"ce4bgnh2rcd13ifvqc0g","pricing_plan_id":"cebpf4jnsgd1na2vs0mg"},{"bike_id":"2c4647d4-5e15-4168-ae51-707b7f30f335","system_id":"levelo_inurba_marseille","lat":43.282715,"lon":5.350653,"is_reserved":false,"is_disabled":false,"rental_uris":{"android":"levelo://app?vid=2c4647d4-5e15-4168-ae51-707b7f30f335","ios":"levelo://app?vid=2c4647d4-5e15-4168-ae51-707b7f30f335"},"vehicle_type_id":"4","last_reported":1727777402,"current_range_meters":30000,"station_id":"ce4bhbp2rcd13ifvqerg","pricing_plan_id":"cebpf4jnsgd1na2vs0mg"},{"bike_id":"c57c4c0e-adf5-413b-9015-f77a84eb69e1","system_id":"levelo_inurba_marseille","lat":43.28695,"lon":5.37397,"is_reserved":false,"is_disabled":false,"rental_uris":{"android":"levelo://app?vid=c57c4c0e-adf5-413b-9015-f77a84eb69e1","ios":"levelo://app?vid=c57c4c0e-adf5-413b-9015-f77a84eb69e1"},"vehicle_type_id":"4","last_reported":1727777402,"current_range_meters":33600,"station_id":"ce4bh3p2rcd13ifvqdq0","pricing_plan_id":"cebpf4jnsgd1na2vs0mg"},{"bike_id":"7aa9e0ac-f144-47c9-bc6f-a764057848ed","system_id":"levelo_inurba_marseille","lat":43.23962,"lon":5.36632,"is_reserved":false,"is_disabled":false,"rental_uris":{"android":"levelo://app?vid=7aa9e0ac-f144-47c9-bc6f-a764057848ed","ios":"levelo://app?vid=7aa9e0ac-f144-47c9-bc6f-a764057848ed"},"vehicle_type_id":"4","last_reported":1727777402,"current_range_meters":12000,"station_id":"ce4bhi12rcd13ifvqfp0","pricing_plan_id":"cebpf4jnsgd1na2vs0mg"},{"bike_id":"b55c1ee3-6145-4544-b27a-0db1f113711a","system_id":"levelo_inurba_marseille","lat":43.298584,"lon":5.436567,"is_reserved":false,"is_disabled":false,"rental_uris":{"android":"levelo://app?vid=b55c1ee3-6145-4544-b27a-0db1f113711a","ios":"levelo://app?vid=b55c1ee3-6145-4544-b27a-0db1f113711a"},"vehicle_type_id":"4","last_reported":1727777402,"current_range_meters":20800,"station_id":"ce4bhpp2rcd13ifvqhfg","pricing_plan_id":"cebpf4jnsgd1na2vs0mg"},{"bike_id":"fb02725f-56ac-4247-b9d0-734ff87f21ca","system_id":"levelo_inurba_marseille","lat":43.32657,"lon":5.40997,"is_reserved":false,"is_disabled":false,"rental_uris":{"android":"levelo://app?vid=fb02725f-56ac-4247-b9d0-734ff87f21ca","ios":"levelo://app?vid=fb02725f-56ac-4247-b9d0-734ff87f21ca"},"vehicle_type_id":"4","last_reported":1727777402,"current_range_meters":33600,"station_id":"ce4bhpp2rcd13ifvqhgg","pricing_plan_id":"cebpf4jnsgd1na2vs0mg"},{"bike_id":"5d34d44a-5657-4046-9997-746fa7323ea5","system_id":"levelo_inurba_marseille","lat":43.32554,"lon":5.41424,"is_reserved":false,"is_disabled":false,"rental_uris":{"android":"levelo://app?vid=5d34d44a-5657-4046-9997-746fa7323ea5","ios":"levelo://app?vid=5d34d44a-5657-4046-9997-746fa7323ea5"},"vehicle_type_id":"4","last_reported":1727777402,"current_range_meters":37600,"station_id":"ce4bhq12rcd13ifvqhhg","pricing_plan_id":"cebpf4jnsgd1na2vs0mg"},{"bike_id":"91141fcb-6da8-47a5-8047-6a5496fc23fe","system_id":"levelo_inurba_marseille","lat":43.28484,"lon":5.3855,"is_reserved":false,"is_disabled":false,"rental_uris":{"android":"levelo://app?vid=91141fcb-6da8-47a5-8047-6a5496fc23fe","ios":"levelo://app?vid=91141fcb-6da8-47a5-8047-6a5496fc23fe"},"vehicle_type_id":"4","last_reported":1727777402,"current_range_meters":38000,"station_id":"ce4bh8p2rcd13ifvqeb0","pricing_plan_id":"cebpf4jnsgd1na2vs0mg"},{"bike_id":"a85ce21b-5ed7-46cd-a8e6-5ed48ca6beaf","system_id":"levelo_inurba_marseille","lat":43.26783,"lon":5.39422,"is_reserved":false,"is_disabled":false,"rental_uris":{"android":"levelo://app?vid=a85ce21b-5ed7-46cd-a8e6-5ed48ca6beaf","ios":"levelo://app?vid=a85ce21b-5ed7-46cd-a8e6-5ed48ca6beaf"},"vehicle_type_id":"4","last_reported":1727777402,"current_range_meters":38000,"station_id":"ce4bhh12rcd13ifvqfg0","pricing_plan_id":"cebpf4jnsgd1na2vs0mg"},{"bike_id":"63f10e86-8660-4331-a40e-1476b016bc7b","system_id":"levelo_inurba_marseille","lat":43.23431,"lon":5.35942,"is_reserved":false,"is_disabled":false,"rental_uris":{"android":"levelo://app?vid=63f10e86-8660-4331-a40e-1476b016bc7b","ios":"levelo://app?vid=63f10e86-8660-4331-a40e-1476b016bc7b"},"vehicle_type_id":"4","last_reported":1727777402,"current_range_meters":30800,"station_id":"","pricing_plan_id":"cebpf4jnsgd1na2vs0mg"},{"bike_id":"b1f09baf-efb6-4048-8222-4ed4e16cbf39","system_id":"levelo_inurba_marseille","lat":43.23148,"lon":5.43711,"is_reserved":false,"is_disabled":false,"rental_uris":{"android":"levelo://app?vid=b1f09baf-efb6-4048-8222-4ed4e16cbf39","ios":"levelo://app?vid=b1f09baf-efb6-4048-8222-4ed4e16cbf39"},"vehicle_type_id":"4","last_reported":1727777402,"current_range_meters":9600,"station_id":"ce4bhmp2rcd13ifvqgog","pricing_plan_id":"cebpf4jnsgd1na2vs0mg"},{"bike_id":"03a0c5a3-b6a6-45e0-92f3-52d0b8cdcb15","system_id":"levelo_inurba_marseille","lat":43.29605,"lon":5.38101,"is_reserved":false,"is_disabled":false,"rental_uris":{"android":"levelo://app?vid=03a0c5a3-b6a6-45e0-92f3-52d0b8cdcb15","ios":"levelo://app?vid=03a0c5a3-b6a6-45e0-92f3-52d0b8cdcb15"},"vehicle_type_id":"4","last_reported":1727777402,"current_range_meters":37600,"station_id":"ce4bgl12rcd13ifvqbo0","pricing_plan_id":"cebpf4jnsgd1na2vs0mg"},{"bike_id":"96efbf29-503c-4bbd-a337-fd7c45f0f409","system_id":"levelo_inurba_marseille","lat":43.27932,"lon":5.39565,"is_reserved":false,"is_disabled":false,"rental_uris":{"android":"levelo://app?vid=96efbf29-503c-4bbd-a337-fd7c45f0f409","ios":"levelo://app?vid=96efbf29-503c-4bbd-a337-fd7c45f0f409"},"vehicle_type_id":"4","last_reported":1727777402,"current_range_meters":29600,"station_id":"ce4bhf92rcd13ifvqf40","pricing_plan_id":"cebpf4jnsgd1na2vs0mg"},{"bike_id":"d0babadb-8879-488e-92f8-d76769a9b0e4","system_id":"levelo_inurba_marseille","lat":43.30553,"lon":5.36539,"is_reserved":false,"is_disabled":false,"rental_uris":{"android":"levelo://app?vid=d0babadb-8879-488e-92f8-d76769a9b0e4","ios":"levelo://app?vid=d0babadb-8879-488e-92f8-d76769a9b0e4"},"vehicle_type_id":"4","last_reported":1727777402,"current_range_meters":23200,"station_id":"ce4bgs12rcd13ifvqcag","pricing_plan_id":"cebpf4jnsgd1na2vs0mg"},{"bike_id":"a2648cc6-3753-4c9f-81c6-9c70f9b709c3","system_id":"levelo_inurba_marseille","lat":43.27813,"lon":5.39217,"is_reserved":false,"is_disabled":false,"rental_uris":{"android":"levelo://app?vid=a2648cc6-3753-4c9f-81c6-9c70f9b709c3","ios":"levelo://app?vid=a2648cc6-3753-4c9f-81c6-9c70f9b709c3"},"vehicle_type_id":"4","last_reported":1727777402,"current_range_meters":37600,"station_id":"ce4bhjp2rcd13ifvqga0","pricing_plan_id":"cebpf4jnsgd1na2vs0mg"},{"bike_id":"89ee7474-22b5-4ec0-a8ca-a38721e527bd","system_id":"levelo_inurba_marseille","lat":43.24179,"lon":5.39728,"is_reserved":false,"is_disabled":false,"rental_uris":{"android":"levelo://app?vid=89ee7474-22b5-4ec0-a8ca-a38721e527bd","ios":"levelo://app?vid=89ee7474-22b5-4ec0-a8ca-a38721e527bd"},"vehicle_type_id":"4","last_reported":1727777402,"current_range_meters":19600,"station_id":"ce4bhn12rcd13ifvqgpg","pricing_plan_id":"cebpf4jnsgd1na2vs0mg"},{"bike_id":"c965dffd-2d92-4a33-91c9-61a959b67683","system_id":"levelo_inurba_marseille","lat":43.31488,"lon":5.37311,"is_reserved":false,"is_disabled":false,"rental_uris":{"android":"levelo://app?vid=c965dffd-2d92-4a33-91c9-61a959b67683","ios":"levelo://app?vid=c965dffd-2d92-4a33-91c9-61a959b67683"},"vehicle_type_id":"4","last_reported":1727777402,"current_range_meters":27600,"station_id":"ce4bgt12rcd13ifvqcd0","pricing_plan_id":"cebpf4jnsgd1na2vs0mg"},{"bike_id":"1e37e45a-ffba-4ff3-bbd3-5a2788cc89b2","system_id":"levelo_inurba_marseille","lat":43.33611,"lon":5.41027,"is_reserved":false,"is_disabled":false,"rental_uris":{"android":"levelo://app?vid=1e37e45a-ffba-4ff3-bbd3-5a2788cc89b2","ios":"levelo://app?vid=1e37e45a-ffba-4ff3-bbd3-5a2788cc89b2"},"vehicle_type_id":"4","last_reported":1727777402,"current_range_meters":40000,"station_id":"ce4bhqh2rcd13ifvqhmg","pricing_plan_id":"cebpf4jnsgd1na2vs0mg"},{"bike_id":"cfdb47d3-1507-413a-a1c8-ccda97b2d99f","system_id":"levelo_inurba_marseille","lat":43.31494,"lon":5.37297,"is_reserved":false,"is_disabled":false,"rental_uris":{"android":"levelo://app?vid=cfdb47d3-1507-413a-a1c8-ccda97b2d99f","ios":"levelo://app?vid=cfdb47d3-1507-413a-a1c8-ccda97b2d99f"},"vehicle_type_id":"4","last_reported":1727777402,"current_range_meters":38800,"station_id":"ce4bgt12rcd13ifvqcd0","pricing_plan_id":"cebpf4jnsgd1na2vs0mg"},{"bike_id":"7e3d6a4f-645f-4818-8df4-b922f13f0f6d","system_id":"levelo_inurba_marseille","lat":43.29771,"lon":5.38083,"is_reserved":false,"is_disabled":false,"rental_uris":{"android":"levelo://app?vid=7e3d6a4f-645f-4818-8df4-b922f13f0f6d","ios":"levelo://app?vid=7e3d6a4f-645f-4818-8df4-b922f13f0f6d"},"vehicle_type_id":"4","last_reported":1727777402,"current_range_meters":27200,"station_id":"ce4bgip2rcd13ifvqbb0","pricing_plan_id":"cebpf4jnsgd1na2vs0mg"},{"bike_id":"5228666f-9aa4-4309-a031-4ed02b54189e","system_id":"levelo_inurba_marseille","lat":43.284821,"lon":5.384203,"is_reserved":false,"is_disabled":false,"rental_uris":{"android":"levelo://app?vid=5228666f-9aa4-4309-a031-4ed02b54189e","ios":"levelo://app?vid=5228666f-9aa4-4309-a031-4ed02b54189e"},"vehicle_type_id":"4","last_reported":1727777402,"current_range_meters":19200,"station_id":"ce4bh512rcd13ifvqe3g","pricing_plan_id":"cebpf4jnsgd1na2vs0mg"},{"bike_id":"c3efae4e-1fa8-4c63-9762-e375703c1cb6","system_id":"levelo_inurba_marseille","lat":43.30289,"lon":5.37699,"is_reserved":false,"is_disabled":false,"rental_uris":{"android":"levelo://app?vid=c3efae4e-1fa8-4c63-9762-e375703c1cb6","ios":"levelo://app?vid=c3efae4e-1fa8-4c63-9762-e375703c1cb6"},"vehicle_type_id":"4","last_reported":1727777402,"current_range_meters":20000,"station_id":"ce4bguh2rcd13ifvqcj0","pricing_plan_id":"cebpf4jnsgd1na2vs0mg"},{"bike_id":"69b5732c-10b0-4207-9acb-e17f5868843e","system_id":"levelo_inurba_marseille","lat":43.2957,"lon":5.37523,"is_reserved":false,"is_disabled":false,"rental_uris":{"android":"levelo://app?vid=69b5732c-10b0-4207-9acb-e17f5868843e","ios":"levelo://app?vid=69b5732c-10b0-4207-9acb-e17f5868843e"},"vehicle_type_id":"4","last_reported":1727777402,"current_range_meters":17200,"station_id":"ce4bgh92rcd13ifvqb50","pricing_plan_id":"cebpf4jnsgd1na2vs0mg"},{"bike_id":"d0f65785-8fdf-4cf1-a675-729295860d7a","system_id":"levelo_inurba_marseille","lat":43.25943,"lon":5.40893,"is_reserved":false,"is_disabled":false,"rental_uris":{"android":"levelo://app?vid=d0f65785-8fdf-4cf1-a675-729295860d7a","ios":"levelo://app?vid=d0f65785-8fdf-4cf1-a675-729295860d7a"},"vehicle_type_id":"4","last_reported":1727777402,"current_range_meters":30400,"station_id":"ce4bhm92rcd13ifvqglg","pricing_plan_id":"cebpf4jnsgd1na2vs0mg"},{"bike_id":"3f6d908a-8341-4f5f-8c83-53d11db78ff2","system_id":"levelo_inurba_marseille","lat":43.23967,"lon":5.36633,"is_reserved":false,"is_disabled":false,"rental_uris":{"android":"levelo://app?vid=3f6d908a-8341-4f5f-8c83-53d11db78ff2","ios":"levelo://app?vid=3f6d908a-8341-4f5f-8c83-53d11db78ff2"},"vehicle_type_id":"4","last_reported":1727777402,"current_range_meters":32800,"station_id":"ce4bhi12rcd13ifvqfp0","pricing_plan_id":"cebpf4jnsgd1na2vs0mg"},{"bike_id":"456ed098-8bb1-4745-bf06-480607717776","system_id":"levelo_inurba_marseille","lat":43.3014,"lon":5.3742,"is_reserved":false,"is_disabled":false,"rental_uris":{"android":"levelo://app?vid=456ed098-8bb1-4745-bf06-480607717776","ios":"levelo://app?vid=456ed098-8bb1-4745-bf06-480607717776"},"vehicle_type_id":"4","last_reported":1727777402,"current_range_meters":28800,"station_id":"ce4bgs92rcd13ifvqcc0","pricing_plan_id":"cebpf4jnsgd1na2vs0mg"},{"bike_id":"77e6c8c4-a97f-433e-b676-51262f3b52bf","system_id":"levelo_inurba_marseille","lat":43.25721,"lon":5.41111,"is_reserved":false,"is_disabled":false,"rental_uris":{"android":"levelo://app?vid=77e6c8c4-a97f-433e-b676-51262f3b52bf","ios":"levelo://app?vid=77e6c8c4-a97f-433e-b676-51262f3b52bf"},"vehicle_type_id":"4","last_reported":1727777402,"current_range_meters":25600,"station_id":"ce4bhkp2rcd13ifvqgd0","pricing_plan_id":"cebpf4jnsgd1na2vs0mg"},{"bike_id":"ff287d38-b82a-4a80-96fc-bd221acc9042","system_id":"levelo_inurba_marseille","lat":43.30537,"lon":5.3843,"is_reserved":false,"is_disabled":false,"rental_uris":{"android":"levelo://app?vid=ff287d38-b82a-4a80-96fc-bd221acc9042","ios":"levelo://app?vid=ff287d38-b82a-4a80-96fc-bd221acc9042"},"vehicle_type_id":"4","last_reported":1727777402,"current_range_meters":40000,"station_id":"ce4bgg92rcd13ifvqb30","pricing_plan_id":"cebpf4jnsgd1na2vs0mg"},{"bike_id":"a6f47134-244e-42f1-a1c7-323d39548d9f","system_id":"levelo_inurba_marseille","lat":43.299096,"lon":5.381493,"is_reserved":false,"is_disabled":false,"rental_uris":{"android":"levelo://app?vid=a6f47134-244e-42f1-a1c7-323d39548d9f","ios":"levelo://app?vid=a6f47134-244e-42f1-a1c7-323d39548d9f"},"vehicle_type_id":"4","last_reported":1727777402,"current_range_meters":14000,"station_id":"ce4bgrp2rcd13ifvqc9g","pricing_plan_id":"cebpf4jnsgd1na2vs0mg"},{"bike_id":"b07279f0-0817-4a51-ba92-c54a03d00832","system_id":"levelo_inurba_marseille","lat":43.26501,"lon":5.39517,"is_reserved":false,"is_disabled":false,"rental_uris":{"android":"levelo://app?vid=b07279f0-0817-4a51-ba92-c54a03d00832","ios":"levelo://app?vid=b07279f0-0817-4a51-ba92-c54a03d00832"},"vehicle_type_id":"4","last_reported":1727777402,"current_range_meters":37600,"station_id":"ce4bhi12rcd13ifvqfq0","pricing_plan_id":"cebpf4jnsgd1na2vs0mg"},{"bike_id":"be330e60-6680-4569-8567-7f3a4f0c5c7b","system_id":"levelo_inurba_marseille","lat":43.29878,"lon":5.39729,"is_reserved":false,"is_disabled":false,"rental_uris":{"android":"levelo://app?vid=be330e60-6680-4569-8567-7f3a4f0c5c7b","ios":"levelo://app?vid=be330e60-6680-4569-8567-7f3a4f0c5c7b"},"vehicle_type_id":"4","last_reported":1727777402,"current_range_meters":33600,"station_id":"ce4bh0h2rcd13ifvqd50","pricing_plan_id":"cebpf4jnsgd1na2vs0mg"},{"bike_id":"282d9de0-9835-42e1-8da8-fa21914b0fce","system_id":"levelo_inurba_marseille","lat":43.3189,"lon":5.40729,"is_reserved":false,"is_disabled":false,"rental_uris":{"android":"levelo://app?vid=282d9de0-9835-42e1-8da8-fa21914b0fce","ios":"levelo://app?vid=282d9de0-9835-42e1-8da8-fa21914b0fce"},"vehicle_type_id":"4","last_reported":1727777402,"current_range_meters":38800,"station_id":"ce4bhq12rcd13ifvqhig","pricing_plan_id":"cebpf4jnsgd1na2vs0mg"},{"bike_id":"ddf2fe3e-8257-483c-8f44-952e91e13fec","system_id":"levelo_inurba_marseille","lat":43.282684,"lon":5.350669,"is_reserved":false,"is_disabled":false,"rental_uris":{"android":"levelo://app?vid=ddf2fe3e-8257-483c-8f44-952e91e13fec","ios":"levelo://app?vid=ddf2fe3e-8257-483c-8f44-952e91e13fec"},"vehicle_type_id":"4","last_reported":1727777402,"current_range_meters":18000,"station_id":"ce4bhbp2rcd13ifvqerg","pricing_plan_id":"cebpf4jnsgd1na2vs0mg"},{"bike_id":"59dea60b-0868-493c-8d4e-1efd870d8b0c","system_id":"levelo_inurba_marseille","lat":43.31543,"lon":5.38036,"is_reserved":false,"is_disabled":false,"rental_uris":{"android":"levelo://app?vid=59dea60b-0868-493c-8d4e-1efd870d8b0c","ios":"levelo://app?vid=59dea60b-0868-493c-8d4e-1efd870d8b0c"},"vehicle_type_id":"4","last_reported":1727777402,"current_range_meters":6000,"station_id":"ce4bhsp2rcd13ifvqi50","pricing_plan_id":"cebpf4jnsgd1na2vs0mg"},{"bike_id":"1d2faa8e-af6c-44e3-b794-c0aa041aec2e","system_id":"levelo_inurba_marseille","lat":43.29575,"lon":5.39975,"is_reserved":false,"is_disabled":false,"rental_uris":{"android":"levelo://app?vid=1d2faa8e-af6c-44e3-b794-c0aa041aec2e","ios":"levelo://app?vid=1d2faa8e-af6c-44e3-b794-c0aa041aec2e"},"vehicle_type_id":"4","last_reported":1727777402,"current_range_meters":30400,"station_id":"ce4bh312rcd13ifvqdj0","pricing_plan_id":"cebpf4jnsgd1na2vs0mg"},{"bike_id":"34aaa573-5e3e-4a46-8e17-5089b16483b3","system_id":"levelo_inurba_marseille","lat":43.29605,"lon":5.38109,"is_reserved":false,"is_disabled":false,"rental_uris":{"android":"levelo://app?vid=34aaa573-5e3e-4a46-8e17-5089b16483b3","ios":"levelo://app?vid=34aaa573-5e3e-4a46-8e17-5089b16483b3"},"vehicle_type_id":"4","last_reported":1727777402,"current_range_meters":35200,"station_id":"ce4bgl12rcd13ifvqbo0","pricing_plan_id":"cebpf4jnsgd1na2vs0mg"},{"bike_id":"cd351f41-0232-41e7-a115-73a8845888a4","system_id":"levelo_inurba_marseille","lat":43.28618,"lon":5.35104,"is_reserved":false,"is_disabled":false,"rental_uris":{"android":"levelo://app?vid=cd351f41-0232-41e7-a115-73a8845888a4","ios":"levelo://app?vid=cd351f41-0232-41e7-a115-73a8845888a4"},"vehicle_type_id":"4","last_reported":1727777402,"current_range_meters":10000,"station_id":"ce4bhch2rcd13ifvqeug","pricing_plan_id":"cebpf4jnsgd1na2vs0mg"},{"bike_id":"695c6edc-9d98-4011-8dff-68578c4ede8a","system_id":"levelo_inurba_marseille","lat":43.23145,"lon":5.43716,"is_reserved":false,"is_disabled":false,"rental_uris":{"android":"levelo://app?vid=695c6edc-9d98-4011-8dff-68578c4ede8a","ios":"levelo://app?vid=695c6edc-9d98-4011-8dff-68578c4ede8a"},"vehicle_type_id":"4","last_reported":1727777402,"current_range_meters":20400,"station_id":"ce4bhmp2rcd13ifvqgog","pricing_plan_id":"cebpf4jnsgd1na2vs0mg"},{"bike_id":"b5cee419-0bf1-43b6-a625-0f8592325c45","system_id":"levelo_inurba_marseille","lat":43.30266,"lon":5.37768,"is_reserved":false,"is_disabled":false,"rental_uris":{"android":"levelo://app?vid=b5cee419-0bf1-43b6-a625-0f8592325c45","ios":"levelo://app?vid=b5cee419-0bf1-43b6-a625-0f8592325c45"},"vehicle_type_id":"4","last_reported":1727777402,"current_range_meters":35200,"station_id":"ce4bguh2rcd13ifvqcj0","pricing_plan_id":"cebpf4jnsgd1na2vs0mg"},{"bike_id":"e309015c-15f8-428a-9813-a3924bc6c620","system_id":"levelo_inurba_marseille","lat":43.32702,"lon":5.37821,"is_reserved":false,"is_disabled":false,"rental_uris":{"android":"levelo://app?vid=e309015c-15f8-428a-9813-a3924bc6c620","ios":"levelo://app?vid=e309015c-15f8-428a-9813-a3924bc6c620"},"vehicle_type_id":"4","last_reported":1727777402,"current_range_meters":35200,"station_id":"","pricing_plan_id":"cebpf4jnsgd1na2vs0mg"},{"bike_id":"f8f518e3-bd48-40f5-801a-4ead88758ee2","system_id":"levelo_inurba_marseille","lat":43.32109,"lon":5.36777,"is_reserved":false,"is_disabled":false,"rental_uris":{"android":"levelo://app?vid=f8f518e3-bd48-40f5-801a-4ead88758ee2","ios":"levelo://app?vid=f8f518e3-bd48-40f5-801a-4ead88758ee2"},"vehicle_type_id":"4","last_reported":1727777402,"current_range_meters":16400,"station_id":"ce4bhrh2rcd13ifvqhug","pricing_plan_id":"cebpf4jnsgd1na2vs0mg"},{"bike_id":"ee6c2aa8-feaf-41aa-9106-42404ebc437e","system_id":"levelo_inurba_marseille","lat":43.28158,"lon":5.426405,"is_reserved":false,"is_disabled":false,"rental_uris":{"android":"levelo://app?vid=ee6c2aa8-feaf-41aa-9106-42404ebc437e","ios":"levelo://app?vid=ee6c2aa8-feaf-41aa-9106-42404ebc437e"},"vehicle_type_id":"4","last_reported":1727777402,"current_range_meters":14000,"station_id":"ce4bhnh2rcd13ifvqgug","pricing_plan_id":"cebpf4jnsgd1na2vs0mg"},{"bike_id":"99fc8182-8535-4a97-a465-b996b660b037","system_id":"levelo_inurba_marseille","lat":43.30547,"lon":5.36712,"is_reserved":false,"is_disabled":false,"rental_uris":{"android":"levelo://app?vid=99fc8182-8535-4a97-a465-b996b660b037","ios":"levelo://app?vid=99fc8182-8535-4a97-a465-b996b660b037"},"vehicle_type_id":"4","last_reported":1727777402,"current_range_meters":40000,"station_id":"ce4bgrp2rcd13ifvqc9g","pricing_plan_id":"cebpf4jnsgd1na2vs0mg"},{"bike_id":"231a96c3-6108-4cd1-9e26-06ff02ddbc65","system_id":"levelo_inurba_marseille","lat":43.29566,"lon":5.37516,"is_reserved":false,"is_disabled":false,"rental_uris":{"android":"levelo://app?vid=231a96c3-6108-4cd1-9e26-06ff02ddbc65","ios":"levelo://app?vid=231a96c3-6108-4cd1-9e26-06ff02ddbc65"},"vehicle_type_id":"4","last_reported":1727777402,"current_range_meters":33600,"station_id":"ce4bgh92rcd13ifvqb50","pricing_plan_id":"cebpf4jnsgd1na2vs0mg"},{"bike_id":"d1431802-150b-45f6-9a3c-4a0506b46b17","system_id":"levelo_inurba_marseille","lat":43.29303,"lon":5.37433,"is_reserved":false,"is_disabled":false,"rental_uris":{"android":"levelo://app?vid=d1431802-150b-45f6-9a3c-4a0506b46b17","ios":"levelo://app?vid=d1431802-150b-45f6-9a3c-4a0506b46b17"},"vehicle_type_id":"4","last_reported":1727777402,"current_range_meters":31200,"station_id":"ce4bgi12rcd13ifvqb70","pricing_plan_id":"cebpf4jnsgd1na2vs0mg"},{"bike_id":"53f5653f-4251-4051-9d68-b3a8ea7967ab","system_id":"levelo_inurba_marseille","lat":43.27566,"lon":5.38418,"is_reserved":false,"is_disabled":false,"rental_uris":{"android":"levelo://app?vid=53f5653f-4251-4051-9d68-b3a8ea7967ab","ios":"levelo://app?vid=53f5653f-4251-4051-9d68-b3a8ea7967ab"},"vehicle_type_id":"4","last_reported":1727777402,"current_range_meters":20400,"station_id":"ce4bhh92rcd13ifvqfi0","pricing_plan_id":"cebpf4jnsgd1na2vs0mg"},{"bike_id":"dfa51c2d-81af-416e-b226-02c0eac6c47e","system_id":"levelo_inurba_marseille","lat":43.29379,"lon":5.37848,"is_reserved":false,"is_disabled":false,"rental_uris":{"android":"levelo://app?vid=dfa51c2d-81af-416e-b226-02c0eac6c47e","ios":"levelo://app?vid=dfa51c2d-81af-416e-b226-02c0eac6c47e"},"vehicle_type_id":"4","last_reported":1727777402,"current_range_meters":25600,"station_id":"ce4bgjh2rcd13ifvqbf0","pricing_plan_id":"cebpf4jnsgd1na2vs0mg"},{"bike_id":"f95e7518-6905-4aa2-b6db-2f3d3b4d4f2d","system_id":"levelo_inurba_marseille","lat":43.29303,"lon":5.385255,"is_reserved":false,"is_disabled":false,"rental_uris":{"android":"levelo://app?vid=f95e7518-6905-4aa2-b6db-2f3d3b4d4f2d","ios":"levelo://app?vid=f95e7518-6905-4aa2-b6db-2f3d3b4d4f2d"},"vehicle_type_id":"4","last_reported":1727777402,"current_range_meters":12000,"station_id":"ce4bgop2rcd13ifvqc1g","pricing_plan_id":"cebpf4jnsgd1na2vs0mg"},{"bike_id":"d9aa2af3-d6e7-45ae-9671-de00650f6fc2","system_id":"levelo_inurba_marseille","lat":43.25003,"lon":5.38925,"is_reserved":false,"is_disabled":false,"rental_uris":{"android":"levelo://app?vid=d9aa2af3-d6e7-45ae-9671-de00650f6fc2","ios":"levelo://app?vid=d9aa2af3-d6e7-45ae-9671-de00650f6fc2"},"vehicle_type_id":"4","last_reported":1727777402,"current_range_meters":36000,"station_id":"ce4bhgp2rcd13ifvqfd0","pricing_plan_id":"cebpf4jnsgd1na2vs0mg"},{"bike_id":"eb621fa3-69e3-4d28-9ef1-3354a8e8d472","system_id":"levelo_inurba_marseille","lat":43.29591,"lon":5.381,"is_reserved":false,"is_disabled":false,"rental_uris":{"android":"levelo://app?vid=eb621fa3-69e3-4d28-9ef1-3354a8e8d472","ios":"levelo://app?vid=eb621fa3-69e3-4d28-9ef1-3354a8e8d472"},"vehicle_type_id":"4","last_reported":1727777402,"current_range_meters":35600,"station_id":"ce4bgl12rcd13ifvqbo0","pricing_plan_id":"cebpf4jnsgd1na2vs0mg"},{"bike_id":"8e7b8a73-3ca5-4a2e-a834-e3322d57d8e0","system_id":"levelo_inurba_marseille","lat":43.30562,"lon":5.3656,"is_reserved":false,"is_disabled":false,"rental_uris":{"android":"levelo://app?vid=8e7b8a73-3ca5-4a2e-a834-e3322d57d8e0","ios":"levelo://app?vid=8e7b8a73-3ca5-4a2e-a834-e3322d57d8e0"},"vehicle_type_id":"4","last_reported":1727777402,"current_range_meters":37600,"station_id":"ce4bgs12rcd13ifvqcag","pricing_plan_id":"cebpf4jnsgd1na2vs0mg"},{"bike_id":"79b43326-f4be-465c-b642-5919a3842052","system_id":"levelo_inurba_marseille","lat":43.30543,"lon":5.36706,"is_reserved":false,"is_disabled":false,"rental_uris":{"android":"levelo://app?vid=79b43326-f4be-465c-b642-5919a3842052","ios":"levelo://app?vid=79b43326-f4be-465c-b642-5919a3842052"},"vehicle_type_id":"4","last_reported":1727777402,"current_range_meters":32000,"station_id":"ce4bgrp2rcd13ifvqc9g","pricing_plan_id":"cebpf4jnsgd1na2vs0mg"},{"bike_id":"dfaec1d8-2335-4972-be45-43ad48daa004","system_id":"levelo_inurba_marseille","lat":43.28518,"lon":5.38395,"is_reserved":false,"is_disabled":false,"rental_uris":{"android":"levelo://app?vid=dfaec1d8-2335-4972-be45-43ad48daa004","ios":"levelo://app?vid=dfaec1d8-2335-4972-be45-43ad48daa004"},"vehicle_type_id":"4","last_reported":1727777402,"current_range_meters":36800,"station_id":"ce4bgip2rcd13ifvqbb0","pricing_plan_id":"cebpf4jnsgd1na2vs0mg"},{"bike_id":"8766606e-fbea-4190-a140-a202c1cc3b74","system_id":"levelo_inurba_marseille","lat":43.26678,"lon":5.38272,"is_reserved":false,"is_disabled":false,"rental_uris":{"android":"levelo://app?vid=8766606e-fbea-4190-a140-a202c1cc3b74","ios":"levelo://app?vid=8766606e-fbea-4190-a140-a202c1cc3b74"},"vehicle_type_id":"4","last_reported":1727777402,"current_range_meters":31200,"station_id":"ce4bhg92rcd13ifvqf90","pricing_plan_id":"cebpf4jnsgd1na2vs0mg"},{"bike_id":"e2973350-a192-4ad7-997e-932573a214dd","system_id":"levelo_inurba_marseille","lat":43.23149,"lon":5.4372,"is_reserved":false,"is_disabled":false,"rental_uris":{"android":"levelo://app?vid=e2973350-a192-4ad7-997e-932573a214dd","ios":"levelo://app?vid=e2973350-a192-4ad7-997e-932573a214dd"},"vehicle_type_id":"4","last_reported":1727777402,"current_range_meters":26000,"station_id":"ce4bhmp2rcd13ifvqgog","pricing_plan_id":"cebpf4jnsgd1na2vs0mg"},{"bike_id":"ac42fb59-2101-49eb-be3a-4c371efbbea3","system_id":"levelo_inurba_marseille","lat":43.30911,"lon":5.36857,"is_reserved":false,"is_disabled":false,"rental_uris":{"android":"levelo://app?vid=ac42fb59-2101-49eb-be3a-4c371efbbea3","ios":"levelo://app?vid=ac42fb59-2101-49eb-be3a-4c371efbbea3"},"vehicle_type_id":"4","last_reported":1727777402,"current_range_meters":16800,"station_id":"ce4bgn92rcd13ifvqbvg","pricing_plan_id":"cebpf4jnsgd1na2vs0mg"},{"bike_id":"3dc28e08-f806-4579-9e24-ea0478849778","system_id":"levelo_inurba_marseille","lat":43.28701,"lon":5.39991,"is_reserved":false,"is_disabled":false,"rental_uris":{"android":"levelo://app?vid=3dc28e08-f806-4579-9e24-ea0478849778","ios":"levelo://app?vid=3dc28e08-f806-4579-9e24-ea0478849778"},"vehicle_type_id":"4","last_reported":1727777402,"current_range_meters":14800,"station_id":"","pricing_plan_id":"cebpf4jnsgd1na2vs0mg"},{"bike_id":"d995d233-d2fe-4db9-b69b-baa1337469bf","system_id":"levelo_inurba_marseille","lat":43.26716,"lon":5.40139,"is_reserved":false,"is_disabled":false,"rental_uris":{"android":"levelo://app?vid=d995d233-d2fe-4db9-b69b-baa1337469bf","ios":"levelo://app?vid=d995d233-d2fe-4db9-b69b-baa1337469bf"},"vehicle_type_id":"4","last_reported":1727777402,"current_range_meters":14000,"station_id":"ce4bhm92rcd13ifvqglg","pricing_plan_id":"cebpf4jnsgd1na2vs0mg"},{"bike_id":"1ba7b6fd-e265-4d06-8e20-b26ba84ee730","system_id":"levelo_inurba_marseille","lat":43.23153,"lon":5.43709,"is_reserved":false,"is_disabled":false,"rental_uris":{"android":"levelo://app?vid=1ba7b6fd-e265-4d06-8e20-b26ba84ee730","ios":"levelo://app?vid=1ba7b6fd-e265-4d06-8e20-b26ba84ee730"},"vehicle_type_id":"4","last_reported":1727777402,"current_range_meters":23200,"station_id":"ce4bhmp2rcd13ifvqgog","pricing_plan_id":"cebpf4jnsgd1na2vs0mg"},{"bike_id":"4d71e1da-121c-4a6a-b954-4b83d5c2f39b","system_id":"levelo_inurba_marseille","lat":43.28472,"lon":5.3842,"is_reserved":false,"is_disabled":false,"rental_uris":{"android":"levelo://app?vid=4d71e1da-121c-4a6a-b954-4b83d5c2f39b","ios":"levelo://app?vid=4d71e1da-121c-4a6a-b954-4b83d5c2f39b"},"vehicle_type_id":"4","last_reported":1727777402,"current_range_meters":36800,"station_id":"ce4bh512rcd13ifvqe3g","pricing_plan_id":"cebpf4jnsgd1na2vs0mg"},{"bike_id":"c28d8fa9-f123-47c7-97ec-e6029da1b7fe","system_id":"levelo_inurba_marseille","lat":43.33777,"lon":5.37423,"is_reserved":false,"is_disabled":false,"rental_uris":{"android":"levelo://app?vid=c28d8fa9-f123-47c7-97ec-e6029da1b7fe","ios":"levelo://app?vid=c28d8fa9-f123-47c7-97ec-e6029da1b7fe"},"vehicle_type_id":"4","last_reported":1727777402,"current_range_meters":38000,"station_id":"","pricing_plan_id":"cebpf4jnsgd1na2vs0mg"},{"bike_id":"a0b07b7c-5757-458f-a27a-60cb7b5aaa42","system_id":"levelo_inurba_marseille","lat":43.303064,"lon":5.369101,"is_reserved":false,"is_disabled":false,"rental_uris":{"android":"levelo://app?vid=a0b07b7c-5757-458f-a27a-60cb7b5aaa42","ios":"levelo://app?vid=a0b07b7c-5757-458f-a27a-60cb7b5aaa42"},"vehicle_type_id":"4","last_reported":1727777402,"current_range_meters":38800,"station_id":"ce4bgqh2rcd13ifvqc5g","pricing_plan_id":"cebpf4jnsgd1na2vs0mg"},{"bike_id":"472f838a-7911-44c7-9a20-bf34782af5cc","system_id":"levelo_inurba_marseille","lat":43.27367,"lon":5.3626,"is_reserved":false,"is_disabled":false,"rental_uris":{"android":"levelo://app?vid=472f838a-7911-44c7-9a20-bf34782af5cc","ios":"levelo://app?vid=472f838a-7911-44c7-9a20-bf34782af5cc"},"vehicle_type_id":"4","last_reported":1727777402,"current_range_meters":19200,"station_id":"ce4bhbh2rcd13ifvqeo0","pricing_plan_id":"cebpf4jnsgd1na2vs0mg"},{"bike_id":"129dac5d-ffaa-4e95-89d8-1cbf9ae66cf0","system_id":"levelo_inurba_marseille","lat":43.29514,"lon":5.37512,"is_reserved":false,"is_disabled":false,"rental_uris":{"android":"levelo://app?vid=129dac5d-ffaa-4e95-89d8-1cbf9ae66cf0","ios":"levelo://app?vid=129dac5d-ffaa-4e95-89d8-1cbf9ae66cf0"},"vehicle_type_id":"4","last_reported":1727777402,"current_range_meters":14000,"station_id":"ce4bgkp2rcd13ifvqbmg","pricing_plan_id":"cebpf4jnsgd1na2vs0mg"},{"bike_id":"dba88da6-89ac-4606-836b-3cac466ca049","system_id":"levelo_inurba_marseille","lat":43.309418,"lon":5.390509,"is_reserved":false,"is_disabled":false,"rental_uris":{"android":"levelo://app?vid=dba88da6-89ac-4606-836b-3cac466ca049","ios":"levelo://app?vid=dba88da6-89ac-4606-836b-3cac466ca049"},"vehicle_type_id":"4","last_reported":1727777402,"current_range_meters":33600,"station_id":"ce4bgup2rcd13ifvqco0","pricing_plan_id":"cebpf4jnsgd1na2vs0mg"},{"bike_id":"0f749254-9e95-44e0-89b2-2657324c2169","system_id":"levelo_inurba_marseille","lat":43.24087,"lon":5.37752,"is_reserved":false,"is_disabled":false,"rental_uris":{"android":"levelo://app?vid=0f749254-9e95-44e0-89b2-2657324c2169","ios":"levelo://app?vid=0f749254-9e95-44e0-89b2-2657324c2169"},"vehicle_type_id":"4","last_reported":1727777402,"current_range_meters":17200,"station_id":"ce4bhnp2rcd13ifvqgvg","pricing_plan_id":"cebpf4jnsgd1na2vs0mg"},{"bike_id":"e070bd45-288a-4622-b5c4-f3cb962d3327","system_id":"levelo_inurba_marseille","lat":43.3054,"lon":5.36706,"is_reserved":false,"is_disabled":false,"rental_uris":{"android":"levelo://app?vid=e070bd45-288a-4622-b5c4-f3cb962d3327","ios":"levelo://app?vid=e070bd45-288a-4622-b5c4-f3cb962d3327"},"vehicle_type_id":"4","last_reported":1727777402,"current_range_meters":25600,"station_id":"ce4bgrp2rcd13ifvqc9g","pricing_plan_id":"cebpf4jnsgd1na2vs0mg"},{"bike_id":"b652f429-09b8-4697-9c1b-3b9adc3c55d8","system_id":"levelo_inurba_marseille","lat":43.26871,"lon":5.39135,"is_reserved":false,"is_disabled":false,"rental_uris":{"android":"levelo://app?vid=b652f429-09b8-4697-9c1b-3b9adc3c55d8","ios":"levelo://app?vid=b652f429-09b8-4697-9c1b-3b9adc3c55d8"},"vehicle_type_id":"4","last_reported":1727777402,"current_range_meters":8400,"station_id":"","pricing_plan_id":"cebpf4jnsgd1na2vs0mg"},{"bike_id":"f7c1adb3-78f1-4dc2-854b-42fecd9ba711","system_id":"levelo_inurba_marseille","lat":43.30156,"lon":5.37442,"is_reserved":false,"is_disabled":false,"rental_uris":{"android":"levelo://app?vid=f7c1adb3-78f1-4dc2-854b-42fecd9ba711","ios":"levelo://app?vid=f7c1adb3-78f1-4dc2-854b-42fecd9ba711"},"vehicle_type_id":"4","last_reported":1727777402,"current_range_meters":14800,"station_id":"ce4bgn12rcd13ifvqbt0","pricing_plan_id":"cebpf4jnsgd1na2vs0mg"},{"bike_id":"c543e3be-0379-4278-8888-d1d00617a01c","system_id":"levelo_inurba_marseille","lat":43.30879,"lon":5.39654,"is_reserved":false,"is_disabled":false,"rental_uris":{"android":"levelo://app?vid=c543e3be-0379-4278-8888-d1d00617a01c","ios":"levelo://app?vid=c543e3be-0379-4278-8888-d1d00617a01c"},"vehicle_type_id":"4","last_reported":1727777402,"current_range_meters":8800,"station_id":"ce4bh012rcd13ifvqcv0","pricing_plan_id":"cebpf4jnsgd1na2vs0mg"},{"bike_id":"63948fa4-ae6d-4866-abff-02440e87cd47","system_id":"levelo_inurba_marseille","lat":43.24388,"lon":5.37044,"is_reserved":false,"is_disabled":false,"rental_uris":{"android":"levelo://app?vid=63948fa4-ae6d-4866-abff-02440e87cd47","ios":"levelo://app?vid=63948fa4-ae6d-4866-abff-02440e87cd47"},"vehicle_type_id":"4","last_reported":1727777402,"current_range_meters":36800,"station_id":"ce4bhhh2rcd13ifvqfk0","pricing_plan_id":"cebpf4jnsgd1na2vs0mg"},{"bike_id":"786fac57-4b3b-44df-9f37-db347f577860","system_id":"levelo_inurba_marseille","lat":43.26782,"lon":5.39422,"is_reserved":false,"is_disabled":false,"rental_uris":{"android":"levelo://app?vid=786fac57-4b3b-44df-9f37-db347f577860","ios":"levelo://app?vid=786fac57-4b3b-44df-9f37-db347f577860"},"vehicle_type_id":"4","last_reported":1727777402,"current_range_meters":38000,"station_id":"ce4bhh12rcd13ifvqfg0","pricing_plan_id":"cebpf4jnsgd1na2vs0mg"},{"bike_id":"7c55c87c-4f2d-4681-b9b8-3990aad60173","system_id":"levelo_inurba_marseille","lat":43.30536,"lon":5.36543,"is_reserved":false,"is_disabled":false,"rental_uris":{"android":"levelo://app?vid=7c55c87c-4f2d-4681-b9b8-3990aad60173","ios":"levelo://app?vid=7c55c87c-4f2d-4681-b9b8-3990aad60173"},"vehicle_type_id":"4","last_reported":1727777402,"current_range_meters":16800,"station_id":"ce4bgs12rcd13ifvqcag","pricing_plan_id":"cebpf4jnsgd1na2vs0mg"},{"bike_id":"d69832f7-f0a2-4333-908c-602e24e104b5","system_id":"levelo_inurba_marseille","lat":43.27682,"lon":5.38881,"is_reserved":false,"is_disabled":false,"rental_uris":{"android":"levelo://app?vid=d69832f7-f0a2-4333-908c-602e24e104b5","ios":"levelo://app?vid=d69832f7-f0a2-4333-908c-602e24e104b5"},"vehicle_type_id":"4","last_reported":1727777402,"current_range_meters":16800,"station_id":"ce4bhi12rcd13ifvqfo0","pricing_plan_id":"cebpf4jnsgd1na2vs0mg"},{"bike_id":"7a8b241f-57ad-4336-b3e1-9209d3fac587","system_id":"levelo_inurba_marseille","lat":43.31341,"lon":5.36701,"is_reserved":false,"is_disabled":false,"rental_uris":{"android":"levelo://app?vid=7a8b241f-57ad-4336-b3e1-9209d3fac587","ios":"levelo://app?vid=7a8b241f-57ad-4336-b3e1-9209d3fac587"},"vehicle_type_id":"4","last_reported":1727777402,"current_range_meters":36800,"station_id":"ce4bgr92rcd13ifvqc6g","pricing_plan_id":"cebpf4jnsgd1na2vs0mg"},{"bike_id":"c7c8a84f-3019-4b9a-b4ce-ecc161b094d9","system_id":"levelo_inurba_marseille","lat":43.28457,"lon":5.35895,"is_reserved":false,"is_disabled":false,"rental_uris":{"android":"levelo://app?vid=c7c8a84f-3019-4b9a-b4ce-ecc161b094d9","ios":"levelo://app?vid=c7c8a84f-3019-4b9a-b4ce-ecc161b094d9"},"vehicle_type_id":"4","last_reported":1727777402,"current_range_meters":38400,"station_id":"ce4bhah2rcd13ifvqei0","pricing_plan_id":"cebpf4jnsgd1na2vs0mg"},{"bike_id":"e74cc850-104b-4915-97da-2d6de5e40431","system_id":"levelo_inurba_marseille","lat":43.29691,"lon":5.37286,"is_reserved":false,"is_disabled":false,"rental_uris":{"android":"levelo://app?vid=e74cc850-104b-4915-97da-2d6de5e40431","ios":"levelo://app?vid=e74cc850-104b-4915-97da-2d6de5e40431"},"vehicle_type_id":"4","last_reported":1727777402,"current_range_meters":11600,"station_id":"ce4bgk12rcd13ifvqbj0","pricing_plan_id":"cebpf4jnsgd1na2vs0mg"},{"bike_id":"88f2d88a-65d5-4e72-bf4f-63580c0f4ed4","system_id":"levelo_inurba_marseille","lat":43.29797,"lon":5.38107,"is_reserved":false,"is_disabled":false,"rental_uris":{"android":"levelo://app?vid=88f2d88a-65d5-4e72-bf4f-63580c0f4ed4","ios":"levelo://app?vid=88f2d88a-65d5-4e72-bf4f-63580c0f4ed4"},"vehicle_type_id":"4","last_reported":1727777402,"current_range_meters":35200,"station_id":"ce4bgip2rcd13ifvqbb0","pricing_plan_id":"cebpf4jnsgd1na2vs0mg"},{"bike_id":"eba7b67c-e1cf-4416-91d4-0bbc3ff2ce46","system_id":"levelo_inurba_marseille","lat":43.2558,"lon":5.38233,"is_reserved":false,"is_disabled":false,"rental_uris":{"android":"levelo://app?vid=eba7b67c-e1cf-4416-91d4-0bbc3ff2ce46","ios":"levelo://app?vid=eba7b67c-e1cf-4416-91d4-0bbc3ff2ce46"},"vehicle_type_id":"4","last_reported":1727777402,"current_range_meters":12000,"station_id":"ce4bhih2rcd13ifvqfs0","pricing_plan_id":"cebpf4jnsgd1na2vs0mg"},{"bike_id":"92634d32-94dd-40f5-a435-95a8d65bd4fd","system_id":"levelo_inurba_marseille","lat":43.3126,"lon":5.40175,"is_reserved":false,"is_disabled":false,"rental_uris":{"android":"levelo://app?vid=92634d32-94dd-40f5-a435-95a8d65bd4fd","ios":"levelo://app?vid=92634d32-94dd-40f5-a435-95a8d65bd4fd"},"vehicle_type_id":"4","last_reported":1727777402,"current_range_meters":18000,"station_id":"ce4bh092rcd13ifvqd30","pricing_plan_id":"cebpf4jnsgd1na2vs0mg"},{"bike_id":"c5b39a6b-6a7c-4b9d-941f-0f6180cbaab5","system_id":"levelo_inurba_marseille","lat":43.29521,"lon":5.37498,"is_reserved":false,"is_disabled":false,"rental_uris":{"android":"levelo://app?vid=c5b39a6b-6a7c-4b9d-941f-0f6180cbaab5","ios":"levelo://app?vid=c5b39a6b-6a7c-4b9d-941f-0f6180cbaab5"},"vehicle_type_id":"4","last_reported":1727777402,"current_range_meters":28800,"station_id":"ce4bgkp2rcd13ifvqbmg","pricing_plan_id":"cebpf4jnsgd1na2vs0mg"},{"bike_id":"3df2bb85-1625-437b-b8ac-198104f83361","system_id":"levelo_inurba_marseille","lat":43.28265,"lon":5.35075,"is_reserved":false,"is_disabled":false,"rental_uris":{"android":"levelo://app?vid=3df2bb85-1625-437b-b8ac-198104f83361","ios":"levelo://app?vid=3df2bb85-1625-437b-b8ac-198104f83361"},"vehicle_type_id":"4","last_reported":1727777402,"current_range_meters":18000,"station_id":"ce4bhbp2rcd13ifvqerg","pricing_plan_id":"cebpf4jnsgd1na2vs0mg"},{"bike_id":"5f75bd5d-5087-4078-a60a-a02f607004b1","system_id":"levelo_inurba_marseille","lat":43.29258,"lon":5.38446,"is_reserved":false,"is_disabled":false,"rental_uris":{"android":"levelo://app?vid=5f75bd5d-5087-4078-a60a-a02f607004b1","ios":"levelo://app?vid=5f75bd5d-5087-4078-a60a-a02f607004b1"},"vehicle_type_id":"4","last_reported":1727777402,"current_range_meters":13600,"station_id":"ce4bh692rcd13ifvqea0","pricing_plan_id":"cebpf4jnsgd1na2vs0mg"},{"bike_id":"039f6efa-5a1e-4924-b401-f8792eb67a8d","system_id":"levelo_inurba_marseille","lat":43.24074,"lon":5.3776,"is_reserved":false,"is_disabled":false,"rental_uris":{"android":"levelo://app?vid=039f6efa-5a1e-4924-b401-f8792eb67a8d","ios":"levelo://app?vid=039f6efa-5a1e-4924-b401-f8792eb67a8d"},"vehicle_type_id":"4","last_reported":1727777402,"current_range_meters":36800,"station_id":"ce4bhnp2rcd13ifvqgvg","pricing_plan_id":"cebpf4jnsgd1na2vs0mg"},{"bike_id":"3d2b43ca-11a9-4b2a-8387-28eebbfa4af3","system_id":"levelo_inurba_marseille","lat":43.27217,"lon":5.39182,"is_reserved":false,"is_disabled":false,"rental_uris":{"android":"levelo://app?vid=3d2b43ca-11a9-4b2a-8387-28eebbfa4af3","ios":"levelo://app?vid=3d2b43ca-11a9-4b2a-8387-28eebbfa4af3"},"vehicle_type_id":"4","last_reported":1727777402,"current_range_meters":12000,"station_id":"ce4bhhp2rcd13ifvqfm0","pricing_plan_id":"cebpf4jnsgd1na2vs0mg"},{"bike_id":"e6c88988-c5ee-496f-bf87-a1d9852b71db","system_id":"levelo_inurba_marseille","lat":43.3091,"lon":5.36851,"is_reserved":false,"is_disabled":false,"rental_uris":{"android":"levelo://app?vid=e6c88988-c5ee-496f-bf87-a1d9852b71db","ios":"levelo://app?vid=e6c88988-c5ee-496f-bf87-a1d9852b71db"},"vehicle_type_id":"4","last_reported":1727777402,"current_range_meters":37600,"station_id":"ce4bgn92rcd13ifvqbvg","pricing_plan_id":"cebpf4jnsgd1na2vs0mg"},{"bike_id":"78040539-a8e1-4015-ad7e-b409b27e4bf7","system_id":"levelo_inurba_marseille","lat":43.33774,"lon":5.37422,"is_reserved":false,"is_disabled":false,"rental_uris":{"android":"levelo://app?vid=78040539-a8e1-4015-ad7e-b409b27e4bf7","ios":"levelo://app?vid=78040539-a8e1-4015-ad7e-b409b27e4bf7"},"vehicle_type_id":"4","last_reported":1727777402,"current_range_meters":23200,"station_id":"","pricing_plan_id":"cebpf4jnsgd1na2vs0mg"},{"bike_id":"bb0db29b-307e-4e3c-9fb8-089947d27aae","system_id":"levelo_inurba_marseille","lat":43.30538,"lon":5.36539,"is_reserved":false,"is_disabled":false,"rental_uris":{"android":"levelo://app?vid=bb0db29b-307e-4e3c-9fb8-089947d27aae","ios":"levelo://app?vid=bb0db29b-307e-4e3c-9fb8-089947d27aae"},"vehicle_type_id":"4","last_reported":1727777402,"current_range_meters":35200,"station_id":"ce4bgs12rcd13ifvqcag","pricing_plan_id":"cebpf4jnsgd1na2vs0mg"},{"bike_id":"0208928b-a018-42d5-9de2-64aae3d0e79f","system_id":"levelo_inurba_marseille","lat":43.31323,"lon":5.39689,"is_reserved":false,"is_disabled":false,"rental_uris":{"android":"levelo://app?vid=0208928b-a018-42d5-9de2-64aae3d0e79f","ios":"levelo://app?vid=0208928b-a018-42d5-9de2-64aae3d0e79f"},"vehicle_type_id":"4","last_reported":1727777402,"current_range_meters":14000,"station_id":"ce4bgvp2rcd13ifvqcu0","pricing_plan_id":"cebpf4jnsgd1na2vs0mg"},{"bike_id":"17346577-f0d6-4544-b4b0-1fd855e7857c","system_id":"levelo_inurba_marseille","lat":43.27904,"lon":5.38048,"is_reserved":false,"is_disabled":false,"rental_uris":{"android":"levelo://app?vid=17346577-f0d6-4544-b4b0-1fd855e7857c","ios":"levelo://app?vid=17346577-f0d6-4544-b4b0-1fd855e7857c"},"vehicle_type_id":"4","last_reported":1727777402,"current_range_meters":34800,"station_id":"ce4bhf92rcd13ifvqf50","pricing_plan_id":"cebpf4jnsgd1na2vs0mg"},{"bike_id":"c869540d-b1cb-429b-aaa4-8aa149014289","system_id":"levelo_inurba_marseille","lat":43.29005,"lon":5.35611,"is_reserved":false,"is_disabled":false,"rental_uris":{"android":"levelo://app?vid=c869540d-b1cb-429b-aaa4-8aa149014289","ios":"levelo://app?vid=c869540d-b1cb-429b-aaa4-8aa149014289"},"vehicle_type_id":"4","last_reported":1727777402,"current_range_meters":25200,"station_id":"ce4bhb92rcd13ifvqen0","pricing_plan_id":"cebpf4jnsgd1na2vs0mg"},{"bike_id":"a248b654-bd34-480a-a07d-a25ad1cea206","system_id":"levelo_inurba_marseille","lat":43.25944,"lon":5.40908,"is_reserved":false,"is_disabled":false,"rental_uris":{"android":"levelo://app?vid=a248b654-bd34-480a-a07d-a25ad1cea206","ios":"levelo://app?vid=a248b654-bd34-480a-a07d-a25ad1cea206"},"vehicle_type_id":"4","last_reported":1727777402,"current_range_meters":7200,"station_id":"ce4bhm92rcd13ifvqglg","pricing_plan_id":"cebpf4jnsgd1na2vs0mg"},{"bike_id":"f7fe1f9e-0968-47bf-9ce8-0b2d232994f6","system_id":"levelo_inurba_marseille","lat":43.31758,"lon":5.3901,"is_reserved":false,"is_disabled":false,"rental_uris":{"android":"levelo://app?vid=f7fe1f9e-0968-47bf-9ce8-0b2d232994f6","ios":"levelo://app?vid=f7fe1f9e-0968-47bf-9ce8-0b2d232994f6"},"vehicle_type_id":"4","last_reported":1727777402,"current_range_meters":37600,"station_id":"ce4bhqp2rcd13ifvqhng","pricing_plan_id":"cebpf4jnsgd1na2vs0mg"},{"bike_id":"bbfa1072-43cd-4cc7-bf78-556e11e70d56","system_id":"levelo_inurba_marseille","lat":43.26776,"lon":5.39425,"is_reserved":false,"is_disabled":false,"rental_uris":{"android":"levelo://app?vid=bbfa1072-43cd-4cc7-bf78-556e11e70d56","ios":"levelo://app?vid=bbfa1072-43cd-4cc7-bf78-556e11e70d56"},"vehicle_type_id":"4","last_reported":1727777402,"current_range_meters":38000,"station_id":"ce4bhh12rcd13ifvqfg0","pricing_plan_id":"cebpf4jnsgd1na2vs0mg"},{"bike_id":"658c4d84-413c-4100-b584-743fd92884b1","system_id":"levelo_inurba_marseille","lat":43.28151,"lon":5.42647,"is_reserved":false,"is_disabled":false,"rental_uris":{"android":"levelo://app?vid=658c4d84-413c-4100-b584-743fd92884b1","ios":"levelo://app?vid=658c4d84-413c-4100-b584-743fd92884b1"},"vehicle_type_id":"4","last_reported":1727777402,"current_range_meters":12800,"station_id":"ce4bhnh2rcd13ifvqgug","pricing_plan_id":"cebpf4jnsgd1na2vs0mg"},{"bike_id":"ab728a23-caf1-4bd3-910f-0549e57950ad","system_id":"levelo_inurba_marseille","lat":43.23149,"lon":5.43722,"is_reserved":false,"is_disabled":false,"rental_uris":{"android":"levelo://app?vid=ab728a23-caf1-4bd3-910f-0549e57950ad","ios":"levelo://app?vid=ab728a23-caf1-4bd3-910f-0549e57950ad"},"vehicle_type_id":"4","last_reported":1727777402,"current_range_meters":4400,"station_id":"ce4bhmp2rcd13ifvqgog","pricing_plan_id":"cebpf4jnsgd1na2vs0mg"},{"bike_id":"6816bc58-fc41-4917-a3f7-8db6f38ef7e4","system_id":"levelo_inurba_marseille","lat":43.3014,"lon":5.37413,"is_reserved":false,"is_disabled":false,"rental_uris":{"android":"levelo://app?vid=6816bc58-fc41-4917-a3f7-8db6f38ef7e4","ios":"levelo://app?vid=6816bc58-fc41-4917-a3f7-8db6f38ef7e4"},"vehicle_type_id":"4","last_reported":1727777402,"current_range_meters":27600,"station_id":"ce4bgs92rcd13ifvqcc0","pricing_plan_id":"cebpf4jnsgd1na2vs0mg"},{"bike_id":"69103f01-1d57-4c2f-844a-e110ceb2d473","system_id":"levelo_inurba_marseille","lat":43.29625,"lon":5.37153,"is_reserved":false,"is_disabled":false,"rental_uris":{"android":"levelo://app?vid=69103f01-1d57-4c2f-844a-e110ceb2d473","ios":"levelo://app?vid=69103f01-1d57-4c2f-844a-e110ceb2d473"},"vehicle_type_id":"4","last_reported":1727777402,"current_range_meters":38800,"station_id":"ce4bgnh2rcd13ifvqc0g","pricing_plan_id":"cebpf4jnsgd1na2vs0mg"},{"bike_id":"719f260e-681c-4a9a-9c42-438dcb557873","system_id":"levelo_inurba_marseille","lat":43.29417,"lon":5.38621,"is_reserved":false,"is_disabled":false,"rental_uris":{"android":"levelo://app?vid=719f260e-681c-4a9a-9c42-438dcb557873","ios":"levelo://app?vid=719f260e-681c-4a9a-9c42-438dcb557873"},"vehicle_type_id":"4","last_reported":1727777402,"current_range_meters":25200,"station_id":"ce4bh2h2rcd13ifvqdh0","pricing_plan_id":"cebpf4jnsgd1na2vs0mg"},{"bike_id":"646b4c85-8c7e-4715-856c-f450496d3f81","system_id":"levelo_inurba_marseille","lat":43.25933,"lon":5.40908,"is_reserved":false,"is_disabled":false,"rental_uris":{"android":"levelo://app?vid=646b4c85-8c7e-4715-856c-f450496d3f81","ios":"levelo://app?vid=646b4c85-8c7e-4715-856c-f450496d3f81"},"vehicle_type_id":"4","last_reported":1727777402,"current_range_meters":27600,"station_id":"ce4bhm92rcd13ifvqglg","pricing_plan_id":"cebpf4jnsgd1na2vs0mg"},{"bike_id":"d7ce7a5c-b08f-49b4-8b23-521e5b122803","system_id":"levelo_inurba_marseille","lat":43.23149,"lon":5.43706,"is_reserved":false,"is_disabled":false,"rental_uris":{"android":"levelo://app?vid=d7ce7a5c-b08f-49b4-8b23-521e5b122803","ios":"levelo://app?vid=d7ce7a5c-b08f-49b4-8b23-521e5b122803"},"vehicle_type_id":"4","last_reported":1727777402,"current_range_meters":17200,"station_id":"ce4bhmp2rcd13ifvqgog","pricing_plan_id":"cebpf4jnsgd1na2vs0mg"},{"bike_id":"07b5a74b-d824-4607-9a9d-31a616d5b59d","system_id":"levelo_inurba_marseille","lat":43.33764,"lon":5.3746,"is_reserved":false,"is_disabled":false,"rental_uris":{"android":"levelo://app?vid=07b5a74b-d824-4607-9a9d-31a616d5b59d","ios":"levelo://app?vid=07b5a74b-d824-4607-9a9d-31a616d5b59d"},"vehicle_type_id":"4","last_reported":1727777402,"current_range_meters":36400,"station_id":"","pricing_plan_id":"cebpf4jnsgd1na2vs0mg"},{"bike_id":"a310b9b1-9c49-4a43-90c4-06ed0b30d130","system_id":"levelo_inurba_marseille","lat":43.29571,"lon":5.39973,"is_reserved":false,"is_disabled":false,"rental_uris":{"android":"levelo://app?vid=a310b9b1-9c49-4a43-90c4-06ed0b30d130","ios":"levelo://app?vid=a310b9b1-9c49-4a43-90c4-06ed0b30d130"},"vehicle_type_id":"4","last_reported":1727777402,"current_range_meters":8000,"station_id":"ce4bh312rcd13ifvqdj0","pricing_plan_id":"cebpf4jnsgd1na2vs0mg"},{"bike_id":"d80304d9-4202-4aa1-af2b-88b7cdf3818c","system_id":"levelo_inurba_marseille","lat":43.30152,"lon":5.38083,"is_reserved":false,"is_disabled":false,"rental_uris":{"android":"levelo://app?vid=d80304d9-4202-4aa1-af2b-88b7cdf3818c","ios":"levelo://app?vid=d80304d9-4202-4aa1-af2b-88b7cdf3818c"},"vehicle_type_id":"4","last_reported":1727777402,"current_range_meters":10800,"station_id":"ce4bgjp2rcd13ifvqbh0","pricing_plan_id":"cebpf4jnsgd1na2vs0mg"},{"bike_id":"136cc854-948f-4df3-96f7-2124615473ff","system_id":"levelo_inurba_marseille","lat":43.30466,"lon":5.37905,"is_reserved":false,"is_disabled":false,"rental_uris":{"android":"levelo://app?vid=136cc854-948f-4df3-96f7-2124615473ff","ios":"levelo://app?vid=136cc854-948f-4df3-96f7-2124615473ff"},"vehicle_type_id":"4","last_reported":1727777402,"current_range_meters":24400,"station_id":"ce4bgup2rcd13ifvqcn0","pricing_plan_id":"cebpf4jnsgd1na2vs0mg"},{"bike_id":"3beadf9d-cc57-4cfa-b23e-ac53aab533e0","system_id":"levelo_inurba_marseille","lat":43.30289,"lon":5.37702,"is_reserved":false,"is_disabled":false,"rental_uris":{"android":"levelo://app?vid=3beadf9d-cc57-4cfa-b23e-ac53aab533e0","ios":"levelo://app?vid=3beadf9d-cc57-4cfa-b23e-ac53aab533e0"},"vehicle_type_id":"4","last_reported":1727777402,"current_range_meters":40000,"station_id":"ce4bguh2rcd13ifvqcj0","pricing_plan_id":"cebpf4jnsgd1na2vs0mg"},{"bike_id":"08fd59e0-9c9a-4fc4-8784-9a52d1859b96","system_id":"levelo_inurba_marseille","lat":43.30241,"lon":5.38481,"is_reserved":false,"is_disabled":false,"rental_uris":{"android":"levelo://app?vid=08fd59e0-9c9a-4fc4-8784-9a52d1859b96","ios":"levelo://app?vid=08fd59e0-9c9a-4fc4-8784-9a52d1859b96"},"vehicle_type_id":"4","last_reported":1727777402,"current_range_meters":8400,"station_id":"","pricing_plan_id":"cebpf4jnsgd1na2vs0mg"},{"bike_id":"9fdb61b4-442c-4eff-9d3b-cf7f40325237","system_id":"levelo_inurba_marseille","lat":43.29588,"lon":5.37509,"is_reserved":false,"is_disabled":false,"rental_uris":{"android":"levelo://app?vid=9fdb61b4-442c-4eff-9d3b-cf7f40325237","ios":"levelo://app?vid=9fdb61b4-442c-4eff-9d3b-cf7f40325237"},"vehicle_type_id":"4","last_reported":1727777402,"current_range_meters":36800,"station_id":"ce4bgh92rcd13ifvqb50","pricing_plan_id":"cebpf4jnsgd1na2vs0mg"},{"bike_id":"ab80b424-bfc5-4709-9b95-a2bee6a56f64","system_id":"levelo_inurba_marseille","lat":43.32293,"lon":5.38262,"is_reserved":false,"is_disabled":false,"rental_uris":{"android":"levelo://app?vid=ab80b424-bfc5-4709-9b95-a2bee6a56f64","ios":"levelo://app?vid=ab80b424-bfc5-4709-9b95-a2bee6a56f64"},"vehicle_type_id":"4","last_reported":1727777402,"current_range_meters":38800,"station_id":"ce4bhr12rcd13ifvqhqg","pricing_plan_id":"cebpf4jnsgd1na2vs0mg"},{"bike_id":"2bfd4452-d854-4ea1-8b71-db38f940202a","system_id":"levelo_inurba_marseille","lat":43.30535,"lon":5.36705,"is_reserved":false,"is_disabled":false,"rental_uris":{"android":"levelo://app?vid=2bfd4452-d854-4ea1-8b71-db38f940202a","ios":"levelo://app?vid=2bfd4452-d854-4ea1-8b71-db38f940202a"},"vehicle_type_id":"4","last_reported":1727777402,"current_range_meters":36000,"station_id":"ce4bgrp2rcd13ifvqc9g","pricing_plan_id":"cebpf4jnsgd1na2vs0mg"},{"bike_id":"157abced-53dc-49f0-8be0-a1a494696491","system_id":"levelo_inurba_marseille","lat":43.25938,"lon":5.40903,"is_reserved":false,"is_disabled":false,"rental_uris":{"android":"levelo://app?vid=157abced-53dc-49f0-8be0-a1a494696491","ios":"levelo://app?vid=157abced-53dc-49f0-8be0-a1a494696491"},"vehicle_type_id":"4","last_reported":1727777402,"current_range_meters":32000,"station_id":"ce4bhm92rcd13ifvqglg","pricing_plan_id":"cebpf4jnsgd1na2vs0mg"},{"bike_id":"dd05cf58-177b-4d66-8ca2-fe7872404e55","system_id":"levelo_inurba_marseille","lat":43.23154,"lon":5.4371,"is_reserved":false,"is_disabled":false,"rental_uris":{"android":"levelo://app?vid=dd05cf58-177b-4d66-8ca2-fe7872404e55","ios":"levelo://app?vid=dd05cf58-177b-4d66-8ca2-fe7872404e55"},"vehicle_type_id":"4","last_reported":1727777402,"current_range_meters":32800,"station_id":"ce4bhmp2rcd13ifvqgog","pricing_plan_id":"cebpf4jnsgd1na2vs0mg"},{"bike_id":"8bc9d069-e21e-466b-87c2-8dfa6d23d3cc","system_id":"levelo_inurba_marseille","lat":43.30457,"lon":5.379,"is_reserved":false,"is_disabled":false,"rental_uris":{"android":"levelo://app?vid=8bc9d069-e21e-466b-87c2-8dfa6d23d3cc","ios":"levelo://app?vid=8bc9d069-e21e-466b-87c2-8dfa6d23d3cc"},"vehicle_type_id":"4","last_reported":1727777402,"current_range_meters":32400,"station_id":"ce4bgup2rcd13ifvqcn0","pricing_plan_id":"cebpf4jnsgd1na2vs0mg"},{"bike_id":"5a9f13c9-9e95-48e9-ab85-4e426f691561","system_id":"levelo_inurba_marseille","lat":43.26684,"lon":5.38271,"is_reserved":false,"is_disabled":false,"rental_uris":{"android":"levelo://app?vid=5a9f13c9-9e95-48e9-ab85-4e426f691561","ios":"levelo://app?vid=5a9f13c9-9e95-48e9-ab85-4e426f691561"},"vehicle_type_id":"4","last_reported":1727777402,"current_range_meters":32000,"station_id":"ce4bhg92rcd13ifvqf90","pricing_plan_id":"cebpf4jnsgd1na2vs0mg"},{"bike_id":"f493192b-13c6-47a1-9573-739dd32e633f","system_id":"levelo_inurba_marseille","lat":43.337444,"lon":5.374475,"is_reserved":false,"is_disabled":false,"rental_uris":{"android":"levelo://app?vid=f493192b-13c6-47a1-9573-739dd32e633f","ios":"levelo://app?vid=f493192b-13c6-47a1-9573-739dd32e633f"},"vehicle_type_id":"4","last_reported":1727777402,"current_range_meters":17600,"station_id":"","pricing_plan_id":"cebpf4jnsgd1na2vs0mg"},{"bike_id":"994a54c1-98eb-465b-abac-aebc42b55a66","system_id":"levelo_inurba_marseille","lat":43.27627,"lon":5.36107,"is_reserved":false,"is_disabled":false,"rental_uris":{"android":"levelo://app?vid=994a54c1-98eb-465b-abac-aebc42b55a66","ios":"levelo://app?vid=994a54c1-98eb-465b-abac-aebc42b55a66"},"vehicle_type_id":"4","last_reported":1727777402,"current_range_meters":31200,"station_id":"ce4bgj92rcd13ifvqbe0","pricing_plan_id":"cebpf4jnsgd1na2vs0mg"},{"bike_id":"3dab0a02-c252-4bc7-9c17-a17097a1ad7c","system_id":"levelo_inurba_marseille","lat":43.27491,"lon":5.42459,"is_reserved":false,"is_disabled":false,"rental_uris":{"android":"levelo://app?vid=3dab0a02-c252-4bc7-9c17-a17097a1ad7c","ios":"levelo://app?vid=3dab0a02-c252-4bc7-9c17-a17097a1ad7c"},"vehicle_type_id":"4","last_reported":1727777402,"current_range_meters":14800,"station_id":"ce4bhn92rcd13ifvqgrg","pricing_plan_id":"cebpf4jnsgd1na2vs0mg"},{"bike_id":"682e8091-68ea-4fce-b1bd-5ad117660139","system_id":"levelo_inurba_marseille","lat":43.28272,"lon":5.35081,"is_reserved":false,"is_disabled":false,"rental_uris":{"android":"levelo://app?vid=682e8091-68ea-4fce-b1bd-5ad117660139","ios":"levelo://app?vid=682e8091-68ea-4fce-b1bd-5ad117660139"},"vehicle_type_id":"4","last_reported":1727777402,"current_range_meters":26000,"station_id":"ce4bhbp2rcd13ifvqerg","pricing_plan_id":"cebpf4jnsgd1na2vs0mg"},{"bike_id":"5ad62edc-1a72-4cbc-bbf8-4a5382ec762f","system_id":"levelo_inurba_marseille","lat":43.30188,"lon":5.36621,"is_reserved":false,"is_disabled":false,"rental_uris":{"android":"levelo://app?vid=5ad62edc-1a72-4cbc-bbf8-4a5382ec762f","ios":"levelo://app?vid=5ad62edc-1a72-4cbc-bbf8-4a5382ec762f"},"vehicle_type_id":"4","last_reported":1727777402,"current_range_meters":6800,"station_id":"ce4bgrh2rcd13ifvqc8g","pricing_plan_id":"cebpf4jnsgd1na2vs0mg"},{"bike_id":"7123b58c-bb77-48f8-8d0e-0d06f320fbef","system_id":"levelo_inurba_marseille","lat":43.3134,"lon":5.36709,"is_reserved":false,"is_disabled":false,"rental_uris":{"android":"levelo://app?vid=7123b58c-bb77-48f8-8d0e-0d06f320fbef","ios":"levelo://app?vid=7123b58c-bb77-48f8-8d0e-0d06f320fbef"},"vehicle_type_id":"4","last_reported":1727777402,"current_range_meters":38800,"station_id":"","pricing_plan_id":"cebpf4jnsgd1na2vs0mg"},{"bike_id":"07664159-d292-404c-9547-f13715184409","system_id":"levelo_inurba_marseille","lat":43.29302,"lon":5.37452,"is_reserved":false,"is_disabled":false,"rental_uris":{"android":"levelo://app?vid=07664159-d292-404c-9547-f13715184409","ios":"levelo://app?vid=07664159-d292-404c-9547-f13715184409"},"vehicle_type_id":"4","last_reported":1727777402,"current_range_meters":39200,"station_id":"ce4bgi12rcd13ifvqb70","pricing_plan_id":"cebpf4jnsgd1na2vs0mg"},{"bike_id":"eef0ff24-2e3f-471a-8736-b680248f123f","system_id":"levelo_inurba_marseille","lat":43.31708,"lon":5.37762,"is_reserved":false,"is_disabled":false,"rental_uris":{"android":"levelo://app?vid=eef0ff24-2e3f-471a-8736-b680248f123f","ios":"levelo://app?vid=eef0ff24-2e3f-471a-8736-b680248f123f"},"vehicle_type_id":"4","last_reported":1727777402,"current_range_meters":37600,"station_id":"ce4bgth2rcd13ifvqch0","pricing_plan_id":"cebpf4jnsgd1na2vs0mg"},{"bike_id":"c2d755fe-89a0-4d03-abbc-d5e6fa6f1c3e","system_id":"levelo_inurba_marseille","lat":43.23181,"lon":5.3999,"is_reserved":false,"is_disabled":false,"rental_uris":{"android":"levelo://app?vid=c2d755fe-89a0-4d03-abbc-d5e6fa6f1c3e","ios":"levelo://app?vid=c2d755fe-89a0-4d03-abbc-d5e6fa6f1c3e"},"vehicle_type_id":"4","last_reported":1727777402,"current_range_meters":11200,"station_id":"ce4bhn12rcd13ifvqgqg","pricing_plan_id":"cebpf4jnsgd1na2vs0mg"},{"bike_id":"42c1028e-4fcc-44ee-90ef-b7eff516e115","system_id":"levelo_inurba_marseille","lat":43.29009,"lon":5.38127,"is_reserved":false,"is_disabled":false,"rental_uris":{"android":"levelo://app?vid=42c1028e-4fcc-44ee-90ef-b7eff516e115","ios":"levelo://app?vid=42c1028e-4fcc-44ee-90ef-b7eff516e115"},"vehicle_type_id":"4","last_reported":1727777402,"current_range_meters":16400,"station_id":"ce4bh4p2rcd13ifvqe1g","pricing_plan_id":"cebpf4jnsgd1na2vs0mg"},{"bike_id":"661a32c9-53e5-4209-87ba-c6edae79ac46","system_id":"levelo_inurba_marseille","lat":43.23968,"lon":5.36627,"is_reserved":false,"is_disabled":false,"rental_uris":{"android":"levelo://app?vid=661a32c9-53e5-4209-87ba-c6edae79ac46","ios":"levelo://app?vid=661a32c9-53e5-4209-87ba-c6edae79ac46"},"vehicle_type_id":"4","last_reported":1727777402,"current_range_meters":12400,"station_id":"ce4bhi12rcd13ifvqfp0","pricing_plan_id":"cebpf4jnsgd1na2vs0mg"},{"bike_id":"c2e15fef-286b-4885-aa17-64aae9bd5872","system_id":"levelo_inurba_marseille","lat":43.29595,"lon":5.38098,"is_reserved":false,"is_disabled":false,"rental_uris":{"android":"levelo://app?vid=c2e15fef-286b-4885-aa17-64aae9bd5872","ios":"levelo://app?vid=c2e15fef-286b-4885-aa17-64aae9bd5872"},"vehicle_type_id":"4","last_reported":1727777402,"current_range_meters":38800,"station_id":"ce4bgl12rcd13ifvqbo0","pricing_plan_id":"cebpf4jnsgd1na2vs0mg"},{"bike_id":"9711c5af-ceda-4c50-b517-1e16cc14a4c7","system_id":"levelo_inurba_marseille","lat":43.23151,"lon":5.43719,"is_reserved":false,"is_disabled":false,"rental_uris":{"android":"levelo://app?vid=9711c5af-ceda-4c50-b517-1e16cc14a4c7","ios":"levelo://app?vid=9711c5af-ceda-4c50-b517-1e16cc14a4c7"},"vehicle_type_id":"4","last_reported":1727777402,"current_range_meters":10800,"station_id":"ce4bhmp2rcd13ifvqgog","pricing_plan_id":"cebpf4jnsgd1na2vs0mg"},{"bike_id":"07999201-6456-4c72-b354-030a0e78c6bf","system_id":"levelo_inurba_marseille","lat":43.30806,"lon":5.38154,"is_reserved":false,"is_disabled":false,"rental_uris":{"android":"levelo://app?vid=07999201-6456-4c72-b354-030a0e78c6bf","ios":"levelo://app?vid=07999201-6456-4c72-b354-030a0e78c6bf"},"vehicle_type_id":"4","last_reported":1727777402,"current_range_meters":37600,"station_id":"ce4bgt12rcd13ifvqce0","pricing_plan_id":"cebpf4jnsgd1na2vs0mg"},{"bike_id":"aa122f98-8b5e-4a7d-bbd7-05f7603260ae","system_id":"levelo_inurba_marseille","lat":43.27486,"lon":5.4246,"is_reserved":false,"is_disabled":false,"rental_uris":{"android":"levelo://app?vid=aa122f98-8b5e-4a7d-bbd7-05f7603260ae","ios":"levelo://app?vid=aa122f98-8b5e-4a7d-bbd7-05f7603260ae"},"vehicle_type_id":"4","last_reported":1727777402,"current_range_meters":38400,"station_id":"ce4bhn92rcd13ifvqgrg","pricing_plan_id":"cebpf4jnsgd1na2vs0mg"},{"bike_id":"0d570e47-1e0d-469d-93d2-0f564e838fb4","system_id":"levelo_inurba_marseille","lat":43.26218,"lon":5.3744,"is_reserved":false,"is_disabled":false,"rental_uris":{"android":"levelo://app?vid=0d570e47-1e0d-469d-93d2-0f564e838fb4","ios":"levelo://app?vid=0d570e47-1e0d-469d-93d2-0f564e838fb4"},"vehicle_type_id":"4","last_reported":1727777402,"current_range_meters":27600,"station_id":"ce4bhgp2rcd13ifvqfc0","pricing_plan_id":"cebpf4jnsgd1na2vs0mg"},{"bike_id":"3f8f74ba-5bd7-4fea-a6f9-53f3897205a1","system_id":"levelo_inurba_marseille","lat":43.30522,"lon":5.36561,"is_reserved":false,"is_disabled":false,"rental_uris":{"android":"levelo://app?vid=3f8f74ba-5bd7-4fea-a6f9-53f3897205a1","ios":"levelo://app?vid=3f8f74ba-5bd7-4fea-a6f9-53f3897205a1"},"vehicle_type_id":"4","last_reported":1727777402,"current_range_meters":32800,"station_id":"ce4bgs12rcd13ifvqcag","pricing_plan_id":"cebpf4jnsgd1na2vs0mg"},{"bike_id":"a8b2b094-8e78-44e1-816c-9eff62369494","system_id":"levelo_inurba_marseille","lat":43.23153,"lon":5.43703,"is_reserved":false,"is_disabled":false,"rental_uris":{"android":"levelo://app?vid=a8b2b094-8e78-44e1-816c-9eff62369494","ios":"levelo://app?vid=a8b2b094-8e78-44e1-816c-9eff62369494"},"vehicle_type_id":"4","last_reported":1727777402,"current_range_meters":9600,"station_id":"ce4bhmp2rcd13ifvqgog","pricing_plan_id":"cebpf4jnsgd1na2vs0mg"},{"bike_id":"01aeba3e-2ff5-4731-a9c8-3a2a9c7c3286","system_id":"levelo_inurba_marseille","lat":43.23965,"lon":5.3663,"is_reserved":false,"is_disabled":false,"rental_uris":{"android":"levelo://app?vid=01aeba3e-2ff5-4731-a9c8-3a2a9c7c3286","ios":"levelo://app?vid=01aeba3e-2ff5-4731-a9c8-3a2a9c7c3286"},"vehicle_type_id":"4","last_reported":1727777402,"current_range_meters":12800,"station_id":"ce4bhi12rcd13ifvqfp0","pricing_plan_id":"cebpf4jnsgd1na2vs0mg"},{"bike_id":"d8c207ab-2926-486a-89f5-281de4f0426b","system_id":"levelo_inurba_marseille","lat":43.25821,"lon":5.39441,"is_reserved":false,"is_disabled":false,"rental_uris":{"android":"levelo://app?vid=d8c207ab-2926-486a-89f5-281de4f0426b","ios":"levelo://app?vid=d8c207ab-2926-486a-89f5-281de4f0426b"},"vehicle_type_id":"4","last_reported":1727777402,"current_range_meters":22400,"station_id":"ce4bhip2rcd13ifvqft0","pricing_plan_id":"cebpf4jnsgd1na2vs0mg"},{"bike_id":"5e0b1bc9-1584-4f53-bba3-7e6458bd0447","system_id":"levelo_inurba_marseille","lat":43.29022,"lon":5.38648,"is_reserved":false,"is_disabled":false,"rental_uris":{"android":"levelo://app?vid=5e0b1bc9-1584-4f53-bba3-7e6458bd0447","ios":"levelo://app?vid=5e0b1bc9-1584-4f53-bba3-7e6458bd0447"},"vehicle_type_id":"4","last_reported":1727777402,"current_range_meters":15200,"station_id":"ce4bh4p2rcd13ifvqe0g","pricing_plan_id":"cebpf4jnsgd1na2vs0mg"},{"bike_id":"0cd2142c-5562-430f-861b-4e7329de9689","system_id":"levelo_inurba_marseille","lat":43.32286,"lon":5.38272,"is_reserved":false,"is_disabled":false,"rental_uris":{"android":"levelo://app?vid=0cd2142c-5562-430f-861b-4e7329de9689","ios":"levelo://app?vid=0cd2142c-5562-430f-861b-4e7329de9689"},"vehicle_type_id":"4","last_reported":1727777402,"current_range_meters":12000,"station_id":"ce4bhr12rcd13ifvqhqg","pricing_plan_id":"cebpf4jnsgd1na2vs0mg"},{"bike_id":"6b64f73d-88f9-4572-bf07-65425210e44e","system_id":"levelo_inurba_marseille","lat":43.300101,"lon":5.366466,"is_reserved":false,"is_disabled":false,"rental_uris":{"android":"levelo://app?vid=6b64f73d-88f9-4572-bf07-65425210e44e","ios":"levelo://app?vid=6b64f73d-88f9-4572-bf07-65425210e44e"},"vehicle_type_id":"4","last_reported":1727777402,"current_range_meters":32400,"station_id":"ce4bgm92rcd13ifvqbr0","pricing_plan_id":"cebpf4jnsgd1na2vs0mg"},{"bike_id":"371c9cb0-3063-42f4-a9a5-6e3d5f20b865","system_id":"levelo_inurba_marseille","lat":43.312118,"lon":5.368664,"is_reserved":false,"is_disabled":false,"rental_uris":{"android":"levelo://app?vid=371c9cb0-3063-42f4-a9a5-6e3d5f20b865","ios":"levelo://app?vid=371c9cb0-3063-42f4-a9a5-6e3d5f20b865"},"vehicle_type_id":"4","last_reported":1727777402,"current_range_meters":30400,"station_id":"ce4bgl92rcd13ifvqbq0","pricing_plan_id":"cebpf4jnsgd1na2vs0mg"},{"bike_id":"f7dd35f8-9801-471e-93fe-8cf220468a7d","system_id":"levelo_inurba_marseille","lat":43.2749,"lon":5.4246,"is_reserved":false,"is_disabled":false,"rental_uris":{"android":"levelo://app?vid=f7dd35f8-9801-471e-93fe-8cf220468a7d","ios":"levelo://app?vid=f7dd35f8-9801-471e-93fe-8cf220468a7d"},"vehicle_type_id":"4","last_reported":1727777402,"current_range_meters":26800,"station_id":"ce4bhn92rcd13ifvqgrg","pricing_plan_id":"cebpf4jnsgd1na2vs0mg"},{"bike_id":"f51bb76c-cb3e-4045-8267-2fa23634f21d","system_id":"levelo_inurba_marseille","lat":43.27492,"lon":5.42456,"is_reserved":false,"is_disabled":false,"rental_uris":{"android":"levelo://app?vid=f51bb76c-cb3e-4045-8267-2fa23634f21d","ios":"levelo://app?vid=f51bb76c-cb3e-4045-8267-2fa23634f21d"},"vehicle_type_id":"4","last_reported":1727777402,"current_range_meters":20000,"station_id":"ce4bhn92rcd13ifvqgrg","pricing_plan_id":"cebpf4jnsgd1na2vs0mg"},{"bike_id":"9096bd7b-c660-4365-bf80-565dc682badb","system_id":"levelo_inurba_marseille","lat":43.31712,"lon":5.37722,"is_reserved":false,"is_disabled":false,"rental_uris":{"android":"levelo://app?vid=9096bd7b-c660-4365-bf80-565dc682badb","ios":"levelo://app?vid=9096bd7b-c660-4365-bf80-565dc682badb"},"vehicle_type_id":"4","last_reported":1727777402,"current_range_meters":27600,"station_id":"ce4bgth2rcd13ifvqch0","pricing_plan_id":"cebpf4jnsgd1na2vs0mg"},{"bike_id":"42584d37-42ac-4e9b-beda-7539ffb9d4d0","system_id":"levelo_inurba_marseille","lat":43.27049,"lon":5.40258,"is_reserved":false,"is_disabled":false,"rental_uris":{"android":"levelo://app?vid=42584d37-42ac-4e9b-beda-7539ffb9d4d0","ios":"levelo://app?vid=42584d37-42ac-4e9b-beda-7539ffb9d4d0"},"vehicle_type_id":"4","last_reported":1727777402,"current_range_meters":26000,"station_id":"ce4bhk92rcd13ifvqgc0","pricing_plan_id":"cebpf4jnsgd1na2vs0mg"},{"bike_id":"2d7439c9-83ec-4fba-a8cc-813889000f94","system_id":"levelo_inurba_marseille","lat":43.23186,"lon":5.35558,"is_reserved":false,"is_disabled":false,"rental_uris":{"android":"levelo://app?vid=2d7439c9-83ec-4fba-a8cc-813889000f94","ios":"levelo://app?vid=2d7439c9-83ec-4fba-a8cc-813889000f94"},"vehicle_type_id":"4","last_reported":1727777402,"current_range_meters":37600,"station_id":"ce4bhu92rcd13ifvqi70","pricing_plan_id":"cebpf4jnsgd1na2vs0mg"},{"bike_id":"283c0a19-b0ec-4986-9e09-c097d5d27e38","system_id":"levelo_inurba_marseille","lat":43.23153,"lon":5.43702,"is_reserved":false,"is_disabled":false,"rental_uris":{"android":"levelo://app?vid=283c0a19-b0ec-4986-9e09-c097d5d27e38","ios":"levelo://app?vid=283c0a19-b0ec-4986-9e09-c097d5d27e38"},"vehicle_type_id":"4","last_reported":1727777402,"current_range_meters":38800,"station_id":"ce4bhmp2rcd13ifvqgog","pricing_plan_id":"cebpf4jnsgd1na2vs0mg"},{"bike_id":"8460e650-0c0b-4c11-b05b-78e8059fc565","system_id":"levelo_inurba_marseille","lat":43.27483,"lon":5.42456,"is_reserved":false,"is_disabled":false,"rental_uris":{"android":"levelo://app?vid=8460e650-0c0b-4c11-b05b-78e8059fc565","ios":"levelo://app?vid=8460e650-0c0b-4c11-b05b-78e8059fc565"},"vehicle_type_id":"4","last_reported":1727777402,"current_range_meters":8800,"station_id":"ce4bhn92rcd13ifvqgrg","pricing_plan_id":"cebpf4jnsgd1na2vs0mg"},{"bike_id":"96852cd2-da3a-485e-ae9a-32b2398e63cf","system_id":"levelo_inurba_marseille","lat":43.31161,"lon":5.38722,"is_reserved":false,"is_disabled":false,"rental_uris":{"android":"levelo://app?vid=96852cd2-da3a-485e-ae9a-32b2398e63cf","ios":"levelo://app?vid=96852cd2-da3a-485e-ae9a-32b2398e63cf"},"vehicle_type_id":"4","last_reported":1727777402,"current_range_meters":16800,"station_id":"ce4bgv12rcd13ifvqcp0","pricing_plan_id":"cebpf4jnsgd1na2vs0mg"},{"bike_id":"aec781e1-79ca-4ab9-aeeb-109af55c49e3","system_id":"levelo_inurba_marseille","lat":43.29589,"lon":5.38092,"is_reserved":false,"is_disabled":false,"rental_uris":{"android":"levelo://app?vid=aec781e1-79ca-4ab9-aeeb-109af55c49e3","ios":"levelo://app?vid=aec781e1-79ca-4ab9-aeeb-109af55c49e3"},"vehicle_type_id":"4","last_reported":1727777402,"current_range_meters":38000,"station_id":"ce4bgl12rcd13ifvqbo0","pricing_plan_id":"cebpf4jnsgd1na2vs0mg"},{"bike_id":"ec165253-bda4-4bac-82a7-037e6bfb341b","system_id":"levelo_inurba_marseille","lat":43.30536,"lon":5.36708,"is_reserved":false,"is_disabled":false,"rental_uris":{"android":"levelo://app?vid=ec165253-bda4-4bac-82a7-037e6bfb341b","ios":"levelo://app?vid=ec165253-bda4-4bac-82a7-037e6bfb341b"},"vehicle_type_id":"4","last_reported":1727777402,"current_range_meters":31200,"station_id":"ce4bgrp2rcd13ifvqc9g","pricing_plan_id":"cebpf4jnsgd1na2vs0mg"},{"bike_id":"1c76b533-2282-433e-805b-17f810456165","system_id":"levelo_inurba_marseille","lat":43.26494,"lon":5.39547,"is_reserved":false,"is_disabled":false,"rental_uris":{"android":"levelo://app?vid=1c76b533-2282-433e-805b-17f810456165","ios":"levelo://app?vid=1c76b533-2282-433e-805b-17f810456165"},"vehicle_type_id":"4","last_reported":1727777402,"current_range_meters":24400,"station_id":"ce4bhi12rcd13ifvqfq0","pricing_plan_id":"cebpf4jnsgd1na2vs0mg"},{"bike_id":"dfa9a777-62c8-48c9-88d4-bc98a1b1f4c3","system_id":"levelo_inurba_marseille","lat":43.29345,"lon":5.37873,"is_reserved":false,"is_disabled":false,"rental_uris":{"android":"levelo://app?vid=dfa9a777-62c8-48c9-88d4-bc98a1b1f4c3","ios":"levelo://app?vid=dfa9a777-62c8-48c9-88d4-bc98a1b1f4c3"},"vehicle_type_id":"4","last_reported":1727777402,"current_range_meters":28000,"station_id":"ce4bgjh2rcd13ifvqbf0","pricing_plan_id":"cebpf4jnsgd1na2vs0mg"},{"bike_id":"1e9b6ffd-2336-4d38-b7ab-bcd0b6cd4ea0","system_id":"levelo_inurba_marseille","lat":43.26784,"lon":5.39417,"is_reserved":false,"is_disabled":false,"rental_uris":{"android":"levelo://app?vid=1e9b6ffd-2336-4d38-b7ab-bcd0b6cd4ea0","ios":"levelo://app?vid=1e9b6ffd-2336-4d38-b7ab-bcd0b6cd4ea0"},"vehicle_type_id":"4","last_reported":1727777402,"current_range_meters":14000,"station_id":"ce4bhh12rcd13ifvqfg0","pricing_plan_id":"cebpf4jnsgd1na2vs0mg"},{"bike_id":"9bbcd4ac-6f6a-4835-ba8d-ed31c38fab83","system_id":"levelo_inurba_marseille","lat":43.30545,"lon":5.38417,"is_reserved":false,"is_disabled":false,"rental_uris":{"android":"levelo://app?vid=9bbcd4ac-6f6a-4835-ba8d-ed31c38fab83","ios":"levelo://app?vid=9bbcd4ac-6f6a-4835-ba8d-ed31c38fab83"},"vehicle_type_id":"4","last_reported":1727777402,"current_range_meters":38800,"station_id":"ce4bgg92rcd13ifvqb30","pricing_plan_id":"cebpf4jnsgd1na2vs0mg"},{"bike_id":"931a435c-9153-4687-b1d4-315f2ece9231","system_id":"levelo_inurba_marseille","lat":43.30921,"lon":5.40138,"is_reserved":false,"is_disabled":false,"rental_uris":{"android":"levelo://app?vid=931a435c-9153-4687-b1d4-315f2ece9231","ios":"levelo://app?vid=931a435c-9153-4687-b1d4-315f2ece9231"},"vehicle_type_id":"4","last_reported":1727777402,"current_range_meters":25200,"station_id":"ce4bgvp2rcd13ifvqct0","pricing_plan_id":"cebpf4jnsgd1na2vs0mg"},{"bike_id":"d54afdb5-64b5-4577-b0c1-8bff91cdc5ae","system_id":"levelo_inurba_marseille","lat":43.28616,"lon":5.35098,"is_reserved":false,"is_disabled":false,"rental_uris":{"android":"levelo://app?vid=d54afdb5-64b5-4577-b0c1-8bff91cdc5ae","ios":"levelo://app?vid=d54afdb5-64b5-4577-b0c1-8bff91cdc5ae"},"vehicle_type_id":"4","last_reported":1727777402,"current_range_meters":22800,"station_id":"ce4bhch2rcd13ifvqeug","pricing_plan_id":"cebpf4jnsgd1na2vs0mg"},{"bike_id":"b27fb58b-8619-4fe2-adbd-1f4d2e796894","system_id":"levelo_inurba_marseille","lat":43.34142,"lon":5.40908,"is_reserved":false,"is_disabled":false,"rental_uris":{"android":"levelo://app?vid=b27fb58b-8619-4fe2-adbd-1f4d2e796894","ios":"levelo://app?vid=b27fb58b-8619-4fe2-adbd-1f4d2e796894"},"vehicle_type_id":"4","last_reported":1727777402,"current_range_meters":21600,"station_id":"ce4bhqh2rcd13ifvqhlg","pricing_plan_id":"cebpf4jnsgd1na2vs0mg"},{"bike_id":"d13d3f08-3576-4270-b4cb-95d214d77b3b","system_id":"levelo_inurba_marseille","lat":43.3014,"lon":5.37427,"is_reserved":false,"is_disabled":false,"rental_uris":{"android":"levelo://app?vid=d13d3f08-3576-4270-b4cb-95d214d77b3b","ios":"levelo://app?vid=d13d3f08-3576-4270-b4cb-95d214d77b3b"},"vehicle_type_id":"4","last_reported":1727777402,"current_range_meters":37600,"station_id":"ce4bgs92rcd13ifvqcc0","pricing_plan_id":"cebpf4jnsgd1na2vs0mg"},{"bike_id":"2ed36a11-5e83-4a67-bd66-efe684933ead","system_id":"levelo_inurba_marseille","lat":43.31327,"lon":5.36721,"is_reserved":false,"is_disabled":false,"rental_uris":{"android":"levelo://app?vid=2ed36a11-5e83-4a67-bd66-efe684933ead","ios":"levelo://app?vid=2ed36a11-5e83-4a67-bd66-efe684933ead"},"vehicle_type_id":"4","last_reported":1727777402,"current_range_meters":38400,"station_id":"ce4bgr92rcd13ifvqc6g","pricing_plan_id":"cebpf4jnsgd1na2vs0mg"},{"bike_id":"52a79fbb-8e48-4e9a-966f-991ce01cf9f7","system_id":"levelo_inurba_marseille","lat":43.29272,"lon":5.36846,"is_reserved":false,"is_disabled":false,"rental_uris":{"android":"levelo://app?vid=52a79fbb-8e48-4e9a-966f-991ce01cf9f7","ios":"levelo://app?vid=52a79fbb-8e48-4e9a-966f-991ce01cf9f7"},"vehicle_type_id":"4","last_reported":1727777402,"current_range_meters":24400,"station_id":"ce4bhbp2rcd13ifvqesg","pricing_plan_id":"cebpf4jnsgd1na2vs0mg"},{"bike_id":"6e4e18d8-1b46-480e-a81c-4aaa5a2672c2","system_id":"levelo_inurba_marseille","lat":43.23156,"lon":5.43699,"is_reserved":false,"is_disabled":false,"rental_uris":{"android":"levelo://app?vid=6e4e18d8-1b46-480e-a81c-4aaa5a2672c2","ios":"levelo://app?vid=6e4e18d8-1b46-480e-a81c-4aaa5a2672c2"},"vehicle_type_id":"4","last_reported":1727777402,"current_range_meters":18000,"station_id":"ce4bhmp2rcd13ifvqgog","pricing_plan_id":"cebpf4jnsgd1na2vs0mg"},{"bike_id":"e48c8979-8cc3-4527-9bd0-21524ec72a19","system_id":"levelo_inurba_marseille","lat":43.29575,"lon":5.37505,"is_reserved":false,"is_disabled":false,"rental_uris":{"android":"levelo://app?vid=e48c8979-8cc3-4527-9bd0-21524ec72a19","ios":"levelo://app?vid=e48c8979-8cc3-4527-9bd0-21524ec72a19"},"vehicle_type_id":"4","last_reported":1727777402,"current_range_meters":28000,"station_id":"ce4bgh92rcd13ifvqb50","pricing_plan_id":"cebpf4jnsgd1na2vs0mg"},{"bike_id":"a86ac359-1547-4175-bce3-51b63efa0be5","system_id":"levelo_inurba_marseille","lat":43.30157,"lon":5.3808,"is_reserved":false,"is_disabled":false,"rental_uris":{"android":"levelo://app?vid=a86ac359-1547-4175-bce3-51b63efa0be5","ios":"levelo://app?vid=a86ac359-1547-4175-bce3-51b63efa0be5"},"vehicle_type_id":"4","last_reported":1727777402,"current_range_meters":9200,"station_id":"ce4bh9p2rcd13ifvqec0","pricing_plan_id":"cebpf4jnsgd1na2vs0mg"},{"bike_id":"6eaffb8c-f9e9-49f1-b6d2-28ab61ddf469","system_id":"levelo_inurba_marseille","lat":43.29596,"lon":5.38097,"is_reserved":false,"is_disabled":false,"rental_uris":{"android":"levelo://app?vid=6eaffb8c-f9e9-49f1-b6d2-28ab61ddf469","ios":"levelo://app?vid=6eaffb8c-f9e9-49f1-b6d2-28ab61ddf469"},"vehicle_type_id":"4","last_reported":1727777402,"current_range_meters":19200,"station_id":"ce4bgl12rcd13ifvqbo0","pricing_plan_id":"cebpf4jnsgd1na2vs0mg"},{"bike_id":"71c1dba2-d598-4a2e-be77-f96ebb63f3e9","system_id":"levelo_inurba_marseille","lat":43.31713,"lon":5.37733,"is_reserved":false,"is_disabled":false,"rental_uris":{"android":"levelo://app?vid=71c1dba2-d598-4a2e-be77-f96ebb63f3e9","ios":"levelo://app?vid=71c1dba2-d598-4a2e-be77-f96ebb63f3e9"},"vehicle_type_id":"4","last_reported":1727777402,"current_range_meters":35200,"station_id":"ce4bgth2rcd13ifvqch0","pricing_plan_id":"cebpf4jnsgd1na2vs0mg"},{"bike_id":"72396cda-045e-40a5-99dd-8e6adb283673","system_id":"levelo_inurba_marseille","lat":43.34143,"lon":5.40903,"is_reserved":false,"is_disabled":false,"rental_uris":{"android":"levelo://app?vid=72396cda-045e-40a5-99dd-8e6adb283673","ios":"levelo://app?vid=72396cda-045e-40a5-99dd-8e6adb283673"},"vehicle_type_id":"4","last_reported":1727777402,"current_range_meters":16800,"station_id":"ce4bhqh2rcd13ifvqhlg","pricing_plan_id":"cebpf4jnsgd1na2vs0mg"},{"bike_id":"9a2a0f7d-21c1-453a-a184-37a87cd15379","system_id":"levelo_inurba_marseille","lat":43.3014,"lon":5.37417,"is_reserved":false,"is_disabled":false,"rental_uris":{"android":"levelo://app?vid=9a2a0f7d-21c1-453a-a184-37a87cd15379","ios":"levelo://app?vid=9a2a0f7d-21c1-453a-a184-37a87cd15379"},"vehicle_type_id":"4","last_reported":1727777402,"current_range_meters":8800,"station_id":"ce4bgs92rcd13ifvqcc0","pricing_plan_id":"cebpf4jnsgd1na2vs0mg"},{"bike_id":"67d528e4-3142-4ee4-b8c7-f71b20fc4389","system_id":"levelo_inurba_marseille","lat":43.27207,"lon":5.39178,"is_reserved":false,"is_disabled":false,"rental_uris":{"android":"levelo://app?vid=67d528e4-3142-4ee4-b8c7-f71b20fc4389","ios":"levelo://app?vid=67d528e4-3142-4ee4-b8c7-f71b20fc4389"},"vehicle_type_id":"4","last_reported":1727777402,"current_range_meters":11600,"station_id":"ce4bhhp2rcd13ifvqfm0","pricing_plan_id":"cebpf4jnsgd1na2vs0mg"},{"bike_id":"a89da852-1037-48ee-9c81-7bc5f3c20611","system_id":"levelo_inurba_marseille","lat":43.25937,"lon":5.40906,"is_reserved":false,"is_disabled":false,"rental_uris":{"android":"levelo://app?vid=a89da852-1037-48ee-9c81-7bc5f3c20611","ios":"levelo://app?vid=a89da852-1037-48ee-9c81-7bc5f3c20611"},"vehicle_type_id":"4","last_reported":1727777402,"current_range_meters":9200,"station_id":"ce4bhm92rcd13ifvqglg","pricing_plan_id":"cebpf4jnsgd1na2vs0mg"},{"bike_id":"67e0566b-a3a2-4812-958d-95e55852e48f","system_id":"levelo_inurba_marseille","lat":43.30532,"lon":5.36701,"is_reserved":false,"is_disabled":false,"rental_uris":{"android":"levelo://app?vid=67e0566b-a3a2-4812-958d-95e55852e48f","ios":"levelo://app?vid=67e0566b-a3a2-4812-958d-95e55852e48f"},"vehicle_type_id":"4","last_reported":1727777402,"current_range_meters":39200,"station_id":"ce4bh092rcd13ifvqd30","pricing_plan_id":"cebpf4jnsgd1na2vs0mg"},{"bike_id":"7952f569-7fc3-461b-bc41-e83a35280555","system_id":"levelo_inurba_marseille","lat":43.2749,"lon":5.42457,"is_reserved":false,"is_disabled":false,"rental_uris":{"android":"levelo://app?vid=7952f569-7fc3-461b-bc41-e83a35280555","ios":"levelo://app?vid=7952f569-7fc3-461b-bc41-e83a35280555"},"vehicle_type_id":"4","last_reported":1727777402,"current_range_meters":35600,"station_id":"ce4bhn92rcd13ifvqgrg","pricing_plan_id":"cebpf4jnsgd1na2vs0mg"},{"bike_id":"3332c8f5-1cc1-4aab-aca1-b2c33c8913d9","system_id":"levelo_inurba_marseille","lat":43.25942,"lon":5.40896,"is_reserved":false,"is_disabled":false,"rental_uris":{"android":"levelo://app?vid=3332c8f5-1cc1-4aab-aca1-b2c33c8913d9","ios":"levelo://app?vid=3332c8f5-1cc1-4aab-aca1-b2c33c8913d9"},"vehicle_type_id":"4","last_reported":1727777402,"current_range_meters":33600,"station_id":"ce4bhm92rcd13ifvqglg","pricing_plan_id":"cebpf4jnsgd1na2vs0mg"},{"bike_id":"7cdc4650-5148-4339-9fd1-1d5a0c61e686","system_id":"levelo_inurba_marseille","lat":43.24177,"lon":5.39746,"is_reserved":false,"is_disabled":false,"rental_uris":{"android":"levelo://app?vid=7cdc4650-5148-4339-9fd1-1d5a0c61e686","ios":"levelo://app?vid=7cdc4650-5148-4339-9fd1-1d5a0c61e686"},"vehicle_type_id":"4","last_reported":1727777402,"current_range_meters":38800,"station_id":"ce4bhn12rcd13ifvqgpg","pricing_plan_id":"cebpf4jnsgd1na2vs0mg"},{"bike_id":"a6a5837e-ae0e-43ad-a937-8733ae1af49a","system_id":"levelo_inurba_marseille","lat":43.30557,"lon":5.3654,"is_reserved":false,"is_disabled":false,"rental_uris":{"android":"levelo://app?vid=a6a5837e-ae0e-43ad-a937-8733ae1af49a","ios":"levelo://app?vid=a6a5837e-ae0e-43ad-a937-8733ae1af49a"},"vehicle_type_id":"4","last_reported":1727777402,"current_range_meters":40000,"station_id":"ce4bgs12rcd13ifvqcag","pricing_plan_id":"cebpf4jnsgd1na2vs0mg"},{"bike_id":"d30675da-2c34-4a10-948b-9ae41b7168fa","system_id":"levelo_inurba_marseille","lat":43.29535,"lon":5.38545,"is_reserved":false,"is_disabled":false,"rental_uris":{"android":"levelo://app?vid=d30675da-2c34-4a10-948b-9ae41b7168fa","ios":"levelo://app?vid=d30675da-2c34-4a10-948b-9ae41b7168fa"},"vehicle_type_id":"4","last_reported":1727777402,"current_range_meters":29600,"station_id":"ce4bgih2rcd13ifvqba0","pricing_plan_id":"cebpf4jnsgd1na2vs0mg"},{"bike_id":"1a557b27-e61d-433f-8798-25ea2db33048","system_id":"levelo_inurba_marseille","lat":43.30138,"lon":5.37421,"is_reserved":false,"is_disabled":false,"rental_uris":{"android":"levelo://app?vid=1a557b27-e61d-433f-8798-25ea2db33048","ios":"levelo://app?vid=1a557b27-e61d-433f-8798-25ea2db33048"},"vehicle_type_id":"4","last_reported":1727777402,"current_range_meters":36000,"station_id":"ce4bgs92rcd13ifvqcc0","pricing_plan_id":"cebpf4jnsgd1na2vs0mg"},{"bike_id":"c0f09735-5f9d-4d91-a862-446293fb3a3d","system_id":"levelo_inurba_marseille","lat":43.30193,"lon":5.36618,"is_reserved":false,"is_disabled":false,"rental_uris":{"android":"levelo://app?vid=c0f09735-5f9d-4d91-a862-446293fb3a3d","ios":"levelo://app?vid=c0f09735-5f9d-4d91-a862-446293fb3a3d"},"vehicle_type_id":"4","last_reported":1727777402,"current_range_meters":37600,"station_id":"ce4bgrh2rcd13ifvqc8g","pricing_plan_id":"cebpf4jnsgd1na2vs0mg"},