{"last_updated":1735578451,"ttl":60,"version":"2.2","data":{"bikes":[{"bike_id":"46ecd33b-8389-422b-a6a3-737556237644","system_id":"levelo_inurba_marseille","lat":43.284717,"lon":5.358869,"is_reserved":false,"is_disabled":false,"rental_uris":{"android":"levelo://app?vid=46ecd33b-8389-422b-a6a3-737556237644","ios":"levelo://app?vid=46ecd33b-8389-422b-a6a3-737556237644"},"vehicle_type_id":"4","last_reported":1735578452,"current_range_meters":30000,"station_id":"ce4bhah2rcd13ifvqei0","pricing_plan_id":"cebpf4jnsgd1na2vs0mg"},{"bike_id":"8aacb449-ede3-4716-8f42-7cc48d05ade8","system_id":"levelo_inurba_marseille","lat":43.27814,"lon":5.4071,"is_reserved":false,"is_disabled":false,"rental_uris":{"android":"levelo://app?vid=8aacb449-ede3-4716-8f42-7cc48d05ade8","ios":"levelo://app?vid=8aacb449-ede3-4716-8f42-7cc48d05ade8"},"vehicle_type_id":"4","last_reported":1735578452,"current_range_meters":28400,"station_id":"ce4bhnh2rcd13ifvqgtg","pricing_plan_id":"cebpf4jnsgd1na2vs0mg"},{"bike_id":"b125795f-7d19-4680-a8d6-94e84290827f","system_id":"levelo_inurba_marseille","lat":43.30131,"lon":5.37423,"is_reserved":false,"is_disabled":false,"rental_uris":{"android":"levelo://app?vid=b125795f-7d19-4680-a8d6-94e84290827f","ios":"levelo://app?vid=b125795f-7d19-4680-a8d6-94e84290827f"},"vehicle_type_id":"4","last_reported":1735578452,"current_range_meters":39200,"station_id":"ce4bgs92rcd13ifvqcc0","pricing_plan_id":"cebpf4jnsgd1na2vs0mg"},{"bike_id":"92b731bd-5018-412b-882c-748ea846dc76","system_id":"levelo_inurba_marseille","lat":43.27325,"lon":5.39099,"is_reserved":false,"is_disabled":false,"rental_uris":{"android":"levelo://app?vid=92b731bd-5018-412b-882c-748ea846dc76","ios":"levelo://app?vid=92b731bd-5018-412b-882c-748ea846dc76"},"vehicle_type_id":"4","last_reported":1735578452,"current_range_meters":26000,"station_id":"ce4bhgp2rcd13ifvqfe0","pricing_plan_id":"cebpf4jnsgd1na2vs0mg"},{"bike_id":"8c5a7b3d-e51b-4550-94ef-4166f30770b6","system_id":"levelo_inurba_marseille","lat":43.27308,"lon":5.39082,"is_reserved":false,"is_disabled":false,"rental_uris":{"android":"levelo://app?vid=8c5a7b3d-e51b-4550-94ef-4166f30770b6","ios":"levelo://app?vid=8c5a7b3d-e51b-4550-94ef-4166f30770b6"},"vehicle_type_id":"4","last_reported":1735578452,"current_range_meters":26800,"station_id":"ce4bhgp2rcd13ifvqfe0","pricing_plan_id":"cebpf4jnsgd1na2vs0mg"},{"bike_id":"0c4d407c-6cb3-4649-ac2d-959dc9dbd1fc","system_id":"levelo_inurba_marseille","lat":43.27944,"lon":5.41042,"is_reserved":false,"is_disabled":false,"rental_uris":{"android":"levelo://app?vid=0c4d407c-6cb3-4649-ac2d-959dc9dbd1fc","ios":"levelo://app?vid=0c4d407c-6cb3-4649-ac2d-959dc9dbd1fc"},"vehicle_type_id":"4","last_reported":1735578452,"current_range_meters":27600,"station_id":"ce4bhnp2rcd13ifvqh0g","pricing_plan_id":"cebpf4jnsgd1na2vs0mg"},{"bike_id":"dab3ccaf-c4b8-4722-8731-9973f6207435","system_id":"levelo_inurba_marseille","lat":43.30117,"lon":5.399,"is_reserved":false,"is_disabled":false,"rental_uris":{"android":"levelo://app?vid=dab3ccaf-c4b8-4722-8731-9973f6207435","ios":"levelo://app?vid=dab3ccaf-c4b8-4722-8731-9973f6207435"},"vehicle_type_id":"4","last_reported":1735578452,"current_range_meters":39200,"station_id":"ce4bh0h2rcd13ifvqd40","pricing_plan_id":"cebpf4jnsgd1na2vs0mg"},{"bike_id":"3991aac2-ec7f-43c8-801f-23e11845f2d6","system_id":"levelo_inurba_marseille","lat":43.28154,"lon":5.42627,"is_reserved":false,"is_disabled":false,"rental_uris":{"android":"levelo://app?vid=3991aac2-ec7f-43c8-801f-23e11845f2d6","ios":"levelo://app?vid=3991aac2-ec7f-43c8-801f-23e11845f2d6"},"vehicle_type_id":"4","last_reported":1735578452,"current_range_meters":38800,"station_id":"ce4bhnh2rcd13ifvqgug","pricing_plan_id":"cebpf4jnsgd1na2vs0mg"},{"bike_id":"baaa04e6-afd5-4746-9e82-9d2e405bde6f","system_id":"levelo_inurba_marseille","lat":43.28456,"lon":5.35891,"is_reserved":false,"is_disabled":false,"rental_uris":{"android":"levelo://app?vid=baaa04e6-afd5-4746-9e82-9d2e405bde6f","ios":"levelo://app?vid=baaa04e6-afd5-4746-9e82-9d2e405bde6f"},"vehicle_type_id":"4","last_reported":1735578452,"current_range_meters":22800,"station_id":"ce4bhah2rcd13ifvqei0","pricing_plan_id":"cebpf4jnsgd1na2vs0mg"},{"bike_id":"31e50aac-a97d-441e-9dd9-3b425006c896","system_id":"levelo_inurba_marseille","lat":43.28938,"lon":5.36631,"is_reserved":false,"is_disabled":false,"rental_uris":{"android":"levelo://app?vid=31e50aac-a97d-441e-9dd9-3b425006c896","ios":"levelo://app?vid=31e50aac-a97d-441e-9dd9-3b425006c896"},"vehicle_type_id":"4","last_reported":1735578452,"current_range_meters":22800,"station_id":"ce4bhap2rcd13ifvqek0","pricing_plan_id":"cebpf4jnsgd1na2vs0mg"},{"bike_id":"3b3d2c75-4195-4f81-af35-afa13ebc8eea","system_id":"levelo_inurba_marseille","lat":43.27369,"lon":5.36242,"is_reserved":false,"is_disabled":true,"rental_uris":{"android":"levelo://app?vid=3b3d2c75-4195-4f81-af35-afa13ebc8eea","ios":"levelo://app?vid=3b3d2c75-4195-4f81-af35-afa13ebc8eea"},"vehicle_type_id":"4","last_reported":1735578452,"current_range_meters":22400,"station_id":"ce4bhbh2rcd13ifvqeo0","pricing_plan_id":"cebpf4jnsgd1na2vs0mg"},{"bike_id":"34746fd6-7d22-4962-bfa1-605bd86ec832","system_id":"levelo_inurba_marseille","lat":43.25496,"lon":5.37653,"is_reserved":false,"is_disabled":false,"rental_uris":{"android":"levelo://app?vid=34746fd6-7d22-4962-bfa1-605bd86ec832","ios":"levelo://app?vid=34746fd6-7d22-4962-bfa1-605bd86ec832"},"vehicle_type_id":"4","last_reported":1735578452,"current_range_meters":32400,"station_id":"ce4bhh12rcd13ifvqff0","pricing_plan_id":"cebpf4jnsgd1na2vs0mg"},{"bike_id":"d093c3a8-d086-45c6-b0b7-cbfbc0acb478","system_id":"levelo_inurba_marseille","lat":43.23965,"lon":5.36633,"is_reserved":false,"is_disabled":false,"rental_uris":{"android":"levelo://app?vid=d093c3a8-d086-45c6-b0b7-cbfbc0acb478","ios":"levelo://app?vid=d093c3a8-d086-45c6-b0b7-cbfbc0acb478"},"vehicle_type_id":"4","last_reported":1735578452,"current_range_meters":38800,"station_id":"ce4bhi12rcd13ifvqfp0","pricing_plan_id":"cebpf4jnsgd1na2vs0mg"},{"bike_id":"ee1fb224-716f-4f05-831c-9ecb8d1849e1","system_id":"levelo_inurba_marseille","lat":43.29978,"lon":5.3849,"is_reserved":false,"is_disabled":false,"rental_uris":{"android":"levelo://app?vid=ee1fb224-716f-4f05-831c-9ecb8d1849e1","ios":"levelo://app?vid=ee1fb224-716f-4f05-831c-9ecb8d1849e1"},"vehicle_type_id":"4","last_reported":1735578452,"current_range_meters":39200,"station_id":"ce4bgj92rcd13ifvqbd0","pricing_plan_id":"cebpf4jnsgd1na2vs0mg"},{"bike_id":"4b2d39f3-d5d3-4cb8-a84c-a1c267b615dd","system_id":"levelo_inurba_marseille","lat":43.28283,"lon":5.35081,"is_reserved":false,"is_disabled":true,"rental_uris":{"android":"levelo://app?vid=4b2d39f3-d5d3-4cb8-a84c-a1c267b615dd","ios":"levelo://app?vid=4b2d39f3-d5d3-4cb8-a84c-a1c267b615dd"},"vehicle_type_id":"4","last_reported":1735578452,"current_range_meters":10000,"station_id":"ce4bhbp2rcd13ifvqerg","pricing_plan_id":"cebpf4jnsgd1na2vs0mg"},{"bike_id":"43d70a12-f23b-4eab-80ce-32f6ec951a07","system_id":"levelo_inurba_marseille","lat":43.28008,"lon":5.40013,"is_reserved":false,"is_disabled":false,"rental_uris":{"android":"levelo://app?vid=43d70a12-f23b-4eab-80ce-32f6ec951a07","ios":"levelo://app?vid=43d70a12-f23b-4eab-80ce-32f6ec951a07"},"vehicle_type_id":"4","last_reported":1735578452,"current_range_meters":4000,"station_id":"ce4bho92rcd13ifvqh4g","pricing_plan_id":"cebpf4jnsgd1na2vs0mg"},{"bike_id":"a007b654-8965-4c32-a6d2-2d2318532aa4","system_id":"levelo_inurba_marseille","lat":43.29568,"lon":5.37524,"is_reserved":false,"is_disabled":false,"rental_uris":{"android":"levelo://app?vid=a007b654-8965-4c32-a6d2-2d2318532aa4","ios":"levelo://app?vid=a007b654-8965-4c32-a6d2-2d2318532aa4"},"vehicle_type_id":"4","last_reported":1735578452,"current_range_meters":36800,"station_id":"ce4bgh92rcd13ifvqb50","pricing_plan_id":"cebpf4jnsgd1na2vs0mg"},{"bike_id":"fba9bd09-e272-4761-b16c-b34423f27b50","system_id":"levelo_inurba_marseille","lat":43.2606,"lon":5.39392,"is_reserved":false,"is_disabled":false,"rental_uris":{"android":"levelo://app?vid=fba9bd09-e272-4761-b16c-b34423f27b50","ios":"levelo://app?vid=fba9bd09-e272-4761-b16c-b34423f27b50"},"vehicle_type_id":"4","last_reported":1735578452,"current_range_meters":28400,"station_id":"ce4bhh92rcd13ifvqfj0","pricing_plan_id":"cebpf4jnsgd1na2vs0mg"},{"bike_id":"f9f0555d-c93a-4b6f-9de9-91612cad7b7e","system_id":"levelo_inurba_marseille","lat":43.29904,"lon":5.38163,"is_reserved":false,"is_disabled":false,"rental_uris":{"android":"levelo://app?vid=f9f0555d-c93a-4b6f-9de9-91612cad7b7e","ios":"levelo://app?vid=f9f0555d-c93a-4b6f-9de9-91612cad7b7e"},"vehicle_type_id":"4","last_reported":1735578452,"current_range_meters":18800,"station_id":"ce4bgj12rcd13ifvqbc0","pricing_plan_id":"cebpf4jnsgd1na2vs0mg"},{"bike_id":"abfa2e5d-18b5-464f-93d1-e9e4d7a39628","system_id":"levelo_inurba_marseille","lat":43.27943,"lon":5.41027,"is_reserved":false,"is_disabled":false,"rental_uris":{"android":"levelo://app?vid=abfa2e5d-18b5-464f-93d1-e9e4d7a39628","ios":"levelo://app?vid=abfa2e5d-18b5-464f-93d1-e9e4d7a39628"},"vehicle_type_id":"4","last_reported":1735578452,"current_range_meters":12800,"station_id":"ce4bhnp2rcd13ifvqh0g","pricing_plan_id":"cebpf4jnsgd1na2vs0mg"},{"bike_id":"575a07ae-cc2c-40ac-a6a4-eb1bdd25cb4e","system_id":"levelo_inurba_marseille","lat":43.29038,"lon":5.37564,"is_reserved":false,"is_disabled":true,"rental_uris":{"android":"levelo://app?vid=575a07ae-cc2c-40ac-a6a4-eb1bdd25cb4e","ios":"levelo://app?vid=575a07ae-cc2c-40ac-a6a4-eb1bdd25cb4e"},"vehicle_type_id":"4","last_reported":1735578452,"current_range_meters":800,"station_id":"ce4bh692rcd13ifvqe90","pricing_plan_id":"cebpf4jnsgd1na2vs0mg"},{"bike_id":"e05515d8-bec2-49a4-b615-3c269b4d5faa","system_id":"levelo_inurba_marseille","lat":43.29428,"lon":5.38637,"is_reserved":false,"is_disabled":false,"rental_uris":{"android":"levelo://app?vid=e05515d8-bec2-49a4-b615-3c269b4d5faa","ios":"levelo://app?vid=e05515d8-bec2-49a4-b615-3c269b4d5faa"},"vehicle_type_id":"4","last_reported":1735578452,"current_range_meters":19200,"station_id":"ce4bh2h2rcd13ifvqdh0","pricing_plan_id":"cebpf4jnsgd1na2vs0mg"},{"bike_id":"3938a3b9-5c57-4c39-aad1-ac297c23bf5b","system_id":"levelo_inurba_marseille","lat":43.26062,"lon":5.39401,"is_reserved":false,"is_disabled":false,"rental_uris":{"android":"levelo://app?vid=3938a3b9-5c57-4c39-aad1-ac297c23bf5b","ios":"levelo://app?vid=3938a3b9-5c57-4c39-aad1-ac297c23bf5b"},"vehicle_type_id":"4","last_reported":1735578452,"current_range_meters":10800,"station_id":"ce4bhh92rcd13ifvqfj0","pricing_plan_id":"cebpf4jnsgd1na2vs0mg"},{"bike_id":"e71394e9-2206-47fa-95ee-58da37c71079","system_id":"levelo_inurba_marseille","lat":43.29631,"lon":5.40606,"is_reserved":false,"is_disabled":false,"rental_uris":{"android":"levelo://app?vid=e71394e9-2206-47fa-95ee-58da37c71079","ios":"levelo://app?vid=e71394e9-2206-47fa-95ee-58da37c71079"},"vehicle_type_id":"4","last_reported":1735578452,"current_range_meters":9200,"station_id":"ce4bh0h2rcd13ifvqd60","pricing_plan_id":"cebpf4jnsgd1na2vs0mg"},{"bike_id":"9f2b9bba-3c4f-44b5-b426-31738094d189","system_id":"levelo_inurba_marseille","lat":43.30542,"lon":5.36705,"is_reserved":false,"is_disabled":false,"rental_uris":{"android":"levelo://app?vid=9f2b9bba-3c4f-44b5-b426-31738094d189","ios":"levelo://app?vid=9f2b9bba-3c4f-44b5-b426-31738094d189"},"vehicle_type_id":"4","last_reported":1735578452,"current_range_meters":28800,"station_id":"ce4bgrp2rcd13ifvqc9g","pricing_plan_id":"cebpf4jnsgd1na2vs0mg"},{"bike_id":"b4d130c6-4fa7-4fa3-83b8-3ae416781279","system_id":"levelo_inurba_marseille","lat":43.27437,"lon":5.39268,"is_reserved":false,"is_disabled":false,"rental_uris":{"android":"levelo://app?vid=b4d130c6-4fa7-4fa3-83b8-3ae416781279","ios":"levelo://app?vid=b4d130c6-4fa7-4fa3-83b8-3ae416781279"},"vehicle_type_id":"4","last_reported":1735578452,"current_range_meters":9600,"station_id":"","pricing_plan_id":"cebpf4jnsgd1na2vs0mg"},{"bike_id":"00fe8d92-c7ff-48a9-963b-cb862cc37bc1","system_id":"levelo_inurba_marseille","lat":43.32353,"lon":5.3887,"is_reserved":false,"is_disabled":false,"rental_uris":{"android":"levelo://app?vid=00fe8d92-c7ff-48a9-963b-cb862cc37bc1","ios":"levelo://app?vid=00fe8d92-c7ff-48a9-963b-cb862cc37bc1"},"vehicle_type_id":"4","last_reported":1735578452,"current_range_meters":26000,"station_id":"ce4bhqp2rcd13ifvqhog","pricing_plan_id":"cebpf4jnsgd1na2vs0mg"},{"bike_id":"8da5d8d5-7736-4902-a2a3-2af73789a5b8","system_id":"levelo_inurba_marseille","lat":43.2656,"lon":5.39013,"is_reserved":false,"is_disabled":false,"rental_uris":{"android":"levelo://app?vid=8da5d8d5-7736-4902-a2a3-2af73789a5b8","ios":"levelo://app?vid=8da5d8d5-7736-4902-a2a3-2af73789a5b8"},"vehicle_type_id":"4","last_reported":1735578452,"current_range_meters":38800,"station_id":"ce4bhe12rcd13ifvqf30","pricing_plan_id":"cebpf4jnsgd1na2vs0mg"},{"bike_id":"ff49d49a-53c3-499a-b296-89a67f332a8a","system_id":"levelo_inurba_marseille","lat":43.24165,"lon":5.36396,"is_reserved":false,"is_disabled":false,"rental_uris":{"android":"levelo://app?vid=ff49d49a-53c3-499a-b296-89a67f332a8a","ios":"levelo://app?vid=ff49d49a-53c3-499a-b296-89a67f332a8a"},"vehicle_type_id":"4","last_reported":1735578452,"current_range_meters":38800,"station_id":"cpo36qri1sfpv3e86is0","pricing_plan_id":"cebpf4jnsgd1na2vs0mg"},{"bike_id":"d997942b-96d2-4dd2-839e-5ce56527e947","system_id":"levelo_inurba_marseille","lat":43.2972,"lon":5.37684,"is_reserved":false,"is_disabled":false,"rental_uris":{"android":"levelo://app?vid=d997942b-96d2-4dd2-839e-5ce56527e947","ios":"levelo://app?vid=d997942b-96d2-4dd2-839e-5ce56527e947"},"vehicle_type_id":"4","last_reported":1735578452,"current_range_meters":25600,"station_id":"ce4bgkh2rcd13ifvqbl0","pricing_plan_id":"cebpf4jnsgd1na2vs0mg"},{"bike_id":"68ce89d7-2c49-47a3-af51-4cee0b21d337","system_id":"levelo_inurba_marseille","lat":43.27964,"lon":5.38698,"is_reserved":false,"is_disabled":false,"rental_uris":{"android":"levelo://app?vid=68ce89d7-2c49-47a3-af51-4cee0b21d337","ios":"levelo://app?vid=68ce89d7-2c49-47a3-af51-4cee0b21d337"},"vehicle_type_id":"4","last_reported":1735578452,"current_range_meters":37600,"station_id":"ce4bhg12rcd13ifvqf80","pricing_plan_id":"cebpf4jnsgd1na2vs0mg"},{"bike_id":"294c14cb-577f-4c56-859e-2380db7a357a","system_id":"levelo_inurba_marseille","lat":43.23151,"lon":5.43712,"is_reserved":false,"is_disabled":true,"rental_uris":{"android":"levelo://app?vid=294c14cb-577f-4c56-859e-2380db7a357a","ios":"levelo://app?vid=294c14cb-577f-4c56-859e-2380db7a357a"},"vehicle_type_id":"4","last_reported":1735578452,"current_range_meters":1200,"station_id":"ce4bhmp2rcd13ifvqgog","pricing_plan_id":"cebpf4jnsgd1na2vs0mg"},{"bike_id":"3a188570-1871-4ee6-952e-e850c589f2e7","system_id":"levelo_inurba_marseille","lat":43.29526,"lon":5.37506,"is_reserved":false,"is_disabled":false,"rental_uris":{"android":"levelo://app?vid=3a188570-1871-4ee6-952e-e850c589f2e7","ios":"levelo://app?vid=3a188570-1871-4ee6-952e-e850c589f2e7"},"vehicle_type_id":"4","last_reported":1735578452,"current_range_meters":6400,"station_id":"ce4bgkp2rcd13ifvqbmg","pricing_plan_id":"cebpf4jnsgd1na2vs0mg"},{"bike_id":"b6559458-8701-4796-97db-d8dbe8701181","system_id":"levelo_inurba_marseille","lat":43.27314,"lon":5.390869,"is_reserved":false,"is_disabled":false,"rental_uris":{"android":"levelo://app?vid=b6559458-8701-4796-97db-d8dbe8701181","ios":"levelo://app?vid=b6559458-8701-4796-97db-d8dbe8701181"},"vehicle_type_id":"4","last_reported":1735578452,"current_range_meters":32000,"station_id":"ce4bhgp2rcd13ifvqfe0","pricing_plan_id":"cebpf4jnsgd1na2vs0mg"},{"bike_id":"13f84696-4405-43e0-b0f5-1a61d67abe32","system_id":"levelo_inurba_marseille","lat":43.27843,"lon":5.39204,"is_reserved":false,"is_disabled":false,"rental_uris":{"android":"levelo://app?vid=13f84696-4405-43e0-b0f5-1a61d67abe32","ios":"levelo://app?vid=13f84696-4405-43e0-b0f5-1a61d67abe32"},"vehicle_type_id":"4","last_reported":1735578452,"current_range_meters":18000,"station_id":"ce4bhjp2rcd13ifvqga0","pricing_plan_id":"cebpf4jnsgd1na2vs0mg"},{"bike_id":"1b28873f-98c8-4dcb-9ce1-495182804c69","system_id":"levelo_inurba_marseille","lat":43.29369,"lon":5.37842,"is_reserved":false,"is_disabled":false,"rental_uris":{"android":"levelo://app?vid=1b28873f-98c8-4dcb-9ce1-495182804c69","ios":"levelo://app?vid=1b28873f-98c8-4dcb-9ce1-495182804c69"},"vehicle_type_id":"4","last_reported":1735578452,"current_range_meters":25600,"station_id":"ce4bgjh2rcd13ifvqbf0","pricing_plan_id":"cebpf4jnsgd1na2vs0mg"},{"bike_id":"caab34a4-5264-4b72-a12f-e55159fe93b6","system_id":"levelo_inurba_marseille","lat":43.27069,"lon":5.42262,"is_reserved":false,"is_disabled":false,"rental_uris":{"android":"levelo://app?vid=caab34a4-5264-4b72-a12f-e55159fe93b6","ios":"levelo://app?vid=caab34a4-5264-4b72-a12f-e55159fe93b6"},"vehicle_type_id":"4","last_reported":1735578452,"current_range_meters":18800,"station_id":"ce4bhk92rcd13ifvqgb0","pricing_plan_id":"cebpf4jnsgd1na2vs0mg"},{"bike_id":"125de5f8-09eb-44ba-80a5-284e382dbb1b","system_id":"levelo_inurba_marseille","lat":43.30465,"lon":5.37899,"is_reserved":false,"is_disabled":false,"rental_uris":{"android":"levelo://app?vid=125de5f8-09eb-44ba-80a5-284e382dbb1b","ios":"levelo://app?vid=125de5f8-09eb-44ba-80a5-284e382dbb1b"},"vehicle_type_id":"4","last_reported":1735578452,"current_range_meters":35600,"station_id":"ce4bgup2rcd13ifvqcn0","pricing_plan_id":"cebpf4jnsgd1na2vs0mg"},{"bike_id":"08af431f-0fc4-4d6e-b7bf-bfb538385b59","system_id":"levelo_inurba_marseille","lat":43.29963,"lon":5.38504,"is_reserved":false,"is_disabled":false,"rental_uris":{"android":"levelo://app?vid=08af431f-0fc4-4d6e-b7bf-bfb538385b59","ios":"levelo://app?vid=08af431f-0fc4-4d6e-b7bf-bfb538385b59"},"vehicle_type_id":"4","last_reported":1735578452,"current_range_meters":16800,"station_id":"ce4bgj92rcd13ifvqbd0","pricing_plan_id":"cebpf4jnsgd1na2vs0mg"},{"bike_id":"eb5ece38-d2fe-4a11-93b3-dac98bfc2b72","system_id":"levelo_inurba_marseille","lat":43.28721,"lon":5.37935,"is_reserved":false,"is_disabled":false,"rental_uris":{"android":"levelo://app?vid=eb5ece38-d2fe-4a11-93b3-dac98bfc2b72","ios":"levelo://app?vid=eb5ece38-d2fe-4a11-93b3-dac98bfc2b72"},"vehicle_type_id":"4","last_reported":1735578452,"current_range_meters":38400,"station_id":"ce4bh9p2rcd13ifvqec0","pricing_plan_id":"cebpf4jnsgd1na2vs0mg"},{"bike_id":"1fdff105-c85f-4157-a441-abd257fe29bb","system_id":"levelo_inurba_marseille","lat":43.33029,"lon":5.39049,"is_reserved":false,"is_disabled":false,"rental_uris":{"android":"levelo://app?vid=1fdff105-c85f-4157-a441-abd257fe29bb","ios":"levelo://app?vid=1fdff105-c85f-4157-a441-abd257fe29bb"},"vehicle_type_id":"4","last_reported":1735578452,"current_range_meters":27600,"station_id":"ce4bhr92rcd13ifvqhrg","pricing_plan_id":"cebpf4jnsgd1na2vs0mg"},{"bike_id":"b61ecc71-32e1-457b-b4b7-d1e86b6d88b0","system_id":"levelo_inurba_marseille","lat":43.28367,"lon":5.38638,"is_reserved":false,"is_disabled":false,"rental_uris":{"android":"levelo://app?vid=b61ecc71-32e1-457b-b4b7-d1e86b6d88b0","ios":"levelo://app?vid=b61ecc71-32e1-457b-b4b7-d1e86b6d88b0"},"vehicle_type_id":"4","last_reported":1735578452,"current_range_meters":27600,"station_id":"ce4bh492rcd13ifvqdvg","pricing_plan_id":"cebpf4jnsgd1na2vs0mg"},{"bike_id":"10328e97-3b3f-42b6-8efd-3406f4be98f7","system_id":"levelo_inurba_marseille","lat":43.28425,"lon":5.34985,"is_reserved":false,"is_disabled":false,"rental_uris":{"android":"levelo://app?vid=10328e97-3b3f-42b6-8efd-3406f4be98f7","ios":"levelo://app?vid=10328e97-3b3f-42b6-8efd-3406f4be98f7"},"vehicle_type_id":"4","last_reported":1735578452,"current_range_meters":34800,"station_id":"ce4bhbh2rcd13ifvqepg","pricing_plan_id":"cebpf4jnsgd1na2vs0mg"},{"bike_id":"6eba8fb8-a8dc-4c1c-b5b2-8ff97466cc2d","system_id":"levelo_inurba_marseille","lat":43.25084,"lon":5.39567,"is_reserved":false,"is_disabled":false,"rental_uris":{"android":"levelo://app?vid=6eba8fb8-a8dc-4c1c-b5b2-8ff97466cc2d","ios":"levelo://app?vid=6eba8fb8-a8dc-4c1c-b5b2-8ff97466cc2d"},"vehicle_type_id":"4","last_reported":1735578452,"current_range_meters":23200,"station_id":"ce4bhm12rcd13ifvqgkg","pricing_plan_id":"cebpf4jnsgd1na2vs0mg"},{"bike_id":"2a3f47eb-dd9c-4419-ba6d-5fcf468cc565","system_id":"levelo_inurba_marseille","lat":43.281,"lon":5.37834,"is_reserved":false,"is_disabled":false,"rental_uris":{"android":"levelo://app?vid=2a3f47eb-dd9c-4419-ba6d-5fcf468cc565","ios":"levelo://app?vid=2a3f47eb-dd9c-4419-ba6d-5fcf468cc565"},"vehicle_type_id":"4","last_reported":1735578452,"current_range_meters":34000,"station_id":"ce4bha12rcd13ifvqee0","pricing_plan_id":"cebpf4jnsgd1na2vs0mg"},{"bike_id":"07c99ec9-f027-47a4-9b93-3697bcc5f573","system_id":"levelo_inurba_marseille","lat":43.26941,"lon":5.40261,"is_reserved":false,"is_disabled":false,"rental_uris":{"android":"levelo://app?vid=07c99ec9-f027-47a4-9b93-3697bcc5f573","ios":"levelo://app?vid=07c99ec9-f027-47a4-9b93-3697bcc5f573"},"vehicle_type_id":"4","last_reported":1735578452,"current_range_meters":28800,"station_id":"cjm6bp8fraef2m0cb0m0","pricing_plan_id":"cebpf4jnsgd1na2vs0mg"},{"bike_id":"14c526e1-5037-4934-8226-6240aab7d63f","system_id":"levelo_inurba_marseille","lat":43.27494,"lon":5.42474,"is_reserved":false,"is_disabled":true,"rental_uris":{"android":"levelo://app?vid=14c526e1-5037-4934-8226-6240aab7d63f","ios":"levelo://app?vid=14c526e1-5037-4934-8226-6240aab7d63f"},"vehicle_type_id":"4","last_reported":1735578452,"current_range_meters":1200,"station_id":"ce4bhn92rcd13ifvqgrg","pricing_plan_id":"cebpf4jnsgd1na2vs0mg"},{"bike_id":"c754264e-2257-42b1-89f9-0bf9a740ba42","system_id":"levelo_inurba_marseille","lat":43.27569,"lon":5.38403,"is_reserved":false,"is_disabled":false,"rental_uris":{"android":"levelo://app?vid=c754264e-2257-42b1-89f9-0bf9a740ba42","ios":"levelo://app?vid=c754264e-2257-42b1-89f9-0bf9a740ba42"},"vehicle_type_id":"4","last_reported":1735578452,"current_range_meters":34800,"station_id":"ce4bhh92rcd13ifvqfi0","pricing_plan_id":"cebpf4jnsgd1na2vs0mg"},{"bike_id":"789a4ff9-d968-4f31-af36-a724bc6aea71","system_id":"levelo_inurba_marseille","lat":43.27841,"lon":5.39212,"is_reserved":false,"is_disabled":false,"rental_uris":{"android":"levelo://app?vid=789a4ff9-d968-4f31-af36-a724bc6aea71","ios":"levelo://app?vid=789a4ff9-d968-4f31-af36-a724bc6aea71"},"vehicle_type_id":"4","last_reported":1735578452,"current_range_meters":28400,"station_id":"ce4bhjp2rcd13ifvqga0","pricing_plan_id":"cebpf4jnsgd1na2vs0mg"},{"bike_id":"7703770a-4bfb-49d5-8a4d-d38f7b1c8b6c","system_id":"levelo_inurba_marseille","lat":43.23062,"lon":5.35491,"is_reserved":false,"is_disabled":false,"rental_uris":{"android":"levelo://app?vid=7703770a-4bfb-49d5-8a4d-d38f7b1c8b6c","ios":"levelo://app?vid=7703770a-4bfb-49d5-8a4d-d38f7b1c8b6c"},"vehicle_type_id":"4","last_reported":1735578452,"current_range_meters":38800,"station_id":"cpo3342slgdg3j2ifvpg","pricing_plan_id":"cebpf4jnsgd1na2vs0mg"},{"bike_id":"13603d16-b53c-43e7-9fa4-b5280554a16c","system_id":"levelo_inurba_marseille","lat":43.30436,"lon":5.38894,"is_reserved":false,"is_disabled":false,"rental_uris":{"android":"levelo://app?vid=13603d16-b53c-43e7-9fa4-b5280554a16c","ios":"levelo://app?vid=13603d16-b53c-43e7-9fa4-b5280554a16c"},"vehicle_type_id":"4","last_reported":1735578452,"current_range_meters":24400,"station_id":"ce4bgk12rcd13ifvqbi0","pricing_plan_id":"cebpf4jnsgd1na2vs0mg"},{"bike_id":"dc36945f-1d52-4e2a-a26a-3610fb458e14","system_id":"levelo_inurba_marseille","lat":43.28456,"lon":5.38436,"is_reserved":false,"is_disabled":false,"rental_uris":{"android":"levelo://app?vid=dc36945f-1d52-4e2a-a26a-3610fb458e14","ios":"levelo://app?vid=dc36945f-1d52-4e2a-a26a-3610fb458e14"},"vehicle_type_id":"4","last_reported":1735578452,"current_range_meters":38000,"station_id":"ce4bh512rcd13ifvqe3g","pricing_plan_id":"cebpf4jnsgd1na2vs0mg"},{"bike_id":"47ae96cb-59e8-415c-9383-10039463ccef","system_id":"levelo_inurba_marseille","lat":43.31166,"lon":5.38723,"is_reserved":false,"is_disabled":false,"rental_uris":{"android":"levelo://app?vid=47ae96cb-59e8-415c-9383-10039463ccef","ios":"levelo://app?vid=47ae96cb-59e8-415c-9383-10039463ccef"},"vehicle_type_id":"4","last_reported":1735578452,"current_range_meters":20400,"station_id":"ce4bgv12rcd13ifvqcp0","pricing_plan_id":"cebpf4jnsgd1na2vs0mg"},{"bike_id":"b577f04f-9b10-4090-99ac-8f444e70b3e5","system_id":"levelo_inurba_marseille","lat":43.27496,"lon":5.42459,"is_reserved":false,"is_disabled":false,"rental_uris":{"android":"levelo://app?vid=b577f04f-9b10-4090-99ac-8f444e70b3e5","ios":"levelo://app?vid=b577f04f-9b10-4090-99ac-8f444e70b3e5"},"vehicle_type_id":"4","last_reported":1735578452,"current_range_meters":24400,"station_id":"ce4bhn92rcd13ifvqgrg","pricing_plan_id":"cebpf4jnsgd1na2vs0mg"},{"bike_id":"06d888a2-ea45-49c9-bf29-df285b2b26f6","system_id":"levelo_inurba_marseille","lat":43.29573,"lon":5.39973,"is_reserved":false,"is_disabled":false,"rental_uris":{"android":"levelo://app?vid=06d888a2-ea45-49c9-bf29-df285b2b26f6","ios":"levelo://app?vid=06d888a2-ea45-49c9-bf29-df285b2b26f6"},"vehicle_type_id":"4","last_reported":1735578452,"current_range_meters":32800,"station_id":"ce4bh312rcd13ifvqdj0","pricing_plan_id":"cebpf4jnsgd1na2vs0mg"},{"bike_id":"e3439fb3-f34d-45d1-958e-f99b48aeb0e9","system_id":"levelo_inurba_marseille","lat":43.29577,"lon":5.36747,"is_reserved":false,"is_disabled":false,"rental_uris":{"android":"levelo://app?vid=e3439fb3-f34d-45d1-958e-f99b48aeb0e9","ios":"levelo://app?vid=e3439fb3-f34d-45d1-958e-f99b48aeb0e9"},"vehicle_type_id":"4","last_reported":1735578452,"current_range_meters":39200,"station_id":"ce4bgph2rcd13ifvqc2g","pricing_plan_id":"cebpf4jnsgd1na2vs0mg"},{"bike_id":"602211a5-f6a6-4617-8549-5de49c22c803","system_id":"levelo_inurba_marseille","lat":43.24656,"lon":5.38159,"is_reserved":false,"is_disabled":false,"rental_uris":{"android":"levelo://app?vid=602211a5-f6a6-4617-8549-5de49c22c803","ios":"levelo://app?vid=602211a5-f6a6-4617-8549-5de49c22c803"},"vehicle_type_id":"4","last_reported":1735578452,"current_range_meters":15200,"station_id":"ce4bhih2rcd13ifvqfr0","pricing_plan_id":"cebpf4jnsgd1na2vs0mg"},{"bike_id":"27136f46-424f-40a7-9398-eb11dc58b3e6","system_id":"levelo_inurba_marseille","lat":43.29989,"lon":5.38498,"is_reserved":false,"is_disabled":false,"rental_uris":{"android":"levelo://app?vid=27136f46-424f-40a7-9398-eb11dc58b3e6","ios":"levelo://app?vid=27136f46-424f-40a7-9398-eb11dc58b3e6"},"vehicle_type_id":"4","last_reported":1735578452,"current_range_meters":38800,"station_id":"ce4bgj92rcd13ifvqbd0","pricing_plan_id":"cebpf4jnsgd1na2vs0mg"},{"bike_id":"5897f7d8-d786-47c8-96a0-2c453bad544c","system_id":"levelo_inurba_marseille","lat":43.281,"lon":5.37839,"is_reserved":false,"is_disabled":false,"rental_uris":{"android":"levelo://app?vid=5897f7d8-d786-47c8-96a0-2c453bad544c","ios":"levelo://app?vid=5897f7d8-d786-47c8-96a0-2c453bad544c"},"vehicle_type_id":"4","last_reported":1735578452,"current_range_meters":38000,"station_id":"ce4bha12rcd13ifvqee0","pricing_plan_id":"cebpf4jnsgd1na2vs0mg"},{"bike_id":"e72c6d65-0b04-411e-bf0f-f72d15cad0d7","system_id":"levelo_inurba_marseille","lat":43.3372,"lon":5.39184,"is_reserved":false,"is_disabled":false,"rental_uris":{"android":"levelo://app?vid=e72c6d65-0b04-411e-bf0f-f72d15cad0d7","ios":"levelo://app?vid=e72c6d65-0b04-411e-bf0f-f72d15cad0d7"},"vehicle_type_id":"4","last_reported":1735578452,"current_range_meters":38400,"station_id":"ce4bhr92rcd13ifvqhsg","pricing_plan_id":"cebpf4jnsgd1na2vs0mg"},{"bike_id":"bb026ccd-d3aa-4c00-a992-d9f20432a24e","system_id":"levelo_inurba_marseille","lat":43.27675,"lon":5.38897,"is_reserved":false,"is_disabled":false,"rental_uris":{"android":"levelo://app?vid=bb026ccd-d3aa-4c00-a992-d9f20432a24e","ios":"levelo://app?vid=bb026ccd-d3aa-4c00-a992-d9f20432a24e"},"vehicle_type_id":"4","last_reported":1735578452,"current_range_meters":35200,"station_id":"ce4bhi12rcd13ifvqfo0","pricing_plan_id":"cebpf4jnsgd1na2vs0mg"},{"bike_id":"922f50a4-84de-453e-b928-5027b3618100","system_id":"levelo_inurba_marseille","lat":43.2657,"lon":5.37297,"is_reserved":false,"is_disabled":false,"rental_uris":{"android":"levelo://app?vid=922f50a4-84de-453e-b928-5027b3618100","ios":"levelo://app?vid=922f50a4-84de-453e-b928-5027b3618100"},"vehicle_type_id":"4","last_reported":1735578452,"current_range_meters":36800,"station_id":"ce4bhg12rcd13ifvqf70","pricing_plan_id":"cebpf4jnsgd1na2vs0mg"},{"bike_id":"d8143438-97b6-4e05-a54a-77b3b5bcc009","system_id":"levelo_inurba_marseille","lat":43.2803,"lon":5.36945,"is_reserved":false,"is_disabled":false,"rental_uris":{"android":"levelo://app?vid=d8143438-97b6-4e05-a54a-77b3b5bcc009","ios":"levelo://app?vid=d8143438-97b6-4e05-a54a-77b3b5bcc009"},"vehicle_type_id":"4","last_reported":1735578452,"current_range_meters":35600,"station_id":"ce4bha12rcd13ifvqef0","pricing_plan_id":"cebpf4jnsgd1na2vs0mg"},{"bike_id":"931b1634-ff1b-468a-b5c6-459a7a66dd49","system_id":"levelo_inurba_marseille","lat":43.29016,"lon":5.38644,"is_reserved":false,"is_disabled":true,"rental_uris":{"android":"levelo://app?vid=931b1634-ff1b-468a-b5c6-459a7a66dd49","ios":"levelo://app?vid=931b1634-ff1b-468a-b5c6-459a7a66dd49"},"vehicle_type_id":"4","last_reported":1735578452,"current_range_meters":33600,"station_id":"ce4bh4p2rcd13ifvqe0g","pricing_plan_id":"cebpf4jnsgd1na2vs0mg"},{"bike_id":"40d33d5a-b0d6-4ca7-b92a-5a5e00a2e584","system_id":"levelo_inurba_marseille","lat":43.27306,"lon":5.39107,"is_reserved":false,"is_disabled":false,"rental_uris":{"android":"levelo://app?vid=40d33d5a-b0d6-4ca7-b92a-5a5e00a2e584","ios":"levelo://app?vid=40d33d5a-b0d6-4ca7-b92a-5a5e00a2e584"},"vehicle_type_id":"4","last_reported":1735578452,"current_range_meters":38800,"station_id":"ce4bhgp2rcd13ifvqfe0","pricing_plan_id":"cebpf4jnsgd1na2vs0mg"},{"bike_id":"b5c47d31-d3ab-425d-ba82-4676ee8ceba8","system_id":"levelo_inurba_marseille","lat":43.27805,"lon":5.40719,"is_reserved":false,"is_disabled":false,"rental_uris":{"android":"levelo://app?vid=b5c47d31-d3ab-425d-ba82-4676ee8ceba8","ios":"levelo://app?vid=b5c47d31-d3ab-425d-ba82-4676ee8ceba8"},"vehicle_type_id":"4","last_reported":1735578452,"current_range_meters":22800,"station_id":"ce4bhnh2rcd13ifvqgtg","pricing_plan_id":"cebpf4jnsgd1na2vs0mg"},{"bike_id":"57103b12-06fc-494b-9a1a-1903f8f245d5","system_id":"levelo_inurba_marseille","lat":43.28013,"lon":5.4165,"is_reserved":false,"is_disabled":false,"rental_uris":{"android":"levelo://app?vid=57103b12-06fc-494b-9a1a-1903f8f245d5","ios":"levelo://app?vid=57103b12-06fc-494b-9a1a-1903f8f245d5"},"vehicle_type_id":"4","last_reported":1735578452,"current_range_meters":11200,"station_id":"ce4bho12rcd13ifvqh1g","pricing_plan_id":"cebpf4jnsgd1na2vs0mg"},{"bike_id":"c93a8900-340a-4a6d-ac3e-8882057837af","system_id":"levelo_inurba_marseille","lat":43.27382,"lon":5.36261,"is_reserved":false,"is_disabled":false,"rental_uris":{"android":"levelo://app?vid=c93a8900-340a-4a6d-ac3e-8882057837af","ios":"levelo://app?vid=c93a8900-340a-4a6d-ac3e-8882057837af"},"vehicle_type_id":"4","last_reported":1735578452,"current_range_meters":30800,"station_id":"ce4bhbh2rcd13ifvqeo0","pricing_plan_id":"cebpf4jnsgd1na2vs0mg"},{"bike_id":"dad825e9-c481-4ecb-8e5a-ab3402dc32ab","system_id":"levelo_inurba_marseille","lat":43.30133,"lon":5.37435,"is_reserved":false,"is_disabled":false,"rental_uris":{"android":"levelo://app?vid=dad825e9-c481-4ecb-8e5a-ab3402dc32ab","ios":"levelo://app?vid=dad825e9-c481-4ecb-8e5a-ab3402dc32ab"},"vehicle_type_id":"4","last_reported":1735578452,"current_range_meters":24000,"station_id":"ce4bgs92rcd13ifvqcc0","pricing_plan_id":"cebpf4jnsgd1na2vs0mg"},{"bike_id":"452a6eff-5636-4c15-ab68-c2a8894ed25d","system_id":"levelo_inurba_marseille","lat":43.28658,"lon":5.36356,"is_reserved":false,"is_disabled":false,"rental_uris":{"android":"levelo://app?vid=452a6eff-5636-4c15-ab68-c2a8894ed25d","ios":"levelo://app?vid=452a6eff-5636-4c15-ab68-c2a8894ed25d"},"vehicle_type_id":"4","last_reported":1735578452,"current_range_meters":27600,"station_id":"ce4bhah2rcd13ifvqej0","pricing_plan_id":"cebpf4jnsgd1na2vs0mg"},{"bike_id":"8833f92d-7f0c-41b0-abdf-97fadaa2c8aa","system_id":"levelo_inurba_marseille","lat":43.29267,"lon":5.38445,"is_reserved":false,"is_disabled":false,"rental_uris":{"android":"levelo://app?vid=8833f92d-7f0c-41b0-abdf-97fadaa2c8aa","ios":"levelo://app?vid=8833f92d-7f0c-41b0-abdf-97fadaa2c8aa"},"vehicle_type_id":"4","last_reported":1735578452,"current_range_meters":8800,"station_id":"ce4bh692rcd13ifvqea0","pricing_plan_id":"cebpf4jnsgd1na2vs0mg"},{"bike_id":"9ad58c77-90e5-4b24-b21d-dc79d397b2bc","system_id":"levelo_inurba_marseille","lat":43.337444,"lon":5.374475,"is_reserved":false,"is_disabled":false,"rental_uris":{"android":"levelo://app?vid=9ad58c77-90e5-4b24-b21d-dc79d397b2bc","ios":"levelo://app?vid=9ad58c77-90e5-4b24-b21d-dc79d397b2bc"},"vehicle_type_id":"4","last_reported":1735578452,"current_range_meters":22800,"station_id":"","pricing_plan_id":"cebpf4jnsgd1na2vs0mg"},{"bike_id":"a6f49a4a-6c93-4d31-932c-eaae70527027","system_id":"levelo_inurba_marseille","lat":43.26562,"lon":5.39026,"is_reserved":false,"is_disabled":false,"rental_uris":{"android":"levelo://app?vid=a6f49a4a-6c93-4d31-932c-eaae70527027","ios":"levelo://app?vid=a6f49a4a-6c93-4d31-932c-eaae70527027"},"vehicle_type_id":"4","last_reported":1735578452,"current_range_meters":22800,"station_id":"ce4bhe12rcd13ifvqf30","pricing_plan_id":"cebpf4jnsgd1na2vs0mg"},{"bike_id":"482b0b80-c53d-4d05-aa82-218b22575b6c","system_id":"levelo_inurba_marseille","lat":43.23152,"lon":5.437,"is_reserved":false,"is_disabled":true,"rental_uris":{"android":"levelo://app?vid=482b0b80-c53d-4d05-aa82-218b22575b6c","ios":"levelo://app?vid=482b0b80-c53d-4d05-aa82-218b22575b6c"},"vehicle_type_id":"4","last_reported":1735578452,"current_range_meters":34000,"station_id":"ce4bhmp2rcd13ifvqgog","pricing_plan_id":"cebpf4jnsgd1na2vs0mg"},{"bike_id":"9a716e5d-f84a-4446-8deb-b518e6295159","system_id":"levelo_inurba_marseille","lat":43.337444,"lon":5.374475,"is_reserved":false,"is_disabled":false,"rental_uris":{"android":"levelo://app?vid=9a716e5d-f84a-4446-8deb-b518e6295159","ios":"levelo://app?vid=9a716e5d-f84a-4446-8deb-b518e6295159"},"vehicle_type_id":"4","last_reported":1735578452,"current_range_meters":9600,"station_id":"","pricing_plan_id":"cebpf4jnsgd1na2vs0mg"},{"bike_id":"461bcdee-7e94-4615-b3c6-1955e94db622","system_id":"levelo_inurba_marseille","lat":43.25005,"lon":5.38934,"is_reserved":false,"is_disabled":false,"rental_uris":{"android":"levelo://app?vid=461bcdee-7e94-4615-b3c6-1955e94db622","ios":"levelo://app?vid=461bcdee-7e94-4615-b3c6-1955e94db622"},"vehicle_type_id":"4","last_reported":1735578452,"current_range_meters":38000,"station_id":"ce4bhgp2rcd13ifvqfd0","pricing_plan_id":"cebpf4jnsgd1na2vs0mg"},{"bike_id":"17362ccb-c71f-46b5-b940-96e46cddcf62","system_id":"levelo_inurba_marseille","lat":43.28376,"lon":5.37503,"is_reserved":false,"is_disabled":false,"rental_uris":{"android":"levelo://app?vid=17362ccb-c71f-46b5-b940-96e46cddcf62","ios":"levelo://app?vid=17362ccb-c71f-46b5-b940-96e46cddcf62"},"vehicle_type_id":"4","last_reported":1735578452,"current_range_meters":17600,"station_id":"ce4bh412rcd13ifvqds0","pricing_plan_id":"cebpf4jnsgd1na2vs0mg"},{"bike_id":"d8b45686-a0fa-4221-98bc-ac76ebbb03c3","system_id":"levelo_inurba_marseille","lat":43.29306,"lon":5.37442,"is_reserved":false,"is_disabled":false,"rental_uris":{"android":"levelo://app?vid=d8b45686-a0fa-4221-98bc-ac76ebbb03c3","ios":"levelo://app?vid=d8b45686-a0fa-4221-98bc-ac76ebbb03c3"},"vehicle_type_id":"4","last_reported":1735578452,"current_range_meters":38800,"station_id":"ce4bgi12rcd13ifvqb70","pricing_plan_id":"cebpf4jnsgd1na2vs0mg"},{"bike_id":"930f7ce6-e931-48ed-acea-dde57f1887ce","system_id":"levelo_inurba_marseille","lat":43.32099,"lon":5.36767,"is_reserved":false,"is_disabled":false,"rental_uris":{"android":"levelo://app?vid=930f7ce6-e931-48ed-acea-dde57f1887ce","ios":"levelo://app?vid=930f7ce6-e931-48ed-acea-dde57f1887ce"},"vehicle_type_id":"4","last_reported":1735578452,"current_range_meters":37600,"station_id":"ce4bhrh2rcd13ifvqhug","pricing_plan_id":"cebpf4jnsgd1na2vs0mg"},{"bike_id":"5d2018aa-7074-4fb0-bd19-46c785b0343c","system_id":"levelo_inurba_marseille","lat":43.27933,"lon":5.41053,"is_reserved":false,"is_disabled":false,"rental_uris":{"android":"levelo://app?vid=5d2018aa-7074-4fb0-bd19-46c785b0343c","ios":"levelo://app?vid=5d2018aa-7074-4fb0-bd19-46c785b0343c"},"vehicle_type_id":"4","last_reported":1735578452,"current_range_meters":6000,"station_id":"ce4bhnp2rcd13ifvqh0g","pricing_plan_id":"cebpf4jnsgd1na2vs0mg"},{"bike_id":"f62ca719-2bcc-4d53-a5a1-466a1e883aeb","system_id":"levelo_inurba_marseille","lat":43.30609,"lon":5.37239,"is_reserved":false,"is_disabled":false,"rental_uris":{"android":"levelo://app?vid=f62ca719-2bcc-4d53-a5a1-466a1e883aeb","ios":"levelo://app?vid=f62ca719-2bcc-4d53-a5a1-466a1e883aeb"},"vehicle_type_id":"4","last_reported":1735578452,"current_range_meters":26000,"station_id":"ce4bgqh2rcd13ifvqc4g","pricing_plan_id":"cebpf4jnsgd1na2vs0mg"},{"bike_id":"46c31a0a-be5e-43d4-93a4-4c27ab5b58ca","system_id":"levelo_inurba_marseille","lat":43.29628,"lon":5.3716,"is_reserved":false,"is_disabled":true,"rental_uris":{"android":"levelo://app?vid=46c31a0a-be5e-43d4-93a4-4c27ab5b58ca","ios":"levelo://app?vid=46c31a0a-be5e-43d4-93a4-4c27ab5b58ca"},"vehicle_type_id":"4","last_reported":1735578452,"current_range_meters":1600,"station_id":"ce4bgnh2rcd13ifvqc0g","pricing_plan_id":"cebpf4jnsgd1na2vs0mg"},{"bike_id":"9d89cfc3-9ed8-4423-b675-3ce517bce5a2","system_id":"levelo_inurba_marseille","lat":43.29262,"lon":5.3845,"is_reserved":false,"is_disabled":false,"rental_uris":{"android":"levelo://app?vid=9d89cfc3-9ed8-4423-b675-3ce517bce5a2","ios":"levelo://app?vid=9d89cfc3-9ed8-4423-b675-3ce517bce5a2"},"vehicle_type_id":"4","last_reported":1735578452,"current_range_meters":23200,"station_id":"ce4bh692rcd13ifvqea0","pricing_plan_id":"cebpf4jnsgd1na2vs0mg"},{"bike_id":"a3eed34e-269f-4306-b006-4a5318df84de","system_id":"levelo_inurba_marseille","lat":43.28725,"lon":5.36094,"is_reserved":false,"is_disabled":false,"rental_uris":{"android":"levelo://app?vid=a3eed34e-269f-4306-b006-4a5318df84de","ios":"levelo://app?vid=a3eed34e-269f-4306-b006-4a5318df84de"},"vehicle_type_id":"4","last_reported":1735578452,"current_range_meters":30800,"station_id":"cki0cbj6b192h4jlfktg","pricing_plan_id":"cebpf4jnsgd1na2vs0mg"},{"bike_id":"4a607445-ac1a-4540-9358-5748cbcbe727","system_id":"levelo_inurba_marseille","lat":43.31218,"lon":5.3689,"is_reserved":false,"is_disabled":false,"rental_uris":{"android":"levelo://app?vid=4a607445-ac1a-4540-9358-5748cbcbe727","ios":"levelo://app?vid=4a607445-ac1a-4540-9358-5748cbcbe727"},"vehicle_type_id":"4","last_reported":1735578452,"current_range_meters":23200,"station_id":"ce4bgl92rcd13ifvqbq0","pricing_plan_id":"cebpf4jnsgd1na2vs0mg"},{"bike_id":"216a1752-6291-4cd2-944a-f00d197e33eb","system_id":"levelo_inurba_marseille","lat":43.28456,"lon":5.35883,"is_reserved":false,"is_disabled":false,"rental_uris":{"android":"levelo://app?vid=216a1752-6291-4cd2-944a-f00d197e33eb","ios":"levelo://app?vid=216a1752-6291-4cd2-944a-f00d197e33eb"},"vehicle_type_id":"4","last_reported":1735578452,"current_range_meters":38800,"station_id":"ce4bhah2rcd13ifvqei0","pricing_plan_id":"cebpf4jnsgd1na2vs0mg"},{"bike_id":"db407435-b2b4-4d68-8d1d-4736937f75f4","system_id":"levelo_inurba_marseille","lat":43.27376,"lon":5.36259,"is_reserved":false,"is_disabled":false,"rental_uris":{"android":"levelo://app?vid=db407435-b2b4-4d68-8d1d-4736937f75f4","ios":"levelo://app?vid=db407435-b2b4-4d68-8d1d-4736937f75f4"},"vehicle_type_id":"4","last_reported":1735578452,"current_range_meters":38800,"station_id":"ce4bhbh2rcd13ifvqeo0","pricing_plan_id":"cebpf4jnsgd1na2vs0mg"},{"bike_id":"fce72a2c-5f41-4f18-a8be-7920eabd3daf","system_id":"levelo_inurba_marseille","lat":43.29038,"lon":5.39943,"is_reserved":false,"is_disabled":false,"rental_uris":{"android":"levelo://app?vid=fce72a2c-5f41-4f18-a8be-7920eabd3daf","ios":"levelo://app?vid=fce72a2c-5f41-4f18-a8be-7920eabd3daf"},"vehicle_type_id":"4","last_reported":1735578452,"current_range_meters":36800,"station_id":"ce4bh392rcd13ifvqdm0","pricing_plan_id":"cebpf4jnsgd1na2vs0mg"},{"bike_id":"d124b3fa-f3a5-4c6d-bebc-2f7ad1a1004e","system_id":"levelo_inurba_marseille","lat":43.2695,"lon":5.38643,"is_reserved":false,"is_disabled":false,"rental_uris":{"android":"levelo://app?vid=d124b3fa-f3a5-4c6d-bebc-2f7ad1a1004e","ios":"levelo://app?vid=d124b3fa-f3a5-4c6d-bebc-2f7ad1a1004e"},"vehicle_type_id":"4","last_reported":1735578452,"current_range_meters":37600,"station_id":"ce4bhh92rcd13ifvqfh0","pricing_plan_id":"cebpf4jnsgd1na2vs0mg"},{"bike_id":"ea990fc9-5f95-4acd-a2be-29105099e24e","system_id":"levelo_inurba_marseille","lat":43.23063,"lon":5.35489,"is_reserved":false,"is_disabled":false,"rental_uris":{"android":"levelo://app?vid=ea990fc9-5f95-4acd-a2be-29105099e24e","ios":"levelo://app?vid=ea990fc9-5f95-4acd-a2be-29105099e24e"},"vehicle_type_id":"4","last_reported":1735578452,"current_range_meters":38800,"station_id":"cpo3342slgdg3j2ifvpg","pricing_plan_id":"cebpf4jnsgd1na2vs0mg"},{"bike_id":"ecad0d45-3ae6-417e-877a-625f0224895a","system_id":"levelo_inurba_marseille","lat":43.29287,"lon":5.37444,"is_reserved":false,"is_disabled":false,"rental_uris":{"android":"levelo://app?vid=ecad0d45-3ae6-417e-877a-625f0224895a","ios":"levelo://app?vid=ecad0d45-3ae6-417e-877a-625f0224895a"},"vehicle_type_id":"4","last_reported":1735578452,"current_range_meters":19600,"station_id":"ce4bgi12rcd13ifvqb70","pricing_plan_id":"cebpf4jnsgd1na2vs0mg"},{"bike_id":"d062f8ed-af3b-4810-b7fb-e25f0dbd8c07","system_id":"levelo_inurba_marseille","lat":43.297037,"lon":5.359683,"is_reserved":false,"is_disabled":false,"rental_uris":{"android":"levelo://app?vid=d062f8ed-af3b-4810-b7fb-e25f0dbd8c07","ios":"levelo://app?vid=d062f8ed-af3b-4810-b7fb-e25f0dbd8c07"},"vehicle_type_id":"4","last_reported":1735578452,"current_range_meters":14000,"station_id":"","pricing_plan_id":"cebpf4jnsgd1na2vs0mg"},{"bike_id":"805b146d-680f-4010-8a1d-979f727ac65c","system_id":"levelo_inurba_marseille","lat":43.31353,"lon":5.36714,"is_reserved":false,"is_disabled":false,"rental_uris":{"android":"levelo://app?vid=805b146d-680f-4010-8a1d-979f727ac65c","ios":"levelo://app?vid=805b146d-680f-4010-8a1d-979f727ac65c"},"vehicle_type_id":"4","last_reported":1735578452,"current_range_meters":24400,"station_id":"ce4bgr92rcd13ifvqc6g","pricing_plan_id":"cebpf4jnsgd1na2vs0mg"},{"bike_id":"787919a6-8e36-451d-a124-a2df1f05d596","system_id":"levelo_inurba_marseille","lat":43.29276,"lon":5.36858,"is_reserved":false,"is_disabled":false,"rental_uris":{"android":"levelo://app?vid=787919a6-8e36-451d-a124-a2df1f05d596","ios":"levelo://app?vid=787919a6-8e36-451d-a124-a2df1f05d596"},"vehicle_type_id":"4","last_reported":1735578452,"current_range_meters":36800,"station_id":"ce4bhbp2rcd13ifvqesg","pricing_plan_id":"cebpf4jnsgd1na2vs0mg"},{"bike_id":"32afc6cc-1544-4f88-ab5c-34496cc35b04","system_id":"levelo_inurba_marseille","lat":43.23045,"lon":5.35508,"is_reserved":false,"is_disabled":false,"rental_uris":{"android":"levelo://app?vid=32afc6cc-1544-4f88-ab5c-34496cc35b04","ios":"levelo://app?vid=32afc6cc-1544-4f88-ab5c-34496cc35b04"},"vehicle_type_id":"4","last_reported":1735578452,"current_range_meters":20800,"station_id":"cpo3342slgdg3j2ifvpg","pricing_plan_id":"cebpf4jnsgd1na2vs0mg"},{"bike_id":"7261d916-f4d4-4aac-a48e-4cab22c9764b","system_id":"levelo_inurba_marseille","lat":43.27808,"lon":5.40718,"is_reserved":false,"is_disabled":false,"rental_uris":{"android":"levelo://app?vid=7261d916-f4d4-4aac-a48e-4cab22c9764b","ios":"levelo://app?vid=7261d916-f4d4-4aac-a48e-4cab22c9764b"},"vehicle_type_id":"4","last_reported":1735578452,"current_range_meters":30000,"station_id":"ce4bhnh2rcd13ifvqgtg","pricing_plan_id":"cebpf4jnsgd1na2vs0mg"},{"bike_id":"e76faa55-1666-44e3-b183-e18d86409e76","system_id":"levelo_inurba_marseille","lat":43.2922,"lon":5.36067,"is_reserved":false,"is_disabled":false,"rental_uris":{"android":"levelo://app?vid=e76faa55-1666-44e3-b183-e18d86409e76","ios":"levelo://app?vid=e76faa55-1666-44e3-b183-e18d86409e76"},"vehicle_type_id":"4","last_reported":1735578452,"current_range_meters":8800,"station_id":"ce4bhbh2rcd13ifvqeqg","pricing_plan_id":"cebpf4jnsgd1na2vs0mg"},{"bike_id":"4e9db863-43fc-4851-af2e-290d3ea7a6e9","system_id":"levelo_inurba_marseille","lat":43.28426,"lon":5.34978,"is_reserved":false,"is_disabled":false,"rental_uris":{"android":"levelo://app?vid=4e9db863-43fc-4851-af2e-290d3ea7a6e9","ios":"levelo://app?vid=4e9db863-43fc-4851-af2e-290d3ea7a6e9"},"vehicle_type_id":"4","last_reported":1735578452,"current_range_meters":38800,"station_id":"ce4bhbh2rcd13ifvqepg","pricing_plan_id":"cebpf4jnsgd1na2vs0mg"},{"bike_id":"fafee940-bb5c-40a2-b27e-b4883261f360","system_id":"levelo_inurba_marseille","lat":43.24178,"lon":5.39736,"is_reserved":false,"is_disabled":false,"rental_uris":{"android":"levelo://app?vid=fafee940-bb5c-40a2-b27e-b4883261f360","ios":"levelo://app?vid=fafee940-bb5c-40a2-b27e-b4883261f360"},"vehicle_type_id":"4","last_reported":1735578452,"current_range_meters":4800,"station_id":"ce4bhn12rcd13ifvqgpg","pricing_plan_id":"cebpf4jnsgd1na2vs0mg"},{"bike_id":"022d826a-d31d-48ef-b07e-f8dd0ceaa746","system_id":"levelo_inurba_marseille","lat":43.25004,"lon":5.38916,"is_reserved":false,"is_disabled":false,"rental_uris":{"android":"levelo://app?vid=022d826a-d31d-48ef-b07e-f8dd0ceaa746","ios":"levelo://app?vid=022d826a-d31d-48ef-b07e-f8dd0ceaa746"},"vehicle_type_id":"4","last_reported":1735578452,"current_range_meters":38400,"station_id":"ce4bhgp2rcd13ifvqfd0","pricing_plan_id":"cebpf4jnsgd1na2vs0mg"},{"bike_id":"979b8b4b-9035-4588-93c7-c3b914ffee1a","system_id":"levelo_inurba_marseille","lat":43.30297,"lon":5.39226,"is_reserved":false,"is_disabled":false,"rental_uris":{"android":"levelo://app?vid=979b8b4b-9035-4588-93c7-c3b914ffee1a","ios":"levelo://app?vid=979b8b4b-9035-4588-93c7-c3b914ffee1a"},"vehicle_type_id":"4","last_reported":1735578452,"current_range_meters":34800,"station_id":"ce4bgkh2rcd13ifvqbk0","pricing_plan_id":"cebpf4jnsgd1na2vs0mg"},{"bike_id":"2f90c399-2dae-4be2-b282-04f6c3355909","system_id":"levelo_inurba_marseille","lat":43.31227,"lon":5.36868,"is_reserved":false,"is_disabled":false,"rental_uris":{"android":"levelo://app?vid=2f90c399-2dae-4be2-b282-04f6c3355909","ios":"levelo://app?vid=2f90c399-2dae-4be2-b282-04f6c3355909"},"vehicle_type_id":"4","last_reported":1735578452,"current_range_meters":38800,"station_id":"ce4bgl92rcd13ifvqbq0","pricing_plan_id":"cebpf4jnsgd1na2vs0mg"},{"bike_id":"ef2b8e0d-f459-42fc-b0fa-07fcd6e1bc1a","system_id":"levelo_inurba_marseille","lat":43.27332,"lon":5.39126,"is_reserved":false,"is_disabled":false,"rental_uris":{"android":"levelo://app?vid=ef2b8e0d-f459-42fc-b0fa-07fcd6e1bc1a","ios":"levelo://app?vid=ef2b8e0d-f459-42fc-b0fa-07fcd6e1bc1a"},"vehicle_type_id":"4","last_reported":1735578452,"current_range_meters":38800,"station_id":"ce4bhgp2rcd13ifvqfe0","pricing_plan_id":"cebpf4jnsgd1na2vs0mg"},{"bike_id":"1a9737f9-1f83-492b-b8a9-aedb6956666e","system_id":"levelo_inurba_marseille","lat":43.30419,"lon":5.41284,"is_reserved":false,"is_disabled":false,"rental_uris":{"android":"levelo://app?vid=1a9737f9-1f83-492b-b8a9-aedb6956666e","ios":"levelo://app?vid=1a9737f9-1f83-492b-b8a9-aedb6956666e"},"vehicle_type_id":"4","last_reported":1735578452,"current_range_meters":23200,"station_id":"ce4bhop2rcd13ifvqh8g","pricing_plan_id":"cebpf4jnsgd1na2vs0mg"},{"bike_id":"99d4d7d3-4a4f-40d2-aa53-bd8647f920ff","system_id":"levelo_inurba_marseille","lat":43.30141,"lon":5.38794,"is_reserved":false,"is_disabled":false,"rental_uris":{"android":"levelo://app?vid=99d4d7d3-4a4f-40d2-aa53-bd8647f920ff","ios":"levelo://app?vid=99d4d7d3-4a4f-40d2-aa53-bd8647f920ff"},"vehicle_type_id":"4","last_reported":1735578452,"current_range_meters":38800,"station_id":"ce4bhoh2rcd13ifvqh6g","pricing_plan_id":"cebpf4jnsgd1na2vs0mg"},{"bike_id":"963c7f56-156f-4c15-8767-946ec40d2c53","system_id":"levelo_inurba_marseille","lat":43.2849,"lon":5.38585,"is_reserved":false,"is_disabled":false,"rental_uris":{"android":"levelo://app?vid=963c7f56-156f-4c15-8767-946ec40d2c53","ios":"levelo://app?vid=963c7f56-156f-4c15-8767-946ec40d2c53"},"vehicle_type_id":"4","last_reported":1735578452,"current_range_meters":37600,"station_id":"ce4bh8p2rcd13ifvqeb0","pricing_plan_id":"cebpf4jnsgd1na2vs0mg"},{"bike_id":"356fd92d-e963-40e6-b40e-58fc72ac9553","system_id":"levelo_inurba_marseille","lat":43.320971,"lon":5.367836,"is_reserved":false,"is_disabled":false,"rental_uris":{"android":"levelo://app?vid=356fd92d-e963-40e6-b40e-58fc72ac9553","ios":"levelo://app?vid=356fd92d-e963-40e6-b40e-58fc72ac9553"},"vehicle_type_id":"4","last_reported":1735578452,"current_range_meters":32400,"station_id":"ce4bhrh2rcd13ifvqhug","pricing_plan_id":"cebpf4jnsgd1na2vs0mg"},{"bike_id":"48db840b-4c28-444b-a1a3-970033c1ae8e","system_id":"levelo_inurba_marseille","lat":43.29162,"lon":5.37164,"is_reserved":false,"is_disabled":false,"rental_uris":{"android":"levelo://app?vid=48db840b-4c28-444b-a1a3-970033c1ae8e","ios":"levelo://app?vid=48db840b-4c28-444b-a1a3-970033c1ae8e"},"vehicle_type_id":"4","last_reported":1735578452,"current_range_meters":9200,"station_id":"ce4bha92rcd13ifvqeh0","pricing_plan_id":"cebpf4jnsgd1na2vs0mg"},{"bike_id":"e65a1b10-792b-4afc-806b-586fc352adf7","system_id":"levelo_inurba_marseille","lat":43.27987,"lon":5.40026,"is_reserved":false,"is_disabled":false,"rental_uris":{"android":"levelo://app?vid=e65a1b10-792b-4afc-806b-586fc352adf7","ios":"levelo://app?vid=e65a1b10-792b-4afc-806b-586fc352adf7"},"vehicle_type_id":"4","last_reported":1735578452,"current_range_meters":37600,"station_id":"ce4bho92rcd13ifvqh4g","pricing_plan_id":"cebpf4jnsgd1na2vs0mg"},{"bike_id":"f6c3569e-efa4-4a1c-b75b-94ded8df3e64","system_id":"levelo_inurba_marseille","lat":43.27954,"lon":5.38709,"is_reserved":false,"is_disabled":false,"rental_uris":{"android":"levelo://app?vid=f6c3569e-efa4-4a1c-b75b-94ded8df3e64","ios":"levelo://app?vid=f6c3569e-efa4-4a1c-b75b-94ded8df3e64"},"vehicle_type_id":"4","last_reported":1735578452,"current_range_meters":36400,"station_id":"ce4bhg12rcd13ifvqf80","pricing_plan_id":"cebpf4jnsgd1na2vs0mg"},{"bike_id":"6f2d13c6-6ebc-4e88-b92c-8f9906dcf352","system_id":"levelo_inurba_marseille","lat":43.27495,"lon":5.42454,"is_reserved":false,"is_disabled":false,"rental_uris":{"android":"levelo://app?vid=6f2d13c6-6ebc-4e88-b92c-8f9906dcf352","ios":"levelo://app?vid=6f2d13c6-6ebc-4e88-b92c-8f9906dcf352"},"vehicle_type_id":"4","last_reported":1735578452,"current_range_meters":17600,"station_id":"ce4bhn92rcd13ifvqgrg","pricing_plan_id":"cebpf4jnsgd1na2vs0mg"},{"bike_id":"5b0aed25-3a00-480b-8943-84ac3074319e","system_id":"levelo_inurba_marseille","lat":43.29715,"lon":5.36624,"is_reserved":false,"is_disabled":false,"rental_uris":{"android":"levelo://app?vid=5b0aed25-3a00-480b-8943-84ac3074319e","ios":"levelo://app?vid=5b0aed25-3a00-480b-8943-84ac3074319e"},"vehicle_type_id":"4","last_reported":1735578452,"current_range_meters":38800,"station_id":"ce4bgn12rcd13ifvqbt0","pricing_plan_id":"cebpf4jnsgd1na2vs0mg"},{"bike_id":"882f499c-d93f-4e6b-baed-ec6fb82f4ebf","system_id":"levelo_inurba_marseille","lat":43.30142,"lon":5.38087,"is_reserved":false,"is_disabled":false,"rental_uris":{"android":"levelo://app?vid=882f499c-d93f-4e6b-baed-ec6fb82f4ebf","ios":"levelo://app?vid=882f499c-d93f-4e6b-baed-ec6fb82f4ebf"},"vehicle_type_id":"4","last_reported":1735578452,"current_range_meters":36800,"station_id":"ce4bgjp2rcd13ifvqbh0","pricing_plan_id":"cebpf4jnsgd1na2vs0mg"},{"bike_id":"782ac4f8-43d6-48d5-bebe-d3b623304674","system_id":"levelo_inurba_marseille","lat":43.29617,"lon":5.37701,"is_reserved":false,"is_disabled":true,"rental_uris":{"android":"levelo://app?vid=782ac4f8-43d6-48d5-bebe-d3b623304674","ios":"levelo://app?vid=782ac4f8-43d6-48d5-bebe-d3b623304674"},"vehicle_type_id":"4","last_reported":1735578452,"current_range_meters":32000,"station_id":"ce4bgi92rcd13ifvqb90","pricing_plan_id":"cebpf4jnsgd1na2vs0mg"},{"bike_id":"7495a795-77c2-47dc-9670-8e9b96226790","system_id":"levelo_inurba_marseille","lat":43.29902,"lon":5.43666,"is_reserved":false,"is_disabled":false,"rental_uris":{"android":"levelo://app?vid=7495a795-77c2-47dc-9670-8e9b96226790","ios":"levelo://app?vid=7495a795-77c2-47dc-9670-8e9b96226790"},"vehicle_type_id":"4","last_reported":1735578452,"current_range_meters":34800,"station_id":"ce4bhpp2rcd13ifvqhfg","pricing_plan_id":"cebpf4jnsgd1na2vs0mg"},{"bike_id":"3f85ce8b-2fdd-4846-86c7-195e7b202f6b","system_id":"levelo_inurba_marseille","lat":43.26704,"lon":5.38262,"is_reserved":false,"is_disabled":false,"rental_uris":{"android":"levelo://app?vid=3f85ce8b-2fdd-4846-86c7-195e7b202f6b","ios":"levelo://app?vid=3f85ce8b-2fdd-4846-86c7-195e7b202f6b"},"vehicle_type_id":"4","last_reported":1735578452,"current_range_meters":35600,"station_id":"ce4bhg92rcd13ifvqf90","pricing_plan_id":"cebpf4jnsgd1na2vs0mg"},{"bike_id":"1546d79b-9150-4154-b844-f0e1ceb5f6e7","system_id":"levelo_inurba_marseille","lat":43.30088,"lon":5.3986,"is_reserved":false,"is_disabled":false,"rental_uris":{"android":"levelo://app?vid=1546d79b-9150-4154-b844-f0e1ceb5f6e7","ios":"levelo://app?vid=1546d79b-9150-4154-b844-f0e1ceb5f6e7"},"vehicle_type_id":"4","last_reported":1735578452,"current_range_meters":38800,"station_id":"ce4bh0h2rcd13ifvqd40","pricing_plan_id":"cebpf4jnsgd1na2vs0mg"},{"bike_id":"38e280ba-f71a-44d2-8be9-d66de3bd0f46","system_id":"levelo_inurba_marseille","lat":43.27208,"lon":5.39184,"is_reserved":false,"is_disabled":false,"rental_uris":{"android":"levelo://app?vid=38e280ba-f71a-44d2-8be9-d66de3bd0f46","ios":"levelo://app?vid=38e280ba-f71a-44d2-8be9-d66de3bd0f46"},"vehicle_type_id":"4","last_reported":1735578452,"current_range_meters":17600,"station_id":"ce4bhhp2rcd13ifvqfm0","pricing_plan_id":"cebpf4jnsgd1na2vs0mg"},{"bike_id":"e70ce8bb-674e-436b-ab6d-79ca756c291a","system_id":"levelo_inurba_marseille","lat":43.25728,"lon":5.41112,"is_reserved":false,"is_disabled":false,"rental_uris":{"android":"levelo://app?vid=e70ce8bb-674e-436b-ab6d-79ca756c291a","ios":"levelo://app?vid=e70ce8bb-674e-436b-ab6d-79ca756c291a"},"vehicle_type_id":"4","last_reported":1735578452,"current_range_meters":26800,"station_id":"ce4bhkp2rcd13ifvqgd0","pricing_plan_id":"cebpf4jnsgd1na2vs0mg"},{"bike_id":"9ea69cfc-dac4-469b-95a2-b3c9af005343","system_id":"levelo_inurba_marseille","lat":43.26556,"lon":5.39039,"is_reserved":false,"is_disabled":false,"rental_uris":{"android":"levelo://app?vid=9ea69cfc-dac4-469b-95a2-b3c9af005343","ios":"levelo://app?vid=9ea69cfc-dac4-469b-95a2-b3c9af005343"},"vehicle_type_id":"4","last_reported":1735578452,"current_range_meters":12800,"station_id":"ce4bhe12rcd13ifvqf30","pricing_plan_id":"cebpf4jnsgd1na2vs0mg"},{"bike_id":"fd9c27ba-b836-43d9-bd9d-4a6e69976d7f","system_id":"levelo_inurba_marseille","lat":43.309115,"lon":5.374626,"is_reserved":false,"is_disabled":false,"rental_uris":{"android":"levelo://app?vid=fd9c27ba-b836-43d9-bd9d-4a6e69976d7f","ios":"levelo://app?vid=fd9c27ba-b836-43d9-bd9d-4a6e69976d7f"},"vehicle_type_id":"4","last_reported":1735578452,"current_range_meters":38800,"station_id":"ce4bh2h2rcd13ifvqdh0","pricing_plan_id":"cebpf4jnsgd1na2vs0mg"},{"bike_id":"c3a4de1b-d01a-4a08-9980-114d66366909","system_id":"levelo_inurba_marseille","lat":43.29191,"lon":5.39322,"is_reserved":false,"is_disabled":false,"rental_uris":{"android":"levelo://app?vid=c3a4de1b-d01a-4a08-9980-114d66366909","ios":"levelo://app?vid=c3a4de1b-d01a-4a08-9980-114d66366909"},"vehicle_type_id":"4","last_reported":1735578452,"current_range_meters":9600,"station_id":"ce4bh192rcd13ifvqdd0","pricing_plan_id":"cebpf4jnsgd1na2vs0mg"},{"bike_id":"d765161f-27d8-44ad-801b-7932577d66a5","system_id":"levelo_inurba_marseille","lat":43.27052,"lon":5.40261,"is_reserved":false,"is_disabled":false,"rental_uris":{"android":"levelo://app?vid=d765161f-27d8-44ad-801b-7932577d66a5","ios":"levelo://app?vid=d765161f-27d8-44ad-801b-7932577d66a5"},"vehicle_type_id":"4","last_reported":1735578452,"current_range_meters":8000,"station_id":"ce4bhk92rcd13ifvqgc0","pricing_plan_id":"cebpf4jnsgd1na2vs0mg"},{"bike_id":"35142cb1-da84-4465-a902-1b70f5829b31","system_id":"levelo_inurba_marseille","lat":43.25866,"lon":5.40948,"is_reserved":false,"is_disabled":false,"rental_uris":{"android":"levelo://app?vid=35142cb1-da84-4465-a902-1b70f5829b31","ios":"levelo://app?vid=35142cb1-da84-4465-a902-1b70f5829b31"},"vehicle_type_id":"4","last_reported":1735578452,"current_range_meters":35200,"station_id":"","pricing_plan_id":"cebpf4jnsgd1na2vs0mg"},{"bike_id":"e62b0738-d5e9-4769-bb2e-f8f472dcc7b1","system_id":"levelo_inurba_marseille","lat":43.26784,"lon":5.39418,"is_reserved":false,"is_disabled":false,"rental_uris":{"android":"levelo://app?vid=e62b0738-d5e9-4769-bb2e-f8f472dcc7b1","ios":"levelo://app?vid=e62b0738-d5e9-4769-bb2e-f8f472dcc7b1"},"vehicle_type_id":"4","last_reported":1735578452,"current_range_meters":27600,"station_id":"ce4bhh12rcd13ifvqfg0","pricing_plan_id":"cebpf4jnsgd1na2vs0mg"},{"bike_id":"23a12986-fc99-4901-b1bc-5abc112ec4de","system_id":"levelo_inurba_marseille","lat":43.23146,"lon":5.43727,"is_reserved":false,"is_disabled":false,"rental_uris":{"android":"levelo://app?vid=23a12986-fc99-4901-b1bc-5abc112ec4de","ios":"levelo://app?vid=23a12986-fc99-4901-b1bc-5abc112ec4de"},"vehicle_type_id":"4","last_reported":1735578452,"current_range_meters":2800,"station_id":"ce4bhmp2rcd13ifvqgog","pricing_plan_id":"cebpf4jnsgd1na2vs0mg"},{"bike_id":"f5997a88-606e-48c9-933e-041b10894cea","system_id":"levelo_inurba_marseille","lat":43.27067,"lon":5.4228,"is_reserved":false,"is_disabled":false,"rental_uris":{"android":"levelo://app?vid=f5997a88-606e-48c9-933e-041b10894cea","ios":"levelo://app?vid=f5997a88-606e-48c9-933e-041b10894cea"},"vehicle_type_id":"4","last_reported":1735578452,"current_range_meters":28000,"station_id":"ce4bhk92rcd13ifvqgb0","pricing_plan_id":"cebpf4jnsgd1na2vs0mg"},{"bike_id":"0d6c74a9-263d-45b9-8592-3dd790f93e71","system_id":"levelo_inurba_marseille","lat":43.297561,"lon":5.403884,"is_reserved":false,"is_disabled":false,"rental_uris":{"android":"levelo://app?vid=0d6c74a9-263d-45b9-8592-3dd790f93e71","ios":"levelo://app?vid=0d6c74a9-263d-45b9-8592-3dd790f93e71"},"vehicle_type_id":"4","last_reported":1735578452,"current_range_meters":21600,"station_id":"ce4bh112rcd13ifvqd90","pricing_plan_id":"cebpf4jnsgd1na2vs0mg"},{"bike_id":"29e22d08-10b1-4400-9d78-16f5f774d15e","system_id":"levelo_inurba_marseille","lat":43.28038,"lon":5.36947,"is_reserved":false,"is_disabled":false,"rental_uris":{"android":"levelo://app?vid=29e22d08-10b1-4400-9d78-16f5f774d15e","ios":"levelo://app?vid=29e22d08-10b1-4400-9d78-16f5f774d15e"},"vehicle_type_id":"4","last_reported":1735578452,"current_range_meters":17600,"station_id":"ce4bha12rcd13ifvqef0","pricing_plan_id":"cebpf4jnsgd1na2vs0mg"},{"bike_id":"79a9cc94-882c-4645-897a-abb5a5249316","system_id":"levelo_inurba_marseille","lat":43.337444,"lon":5.374475,"is_reserved":false,"is_disabled":false,"rental_uris":{"android":"levelo://app?vid=79a9cc94-882c-4645-897a-abb5a5249316","ios":"levelo://app?vid=79a9cc94-882c-4645-897a-abb5a5249316"},"vehicle_type_id":"4","last_reported":1735578452,"current_range_meters":34800,"station_id":"","pricing_plan_id":"cebpf4jnsgd1na2vs0mg"},{"bike_id":"2c33038e-7670-40a2-bea3-07077b80fc21","system_id":"levelo_inurba_marseille","lat":43.26675,"lon":5.38275,"is_reserved":false,"is_disabled":true,"rental_uris":{"android":"levelo://app?vid=2c33038e-7670-40a2-bea3-07077b80fc21","ios":"levelo://app?vid=2c33038e-7670-40a2-bea3-07077b80fc21"},"vehicle_type_id":"4","last_reported":1735578452,"current_range_meters":2000,"station_id":"ce4bhg92rcd13ifvqf90","pricing_plan_id":"cebpf4jnsgd1na2vs0mg"},{"bike_id":"c272ea13-c305-480a-a09e-0e40f2a2b374","system_id":"levelo_inurba_marseille","lat":43.29872,"lon":5.39737,"is_reserved":false,"is_disabled":false,"rental_uris":{"android":"levelo://app?vid=c272ea13-c305-480a-a09e-0e40f2a2b374","ios":"levelo://app?vid=c272ea13-c305-480a-a09e-0e40f2a2b374"},"vehicle_type_id":"4","last_reported":1735578452,"current_range_meters":11200,"station_id":"ce4bh0h2rcd13ifvqd50","pricing_plan_id":"cebpf4jnsgd1na2vs0mg"},{"bike_id":"0c85ca13-031c-4199-ad79-f9b475e982aa","system_id":"levelo_inurba_marseille","lat":43.2803,"lon":5.36942,"is_reserved":false,"is_disabled":false,"rental_uris":{"android":"levelo://app?vid=0c85ca13-031c-4199-ad79-f9b475e982aa","ios":"levelo://app?vid=0c85ca13-031c-4199-ad79-f9b475e982aa"},"vehicle_type_id":"4","last_reported":1735578452,"current_range_meters":38800,"station_id":"ce4bha12rcd13ifvqef0","pricing_plan_id":"cebpf4jnsgd1na2vs0mg"},{"bike_id":"afefd288-54bd-45d3-97ca-33bb525a6334","system_id":"levelo_inurba_marseille","lat":43.27939,"lon":5.41053,"is_reserved":false,"is_disabled":false,"rental_uris":{"android":"levelo://app?vid=afefd288-54bd-45d3-97ca-33bb525a6334","ios":"levelo://app?vid=afefd288-54bd-45d3-97ca-33bb525a6334"},"vehicle_type_id":"4","last_reported":1735578452,"current_range_meters":16000,"station_id":"ce4bhnp2rcd13ifvqh0g","pricing_plan_id":"cebpf4jnsgd1na2vs0mg"},{"bike_id":"8fdbb3a1-ea97-4b2c-aa37-2d8996c834b2","system_id":"levelo_inurba_marseille","lat":43.28108,"lon":5.37846,"is_reserved":false,"is_disabled":true,"rental_uris":{"android":"levelo://app?vid=8fdbb3a1-ea97-4b2c-aa37-2d8996c834b2","ios":"levelo://app?vid=8fdbb3a1-ea97-4b2c-aa37-2d8996c834b2"},"vehicle_type_id":"4","last_reported":1735578452,"current_range_meters":1600,"station_id":"ce4bha12rcd13ifvqee0","pricing_plan_id":"cebpf4jnsgd1na2vs0mg"},{"bike_id":"e05b8841-1e37-41ca-a6c3-d911f4b910c9","system_id":"levelo_inurba_marseille","lat":43.27316,"lon":5.39098,"is_reserved":false,"is_disabled":false,"rental_uris":{"android":"levelo://app?vid=e05b8841-1e37-41ca-a6c3-d911f4b910c9","ios":"levelo://app?vid=e05b8841-1e37-41ca-a6c3-d911f4b910c9"},"vehicle_type_id":"4","last_reported":1735578452,"current_range_meters":24800,"station_id":"ce4bhgp2rcd13ifvqfe0","pricing_plan_id":"cebpf4jnsgd1na2vs0mg"},{"bike_id":"a54ec2ba-1614-4b85-8eca-f9aea04d0d90","system_id":"levelo_inurba_marseille","lat":43.30153,"lon":5.38088,"is_reserved":false,"is_disabled":false,"rental_uris":{"android":"levelo://app?vid=a54ec2ba-1614-4b85-8eca-f9aea04d0d90","ios":"levelo://app?vid=a54ec2ba-1614-4b85-8eca-f9aea04d0d90"},"vehicle_type_id":"4","last_reported":1735578452,"current_range_meters":28800,"station_id":"ce4bgjp2rcd13ifvqbh0","pricing_plan_id":"cebpf4jnsgd1na2vs0mg"},{"bike_id":"3f188f7c-a5c4-44f4-9bc3-999d2a09a56e","system_id":"levelo_inurba_marseille","lat":43.275675,"lon":5.384216,"is_reserved":false,"is_disabled":false,"rental_uris":{"android":"levelo://app?vid=3f188f7c-a5c4-44f4-9bc3-999d2a09a56e","ios":"levelo://app?vid=3f188f7c-a5c4-44f4-9bc3-999d2a09a56e"},"vehicle_type_id":"4","last_reported":1735578452,"current_range_meters":38000,"station_id":"ce4bhh92rcd13ifvqfi0","pricing_plan_id":"cebpf4jnsgd1na2vs0mg"},{"bike_id":"0543b5b2-64cc-47d6-b4a8-ec72d704804f","system_id":"levelo_inurba_marseille","lat":43.29524,"lon":5.394,"is_reserved":false,"is_disabled":false,"rental_uris":{"android":"levelo://app?vid=0543b5b2-64cc-47d6-b4a8-ec72d704804f","ios":"levelo://app?vid=0543b5b2-64cc-47d6-b4a8-ec72d704804f"},"vehicle_type_id":"4","last_reported":1735578452,"current_range_meters":36000,"station_id":"ce4bh292rcd13ifvqdf0","pricing_plan_id":"cebpf4jnsgd1na2vs0mg"},{"bike_id":"56731e3e-7f36-4713-a4bd-24b5ee5d43d3","system_id":"levelo_inurba_marseille","lat":43.28036,"lon":5.36932,"is_reserved":false,"is_disabled":false,"rental_uris":{"android":"levelo://app?vid=56731e3e-7f36-4713-a4bd-24b5ee5d43d3","ios":"levelo://app?vid=56731e3e-7f36-4713-a4bd-24b5ee5d43d3"},"vehicle_type_id":"4","last_reported":1735578452,"current_range_meters":38800,"station_id":"ce4bha12rcd13ifvqef0","pricing_plan_id":"cebpf4jnsgd1na2vs0mg"},{"bike_id":"03a83e49-1d38-4607-b5f8-e258036bdc9f","system_id":"levelo_inurba_marseille","lat":43.29304,"lon":5.37176,"is_reserved":false,"is_disabled":false,"rental_uris":{"android":"levelo://app?vid=03a83e49-1d38-4607-b5f8-e258036bdc9f","ios":"levelo://app?vid=03a83e49-1d38-4607-b5f8-e258036bdc9f"},"vehicle_type_id":"4","last_reported":1735578452,"current_range_meters":34800,"station_id":"ce4bgh92rcd13ifvqb40","pricing_plan_id":"cebpf4jnsgd1na2vs0mg"},{"bike_id":"dd708212-6c95-4591-b555-43b33b8da7f5","system_id":"levelo_inurba_marseille","lat":43.25731,"lon":5.41105,"is_reserved":false,"is_disabled":false,"rental_uris":{"android":"levelo://app?vid=dd708212-6c95-4591-b555-43b33b8da7f5","ios":"levelo://app?vid=dd708212-6c95-4591-b555-43b33b8da7f5"},"vehicle_type_id":"4","last_reported":1735578452,"current_range_meters":33600,"station_id":"ce4bhkp2rcd13ifvqgd0","pricing_plan_id":"cebpf4jnsgd1na2vs0mg"},{"bike_id":"299d264c-fd0b-4c1d-83d6-4d6e8aa30546","system_id":"levelo_inurba_marseille","lat":43.29553,"lon":5.42283,"is_reserved":false,"is_disabled":false,"rental_uris":{"android":"levelo://app?vid=299d264c-fd0b-4c1d-83d6-4d6e8aa30546","ios":"levelo://app?vid=299d264c-fd0b-4c1d-83d6-4d6e8aa30546"},"vehicle_type_id":"4","last_reported":1735578452,"current_range_meters":12800,"station_id":"ce4bhph2rcd13ifvqhdg","pricing_plan_id":"cebpf4jnsgd1na2vs0mg"},{"bike_id":"7686e9a1-b495-4cbd-9cf0-a8331cae3345","system_id":"levelo_inurba_marseille","lat":43.31764,"lon":5.39013,"is_reserved":false,"is_disabled":false,"rental_uris":{"android":"levelo://app?vid=7686e9a1-b495-4cbd-9cf0-a8331cae3345","ios":"levelo://app?vid=7686e9a1-b495-4cbd-9cf0-a8331cae3345"},"vehicle_type_id":"4","last_reported":1735578452,"current_range_meters":38800,"station_id":"ce4bhqp2rcd13ifvqhng","pricing_plan_id":"cebpf4jnsgd1na2vs0mg"},{"bike_id":"53a6fb77-ae87-4252-8b46-0b6c355db75f","system_id":"levelo_inurba_marseille","lat":43.27994,"lon":5.41664,"is_reserved":false,"is_disabled":false,"rental_uris":{"android":"levelo://app?vid=53a6fb77-ae87-4252-8b46-0b6c355db75f","ios":"levelo://app?vid=53a6fb77-ae87-4252-8b46-0b6c355db75f"},"vehicle_type_id":"4","last_reported":1735578452,"current_range_meters":24400,"station_id":"ce4bho12rcd13ifvqh1g","pricing_plan_id":"cebpf4jnsgd1na2vs0mg"},{"bike_id":"4d358d5d-b6a8-4574-926b-0ea768e4bc90","system_id":"levelo_inurba_marseille","lat":43.29558,"lon":5.37522,"is_reserved":false,"is_disabled":false,"rental_uris":{"android":"levelo://app?vid=4d358d5d-b6a8-4574-926b-0ea768e4bc90","ios":"levelo://app?vid=4d358d5d-b6a8-4574-926b-0ea768e4bc90"},"vehicle_type_id":"4","last_reported":1735578452,"current_range_meters":8800,"station_id":"ce4bgh92rcd13ifvqb50","pricing_plan_id":"cebpf4jnsgd1na2vs0mg"},{"bike_id":"d8cef4a7-11ba-4a41-8aac-49b8b245e410","system_id":"levelo_inurba_marseille","lat":43.24631,"lon":5.38125,"is_reserved":false,"is_disabled":false,"rental_uris":{"android":"levelo://app?vid=d8cef4a7-11ba-4a41-8aac-49b8b245e410","ios":"levelo://app?vid=d8cef4a7-11ba-4a41-8aac-49b8b245e410"},"vehicle_type_id":"4","last_reported":1735578452,"current_range_meters":38400,"station_id":"ce4bhih2rcd13ifvqfr0","pricing_plan_id":"cebpf4jnsgd1na2vs0mg"},{"bike_id":"5f8ee9c5-4e33-43ee-b8aa-ac908ba0aac5","system_id":"levelo_inurba_marseille","lat":43.275,"lon":5.42451,"is_reserved":false,"is_disabled":false,"rental_uris":{"android":"levelo://app?vid=5f8ee9c5-4e33-43ee-b8aa-ac908ba0aac5","ios":"levelo://app?vid=5f8ee9c5-4e33-43ee-b8aa-ac908ba0aac5"},"vehicle_type_id":"4","last_reported":1735578452,"current_range_meters":19200,"station_id":"ce4bhn92rcd13ifvqgrg","pricing_plan_id":"cebpf4jnsgd1na2vs0mg"},{"bike_id":"f84e0a68-bf0a-4ee5-b7ea-154330e0c995","system_id":"levelo_inurba_marseille","lat":43.28609,"lon":5.37068,"is_reserved":false,"is_disabled":false,"rental_uris":{"android":"levelo://app?vid=f84e0a68-bf0a-4ee5-b7ea-154330e0c995","ios":"levelo://app?vid=f84e0a68-bf0a-4ee5-b7ea-154330e0c995"},"vehicle_type_id":"4","last_reported":1735578452,"current_range_meters":13600,"station_id":"ce4bht12rcd13ifvqi60","pricing_plan_id":"cebpf4jnsgd1na2vs0mg"},{"bike_id":"db32cf0d-643f-4166-93d9-c2dd42363683","system_id":"levelo_inurba_marseille","lat":43.30319,"lon":5.36916,"is_reserved":false,"is_disabled":false,"rental_uris":{"android":"levelo://app?vid=db32cf0d-643f-4166-93d9-c2dd42363683","ios":"levelo://app?vid=db32cf0d-643f-4166-93d9-c2dd42363683"},"vehicle_type_id":"4","last_reported":1735578452,"current_range_meters":30800,"station_id":"ce4bgqh2rcd13ifvqc5g","pricing_plan_id":"cebpf4jnsgd1na2vs0mg"},{"bike_id":"8de05a72-a0c9-494c-9d8c-b04847e3ba01","system_id":"levelo_inurba_marseille","lat":43.28152,"lon":5.42636,"is_reserved":false,"is_disabled":false,"rental_uris":{"android":"levelo://app?vid=8de05a72-a0c9-494c-9d8c-b04847e3ba01","ios":"levelo://app?vid=8de05a72-a0c9-494c-9d8c-b04847e3ba01"},"vehicle_type_id":"4","last_reported":1735578452,"current_range_meters":38800,"station_id":"ce4bhnh2rcd13ifvqgug","pricing_plan_id":"cebpf4jnsgd1na2vs0mg"},{"bike_id":"4d489efa-2ce5-4ca9-ac47-ca67d4fe1c40","system_id":"levelo_inurba_marseille","lat":43.31486,"lon":5.37316,"is_reserved":false,"is_disabled":false,"rental_uris":{"android":"levelo://app?vid=4d489efa-2ce5-4ca9-ac47-ca67d4fe1c40","ios":"levelo://app?vid=4d489efa-2ce5-4ca9-ac47-ca67d4fe1c40"},"vehicle_type_id":"4","last_reported":1735578452,"current_range_meters":30000,"station_id":"ce4bgt12rcd13ifvqcd0","pricing_plan_id":"cebpf4jnsgd1na2vs0mg"},{"bike_id":"15027a12-6937-4d31-9066-3350e057abdc","system_id":"levelo_inurba_marseille","lat":43.30536,"lon":5.36678,"is_reserved":false,"is_disabled":false,"rental_uris":{"android":"levelo://app?vid=15027a12-6937-4d31-9066-3350e057abdc","ios":"levelo://app?vid=15027a12-6937-4d31-9066-3350e057abdc"},"vehicle_type_id":"4","last_reported":1735578452,"current_range_meters":38000,"station_id":"ce4bgrp2rcd13ifvqc9g","pricing_plan_id":"cebpf4jnsgd1na2vs0mg"},{"bike_id":"5367a292-5564-4681-91cd-97babb89fc00","system_id":"levelo_inurba_marseille","lat":43.22946,"lon":5.35369,"is_reserved":false,"is_disabled":false,"rental_uris":{"android":"levelo://app?vid=5367a292-5564-4681-91cd-97babb89fc00","ios":"levelo://app?vid=5367a292-5564-4681-91cd-97babb89fc00"},"vehicle_type_id":"4","last_reported":1735578452,"current_range_meters":32000,"station_id":"cpo3532slgdg3j2ikp40","pricing_plan_id":"cebpf4jnsgd1na2vs0mg"},{"bike_id":"0483d5a5-12c2-4b90-8e6c-47d6d5a4b82c","system_id":"levelo_inurba_marseille","lat":43.25821,"lon":5.3943,"is_reserved":false,"is_disabled":false,"rental_uris":{"android":"levelo://app?vid=0483d5a5-12c2-4b90-8e6c-47d6d5a4b82c","ios":"levelo://app?vid=0483d5a5-12c2-4b90-8e6c-47d6d5a4b82c"},"vehicle_type_id":"4","last_reported":1735578452,"current_range_meters":10800,"station_id":"ce4bhip2rcd13ifvqft0","pricing_plan_id":"cebpf4jnsgd1na2vs0mg"},{"bike_id":"a447cce0-d4b1-4106-b714-79d973dc0d27","system_id":"levelo_inurba_marseille","lat":43.29305,"lon":5.37182,"is_reserved":false,"is_disabled":false,"rental_uris":{"android":"levelo://app?vid=a447cce0-d4b1-4106-b714-79d973dc0d27","ios":"levelo://app?vid=a447cce0-d4b1-4106-b714-79d973dc0d27"},"vehicle_type_id":"4","last_reported":1735578452,"current_range_meters":32400,"station_id":"ce4bgh92rcd13ifvqb40","pricing_plan_id":"cebpf4jnsgd1na2vs0mg"},{"bike_id":"07f22ef1-760b-47c4-8fc4-28c0fb10c0ba","system_id":"levelo_inurba_marseille","lat":43.29581,"lon":5.37514,"is_reserved":false,"is_disabled":false,"rental_uris":{"android":"levelo://app?vid=07f22ef1-760b-47c4-8fc4-28c0fb10c0ba","ios":"levelo://app?vid=07f22ef1-760b-47c4-8fc4-28c0fb10c0ba"},"vehicle_type_id":"4","last_reported":1735578452,"current_range_meters":9600,"station_id":"ce4bgh92rcd13ifvqb50","pricing_plan_id":"cebpf4jnsgd1na2vs0mg"},{"bike_id":"12e18c6e-8c01-41db-9a35-48a765227bcf","system_id":"levelo_inurba_marseille","lat":43.30304,"lon":5.36887,"is_reserved":false,"is_disabled":false,"rental_uris":{"android":"levelo://app?vid=12e18c6e-8c01-41db-9a35-48a765227bcf","ios":"levelo://app?vid=12e18c6e-8c01-41db-9a35-48a765227bcf"},"vehicle_type_id":"4","last_reported":1735578452,"current_range_meters":5600,"station_id":"ce4bgqh2rcd13ifvqc5g","pricing_plan_id":"cebpf4jnsgd1na2vs0mg"},{"bike_id":"1c74309c-9249-460b-b9f0-66bc90c2dc91","system_id":"levelo_inurba_marseille","lat":43.24168,"lon":5.36398,"is_reserved":false,"is_disabled":false,"rental_uris":{"android":"levelo://app?vid=1c74309c-9249-460b-b9f0-66bc90c2dc91","ios":"levelo://app?vid=1c74309c-9249-460b-b9f0-66bc90c2dc91"},"vehicle_type_id":"4","last_reported":1735578452,"current_range_meters":36000,"station_id":"cpo36qri1sfpv3e86is0","pricing_plan_id":"cebpf4jnsgd1na2vs0mg"},{"bike_id":"314cfe14-af0b-41ab-b053-9975e7cb9ae3","system_id":"levelo_inurba_marseille","lat":43.23191,"lon":5.39976,"is_reserved":false,"is_disabled":false,"rental_uris":{"android":"levelo://app?vid=314cfe14-af0b-41ab-b053-9975e7cb9ae3","ios":"levelo://app?vid=314cfe14-af0b-41ab-b053-9975e7cb9ae3"},"vehicle_type_id":"4","last_reported":1735578452,"current_range_meters":6800,"station_id":"ce4bhn12rcd13ifvqgqg","pricing_plan_id":"cebpf4jnsgd1na2vs0mg"},{"bike_id":"94d38955-21a2-4852-a963-0a3cc1374e49","system_id":"levelo_inurba_marseille","lat":43.2319,"lon":5.35543,"is_reserved":false,"is_disabled":false,"rental_uris":{"android":"levelo://app?vid=94d38955-21a2-4852-a963-0a3cc1374e49","ios":"levelo://app?vid=94d38955-21a2-4852-a963-0a3cc1374e49"},"vehicle_type_id":"4","last_reported":1735578452,"current_range_meters":21600,"station_id":"ce4bhu92rcd13ifvqi70","pricing_plan_id":"cebpf4jnsgd1na2vs0mg"},{"bike_id":"f87ba839-da30-4325-8444-7c8ce841424d","system_id":"levelo_inurba_marseille","lat":43.23191,"lon":5.35554,"is_reserved":false,"is_disabled":false,"rental_uris":{"android":"levelo://app?vid=f87ba839-da30-4325-8444-7c8ce841424d","ios":"levelo://app?vid=f87ba839-da30-4325-8444-7c8ce841424d"},"vehicle_type_id":"4","last_reported":1735578452,"current_range_meters":22800,"station_id":"ce4bhu92rcd13ifvqi70","pricing_plan_id":"cebpf4jnsgd1na2vs0mg"},{"bike_id":"8428e4f5-1231-4be3-8ed9-e3882ecd12ce","system_id":"levelo_inurba_marseille","lat":43.23959,"lon":5.36623,"is_reserved":false,"is_disabled":false,"rental_uris":{"android":"levelo://app?vid=8428e4f5-1231-4be3-8ed9-e3882ecd12ce","ios":"levelo://app?vid=8428e4f5-1231-4be3-8ed9-e3882ecd12ce"},"vehicle_type_id":"4","last_reported":1735578452,"current_range_meters":25200,"station_id":"ce4bhi12rcd13ifvqfp0","pricing_plan_id":"cebpf4jnsgd1na2vs0mg"},{"bike_id":"647d23b8-4e7c-4423-a02a-d60eef618897","system_id":"levelo_inurba_marseille","lat":43.27816,"lon":5.40709,"is_reserved":false,"is_disabled":false,"rental_uris":{"android":"levelo://app?vid=647d23b8-4e7c-4423-a02a-d60eef618897","ios":"levelo://app?vid=647d23b8-4e7c-4423-a02a-d60eef618897"},"vehicle_type_id":"4","last_reported":1735578452,"current_range_meters":26000,"station_id":"ce4bhnh2rcd13ifvqgtg","pricing_plan_id":"cebpf4jnsgd1na2vs0mg"},{"bike_id":"9a5920d5-d6a3-4c63-b3ff-f8de712fec02","system_id":"levelo_inurba_marseille","lat":43.28974,"lon":5.37835,"is_reserved":false,"is_disabled":false,"rental_uris":{"android":"levelo://app?vid=9a5920d5-d6a3-4c63-b3ff-f8de712fec02","ios":"levelo://app?vid=9a5920d5-d6a3-4c63-b3ff-f8de712fec02"},"vehicle_type_id":"4","last_reported":1735578452,"current_range_meters":8400,"station_id":"ce4bh9p2rcd13ifvqed0","pricing_plan_id":"cebpf4jnsgd1na2vs0mg"},{"bike_id":"179f7c7e-cf60-4979-b064-1b4336e1db8c","system_id":"levelo_inurba_marseille","lat":43.27831,"lon":5.39206,"is_reserved":false,"is_disabled":false,"rental_uris":{"android":"levelo://app?vid=179f7c7e-cf60-4979-b064-1b4336e1db8c","ios":"levelo://app?vid=179f7c7e-cf60-4979-b064-1b4336e1db8c"},"vehicle_type_id":"4","last_reported":1735578452,"current_range_meters":38800,"station_id":"ce4bhjp2rcd13ifvqga0","pricing_plan_id":"cebpf4jnsgd1na2vs0mg"},{"bike_id":"2e19126c-44cf-40bf-a549-dc01e1a05272","system_id":"levelo_inurba_marseille","lat":43.2842,"lon":5.37527,"is_reserved":false,"is_disabled":false,"rental_uris":{"android":"levelo://app?vid=2e19126c-44cf-40bf-a549-dc01e1a05272","ios":"levelo://app?vid=2e19126c-44cf-40bf-a549-dc01e1a05272"},"vehicle_type_id":"4","last_reported":1735578452,"current_range_meters":10000,"station_id":"ce4bh412rcd13ifvqds0","pricing_plan_id":"cebpf4jnsgd1na2vs0mg"},{"bike_id":"caa372f6-57cd-46be-b1b6-e4b6f7913495","system_id":"levelo_inurba_marseille","lat":43.31223,"lon":5.36865,"is_reserved":false,"is_disabled":false,"rental_uris":{"android":"levelo://app?vid=caa372f6-57cd-46be-b1b6-e4b6f7913495","ios":"levelo://app?vid=caa372f6-57cd-46be-b1b6-e4b6f7913495"},"vehicle_type_id":"4","last_reported":1735578452,"current_range_meters":22800,"station_id":"ce4bgl92rcd13ifvqbq0","pricing_plan_id":"cebpf4jnsgd1na2vs0mg"},{"bike_id":"fb770a99-cb59-4bf4-98e1-d45312c262c8","system_id":"levelo_inurba_marseille","lat":43.30427,"lon":5.38891,"is_reserved":false,"is_disabled":false,"rental_uris":{"android":"levelo://app?vid=fb770a99-cb59-4bf4-98e1-d45312c262c8","ios":"levelo://app?vid=fb770a99-cb59-4bf4-98e1-d45312c262c8"},"vehicle_type_id":"4","last_reported":1735578452,"current_range_meters":27200,"station_id":"ce4bgk12rcd13ifvqbi0","pricing_plan_id":"cebpf4jnsgd1na2vs0mg"},{"bike_id":"7f10fdf8-d7c6-46b9-94b4-cd895f175782","system_id":"levelo_inurba_marseille","lat":43.29607,"lon":5.3772,"is_reserved":false,"is_disabled":true,"rental_uris":{"android":"levelo://app?vid=7f10fdf8-d7c6-46b9-94b4-cd895f175782","ios":"levelo://app?vid=7f10fdf8-d7c6-46b9-94b4-cd895f175782"},"vehicle_type_id":"4","last_reported":1735578452,"current_range_meters":16400,"station_id":"ce4bgi92rcd13ifvqb90","pricing_plan_id":"cebpf4jnsgd1na2vs0mg"},{"bike_id":"28f02585-b9f5-47a2-b423-18bddfd9cfaa","system_id":"levelo_inurba_marseille","lat":43.28004,"lon":5.40003,"is_reserved":false,"is_disabled":false,"rental_uris":{"android":"levelo://app?vid=28f02585-b9f5-47a2-b423-18bddfd9cfaa","ios":"levelo://app?vid=28f02585-b9f5-47a2-b423-18bddfd9cfaa"},"vehicle_type_id":"4","last_reported":1735578452,"current_range_meters":17600,"station_id":"ce4bho92rcd13ifvqh4g","pricing_plan_id":"cebpf4jnsgd1na2vs0mg"},{"bike_id":"dac94ecf-3203-4c89-acc0-21c14e979588","system_id":"levelo_inurba_marseille","lat":43.26685,"lon":5.38273,"is_reserved":false,"is_disabled":false,"rental_uris":{"android":"levelo://app?vid=dac94ecf-3203-4c89-acc0-21c14e979588","ios":"levelo://app?vid=dac94ecf-3203-4c89-acc0-21c14e979588"},"vehicle_type_id":"4","last_reported":1735578452,"current_range_meters":21600,"station_id":"ce4bhg92rcd13ifvqf90","pricing_plan_id":"cebpf4jnsgd1na2vs0mg"},{"bike_id":"91bb292a-df5c-4dce-bd7e-6647a12df4cd","system_id":"levelo_inurba_marseille","lat":43.269487,"lon":5.386416,"is_reserved":false,"is_disabled":false,"rental_uris":{"android":"levelo://app?vid=91bb292a-df5c-4dce-bd7e-6647a12df4cd","ios":"levelo://app?vid=91bb292a-df5c-4dce-bd7e-6647a12df4cd"},"vehicle_type_id":"4","last_reported":1735578452,"current_range_meters":38800,"station_id":"ce4bhh92rcd13ifvqfh0","pricing_plan_id":"cebpf4jnsgd1na2vs0mg"},{"bike_id":"dae442df-0334-4a2a-8901-28b38cfe10c7","system_id":"levelo_inurba_marseille","lat":43.23161,"lon":5.43707,"is_reserved":false,"is_disabled":false,"rental_uris":{"android":"levelo://app?vid=dae442df-0334-4a2a-8901-28b38cfe10c7","ios":"levelo://app?vid=dae442df-0334-4a2a-8901-28b38cfe10c7"},"vehicle_type_id":"4","last_reported":1735578452,"current_range_meters":36000,"station_id":"ce4bhmp2rcd13ifvqgog","pricing_plan_id":"cebpf4jnsgd1na2vs0mg"},{"bike_id":"9c42c59a-a990-48ee-91ac-32ebebcaabf5","system_id":"levelo_inurba_marseille","lat":43.27573,"lon":5.38425,"is_reserved":false,"is_disabled":false,"rental_uris":{"android":"levelo://app?vid=9c42c59a-a990-48ee-91ac-32ebebcaabf5","ios":"levelo://app?vid=9c42c59a-a990-48ee-91ac-32ebebcaabf5"},"vehicle_type_id":"4","last_reported":1735578452,"current_range_meters":38800,"station_id":"ce4bhh92rcd13ifvqfi0","pricing_plan_id":"cebpf4jnsgd1na2vs0mg"},{"bike_id":"66dd1314-2cbb-4a5f-ba4f-c581cc767fb7","system_id":"levelo_inurba_marseille","lat":43.28478,"lon":5.38433,"is_reserved":false,"is_disabled":false,"rental_uris":{"android":"levelo://app?vid=66dd1314-2cbb-4a5f-ba4f-c581cc767fb7","ios":"levelo://app?vid=66dd1314-2cbb-4a5f-ba4f-c581cc767fb7"},"vehicle_type_id":"4","last_reported":1735578452,"current_range_meters":16800,"station_id":"ce4bh512rcd13ifvqe3g","pricing_plan_id":"cebpf4jnsgd1na2vs0mg"},{"bike_id":"d03c46bd-d8c1-4904-b26d-3530eab9a1ec","system_id":"levelo_inurba_marseille","lat":43.2607,"lon":5.39385,"is_reserved":false,"is_disabled":false,"rental_uris":{"android":"levelo://app?vid=d03c46bd-d8c1-4904-b26d-3530eab9a1ec","ios":"levelo://app?vid=d03c46bd-d8c1-4904-b26d-3530eab9a1ec"},"vehicle_type_id":"4","last_reported":1735578452,"current_range_meters":22400,"station_id":"ce4bhh92rcd13ifvqfj0","pricing_plan_id":"cebpf4jnsgd1na2vs0mg"},{"bike_id":"b7fd34d2-a34c-4dfc-87aa-9a94f35fd521","system_id":"levelo_inurba_marseille","lat":43.28471,"lon":5.35871,"is_reserved":false,"is_disabled":false,"rental_uris":{"android":"levelo://app?vid=b7fd34d2-a34c-4dfc-87aa-9a94f35fd521","ios":"levelo://app?vid=b7fd34d2-a34c-4dfc-87aa-9a94f35fd521"},"vehicle_type_id":"4","last_reported":1735578452,"current_range_meters":27600,"station_id":"ce4bhah2rcd13ifvqei0","pricing_plan_id":"cebpf4jnsgd1na2vs0mg"},{"bike_id":"b8e2e3d4-597b-4721-a36a-769f7d940844","system_id":"levelo_inurba_marseille","lat":43.26566,"lon":5.42107,"is_reserved":false,"is_disabled":false,"rental_uris":{"android":"levelo://app?vid=b8e2e3d4-597b-4721-a36a-769f7d940844","ios":"levelo://app?vid=b8e2e3d4-597b-4721-a36a-769f7d940844"},"vehicle_type_id":"4","last_reported":1735578452,"current_range_meters":24800,"station_id":"","pricing_plan_id":"cebpf4jnsgd1na2vs0mg"},{"bike_id":"d9f3995d-83e2-4a2b-aa8f-fc32679c7fde","system_id":"levelo_inurba_marseille","lat":43.30462,"lon":5.37907,"is_reserved":false,"is_disabled":false,"rental_uris":{"android":"levelo://app?vid=d9f3995d-83e2-4a2b-aa8f-fc32679c7fde","ios":"levelo://app?vid=d9f3995d-83e2-4a2b-aa8f-fc32679c7fde"},"vehicle_type_id":"4","last_reported":1735578452,"current_range_meters":6000,"station_id":"ce4bgup2rcd13ifvqcn0","pricing_plan_id":"cebpf4jnsgd1na2vs0mg"},{"bike_id":"ddaa2fb9-dbb8-4086-8c94-de0ff251173c","system_id":"levelo_inurba_marseille","lat":43.27838,"lon":5.39181,"is_reserved":false,"is_disabled":false,"rental_uris":{"android":"levelo://app?vid=ddaa2fb9-dbb8-4086-8c94-de0ff251173c","ios":"levelo://app?vid=ddaa2fb9-dbb8-4086-8c94-de0ff251173c"},"vehicle_type_id":"4","last_reported":1735578452,"current_range_meters":38800,"station_id":"ce4bhjp2rcd13ifvqga0","pricing_plan_id":"cebpf4jnsgd1na2vs0mg"},{"bike_id":"b5f1cb34-1fef-4806-9758-3cf4cf172f13","system_id":"levelo_inurba_marseille","lat":43.28035,"lon":5.36953,"is_reserved":false,"is_disabled":false,"rental_uris":{"android":"levelo://app?vid=b5f1cb34-1fef-4806-9758-3cf4cf172f13","ios":"levelo://app?vid=b5f1cb34-1fef-4806-9758-3cf4cf172f13"},"vehicle_type_id":"4","last_reported":1735578452,"current_range_meters":20800,"station_id":"ce4bha12rcd13ifvqef0","pricing_plan_id":"cebpf4jnsgd1na2vs0mg"},{"bike_id":"5e57eef6-8100-463f-8b9f-a736bec4d03f","system_id":"levelo_inurba_marseille","lat":43.2695,"lon":5.38626,"is_reserved":false,"is_disabled":false,"rental_uris":{"android":"levelo://app?vid=5e57eef6-8100-463f-8b9f-a736bec4d03f","ios":"levelo://app?vid=5e57eef6-8100-463f-8b9f-a736bec4d03f"},"vehicle_type_id":"4","last_reported":1735578452,"current_range_meters":39200,"station_id":"ce4bhh92rcd13ifvqfh0","pricing_plan_id":"cebpf4jnsgd1na2vs0mg"},{"bike_id":"fa141c48-69a7-4f45-926d-e604e334ab92","system_id":"levelo_inurba_marseille","lat":43.30128,"lon":5.39867,"is_reserved":false,"is_disabled":false,"rental_uris":{"android":"levelo://app?vid=fa141c48-69a7-4f45-926d-e604e334ab92","ios":"levelo://app?vid=fa141c48-69a7-4f45-926d-e604e334ab92"},"vehicle_type_id":"4","last_reported":1735578452,"current_range_meters":38800,"station_id":"ce4bh0h2rcd13ifvqd40","pricing_plan_id":"cebpf4jnsgd1na2vs0mg"},{"bike_id":"17a100ff-03a4-4be9-9f7d-315f1f7d2589","system_id":"levelo_inurba_marseille","lat":43.29841,"lon":5.36263,"is_reserved":false,"is_disabled":false,"rental_uris":{"android":"levelo://app?vid=17a100ff-03a4-4be9-9f7d-315f1f7d2589","ios":"levelo://app?vid=17a100ff-03a4-4be9-9f7d-315f1f7d2589"},"vehicle_type_id":"4","last_reported":1735578452,"current_range_meters":18000,"station_id":"ce4bgpp2rcd13ifvqc3g","pricing_plan_id":"cebpf4jnsgd1na2vs0mg"},{"bike_id":"5c2def8a-2c65-42c6-ac07-783ced93d820","system_id":"levelo_inurba_marseille","lat":43.30597,"lon":5.3722,"is_reserved":false,"is_disabled":false,"rental_uris":{"android":"levelo://app?vid=5c2def8a-2c65-42c6-ac07-783ced93d820","ios":"levelo://app?vid=5c2def8a-2c65-42c6-ac07-783ced93d820"},"vehicle_type_id":"4","last_reported":1735578452,"current_range_meters":28800,"station_id":"ce4bgqh2rcd13ifvqc4g","pricing_plan_id":"cebpf4jnsgd1na2vs0mg"},{"bike_id":"763a0d6c-ae56-402c-b4c4-fe5d1fa24c2b","system_id":"levelo_inurba_marseille","lat":43.27417,"lon":5.3941,"is_reserved":false,"is_disabled":true,"rental_uris":{"android":"levelo://app?vid=763a0d6c-ae56-402c-b4c4-fe5d1fa24c2b","ios":"levelo://app?vid=763a0d6c-ae56-402c-b4c4-fe5d1fa24c2b"},"vehicle_type_id":"4","last_reported":1735578452,"current_range_meters":36800,"station_id":"ce4bhdp2rcd13ifvqf20","pricing_plan_id":"cebpf4jnsgd1na2vs0mg"},{"bike_id":"4ccf6920-84bf-476d-9251-3c32481fde35","system_id":"levelo_inurba_marseille","lat":43.26682,"lon":5.38274,"is_reserved":false,"is_disabled":false,"rental_uris":{"android":"levelo://app?vid=4ccf6920-84bf-476d-9251-3c32481fde35","ios":"levelo://app?vid=4ccf6920-84bf-476d-9251-3c32481fde35"},"vehicle_type_id":"4","last_reported":1735578452,"current_range_meters":18000,"station_id":"ce4bhg92rcd13ifvqf90","pricing_plan_id":"cebpf4jnsgd1na2vs0mg"},{"bike_id":"e4554979-c2ff-455a-80c4-292e2656b753","system_id":"levelo_inurba_marseille","lat":43.2957,"lon":5.39979,"is_reserved":false,"is_disabled":false,"rental_uris":{"android":"levelo://app?vid=e4554979-c2ff-455a-80c4-292e2656b753","ios":"levelo://app?vid=e4554979-c2ff-455a-80c4-292e2656b753"},"vehicle_type_id":"4","last_reported":1735578452,"current_range_meters":38000,"station_id":"ce4bh312rcd13ifvqdj0","pricing_plan_id":"cebpf4jnsgd1na2vs0mg"},{"bike_id":"fe17c963-ee96-4f5b-8f42-7842d71e406c","system_id":"levelo_inurba_marseille","lat":43.25743,"lon":5.4108,"is_reserved":false,"is_disabled":false,"rental_uris":{"android":"levelo://app?vid=fe17c963-ee96-4f5b-8f42-7842d71e406c","ios":"levelo://app?vid=fe17c963-ee96-4f5b-8f42-7842d71e406c"},"vehicle_type_id":"4","last_reported":1735578452,"current_range_meters":16800,"station_id":"ce4bhkp2rcd13ifvqgd0","pricing_plan_id":"cebpf4jnsgd1na2vs0mg"},{"bike_id":"836a2fdc-5c7f-4eaf-8248-358a78ee4601","system_id":"levelo_inurba_marseille","lat":43.26211,"lon":5.37456,"is_reserved":false,"is_disabled":false,"rental_uris":{"android":"levelo://app?vid=836a2fdc-5c7f-4eaf-8248-358a78ee4601","ios":"levelo://app?vid=836a2fdc-5c7f-4eaf-8248-358a78ee4601"},"vehicle_type_id":"4","last_reported":1735578452,"current_range_meters":24000,"station_id":"ce4bhgp2rcd13ifvqfc0","pricing_plan_id":"cebpf4jnsgd1na2vs0mg"},{"bike_id":"f156dbaf-bf9b-47ae-98bc-beef1977d7d3","system_id":"levelo_inurba_marseille","lat":43.28415,"lon":5.34988,"is_reserved":false,"is_disabled":false,"rental_uris":{"android":"levelo://app?vid=f156dbaf-bf9b-47ae-98bc-beef1977d7d3","ios":"levelo://app?vid=f156dbaf-bf9b-47ae-98bc-beef1977d7d3"},"vehicle_type_id":"4","last_reported":1735578452,"current_range_meters":17200,"station_id":"ce4bhbh2rcd13ifvqepg","pricing_plan_id":"cebpf4jnsgd1na2vs0mg"},{"bike_id":"45a4ab65-5c71-4623-aec2-76715e6602ea","system_id":"levelo_inurba_marseille","lat":43.25001,"lon":5.38929,"is_reserved":false,"is_disabled":false,"rental_uris":{"android":"levelo://app?vid=45a4ab65-5c71-4623-aec2-76715e6602ea","ios":"levelo://app?vid=45a4ab65-5c71-4623-aec2-76715e6602ea"},"vehicle_type_id":"4","last_reported":1735578452,"current_range_meters":12800,"station_id":"ce4bhgp2rcd13ifvqfd0","pricing_plan_id":"cebpf4jnsgd1na2vs0mg"},{"bike_id":"b8feb562-9ac0-4974-8ba7-4af547dd85da","system_id":"levelo_inurba_marseille","lat":43.26065,"lon":5.39393,"is_reserved":false,"is_disabled":false,"rental_uris":{"android":"levelo://app?vid=b8feb562-9ac0-4974-8ba7-4af547dd85da","ios":"levelo://app?vid=b8feb562-9ac0-4974-8ba7-4af547dd85da"},"vehicle_type_id":"4","last_reported":1735578452,"current_range_meters":38800,"station_id":"ce4bhh92rcd13ifvqfj0","pricing_plan_id":"cebpf4jnsgd1na2vs0mg"},{"bike_id":"46012680-f776-4d27-8d45-4bb31fb9dc2b","system_id":"levelo_inurba_marseille","lat":43.23062,"lon":5.35497,"is_reserved":false,"is_disabled":false,"rental_uris":{"android":"levelo://app?vid=46012680-f776-4d27-8d45-4bb31fb9dc2b","ios":"levelo://app?vid=46012680-f776-4d27-8d45-4bb31fb9dc2b"},"vehicle_type_id":"4","last_reported":1735578452,"current_range_meters":38800,"station_id":"cpo3342slgdg3j2ifvpg","pricing_plan_id":"cebpf4jnsgd1na2vs0mg"},{"bike_id":"abfd25fc-c655-439b-8597-04a124918241","system_id":"levelo_inurba_marseille","lat":43.29769,"lon":5.38103,"is_reserved":false,"is_disabled":true,"rental_uris":{"android":"levelo://app?vid=abfd25fc-c655-439b-8597-04a124918241","ios":"levelo://app?vid=abfd25fc-c655-439b-8597-04a124918241"},"vehicle_type_id":"4","last_reported":1735578452,"current_range_meters":38800,"station_id":"ce4bgip2rcd13ifvqbb0","pricing_plan_id":"cebpf4jnsgd1na2vs0mg"},{"bike_id":"1e87cf0b-10c4-4800-b755-1b1768da1a22","system_id":"levelo_inurba_marseille","lat":43.28003,"lon":5.40017,"is_reserved":false,"is_disabled":false,"rental_uris":{"android":"levelo://app?vid=1e87cf0b-10c4-4800-b755-1b1768da1a22","ios":"levelo://app?vid=1e87cf0b-10c4-4800-b755-1b1768da1a22"},"vehicle_type_id":"4","last_reported":1735578452,"current_range_meters":8400,"station_id":"ce4bho92rcd13ifvqh4g","pricing_plan_id":"cebpf4jnsgd1na2vs0mg"},{"bike_id":"6a41ef4b-fa19-49b7-ac39-99b84cb8b727","system_id":"levelo_inurba_marseille","lat":43.24087,"lon":5.37752,"is_reserved":false,"is_disabled":false,"rental_uris":{"android":"levelo://app?vid=6a41ef4b-fa19-49b7-ac39-99b84cb8b727","ios":"levelo://app?vid=6a41ef4b-fa19-49b7-ac39-99b84cb8b727"},"vehicle_type_id":"4","last_reported":1735578452,"current_range_meters":38800,"station_id":"ce4bhnp2rcd13ifvqgvg","pricing_plan_id":"cebpf4jnsgd1na2vs0mg"},{"bike_id":"5c26a2c9-bfc4-4558-aef0-ee51d5dae50e","system_id":"levelo_inurba_marseille","lat":43.304149,"lon":5.412889,"is_reserved":false,"is_disabled":false,"rental_uris":{"android":"levelo://app?vid=5c26a2c9-bfc4-4558-aef0-ee51d5dae50e","ios":"levelo://app?vid=5c26a2c9-bfc4-4558-aef0-ee51d5dae50e"},"vehicle_type_id":"4","last_reported":1735578452,"current_range_meters":39200,"station_id":"ce4bhop2rcd13ifvqh8g","pricing_plan_id":"cebpf4jnsgd1na2vs0mg"},{"bike_id":"c7a16261-fcab-4d31-9a7c-3b5289d9e38c","system_id":"levelo_inurba_marseille","lat":43.2731,"lon":5.39101,"is_reserved":false,"is_disabled":false,"rental_uris":{"android":"levelo://app?vid=c7a16261-fcab-4d31-9a7c-3b5289d9e38c","ios":"levelo://app?vid=c7a16261-fcab-4d31-9a7c-3b5289d9e38c"},"vehicle_type_id":"4","last_reported":1735578452,"current_range_meters":38800,"station_id":"ce4bhgp2rcd13ifvqfe0","pricing_plan_id":"cebpf4jnsgd1na2vs0mg"},{"bike_id":"d99156df-57b6-4d70-8fef-415e81c143b4","system_id":"levelo_inurba_marseille","lat":43.28412,"lon":5.34986,"is_reserved":false,"is_disabled":false,"rental_uris":{"android":"levelo://app?vid=d99156df-57b6-4d70-8fef-415e81c143b4","ios":"levelo://app?vid=d99156df-57b6-4d70-8fef-415e81c143b4"},"vehicle_type_id":"4","last_reported":1735578452,"current_range_meters":22000,"station_id":"ce4bhbh2rcd13ifvqepg","pricing_plan_id":"cebpf4jnsgd1na2vs0mg"},{"bike_id":"5fa2bc43-7c81-45c6-a7af-9e700d12d05b","system_id":"levelo_inurba_marseille","lat":43.30851,"lon":5.36913,"is_reserved":false,"is_disabled":false,"rental_uris":{"android":"levelo://app?vid=5fa2bc43-7c81-45c6-a7af-9e700d12d05b","ios":"levelo://app?vid=5fa2bc43-7c81-45c6-a7af-9e700d12d05b"},"vehicle_type_id":"4","last_reported":1735578452,"current_range_meters":28800,"station_id":"","pricing_plan_id":"cebpf4jnsgd1na2vs0mg"},{"bike_id":"c4fa8b26-bff7-4443-9f60-4eb78ee47219","system_id":"levelo_inurba_marseille","lat":43.337444,"lon":5.374475,"is_reserved":false,"is_disabled":false,"rental_uris":{"android":"levelo://app?vid=c4fa8b26-bff7-4443-9f60-4eb78ee47219","ios":"levelo://app?vid=c4fa8b26-bff7-4443-9f60-4eb78ee47219"},"vehicle_type_id":"4","last_reported":1735578452,"current_range_meters":27200,"station_id":"","pricing_plan_id":"cebpf4jnsgd1na2vs0mg"},{"bike_id":"faf56cb3-1d9f-4164-acf2-2b22d7c88f2e","system_id":"levelo_inurba_marseille","lat":43.27357,"lon":5.36233,"is_reserved":false,"is_disabled":false,"rental_uris":{"android":"levelo://app?vid=faf56cb3-1d9f-4164-acf2-2b22d7c88f2e","ios":"levelo://app?vid=faf56cb3-1d9f-4164-acf2-2b22d7c88f2e"},"vehicle_type_id":"4","last_reported":1735578452,"current_range_meters":38800,"station_id":"ce4bhbh2rcd13ifvqeo0","pricing_plan_id":"cebpf4jnsgd1na2vs0mg"},{"bike_id":"1b709661-5b05-4301-8dfe-9567e9827ebf","system_id":"levelo_inurba_marseille","lat":43.31214,"lon":5.36879,"is_reserved":false,"is_disabled":false,"rental_uris":{"android":"levelo://app?vid=1b709661-5b05-4301-8dfe-9567e9827ebf","ios":"levelo://app?vid=1b709661-5b05-4301-8dfe-9567e9827ebf"},"vehicle_type_id":"4","last_reported":1735578452,"current_range_meters":27600,"station_id":"ce4bgl92rcd13ifvqbq0","pricing_plan_id":"cebpf4jnsgd1na2vs0mg"},{"bike_id":"39532236-d23b-4244-ba6f-5e2bdfb832be","system_id":"levelo_inurba_marseille","lat":43.279457,"lon":5.410435,"is_reserved":false,"is_disabled":false,"rental_uris":{"android":"levelo://app?vid=39532236-d23b-4244-ba6f-5e2bdfb832be","ios":"levelo://app?vid=39532236-d23b-4244-ba6f-5e2bdfb832be"},"vehicle_type_id":"4","last_reported":1735578452,"current_range_meters":28800,"station_id":"ce4bhnp2rcd13ifvqh0g","pricing_plan_id":"cebpf4jnsgd1na2vs0mg"},{"bike_id":"a6e56f2f-2de5-468e-8a42-29b7e22f1402","system_id":"levelo_inurba_marseille","lat":43.285682,"lon":5.394944,"is_reserved":false,"is_disabled":false,"rental_uris":{"android":"levelo://app?vid=a6e56f2f-2de5-468e-8a42-29b7e22f1402","ios":"levelo://app?vid=a6e56f2f-2de5-468e-8a42-29b7e22f1402"},"vehicle_type_id":"4","last_reported":1735578452,"current_range_meters":24000,"station_id":"ce4bh292rcd13ifvqdg0","pricing_plan_id":"cebpf4jnsgd1na2vs0mg"},{"bike_id":"9eb1e9d3-259d-427b-b177-23c534179f97","system_id":"levelo_inurba_marseille","lat":43.28152,"lon":5.42645,"is_reserved":false,"is_disabled":false,"rental_uris":{"android":"levelo://app?vid=9eb1e9d3-259d-427b-b177-23c534179f97","ios":"levelo://app?vid=9eb1e9d3-259d-427b-b177-23c534179f97"},"vehicle_type_id":"4","last_reported":1735578452,"current_range_meters":26800,"station_id":"ce4bhnh2rcd13ifvqgug","pricing_plan_id":"cebpf4jnsgd1na2vs0mg"},{"bike_id":"49b7a4a1-8389-46ba-a75c-88f3015f0a91","system_id":"levelo_inurba_marseille","lat":43.2991,"lon":5.37455,"is_reserved":false,"is_disabled":false,"rental_uris":{"android":"levelo://app?vid=49b7a4a1-8389-46ba-a75c-88f3015f0a91","ios":"levelo://app?vid=49b7a4a1-8389-46ba-a75c-88f3015f0a91"},"vehicle_type_id":"4","last_reported":1735578452,"current_range_meters":37600,"station_id":"ce4bgjh2rcd13ifvqbg0","pricing_plan_id":"cebpf4jnsgd1na2vs0mg"},{"bike_id":"f10d488a-1bde-4e13-8396-054e47e02b19","system_id":"levelo_inurba_marseille","lat":43.28671,"lon":5.38648,"is_reserved":false,"is_disabled":false,"rental_uris":{"android":"levelo://app?vid=f10d488a-1bde-4e13-8396-054e47e02b19","ios":"levelo://app?vid=f10d488a-1bde-4e13-8396-054e47e02b19"},"vehicle_type_id":"4","last_reported":1735578452,"current_range_meters":38800,"station_id":"ce4bh492rcd13ifvqdug","pricing_plan_id":"cebpf4jnsgd1na2vs0mg"},{"bike_id":"e1e01f39-74aa-4f5e-a4e8-2c77027ca39c","system_id":"levelo_inurba_marseille","lat":43.29966,"lon":5.38492,"is_reserved":false,"is_disabled":false,"rental_uris":{"android":"levelo://app?vid=e1e01f39-74aa-4f5e-a4e8-2c77027ca39c","ios":"levelo://app?vid=e1e01f39-74aa-4f5e-a4e8-2c77027ca39c"},"vehicle_type_id":"4","last_reported":1735578452,"current_range_meters":30800,"station_id":"ce4bgj92rcd13ifvqbd0","pricing_plan_id":"cebpf4jnsgd1na2vs0mg"},{"bike_id":"73964e96-b062-49d4-93a6-803ee072593e","system_id":"levelo_inurba_marseille","lat":43.27372,"lon":5.36255,"is_reserved":false,"is_disabled":true,"rental_uris":{"android":"levelo://app?vid=73964e96-b062-49d4-93a6-803ee072593e","ios":"levelo://app?vid=73964e96-b062-49d4-93a6-803ee072593e"},"vehicle_type_id":"4","last_reported":1735578452,"current_range_meters":38800,"station_id":"ce4bhbh2rcd13ifvqeo0","pricing_plan_id":"cebpf4jnsgd1na2vs0mg"},{"bike_id":"96f5a5b9-2ac1-4f14-8379-2520a82b4153","system_id":"levelo_inurba_marseille","lat":43.26063,"lon":5.39396,"is_reserved":false,"is_disabled":false,"rental_uris":{"android":"levelo://app?vid=96f5a5b9-2ac1-4f14-8379-2520a82b4153","ios":"levelo://app?vid=96f5a5b9-2ac1-4f14-8379-2520a82b4153"},"vehicle_type_id":"4","last_reported":1735578452,"current_range_meters":36800,"station_id":"ce4bhh92rcd13ifvqfj0","pricing_plan_id":"cebpf4jnsgd1na2vs0mg"},{"bike_id":"712c75c4-3652-4697-927f-3b9b03fea0a3","system_id":"levelo_inurba_marseille","lat":43.29915,"lon":5.37475,"is_reserved":false,"is_disabled":false,"rental_uris":{"android":"levelo://app?vid=712c75c4-3652-4697-927f-3b9b03fea0a3","ios":"levelo://app?vid=712c75c4-3652-4697-927f-3b9b03fea0a3"},"vehicle_type_id":"4","last_reported":1735578452,"current_range_meters":11600,"station_id":"ce4bgjh2rcd13ifvqbg0","pricing_plan_id":"cebpf4jnsgd1na2vs0mg"},{"bike_id":"f0aa992b-3743-4e75-902e-e2b296f1dfc1","system_id":"levelo_inurba_marseille","lat":43.29577,"lon":5.36744,"is_reserved":false,"is_disabled":false,"rental_uris":{"android":"levelo://app?vid=f0aa992b-3743-4e75-902e-e2b296f1dfc1","ios":"levelo://app?vid=f0aa992b-3743-4e75-902e-e2b296f1dfc1"},"vehicle_type_id":"4","last_reported":1735578452,"current_range_meters":38800,"station_id":"ce4bgph2rcd13ifvqc2g","pricing_plan_id":"cebpf4jnsgd1na2vs0mg"},{"bike_id":"976abf1b-2fd1-4294-ac06-3c1193b2d559","system_id":"levelo_inurba_marseille","lat":43.23195,"lon":5.35557,"is_reserved":false,"is_disabled":false,"rental_uris":{"android":"levelo://app?vid=976abf1b-2fd1-4294-ac06-3c1193b2d559","ios":"levelo://app?vid=976abf1b-2fd1-4294-ac06-3c1193b2d559"},"vehicle_type_id":"4","last_reported":1735578452,"current_range_meters":37600,"station_id":"ce4bhu92rcd13ifvqi70","pricing_plan_id":"cebpf4jnsgd1na2vs0mg"},{"bike_id":"661b737b-c3fe-46d7-a711-feea85c6c523","system_id":"levelo_inurba_marseille","lat":43.27971,"lon":5.38736,"is_reserved":false,"is_disabled":false,"rental_uris":{"android":"levelo://app?vid=661b737b-c3fe-46d7-a711-feea85c6c523","ios":"levelo://app?vid=661b737b-c3fe-46d7-a711-feea85c6c523"},"vehicle_type_id":"4","last_reported":1735578452,"current_range_meters":38800,"station_id":"ce4bhg12rcd13ifvqf80","pricing_plan_id":"cebpf4jnsgd1na2vs0mg"},{"bike_id":"8960c74a-baeb-4914-9231-b9bd4900e6ca","system_id":"levelo_inurba_marseille","lat":43.26951,"lon":5.38626,"is_reserved":false,"is_disabled":false,"rental_uris":{"android":"levelo://app?vid=8960c74a-baeb-4914-9231-b9bd4900e6ca","ios":"levelo://app?vid=8960c74a-baeb-4914-9231-b9bd4900e6ca"},"vehicle_type_id":"4","last_reported":1735578452,"current_range_meters":28800,"station_id":"ce4bhh92rcd13ifvqfh0","pricing_plan_id":"cebpf4jnsgd1na2vs0mg"},{"bike_id":"cc6f8f3e-0d6e-42b7-bca1-764184365c5f","system_id":"levelo_inurba_marseille","lat":43.29303,"lon":5.37453,"is_reserved":false,"is_disabled":false,"rental_uris":{"android":"levelo://app?vid=cc6f8f3e-0d6e-42b7-bca1-764184365c5f","ios":"levelo://app?vid=cc6f8f3e-0d6e-42b7-bca1-764184365c5f"},"vehicle_type_id":"4","last_reported":1735578452,"current_range_meters":9600,"station_id":"ce4bgi12rcd13ifvqb70","pricing_plan_id":"cebpf4jnsgd1na2vs0mg"},