{"last_updated":1680354425,"ttl":30,"version":"2.2","data":{"bikes":[{"bike_id":"a7996489-7bc1-447a-8bd6-8f3b6b42d6a5","system_id":"levelo_inurba_marseille","lat":43.309076,"lon":5.368465,"is_reserved":false,"is_disabled":false,"rental_uris":{"android":"levelo://app?vid=a7996489-7bc1-447a-8bd6-8f3b6b42d6a5","ios":"levelo://app?vid=a7996489-7bc1-447a-8bd6-8f3b6b42d6a5"},"vehicle_type_id":"4","last_reported":1680354426,"current_range_meters":18800,"station_id":"ce4bgn92rcd13ifvqbvg","pricing_plan_id":"free"},{"bike_id":"8d3b6a6c-8282-4cf5-9a49-bbc6b8d773ff","system_id":"levelo_inurba_marseille","lat":43.30905,"lon":5.36838,"is_reserved":false,"is_disabled":false,"rental_uris":{"android":"levelo://app?vid=8d3b6a6c-8282-4cf5-9a49-bbc6b8d773ff","ios":"levelo://app?vid=8d3b6a6c-8282-4cf5-9a49-bbc6b8d773ff"},"vehicle_type_id":"4","last_reported":1680354426,"current_range_meters":400,"station_id":"","pricing_plan_id":"free"},{"bike_id":"24a8b0f8-2843-41e5-b935-5dcf3c734912","system_id":"levelo_inurba_marseille","lat":43.30901,"lon":5.36859,"is_reserved":false,"is_disabled":false,"rental_uris":{"android":"levelo://app?vid=24a8b0f8-2843-41e5-b935-5dcf3c734912","ios":"levelo://app?vid=24a8b0f8-2843-41e5-b935-5dcf3c734912"},"vehicle_type_id":"4","last_reported":1680354426,"current_range_meters":1600,"station_id":"ce4bgn92rcd13ifvqbvg","pricing_plan_id":"free"},{"bike_id":"b85c3152-1b38-4064-8108-2fd9138ffa28","system_id":"levelo_inurba_marseille","lat":43.299243,"lon":5.374807,"is_reserved":false,"is_disabled":false,"rental_uris":{"android":"levelo://app?vid=b85c3152-1b38-4064-8108-2fd9138ffa28","ios":"levelo://app?vid=b85c3152-1b38-4064-8108-2fd9138ffa28"},"vehicle_type_id":"4","last_reported":1680354426,"current_range_meters":400,"station_id":"ce4bgjh2rcd13ifvqbg0","pricing_plan_id":"free"},{"bike_id":"61351514-12d8-4d99-98cc-73ed39808048","system_id":"levelo_inurba_marseille","lat":43.303046,"lon":5.368981,"is_reserved":false,"is_disabled":false,"rental_uris":{"android":"levelo://app?vid=61351514-12d8-4d99-98cc-73ed39808048","ios":"levelo://app?vid=61351514-12d8-4d99-98cc-73ed39808048"},"vehicle_type_id":"4","last_reported":1680354426,"current_range_meters":0,"station_id":"ce4bgqh2rcd13ifvqc5g","pricing_plan_id":"free"},{"bike_id":"142d2e7b-8960-486c-9d68-b0c4e5ebfc46","system_id":"levelo_inurba_marseille","lat":43.30556,"lon":5.37635,"is_reserved":false,"is_disabled":false,"rental_uris":{"android":"levelo://app?vid=142d2e7b-8960-486c-9d68-b0c4e5ebfc46","ios":"levelo://app?vid=142d2e7b-8960-486c-9d68-b0c4e5ebfc46"},"vehicle_type_id":"4","last_reported":1680354426,"current_range_meters":21600,"station_id":"","pricing_plan_id":"free"},{"bike_id":"da195ff6-e771-46ee-b513-3aebaa180a07","system_id":"levelo_inurba_marseille","lat":43.308012,"lon":5.381511,"is_reserved":false,"is_disabled":false,"rental_uris":{"android":"levelo://app?vid=da195ff6-e771-46ee-b513-3aebaa180a07","ios":"levelo://app?vid=da195ff6-e771-46ee-b513-3aebaa180a07"},"vehicle_type_id":"4","last_reported":1680354426,"current_range_meters":19200,"station_id":"ce4bgt12rcd13ifvqce0","pricing_plan_id":"free"},{"bike_id":"cc18e615-9fc6-4255-a70f-da173e32a631","system_id":"levelo_inurba_marseille","lat":43.308012,"lon":5.381511,"is_reserved":false,"is_disabled":false,"rental_uris":{"android":"levelo://app?vid=cc18e615-9fc6-4255-a70f-da173e32a631","ios":"levelo://app?vid=cc18e615-9fc6-4255-a70f-da173e32a631"},"vehicle_type_id":"4","last_reported":1680354426,"current_range_meters":16400,"station_id":"ce4bgt12rcd13ifvqce0","pricing_plan_id":"free"},{"bike_id":"5d6b1019-689e-4c1c-bd75-eaa248179e41","system_id":"levelo_inurba_marseille","lat":43.304606,"lon":5.379026,"is_reserved":false,"is_disabled":false,"rental_uris":{"android":"levelo://app?vid=5d6b1019-689e-4c1c-bd75-eaa248179e41","ios":"levelo://app?vid=5d6b1019-689e-4c1c-bd75-eaa248179e41"},"vehicle_type_id":"4","last_reported":1680354426,"current_range_meters":3600,"station_id":"ce4bgup2rcd13ifvqcn0","pricing_plan_id":"free"},{"bike_id":"4196dec7-6023-4201-bd75-c82177637a19","system_id":"levelo_inurba_marseille","lat":43.304606,"lon":5.379026,"is_reserved":false,"is_disabled":false,"rental_uris":{"android":"levelo://app?vid=4196dec7-6023-4201-bd75-c82177637a19","ios":"levelo://app?vid=4196dec7-6023-4201-bd75-c82177637a19"},"vehicle_type_id":"4","last_reported":1680354426,"current_range_meters":2400,"station_id":"ce4bgup2rcd13ifvqcn0","pricing_plan_id":"free"},{"bike_id":"a505d019-5a53-4ea2-9671-f361d358ce95","system_id":"levelo_inurba_marseille","lat":43.304606,"lon":5.379026,"is_reserved":false,"is_disabled":false,"rental_uris":{"android":"levelo://app?vid=a505d019-5a53-4ea2-9671-f361d358ce95","ios":"levelo://app?vid=a505d019-5a53-4ea2-9671-f361d358ce95"},"vehicle_type_id":"4","last_reported":1680354426,"current_range_meters":10000,"station_id":"ce4bgup2rcd13ifvqcn0","pricing_plan_id":"free"},{"bike_id":"9362d5c8-3bd5-454a-aa63-f72fb68b0fa4","system_id":"levelo_inurba_marseille","lat":43.30143,"lon":5.37413,"is_reserved":false,"is_disabled":false,"rental_uris":{"android":"levelo://app?vid=9362d5c8-3bd5-454a-aa63-f72fb68b0fa4","ios":"levelo://app?vid=9362d5c8-3bd5-454a-aa63-f72fb68b0fa4"},"vehicle_type_id":"4","last_reported":1680354426,"current_range_meters":31600,"station_id":"ce4bgs92rcd13ifvqcc0","pricing_plan_id":"free"},{"bike_id":"ca4d56c1-8150-4860-9adb-1b3c65a5d9a2","system_id":"levelo_inurba_marseille","lat":43.299243,"lon":5.37481,"is_reserved":false,"is_disabled":false,"rental_uris":{"android":"levelo://app?vid=ca4d56c1-8150-4860-9adb-1b3c65a5d9a2","ios":"levelo://app?vid=ca4d56c1-8150-4860-9adb-1b3c65a5d9a2"},"vehicle_type_id":"4","last_reported":1680354426,"current_range_meters":22000,"station_id":"ce4bgjh2rcd13ifvqbg0","pricing_plan_id":"free"},{"bike_id":"256810cd-01c5-4982-abe9-9812345a0105","system_id":"levelo_inurba_marseille","lat":43.299243,"lon":5.37481,"is_reserved":false,"is_disabled":false,"rental_uris":{"android":"levelo://app?vid=256810cd-01c5-4982-abe9-9812345a0105","ios":"levelo://app?vid=256810cd-01c5-4982-abe9-9812345a0105"},"vehicle_type_id":"4","last_reported":1680354426,"current_range_meters":4400,"station_id":"ce4bgjh2rcd13ifvqbg0","pricing_plan_id":"free"},{"bike_id":"fba704b2-4d64-4425-b521-87e2abb8f197","system_id":"levelo_inurba_marseille","lat":43.299243,"lon":5.374807,"is_reserved":false,"is_disabled":false,"rental_uris":{"android":"levelo://app?vid=fba704b2-4d64-4425-b521-87e2abb8f197","ios":"levelo://app?vid=fba704b2-4d64-4425-b521-87e2abb8f197"},"vehicle_type_id":"4","last_reported":1680354426,"current_range_meters":28400,"station_id":"ce4bgjh2rcd13ifvqbg0","pricing_plan_id":"free"},{"bike_id":"4aa1909f-2c5a-401b-a79c-d6b394a99fb4","system_id":"levelo_inurba_marseille","lat":43.299243,"lon":5.37481,"is_reserved":false,"is_disabled":false,"rental_uris":{"android":"levelo://app?vid=4aa1909f-2c5a-401b-a79c-d6b394a99fb4","ios":"levelo://app?vid=4aa1909f-2c5a-401b-a79c-d6b394a99fb4"},"vehicle_type_id":"4","last_reported":1680354426,"current_range_meters":10000,"station_id":"ce4bgjh2rcd13ifvqbg0","pricing_plan_id":"free"},{"bike_id":"132f4de1-a774-4b2b-a6bc-5c074af34f4a","system_id":"levelo_inurba_marseille","lat":43.31124,"lon":5.38736,"is_reserved":false,"is_disabled":false,"rental_uris":{"android":"levelo://app?vid=132f4de1-a774-4b2b-a6bc-5c074af34f4a","ios":"levelo://app?vid=132f4de1-a774-4b2b-a6bc-5c074af34f4a"},"vehicle_type_id":"4","last_reported":1680354426,"current_range_meters":13200,"station_id":"","pricing_plan_id":"free"},{"bike_id":"5e9901ba-8414-49de-b89c-ea42f1d63959","system_id":"levelo_inurba_marseille","lat":43.32613,"lon":5.3773,"is_reserved":false,"is_disabled":false,"rental_uris":{"android":"levelo://app?vid=5e9901ba-8414-49de-b89c-ea42f1d63959","ios":"levelo://app?vid=5e9901ba-8414-49de-b89c-ea42f1d63959"},"vehicle_type_id":"4","last_reported":1680354426,"current_range_meters":19600,"station_id":"","pricing_plan_id":"free"},{"bike_id":"af320cfe-efe6-4f71-b684-60c5c4b62bf2","system_id":"levelo_inurba_marseille","lat":43.328371,"lon":5.366912,"is_reserved":false,"is_disabled":false,"rental_uris":{"android":"levelo://app?vid=af320cfe-efe6-4f71-b684-60c5c4b62bf2","ios":"levelo://app?vid=af320cfe-efe6-4f71-b684-60c5c4b62bf2"},"vehicle_type_id":"4","last_reported":1680354426,"current_range_meters":17600,"station_id":"ce4bhs92rcd13ifvqi0g","pricing_plan_id":"free"},{"bike_id":"4aeae47d-eab1-4eb8-b3b6-0f45e78c9fd4","system_id":"levelo_inurba_marseille","lat":43.296131,"lon":5.370773,"is_reserved":false,"is_disabled":false,"rental_uris":{"android":"levelo://app?vid=4aeae47d-eab1-4eb8-b3b6-0f45e78c9fd4","ios":"levelo://app?vid=4aeae47d-eab1-4eb8-b3b6-0f45e78c9fd4"},"vehicle_type_id":"4","last_reported":1680354426,"current_range_meters":20400,"station_id":"ce4bgnh2rcd13ifvqc0g","pricing_plan_id":"free"},{"bike_id":"30a6b4de-ada6-4f34-bdb1-40810f111623","system_id":"levelo_inurba_marseille","lat":43.296131,"lon":5.370773,"is_reserved":false,"is_disabled":false,"rental_uris":{"android":"levelo://app?vid=30a6b4de-ada6-4f34-bdb1-40810f111623","ios":"levelo://app?vid=30a6b4de-ada6-4f34-bdb1-40810f111623"},"vehicle_type_id":"4","last_reported":1680354426,"current_range_meters":10800,"station_id":"ce4bgnh2rcd13ifvqc0g","pricing_plan_id":"free"},{"bike_id":"0c738a75-c78c-4ac1-a7b8-eec39ff0333d","system_id":"levelo_inurba_marseille","lat":43.317557,"lon":5.390173,"is_reserved":false,"is_disabled":false,"rental_uris":{"android":"levelo://app?vid=0c738a75-c78c-4ac1-a7b8-eec39ff0333d","ios":"levelo://app?vid=0c738a75-c78c-4ac1-a7b8-eec39ff0333d"},"vehicle_type_id":"4","last_reported":1680354426,"current_range_meters":24800,"station_id":"ce4bhqp2rcd13ifvqhng","pricing_plan_id":"free"},{"bike_id":"da0be307-4ea4-4020-9d28-33f193178ab9","system_id":"levelo_inurba_marseille","lat":43.295748,"lon":5.37522,"is_reserved":false,"is_disabled":false,"rental_uris":{"android":"levelo://app?vid=da0be307-4ea4-4020-9d28-33f193178ab9","ios":"levelo://app?vid=da0be307-4ea4-4020-9d28-33f193178ab9"},"vehicle_type_id":"4","last_reported":1680354426,"current_range_meters":6000,"station_id":"ce4bgh92rcd13ifvqb50","pricing_plan_id":"free"},{"bike_id":"c68a8461-fcf3-4fc7-b7bf-9eb234196009","system_id":"levelo_inurba_marseille","lat":43.29567,"lon":5.37514,"is_reserved":false,"is_disabled":false,"rental_uris":{"android":"levelo://app?vid=c68a8461-fcf3-4fc7-b7bf-9eb234196009","ios":"levelo://app?vid=c68a8461-fcf3-4fc7-b7bf-9eb234196009"},"vehicle_type_id":"4","last_reported":1680354426,"current_range_meters":26000,"station_id":"ce4bgh92rcd13ifvqb50","pricing_plan_id":"free"},{"bike_id":"e3ec534f-ce57-4ab5-8e09-4467ff8b28b3","system_id":"levelo_inurba_marseille","lat":43.29566,"lon":5.37519,"is_reserved":false,"is_disabled":false,"rental_uris":{"android":"levelo://app?vid=e3ec534f-ce57-4ab5-8e09-4467ff8b28b3","ios":"levelo://app?vid=e3ec534f-ce57-4ab5-8e09-4467ff8b28b3"},"vehicle_type_id":"4","last_reported":1680354426,"current_range_meters":22000,"station_id":"ce4bgh92rcd13ifvqb50","pricing_plan_id":"free"},{"bike_id":"0d2aa33c-d53e-4891-b37c-b62ed88a13c3","system_id":"levelo_inurba_marseille","lat":43.30426,"lon":5.38894,"is_reserved":false,"is_disabled":false,"rental_uris":{"android":"levelo://app?vid=0d2aa33c-d53e-4891-b37c-b62ed88a13c3","ios":"levelo://app?vid=0d2aa33c-d53e-4891-b37c-b62ed88a13c3"},"vehicle_type_id":"4","last_reported":1680354426,"current_range_meters":400,"station_id":"","pricing_plan_id":"free"},{"bike_id":"7a7d24d0-e994-4c8b-84ef-8b513a18aed1","system_id":"levelo_inurba_marseille","lat":43.3306,"lon":5.37846,"is_reserved":false,"is_disabled":false,"rental_uris":{"android":"levelo://app?vid=7a7d24d0-e994-4c8b-84ef-8b513a18aed1","ios":"levelo://app?vid=7a7d24d0-e994-4c8b-84ef-8b513a18aed1"},"vehicle_type_id":"4","last_reported":1680354426,"current_range_meters":0,"station_id":"","pricing_plan_id":"free"},{"bike_id":"7062ea24-c63f-483e-8cfd-5d1455993838","system_id":"levelo_inurba_marseille","lat":43.309038,"lon":5.396546,"is_reserved":false,"is_disabled":false,"rental_uris":{"android":"levelo://app?vid=7062ea24-c63f-483e-8cfd-5d1455993838","ios":"levelo://app?vid=7062ea24-c63f-483e-8cfd-5d1455993838"},"vehicle_type_id":"4","last_reported":1680354426,"current_range_meters":25600,"station_id":"ce4bh012rcd13ifvqcv0","pricing_plan_id":"free"},{"bike_id":"2fc99586-c56c-4076-8eea-03587399fdd1","system_id":"levelo_inurba_marseille","lat":43.2928,"lon":5.37999,"is_reserved":false,"is_disabled":false,"rental_uris":{"android":"levelo://app?vid=2fc99586-c56c-4076-8eea-03587399fdd1","ios":"levelo://app?vid=2fc99586-c56c-4076-8eea-03587399fdd1"},"vehicle_type_id":"4","last_reported":1680354426,"current_range_meters":0,"station_id":"","pricing_plan_id":"free"},{"bike_id":"fa3713f0-c06a-46eb-9407-b31dad2476bb","system_id":"levelo_inurba_marseille","lat":43.294153,"lon":5.386305,"is_reserved":false,"is_disabled":false,"rental_uris":{"android":"levelo://app?vid=fa3713f0-c06a-46eb-9407-b31dad2476bb","ios":"levelo://app?vid=fa3713f0-c06a-46eb-9407-b31dad2476bb"},"vehicle_type_id":"4","last_reported":1680354426,"current_range_meters":30000,"station_id":"ce4bh2h2rcd13ifvqdh0","pricing_plan_id":"free"},{"bike_id":"1b869271-f611-4c56-9222-f8775ed0adff","system_id":"levelo_inurba_marseille","lat":43.289184,"lon":5.366408,"is_reserved":false,"is_disabled":false,"rental_uris":{"android":"levelo://app?vid=1b869271-f611-4c56-9222-f8775ed0adff","ios":"levelo://app?vid=1b869271-f611-4c56-9222-f8775ed0adff"},"vehicle_type_id":"4","last_reported":1680354426,"current_range_meters":19200,"station_id":"ce4bhap2rcd13ifvqek0","pricing_plan_id":"free"},{"bike_id":"cd7c3f6d-e88f-4f4b-b240-662ccbabae28","system_id":"levelo_inurba_marseille","lat":43.289184,"lon":5.366408,"is_reserved":false,"is_disabled":false,"rental_uris":{"android":"levelo://app?vid=cd7c3f6d-e88f-4f4b-b240-662ccbabae28","ios":"levelo://app?vid=cd7c3f6d-e88f-4f4b-b240-662ccbabae28"},"vehicle_type_id":"4","last_reported":1680354426,"current_range_meters":1200,"station_id":"ce4bhap2rcd13ifvqek0","pricing_plan_id":"free"},{"bike_id":"18396a72-7d7c-4392-9cc2-9b5ca3205933","system_id":"levelo_inurba_marseille","lat":43.289184,"lon":5.366408,"is_reserved":false,"is_disabled":false,"rental_uris":{"android":"levelo://app?vid=18396a72-7d7c-4392-9cc2-9b5ca3205933","ios":"levelo://app?vid=18396a72-7d7c-4392-9cc2-9b5ca3205933"},"vehicle_type_id":"4","last_reported":1680354426,"current_range_meters":0,"station_id":"ce4bhap2rcd13ifvqek0","pricing_plan_id":"free"},{"bike_id":"eeead42e-6cda-4d7f-87db-2eb3c83c765a","system_id":"levelo_inurba_marseille","lat":43.30427,"lon":5.39747,"is_reserved":false,"is_disabled":false,"rental_uris":{"android":"levelo://app?vid=eeead42e-6cda-4d7f-87db-2eb3c83c765a","ios":"levelo://app?vid=eeead42e-6cda-4d7f-87db-2eb3c83c765a"},"vehicle_type_id":"4","last_reported":1680354426,"current_range_meters":1200,"station_id":"ce4bh092rcd13ifvqd20","pricing_plan_id":"free"},{"bike_id":"4a6e77d0-ec89-4787-b97f-28c320548e0c","system_id":"levelo_inurba_marseille","lat":43.30426,"lon":5.3975,"is_reserved":false,"is_disabled":false,"rental_uris":{"android":"levelo://app?vid=4a6e77d0-ec89-4787-b97f-28c320548e0c","ios":"levelo://app?vid=4a6e77d0-ec89-4787-b97f-28c320548e0c"},"vehicle_type_id":"4","last_reported":1680354426,"current_range_meters":23600,"station_id":"ce4bh092rcd13ifvqd20","pricing_plan_id":"free"},{"bike_id":"230bc9b2-ffe2-4a2c-873f-a711f159286a","system_id":"levelo_inurba_marseille","lat":43.330442,"lon":5.389148,"is_reserved":false,"is_disabled":false,"rental_uris":{"android":"levelo://app?vid=230bc9b2-ffe2-4a2c-873f-a711f159286a","ios":"levelo://app?vid=230bc9b2-ffe2-4a2c-873f-a711f159286a"},"vehicle_type_id":"4","last_reported":1680354426,"current_range_meters":0,"station_id":"ce4bhr92rcd13ifvqhrg","pricing_plan_id":"free"},{"bike_id":"35d31169-0772-4e0d-a2a5-7f68de781460","system_id":"levelo_inurba_marseille","lat":43.290104,"lon":5.356111,"is_reserved":false,"is_disabled":false,"rental_uris":{"android":"levelo://app?vid=35d31169-0772-4e0d-a2a5-7f68de781460","ios":"levelo://app?vid=35d31169-0772-4e0d-a2a5-7f68de781460"},"vehicle_type_id":"4","last_reported":1680354426,"current_range_meters":14000,"station_id":"ce4bhb92rcd13ifvqen0","pricing_plan_id":"free"},{"bike_id":"71480f50-fa4a-4f2f-8a0a-abe14381109f","system_id":"levelo_inurba_marseille","lat":43.290103,"lon":5.356114,"is_reserved":false,"is_disabled":false,"rental_uris":{"android":"levelo://app?vid=71480f50-fa4a-4f2f-8a0a-abe14381109f","ios":"levelo://app?vid=71480f50-fa4a-4f2f-8a0a-abe14381109f"},"vehicle_type_id":"4","last_reported":1680354426,"current_range_meters":23600,"station_id":"ce4bhb92rcd13ifvqen0","pricing_plan_id":"free"},{"bike_id":"6c726ace-968f-4bf3-85b4-366f208796f9","system_id":"levelo_inurba_marseille","lat":43.290104,"lon":5.356111,"is_reserved":false,"is_disabled":false,"rental_uris":{"android":"levelo://app?vid=6c726ace-968f-4bf3-85b4-366f208796f9","ios":"levelo://app?vid=6c726ace-968f-4bf3-85b4-366f208796f9"},"vehicle_type_id":"4","last_reported":1680354426,"current_range_meters":6800,"station_id":"ce4bhb92rcd13ifvqen0","pricing_plan_id":"free"},{"bike_id":"18224f97-905a-4084-817e-f4e6b1f18d7b","system_id":"levelo_inurba_marseille","lat":43.28877,"lon":5.3608,"is_reserved":false,"is_disabled":false,"rental_uris":{"android":"levelo://app?vid=18224f97-905a-4084-817e-f4e6b1f18d7b","ios":"levelo://app?vid=18224f97-905a-4084-817e-f4e6b1f18d7b"},"vehicle_type_id":"4","last_reported":1680354426,"current_range_meters":0,"station_id":"","pricing_plan_id":"free"},{"bike_id":"8da554b7-a47d-4580-b62d-82b554803b69","system_id":"levelo_inurba_marseille","lat":43.33752,"lon":5.37466,"is_reserved":false,"is_disabled":false,"rental_uris":{"android":"levelo://app?vid=8da554b7-a47d-4580-b62d-82b554803b69","ios":"levelo://app?vid=8da554b7-a47d-4580-b62d-82b554803b69"},"vehicle_type_id":"4","last_reported":1680354426,"current_range_meters":28800,"station_id":"","pricing_plan_id":"free"},{"bike_id":"206b1e30-9616-4841-9f30-7bc8ea4081e0","system_id":"levelo_inurba_marseille","lat":43.29511,"lon":5.39407,"is_reserved":false,"is_disabled":false,"rental_uris":{"android":"levelo://app?vid=206b1e30-9616-4841-9f30-7bc8ea4081e0","ios":"levelo://app?vid=206b1e30-9616-4841-9f30-7bc8ea4081e0"},"vehicle_type_id":"4","last_reported":1680354426,"current_range_meters":0,"station_id":"","pricing_plan_id":"free"},{"bike_id":"3613346a-627f-4b20-a903-c69498821441","system_id":"levelo_inurba_marseille","lat":43.290327,"lon":5.386437,"is_reserved":false,"is_disabled":false,"rental_uris":{"android":"levelo://app?vid=3613346a-627f-4b20-a903-c69498821441","ios":"levelo://app?vid=3613346a-627f-4b20-a903-c69498821441"},"vehicle_type_id":"4","last_reported":1680354426,"current_range_meters":30000,"station_id":"ce4bh4p2rcd13ifvqe0g","pricing_plan_id":"free"},{"bike_id":"706debc2-21a1-4230-b4d9-34f0aee50ba6","system_id":"levelo_inurba_marseille","lat":43.29029,"lon":5.38639,"is_reserved":false,"is_disabled":false,"rental_uris":{"android":"levelo://app?vid=706debc2-21a1-4230-b4d9-34f0aee50ba6","ios":"levelo://app?vid=706debc2-21a1-4230-b4d9-34f0aee50ba6"},"vehicle_type_id":"4","last_reported":1680354426,"current_range_meters":26000,"station_id":"ce4bh4p2rcd13ifvqe0g","pricing_plan_id":"free"},{"bike_id":"bbf2bd11-d028-4dd6-93ac-4054b5d58d04","system_id":"levelo_inurba_marseille","lat":43.3026,"lon":5.40087,"is_reserved":false,"is_disabled":false,"rental_uris":{"android":"levelo://app?vid=bbf2bd11-d028-4dd6-93ac-4054b5d58d04","ios":"levelo://app?vid=bbf2bd11-d028-4dd6-93ac-4054b5d58d04"},"vehicle_type_id":"4","last_reported":1680354426,"current_range_meters":20400,"station_id":"","pricing_plan_id":"free"},{"bike_id":"757e0e66-f3cd-4d6a-9723-ab72c056be26","system_id":"levelo_inurba_marseille","lat":43.286039,"lon":5.370679,"is_reserved":false,"is_disabled":false,"rental_uris":{"android":"levelo://app?vid=757e0e66-f3cd-4d6a-9723-ab72c056be26","ios":"levelo://app?vid=757e0e66-f3cd-4d6a-9723-ab72c056be26"},"vehicle_type_id":"4","last_reported":1680354426,"current_range_meters":31200,"station_id":"ce4bht12rcd13ifvqi60","pricing_plan_id":"free"},{"bike_id":"3874d10a-6042-4c9f-ba07-2d12ffac4497","system_id":"levelo_inurba_marseille","lat":43.287184,"lon":5.37937,"is_reserved":false,"is_disabled":false,"rental_uris":{"android":"levelo://app?vid=3874d10a-6042-4c9f-ba07-2d12ffac4497","ios":"levelo://app?vid=3874d10a-6042-4c9f-ba07-2d12ffac4497"},"vehicle_type_id":"4","last_reported":1680354426,"current_range_meters":15600,"station_id":"ce4bh9p2rcd13ifvqec0","pricing_plan_id":"free"},{"bike_id":"cdf53551-cf26-42af-aa1c-e3593f27f2c1","system_id":"levelo_inurba_marseille","lat":43.33717,"lon":5.391857,"is_reserved":false,"is_disabled":false,"rental_uris":{"android":"levelo://app?vid=cdf53551-cf26-42af-aa1c-e3593f27f2c1","ios":"levelo://app?vid=cdf53551-cf26-42af-aa1c-e3593f27f2c1"},"vehicle_type_id":"4","last_reported":1680354426,"current_range_meters":0,"station_id":"ce4bhr92rcd13ifvqhsg","pricing_plan_id":"free"},{"bike_id":"773180cf-aa8d-42a6-86ea-297241969839","system_id":"levelo_inurba_marseille","lat":43.323464,"lon":5.406297,"is_reserved":false,"is_disabled":false,"rental_uris":{"android":"levelo://app?vid=773180cf-aa8d-42a6-86ea-297241969839","ios":"levelo://app?vid=773180cf-aa8d-42a6-86ea-297241969839"},"vehicle_type_id":"4","last_reported":1680354426,"current_range_meters":23200,"station_id":"ce4bhq92rcd13ifvqhjg","pricing_plan_id":"free"},{"bike_id":"abf11d06-813b-4e6e-a858-ef8a627d070c","system_id":"levelo_inurba_marseille","lat":43.28346,"lon":5.381,"is_reserved":false,"is_disabled":false,"rental_uris":{"android":"levelo://app?vid=abf11d06-813b-4e6e-a858-ef8a627d070c","ios":"levelo://app?vid=abf11d06-813b-4e6e-a858-ef8a627d070c"},"vehicle_type_id":"4","last_reported":1680354426,"current_range_meters":0,"station_id":"","pricing_plan_id":"free"},{"bike_id":"8e375367-5165-4a98-93ea-b0b74deab3fa","system_id":"levelo_inurba_marseille","lat":43.284219,"lon":5.3497,"is_reserved":false,"is_disabled":false,"rental_uris":{"android":"levelo://app?vid=8e375367-5165-4a98-93ea-b0b74deab3fa","ios":"levelo://app?vid=8e375367-5165-4a98-93ea-b0b74deab3fa"},"vehicle_type_id":"4","last_reported":1680354426,"current_range_meters":0,"station_id":"ce4bhbh2rcd13ifvqepg","pricing_plan_id":"free"},{"bike_id":"52b1663c-ba64-4d5e-ac6d-be436410e8a2","system_id":"levelo_inurba_marseille","lat":43.2842,"lon":5.34976,"is_reserved":false,"is_disabled":false,"rental_uris":{"android":"levelo://app?vid=52b1663c-ba64-4d5e-ac6d-be436410e8a2","ios":"levelo://app?vid=52b1663c-ba64-4d5e-ac6d-be436410e8a2"},"vehicle_type_id":"4","last_reported":1680354426,"current_range_meters":10400,"station_id":"ce4bhbh2rcd13ifvqepg","pricing_plan_id":"free"},{"bike_id":"09b67214-dcc7-477e-b0e0-41ea19e0b5ce","system_id":"levelo_inurba_marseille","lat":43.284219,"lon":5.3497,"is_reserved":false,"is_disabled":false,"rental_uris":{"android":"levelo://app?vid=09b67214-dcc7-477e-b0e0-41ea19e0b5ce","ios":"levelo://app?vid=09b67214-dcc7-477e-b0e0-41ea19e0b5ce"},"vehicle_type_id":"4","last_reported":1680354426,"current_range_meters":28400,"station_id":"ce4bhbh2rcd13ifvqepg","pricing_plan_id":"free"},{"bike_id":"d5e52bbf-d0f9-464a-af65-7bac5c73dd59","system_id":"levelo_inurba_marseille","lat":43.28414,"lon":5.34974,"is_reserved":false,"is_disabled":false,"rental_uris":{"android":"levelo://app?vid=d5e52bbf-d0f9-464a-af65-7bac5c73dd59","ios":"levelo://app?vid=d5e52bbf-d0f9-464a-af65-7bac5c73dd59"},"vehicle_type_id":"4","last_reported":1680354426,"current_range_meters":0,"station_id":"ce4bhbh2rcd13ifvqepg","pricing_plan_id":"free"},{"bike_id":"a8d5c57a-89fe-45bf-a818-3fbe5c21d0fe","system_id":"levelo_inurba_marseille","lat":43.282754,"lon":5.350519,"is_reserved":false,"is_disabled":false,"rental_uris":{"android":"levelo://app?vid=a8d5c57a-89fe-45bf-a818-3fbe5c21d0fe","ios":"levelo://app?vid=a8d5c57a-89fe-45bf-a818-3fbe5c21d0fe"},"vehicle_type_id":"4","last_reported":1680354426,"current_range_meters":1600,"station_id":"ce4bhbp2rcd13ifvqerg","pricing_plan_id":"free"},{"bike_id":"5dbbd0c0-0784-40aa-a9f0-64e5e8293c0b","system_id":"levelo_inurba_marseille","lat":43.280391,"lon":5.369521,"is_reserved":false,"is_disabled":false,"rental_uris":{"android":"levelo://app?vid=5dbbd0c0-0784-40aa-a9f0-64e5e8293c0b","ios":"levelo://app?vid=5dbbd0c0-0784-40aa-a9f0-64e5e8293c0b"},"vehicle_type_id":"4","last_reported":1680354426,"current_range_meters":11600,"station_id":"","pricing_plan_id":"free"},{"bike_id":"fa73a1a0-c7b3-4a7d-b23e-dc322edb1e57","system_id":"levelo_inurba_marseille","lat":43.283502,"lon":5.386471,"is_reserved":false,"is_disabled":false,"rental_uris":{"android":"levelo://app?vid=fa73a1a0-c7b3-4a7d-b23e-dc322edb1e57","ios":"levelo://app?vid=fa73a1a0-c7b3-4a7d-b23e-dc322edb1e57"},"vehicle_type_id":"4","last_reported":1680354426,"current_range_meters":20000,"station_id":"ce4bh492rcd13ifvqdvg","pricing_plan_id":"free"},{"bike_id":"cf2a3e7f-0c47-4596-9d67-75569ebf9621","system_id":"levelo_inurba_marseille","lat":43.28039,"lon":5.369297,"is_reserved":false,"is_disabled":false,"rental_uris":{"android":"levelo://app?vid=cf2a3e7f-0c47-4596-9d67-75569ebf9621","ios":"levelo://app?vid=cf2a3e7f-0c47-4596-9d67-75569ebf9621"},"vehicle_type_id":"4","last_reported":1680354426,"current_range_meters":31200,"station_id":"ce4bha12rcd13ifvqef0","pricing_plan_id":"free"},{"bike_id":"2508b327-3dd7-414a-9bd6-38d9d8ba7eab","system_id":"levelo_inurba_marseille","lat":43.304188,"lon":5.412904,"is_reserved":false,"is_disabled":false,"rental_uris":{"android":"levelo://app?vid=2508b327-3dd7-414a-9bd6-38d9d8ba7eab","ios":"levelo://app?vid=2508b327-3dd7-414a-9bd6-38d9d8ba7eab"},"vehicle_type_id":"4","last_reported":1680354426,"current_range_meters":8000,"station_id":"ce4bhop2rcd13ifvqh8g","pricing_plan_id":"free"},{"bike_id":"4380b83a-4d71-4193-9508-6b073fac6ce8","system_id":"levelo_inurba_marseille","lat":43.320045,"lon":5.415048,"is_reserved":false,"is_disabled":false,"rental_uris":{"android":"levelo://app?vid=4380b83a-4d71-4193-9508-6b073fac6ce8","ios":"levelo://app?vid=4380b83a-4d71-4193-9508-6b073fac6ce8"},"vehicle_type_id":"4","last_reported":1680354426,"current_range_meters":7600,"station_id":"ce4bhq92rcd13ifvqhkg","pricing_plan_id":"free"},{"bike_id":"f4860185-8472-4b05-9b4e-577fe2d26654","system_id":"levelo_inurba_marseille","lat":43.27963,"lon":5.38717,"is_reserved":false,"is_disabled":false,"rental_uris":{"android":"levelo://app?vid=f4860185-8472-4b05-9b4e-577fe2d26654","ios":"levelo://app?vid=f4860185-8472-4b05-9b4e-577fe2d26654"},"vehicle_type_id":"4","last_reported":1680354426,"current_range_meters":0,"station_id":"ce4bhg12rcd13ifvqf80","pricing_plan_id":"free"},{"bike_id":"b21eeeee-5b3e-47b5-a9df-1814d45290cb","system_id":"levelo_inurba_marseille","lat":43.280784,"lon":5.396622,"is_reserved":false,"is_disabled":false,"rental_uris":{"android":"levelo://app?vid=b21eeeee-5b3e-47b5-a9df-1814d45290cb","ios":"levelo://app?vid=b21eeeee-5b3e-47b5-a9df-1814d45290cb"},"vehicle_type_id":"4","last_reported":1680354426,"current_range_meters":16000,"station_id":"ce4bho12rcd13ifvqh2g","pricing_plan_id":"free"},{"bike_id":"28fa6fc1-904f-4995-82a2-89ed089c4f31","system_id":"levelo_inurba_marseille","lat":43.273613,"lon":5.362705,"is_reserved":false,"is_disabled":false,"rental_uris":{"android":"levelo://app?vid=28fa6fc1-904f-4995-82a2-89ed089c4f31","ios":"levelo://app?vid=28fa6fc1-904f-4995-82a2-89ed089c4f31"},"vehicle_type_id":"4","last_reported":1680354426,"current_range_meters":8400,"station_id":"ce4bhbh2rcd13ifvqeo0","pricing_plan_id":"free"},{"bike_id":"75e8e587-0101-441a-b007-62c01806ae2c","system_id":"levelo_inurba_marseille","lat":43.27372,"lon":5.36259,"is_reserved":false,"is_disabled":false,"rental_uris":{"android":"levelo://app?vid=75e8e587-0101-441a-b007-62c01806ae2c","ios":"levelo://app?vid=75e8e587-0101-441a-b007-62c01806ae2c"},"vehicle_type_id":"4","last_reported":1680354426,"current_range_meters":6400,"station_id":"ce4bhbh2rcd13ifvqeo0","pricing_plan_id":"free"},{"bike_id":"21129d8e-f8c9-4bf4-88dc-fa355ace5c00","system_id":"levelo_inurba_marseille","lat":43.273613,"lon":5.362705,"is_reserved":false,"is_disabled":false,"rental_uris":{"android":"levelo://app?vid=21129d8e-f8c9-4bf4-88dc-fa355ace5c00","ios":"levelo://app?vid=21129d8e-f8c9-4bf4-88dc-fa355ace5c00"},"vehicle_type_id":"4","last_reported":1680354426,"current_range_meters":2400,"station_id":"ce4bhbh2rcd13ifvqeo0","pricing_plan_id":"free"},{"bike_id":"1fc61570-9403-4c19-aaf9-d8ec9a5f4526","system_id":"levelo_inurba_marseille","lat":43.33605,"lon":5.4104,"is_reserved":false,"is_disabled":false,"rental_uris":{"android":"levelo://app?vid=1fc61570-9403-4c19-aaf9-d8ec9a5f4526","ios":"levelo://app?vid=1fc61570-9403-4c19-aaf9-d8ec9a5f4526"},"vehicle_type_id":"4","last_reported":1680354426,"current_range_meters":400,"station_id":"ce4bhqh2rcd13ifvqhmg","pricing_plan_id":"free"},{"bike_id":"d4eb7f4f-03e7-4c1a-919b-d8ba88a7e244","system_id":"levelo_inurba_marseille","lat":43.33612,"lon":5.410321,"is_reserved":false,"is_disabled":false,"rental_uris":{"android":"levelo://app?vid=d4eb7f4f-03e7-4c1a-919b-d8ba88a7e244","ios":"levelo://app?vid=d4eb7f4f-03e7-4c1a-919b-d8ba88a7e244"},"vehicle_type_id":"4","last_reported":1680354426,"current_range_meters":4400,"station_id":"ce4bhqh2rcd13ifvqhmg","pricing_plan_id":"free"},{"bike_id":"d698ed0e-beb5-42fb-9c40-d0a906b755a2","system_id":"levelo_inurba_marseille","lat":43.317121,"lon":5.423936,"is_reserved":false,"is_disabled":false,"rental_uris":{"android":"levelo://app?vid=d698ed0e-beb5-42fb-9c40-d0a906b755a2","ios":"levelo://app?vid=d698ed0e-beb5-42fb-9c40-d0a906b755a2"},"vehicle_type_id":"4","last_reported":1680354426,"current_range_meters":30000,"station_id":"ce4bhp92rcd13ifvqhbg","pricing_plan_id":"free"},{"bike_id":"3f220c4b-2fbd-41ad-b9a7-5aedab9908e2","system_id":"levelo_inurba_marseille","lat":43.310785,"lon":5.424305,"is_reserved":false,"is_disabled":false,"rental_uris":{"android":"levelo://app?vid=3f220c4b-2fbd-41ad-b9a7-5aedab9908e2","ios":"levelo://app?vid=3f220c4b-2fbd-41ad-b9a7-5aedab9908e2"},"vehicle_type_id":"4","last_reported":1680354426,"current_range_meters":800,"station_id":"ce4bhp92rcd13ifvqhag","pricing_plan_id":"free"},{"bike_id":"ad0c2cbb-711f-4d96-9b34-3dcd242d55a3","system_id":"levelo_inurba_marseille","lat":43.310785,"lon":5.424305,"is_reserved":false,"is_disabled":false,"rental_uris":{"android":"levelo://app?vid=ad0c2cbb-711f-4d96-9b34-3dcd242d55a3","ios":"levelo://app?vid=ad0c2cbb-711f-4d96-9b34-3dcd242d55a3"},"vehicle_type_id":"4","last_reported":1680354426,"current_range_meters":10400,"station_id":"ce4bhp92rcd13ifvqhag","pricing_plan_id":"free"},{"bike_id":"aa566aab-114d-4228-b479-316a0d499215","system_id":"levelo_inurba_marseille","lat":43.317121,"lon":5.423936,"is_reserved":false,"is_disabled":false,"rental_uris":{"android":"levelo://app?vid=aa566aab-114d-4228-b479-316a0d499215","ios":"levelo://app?vid=aa566aab-114d-4228-b479-316a0d499215"},"vehicle_type_id":"4","last_reported":1680354426,"current_range_meters":31200,"station_id":"ce4bhp92rcd13ifvqhbg","pricing_plan_id":"free"},{"bike_id":"4518286a-ae84-4a7a-9825-7470dfc51794","system_id":"levelo_inurba_marseille","lat":43.310785,"lon":5.424305,"is_reserved":false,"is_disabled":false,"rental_uris":{"android":"levelo://app?vid=4518286a-ae84-4a7a-9825-7470dfc51794","ios":"levelo://app?vid=4518286a-ae84-4a7a-9825-7470dfc51794"},"vehicle_type_id":"4","last_reported":1680354426,"current_range_meters":17200,"station_id":"ce4bhp92rcd13ifvqhag","pricing_plan_id":"free"},{"bike_id":"d32375d9-f045-42c3-8c03-7e3ba1d58d5c","system_id":"levelo_inurba_marseille","lat":43.310785,"lon":5.424305,"is_reserved":false,"is_disabled":false,"rental_uris":{"android":"levelo://app?vid=d32375d9-f045-42c3-8c03-7e3ba1d58d5c","ios":"levelo://app?vid=d32375d9-f045-42c3-8c03-7e3ba1d58d5c"},"vehicle_type_id":"4","last_reported":1680354426,"current_range_meters":7200,"station_id":"ce4bhp92rcd13ifvqhag","pricing_plan_id":"free"},{"bike_id":"ca8fbfbf-433b-4375-800f-1fb57b77e76c","system_id":"levelo_inurba_marseille","lat":43.274408,"lon":5.393611,"is_reserved":false,"is_disabled":false,"rental_uris":{"android":"levelo://app?vid=ca8fbfbf-433b-4375-800f-1fb57b77e76c","ios":"levelo://app?vid=ca8fbfbf-433b-4375-800f-1fb57b77e76c"},"vehicle_type_id":"4","last_reported":1680354426,"current_range_meters":4400,"station_id":"ce4bhdp2rcd13ifvqf20","pricing_plan_id":"free"},{"bike_id":"c141e9e6-a1c5-4989-a990-ffc9fd3bb478","system_id":"levelo_inurba_marseille","lat":43.27437,"lon":5.39389,"is_reserved":false,"is_disabled":false,"rental_uris":{"android":"levelo://app?vid=c141e9e6-a1c5-4989-a990-ffc9fd3bb478","ios":"levelo://app?vid=c141e9e6-a1c5-4989-a990-ffc9fd3bb478"},"vehicle_type_id":"4","last_reported":1680354426,"current_range_meters":9600,"station_id":"ce4bhdp2rcd13ifvqf20","pricing_plan_id":"free"},{"bike_id":"6f59b898-9f2a-44de-8b1f-039d23f244b2","system_id":"levelo_inurba_marseille","lat":43.274103,"lon":5.394016,"is_reserved":false,"is_disabled":false,"rental_uris":{"android":"levelo://app?vid=6f59b898-9f2a-44de-8b1f-039d23f244b2","ios":"levelo://app?vid=6f59b898-9f2a-44de-8b1f-039d23f244b2"},"vehicle_type_id":"4","last_reported":1680354426,"current_range_meters":10800,"station_id":"ce4bhdp2rcd13ifvqf20","pricing_plan_id":"free"},{"bike_id":"5306b62c-dedf-4385-8e04-512e05d12d81","system_id":"levelo_inurba_marseille","lat":43.304096,"lon":5.425385,"is_reserved":false,"is_disabled":false,"rental_uris":{"android":"levelo://app?vid=5306b62c-dedf-4385-8e04-512e05d12d81","ios":"levelo://app?vid=5306b62c-dedf-4385-8e04-512e05d12d81"},"vehicle_type_id":"4","last_reported":1680354426,"current_range_meters":27600,"station_id":"ce4bhoh2rcd13ifvqh6g","pricing_plan_id":"free"},{"bike_id":"10684faf-1522-4e12-afa6-ca25dae07039","system_id":"levelo_inurba_marseille","lat":43.295523,"lon":5.422926,"is_reserved":false,"is_disabled":false,"rental_uris":{"android":"levelo://app?vid=10684faf-1522-4e12-afa6-ca25dae07039","ios":"levelo://app?vid=10684faf-1522-4e12-afa6-ca25dae07039"},"vehicle_type_id":"4","last_reported":1680354426,"current_range_meters":6800,"station_id":"ce4bhph2rcd13ifvqhdg","pricing_plan_id":"free"},{"bike_id":"61819583-148b-4277-af8c-9a0edd952178","system_id":"levelo_inurba_marseille","lat":43.295523,"lon":5.422926,"is_reserved":false,"is_disabled":false,"rental_uris":{"android":"levelo://app?vid=61819583-148b-4277-af8c-9a0edd952178","ios":"levelo://app?vid=61819583-148b-4277-af8c-9a0edd952178"},"vehicle_type_id":"4","last_reported":1680354426,"current_range_meters":28400,"station_id":"ce4bhph2rcd13ifvqhdg","pricing_plan_id":"free"},{"bike_id":"75f191e8-badd-477c-ae76-04a21b24da4d","system_id":"levelo_inurba_marseille","lat":43.295523,"lon":5.422926,"is_reserved":false,"is_disabled":false,"rental_uris":{"android":"levelo://app?vid=75f191e8-badd-477c-ae76-04a21b24da4d","ios":"levelo://app?vid=75f191e8-badd-477c-ae76-04a21b24da4d"},"vehicle_type_id":"4","last_reported":1680354426,"current_range_meters":30000,"station_id":"ce4bhph2rcd13ifvqhdg","pricing_plan_id":"free"},{"bike_id":"c0d2935f-f078-493c-bbe1-a4f9d443d2ed","system_id":"levelo_inurba_marseille","lat":43.278128,"lon":5.407195,"is_reserved":false,"is_disabled":false,"rental_uris":{"android":"levelo://app?vid=c0d2935f-f078-493c-bbe1-a4f9d443d2ed","ios":"levelo://app?vid=c0d2935f-f078-493c-bbe1-a4f9d443d2ed"},"vehicle_type_id":"4","last_reported":1680354426,"current_range_meters":27200,"station_id":"ce4bhnh2rcd13ifvqgtg","pricing_plan_id":"free"},{"bike_id":"42182e55-6a99-493c-a2e9-fb1efadd80aa","system_id":"levelo_inurba_marseille","lat":43.278128,"lon":5.407195,"is_reserved":false,"is_disabled":false,"rental_uris":{"android":"levelo://app?vid=42182e55-6a99-493c-a2e9-fb1efadd80aa","ios":"levelo://app?vid=42182e55-6a99-493c-a2e9-fb1efadd80aa"},"vehicle_type_id":"4","last_reported":1680354426,"current_range_meters":29200,"station_id":"ce4bhnh2rcd13ifvqgtg","pricing_plan_id":"free"},{"bike_id":"636e9a23-936b-429d-8af7-33b5e4dfb869","system_id":"levelo_inurba_marseille","lat":43.269467,"lon":5.386439,"is_reserved":false,"is_disabled":false,"rental_uris":{"android":"levelo://app?vid=636e9a23-936b-429d-8af7-33b5e4dfb869","ios":"levelo://app?vid=636e9a23-936b-429d-8af7-33b5e4dfb869"},"vehicle_type_id":"4","last_reported":1680354426,"current_range_meters":0,"station_id":"ce4bhh92rcd13ifvqfh0","pricing_plan_id":"free"},{"bike_id":"5bffe971-1cd3-440f-b4a6-7bd85f27afc3","system_id":"levelo_inurba_marseille","lat":43.26558,"lon":5.37284,"is_reserved":false,"is_disabled":false,"rental_uris":{"android":"levelo://app?vid=5bffe971-1cd3-440f-b4a6-7bd85f27afc3","ios":"levelo://app?vid=5bffe971-1cd3-440f-b4a6-7bd85f27afc3"},"vehicle_type_id":"4","last_reported":1680354426,"current_range_meters":12400,"station_id":"ce4bhg12rcd13ifvqf70","pricing_plan_id":"free"},{"bike_id":"0855de5f-526d-47f5-8377-0b106cec07d0","system_id":"levelo_inurba_marseille","lat":43.26555,"lon":5.37287,"is_reserved":false,"is_disabled":false,"rental_uris":{"android":"levelo://app?vid=0855de5f-526d-47f5-8377-0b106cec07d0","ios":"levelo://app?vid=0855de5f-526d-47f5-8377-0b106cec07d0"},"vehicle_type_id":"4","last_reported":1680354426,"current_range_meters":12400,"station_id":"ce4bhg12rcd13ifvqf70","pricing_plan_id":"free"},{"bike_id":"eac87338-f8d9-43b7-a91d-016d2ff24563","system_id":"levelo_inurba_marseille","lat":43.28005,"lon":5.41667,"is_reserved":false,"is_disabled":false,"rental_uris":{"android":"levelo://app?vid=eac87338-f8d9-43b7-a91d-016d2ff24563","ios":"levelo://app?vid=eac87338-f8d9-43b7-a91d-016d2ff24563"},"vehicle_type_id":"4","last_reported":1680354426,"current_range_meters":24000,"station_id":"ce4bho12rcd13ifvqh1g","pricing_plan_id":"free"},{"bike_id":"7d6492d6-06c5-48b5-a2df-6edf59f9a04c","system_id":"levelo_inurba_marseille","lat":43.27996,"lon":5.41668,"is_reserved":false,"is_disabled":false,"rental_uris":{"android":"levelo://app?vid=7d6492d6-06c5-48b5-a2df-6edf59f9a04c","ios":"levelo://app?vid=7d6492d6-06c5-48b5-a2df-6edf59f9a04c"},"vehicle_type_id":"4","last_reported":1680354426,"current_range_meters":22800,"station_id":"ce4bho12rcd13ifvqh1g","pricing_plan_id":"free"},{"bike_id":"55473988-7598-4645-8aee-bf9efcf00e3a","system_id":"levelo_inurba_marseille","lat":43.267966,"lon":5.393976,"is_reserved":false,"is_disabled":false,"rental_uris":{"android":"levelo://app?vid=55473988-7598-4645-8aee-bf9efcf00e3a","ios":"levelo://app?vid=55473988-7598-4645-8aee-bf9efcf00e3a"},"vehicle_type_id":"4","last_reported":1680354426,"current_range_meters":16400,"station_id":"ce4bhh12rcd13ifvqfg0","pricing_plan_id":"free"},{"bike_id":"db0d4d5f-ee7f-4651-9e0e-2d3d71063c39","system_id":"levelo_inurba_marseille","lat":43.267966,"lon":5.393976,"is_reserved":false,"is_disabled":false,"rental_uris":{"android":"levelo://app?vid=db0d4d5f-ee7f-4651-9e0e-2d3d71063c39","ios":"levelo://app?vid=db0d4d5f-ee7f-4651-9e0e-2d3d71063c39"},"vehicle_type_id":"4","last_reported":1680354426,"current_range_meters":23200,"station_id":"ce4bhh12rcd13ifvqfg0","pricing_plan_id":"free"},{"bike_id":"b0bb3ea7-17f6-4e0e-a7fa-7fee75dc1b82","system_id":"levelo_inurba_marseille","lat":43.267966,"lon":5.393976,"is_reserved":false,"is_disabled":false,"rental_uris":{"android":"levelo://app?vid=b0bb3ea7-17f6-4e0e-a7fa-7fee75dc1b82","ios":"levelo://app?vid=b0bb3ea7-17f6-4e0e-a7fa-7fee75dc1b82"},"vehicle_type_id":"4","last_reported":1680354426,"current_range_meters":22400,"station_id":"ce4bhh12rcd13ifvqfg0","pricing_plan_id":"free"},{"bike_id":"0deb03d8-3149-49d7-9caf-33937276a5a5","system_id":"levelo_inurba_marseille","lat":43.308051,"lon":5.43527,"is_reserved":false,"is_disabled":false,"rental_uris":{"android":"levelo://app?vid=0deb03d8-3149-49d7-9caf-33937276a5a5","ios":"levelo://app?vid=0deb03d8-3149-49d7-9caf-33937276a5a5"},"vehicle_type_id":"4","last_reported":1680354426,"current_range_meters":7200,"station_id":"ce4bhph2rcd13ifvqheg","pricing_plan_id":"free"},{"bike_id":"b5726782-6fec-4d66-b45e-f01d5964dee0","system_id":"levelo_inurba_marseille","lat":43.30795,"lon":5.43525,"is_reserved":false,"is_disabled":false,"rental_uris":{"android":"levelo://app?vid=b5726782-6fec-4d66-b45e-f01d5964dee0","ios":"levelo://app?vid=b5726782-6fec-4d66-b45e-f01d5964dee0"},"vehicle_type_id":"4","last_reported":1680354426,"current_range_meters":8400,"station_id":"ce4bhph2rcd13ifvqheg","pricing_plan_id":"free"},{"bike_id":"26de19c6-2b97-4eef-acf5-5beb185f383e","system_id":"levelo_inurba_marseille","lat":43.265569,"lon":5.390047,"is_reserved":false,"is_disabled":false,"rental_uris":{"android":"levelo://app?vid=26de19c6-2b97-4eef-acf5-5beb185f383e","ios":"levelo://app?vid=26de19c6-2b97-4eef-acf5-5beb185f383e"},"vehicle_type_id":"4","last_reported":1680354426,"current_range_meters":9600,"station_id":"ce4bhe12rcd13ifvqf30","pricing_plan_id":"free"},{"bike_id":"af6b6e49-35c1-494f-b60d-aa2bf860af61","system_id":"levelo_inurba_marseille","lat":43.26197,"lon":5.37434,"is_reserved":false,"is_disabled":false,"rental_uris":{"android":"levelo://app?vid=af6b6e49-35c1-494f-b60d-aa2bf860af61","ios":"levelo://app?vid=af6b6e49-35c1-494f-b60d-aa2bf860af61"},"vehicle_type_id":"4","last_reported":1680354426,"current_range_meters":13600,"station_id":"ce4bhgp2rcd13ifvqfc0","pricing_plan_id":"free"},{"bike_id":"2908edad-0518-4af6-b2cb-334136629d41","system_id":"levelo_inurba_marseille","lat":43.317104,"lon":5.436818,"is_reserved":false,"is_disabled":false,"rental_uris":{"android":"levelo://app?vid=2908edad-0518-4af6-b2cb-334136629d41","ios":"levelo://app?vid=2908edad-0518-4af6-b2cb-334136629d41"},"vehicle_type_id":"4","last_reported":1680354426,"current_range_meters":6400,"station_id":"ce4bhp92rcd13ifvqhcg","pricing_plan_id":"free"},{"bike_id":"72c329fa-2246-41f6-99a2-1a6bb67f8a2e","system_id":"levelo_inurba_marseille","lat":43.317104,"lon":5.436818,"is_reserved":false,"is_disabled":false,"rental_uris":{"android":"levelo://app?vid=72c329fa-2246-41f6-99a2-1a6bb67f8a2e","ios":"levelo://app?vid=72c329fa-2246-41f6-99a2-1a6bb67f8a2e"},"vehicle_type_id":"4","last_reported":1680354426,"current_range_meters":400,"station_id":"ce4bhp92rcd13ifvqhcg","pricing_plan_id":"free"},{"bike_id":"9612ee23-b092-4804-b0e6-22248b4b9e9a","system_id":"levelo_inurba_marseille","lat":43.31714,"lon":5.43705,"is_reserved":false,"is_disabled":false,"rental_uris":{"android":"levelo://app?vid=9612ee23-b092-4804-b0e6-22248b4b9e9a","ios":"levelo://app?vid=9612ee23-b092-4804-b0e6-22248b4b9e9a"},"vehicle_type_id":"4","last_reported":1680354426,"current_range_meters":8800,"station_id":"ce4bhp92rcd13ifvqhcg","pricing_plan_id":"free"},{"bike_id":"f7bd1106-6963-433f-997c-89f7f4478e78","system_id":"levelo_inurba_marseille","lat":43.317104,"lon":5.436818,"is_reserved":false,"is_disabled":false,"rental_uris":{"android":"levelo://app?vid=f7bd1106-6963-433f-997c-89f7f4478e78","ios":"levelo://app?vid=f7bd1106-6963-433f-997c-89f7f4478e78"},"vehicle_type_id":"4","last_reported":1680354426,"current_range_meters":18000,"station_id":"ce4bhp92rcd13ifvqhcg","pricing_plan_id":"free"},{"bike_id":"f4e846b5-9502-4f1a-b53c-70edc24a08bc","system_id":"levelo_inurba_marseille","lat":43.260219,"lon":5.37546,"is_reserved":false,"is_disabled":false,"rental_uris":{"android":"levelo://app?vid=f4e846b5-9502-4f1a-b53c-70edc24a08bc","ios":"levelo://app?vid=f4e846b5-9502-4f1a-b53c-70edc24a08bc"},"vehicle_type_id":"4","last_reported":1680354426,"current_range_meters":23600,"station_id":"ce4bhgh2rcd13ifvqfa0","pricing_plan_id":"free"},{"bike_id":"22a3d390-6519-434a-bb79-97a9533f8ec0","system_id":"levelo_inurba_marseille","lat":43.260225,"lon":5.375455,"is_reserved":false,"is_disabled":false,"rental_uris":{"android":"levelo://app?vid=22a3d390-6519-434a-bb79-97a9533f8ec0","ios":"levelo://app?vid=22a3d390-6519-434a-bb79-97a9533f8ec0"},"vehicle_type_id":"4","last_reported":1680354426,"current_range_meters":28000,"station_id":"ce4bhgh2rcd13ifvqfa0","pricing_plan_id":"free"},{"bike_id":"536a7928-e018-40ec-81cb-a68c17d1e863","system_id":"levelo_inurba_marseille","lat":43.260629,"lon":5.393943,"is_reserved":false,"is_disabled":false,"rental_uris":{"android":"levelo://app?vid=536a7928-e018-40ec-81cb-a68c17d1e863","ios":"levelo://app?vid=536a7928-e018-40ec-81cb-a68c17d1e863"},"vehicle_type_id":"4","last_reported":1680354426,"current_range_meters":25600,"station_id":"","pricing_plan_id":"free"},{"bike_id":"a9d8e8ef-d64c-4c27-8436-74e2b3ebb91a","system_id":"levelo_inurba_marseille","lat":43.2606,"lon":5.39397,"is_reserved":false,"is_disabled":false,"rental_uris":{"android":"levelo://app?vid=a9d8e8ef-d64c-4c27-8436-74e2b3ebb91a","ios":"levelo://app?vid=a9d8e8ef-d64c-4c27-8436-74e2b3ebb91a"},"vehicle_type_id":"4","last_reported":1680354426,"current_range_meters":17200,"station_id":"ce4bhh92rcd13ifvqfj0","pricing_plan_id":"free"},{"bike_id":"9d5c6f15-bbf2-4e8c-824f-075ec7bc8af1","system_id":"levelo_inurba_marseille","lat":43.2607,"lon":5.393983,"is_reserved":false,"is_disabled":false,"rental_uris":{"android":"levelo://app?vid=9d5c6f15-bbf2-4e8c-824f-075ec7bc8af1","ios":"levelo://app?vid=9d5c6f15-bbf2-4e8c-824f-075ec7bc8af1"},"vehicle_type_id":"4","last_reported":1680354426,"current_range_meters":21600,"station_id":"ce4bhh92rcd13ifvqfj0","pricing_plan_id":"free"},{"bike_id":"3c50fd7f-b708-4a8d-af37-2389e53d648c","system_id":"levelo_inurba_marseille","lat":43.25852,"lon":5.38849,"is_reserved":false,"is_disabled":false,"rental_uris":{"android":"levelo://app?vid=3c50fd7f-b708-4a8d-af37-2389e53d648c","ios":"levelo://app?vid=3c50fd7f-b708-4a8d-af37-2389e53d648c"},"vehicle_type_id":"4","last_reported":1680354426,"current_range_meters":4000,"station_id":"","pricing_plan_id":"free"},{"bike_id":"2c654b79-32fa-45da-9459-3c394c47e2a7","system_id":"levelo_inurba_marseille","lat":43.260909,"lon":5.397591,"is_reserved":false,"is_disabled":false,"rental_uris":{"android":"levelo://app?vid=2c654b79-32fa-45da-9459-3c394c47e2a7","ios":"levelo://app?vid=2c654b79-32fa-45da-9459-3c394c47e2a7"},"vehicle_type_id":"4","last_reported":1680354426,"current_range_meters":28800,"station_id":"ce4bhi12rcd13ifvqfq0","pricing_plan_id":"free"},{"bike_id":"2cf62273-9cc8-40aa-a9d0-d45cd2f19854","system_id":"levelo_inurba_marseille","lat":43.25584,"lon":5.38236,"is_reserved":false,"is_disabled":false,"rental_uris":{"android":"levelo://app?vid=2cf62273-9cc8-40aa-a9d0-d45cd2f19854","ios":"levelo://app?vid=2cf62273-9cc8-40aa-a9d0-d45cd2f19854"},"vehicle_type_id":"4","last_reported":1680354426,"current_range_meters":16000,"station_id":"ce4bhih2rcd13ifvqfs0","pricing_plan_id":"free"},{"bike_id":"8246eaa2-5f27-4b06-8dea-f1814b98861b","system_id":"levelo_inurba_marseille","lat":43.25582,"lon":5.38225,"is_reserved":false,"is_disabled":false,"rental_uris":{"android":"levelo://app?vid=8246eaa2-5f27-4b06-8dea-f1814b98861b","ios":"levelo://app?vid=8246eaa2-5f27-4b06-8dea-f1814b98861b"},"vehicle_type_id":"4","last_reported":1680354426,"current_range_meters":10400,"station_id":"ce4bhih2rcd13ifvqfs0","pricing_plan_id":"free"},{"bike_id":"49e01cd8-eae2-4fb8-a54a-e9089dd2141f","system_id":"levelo_inurba_marseille","lat":43.25582,"lon":5.38236,"is_reserved":false,"is_disabled":false,"rental_uris":{"android":"levelo://app?vid=49e01cd8-eae2-4fb8-a54a-e9089dd2141f","ios":"levelo://app?vid=49e01cd8-eae2-4fb8-a54a-e9089dd2141f"},"vehicle_type_id":"4","last_reported":1680354426,"current_range_meters":4800,"station_id":"ce4bhih2rcd13ifvqfs0","pricing_plan_id":"free"},{"bike_id":"43a1ecb4-4679-44ef-9de7-a97e46573fef","system_id":"levelo_inurba_marseille","lat":43.2558,"lon":5.38224,"is_reserved":false,"is_disabled":false,"rental_uris":{"android":"levelo://app?vid=43a1ecb4-4679-44ef-9de7-a97e46573fef","ios":"levelo://app?vid=43a1ecb4-4679-44ef-9de7-a97e46573fef"},"vehicle_type_id":"4","last_reported":1680354426,"current_range_meters":21200,"station_id":"ce4bhih2rcd13ifvqfs0","pricing_plan_id":"free"},{"bike_id":"d0dbb09d-b756-49f4-9dcb-9c7c6e669cdf","system_id":"levelo_inurba_marseille","lat":43.255756,"lon":5.382303,"is_reserved":false,"is_disabled":false,"rental_uris":{"android":"levelo://app?vid=d0dbb09d-b756-49f4-9dcb-9c7c6e669cdf","ios":"levelo://app?vid=d0dbb09d-b756-49f4-9dcb-9c7c6e669cdf"},"vehicle_type_id":"4","last_reported":1680354426,"current_range_meters":22400,"station_id":"ce4bhih2rcd13ifvqfs0","pricing_plan_id":"free"},{"bike_id":"0ea1e8d0-9f43-47f6-bfd1-3bedee20aad8","system_id":"levelo_inurba_marseille","lat":43.25582,"lon":5.38238,"is_reserved":false,"is_disabled":false,"rental_uris":{"android":"levelo://app?vid=0ea1e8d0-9f43-47f6-bfd1-3bedee20aad8","ios":"levelo://app?vid=0ea1e8d0-9f43-47f6-bfd1-3bedee20aad8"},"vehicle_type_id":"4","last_reported":1680354426,"current_range_meters":10800,"station_id":"ce4bhih2rcd13ifvqfs0","pricing_plan_id":"free"},{"bike_id":"56276b97-9460-4a3e-ad1d-4e60d3f62a8a","system_id":"levelo_inurba_marseille","lat":43.255756,"lon":5.382303,"is_reserved":false,"is_disabled":false,"rental_uris":{"android":"levelo://app?vid=56276b97-9460-4a3e-ad1d-4e60d3f62a8a","ios":"levelo://app?vid=56276b97-9460-4a3e-ad1d-4e60d3f62a8a"},"vehicle_type_id":"4","last_reported":1680354426,"current_range_meters":10800,"station_id":"ce4bhih2rcd13ifvqfs0","pricing_plan_id":"free"},{"bike_id":"00323f09-184f-4c79-8a93-92d2dec0cc58","system_id":"levelo_inurba_marseille","lat":43.255756,"lon":5.382303,"is_reserved":false,"is_disabled":false,"rental_uris":{"android":"levelo://app?vid=00323f09-184f-4c79-8a93-92d2dec0cc58","ios":"levelo://app?vid=00323f09-184f-4c79-8a93-92d2dec0cc58"},"vehicle_type_id":"4","last_reported":1680354426,"current_range_meters":26000,"station_id":"ce4bhih2rcd13ifvqfs0","pricing_plan_id":"free"},{"bike_id":"21f3f616-a968-423d-80bb-e175a0884d62","system_id":"levelo_inurba_marseille","lat":43.255756,"lon":5.382303,"is_reserved":false,"is_disabled":false,"rental_uris":{"android":"levelo://app?vid=21f3f616-a968-423d-80bb-e175a0884d62","ios":"levelo://app?vid=21f3f616-a968-423d-80bb-e175a0884d62"},"vehicle_type_id":"4","last_reported":1680354426,"current_range_meters":2000,"station_id":"ce4bhih2rcd13ifvqfs0","pricing_plan_id":"free"},{"bike_id":"1054f65e-c570-4ff6-906f-b8c5c4c01270","system_id":"levelo_inurba_marseille","lat":43.25579,"lon":5.38234,"is_reserved":false,"is_disabled":false,"rental_uris":{"android":"levelo://app?vid=1054f65e-c570-4ff6-906f-b8c5c4c01270","ios":"levelo://app?vid=1054f65e-c570-4ff6-906f-b8c5c4c01270"},"vehicle_type_id":"4","last_reported":1680354426,"current_range_meters":26800,"station_id":"ce4bhih2rcd13ifvqfs0","pricing_plan_id":"free"},{"bike_id":"00f191b9-5b54-4234-8595-2ef24a878a4b","system_id":"levelo_inurba_marseille","lat":43.25496,"lon":5.37651,"is_reserved":false,"is_disabled":false,"rental_uris":{"android":"levelo://app?vid=00f191b9-5b54-4234-8595-2ef24a878a4b","ios":"levelo://app?vid=00f191b9-5b54-4234-8595-2ef24a878a4b"},"vehicle_type_id":"4","last_reported":1680354426,"current_range_meters":5200,"station_id":"ce4bhh12rcd13ifvqff0","pricing_plan_id":"free"},{"bike_id":"3356f27d-b8cc-4456-ba98-420fa911b9f7","system_id":"levelo_inurba_marseille","lat":43.25495,"lon":5.37647,"is_reserved":false,"is_disabled":false,"rental_uris":{"android":"levelo://app?vid=3356f27d-b8cc-4456-ba98-420fa911b9f7","ios":"levelo://app?vid=3356f27d-b8cc-4456-ba98-420fa911b9f7"},"vehicle_type_id":"4","last_reported":1680354426,"current_range_meters":13600,"station_id":"ce4bhh12rcd13ifvqff0","pricing_plan_id":"free"},{"bike_id":"c19fc865-e0d6-4802-bfc5-d43b89ddf737","system_id":"levelo_inurba_marseille","lat":43.25494,"lon":5.37653,"is_reserved":false,"is_disabled":false,"rental_uris":{"android":"levelo://app?vid=c19fc865-e0d6-4802-bfc5-d43b89ddf737","ios":"levelo://app?vid=c19fc865-e0d6-4802-bfc5-d43b89ddf737"},"vehicle_type_id":"4","last_reported":1680354426,"current_range_meters":8800,"station_id":"ce4bhh12rcd13ifvqff0","pricing_plan_id":"free"},{"bike_id":"58230eb3-9e0b-46ec-8d53-466f7ede1a11","system_id":"levelo_inurba_marseille","lat":43.258676,"lon":5.398941,"is_reserved":false,"is_disabled":false,"rental_uris":{"android":"levelo://app?vid=58230eb3-9e0b-46ec-8d53-466f7ede1a11","ios":"levelo://app?vid=58230eb3-9e0b-46ec-8d53-466f7ede1a11"},"vehicle_type_id":"4","last_reported":1680354426,"current_range_meters":30800,"station_id":"ce4bhl92rcd13ifvqghg","pricing_plan_id":"free"},{"bike_id":"61fb0764-c27e-455f-b903-5ab397af22f6","system_id":"levelo_inurba_marseille","lat":43.258658,"lon":5.398935,"is_reserved":false,"is_disabled":false,"rental_uris":{"android":"levelo://app?vid=61fb0764-c27e-455f-b903-5ab397af22f6","ios":"levelo://app?vid=61fb0764-c27e-455f-b903-5ab397af22f6"},"vehicle_type_id":"4","last_reported":1680354426,"current_range_meters":28800,"station_id":"ce4bhl92rcd13ifvqghg","pricing_plan_id":"free"},{"bike_id":"f7beaaf8-8837-4187-8b16-83fc37634110","system_id":"levelo_inurba_marseille","lat":43.258658,"lon":5.398935,"is_reserved":false,"is_disabled":false,"rental_uris":{"android":"levelo://app?vid=f7beaaf8-8837-4187-8b16-83fc37634110","ios":"levelo://app?vid=f7beaaf8-8837-4187-8b16-83fc37634110"},"vehicle_type_id":"4","last_reported":1680354426,"current_range_meters":29600,"station_id":"ce4bhl92rcd13ifvqghg","pricing_plan_id":"free"},{"bike_id":"7ea09eea-4bc4-48f6-a56f-1bff194aa01b","system_id":"levelo_inurba_marseille","lat":43.258658,"lon":5.398935,"is_reserved":false,"is_disabled":false,"rental_uris":{"android":"levelo://app?vid=7ea09eea-4bc4-48f6-a56f-1bff194aa01b","ios":"levelo://app?vid=7ea09eea-4bc4-48f6-a56f-1bff194aa01b"},"vehicle_type_id":"4","last_reported":1680354426,"current_range_meters":15200,"station_id":"ce4bhl92rcd13ifvqghg","pricing_plan_id":"free"},{"bike_id":"b51aee46-76da-427a-a4b4-f51ea4fa1532","system_id":"levelo_inurba_marseille","lat":43.258658,"lon":5.398935,"is_reserved":false,"is_disabled":false,"rental_uris":{"android":"levelo://app?vid=b51aee46-76da-427a-a4b4-f51ea4fa1532","ios":"levelo://app?vid=b51aee46-76da-427a-a4b4-f51ea4fa1532"},"vehicle_type_id":"4","last_reported":1680354426,"current_range_meters":16000,"station_id":"ce4bhl92rcd13ifvqghg","pricing_plan_id":"free"},{"bike_id":"1fb988ef-a336-49e8-93ec-e46c9b48e424","system_id":"levelo_inurba_marseille","lat":43.25001,"lon":5.37369,"is_reserved":false,"is_disabled":false,"rental_uris":{"android":"levelo://app?vid=1fb988ef-a336-49e8-93ec-e46c9b48e424","ios":"levelo://app?vid=1fb988ef-a336-49e8-93ec-e46c9b48e424"},"vehicle_type_id":"4","last_reported":1680354426,"current_range_meters":15200,"station_id":"","pricing_plan_id":"free"},{"bike_id":"577fa889-934f-4162-9bd0-1decb4020677","system_id":"levelo_inurba_marseille","lat":43.25004,"lon":5.38919,"is_reserved":false,"is_disabled":false,"rental_uris":{"android":"levelo://app?vid=577fa889-934f-4162-9bd0-1decb4020677","ios":"levelo://app?vid=577fa889-934f-4162-9bd0-1decb4020677"},"vehicle_type_id":"4","last_reported":1680354426,"current_range_meters":20800,"station_id":"ce4bhgp2rcd13ifvqfd0","pricing_plan_id":"free"},{"bike_id":"559e7fd8-6b37-403a-a152-87250e1c7592","system_id":"levelo_inurba_marseille","lat":43.25003,"lon":5.38923,"is_reserved":false,"is_disabled":false,"rental_uris":{"android":"levelo://app?vid=559e7fd8-6b37-403a-a152-87250e1c7592","ios":"levelo://app?vid=559e7fd8-6b37-403a-a152-87250e1c7592"},"vehicle_type_id":"4","last_reported":1680354426,"current_range_meters":3200,"station_id":"ce4bhgp2rcd13ifvqfd0","pricing_plan_id":"free"},{"bike_id":"7ad75e01-3e5d-4af5-acf3-8d4ed330d37a","system_id":"levelo_inurba_marseille","lat":43.25001,"lon":5.38922,"is_reserved":false,"is_disabled":false,"rental_uris":{"android":"levelo://app?vid=7ad75e01-3e5d-4af5-acf3-8d4ed330d37a","ios":"levelo://app?vid=7ad75e01-3e5d-4af5-acf3-8d4ed330d37a"},"vehicle_type_id":"4","last_reported":1680354426,"current_range_meters":14400,"station_id":"ce4bhgp2rcd13ifvqfd0","pricing_plan_id":"free"},{"bike_id":"4496b24b-40eb-4a7d-8dde-291f384e9a4c","system_id":"levelo_inurba_marseille","lat":43.25,"lon":5.38924,"is_reserved":false,"is_disabled":false,"rental_uris":{"android":"levelo://app?vid=4496b24b-40eb-4a7d-8dde-291f384e9a4c","ios":"levelo://app?vid=4496b24b-40eb-4a7d-8dde-291f384e9a4c"},"vehicle_type_id":"4","last_reported":1680354426,"current_range_meters":12000,"station_id":"ce4bhgp2rcd13ifvqfd0","pricing_plan_id":"free"},{"bike_id":"a589161c-6c67-471e-b3d3-159b6422b74d","system_id":"levelo_inurba_marseille","lat":43.24808,"lon":5.37456,"is_reserved":false,"is_disabled":false,"rental_uris":{"android":"levelo://app?vid=a589161c-6c67-471e-b3d3-159b6422b74d","ios":"levelo://app?vid=a589161c-6c67-471e-b3d3-159b6422b74d"},"vehicle_type_id":"4","last_reported":1680354426,"current_range_meters":3200,"station_id":"ce4bhgh2rcd13ifvqfb0","pricing_plan_id":"free"},{"bike_id":"2998bb17-e3d2-48ba-8a64-391e5c486c82","system_id":"levelo_inurba_marseille","lat":43.2479,"lon":5.374457,"is_reserved":false,"is_disabled":false,"rental_uris":{"android":"levelo://app?vid=2998bb17-e3d2-48ba-8a64-391e5c486c82","ios":"levelo://app?vid=2998bb17-e3d2-48ba-8a64-391e5c486c82"},"vehicle_type_id":"4","last_reported":1680354426,"current_range_meters":0,"station_id":"ce4bhgh2rcd13ifvqfb0","pricing_plan_id":"free"},{"bike_id":"72c4d9ac-91ae-4a40-8805-d8c27274372c","system_id":"levelo_inurba_marseille","lat":43.2479,"lon":5.374457,"is_reserved":false,"is_disabled":false,"rental_uris":{"android":"levelo://app?vid=72c4d9ac-91ae-4a40-8805-d8c27274372c","ios":"levelo://app?vid=72c4d9ac-91ae-4a40-8805-d8c27274372c"},"vehicle_type_id":"4","last_reported":1680354426,"current_range_meters":9200,"station_id":"ce4bhgh2rcd13ifvqfb0","pricing_plan_id":"free"},{"bike_id":"3c87eb23-b72a-4000-9ede-955cf07788bd","system_id":"levelo_inurba_marseille","lat":43.2479,"lon":5.374457,"is_reserved":false,"is_disabled":false,"rental_uris":{"android":"levelo://app?vid=3c87eb23-b72a-4000-9ede-955cf07788bd","ios":"levelo://app?vid=3c87eb23-b72a-4000-9ede-955cf07788bd"},"vehicle_type_id":"4","last_reported":1680354426,"current_range_meters":0,"station_id":"ce4bhgh2rcd13ifvqfb0","pricing_plan_id":"free"},{"bike_id":"a4593317-4b6b-4e43-97e2-d490cc954c40","system_id":"levelo_inurba_marseille","lat":43.250966,"lon":5.395186,"is_reserved":false,"is_disabled":false,"rental_uris":{"android":"levelo://app?vid=a4593317-4b6b-4e43-97e2-d490cc954c40","ios":"levelo://app?vid=a4593317-4b6b-4e43-97e2-d490cc954c40"},"vehicle_type_id":"4","last_reported":1680354426,"current_range_meters":26400,"station_id":"ce4bhm12rcd13ifvqgkg","pricing_plan_id":"free"},{"bike_id":"2469cc9e-2ad0-419d-ae76-3a5a11c383e1","system_id":"levelo_inurba_marseille","lat":43.25161,"lon":5.401,"is_reserved":false,"is_disabled":false,"rental_uris":{"android":"levelo://app?vid=2469cc9e-2ad0-419d-ae76-3a5a11c383e1","ios":"levelo://app?vid=2469cc9e-2ad0-419d-ae76-3a5a11c383e1"},"vehicle_type_id":"4","last_reported":1680354426,"current_range_meters":10800,"station_id":"","pricing_plan_id":"free"},{"bike_id":"d69ba6dc-2dec-4e25-8df8-ef312700fea2","system_id":"levelo_inurba_marseille","lat":43.24693,"lon":5.382096,"is_reserved":false,"is_disabled":false,"rental_uris":{"android":"levelo://app?vid=d69ba6dc-2dec-4e25-8df8-ef312700fea2","ios":"levelo://app?vid=d69ba6dc-2dec-4e25-8df8-ef312700fea2"},"vehicle_type_id":"4","last_reported":1680354426,"current_range_meters":0,"station_id":"ce4bhih2rcd13ifvqfr0","pricing_plan_id":"free"},{"bike_id":"0c847443-e129-4151-913e-731533f43c8b","system_id":"levelo_inurba_marseille","lat":43.24693,"lon":5.382096,"is_reserved":false,"is_disabled":false,"rental_uris":{"android":"levelo://app?vid=0c847443-e129-4151-913e-731533f43c8b","ios":"levelo://app?vid=0c847443-e129-4151-913e-731533f43c8b"},"vehicle_type_id":"4","last_reported":1680354426,"current_range_meters":18800,"station_id":"ce4bhih2rcd13ifvqfr0","pricing_plan_id":"free"},{"bike_id":"81efff83-a74e-4544-9db9-d4e6a0d15137","system_id":"levelo_inurba_marseille","lat":43.243884,"lon":5.370736,"is_reserved":false,"is_disabled":false,"rental_uris":{"android":"levelo://app?vid=81efff83-a74e-4544-9db9-d4e6a0d15137","ios":"levelo://app?vid=81efff83-a74e-4544-9db9-d4e6a0d15137"},"vehicle_type_id":"4","last_reported":1680354426,"current_range_meters":0,"station_id":"ce4bhhh2rcd13ifvqfk0","pricing_plan_id":"free"},{"bike_id":"6e41313e-eacb-4f52-87f6-46c364f834cc","system_id":"levelo_inurba_marseille","lat":43.243884,"lon":5.370736,"is_reserved":false,"is_disabled":false,"rental_uris":{"android":"levelo://app?vid=6e41313e-eacb-4f52-87f6-46c364f834cc","ios":"levelo://app?vid=6e41313e-eacb-4f52-87f6-46c364f834cc"},"vehicle_type_id":"4","last_reported":1680354426,"current_range_meters":400,"station_id":"ce4bhhh2rcd13ifvqfk0","pricing_plan_id":"free"},{"bike_id":"f020e493-0032-4d3b-86af-90be6abb8b39","system_id":"levelo_inurba_marseille","lat":43.243884,"lon":5.370736,"is_reserved":false,"is_disabled":false,"rental_uris":{"android":"levelo://app?vid=f020e493-0032-4d3b-86af-90be6abb8b39","ios":"levelo://app?vid=f020e493-0032-4d3b-86af-90be6abb8b39"},"vehicle_type_id":"4","last_reported":1680354426,"current_range_meters":0,"station_id":"ce4bhhh2rcd13ifvqfk0","pricing_plan_id":"free"},{"bike_id":"f4d5f2ae-555c-4236-8842-7bdc9f4ecbea","system_id":"levelo_inurba_marseille","lat":43.243884,"lon":5.370736,"is_reserved":false,"is_disabled":false,"rental_uris":{"android":"levelo://app?vid=f4d5f2ae-555c-4236-8842-7bdc9f4ecbea","ios":"levelo://app?vid=f4d5f2ae-555c-4236-8842-7bdc9f4ecbea"},"vehicle_type_id":"4","last_reported":1680354426,"current_range_meters":4800,"station_id":"ce4bhhh2rcd13ifvqfk0","pricing_plan_id":"free"},{"bike_id":"75c001ad-a123-4a4f-83e4-765c2f874048","system_id":"levelo_inurba_marseille","lat":43.24928,"lon":5.4089,"is_reserved":false,"is_disabled":false,"rental_uris":{"android":"levelo://app?vid=75c001ad-a123-4a4f-83e4-765c2f874048","ios":"levelo://app?vid=75c001ad-a123-4a4f-83e4-765c2f874048"},"vehicle_type_id":"4","last_reported":1680354426,"current_range_meters":3200,"station_id":"","pricing_plan_id":"free"},{"bike_id":"879d2598-6798-4291-b661-bb11fecfc4f5","system_id":"levelo_inurba_marseille","lat":43.24104,"lon":5.37699,"is_reserved":false,"is_disabled":false,"rental_uris":{"android":"levelo://app?vid=879d2598-6798-4291-b661-bb11fecfc4f5","ios":"levelo://app?vid=879d2598-6798-4291-b661-bb11fecfc4f5"},"vehicle_type_id":"4","last_reported":1680354426,"current_range_meters":17600,"station_id":"","pricing_plan_id":"free"},{"bike_id":"59c330a7-1aed-46fe-b3bc-442d2d9813a2","system_id":"levelo_inurba_marseille","lat":43.239588,"lon":5.366238,"is_reserved":false,"is_disabled":false,"rental_uris":{"android":"levelo://app?vid=59c330a7-1aed-46fe-b3bc-442d2d9813a2","ios":"levelo://app?vid=59c330a7-1aed-46fe-b3bc-442d2d9813a2"},"vehicle_type_id":"4","last_reported":1680354426,"current_range_meters":20800,"station_id":"ce4bhi12rcd13ifvqfp0","pricing_plan_id":"free"},{"bike_id":"f5de0ca2-d463-439c-a900-f5d08f8cb1aa","system_id":"levelo_inurba_marseille","lat":43.239588,"lon":5.366238,"is_reserved":false,"is_disabled":false,"rental_uris":{"android":"levelo://app?vid=f5de0ca2-d463-439c-a900-f5d08f8cb1aa","ios":"levelo://app?vid=f5de0ca2-d463-439c-a900-f5d08f8cb1aa"},"vehicle_type_id":"4","last_reported":1680354426,"current_range_meters":16000,"station_id":"ce4bhi12rcd13ifvqfp0","pricing_plan_id":"free"},{"bike_id":"ec052b4e-94ac-4aee-8a0c-902a3abfb435","system_id":"levelo_inurba_marseille","lat":43.231919,"lon":5.355532,"is_reserved":false,"is_disabled":false,"rental_uris":{"android":"levelo://app?vid=ec052b4e-94ac-4aee-8a0c-902a3abfb435","ios":"levelo://app?vid=ec052b4e-94ac-4aee-8a0c-902a3abfb435"},"vehicle_type_id":"4","last_reported":1680354426,"current_range_meters":27200,"station_id":"ce4bhu92rcd13ifvqi70","pricing_plan_id":"free"},{"bike_id":"e86ffb0d-a4ee-426e-9c40-84992d3d9a2d","system_id":"levelo_inurba_marseille","lat":43.231923,"lon":5.355545,"is_reserved":false,"is_disabled":false,"rental_uris":{"android":"levelo://app?vid=e86ffb0d-a4ee-426e-9c40-84992d3d9a2d","ios":"levelo://app?vid=e86ffb0d-a4ee-426e-9c40-84992d3d9a2d"},"vehicle_type_id":"4","last_reported":1680354426,"current_range_meters":31600,"station_id":"ce4bhu92rcd13ifvqi70","pricing_plan_id":"free"},{"bike_id":"38eef2a8-8fe2-4530-b782-3f56e8d868e9","system_id":"levelo_inurba_marseille","lat":43.231923,"lon":5.355545,"is_reserved":false,"is_disabled":false,"rental_uris":{"android":"levelo://app?vid=38eef2a8-8fe2-4530-b782-3f56e8d868e9","ios":"levelo://app?vid=38eef2a8-8fe2-4530-b782-3f56e8d868e9"},"vehicle_type_id":"4","last_reported":1680354426,"current_range_meters":31600,"station_id":"ce4bhu92rcd13ifvqi70","pricing_plan_id":"free"},{"bike_id":"26cb9df1-b825-4f44-ba46-b37e9b443ead","system_id":"levelo_inurba_marseille","lat":43.231919,"lon":5.355532,"is_reserved":false,"is_disabled":false,"rental_uris":{"android":"levelo://app?vid=26cb9df1-b825-4f44-ba46-b37e9b443ead","ios":"levelo://app?vid=26cb9df1-b825-4f44-ba46-b37e9b443ead"},"vehicle_type_id":"4","last_reported":1680354426,"current_range_meters":31200,"station_id":"ce4bhu92rcd13ifvqi70","pricing_plan_id":"free"},{"bike_id":"183f0f3b-bb0e-4d49-ad49-765389cd8ca0","system_id":"levelo_inurba_marseille","lat":43.231919,"lon":5.355532,"is_reserved":false,"is_disabled":false,"rental_uris":{"android":"levelo://app?vid=183f0f3b-bb0e-4d49-ad49-765389cd8ca0","ios":"levelo://app?vid=183f0f3b-bb0e-4d49-ad49-765389cd8ca0"},"vehicle_type_id":"4","last_reported":1680354426,"current_range_meters":31200,"station_id":"ce4bhu92rcd13ifvqi70","pricing_plan_id":"free"},{"bike_id":"b68f3a95-c76e-47fc-b063-ae4db6ba6b0c","system_id":"levelo_inurba_marseille","lat":43.231923,"lon":5.355545,"is_reserved":false,"is_disabled":false,"rental_uris":{"android":"levelo://app?vid=b68f3a95-c76e-47fc-b063-ae4db6ba6b0c","ios":"levelo://app?vid=b68f3a95-c76e-47fc-b063-ae4db6ba6b0c"},"vehicle_type_id":"4","last_reported":1680354426,"current_range_meters":25600,"station_id":"ce4bhu92rcd13ifvqi70","pricing_plan_id":"free"},{"bike_id":"4eec6b24-f4ae-4fd3-abc5-4c15b901f206","system_id":"levelo_inurba_marseille","lat":43.231923,"lon":5.355545,"is_reserved":false,"is_disabled":false,"rental_uris":{"android":"levelo://app?vid=4eec6b24-f4ae-4fd3-abc5-4c15b901f206","ios":"levelo://app?vid=4eec6b24-f4ae-4fd3-abc5-4c15b901f206"},"vehicle_type_id":"4","last_reported":1680354426,"current_range_meters":26400,"station_id":"ce4bhu92rcd13ifvqi70","pricing_plan_id":"free"}]}}