{"last_updated":1701155205,"ttl":30,"version":"2.2","data":{"bikes":[{"bike_id":"f8d58aa0-3f0c-4296-a02b-072a1496d17d","system_id":"levelo_inurba_marseille","lat":43.313391,"lon":5.36706,"is_reserved":false,"is_disabled":false,"rental_uris":{"android":"levelo://app?vid=f8d58aa0-3f0c-4296-a02b-072a1496d17d","ios":"levelo://app?vid=f8d58aa0-3f0c-4296-a02b-072a1496d17d"},"vehicle_type_id":"4","last_reported":1701155205,"current_range_meters":26400,"station_id":"ce4bgr92rcd13ifvqc6g","pricing_plan_id":"free"},{"bike_id":"d5088845-0dcf-46e8-a079-16f2b372fb9d","system_id":"levelo_inurba_marseille","lat":43.309076,"lon":5.368465,"is_reserved":false,"is_disabled":false,"rental_uris":{"android":"levelo://app?vid=d5088845-0dcf-46e8-a079-16f2b372fb9d","ios":"levelo://app?vid=d5088845-0dcf-46e8-a079-16f2b372fb9d"},"vehicle_type_id":"4","last_reported":1701155205,"current_range_meters":31200,"station_id":"ce4bgn92rcd13ifvqbvg","pricing_plan_id":"free"},{"bike_id":"6245e4e5-888b-47ad-8f8a-65e07ca884d6","system_id":"levelo_inurba_marseille","lat":43.309076,"lon":5.368465,"is_reserved":false,"is_disabled":false,"rental_uris":{"android":"levelo://app?vid=6245e4e5-888b-47ad-8f8a-65e07ca884d6","ios":"levelo://app?vid=6245e4e5-888b-47ad-8f8a-65e07ca884d6"},"vehicle_type_id":"4","last_reported":1701155205,"current_range_meters":25200,"station_id":"ce4bgn92rcd13ifvqbvg","pricing_plan_id":"free"},{"bike_id":"a4d2e083-bf3c-4852-bce2-d53ff4535105","system_id":"levelo_inurba_marseille","lat":43.309076,"lon":5.368465,"is_reserved":false,"is_disabled":false,"rental_uris":{"android":"levelo://app?vid=a4d2e083-bf3c-4852-bce2-d53ff4535105","ios":"levelo://app?vid=a4d2e083-bf3c-4852-bce2-d53ff4535105"},"vehicle_type_id":"4","last_reported":1701155205,"current_range_meters":28800,"station_id":"ce4bgn92rcd13ifvqbvg","pricing_plan_id":"free"},{"bike_id":"1e229442-5b41-46f4-bdb2-b73f40f49714","system_id":"levelo_inurba_marseille","lat":43.309076,"lon":5.368465,"is_reserved":false,"is_disabled":false,"rental_uris":{"android":"levelo://app?vid=1e229442-5b41-46f4-bdb2-b73f40f49714","ios":"levelo://app?vid=1e229442-5b41-46f4-bdb2-b73f40f49714"},"vehicle_type_id":"4","last_reported":1701155205,"current_range_meters":22000,"station_id":"ce4bgn92rcd13ifvqbvg","pricing_plan_id":"free"},{"bike_id":"5126b0aa-d865-4589-8d50-8d8600ba8782","system_id":"levelo_inurba_marseille","lat":43.308396,"lon":5.368721,"is_reserved":false,"is_disabled":false,"rental_uris":{"android":"levelo://app?vid=5126b0aa-d865-4589-8d50-8d8600ba8782","ios":"levelo://app?vid=5126b0aa-d865-4589-8d50-8d8600ba8782"},"vehicle_type_id":"4","last_reported":1701155205,"current_range_meters":23200,"station_id":"","pricing_plan_id":"free"},{"bike_id":"ae7edcbd-0972-4151-9a1a-11909f0b89f4","system_id":"levelo_inurba_marseille","lat":43.304274,"lon":5.388873,"is_reserved":false,"is_disabled":false,"rental_uris":{"android":"levelo://app?vid=ae7edcbd-0972-4151-9a1a-11909f0b89f4","ios":"levelo://app?vid=ae7edcbd-0972-4151-9a1a-11909f0b89f4"},"vehicle_type_id":"4","last_reported":1701155205,"current_range_meters":22400,"station_id":"ce4bgk12rcd13ifvqbi0","pricing_plan_id":"free"},{"bike_id":"d679338d-b4d7-485b-a74d-dffa24849d67","system_id":"levelo_inurba_marseille","lat":43.309039,"lon":5.371797,"is_reserved":false,"is_disabled":false,"rental_uris":{"android":"levelo://app?vid=d679338d-b4d7-485b-a74d-dffa24849d67","ios":"levelo://app?vid=d679338d-b4d7-485b-a74d-dffa24849d67"},"vehicle_type_id":"4","last_reported":1701155205,"current_range_meters":26400,"station_id":"ce4bguh2rcd13ifvqckg","pricing_plan_id":"free"},{"bike_id":"fa4c08a8-f79b-4419-8791-02374ece74c7","system_id":"levelo_inurba_marseille","lat":43.316879,"lon":5.37281,"is_reserved":false,"is_disabled":false,"rental_uris":{"android":"levelo://app?vid=fa4c08a8-f79b-4419-8791-02374ece74c7","ios":"levelo://app?vid=fa4c08a8-f79b-4419-8791-02374ece74c7"},"vehicle_type_id":"4","last_reported":1701155205,"current_range_meters":2400,"station_id":"","pricing_plan_id":"free"},{"bike_id":"226310b2-638c-444c-a15f-247c16471cee","system_id":"levelo_inurba_marseille","lat":43.319211,"lon":5.368056,"is_reserved":false,"is_disabled":false,"rental_uris":{"android":"levelo://app?vid=226310b2-638c-444c-a15f-247c16471cee","ios":"levelo://app?vid=226310b2-638c-444c-a15f-247c16471cee"},"vehicle_type_id":"4","last_reported":1701155205,"current_range_meters":14000,"station_id":"","pricing_plan_id":"free"},{"bike_id":"fd1406c3-927d-4af3-aa34-98a6b649f68f","system_id":"levelo_inurba_marseille","lat":43.305368,"lon":5.367343,"is_reserved":false,"is_disabled":false,"rental_uris":{"android":"levelo://app?vid=fd1406c3-927d-4af3-aa34-98a6b649f68f","ios":"levelo://app?vid=fd1406c3-927d-4af3-aa34-98a6b649f68f"},"vehicle_type_id":"4","last_reported":1701155205,"current_range_meters":18000,"station_id":"ce4bgrp2rcd13ifvqc9g","pricing_plan_id":"free"},{"bike_id":"b56647a9-60b7-4d75-b2e5-e85adb4a049f","system_id":"levelo_inurba_marseille","lat":43.30541,"lon":5.36707,"is_reserved":false,"is_disabled":false,"rental_uris":{"android":"levelo://app?vid=b56647a9-60b7-4d75-b2e5-e85adb4a049f","ios":"levelo://app?vid=b56647a9-60b7-4d75-b2e5-e85adb4a049f"},"vehicle_type_id":"4","last_reported":1701155205,"current_range_meters":25600,"station_id":"ce4bgrp2rcd13ifvqc9g","pricing_plan_id":"free"},{"bike_id":"4ac5da17-bd9f-4bbe-9086-71afdac70812","system_id":"levelo_inurba_marseille","lat":43.30543,"lon":5.36551,"is_reserved":false,"is_disabled":false,"rental_uris":{"android":"levelo://app?vid=4ac5da17-bd9f-4bbe-9086-71afdac70812","ios":"levelo://app?vid=4ac5da17-bd9f-4bbe-9086-71afdac70812"},"vehicle_type_id":"4","last_reported":1701155205,"current_range_meters":6800,"station_id":"ce4bgs12rcd13ifvqcag","pricing_plan_id":"free"},{"bike_id":"c19a36b5-2ad9-4b30-8f54-083bb37a7558","system_id":"levelo_inurba_marseille","lat":43.305368,"lon":5.367343,"is_reserved":false,"is_disabled":false,"rental_uris":{"android":"levelo://app?vid=c19a36b5-2ad9-4b30-8f54-083bb37a7558","ios":"levelo://app?vid=c19a36b5-2ad9-4b30-8f54-083bb37a7558"},"vehicle_type_id":"4","last_reported":1701155205,"current_range_meters":26800,"station_id":"ce4bgrp2rcd13ifvqc9g","pricing_plan_id":"free"},{"bike_id":"5c9463a5-2782-4fcf-8d96-d75c818857e8","system_id":"levelo_inurba_marseille","lat":43.305989,"lon":5.37225,"is_reserved":false,"is_disabled":false,"rental_uris":{"android":"levelo://app?vid=5c9463a5-2782-4fcf-8d96-d75c818857e8","ios":"levelo://app?vid=5c9463a5-2782-4fcf-8d96-d75c818857e8"},"vehicle_type_id":"4","last_reported":1701155205,"current_range_meters":30400,"station_id":"ce4bgqh2rcd13ifvqc4g","pricing_plan_id":"free"},{"bike_id":"54910044-36b1-4be9-8093-0dd3dedf2a33","system_id":"levelo_inurba_marseille","lat":43.308146,"lon":5.376609,"is_reserved":false,"is_disabled":false,"rental_uris":{"android":"levelo://app?vid=54910044-36b1-4be9-8093-0dd3dedf2a33","ios":"levelo://app?vid=54910044-36b1-4be9-8093-0dd3dedf2a33"},"vehicle_type_id":"4","last_reported":1701155205,"current_range_meters":29600,"station_id":"ce4bgv92rcd13ifvqcq0","pricing_plan_id":"free"},{"bike_id":"f427a2c3-6e4a-446b-ae2f-9be8aa7f4122","system_id":"levelo_inurba_marseille","lat":43.31719,"lon":5.376813,"is_reserved":false,"is_disabled":false,"rental_uris":{"android":"levelo://app?vid=f427a2c3-6e4a-446b-ae2f-9be8aa7f4122","ios":"levelo://app?vid=f427a2c3-6e4a-446b-ae2f-9be8aa7f4122"},"vehicle_type_id":"4","last_reported":1701155205,"current_range_meters":14400,"station_id":"ce4bgth2rcd13ifvqch0","pricing_plan_id":"free"},{"bike_id":"e913f328-1e31-4c22-bd87-f809ea246de4","system_id":"levelo_inurba_marseille","lat":43.317168,"lon":5.376883,"is_reserved":false,"is_disabled":false,"rental_uris":{"android":"levelo://app?vid=e913f328-1e31-4c22-bd87-f809ea246de4","ios":"levelo://app?vid=e913f328-1e31-4c22-bd87-f809ea246de4"},"vehicle_type_id":"4","last_reported":1701155205,"current_range_meters":16800,"station_id":"ce4bgth2rcd13ifvqch0","pricing_plan_id":"free"},{"bike_id":"1b9cd228-6173-4700-89fd-53d46a539441","system_id":"levelo_inurba_marseille","lat":43.303046,"lon":5.368981,"is_reserved":false,"is_disabled":false,"rental_uris":{"android":"levelo://app?vid=1b9cd228-6173-4700-89fd-53d46a539441","ios":"levelo://app?vid=1b9cd228-6173-4700-89fd-53d46a539441"},"vehicle_type_id":"4","last_reported":1701155205,"current_range_meters":23600,"station_id":"ce4bgqh2rcd13ifvqc5g","pricing_plan_id":"free"},{"bike_id":"daa57e47-984f-41b4-b289-5ab5f84eb11b","system_id":"levelo_inurba_marseille","lat":43.303046,"lon":5.368981,"is_reserved":false,"is_disabled":false,"rental_uris":{"android":"levelo://app?vid=daa57e47-984f-41b4-b289-5ab5f84eb11b","ios":"levelo://app?vid=daa57e47-984f-41b4-b289-5ab5f84eb11b"},"vehicle_type_id":"4","last_reported":1701155205,"current_range_meters":14400,"station_id":"ce4bgqh2rcd13ifvqc5g","pricing_plan_id":"free"},{"bike_id":"66873603-16bb-4152-8abe-e64c3cbef0c8","system_id":"levelo_inurba_marseille","lat":43.303046,"lon":5.368981,"is_reserved":false,"is_disabled":false,"rental_uris":{"android":"levelo://app?vid=66873603-16bb-4152-8abe-e64c3cbef0c8","ios":"levelo://app?vid=66873603-16bb-4152-8abe-e64c3cbef0c8"},"vehicle_type_id":"4","last_reported":1701155205,"current_range_meters":11600,"station_id":"ce4bgqh2rcd13ifvqc5g","pricing_plan_id":"free"},{"bike_id":"95ca77a4-fd2f-4872-a083-3279c45e9242","system_id":"levelo_inurba_marseille","lat":43.30304,"lon":5.368987,"is_reserved":false,"is_disabled":false,"rental_uris":{"android":"levelo://app?vid=95ca77a4-fd2f-4872-a083-3279c45e9242","ios":"levelo://app?vid=95ca77a4-fd2f-4872-a083-3279c45e9242"},"vehicle_type_id":"4","last_reported":1701155205,"current_range_meters":3600,"station_id":"ce4bgqh2rcd13ifvqc5g","pricing_plan_id":"free"},{"bike_id":"38bec5b5-e8da-4e20-9a33-5a43cb7f9473","system_id":"levelo_inurba_marseille","lat":43.31531,"lon":5.38031,"is_reserved":false,"is_disabled":false,"rental_uris":{"android":"levelo://app?vid=38bec5b5-e8da-4e20-9a33-5a43cb7f9473","ios":"levelo://app?vid=38bec5b5-e8da-4e20-9a33-5a43cb7f9473"},"vehicle_type_id":"4","last_reported":1701155205,"current_range_meters":12400,"station_id":"ce4bhsp2rcd13ifvqi50","pricing_plan_id":"free"},{"bike_id":"d991b68b-e04e-4cc6-a514-df3e1f79038c","system_id":"levelo_inurba_marseille","lat":43.31531,"lon":5.38037,"is_reserved":false,"is_disabled":false,"rental_uris":{"android":"levelo://app?vid=d991b68b-e04e-4cc6-a514-df3e1f79038c","ios":"levelo://app?vid=d991b68b-e04e-4cc6-a514-df3e1f79038c"},"vehicle_type_id":"4","last_reported":1701155205,"current_range_meters":31200,"station_id":"ce4bhsp2rcd13ifvqi50","pricing_plan_id":"free"},{"bike_id":"41e2b32e-8225-4300-94aa-f2dd7043693a","system_id":"levelo_inurba_marseille","lat":43.308012,"lon":5.381511,"is_reserved":false,"is_disabled":false,"rental_uris":{"android":"levelo://app?vid=41e2b32e-8225-4300-94aa-f2dd7043693a","ios":"levelo://app?vid=41e2b32e-8225-4300-94aa-f2dd7043693a"},"vehicle_type_id":"4","last_reported":1701155205,"current_range_meters":14400,"station_id":"ce4bgt12rcd13ifvqce0","pricing_plan_id":"free"},{"bike_id":"74a709a8-9875-4832-9bdc-17a622ee341a","system_id":"levelo_inurba_marseille","lat":43.308012,"lon":5.381511,"is_reserved":false,"is_disabled":false,"rental_uris":{"android":"levelo://app?vid=74a709a8-9875-4832-9bdc-17a622ee341a","ios":"levelo://app?vid=74a709a8-9875-4832-9bdc-17a622ee341a"},"vehicle_type_id":"4","last_reported":1701155205,"current_range_meters":0,"station_id":"ce4bgt12rcd13ifvqce0","pricing_plan_id":"free"},{"bike_id":"79e0e7ae-f1bf-4c7a-bead-fe6035606aea","system_id":"levelo_inurba_marseille","lat":43.304606,"lon":5.379026,"is_reserved":false,"is_disabled":false,"rental_uris":{"android":"levelo://app?vid=79e0e7ae-f1bf-4c7a-bead-fe6035606aea","ios":"levelo://app?vid=79e0e7ae-f1bf-4c7a-bead-fe6035606aea"},"vehicle_type_id":"4","last_reported":1701155205,"current_range_meters":31200,"station_id":"ce4bgup2rcd13ifvqcn0","pricing_plan_id":"free"},{"bike_id":"66b87a65-4c69-4787-adc3-3179cd2daeb1","system_id":"levelo_inurba_marseille","lat":43.304606,"lon":5.379026,"is_reserved":false,"is_disabled":false,"rental_uris":{"android":"levelo://app?vid=66b87a65-4c69-4787-adc3-3179cd2daeb1","ios":"levelo://app?vid=66b87a65-4c69-4787-adc3-3179cd2daeb1"},"vehicle_type_id":"4","last_reported":1701155205,"current_range_meters":31600,"station_id":"ce4bgup2rcd13ifvqcn0","pricing_plan_id":"free"},{"bike_id":"af410a20-db25-4959-9ff1-fcd8f869b1c9","system_id":"levelo_inurba_marseille","lat":43.30304,"lon":5.368987,"is_reserved":false,"is_disabled":false,"rental_uris":{"android":"levelo://app?vid=af410a20-db25-4959-9ff1-fcd8f869b1c9","ios":"levelo://app?vid=af410a20-db25-4959-9ff1-fcd8f869b1c9"},"vehicle_type_id":"4","last_reported":1701155205,"current_range_meters":30400,"station_id":"ce4bgqh2rcd13ifvqc5g","pricing_plan_id":"free"},{"bike_id":"301569ed-6a58-48a2-a037-8279ff8f709c","system_id":"levelo_inurba_marseille","lat":43.304606,"lon":5.379026,"is_reserved":false,"is_disabled":false,"rental_uris":{"android":"levelo://app?vid=301569ed-6a58-48a2-a037-8279ff8f709c","ios":"levelo://app?vid=301569ed-6a58-48a2-a037-8279ff8f709c"},"vehicle_type_id":"4","last_reported":1701155205,"current_range_meters":26400,"station_id":"ce4bgup2rcd13ifvqcn0","pricing_plan_id":"free"},{"bike_id":"2a445ab3-411f-4769-9eb6-49598323802c","system_id":"levelo_inurba_marseille","lat":43.304606,"lon":5.379026,"is_reserved":false,"is_disabled":false,"rental_uris":{"android":"levelo://app?vid=2a445ab3-411f-4769-9eb6-49598323802c","ios":"levelo://app?vid=2a445ab3-411f-4769-9eb6-49598323802c"},"vehicle_type_id":"4","last_reported":1701155205,"current_range_meters":18800,"station_id":"ce4bgup2rcd13ifvqcn0","pricing_plan_id":"free"},{"bike_id":"c4b75177-026d-4b01-a50c-76e979c20e4b","system_id":"levelo_inurba_marseille","lat":43.304606,"lon":5.379026,"is_reserved":false,"is_disabled":false,"rental_uris":{"android":"levelo://app?vid=c4b75177-026d-4b01-a50c-76e979c20e4b","ios":"levelo://app?vid=c4b75177-026d-4b01-a50c-76e979c20e4b"},"vehicle_type_id":"4","last_reported":1701155205,"current_range_meters":27600,"station_id":"ce4bgup2rcd13ifvqcn0","pricing_plan_id":"free"},{"bike_id":"539601a8-a307-40d6-9ec6-bb72aa9b59cc","system_id":"levelo_inurba_marseille","lat":43.304606,"lon":5.379026,"is_reserved":false,"is_disabled":false,"rental_uris":{"android":"levelo://app?vid=539601a8-a307-40d6-9ec6-bb72aa9b59cc","ios":"levelo://app?vid=539601a8-a307-40d6-9ec6-bb72aa9b59cc"},"vehicle_type_id":"4","last_reported":1701155205,"current_range_meters":8800,"station_id":"ce4bgup2rcd13ifvqcn0","pricing_plan_id":"free"},{"bike_id":"9cd78f5b-6592-480f-bd51-01705fce3aec","system_id":"levelo_inurba_marseille","lat":43.30461,"lon":5.37904,"is_reserved":false,"is_disabled":false,"rental_uris":{"android":"levelo://app?vid=9cd78f5b-6592-480f-bd51-01705fce3aec","ios":"levelo://app?vid=9cd78f5b-6592-480f-bd51-01705fce3aec"},"vehicle_type_id":"4","last_reported":1701155205,"current_range_meters":30000,"station_id":"ce4bgup2rcd13ifvqcn0","pricing_plan_id":"free"},{"bike_id":"528e344a-ca54-475d-af14-03dc43293e0d","system_id":"levelo_inurba_marseille","lat":43.304606,"lon":5.379026,"is_reserved":false,"is_disabled":false,"rental_uris":{"android":"levelo://app?vid=528e344a-ca54-475d-af14-03dc43293e0d","ios":"levelo://app?vid=528e344a-ca54-475d-af14-03dc43293e0d"},"vehicle_type_id":"4","last_reported":1701155205,"current_range_meters":31200,"station_id":"ce4bgup2rcd13ifvqcn0","pricing_plan_id":"free"},{"bike_id":"f14add9f-c363-4123-a31e-fabb5c218170","system_id":"levelo_inurba_marseille","lat":43.304606,"lon":5.379026,"is_reserved":false,"is_disabled":false,"rental_uris":{"android":"levelo://app?vid=f14add9f-c363-4123-a31e-fabb5c218170","ios":"levelo://app?vid=f14add9f-c363-4123-a31e-fabb5c218170"},"vehicle_type_id":"4","last_reported":1701155205,"current_range_meters":30000,"station_id":"ce4bgup2rcd13ifvqcn0","pricing_plan_id":"free"},{"bike_id":"a085f6da-803d-4ff8-b575-cf5be3ef9164","system_id":"levelo_inurba_marseille","lat":43.304606,"lon":5.379026,"is_reserved":false,"is_disabled":false,"rental_uris":{"android":"levelo://app?vid=a085f6da-803d-4ff8-b575-cf5be3ef9164","ios":"levelo://app?vid=a085f6da-803d-4ff8-b575-cf5be3ef9164"},"vehicle_type_id":"4","last_reported":1701155205,"current_range_meters":31200,"station_id":"ce4bgup2rcd13ifvqcn0","pricing_plan_id":"free"},{"bike_id":"c54d3679-9368-48aa-bfda-28222368e8a3","system_id":"levelo_inurba_marseille","lat":43.304606,"lon":5.379026,"is_reserved":false,"is_disabled":false,"rental_uris":{"android":"levelo://app?vid=c54d3679-9368-48aa-bfda-28222368e8a3","ios":"levelo://app?vid=c54d3679-9368-48aa-bfda-28222368e8a3"},"vehicle_type_id":"4","last_reported":1701155205,"current_range_meters":24800,"station_id":"ce4bgup2rcd13ifvqcn0","pricing_plan_id":"free"},{"bike_id":"156d797e-4ba7-4c9b-b150-652b94b555ed","system_id":"levelo_inurba_marseille","lat":43.304606,"lon":5.379026,"is_reserved":false,"is_disabled":false,"rental_uris":{"android":"levelo://app?vid=156d797e-4ba7-4c9b-b150-652b94b555ed","ios":"levelo://app?vid=156d797e-4ba7-4c9b-b150-652b94b555ed"},"vehicle_type_id":"4","last_reported":1701155205,"current_range_meters":24800,"station_id":"ce4bgup2rcd13ifvqcn0","pricing_plan_id":"free"},{"bike_id":"a2034ec1-90a7-4af1-9412-b32b353e59a7","system_id":"levelo_inurba_marseille","lat":43.304606,"lon":5.379026,"is_reserved":false,"is_disabled":false,"rental_uris":{"android":"levelo://app?vid=a2034ec1-90a7-4af1-9412-b32b353e59a7","ios":"levelo://app?vid=a2034ec1-90a7-4af1-9412-b32b353e59a7"},"vehicle_type_id":"4","last_reported":1701155205,"current_range_meters":30400,"station_id":"ce4bgup2rcd13ifvqcn0","pricing_plan_id":"free"},{"bike_id":"5a54c97d-04ce-4762-9d67-26d60b14a45c","system_id":"levelo_inurba_marseille","lat":43.304606,"lon":5.379026,"is_reserved":false,"is_disabled":false,"rental_uris":{"android":"levelo://app?vid=5a54c97d-04ce-4762-9d67-26d60b14a45c","ios":"levelo://app?vid=5a54c97d-04ce-4762-9d67-26d60b14a45c"},"vehicle_type_id":"4","last_reported":1701155205,"current_range_meters":16400,"station_id":"ce4bgup2rcd13ifvqcn0","pricing_plan_id":"free"},{"bike_id":"7f8ae380-b7f8-407d-b620-fcea0731bd80","system_id":"levelo_inurba_marseille","lat":43.304606,"lon":5.379026,"is_reserved":false,"is_disabled":false,"rental_uris":{"android":"levelo://app?vid=7f8ae380-b7f8-407d-b620-fcea0731bd80","ios":"levelo://app?vid=7f8ae380-b7f8-407d-b620-fcea0731bd80"},"vehicle_type_id":"4","last_reported":1701155205,"current_range_meters":28800,"station_id":"ce4bgup2rcd13ifvqcn0","pricing_plan_id":"free"},{"bike_id":"153eed4c-3d9d-411a-82ff-dbc65f8cbdfa","system_id":"levelo_inurba_marseille","lat":43.301429,"lon":5.37413,"is_reserved":false,"is_disabled":false,"rental_uris":{"android":"levelo://app?vid=153eed4c-3d9d-411a-82ff-dbc65f8cbdfa","ios":"levelo://app?vid=153eed4c-3d9d-411a-82ff-dbc65f8cbdfa"},"vehicle_type_id":"4","last_reported":1701155205,"current_range_meters":14400,"station_id":"ce4bgs92rcd13ifvqcc0","pricing_plan_id":"free"},{"bike_id":"e8592ed0-dc77-44db-bc6f-33b595a4ae21","system_id":"levelo_inurba_marseille","lat":43.301429,"lon":5.37413,"is_reserved":false,"is_disabled":false,"rental_uris":{"android":"levelo://app?vid=e8592ed0-dc77-44db-bc6f-33b595a4ae21","ios":"levelo://app?vid=e8592ed0-dc77-44db-bc6f-33b595a4ae21"},"vehicle_type_id":"4","last_reported":1701155205,"current_range_meters":14800,"station_id":"ce4bgs92rcd13ifvqcc0","pricing_plan_id":"free"},{"bike_id":"d3d5b3e8-a638-4302-a99c-ab688297cfc2","system_id":"levelo_inurba_marseille","lat":43.302784,"lon":5.377158,"is_reserved":false,"is_disabled":false,"rental_uris":{"android":"levelo://app?vid=d3d5b3e8-a638-4302-a99c-ab688297cfc2","ios":"levelo://app?vid=d3d5b3e8-a638-4302-a99c-ab688297cfc2"},"vehicle_type_id":"4","last_reported":1701155205,"current_range_meters":21600,"station_id":"ce4bguh2rcd13ifvqcj0","pricing_plan_id":"free"},{"bike_id":"4ad8db87-2e2d-4900-a804-a1bb931ba164","system_id":"levelo_inurba_marseille","lat":43.319935,"lon":5.381699,"is_reserved":false,"is_disabled":false,"rental_uris":{"android":"levelo://app?vid=4ad8db87-2e2d-4900-a804-a1bb931ba164","ios":"levelo://app?vid=4ad8db87-2e2d-4900-a804-a1bb931ba164"},"vehicle_type_id":"4","last_reported":1701155205,"current_range_meters":0,"station_id":"ce4bhr12rcd13ifvqhpg","pricing_plan_id":"free"},{"bike_id":"9ede9dd5-37ec-4d70-8295-3f249a46fa8a","system_id":"levelo_inurba_marseille","lat":43.30511,"lon":5.381386,"is_reserved":false,"is_disabled":false,"rental_uris":{"android":"levelo://app?vid=9ede9dd5-37ec-4d70-8295-3f249a46fa8a","ios":"levelo://app?vid=9ede9dd5-37ec-4d70-8295-3f249a46fa8a"},"vehicle_type_id":"4","last_reported":1701155205,"current_range_meters":400,"station_id":"","pricing_plan_id":"free"},{"bike_id":"e17a7de5-ebd4-42fc-8860-6e511f77b829","system_id":"levelo_inurba_marseille","lat":43.325191,"lon":5.361705,"is_reserved":false,"is_disabled":false,"rental_uris":{"android":"levelo://app?vid=e17a7de5-ebd4-42fc-8860-6e511f77b829","ios":"levelo://app?vid=e17a7de5-ebd4-42fc-8860-6e511f77b829"},"vehicle_type_id":"4","last_reported":1701155205,"current_range_meters":26800,"station_id":"","pricing_plan_id":"free"},{"bike_id":"1699d72e-febd-41e4-a80d-7b017d13b482","system_id":"levelo_inurba_marseille","lat":43.3136,"lon":5.38495,"is_reserved":false,"is_disabled":false,"rental_uris":{"android":"levelo://app?vid=1699d72e-febd-41e4-a80d-7b017d13b482","ios":"levelo://app?vid=1699d72e-febd-41e4-a80d-7b017d13b482"},"vehicle_type_id":"4","last_reported":1701155205,"current_range_meters":28000,"station_id":"ce4bgt92rcd13ifvqcf0","pricing_plan_id":"free"},{"bike_id":"0923cdaf-f0e8-4595-b3f7-ac27770c3f74","system_id":"levelo_inurba_marseille","lat":43.29854,"lon":5.3628,"is_reserved":false,"is_disabled":false,"rental_uris":{"android":"levelo://app?vid=0923cdaf-f0e8-4595-b3f7-ac27770c3f74","ios":"levelo://app?vid=0923cdaf-f0e8-4595-b3f7-ac27770c3f74"},"vehicle_type_id":"4","last_reported":1701155205,"current_range_meters":5200,"station_id":"ce4bgpp2rcd13ifvqc3g","pricing_plan_id":"free"},{"bike_id":"c7df1867-5ef2-4bd2-90a0-64d8ea411019","system_id":"levelo_inurba_marseille","lat":43.29846,"lon":5.36283,"is_reserved":false,"is_disabled":false,"rental_uris":{"android":"levelo://app?vid=c7df1867-5ef2-4bd2-90a0-64d8ea411019","ios":"levelo://app?vid=c7df1867-5ef2-4bd2-90a0-64d8ea411019"},"vehicle_type_id":"4","last_reported":1701155205,"current_range_meters":30800,"station_id":"ce4bgpp2rcd13ifvqc3g","pricing_plan_id":"free"},{"bike_id":"1df95087-0211-4401-99cb-f533fc6d5326","system_id":"levelo_inurba_marseille","lat":43.328371,"lon":5.366909,"is_reserved":false,"is_disabled":false,"rental_uris":{"android":"levelo://app?vid=1df95087-0211-4401-99cb-f533fc6d5326","ios":"levelo://app?vid=1df95087-0211-4401-99cb-f533fc6d5326"},"vehicle_type_id":"4","last_reported":1701155205,"current_range_meters":18400,"station_id":"ce4bhs92rcd13ifvqi0g","pricing_plan_id":"free"},{"bike_id":"1476dd46-d5e5-4606-98d3-6491573e859a","system_id":"levelo_inurba_marseille","lat":43.32827,"lon":5.3668,"is_reserved":false,"is_disabled":false,"rental_uris":{"android":"levelo://app?vid=1476dd46-d5e5-4606-98d3-6491573e859a","ios":"levelo://app?vid=1476dd46-d5e5-4606-98d3-6491573e859a"},"vehicle_type_id":"4","last_reported":1701155205,"current_range_meters":24800,"station_id":"ce4bhs92rcd13ifvqi0g","pricing_plan_id":"free"},{"bike_id":"38ddfac9-a45c-4eb0-81dd-bc7cce00f205","system_id":"levelo_inurba_marseille","lat":43.328371,"lon":5.366909,"is_reserved":false,"is_disabled":false,"rental_uris":{"android":"levelo://app?vid=38ddfac9-a45c-4eb0-81dd-bc7cce00f205","ios":"levelo://app?vid=38ddfac9-a45c-4eb0-81dd-bc7cce00f205"},"vehicle_type_id":"4","last_reported":1701155205,"current_range_meters":21600,"station_id":"ce4bhs92rcd13ifvqi0g","pricing_plan_id":"free"},{"bike_id":"08eb3e06-cd45-4ef0-98c6-77c45dd3b275","system_id":"levelo_inurba_marseille","lat":43.299028,"lon":5.381509,"is_reserved":false,"is_disabled":false,"rental_uris":{"android":"levelo://app?vid=08eb3e06-cd45-4ef0-98c6-77c45dd3b275","ios":"levelo://app?vid=08eb3e06-cd45-4ef0-98c6-77c45dd3b275"},"vehicle_type_id":"4","last_reported":1701155205,"current_range_meters":23200,"station_id":"ce4bgj12rcd13ifvqbc0","pricing_plan_id":"free"},{"bike_id":"79e2ebcf-4f2f-4122-9bd1-97a641a10795","system_id":"levelo_inurba_marseille","lat":43.299028,"lon":5.381509,"is_reserved":false,"is_disabled":false,"rental_uris":{"android":"levelo://app?vid=79e2ebcf-4f2f-4122-9bd1-97a641a10795","ios":"levelo://app?vid=79e2ebcf-4f2f-4122-9bd1-97a641a10795"},"vehicle_type_id":"4","last_reported":1701155205,"current_range_meters":28400,"station_id":"ce4bgj12rcd13ifvqbc0","pricing_plan_id":"free"},{"bike_id":"72f4e47a-fcb1-40ca-b86c-1aafb349a028","system_id":"levelo_inurba_marseille","lat":43.298945,"lon":5.38135,"is_reserved":false,"is_disabled":false,"rental_uris":{"android":"levelo://app?vid=72f4e47a-fcb1-40ca-b86c-1aafb349a028","ios":"levelo://app?vid=72f4e47a-fcb1-40ca-b86c-1aafb349a028"},"vehicle_type_id":"4","last_reported":1701155205,"current_range_meters":29600,"station_id":"ce4bgj12rcd13ifvqbc0","pricing_plan_id":"free"},{"bike_id":"27027e66-f418-4291-b300-b594b0c21f96","system_id":"levelo_inurba_marseille","lat":43.296921,"lon":5.376579,"is_reserved":false,"is_disabled":false,"rental_uris":{"android":"levelo://app?vid=27027e66-f418-4291-b300-b594b0c21f96","ios":"levelo://app?vid=27027e66-f418-4291-b300-b594b0c21f96"},"vehicle_type_id":"4","last_reported":1701155205,"current_range_meters":20800,"station_id":"ce4bgkh2rcd13ifvqbl0","pricing_plan_id":"free"},{"bike_id":"b0426195-506e-4608-97ef-a1aab0118992","system_id":"levelo_inurba_marseille","lat":43.317557,"lon":5.390173,"is_reserved":false,"is_disabled":false,"rental_uris":{"android":"levelo://app?vid=b0426195-506e-4608-97ef-a1aab0118992","ios":"levelo://app?vid=b0426195-506e-4608-97ef-a1aab0118992"},"vehicle_type_id":"4","last_reported":1701155205,"current_range_meters":27200,"station_id":"ce4bhqp2rcd13ifvqhng","pricing_plan_id":"free"},{"bike_id":"1b060f82-1b03-4d4a-ab3e-fff13d120cab","system_id":"levelo_inurba_marseille","lat":43.298037,"lon":5.381066,"is_reserved":false,"is_disabled":false,"rental_uris":{"android":"levelo://app?vid=1b060f82-1b03-4d4a-ab3e-fff13d120cab","ios":"levelo://app?vid=1b060f82-1b03-4d4a-ab3e-fff13d120cab"},"vehicle_type_id":"4","last_reported":1701155205,"current_range_meters":27600,"station_id":"ce4bgip2rcd13ifvqbb0","pricing_plan_id":"free"},{"bike_id":"cfae15ce-5535-47ae-a66c-41b2c59501d7","system_id":"levelo_inurba_marseille","lat":43.298037,"lon":5.381066,"is_reserved":false,"is_disabled":false,"rental_uris":{"android":"levelo://app?vid=cfae15ce-5535-47ae-a66c-41b2c59501d7","ios":"levelo://app?vid=cfae15ce-5535-47ae-a66c-41b2c59501d7"},"vehicle_type_id":"4","last_reported":1701155205,"current_range_meters":27200,"station_id":"ce4bgip2rcd13ifvqbb0","pricing_plan_id":"free"},{"bike_id":"475c7f92-956b-4104-a22f-5671ed9120b4","system_id":"levelo_inurba_marseille","lat":43.298037,"lon":5.381066,"is_reserved":false,"is_disabled":false,"rental_uris":{"android":"levelo://app?vid=475c7f92-956b-4104-a22f-5671ed9120b4","ios":"levelo://app?vid=475c7f92-956b-4104-a22f-5671ed9120b4"},"vehicle_type_id":"4","last_reported":1701155205,"current_range_meters":22400,"station_id":"ce4bgip2rcd13ifvqbb0","pricing_plan_id":"free"},{"bike_id":"639314f3-04b5-4002-bb1c-8d92b3c12f94","system_id":"levelo_inurba_marseille","lat":43.298037,"lon":5.381066,"is_reserved":false,"is_disabled":false,"rental_uris":{"android":"levelo://app?vid=639314f3-04b5-4002-bb1c-8d92b3c12f94","ios":"levelo://app?vid=639314f3-04b5-4002-bb1c-8d92b3c12f94"},"vehicle_type_id":"4","last_reported":1701155205,"current_range_meters":30400,"station_id":"ce4bgip2rcd13ifvqbb0","pricing_plan_id":"free"},{"bike_id":"96608136-c4ad-48de-99ee-1df51899c283","system_id":"levelo_inurba_marseille","lat":43.299707,"lon":5.384859,"is_reserved":false,"is_disabled":false,"rental_uris":{"android":"levelo://app?vid=96608136-c4ad-48de-99ee-1df51899c283","ios":"levelo://app?vid=96608136-c4ad-48de-99ee-1df51899c283"},"vehicle_type_id":"4","last_reported":1701155205,"current_range_meters":22800,"station_id":"ce4bgj92rcd13ifvqbd0","pricing_plan_id":"free"},{"bike_id":"94c90597-2c51-40e1-805f-4863dc04672e","system_id":"levelo_inurba_marseille","lat":43.299724,"lon":5.384848,"is_reserved":false,"is_disabled":false,"rental_uris":{"android":"levelo://app?vid=94c90597-2c51-40e1-805f-4863dc04672e","ios":"levelo://app?vid=94c90597-2c51-40e1-805f-4863dc04672e"},"vehicle_type_id":"4","last_reported":1701155205,"current_range_meters":22400,"station_id":"ce4bgj92rcd13ifvqbd0","pricing_plan_id":"free"},{"bike_id":"353fe501-30d6-4f73-8959-3f7016455c45","system_id":"levelo_inurba_marseille","lat":43.299724,"lon":5.384848,"is_reserved":false,"is_disabled":false,"rental_uris":{"android":"levelo://app?vid=353fe501-30d6-4f73-8959-3f7016455c45","ios":"levelo://app?vid=353fe501-30d6-4f73-8959-3f7016455c45"},"vehicle_type_id":"4","last_reported":1701155205,"current_range_meters":0,"station_id":"ce4bgj92rcd13ifvqbd0","pricing_plan_id":"free"},{"bike_id":"9303a67e-6eeb-4cc6-8fcd-20718751d82c","system_id":"levelo_inurba_marseille","lat":43.299724,"lon":5.384848,"is_reserved":false,"is_disabled":false,"rental_uris":{"android":"levelo://app?vid=9303a67e-6eeb-4cc6-8fcd-20718751d82c","ios":"levelo://app?vid=9303a67e-6eeb-4cc6-8fcd-20718751d82c"},"vehicle_type_id":"4","last_reported":1701155205,"current_range_meters":6800,"station_id":"ce4bgj92rcd13ifvqbd0","pricing_plan_id":"free"},{"bike_id":"46783992-fff5-4f0e-b86e-d745a4d05b95","system_id":"levelo_inurba_marseille","lat":43.29601,"lon":5.381084,"is_reserved":false,"is_disabled":false,"rental_uris":{"android":"levelo://app?vid=46783992-fff5-4f0e-b86e-d745a4d05b95","ios":"levelo://app?vid=46783992-fff5-4f0e-b86e-d745a4d05b95"},"vehicle_type_id":"4","last_reported":1701155205,"current_range_meters":10800,"station_id":"ce4bgl12rcd13ifvqbo0","pricing_plan_id":"free"},{"bike_id":"50a66f64-4058-4ffa-8be6-4c6775b0b06e","system_id":"levelo_inurba_marseille","lat":43.29602,"lon":5.381084,"is_reserved":false,"is_disabled":false,"rental_uris":{"android":"levelo://app?vid=50a66f64-4058-4ffa-8be6-4c6775b0b06e","ios":"levelo://app?vid=50a66f64-4058-4ffa-8be6-4c6775b0b06e"},"vehicle_type_id":"4","last_reported":1701155205,"current_range_meters":28000,"station_id":"ce4bgl12rcd13ifvqbo0","pricing_plan_id":"free"},{"bike_id":"60dc644a-c48d-444b-9243-053f9804d478","system_id":"levelo_inurba_marseille","lat":43.2928,"lon":5.36852,"is_reserved":false,"is_disabled":false,"rental_uris":{"android":"levelo://app?vid=60dc644a-c48d-444b-9243-053f9804d478","ios":"levelo://app?vid=60dc644a-c48d-444b-9243-053f9804d478"},"vehicle_type_id":"4","last_reported":1701155205,"current_range_meters":21600,"station_id":"ce4bhbp2rcd13ifvqesg","pricing_plan_id":"free"},{"bike_id":"69261a5d-bfa0-4bc1-a6be-4a63061ee83c","system_id":"levelo_inurba_marseille","lat":43.305994,"lon":5.393687,"is_reserved":false,"is_disabled":false,"rental_uris":{"android":"levelo://app?vid=69261a5d-bfa0-4bc1-a6be-4a63061ee83c","ios":"levelo://app?vid=69261a5d-bfa0-4bc1-a6be-4a63061ee83c"},"vehicle_type_id":"4","last_reported":1701155205,"current_range_meters":29600,"station_id":"ce4bh0p2rcd13ifvqd80","pricing_plan_id":"free"},{"bike_id":"f37ddf67-7754-4a9c-bc8a-7ce9cb47cf4c","system_id":"levelo_inurba_marseille","lat":43.305994,"lon":5.393687,"is_reserved":false,"is_disabled":false,"rental_uris":{"android":"levelo://app?vid=f37ddf67-7754-4a9c-bc8a-7ce9cb47cf4c","ios":"levelo://app?vid=f37ddf67-7754-4a9c-bc8a-7ce9cb47cf4c"},"vehicle_type_id":"4","last_reported":1701155205,"current_range_meters":24000,"station_id":"ce4bh0p2rcd13ifvqd80","pricing_plan_id":"free"},{"bike_id":"141347ed-d3a1-48bb-9ea0-35c4b899cbec","system_id":"levelo_inurba_marseille","lat":43.305994,"lon":5.393687,"is_reserved":false,"is_disabled":false,"rental_uris":{"android":"levelo://app?vid=141347ed-d3a1-48bb-9ea0-35c4b899cbec","ios":"levelo://app?vid=141347ed-d3a1-48bb-9ea0-35c4b899cbec"},"vehicle_type_id":"4","last_reported":1701155205,"current_range_meters":20400,"station_id":"ce4bh0p2rcd13ifvqd80","pricing_plan_id":"free"},{"bike_id":"a00d9759-5301-4443-844c-3ba425aec4a9","system_id":"levelo_inurba_marseille","lat":43.305994,"lon":5.393687,"is_reserved":false,"is_disabled":false,"rental_uris":{"android":"levelo://app?vid=a00d9759-5301-4443-844c-3ba425aec4a9","ios":"levelo://app?vid=a00d9759-5301-4443-844c-3ba425aec4a9"},"vehicle_type_id":"4","last_reported":1701155205,"current_range_meters":30400,"station_id":"ce4bh0p2rcd13ifvqd80","pricing_plan_id":"free"},{"bike_id":"e1ce17e4-cf4d-49d8-ae2d-c73085363822","system_id":"levelo_inurba_marseille","lat":43.303002,"lon":5.392142,"is_reserved":false,"is_disabled":false,"rental_uris":{"android":"levelo://app?vid=e1ce17e4-cf4d-49d8-ae2d-c73085363822","ios":"levelo://app?vid=e1ce17e4-cf4d-49d8-ae2d-c73085363822"},"vehicle_type_id":"4","last_reported":1701155205,"current_range_meters":1600,"station_id":"ce4bgkh2rcd13ifvqbk0","pricing_plan_id":"free"},{"bike_id":"fd8006cf-5e78-450a-9566-f7cc60c05118","system_id":"levelo_inurba_marseille","lat":43.2936,"lon":5.37835,"is_reserved":false,"is_disabled":false,"rental_uris":{"android":"levelo://app?vid=fd8006cf-5e78-450a-9566-f7cc60c05118","ios":"levelo://app?vid=fd8006cf-5e78-450a-9566-f7cc60c05118"},"vehicle_type_id":"4","last_reported":1701155205,"current_range_meters":25200,"station_id":"ce4bgjh2rcd13ifvqbf0","pricing_plan_id":"free"},{"bike_id":"31b2d363-fae4-48aa-8d24-023de14cd566","system_id":"levelo_inurba_marseille","lat":43.2936,"lon":5.37835,"is_reserved":false,"is_disabled":false,"rental_uris":{"android":"levelo://app?vid=31b2d363-fae4-48aa-8d24-023de14cd566","ios":"levelo://app?vid=31b2d363-fae4-48aa-8d24-023de14cd566"},"vehicle_type_id":"4","last_reported":1701155205,"current_range_meters":11200,"station_id":"ce4bgjh2rcd13ifvqbf0","pricing_plan_id":"free"},{"bike_id":"bc84fef7-f609-4d95-ac3b-d3bc9a854575","system_id":"levelo_inurba_marseille","lat":43.309047,"lon":5.396551,"is_reserved":false,"is_disabled":false,"rental_uris":{"android":"levelo://app?vid=bc84fef7-f609-4d95-ac3b-d3bc9a854575","ios":"levelo://app?vid=bc84fef7-f609-4d95-ac3b-d3bc9a854575"},"vehicle_type_id":"4","last_reported":1701155205,"current_range_meters":20800,"station_id":"ce4bh012rcd13ifvqcv0","pricing_plan_id":"free"},{"bike_id":"b7cb2d8e-026d-4d78-9cd0-0c4b8d8ef2e9","system_id":"levelo_inurba_marseille","lat":43.309047,"lon":5.396551,"is_reserved":false,"is_disabled":false,"rental_uris":{"android":"levelo://app?vid=b7cb2d8e-026d-4d78-9cd0-0c4b8d8ef2e9","ios":"levelo://app?vid=b7cb2d8e-026d-4d78-9cd0-0c4b8d8ef2e9"},"vehicle_type_id":"4","last_reported":1701155205,"current_range_meters":26800,"station_id":"ce4bh012rcd13ifvqcv0","pricing_plan_id":"free"},{"bike_id":"ebf72309-771d-41c8-bc8b-9a2c1229d961","system_id":"levelo_inurba_marseille","lat":43.309047,"lon":5.396551,"is_reserved":false,"is_disabled":false,"rental_uris":{"android":"levelo://app?vid=ebf72309-771d-41c8-bc8b-9a2c1229d961","ios":"levelo://app?vid=ebf72309-771d-41c8-bc8b-9a2c1229d961"},"vehicle_type_id":"4","last_reported":1701155205,"current_range_meters":17600,"station_id":"ce4bh012rcd13ifvqcv0","pricing_plan_id":"free"},{"bike_id":"0538fbfc-fae6-46c9-8c37-44a81ef8a742","system_id":"levelo_inurba_marseille","lat":43.31328,"lon":5.396948,"is_reserved":false,"is_disabled":false,"rental_uris":{"android":"levelo://app?vid=0538fbfc-fae6-46c9-8c37-44a81ef8a742","ios":"levelo://app?vid=0538fbfc-fae6-46c9-8c37-44a81ef8a742"},"vehicle_type_id":"4","last_reported":1701155205,"current_range_meters":31200,"station_id":"ce4bgvp2rcd13ifvqcu0","pricing_plan_id":"free"},{"bike_id":"5f4722c8-d77d-4322-abd8-eb15bef7a4e2","system_id":"levelo_inurba_marseille","lat":43.308902,"lon":5.396504,"is_reserved":false,"is_disabled":false,"rental_uris":{"android":"levelo://app?vid=5f4722c8-d77d-4322-abd8-eb15bef7a4e2","ios":"levelo://app?vid=5f4722c8-d77d-4322-abd8-eb15bef7a4e2"},"vehicle_type_id":"4","last_reported":1701155205,"current_range_meters":3600,"station_id":"ce4bh012rcd13ifvqcv0","pricing_plan_id":"free"},{"bike_id":"d1c84171-8571-4d22-b230-1d7455a5b9fc","system_id":"levelo_inurba_marseille","lat":43.308899,"lon":5.39651,"is_reserved":false,"is_disabled":false,"rental_uris":{"android":"levelo://app?vid=d1c84171-8571-4d22-b230-1d7455a5b9fc","ios":"levelo://app?vid=d1c84171-8571-4d22-b230-1d7455a5b9fc"},"vehicle_type_id":"4","last_reported":1701155205,"current_range_meters":31200,"station_id":"","pricing_plan_id":"free"},{"bike_id":"51105476-6964-47e4-bfcc-c66ab6053daf","system_id":"levelo_inurba_marseille","lat":43.308918,"lon":5.396659,"is_reserved":false,"is_disabled":false,"rental_uris":{"android":"levelo://app?vid=51105476-6964-47e4-bfcc-c66ab6053daf","ios":"levelo://app?vid=51105476-6964-47e4-bfcc-c66ab6053daf"},"vehicle_type_id":"4","last_reported":1701155205,"current_range_meters":29200,"station_id":"ce4bh012rcd13ifvqcv0","pricing_plan_id":"free"},{"bike_id":"9dfc1be4-40e0-479e-8a23-39504815e756","system_id":"levelo_inurba_marseille","lat":43.332721,"lon":5.379611,"is_reserved":false,"is_disabled":false,"rental_uris":{"android":"levelo://app?vid=9dfc1be4-40e0-479e-8a23-39504815e756","ios":"levelo://app?vid=9dfc1be4-40e0-479e-8a23-39504815e756"},"vehicle_type_id":"4","last_reported":1701155205,"current_range_meters":30400,"station_id":"","pricing_plan_id":"free"},{"bike_id":"8cb4bc30-bf5d-4f95-bfcd-36d726e91a6a","system_id":"levelo_inurba_marseille","lat":43.290779,"lon":5.371482,"is_reserved":false,"is_disabled":false,"rental_uris":{"android":"levelo://app?vid=8cb4bc30-bf5d-4f95-bfcd-36d726e91a6a","ios":"levelo://app?vid=8cb4bc30-bf5d-4f95-bfcd-36d726e91a6a"},"vehicle_type_id":"4","last_reported":1701155205,"current_range_meters":24000,"station_id":"ce4bh5p2rcd13ifvqe4g","pricing_plan_id":"free"},{"bike_id":"a20c05a4-a5fe-4876-92fa-bac3107ee18a","system_id":"levelo_inurba_marseille","lat":43.302008,"lon":5.394694,"is_reserved":false,"is_disabled":false,"rental_uris":{"android":"levelo://app?vid=a20c05a4-a5fe-4876-92fa-bac3107ee18a","ios":"levelo://app?vid=a20c05a4-a5fe-4876-92fa-bac3107ee18a"},"vehicle_type_id":"4","last_reported":1701155205,"current_range_meters":16800,"station_id":"ce4bh0p2rcd13ifvqd70","pricing_plan_id":"free"},{"bike_id":"f169bc48-16c1-462a-8e64-f85bcf432643","system_id":"levelo_inurba_marseille","lat":43.302008,"lon":5.394694,"is_reserved":false,"is_disabled":false,"rental_uris":{"android":"levelo://app?vid=f169bc48-16c1-462a-8e64-f85bcf432643","ios":"levelo://app?vid=f169bc48-16c1-462a-8e64-f85bcf432643"},"vehicle_type_id":"4","last_reported":1701155205,"current_range_meters":25200,"station_id":"ce4bh0p2rcd13ifvqd70","pricing_plan_id":"free"},{"bike_id":"f4ed2b72-fc82-477f-9bc6-f8c6b0f46a86","system_id":"levelo_inurba_marseille","lat":43.302008,"lon":5.394694,"is_reserved":false,"is_disabled":false,"rental_uris":{"android":"levelo://app?vid=f4ed2b72-fc82-477f-9bc6-f8c6b0f46a86","ios":"levelo://app?vid=f4ed2b72-fc82-477f-9bc6-f8c6b0f46a86"},"vehicle_type_id":"4","last_reported":1701155205,"current_range_meters":17200,"station_id":"ce4bh0p2rcd13ifvqd70","pricing_plan_id":"free"},{"bike_id":"c7c5c644-19ac-4a5a-9b9e-3bdd97fb20b0","system_id":"levelo_inurba_marseille","lat":43.294205,"lon":5.386173,"is_reserved":false,"is_disabled":false,"rental_uris":{"android":"levelo://app?vid=c7c5c644-19ac-4a5a-9b9e-3bdd97fb20b0","ios":"levelo://app?vid=c7c5c644-19ac-4a5a-9b9e-3bdd97fb20b0"},"vehicle_type_id":"4","last_reported":1701155205,"current_range_meters":24400,"station_id":"","pricing_plan_id":"free"},{"bike_id":"53b815b9-7709-4bba-a8fc-ec0ea7a78842","system_id":"levelo_inurba_marseille","lat":43.290327,"lon":5.375711,"is_reserved":false,"is_disabled":false,"rental_uris":{"android":"levelo://app?vid=53b815b9-7709-4bba-a8fc-ec0ea7a78842","ios":"levelo://app?vid=53b815b9-7709-4bba-a8fc-ec0ea7a78842"},"vehicle_type_id":"4","last_reported":1701155205,"current_range_meters":18800,"station_id":"ce4bh692rcd13ifvqe90","pricing_plan_id":"free"},{"bike_id":"f07509ae-d287-4bfb-88a5-5189080d0348","system_id":"levelo_inurba_marseille","lat":43.289184,"lon":5.366408,"is_reserved":false,"is_disabled":false,"rental_uris":{"android":"levelo://app?vid=f07509ae-d287-4bfb-88a5-5189080d0348","ios":"levelo://app?vid=f07509ae-d287-4bfb-88a5-5189080d0348"},"vehicle_type_id":"4","last_reported":1701155205,"current_range_meters":9600,"station_id":"ce4bhap2rcd13ifvqek0","pricing_plan_id":"free"},{"bike_id":"581d5f3d-9312-41b7-a348-06695f535154","system_id":"levelo_inurba_marseille","lat":43.290104,"lon":5.356111,"is_reserved":false,"is_disabled":false,"rental_uris":{"android":"levelo://app?vid=581d5f3d-9312-41b7-a348-06695f535154","ios":"levelo://app?vid=581d5f3d-9312-41b7-a348-06695f535154"},"vehicle_type_id":"4","last_reported":1701155205,"current_range_meters":18800,"station_id":"ce4bhb92rcd13ifvqen0","pricing_plan_id":"free"},{"bike_id":"bce6eaa6-7ab5-4590-8f37-393fbc223cd2","system_id":"levelo_inurba_marseille","lat":43.330442,"lon":5.389148,"is_reserved":false,"is_disabled":false,"rental_uris":{"android":"levelo://app?vid=bce6eaa6-7ab5-4590-8f37-393fbc223cd2","ios":"levelo://app?vid=bce6eaa6-7ab5-4590-8f37-393fbc223cd2"},"vehicle_type_id":"4","last_reported":1701155205,"current_range_meters":0,"station_id":"ce4bhr92rcd13ifvqhrg","pricing_plan_id":"free"},{"bike_id":"83e60b27-e194-4fa0-8f98-f0295cc3d60c","system_id":"levelo_inurba_marseille","lat":43.295169,"lon":5.390426,"is_reserved":false,"is_disabled":false,"rental_uris":{"android":"levelo://app?vid=83e60b27-e194-4fa0-8f98-f0295cc3d60c","ios":"levelo://app?vid=83e60b27-e194-4fa0-8f98-f0295cc3d60c"},"vehicle_type_id":"4","last_reported":1701155205,"current_range_meters":26400,"station_id":"ce4bh3p2rcd13ifvqdp0","pricing_plan_id":"free"},{"bike_id":"c963dd9d-90b6-4d00-b959-a4a495180ad0","system_id":"levelo_inurba_marseille","lat":43.28856,"lon":5.358371,"is_reserved":false,"is_disabled":false,"rental_uris":{"android":"levelo://app?vid=c963dd9d-90b6-4d00-b959-a4a495180ad0","ios":"levelo://app?vid=c963dd9d-90b6-4d00-b959-a4a495180ad0"},"vehicle_type_id":"4","last_reported":1701155205,"current_range_meters":28800,"station_id":"ce4bhb12rcd13ifvqem0","pricing_plan_id":"free"},{"bike_id":"1affd046-af12-41fb-ade5-939f7e0100fb","system_id":"levelo_inurba_marseille","lat":43.312754,"lon":5.40165,"is_reserved":false,"is_disabled":false,"rental_uris":{"android":"levelo://app?vid=1affd046-af12-41fb-ade5-939f7e0100fb","ios":"levelo://app?vid=1affd046-af12-41fb-ade5-939f7e0100fb"},"vehicle_type_id":"4","last_reported":1701155205,"current_range_meters":29200,"station_id":"ce4bh092rcd13ifvqd30","pricing_plan_id":"free"},{"bike_id":"41b109b4-927f-403c-b382-751363ede7fd","system_id":"levelo_inurba_marseille","lat":43.309371,"lon":5.401449,"is_reserved":false,"is_disabled":false,"rental_uris":{"android":"levelo://app?vid=41b109b4-927f-403c-b382-751363ede7fd","ios":"levelo://app?vid=41b109b4-927f-403c-b382-751363ede7fd"},"vehicle_type_id":"4","last_reported":1701155205,"current_range_meters":3200,"station_id":"ce4bgvp2rcd13ifvqct0","pricing_plan_id":"free"},{"bike_id":"8eedcd96-3da3-497f-bd7d-f6acf32f3949","system_id":"levelo_inurba_marseille","lat":43.30122,"lon":5.39859,"is_reserved":false,"is_disabled":false,"rental_uris":{"android":"levelo://app?vid=8eedcd96-3da3-497f-bd7d-f6acf32f3949","ios":"levelo://app?vid=8eedcd96-3da3-497f-bd7d-f6acf32f3949"},"vehicle_type_id":"4","last_reported":1701155205,"current_range_meters":7600,"station_id":"ce4bh0h2rcd13ifvqd40","pricing_plan_id":"free"},{"bike_id":"cf3b36af-2c00-4833-a3dd-afc17ed25d2f","system_id":"levelo_inurba_marseille","lat":43.306277,"lon":5.40169,"is_reserved":false,"is_disabled":false,"rental_uris":{"android":"levelo://app?vid=cf3b36af-2c00-4833-a3dd-afc17ed25d2f","ios":"levelo://app?vid=cf3b36af-2c00-4833-a3dd-afc17ed25d2f"},"vehicle_type_id":"4","last_reported":1701155205,"current_range_meters":25200,"station_id":"","pricing_plan_id":"free"},{"bike_id":"5146305a-136a-43fa-a8ae-2f32834897e6","system_id":"levelo_inurba_marseille","lat":43.295159,"lon":5.394055,"is_reserved":false,"is_disabled":false,"rental_uris":{"android":"levelo://app?vid=5146305a-136a-43fa-a8ae-2f32834897e6","ios":"levelo://app?vid=5146305a-136a-43fa-a8ae-2f32834897e6"},"vehicle_type_id":"4","last_reported":1701155205,"current_range_meters":0,"station_id":"ce4bh292rcd13ifvqdf0","pricing_plan_id":"free"},{"bike_id":"2da0428e-ccf5-49c6-9617-f8ea3c506923","system_id":"levelo_inurba_marseille","lat":43.289254,"lon":5.384004,"is_reserved":false,"is_disabled":false,"rental_uris":{"android":"levelo://app?vid=2da0428e-ccf5-49c6-9617-f8ea3c506923","ios":"levelo://app?vid=2da0428e-ccf5-49c6-9617-f8ea3c506923"},"vehicle_type_id":"4","last_reported":1701155205,"current_range_meters":18000,"station_id":"ce4bh612rcd13ifvqe6g","pricing_plan_id":"free"},{"bike_id":"10889358-5e19-486c-b30c-593c612bde27","system_id":"levelo_inurba_marseille","lat":43.29195,"lon":5.393157,"is_reserved":false,"is_disabled":false,"rental_uris":{"android":"levelo://app?vid=10889358-5e19-486c-b30c-593c612bde27","ios":"levelo://app?vid=10889358-5e19-486c-b30c-593c612bde27"},"vehicle_type_id":"4","last_reported":1701155205,"current_range_meters":30000,"station_id":"ce4bh192rcd13ifvqdd0","pricing_plan_id":"free"},{"bike_id":"133469e0-6899-4538-83db-9fc816004c1a","system_id":"levelo_inurba_marseille","lat":43.312791,"lon":5.406463,"is_reserved":false,"is_disabled":false,"rental_uris":{"android":"levelo://app?vid=133469e0-6899-4538-83db-9fc816004c1a","ios":"levelo://app?vid=133469e0-6899-4538-83db-9fc816004c1a"},"vehicle_type_id":"4","last_reported":1701155205,"current_range_meters":20000,"station_id":"","pricing_plan_id":"free"},{"bike_id":"d1ab8e50-a018-4eb0-bd00-a08c6b4be35d","system_id":"levelo_inurba_marseille","lat":43.284538,"lon":5.358657,"is_reserved":false,"is_disabled":false,"rental_uris":{"android":"levelo://app?vid=d1ab8e50-a018-4eb0-bd00-a08c6b4be35d","ios":"levelo://app?vid=d1ab8e50-a018-4eb0-bd00-a08c6b4be35d"},"vehicle_type_id":"4","last_reported":1701155205,"current_range_meters":29600,"station_id":"ce4bhah2rcd13ifvqei0","pricing_plan_id":"free"},{"bike_id":"900f32d7-58fc-487e-81e9-dfbd939a0c73","system_id":"levelo_inurba_marseille","lat":43.294314,"lon":5.397498,"is_reserved":false,"is_disabled":false,"rental_uris":{"android":"levelo://app?vid=900f32d7-58fc-487e-81e9-dfbd939a0c73","ios":"levelo://app?vid=900f32d7-58fc-487e-81e9-dfbd939a0c73"},"vehicle_type_id":"4","last_reported":1701155205,"current_range_meters":29600,"station_id":"ce4bh3h2rcd13ifvqdo0","pricing_plan_id":"free"},{"bike_id":"5722570c-5f28-4103-85aa-19d598179a6b","system_id":"levelo_inurba_marseille","lat":43.285856,"lon":5.350771,"is_reserved":false,"is_disabled":false,"rental_uris":{"android":"levelo://app?vid=5722570c-5f28-4103-85aa-19d598179a6b","ios":"levelo://app?vid=5722570c-5f28-4103-85aa-19d598179a6b"},"vehicle_type_id":"4","last_reported":1701155205,"current_range_meters":19200,"station_id":"ce4bhch2rcd13ifvqeug","pricing_plan_id":"free"},{"bike_id":"b430f992-f7d3-48af-ae25-306455da45ce","system_id":"levelo_inurba_marseille","lat":43.285856,"lon":5.350771,"is_reserved":false,"is_disabled":false,"rental_uris":{"android":"levelo://app?vid=b430f992-f7d3-48af-ae25-306455da45ce","ios":"levelo://app?vid=b430f992-f7d3-48af-ae25-306455da45ce"},"vehicle_type_id":"4","last_reported":1701155205,"current_range_meters":25200,"station_id":"ce4bhch2rcd13ifvqeug","pricing_plan_id":"free"},{"bike_id":"2ef6a675-4e3f-4bc8-b5af-6dd2de7be8d7","system_id":"levelo_inurba_marseille","lat":43.2842,"lon":5.37519,"is_reserved":false,"is_disabled":false,"rental_uris":{"android":"levelo://app?vid=2ef6a675-4e3f-4bc8-b5af-6dd2de7be8d7","ios":"levelo://app?vid=2ef6a675-4e3f-4bc8-b5af-6dd2de7be8d7"},"vehicle_type_id":"4","last_reported":1701155205,"current_range_meters":0,"station_id":"","pricing_plan_id":"free"},{"bike_id":"3b69656a-3af5-4f1d-8b70-9a472ea46cf4","system_id":"levelo_inurba_marseille","lat":43.319179,"lon":5.407725,"is_reserved":false,"is_disabled":false,"rental_uris":{"android":"levelo://app?vid=3b69656a-3af5-4f1d-8b70-9a472ea46cf4","ios":"levelo://app?vid=3b69656a-3af5-4f1d-8b70-9a472ea46cf4"},"vehicle_type_id":"4","last_reported":1701155205,"current_range_meters":22000,"station_id":"ce4bhq12rcd13ifvqhig","pricing_plan_id":"free"},{"bike_id":"7cef53d5-1252-43c8-a85a-2a4f1d2ad280","system_id":"levelo_inurba_marseille","lat":43.28476,"lon":5.38412,"is_reserved":false,"is_disabled":false,"rental_uris":{"android":"levelo://app?vid=7cef53d5-1252-43c8-a85a-2a4f1d2ad280","ios":"levelo://app?vid=7cef53d5-1252-43c8-a85a-2a4f1d2ad280"},"vehicle_type_id":"4","last_reported":1701155205,"current_range_meters":24800,"station_id":"ce4bh512rcd13ifvqe3g","pricing_plan_id":"free"},{"bike_id":"3b3315a4-75b1-48de-997a-39e0a4d40d1b","system_id":"levelo_inurba_marseille","lat":43.28463,"lon":5.38412,"is_reserved":false,"is_disabled":false,"rental_uris":{"android":"levelo://app?vid=3b3315a4-75b1-48de-997a-39e0a4d40d1b","ios":"levelo://app?vid=3b3315a4-75b1-48de-997a-39e0a4d40d1b"},"vehicle_type_id":"4","last_reported":1701155205,"current_range_meters":22400,"station_id":"ce4bh512rcd13ifvqe3g","pricing_plan_id":"free"},{"bike_id":"a560eaa3-e923-4c31-a2e9-a12ced57efde","system_id":"levelo_inurba_marseille","lat":43.283494,"lon":5.380945,"is_reserved":false,"is_disabled":false,"rental_uris":{"android":"levelo://app?vid=a560eaa3-e923-4c31-a2e9-a12ced57efde","ios":"levelo://app?vid=a560eaa3-e923-4c31-a2e9-a12ced57efde"},"vehicle_type_id":"4","last_reported":1701155205,"current_range_meters":3200,"station_id":"ce4bh412rcd13ifvqdr0","pricing_plan_id":"free"},{"bike_id":"6a1ada98-aec2-4577-87d7-a0faab91b05f","system_id":"levelo_inurba_marseille","lat":43.283494,"lon":5.380945,"is_reserved":false,"is_disabled":false,"rental_uris":{"android":"levelo://app?vid=6a1ada98-aec2-4577-87d7-a0faab91b05f","ios":"levelo://app?vid=6a1ada98-aec2-4577-87d7-a0faab91b05f"},"vehicle_type_id":"4","last_reported":1701155205,"current_range_meters":3600,"station_id":"ce4bh412rcd13ifvqdr0","pricing_plan_id":"free"},{"bike_id":"cfd28ef4-092b-4684-ad6f-8e3a07319543","system_id":"levelo_inurba_marseille","lat":43.283498,"lon":5.380948,"is_reserved":false,"is_disabled":false,"rental_uris":{"android":"levelo://app?vid=cfd28ef4-092b-4684-ad6f-8e3a07319543","ios":"levelo://app?vid=cfd28ef4-092b-4684-ad6f-8e3a07319543"},"vehicle_type_id":"4","last_reported":1701155205,"current_range_meters":27600,"station_id":"ce4bh412rcd13ifvqdr0","pricing_plan_id":"free"},{"bike_id":"4c03ea8f-67cc-476d-b604-a90b4fc76e58","system_id":"levelo_inurba_marseille","lat":43.283494,"lon":5.380945,"is_reserved":false,"is_disabled":false,"rental_uris":{"android":"levelo://app?vid=4c03ea8f-67cc-476d-b604-a90b4fc76e58","ios":"levelo://app?vid=4c03ea8f-67cc-476d-b604-a90b4fc76e58"},"vehicle_type_id":"4","last_reported":1701155205,"current_range_meters":28400,"station_id":"ce4bh412rcd13ifvqdr0","pricing_plan_id":"free"},{"bike_id":"aaf9d28e-a0f0-4a56-94ea-ceb6942dc9ca","system_id":"levelo_inurba_marseille","lat":43.283498,"lon":5.380948,"is_reserved":false,"is_disabled":false,"rental_uris":{"android":"levelo://app?vid=aaf9d28e-a0f0-4a56-94ea-ceb6942dc9ca","ios":"levelo://app?vid=aaf9d28e-a0f0-4a56-94ea-ceb6942dc9ca"},"vehicle_type_id":"4","last_reported":1701155205,"current_range_meters":26400,"station_id":"ce4bh412rcd13ifvqdr0","pricing_plan_id":"free"},{"bike_id":"33ca5653-26dc-46c4-9cbd-555c600318b0","system_id":"levelo_inurba_marseille","lat":43.283498,"lon":5.380948,"is_reserved":false,"is_disabled":false,"rental_uris":{"android":"levelo://app?vid=33ca5653-26dc-46c4-9cbd-555c600318b0","ios":"levelo://app?vid=33ca5653-26dc-46c4-9cbd-555c600318b0"},"vehicle_type_id":"4","last_reported":1701155205,"current_range_meters":20400,"station_id":"ce4bh412rcd13ifvqdr0","pricing_plan_id":"free"},{"bike_id":"56af1279-2272-4a30-8962-92bd141d82ce","system_id":"levelo_inurba_marseille","lat":43.284219,"lon":5.3497,"is_reserved":false,"is_disabled":false,"rental_uris":{"android":"levelo://app?vid=56af1279-2272-4a30-8962-92bd141d82ce","ios":"levelo://app?vid=56af1279-2272-4a30-8962-92bd141d82ce"},"vehicle_type_id":"4","last_reported":1701155205,"current_range_meters":27200,"station_id":"ce4bhbh2rcd13ifvqepg","pricing_plan_id":"free"},{"bike_id":"aae1c903-3792-45c0-ad07-cbdf69a7401c","system_id":"levelo_inurba_marseille","lat":43.283502,"lon":5.386471,"is_reserved":false,"is_disabled":false,"rental_uris":{"android":"levelo://app?vid=aae1c903-3792-45c0-ad07-cbdf69a7401c","ios":"levelo://app?vid=aae1c903-3792-45c0-ad07-cbdf69a7401c"},"vehicle_type_id":"4","last_reported":1701155205,"current_range_meters":30000,"station_id":"ce4bh492rcd13ifvqdvg","pricing_plan_id":"free"},{"bike_id":"ff2c3c0f-ab48-4938-85fd-a68a75a182b0","system_id":"levelo_inurba_marseille","lat":43.283502,"lon":5.386471,"is_reserved":false,"is_disabled":false,"rental_uris":{"android":"levelo://app?vid=ff2c3c0f-ab48-4938-85fd-a68a75a182b0","ios":"levelo://app?vid=ff2c3c0f-ab48-4938-85fd-a68a75a182b0"},"vehicle_type_id":"4","last_reported":1701155205,"current_range_meters":30400,"station_id":"ce4bh492rcd13ifvqdvg","pricing_plan_id":"free"},{"bike_id":"26e34472-4416-407c-a244-dc17f9a05bdb","system_id":"levelo_inurba_marseille","lat":43.29041,"lon":5.399634,"is_reserved":false,"is_disabled":false,"rental_uris":{"android":"levelo://app?vid=26e34472-4416-407c-a244-dc17f9a05bdb","ios":"levelo://app?vid=26e34472-4416-407c-a244-dc17f9a05bdb"},"vehicle_type_id":"4","last_reported":1701155205,"current_range_meters":28000,"station_id":"ce4bh392rcd13ifvqdm0","pricing_plan_id":"free"},{"bike_id":"27bf4333-3b0e-4b6a-a957-e7261ae16b4a","system_id":"levelo_inurba_marseille","lat":43.290412,"lon":5.399633,"is_reserved":false,"is_disabled":false,"rental_uris":{"android":"levelo://app?vid=27bf4333-3b0e-4b6a-a957-e7261ae16b4a","ios":"levelo://app?vid=27bf4333-3b0e-4b6a-a957-e7261ae16b4a"},"vehicle_type_id":"4","last_reported":1701155205,"current_range_meters":26400,"station_id":"ce4bh392rcd13ifvqdm0","pricing_plan_id":"free"},{"bike_id":"1462f769-c427-4345-9c1a-6defef5390c5","system_id":"levelo_inurba_marseille","lat":43.29041,"lon":5.399634,"is_reserved":false,"is_disabled":false,"rental_uris":{"android":"levelo://app?vid=1462f769-c427-4345-9c1a-6defef5390c5","ios":"levelo://app?vid=1462f769-c427-4345-9c1a-6defef5390c5"},"vehicle_type_id":"4","last_reported":1701155205,"current_range_meters":24800,"station_id":"ce4bh392rcd13ifvqdm0","pricing_plan_id":"free"},{"bike_id":"119f051a-03cc-46de-9a06-893984bc59c6","system_id":"levelo_inurba_marseille","lat":43.290412,"lon":5.399633,"is_reserved":false,"is_disabled":false,"rental_uris":{"android":"levelo://app?vid=119f051a-03cc-46de-9a06-893984bc59c6","ios":"levelo://app?vid=119f051a-03cc-46de-9a06-893984bc59c6"},"vehicle_type_id":"4","last_reported":1701155205,"current_range_meters":15600,"station_id":"ce4bh392rcd13ifvqdm0","pricing_plan_id":"free"},{"bike_id":"7d18d8c2-3d50-4316-8060-5d1b0d443517","system_id":"levelo_inurba_marseille","lat":43.304188,"lon":5.412904,"is_reserved":false,"is_disabled":false,"rental_uris":{"android":"levelo://app?vid=7d18d8c2-3d50-4316-8060-5d1b0d443517","ios":"levelo://app?vid=7d18d8c2-3d50-4316-8060-5d1b0d443517"},"vehicle_type_id":"4","last_reported":1701155205,"current_range_meters":31200,"station_id":"ce4bhop2rcd13ifvqh8g","pricing_plan_id":"free"},{"bike_id":"76a8d1f0-5c30-4894-8e87-e80f3a0f2144","system_id":"levelo_inurba_marseille","lat":43.299577,"lon":5.413277,"is_reserved":false,"is_disabled":false,"rental_uris":{"android":"levelo://app?vid=76a8d1f0-5c30-4894-8e87-e80f3a0f2144","ios":"levelo://app?vid=76a8d1f0-5c30-4894-8e87-e80f3a0f2144"},"vehicle_type_id":"4","last_reported":1701155205,"current_range_meters":30800,"station_id":"ce4bhp12rcd13ifvqh9g","pricing_plan_id":"free"},{"bike_id":"6badd93c-3cba-492c-b226-3de23de726aa","system_id":"levelo_inurba_marseille","lat":43.299577,"lon":5.413277,"is_reserved":false,"is_disabled":false,"rental_uris":{"android":"levelo://app?vid=6badd93c-3cba-492c-b226-3de23de726aa","ios":"levelo://app?vid=6badd93c-3cba-492c-b226-3de23de726aa"},"vehicle_type_id":"4","last_reported":1701155205,"current_range_meters":25200,"station_id":"ce4bhp12rcd13ifvqh9g","pricing_plan_id":"free"},{"bike_id":"53f4b283-5254-44e8-a7d2-1a90b04dcfed","system_id":"levelo_inurba_marseille","lat":43.279742,"lon":5.38744,"is_reserved":false,"is_disabled":false,"rental_uris":{"android":"levelo://app?vid=53f4b283-5254-44e8-a7d2-1a90b04dcfed","ios":"levelo://app?vid=53f4b283-5254-44e8-a7d2-1a90b04dcfed"},"vehicle_type_id":"4","last_reported":1701155205,"current_range_meters":24000,"station_id":"ce4bhg12rcd13ifvqf80","pricing_plan_id":"free"},{"bike_id":"d6def3a9-ba68-4173-bbf7-08bb706f4e28","system_id":"levelo_inurba_marseille","lat":43.325233,"lon":5.414318,"is_reserved":false,"is_disabled":false,"rental_uris":{"android":"levelo://app?vid=d6def3a9-ba68-4173-bbf7-08bb706f4e28","ios":"levelo://app?vid=d6def3a9-ba68-4173-bbf7-08bb706f4e28"},"vehicle_type_id":"4","last_reported":1701155205,"current_range_meters":22800,"station_id":"ce4bhq12rcd13ifvqhhg","pricing_plan_id":"free"},{"bike_id":"db87e14a-af41-400e-809b-56c84897c032","system_id":"levelo_inurba_marseille","lat":43.325233,"lon":5.414318,"is_reserved":false,"is_disabled":false,"rental_uris":{"android":"levelo://app?vid=db87e14a-af41-400e-809b-56c84897c032","ios":"levelo://app?vid=db87e14a-af41-400e-809b-56c84897c032"},"vehicle_type_id":"4","last_reported":1701155205,"current_range_meters":28000,"station_id":"ce4bhq12rcd13ifvqhhg","pricing_plan_id":"free"},{"bike_id":"c48defdd-f24e-4958-99d0-7fbca263f2e0","system_id":"levelo_inurba_marseille","lat":43.325233,"lon":5.414318,"is_reserved":false,"is_disabled":false,"rental_uris":{"android":"levelo://app?vid=c48defdd-f24e-4958-99d0-7fbca263f2e0","ios":"levelo://app?vid=c48defdd-f24e-4958-99d0-7fbca263f2e0"},"vehicle_type_id":"4","last_reported":1701155205,"current_range_meters":28000,"station_id":"ce4bhq12rcd13ifvqhhg","pricing_plan_id":"free"},{"bike_id":"71352d82-521d-41fc-a37c-3937c32ed3f3","system_id":"levelo_inurba_marseille","lat":43.275625,"lon":5.384392,"is_reserved":false,"is_disabled":false,"rental_uris":{"android":"levelo://app?vid=71352d82-521d-41fc-a37c-3937c32ed3f3","ios":"levelo://app?vid=71352d82-521d-41fc-a37c-3937c32ed3f3"},"vehicle_type_id":"4","last_reported":1701155205,"current_range_meters":26800,"station_id":"ce4bhh92rcd13ifvqfi0","pricing_plan_id":"free"},{"bike_id":"40f6d377-528e-4074-806e-ae08fe5a0e27","system_id":"levelo_inurba_marseille","lat":43.273613,"lon":5.362705,"is_reserved":false,"is_disabled":false,"rental_uris":{"android":"levelo://app?vid=40f6d377-528e-4074-806e-ae08fe5a0e27","ios":"levelo://app?vid=40f6d377-528e-4074-806e-ae08fe5a0e27"},"vehicle_type_id":"4","last_reported":1701155205,"current_range_meters":19200,"station_id":"ce4bhbh2rcd13ifvqeo0","pricing_plan_id":"free"},{"bike_id":"b5ceb548-85f0-433f-a02d-26b317627d79","system_id":"levelo_inurba_marseille","lat":43.273609,"lon":5.362708,"is_reserved":false,"is_disabled":false,"rental_uris":{"android":"levelo://app?vid=b5ceb548-85f0-433f-a02d-26b317627d79","ios":"levelo://app?vid=b5ceb548-85f0-433f-a02d-26b317627d79"},"vehicle_type_id":"4","last_reported":1701155205,"current_range_meters":26800,"station_id":"ce4bhbh2rcd13ifvqeo0","pricing_plan_id":"free"},{"bike_id":"41530a71-8381-4376-b895-e60a64c70e0e","system_id":"levelo_inurba_marseille","lat":43.275625,"lon":5.384392,"is_reserved":false,"is_disabled":false,"rental_uris":{"android":"levelo://app?vid=41530a71-8381-4376-b895-e60a64c70e0e","ios":"levelo://app?vid=41530a71-8381-4376-b895-e60a64c70e0e"},"vehicle_type_id":"4","last_reported":1701155205,"current_range_meters":27200,"station_id":"ce4bhh92rcd13ifvqfi0","pricing_plan_id":"free"},{"bike_id":"43a0b753-fb47-4881-91d9-d29a0815f06e","system_id":"levelo_inurba_marseille","lat":43.273609,"lon":5.362708,"is_reserved":false,"is_disabled":false,"rental_uris":{"android":"levelo://app?vid=43a0b753-fb47-4881-91d9-d29a0815f06e","ios":"levelo://app?vid=43a0b753-fb47-4881-91d9-d29a0815f06e"},"vehicle_type_id":"4","last_reported":1701155205,"current_range_meters":30800,"station_id":"ce4bhbh2rcd13ifvqeo0","pricing_plan_id":"free"},{"bike_id":"3d955af7-b7d1-4f39-8a2f-4096fce89c61","system_id":"levelo_inurba_marseille","lat":43.273609,"lon":5.362708,"is_reserved":false,"is_disabled":false,"rental_uris":{"android":"levelo://app?vid=3d955af7-b7d1-4f39-8a2f-4096fce89c61","ios":"levelo://app?vid=3d955af7-b7d1-4f39-8a2f-4096fce89c61"},"vehicle_type_id":"4","last_reported":1701155205,"current_range_meters":27200,"station_id":"ce4bhbh2rcd13ifvqeo0","pricing_plan_id":"free"},{"bike_id":"219b5461-9f9a-4aa4-be35-10c2ad2361a0","system_id":"levelo_inurba_marseille","lat":43.33612,"lon":5.410321,"is_reserved":false,"is_disabled":false,"rental_uris":{"android":"levelo://app?vid=219b5461-9f9a-4aa4-be35-10c2ad2361a0","ios":"levelo://app?vid=219b5461-9f9a-4aa4-be35-10c2ad2361a0"},"vehicle_type_id":"4","last_reported":1701155205,"current_range_meters":18800,"station_id":"ce4bhqh2rcd13ifvqhmg","pricing_plan_id":"free"},{"bike_id":"6a219b80-c46b-4169-b339-69d47e9510b0","system_id":"levelo_inurba_marseille","lat":43.336148,"lon":5.410349,"is_reserved":false,"is_disabled":false,"rental_uris":{"android":"levelo://app?vid=6a219b80-c46b-4169-b339-69d47e9510b0","ios":"levelo://app?vid=6a219b80-c46b-4169-b339-69d47e9510b0"},"vehicle_type_id":"4","last_reported":1701155205,"current_range_meters":10800,"station_id":"ce4bhqh2rcd13ifvqhmg","pricing_plan_id":"free"},{"bike_id":"4fecae08-c127-44d4-9073-17aa066a8b4e","system_id":"levelo_inurba_marseille","lat":43.336134,"lon":5.410341,"is_reserved":false,"is_disabled":false,"rental_uris":{"android":"levelo://app?vid=4fecae08-c127-44d4-9073-17aa066a8b4e","ios":"levelo://app?vid=4fecae08-c127-44d4-9073-17aa066a8b4e"},"vehicle_type_id":"4","last_reported":1701155205,"current_range_meters":20000,"station_id":"ce4bhqh2rcd13ifvqhmg","pricing_plan_id":"free"},{"bike_id":"2705242a-ae84-45f8-a033-81a5bf37be66","system_id":"levelo_inurba_marseille","lat":43.336148,"lon":5.410349,"is_reserved":false,"is_disabled":false,"rental_uris":{"android":"levelo://app?vid=2705242a-ae84-45f8-a033-81a5bf37be66","ios":"levelo://app?vid=2705242a-ae84-45f8-a033-81a5bf37be66"},"vehicle_type_id":"4","last_reported":1701155205,"current_range_meters":24800,"station_id":"ce4bhqh2rcd13ifvqhmg","pricing_plan_id":"free"},{"bike_id":"33730007-76f4-4b8b-a157-faf5425be93c","system_id":"levelo_inurba_marseille","lat":43.33612,"lon":5.410321,"is_reserved":false,"is_disabled":false,"rental_uris":{"android":"levelo://app?vid=33730007-76f4-4b8b-a157-faf5425be93c","ios":"levelo://app?vid=33730007-76f4-4b8b-a157-faf5425be93c"},"vehicle_type_id":"4","last_reported":1701155205,"current_range_meters":17200,"station_id":"ce4bhqh2rcd13ifvqhmg","pricing_plan_id":"free"},{"bike_id":"93593165-b5ae-4f4c-a374-5c468bb933bb","system_id":"levelo_inurba_marseille","lat":43.276769,"lon":5.388787,"is_reserved":false,"is_disabled":false,"rental_uris":{"android":"levelo://app?vid=93593165-b5ae-4f4c-a374-5c468bb933bb","ios":"levelo://app?vid=93593165-b5ae-4f4c-a374-5c468bb933bb"},"vehicle_type_id":"4","last_reported":1701155205,"current_range_meters":23600,"station_id":"ce4bhi12rcd13ifvqfo0","pricing_plan_id":"free"},{"bike_id":"ed78f255-4390-4818-b0de-bcef70355ca7","system_id":"levelo_inurba_marseille","lat":43.276771,"lon":5.388799,"is_reserved":false,"is_disabled":false,"rental_uris":{"android":"levelo://app?vid=ed78f255-4390-4818-b0de-bcef70355ca7","ios":"levelo://app?vid=ed78f255-4390-4818-b0de-bcef70355ca7"},"vehicle_type_id":"4","last_reported":1701155205,"current_range_meters":28400,"station_id":"ce4bhi12rcd13ifvqfo0","pricing_plan_id":"free"},{"bike_id":"9a4c2581-5707-4a6b-9a16-ac7b312621ee","system_id":"levelo_inurba_marseille","lat":43.317121,"lon":5.423936,"is_reserved":false,"is_disabled":false,"rental_uris":{"android":"levelo://app?vid=9a4c2581-5707-4a6b-9a16-ac7b312621ee","ios":"levelo://app?vid=9a4c2581-5707-4a6b-9a16-ac7b312621ee"},"vehicle_type_id":"4","last_reported":1701155205,"current_range_meters":29200,"station_id":"ce4bhp92rcd13ifvqhbg","pricing_plan_id":"free"},{"bike_id":"91e72e05-df17-4bb9-a2ef-8bb1b3360518","system_id":"levelo_inurba_marseille","lat":43.317121,"lon":5.423936,"is_reserved":false,"is_disabled":false,"rental_uris":{"android":"levelo://app?vid=91e72e05-df17-4bb9-a2ef-8bb1b3360518","ios":"levelo://app?vid=91e72e05-df17-4bb9-a2ef-8bb1b3360518"},"vehicle_type_id":"4","last_reported":1701155205,"current_range_meters":31200,"station_id":"ce4bhp92rcd13ifvqhbg","pricing_plan_id":"free"},{"bike_id":"1c3f5bb6-f9ec-4482-829f-2e3f2f21eac6","system_id":"levelo_inurba_marseille","lat":43.274099,"lon":5.394019,"is_reserved":false,"is_disabled":false,"rental_uris":{"android":"levelo://app?vid=1c3f5bb6-f9ec-4482-829f-2e3f2f21eac6","ios":"levelo://app?vid=1c3f5bb6-f9ec-4482-829f-2e3f2f21eac6"},"vehicle_type_id":"4","last_reported":1701155205,"current_range_meters":29200,"station_id":"ce4bhdp2rcd13ifvqf20","pricing_plan_id":"free"},{"bike_id":"3786e9a5-fd44-4f11-8665-678fdd65cd24","system_id":"levelo_inurba_marseille","lat":43.273129,"lon":5.390725,"is_reserved":false,"is_disabled":false,"rental_uris":{"android":"levelo://app?vid=3786e9a5-fd44-4f11-8665-678fdd65cd24","ios":"levelo://app?vid=3786e9a5-fd44-4f11-8665-678fdd65cd24"},"vehicle_type_id":"4","last_reported":1701155205,"current_range_meters":28000,"station_id":"ce4bhgp2rcd13ifvqfe0","pricing_plan_id":"free"},{"bike_id":"d0fa3e27-b936-4918-b16e-9701fdf33f66","system_id":"levelo_inurba_marseille","lat":43.30381,"lon":5.42521,"is_reserved":false,"is_disabled":false,"rental_uris":{"android":"levelo://app?vid=d0fa3e27-b936-4918-b16e-9701fdf33f66","ios":"levelo://app?vid=d0fa3e27-b936-4918-b16e-9701fdf33f66"},"vehicle_type_id":"4","last_reported":1701155205,"current_range_meters":13600,"station_id":"ce4bhoh2rcd13ifvqh6g","pricing_plan_id":"free"},{"bike_id":"ea93b560-669b-457a-9571-f4ac0dcc8aa0","system_id":"levelo_inurba_marseille","lat":43.304096,"lon":5.425385,"is_reserved":false,"is_disabled":false,"rental_uris":{"android":"levelo://app?vid=ea93b560-669b-457a-9571-f4ac0dcc8aa0","ios":"levelo://app?vid=ea93b560-669b-457a-9571-f4ac0dcc8aa0"},"vehicle_type_id":"4","last_reported":1701155205,"current_range_meters":12000,"station_id":"ce4bhoh2rcd13ifvqh6g","pricing_plan_id":"free"},{"bike_id":"b7ebe042-21dd-413e-9070-2c6c0197418e","system_id":"levelo_inurba_marseille","lat":43.30412,"lon":5.42538,"is_reserved":false,"is_disabled":false,"rental_uris":{"android":"levelo://app?vid=b7ebe042-21dd-413e-9070-2c6c0197418e","ios":"levelo://app?vid=b7ebe042-21dd-413e-9070-2c6c0197418e"},"vehicle_type_id":"4","last_reported":1701155205,"current_range_meters":9200,"station_id":"ce4bhoh2rcd13ifvqh6g","pricing_plan_id":"free"},{"bike_id":"c16f6fad-fca0-4b44-8a9b-2bc0f1e3eb1e","system_id":"levelo_inurba_marseille","lat":43.30415,"lon":5.42541,"is_reserved":false,"is_disabled":false,"rental_uris":{"android":"levelo://app?vid=c16f6fad-fca0-4b44-8a9b-2bc0f1e3eb1e","ios":"levelo://app?vid=c16f6fad-fca0-4b44-8a9b-2bc0f1e3eb1e"},"vehicle_type_id":"4","last_reported":1701155205,"current_range_meters":25600,"station_id":"ce4bhoh2rcd13ifvqh6g","pricing_plan_id":"free"},{"bike_id":"6107f0e6-225b-4a2d-b58e-9cec745c8353","system_id":"levelo_inurba_marseille","lat":43.30414,"lon":5.42543,"is_reserved":false,"is_disabled":false,"rental_uris":{"android":"levelo://app?vid=6107f0e6-225b-4a2d-b58e-9cec745c8353","ios":"levelo://app?vid=6107f0e6-225b-4a2d-b58e-9cec745c8353"},"vehicle_type_id":"4","last_reported":1701155205,"current_range_meters":28400,"station_id":"ce4bhoh2rcd13ifvqh6g","pricing_plan_id":"free"},{"bike_id":"73eeb136-9ad5-41a6-a459-fb0ef87f8779","system_id":"levelo_inurba_marseille","lat":43.295523,"lon":5.422926,"is_reserved":false,"is_disabled":false,"rental_uris":{"android":"levelo://app?vid=73eeb136-9ad5-41a6-a459-fb0ef87f8779","ios":"levelo://app?vid=73eeb136-9ad5-41a6-a459-fb0ef87f8779"},"vehicle_type_id":"4","last_reported":1701155205,"current_range_meters":29600,"station_id":"ce4bhph2rcd13ifvqhdg","pricing_plan_id":"free"},{"bike_id":"6b00c00a-acab-4a0b-825e-4b6c2ea383bc","system_id":"levelo_inurba_marseille","lat":43.295523,"lon":5.422926,"is_reserved":false,"is_disabled":false,"rental_uris":{"android":"levelo://app?vid=6b00c00a-acab-4a0b-825e-4b6c2ea383bc","ios":"levelo://app?vid=6b00c00a-acab-4a0b-825e-4b6c2ea383bc"},"vehicle_type_id":"4","last_reported":1701155205,"current_range_meters":26400,"station_id":"ce4bhph2rcd13ifvqhdg","pricing_plan_id":"free"},{"bike_id":"fccf1799-4473-414c-9389-9b30b0508c40","system_id":"levelo_inurba_marseille","lat":43.295523,"lon":5.422926,"is_reserved":false,"is_disabled":false,"rental_uris":{"android":"levelo://app?vid=fccf1799-4473-414c-9389-9b30b0508c40","ios":"levelo://app?vid=fccf1799-4473-414c-9389-9b30b0508c40"},"vehicle_type_id":"4","last_reported":1701155205,"current_range_meters":18000,"station_id":"ce4bhph2rcd13ifvqhdg","pricing_plan_id":"free"},{"bike_id":"60d68696-e37a-4397-b24a-012f516bc63c","system_id":"levelo_inurba_marseille","lat":43.295523,"lon":5.422926,"is_reserved":false,"is_disabled":false,"rental_uris":{"android":"levelo://app?vid=60d68696-e37a-4397-b24a-012f516bc63c","ios":"levelo://app?vid=60d68696-e37a-4397-b24a-012f516bc63c"},"vehicle_type_id":"4","last_reported":1701155205,"current_range_meters":15200,"station_id":"ce4bhph2rcd13ifvqhdg","pricing_plan_id":"free"},{"bike_id":"b5345938-438d-49b4-a969-d1562d2f1280","system_id":"levelo_inurba_marseille","lat":43.295523,"lon":5.422926,"is_reserved":false,"is_disabled":false,"rental_uris":{"android":"levelo://app?vid=b5345938-438d-49b4-a969-d1562d2f1280","ios":"levelo://app?vid=b5345938-438d-49b4-a969-d1562d2f1280"},"vehicle_type_id":"4","last_reported":1701155205,"current_range_meters":26400,"station_id":"ce4bhph2rcd13ifvqhdg","pricing_plan_id":"free"},{"bike_id":"4c605ca3-481c-41f4-97f4-419aa29ab2ca","system_id":"levelo_inurba_marseille","lat":43.295523,"lon":5.422926,"is_reserved":false,"is_disabled":false,"rental_uris":{"android":"levelo://app?vid=4c605ca3-481c-41f4-97f4-419aa29ab2ca","ios":"levelo://app?vid=4c605ca3-481c-41f4-97f4-419aa29ab2ca"},"vehicle_type_id":"4","last_reported":1701155205,"current_range_meters":31200,"station_id":"ce4bhph2rcd13ifvqhdg","pricing_plan_id":"free"},{"bike_id":"08fe44e4-201e-4497-b2af-1597ca570ac3","system_id":"levelo_inurba_marseille","lat":43.295511,"lon":5.422926,"is_reserved":false,"is_disabled":false,"rental_uris":{"android":"levelo://app?vid=08fe44e4-201e-4497-b2af-1597ca570ac3","ios":"levelo://app?vid=08fe44e4-201e-4497-b2af-1597ca570ac3"},"vehicle_type_id":"4","last_reported":1701155205,"current_range_meters":20000,"station_id":"ce4bhph2rcd13ifvqhdg","pricing_plan_id":"free"},{"bike_id":"487e8935-2222-4e65-8507-6d483307a42a","system_id":"levelo_inurba_marseille","lat":43.295511,"lon":5.422926,"is_reserved":false,"is_disabled":false,"rental_uris":{"android":"levelo://app?vid=487e8935-2222-4e65-8507-6d483307a42a","ios":"levelo://app?vid=487e8935-2222-4e65-8507-6d483307a42a"},"vehicle_type_id":"4","last_reported":1701155205,"current_range_meters":31200,"station_id":"ce4bhph2rcd13ifvqhdg","pricing_plan_id":"free"},{"bike_id":"76c54cc3-5f25-4fd7-a417-9afa50fb9df9","system_id":"levelo_inurba_marseille","lat":43.295523,"lon":5.422926,"is_reserved":false,"is_disabled":false,"rental_uris":{"android":"levelo://app?vid=76c54cc3-5f25-4fd7-a417-9afa50fb9df9","ios":"levelo://app?vid=76c54cc3-5f25-4fd7-a417-9afa50fb9df9"},"vehicle_type_id":"4","last_reported":1701155205,"current_range_meters":30000,"station_id":"ce4bhph2rcd13ifvqhdg","pricing_plan_id":"free"},{"bike_id":"96661c5e-90e7-498e-8229-323d527ddcf5","system_id":"levelo_inurba_marseille","lat":43.295523,"lon":5.422926,"is_reserved":false,"is_disabled":false,"rental_uris":{"android":"levelo://app?vid=96661c5e-90e7-498e-8229-323d527ddcf5","ios":"levelo://app?vid=96661c5e-90e7-498e-8229-323d527ddcf5"},"vehicle_type_id":"4","last_reported":1701155205,"current_range_meters":21200,"station_id":"ce4bhph2rcd13ifvqhdg","pricing_plan_id":"free"},{"bike_id":"0faf4382-253e-42df-8e36-1c0914f0dcfe","system_id":"levelo_inurba_marseille","lat":43.29541,"lon":5.422801,"is_reserved":false,"is_disabled":false,"rental_uris":{"android":"levelo://app?vid=0faf4382-253e-42df-8e36-1c0914f0dcfe","ios":"levelo://app?vid=0faf4382-253e-42df-8e36-1c0914f0dcfe"},"vehicle_type_id":"4","last_reported":1701155205,"current_range_meters":29600,"station_id":"ce4bhph2rcd13ifvqhdg","pricing_plan_id":"free"},{"bike_id":"315a4c47-9043-4046-83f0-47b98794d5a3","system_id":"levelo_inurba_marseille","lat":43.295511,"lon":5.422926,"is_reserved":false,"is_disabled":false,"rental_uris":{"android":"levelo://app?vid=315a4c47-9043-4046-83f0-47b98794d5a3","ios":"levelo://app?vid=315a4c47-9043-4046-83f0-47b98794d5a3"},"vehicle_type_id":"4","last_reported":1701155205,"current_range_meters":22800,"station_id":"ce4bhph2rcd13ifvqhdg","pricing_plan_id":"free"},{"bike_id":"a12cef97-7825-4ce7-a112-541682b3f1b6","system_id":"levelo_inurba_marseille","lat":43.272116,"lon":5.391763,"is_reserved":false,"is_disabled":false,"rental_uris":{"android":"levelo://app?vid=a12cef97-7825-4ce7-a112-541682b3f1b6","ios":"levelo://app?vid=a12cef97-7825-4ce7-a112-541682b3f1b6"},"vehicle_type_id":"4","last_reported":1701155205,"current_range_meters":21600,"station_id":"ce4bhhp2rcd13ifvqfm0","pricing_plan_id":"free"},{"bike_id":"547e366d-144d-4f08-a526-2f0999cba42d","system_id":"levelo_inurba_marseille","lat":43.272116,"lon":5.391763,"is_reserved":false,"is_disabled":false,"rental_uris":{"android":"levelo://app?vid=547e366d-144d-4f08-a526-2f0999cba42d","ios":"levelo://app?vid=547e366d-144d-4f08-a526-2f0999cba42d"},"vehicle_type_id":"4","last_reported":1701155205,"current_range_meters":14000,"station_id":"ce4bhhp2rcd13ifvqfm0","pricing_plan_id":"free"},{"bike_id":"864e6737-f9e6-432d-b815-914e27bc5a83","system_id":"levelo_inurba_marseille","lat":43.272118,"lon":5.391758,"is_reserved":false,"is_disabled":false,"rental_uris":{"android":"levelo://app?vid=864e6737-f9e6-432d-b815-914e27bc5a83","ios":"levelo://app?vid=864e6737-f9e6-432d-b815-914e27bc5a83"},"vehicle_type_id":"4","last_reported":1701155205,"current_range_meters":31600,"station_id":"ce4bhhp2rcd13ifvqfm0","pricing_plan_id":"free"},{"bike_id":"46aac6a0-e9db-492e-8502-4f6b44f75d26","system_id":"levelo_inurba_marseille","lat":43.27206,"lon":5.3919,"is_reserved":false,"is_disabled":false,"rental_uris":{"android":"levelo://app?vid=46aac6a0-e9db-492e-8502-4f6b44f75d26","ios":"levelo://app?vid=46aac6a0-e9db-492e-8502-4f6b44f75d26"},"vehicle_type_id":"4","last_reported":1701155205,"current_range_meters":24800,"station_id":"ce4bhhp2rcd13ifvqfm0","pricing_plan_id":"free"},{"bike_id":"62cfa572-51d4-4a04-9e45-ea785883caeb","system_id":"levelo_inurba_marseille","lat":43.27206,"lon":5.39265,"is_reserved":false,"is_disabled":false,"rental_uris":{"android":"levelo://app?vid=62cfa572-51d4-4a04-9e45-ea785883caeb","ios":"levelo://app?vid=62cfa572-51d4-4a04-9e45-ea785883caeb"},"vehicle_type_id":"4","last_reported":1701155205,"current_range_meters":14000,"station_id":"","pricing_plan_id":"free"},{"bike_id":"4cd6a084-a624-4cf1-be83-59dbaf1dcc62","system_id":"levelo_inurba_marseille","lat":43.278128,"lon":5.407195,"is_reserved":false,"is_disabled":false,"rental_uris":{"android":"levelo://app?vid=4cd6a084-a624-4cf1-be83-59dbaf1dcc62","ios":"levelo://app?vid=4cd6a084-a624-4cf1-be83-59dbaf1dcc62"},"vehicle_type_id":"4","last_reported":1701155205,"current_range_meters":25600,"station_id":"ce4bhnh2rcd13ifvqgtg","pricing_plan_id":"free"},{"bike_id":"65f24ec7-1605-45b4-8eec-085c81a6b73b","system_id":"levelo_inurba_marseille","lat":43.269467,"lon":5.386439,"is_reserved":false,"is_disabled":false,"rental_uris":{"android":"levelo://app?vid=65f24ec7-1605-45b4-8eec-085c81a6b73b","ios":"levelo://app?vid=65f24ec7-1605-45b4-8eec-085c81a6b73b"},"vehicle_type_id":"4","last_reported":1701155205,"current_range_meters":24800,"station_id":"ce4bhh92rcd13ifvqfh0","pricing_plan_id":"free"},{"bike_id":"e040b726-6e63-47d4-8a65-5fb635f86941","system_id":"levelo_inurba_marseille","lat":43.269467,"lon":5.386439,"is_reserved":false,"is_disabled":false,"rental_uris":{"android":"levelo://app?vid=e040b726-6e63-47d4-8a65-5fb635f86941","ios":"levelo://app?vid=e040b726-6e63-47d4-8a65-5fb635f86941"},"vehicle_type_id":"4","last_reported":1701155205,"current_range_meters":28800,"station_id":"ce4bhh92rcd13ifvqfh0","pricing_plan_id":"free"},{"bike_id":"ddf8d775-3ce5-4a6d-8315-c6eca516dfb3","system_id":"levelo_inurba_marseille","lat":43.26957,"lon":5.38633,"is_reserved":false,"is_disabled":false,"rental_uris":{"android":"levelo://app?vid=ddf8d775-3ce5-4a6d-8315-c6eca516dfb3","ios":"levelo://app?vid=ddf8d775-3ce5-4a6d-8315-c6eca516dfb3"},"vehicle_type_id":"4","last_reported":1701155205,"current_range_meters":27200,"station_id":"ce4bhh92rcd13ifvqfh0","pricing_plan_id":"free"},{"bike_id":"0ac920a2-5385-4dc4-844c-b4b5a34f9f58","system_id":"levelo_inurba_marseille","lat":43.26952,"lon":5.38629,"is_reserved":false,"is_disabled":false,"rental_uris":{"android":"levelo://app?vid=0ac920a2-5385-4dc4-844c-b4b5a34f9f58","ios":"levelo://app?vid=0ac920a2-5385-4dc4-844c-b4b5a34f9f58"},"vehicle_type_id":"4","last_reported":1701155205,"current_range_meters":25200,"station_id":"ce4bhh92rcd13ifvqfh0","pricing_plan_id":"free"},{"bike_id":"4db8da13-0149-4905-83f9-c4a63ae10897","system_id":"levelo_inurba_marseille","lat":43.269467,"lon":5.386439,"is_reserved":false,"is_disabled":false,"rental_uris":{"android":"levelo://app?vid=4db8da13-0149-4905-83f9-c4a63ae10897","ios":"levelo://app?vid=4db8da13-0149-4905-83f9-c4a63ae10897"},"vehicle_type_id":"4","last_reported":1701155205,"current_range_meters":28800,"station_id":"ce4bhh92rcd13ifvqfh0","pricing_plan_id":"free"},{"bike_id":"0eda1759-2d8f-4c4a-a5db-4446e2370550","system_id":"levelo_inurba_marseille","lat":43.26951,"lon":5.38633,"is_reserved":false,"is_disabled":false,"rental_uris":{"android":"levelo://app?vid=0eda1759-2d8f-4c4a-a5db-4446e2370550","ios":"levelo://app?vid=0eda1759-2d8f-4c4a-a5db-4446e2370550"},"vehicle_type_id":"4","last_reported":1701155205,"current_range_meters":27200,"station_id":"ce4bhh92rcd13ifvqfh0","pricing_plan_id":"free"},{"bike_id":"74ff8082-6f8a-44d4-b965-c839bcacd71e","system_id":"levelo_inurba_marseille","lat":43.269467,"lon":5.386439,"is_reserved":false,"is_disabled":false,"rental_uris":{"android":"levelo://app?vid=74ff8082-6f8a-44d4-b965-c839bcacd71e","ios":"levelo://app?vid=74ff8082-6f8a-44d4-b965-c839bcacd71e"},"vehicle_type_id":"4","last_reported":1701155205,"current_range_meters":29600,"station_id":"ce4bhh92rcd13ifvqfh0","pricing_plan_id":"free"},{"bike_id":"8b88272e-ec52-403e-b79c-d582279a6bce","system_id":"levelo_inurba_marseille","lat":43.269443,"lon":5.386253,"is_reserved":false,"is_disabled":false,"rental_uris":{"android":"levelo://app?vid=8b88272e-ec52-403e-b79c-d582279a6bce","ios":"levelo://app?vid=8b88272e-ec52-403e-b79c-d582279a6bce"},"vehicle_type_id":"4","last_reported":1701155205,"current_range_meters":19600,"station_id":"ce4bhh92rcd13ifvqfh0","pricing_plan_id":"free"},{"bike_id":"eb8ac629-ad16-4e34-a440-1e77edd1395d","system_id":"levelo_inurba_marseille","lat":43.29789,"lon":5.42662,"is_reserved":false,"is_disabled":false,"rental_uris":{"android":"levelo://app?vid=eb8ac629-ad16-4e34-a440-1e77edd1395d","ios":"levelo://app?vid=eb8ac629-ad16-4e34-a440-1e77edd1395d"},"vehicle_type_id":"4","last_reported":1701155205,"current_range_meters":26800,"station_id":"","pricing_plan_id":"free"},{"bike_id":"ff44a4c1-4938-4756-8e3a-d0f6f14f8f5f","system_id":"levelo_inurba_marseille","lat":43.26681,"lon":5.382694,"is_reserved":false,"is_disabled":false,"rental_uris":{"android":"levelo://app?vid=ff44a4c1-4938-4756-8e3a-d0f6f14f8f5f","ios":"levelo://app?vid=ff44a4c1-4938-4756-8e3a-d0f6f14f8f5f"},"vehicle_type_id":"4","last_reported":1701155205,"current_range_meters":24800,"station_id":"ce4bhg92rcd13ifvqf90","pricing_plan_id":"free"},{"bike_id":"c32bb7ca-4135-4c3f-bb01-907dfbd23310","system_id":"levelo_inurba_marseille","lat":43.279936,"lon":5.416625,"is_reserved":false,"is_disabled":false,"rental_uris":{"android":"levelo://app?vid=c32bb7ca-4135-4c3f-bb01-907dfbd23310","ios":"levelo://app?vid=c32bb7ca-4135-4c3f-bb01-907dfbd23310"},"vehicle_type_id":"4","last_reported":1701155205,"current_range_meters":14800,"station_id":"ce4bho12rcd13ifvqh1g","pricing_plan_id":"free"},{"bike_id":"5ef34795-7154-44d9-b28f-e6c03ef37360","system_id":"levelo_inurba_marseille","lat":43.265571,"lon":5.390032,"is_reserved":false,"is_disabled":false,"rental_uris":{"android":"levelo://app?vid=5ef34795-7154-44d9-b28f-e6c03ef37360","ios":"levelo://app?vid=5ef34795-7154-44d9-b28f-e6c03ef37360"},"vehicle_type_id":"4","last_reported":1701155205,"current_range_meters":24400,"station_id":"ce4bhe12rcd13ifvqf30","pricing_plan_id":"free"},{"bike_id":"3fc0212d-021f-41aa-b0dc-3592ec585382","system_id":"levelo_inurba_marseille","lat":43.26568,"lon":5.39013,"is_reserved":false,"is_disabled":false,"rental_uris":{"android":"levelo://app?vid=3fc0212d-021f-41aa-b0dc-3592ec585382","ios":"levelo://app?vid=3fc0212d-021f-41aa-b0dc-3592ec585382"},"vehicle_type_id":"4","last_reported":1701155205,"current_range_meters":27200,"station_id":"ce4bhe12rcd13ifvqf30","pricing_plan_id":"free"},{"bike_id":"c965e32f-75e0-4b32-a419-9596d74e5fce","system_id":"levelo_inurba_marseille","lat":43.265512,"lon":5.390032,"is_reserved":false,"is_disabled":false,"rental_uris":{"android":"levelo://app?vid=c965e32f-75e0-4b32-a419-9596d74e5fce","ios":"levelo://app?vid=c965e32f-75e0-4b32-a419-9596d74e5fce"},"vehicle_type_id":"4","last_reported":1701155205,"current_range_meters":1200,"station_id":"ce4bhe12rcd13ifvqf30","pricing_plan_id":"free"},{"bike_id":"4f7634fb-912d-44fd-8be3-f2a0bdd935da","system_id":"levelo_inurba_marseille","lat":43.261782,"lon":5.374515,"is_reserved":false,"is_disabled":false,"rental_uris":{"android":"levelo://app?vid=4f7634fb-912d-44fd-8be3-f2a0bdd935da","ios":"levelo://app?vid=4f7634fb-912d-44fd-8be3-f2a0bdd935da"},"vehicle_type_id":"4","last_reported":1701155205,"current_range_meters":27200,"station_id":"ce4bhgp2rcd13ifvqfc0","pricing_plan_id":"free"},{"bike_id":"85c6e9a7-ab6f-4be9-adbc-94f5a0a272b5","system_id":"levelo_inurba_marseille","lat":43.317104,"lon":5.436818,"is_reserved":false,"is_disabled":false,"rental_uris":{"android":"levelo://app?vid=85c6e9a7-ab6f-4be9-adbc-94f5a0a272b5","ios":"levelo://app?vid=85c6e9a7-ab6f-4be9-adbc-94f5a0a272b5"},"vehicle_type_id":"4","last_reported":1701155205,"current_range_meters":27200,"station_id":"ce4bhp92rcd13ifvqhcg","pricing_plan_id":"free"},{"bike_id":"d2e989fa-38dc-43b1-ba08-12ab74122c34","system_id":"levelo_inurba_marseille","lat":43.27183,"lon":5.409921,"is_reserved":false,"is_disabled":false,"rental_uris":{"android":"levelo://app?vid=d2e989fa-38dc-43b1-ba08-12ab74122c34","ios":"levelo://app?vid=d2e989fa-38dc-43b1-ba08-12ab74122c34"},"vehicle_type_id":"4","last_reported":1701155205,"current_range_meters":9600,"station_id":"ce4bhl12rcd13ifvqgf0","pricing_plan_id":"free"},{"bike_id":"3695c9b9-af65-46ed-9325-0593ace11cec","system_id":"levelo_inurba_marseille","lat":43.271368,"lon":5.40928,"is_reserved":false,"is_disabled":false,"rental_uris":{"android":"levelo://app?vid=3695c9b9-af65-46ed-9325-0593ace11cec","ios":"levelo://app?vid=3695c9b9-af65-46ed-9325-0593ace11cec"},"vehicle_type_id":"4","last_reported":1701155205,"current_range_meters":30000,"station_id":"ce4bhl12rcd13ifvqgf0","pricing_plan_id":"free"},{"bike_id":"3e469c88-1717-4aca-bd5e-1ec315470d14","system_id":"levelo_inurba_marseille","lat":43.298768,"lon":5.43643,"is_reserved":false,"is_disabled":false,"rental_uris":{"android":"levelo://app?vid=3e469c88-1717-4aca-bd5e-1ec315470d14","ios":"levelo://app?vid=3e469c88-1717-4aca-bd5e-1ec315470d14"},"vehicle_type_id":"4","last_reported":1701155205,"current_range_meters":31200,"station_id":"ce4bhpp2rcd13ifvqhfg","pricing_plan_id":"free"},{"bike_id":"f4f2e1d5-dafa-412d-9b3a-3611814786ce","system_id":"levelo_inurba_marseille","lat":43.298768,"lon":5.43643,"is_reserved":false,"is_disabled":false,"rental_uris":{"android":"levelo://app?vid=f4f2e1d5-dafa-412d-9b3a-3611814786ce","ios":"levelo://app?vid=f4f2e1d5-dafa-412d-9b3a-3611814786ce"},"vehicle_type_id":"4","last_reported":1701155205,"current_range_meters":31200,"station_id":"ce4bhpp2rcd13ifvqhfg","pricing_plan_id":"free"},{"bike_id":"9713bde9-c9a7-4d76-bb95-dac32047e32a","system_id":"levelo_inurba_marseille","lat":43.298768,"lon":5.43643,"is_reserved":false,"is_disabled":false,"rental_uris":{"android":"levelo://app?vid=9713bde9-c9a7-4d76-bb95-dac32047e32a","ios":"levelo://app?vid=9713bde9-c9a7-4d76-bb95-dac32047e32a"},"vehicle_type_id":"4","last_reported":1701155205,"current_range_meters":30800,"station_id":"ce4bhpp2rcd13ifvqhfg","pricing_plan_id":"free"},{"bike_id":"df86183c-2087-436f-9bdd-29ed82a32076","system_id":"levelo_inurba_marseille","lat":43.298768,"lon":5.43643,"is_reserved":false,"is_disabled":false,"rental_uris":{"android":"levelo://app?vid=df86183c-2087-436f-9bdd-29ed82a32076","ios":"levelo://app?vid=df86183c-2087-436f-9bdd-29ed82a32076"},"vehicle_type_id":"4","last_reported":1701155205,"current_range_meters":30400,"station_id":"ce4bhpp2rcd13ifvqhfg","pricing_plan_id":"free"},{"bike_id":"3865e87c-590e-474f-b570-8a1ace950d6b","system_id":"levelo_inurba_marseille","lat":43.298768,"lon":5.43643,"is_reserved":false,"is_disabled":false,"rental_uris":{"android":"levelo://app?vid=3865e87c-590e-474f-b570-8a1ace950d6b","ios":"levelo://app?vid=3865e87c-590e-474f-b570-8a1ace950d6b"},"vehicle_type_id":"4","last_reported":1701155205,"current_range_meters":30800,"station_id":"ce4bhpp2rcd13ifvqhfg","pricing_plan_id":"free"},{"bike_id":"7c5a83ac-336c-4b91-a5ea-82b3c6d6127d","system_id":"levelo_inurba_marseille","lat":43.298768,"lon":5.43643,"is_reserved":false,"is_disabled":false,"rental_uris":{"android":"levelo://app?vid=7c5a83ac-336c-4b91-a5ea-82b3c6d6127d","ios":"levelo://app?vid=7c5a83ac-336c-4b91-a5ea-82b3c6d6127d"},"vehicle_type_id":"4","last_reported":1701155205,"current_range_meters":31200,"station_id":"ce4bhpp2rcd13ifvqhfg","pricing_plan_id":"free"},{"bike_id":"58fb5802-57f6-4911-9c7a-3e1c9a0ebf97","system_id":"levelo_inurba_marseille","lat":43.281548,"lon":5.42643,"is_reserved":false,"is_disabled":false,"rental_uris":{"android":"levelo://app?vid=58fb5802-57f6-4911-9c7a-3e1c9a0ebf97","ios":"levelo://app?vid=58fb5802-57f6-4911-9c7a-3e1c9a0ebf97"},"vehicle_type_id":"4","last_reported":1701155205,"current_range_meters":27600,"station_id":"ce4bhnh2rcd13ifvqgug","pricing_plan_id":"free"},{"bike_id":"04317398-e1fd-470e-a2ec-a6e61c05f7d2","system_id":"levelo_inurba_marseille","lat":43.281548,"lon":5.42643,"is_reserved":false,"is_disabled":false,"rental_uris":{"android":"levelo://app?vid=04317398-e1fd-470e-a2ec-a6e61c05f7d2","ios":"levelo://app?vid=04317398-e1fd-470e-a2ec-a6e61c05f7d2"},"vehicle_type_id":"4","last_reported":1701155205,"current_range_meters":13200,"station_id":"ce4bhnh2rcd13ifvqgug","pricing_plan_id":"free"},{"bike_id":"0e9ed528-cf7b-4657-9114-e69a26494ad7","system_id":"levelo_inurba_marseille","lat":43.26062,"lon":5.39402,"is_reserved":false,"is_disabled":false,"rental_uris":{"android":"levelo://app?vid=0e9ed528-cf7b-4657-9114-e69a26494ad7","ios":"levelo://app?vid=0e9ed528-cf7b-4657-9114-e69a26494ad7"},"vehicle_type_id":"4","last_reported":1701155205,"current_range_meters":21200,"station_id":"ce4bhh92rcd13ifvqfj0","pricing_plan_id":"free"},{"bike_id":"f1b4e895-cd3a-43d6-b10d-00f2ba2cf586","system_id":"levelo_inurba_marseille","lat":43.275028,"lon":5.424534,"is_reserved":false,"is_disabled":false,"rental_uris":{"android":"levelo://app?vid=f1b4e895-cd3a-43d6-b10d-00f2ba2cf586","ios":"levelo://app?vid=f1b4e895-cd3a-43d6-b10d-00f2ba2cf586"},"vehicle_type_id":"4","last_reported":1701155205,"current_range_meters":22400,"station_id":"ce4bhn92rcd13ifvqgrg","pricing_plan_id":"free"},{"bike_id":"2b9d707f-2977-4f41-8813-c7a4aaef7d7b","system_id":"levelo_inurba_marseille","lat":43.275028,"lon":5.424534,"is_reserved":false,"is_disabled":false,"rental_uris":{"android":"levelo://app?vid=2b9d707f-2977-4f41-8813-c7a4aaef7d7b","ios":"levelo://app?vid=2b9d707f-2977-4f41-8813-c7a4aaef7d7b"},"vehicle_type_id":"4","last_reported":1701155205,"current_range_meters":30000,"station_id":"ce4bhn92rcd13ifvqgrg","pricing_plan_id":"free"},{"bike_id":"df13f3d9-cd07-400c-9372-f648d89b620b","system_id":"levelo_inurba_marseille","lat":43.275028,"lon":5.424534,"is_reserved":false,"is_disabled":false,"rental_uris":{"android":"levelo://app?vid=df13f3d9-cd07-400c-9372-f648d89b620b","ios":"levelo://app?vid=df13f3d9-cd07-400c-9372-f648d89b620b"},"vehicle_type_id":"4","last_reported":1701155205,"current_range_meters":24000,"station_id":"ce4bhn92rcd13ifvqgrg","pricing_plan_id":"free"},{"bike_id":"2668f2e0-e203-469d-b23a-19f59c3a6bb6","system_id":"levelo_inurba_marseille","lat":43.275028,"lon":5.424534,"is_reserved":false,"is_disabled":false,"rental_uris":{"android":"levelo://app?vid=2668f2e0-e203-469d-b23a-19f59c3a6bb6","ios":"levelo://app?vid=2668f2e0-e203-469d-b23a-19f59c3a6bb6"},"vehicle_type_id":"4","last_reported":1701155205,"current_range_meters":24800,"station_id":"ce4bhn92rcd13ifvqgrg","pricing_plan_id":"free"},{"bike_id":"055df3b4-7cad-4f65-9e29-699a7232bd9c","system_id":"levelo_inurba_marseille","lat":43.275028,"lon":5.424534,"is_reserved":false,"is_disabled":false,"rental_uris":{"android":"levelo://app?vid=055df3b4-7cad-4f65-9e29-699a7232bd9c","ios":"levelo://app?vid=055df3b4-7cad-4f65-9e29-699a7232bd9c"},"vehicle_type_id":"4","last_reported":1701155205,"current_range_meters":28000,"station_id":"ce4bhn92rcd13ifvqgrg","pricing_plan_id":"free"},{"bike_id":"1b1cdb98-b0ef-4338-a5ec-9da18b49789f","system_id":"levelo_inurba_marseille","lat":43.275028,"lon":5.424534,"is_reserved":false,"is_disabled":false,"rental_uris":{"android":"levelo://app?vid=1b1cdb98-b0ef-4338-a5ec-9da18b49789f","ios":"levelo://app?vid=1b1cdb98-b0ef-4338-a5ec-9da18b49789f"},"vehicle_type_id":"4","last_reported":1701155205,"current_range_meters":29200,"station_id":"ce4bhn92rcd13ifvqgrg","pricing_plan_id":"free"},{"bike_id":"aa5ea009-7d79-44c6-b6dd-c9aa2c0edb0d","system_id":"levelo_inurba_marseille","lat":43.275028,"lon":5.424534,"is_reserved":false,"is_disabled":false,"rental_uris":{"android":"levelo://app?vid=aa5ea009-7d79-44c6-b6dd-c9aa2c0edb0d","ios":"levelo://app?vid=aa5ea009-7d79-44c6-b6dd-c9aa2c0edb0d"},"vehicle_type_id":"4","last_reported":1701155205,"current_range_meters":21200,"station_id":"ce4bhn92rcd13ifvqgrg","pricing_plan_id":"free"},{"bike_id":"987a44f6-884e-4d6c-ad88-fa0b700d4698","system_id":"levelo_inurba_marseille","lat":43.275028,"lon":5.424534,"is_reserved":false,"is_disabled":false,"rental_uris":{"android":"levelo://app?vid=987a44f6-884e-4d6c-ad88-fa0b700d4698","ios":"levelo://app?vid=987a44f6-884e-4d6c-ad88-fa0b700d4698"},"vehicle_type_id":"4","last_reported":1701155205,"current_range_meters":20400,"station_id":"ce4bhn92rcd13ifvqgrg","pricing_plan_id":"free"},{"bike_id":"caddb052-b6db-4c80-8b80-56c91940c3fd","system_id":"levelo_inurba_marseille","lat":43.275028,"lon":5.424534,"is_reserved":false,"is_disabled":false,"rental_uris":{"android":"levelo://app?vid=caddb052-b6db-4c80-8b80-56c91940c3fd","ios":"levelo://app?vid=caddb052-b6db-4c80-8b80-56c91940c3fd"},"vehicle_type_id":"4","last_reported":1701155205,"current_range_meters":12800,"station_id":"ce4bhn92rcd13ifvqgrg","pricing_plan_id":"free"},{"bike_id":"39740733-4abc-4b79-ad6e-3d2d6d56fea8","system_id":"levelo_inurba_marseille","lat":43.275028,"lon":5.424534,"is_reserved":false,"is_disabled":false,"rental_uris":{"android":"levelo://app?vid=39740733-4abc-4b79-ad6e-3d2d6d56fea8","ios":"levelo://app?vid=39740733-4abc-4b79-ad6e-3d2d6d56fea8"},"vehicle_type_id":"4","last_reported":1701155205,"current_range_meters":31600,"station_id":"ce4bhn92rcd13ifvqgrg","pricing_plan_id":"free"},{"bike_id":"0053beb1-ff42-4ac6-9436-6501425459e0","system_id":"levelo_inurba_marseille","lat":43.275028,"lon":5.424534,"is_reserved":false,"is_disabled":false,"rental_uris":{"android":"levelo://app?vid=0053beb1-ff42-4ac6-9436-6501425459e0","ios":"levelo://app?vid=0053beb1-ff42-4ac6-9436-6501425459e0"},"vehicle_type_id":"4","last_reported":1701155205,"current_range_meters":27200,"station_id":"ce4bhn92rcd13ifvqgrg","pricing_plan_id":"free"},{"bike_id":"db662b39-29f1-4d7f-93d1-f0fe69de7f7e","system_id":"levelo_inurba_marseille","lat":43.275028,"lon":5.424534,"is_reserved":false,"is_disabled":false,"rental_uris":{"android":"levelo://app?vid=db662b39-29f1-4d7f-93d1-f0fe69de7f7e","ios":"levelo://app?vid=db662b39-29f1-4d7f-93d1-f0fe69de7f7e"},"vehicle_type_id":"4","last_reported":1701155205,"current_range_meters":23600,"station_id":"ce4bhn92rcd13ifvqgrg","pricing_plan_id":"free"},{"bike_id":"c85f7616-3a9e-47a4-ae16-28a03e51ab4f","system_id":"levelo_inurba_marseille","lat":43.28929,"lon":5.438754,"is_reserved":false,"is_disabled":false,"rental_uris":{"android":"levelo://app?vid=c85f7616-3a9e-47a4-ae16-28a03e51ab4f","ios":"levelo://app?vid=c85f7616-3a9e-47a4-ae16-28a03e51ab4f"},"vehicle_type_id":"4","last_reported":1701155205,"current_range_meters":4400,"station_id":"","pricing_plan_id":"free"},{"bike_id":"6e15605a-ea14-4d52-b76b-839ccdaee2d7","system_id":"levelo_inurba_marseille","lat":43.258658,"lon":5.398935,"is_reserved":false,"is_disabled":false,"rental_uris":{"android":"levelo://app?vid=6e15605a-ea14-4d52-b76b-839ccdaee2d7","ios":"levelo://app?vid=6e15605a-ea14-4d52-b76b-839ccdaee2d7"},"vehicle_type_id":"4","last_reported":1701155205,"current_range_meters":25600,"station_id":"ce4bhl92rcd13ifvqghg","pricing_plan_id":"free"},{"bike_id":"83d98baa-1f30-46c8-81d7-8d45e67e55ed","system_id":"levelo_inurba_marseille","lat":43.255786,"lon":5.382238,"is_reserved":false,"is_disabled":false,"rental_uris":{"android":"levelo://app?vid=83d98baa-1f30-46c8-81d7-8d45e67e55ed","ios":"levelo://app?vid=83d98baa-1f30-46c8-81d7-8d45e67e55ed"},"vehicle_type_id":"4","last_reported":1701155205,"current_range_meters":26400,"station_id":"","pricing_plan_id":"free"},{"bike_id":"d49f528e-26ad-4ffa-ac65-de2abac3a49c","system_id":"levelo_inurba_marseille","lat":43.25579,"lon":5.3823,"is_reserved":false,"is_disabled":false,"rental_uris":{"android":"levelo://app?vid=d49f528e-26ad-4ffa-ac65-de2abac3a49c","ios":"levelo://app?vid=d49f528e-26ad-4ffa-ac65-de2abac3a49c"},"vehicle_type_id":"4","last_reported":1701155205,"current_range_meters":19200,"station_id":"ce4bhih2rcd13ifvqfs0","pricing_plan_id":"free"},{"bike_id":"5b5b1b0e-5aca-4903-b40e-8b6c6d29f4a6","system_id":"levelo_inurba_marseille","lat":43.258224,"lon":5.394369,"is_reserved":false,"is_disabled":false,"rental_uris":{"android":"levelo://app?vid=5b5b1b0e-5aca-4903-b40e-8b6c6d29f4a6","ios":"levelo://app?vid=5b5b1b0e-5aca-4903-b40e-8b6c6d29f4a6"},"vehicle_type_id":"4","last_reported":1701155205,"current_range_meters":24800,"station_id":"ce4bhip2rcd13ifvqft0","pricing_plan_id":"free"},{"bike_id":"c99d7bb0-a0ed-4426-b2a1-20c07431cd54","system_id":"levelo_inurba_marseille","lat":43.25573,"lon":5.38238,"is_reserved":false,"is_disabled":false,"rental_uris":{"android":"levelo://app?vid=c99d7bb0-a0ed-4426-b2a1-20c07431cd54","ios":"levelo://app?vid=c99d7bb0-a0ed-4426-b2a1-20c07431cd54"},"vehicle_type_id":"4","last_reported":1701155205,"current_range_meters":29600,"station_id":"ce4bhih2rcd13ifvqfs0","pricing_plan_id":"free"},{"bike_id":"ccb2b5f7-f0c4-42dd-a7ec-b19c61e12b7e","system_id":"levelo_inurba_marseille","lat":43.254947,"lon":5.376454,"is_reserved":false,"is_disabled":false,"rental_uris":{"android":"levelo://app?vid=ccb2b5f7-f0c4-42dd-a7ec-b19c61e12b7e","ios":"levelo://app?vid=ccb2b5f7-f0c4-42dd-a7ec-b19c61e12b7e"},"vehicle_type_id":"4","last_reported":1701155205,"current_range_meters":27200,"station_id":"ce4bhh12rcd13ifvqff0","pricing_plan_id":"free"},{"bike_id":"fadee3f1-b84a-4d30-9246-f48dcd1c31b8","system_id":"levelo_inurba_marseille","lat":43.254947,"lon":5.376454,"is_reserved":false,"is_disabled":false,"rental_uris":{"android":"levelo://app?vid=fadee3f1-b84a-4d30-9246-f48dcd1c31b8","ios":"levelo://app?vid=fadee3f1-b84a-4d30-9246-f48dcd1c31b8"},"vehicle_type_id":"4","last_reported":1701155205,"current_range_meters":30400,"station_id":"ce4bhh12rcd13ifvqff0","pricing_plan_id":"free"},{"bike_id":"df4e6e1e-ea2b-4c96-b5b6-f76edd1b3038","system_id":"levelo_inurba_marseille","lat":43.259013,"lon":5.409301,"is_reserved":false,"is_disabled":false,"rental_uris":{"android":"levelo://app?vid=df4e6e1e-ea2b-4c96-b5b6-f76edd1b3038","ios":"levelo://app?vid=df4e6e1e-ea2b-4c96-b5b6-f76edd1b3038"},"vehicle_type_id":"4","last_reported":1701155205,"current_range_meters":24800,"station_id":"ce4bhm92rcd13ifvqglg","pricing_plan_id":"free"},{"bike_id":"db6d341f-d6f0-4958-9992-f9014ca2145b","system_id":"levelo_inurba_marseille","lat":43.257079,"lon":5.411051,"is_reserved":false,"is_disabled":false,"rental_uris":{"android":"levelo://app?vid=db6d341f-d6f0-4958-9992-f9014ca2145b","ios":"levelo://app?vid=db6d341f-d6f0-4958-9992-f9014ca2145b"},"vehicle_type_id":"4","last_reported":1701155205,"current_range_meters":24000,"station_id":"ce4bhkp2rcd13ifvqgd0","pricing_plan_id":"free"},{"bike_id":"fcc02197-4b50-4aed-a908-3222e6045ef6","system_id":"levelo_inurba_marseille","lat":43.25001,"lon":5.38911,"is_reserved":false,"is_disabled":false,"rental_uris":{"android":"levelo://app?vid=fcc02197-4b50-4aed-a908-3222e6045ef6","ios":"levelo://app?vid=fcc02197-4b50-4aed-a908-3222e6045ef6"},"vehicle_type_id":"4","last_reported":1701155205,"current_range_meters":29600,"station_id":"ce4bhgp2rcd13ifvqfd0","pricing_plan_id":"free"},{"bike_id":"c0ccd517-a18f-450a-8702-84d4b7e8caec","system_id":"levelo_inurba_marseille","lat":43.250009,"lon":5.389195,"is_reserved":false,"is_disabled":false,"rental_uris":{"android":"levelo://app?vid=c0ccd517-a18f-450a-8702-84d4b7e8caec","ios":"levelo://app?vid=c0ccd517-a18f-450a-8702-84d4b7e8caec"},"vehicle_type_id":"4","last_reported":1701155205,"current_range_meters":27600,"station_id":"ce4bhgp2rcd13ifvqfd0","pricing_plan_id":"free"},{"bike_id":"1679ba4a-33a0-4e0f-a840-0068374145ee","system_id":"levelo_inurba_marseille","lat":43.250009,"lon":5.389195,"is_reserved":false,"is_disabled":false,"rental_uris":{"android":"levelo://app?vid=1679ba4a-33a0-4e0f-a840-0068374145ee","ios":"levelo://app?vid=1679ba4a-33a0-4e0f-a840-0068374145ee"},"vehicle_type_id":"4","last_reported":1701155205,"current_range_meters":27600,"station_id":"ce4bhgp2rcd13ifvqfd0","pricing_plan_id":"free"},{"bike_id":"fe87eb2d-fefa-4314-9d9d-781b08759b6d","system_id":"levelo_inurba_marseille","lat":43.250023,"lon":5.38919,"is_reserved":false,"is_disabled":false,"rental_uris":{"android":"levelo://app?vid=fe87eb2d-fefa-4314-9d9d-781b08759b6d","ios":"levelo://app?vid=fe87eb2d-fefa-4314-9d9d-781b08759b6d"},"vehicle_type_id":"4","last_reported":1701155205,"current_range_meters":17600,"station_id":"ce4bhgp2rcd13ifvqfd0","pricing_plan_id":"free"},{"bike_id":"8f504b84-370e-4cf9-88db-6ac300891d66","system_id":"levelo_inurba_marseille","lat":43.250023,"lon":5.38919,"is_reserved":false,"is_disabled":false,"rental_uris":{"android":"levelo://app?vid=8f504b84-370e-4cf9-88db-6ac300891d66","ios":"levelo://app?vid=8f504b84-370e-4cf9-88db-6ac300891d66"},"vehicle_type_id":"4","last_reported":1701155205,"current_range_meters":28000,"station_id":"ce4bhgp2rcd13ifvqfd0","pricing_plan_id":"free"},