{"last_updated":1750439344,"ttl":60,"version":"2.2","data":{"bikes":[{"bike_id":"3da29fb8-fc97-44c6-b9ac-31dd456b2fd4","system_id":"levelo_inurba_marseille","lat":43.33771,"lon":5.37424,"is_reserved":false,"is_disabled":true,"rental_uris":{"android":"levelo://app?vid=3da29fb8-fc97-44c6-b9ac-31dd456b2fd4","ios":"levelo://app?vid=3da29fb8-fc97-44c6-b9ac-31dd456b2fd4"},"vehicle_type_id":"4","last_reported":1750439344,"current_range_meters":0,"station_id":"","pricing_plan_id":"cebpf4jnsgd1na2vs0mg"},{"bike_id":"01861ad8-a8d7-4be6-816e-651927c87584","system_id":"levelo_inurba_marseille","lat":43.33751,"lon":5.37456,"is_reserved":false,"is_disabled":true,"rental_uris":{"android":"levelo://app?vid=01861ad8-a8d7-4be6-816e-651927c87584","ios":"levelo://app?vid=01861ad8-a8d7-4be6-816e-651927c87584"},"vehicle_type_id":"4","last_reported":1750439344,"current_range_meters":0,"station_id":"","pricing_plan_id":"cebpf4jnsgd1na2vs0mg"},{"bike_id":"10e3729a-216d-45ad-88fe-117aedfecaef","system_id":"levelo_inurba_marseille","lat":43.33158,"lon":5.38182,"is_reserved":false,"is_disabled":true,"rental_uris":{"android":"levelo://app?vid=10e3729a-216d-45ad-88fe-117aedfecaef","ios":"levelo://app?vid=10e3729a-216d-45ad-88fe-117aedfecaef"},"vehicle_type_id":"4","last_reported":1750439344,"current_range_meters":0,"station_id":"","pricing_plan_id":"cebpf4jnsgd1na2vs0mg"},{"bike_id":"d2bd57c8-6b64-48db-ad24-5398eb3fd9d6","system_id":"levelo_inurba_marseille","lat":43.337444,"lon":5.374475,"is_reserved":false,"is_disabled":true,"rental_uris":{"android":"levelo://app?vid=d2bd57c8-6b64-48db-ad24-5398eb3fd9d6","ios":"levelo://app?vid=d2bd57c8-6b64-48db-ad24-5398eb3fd9d6"},"vehicle_type_id":"4","last_reported":1750439344,"current_range_meters":0,"station_id":"","pricing_plan_id":"cebpf4jnsgd1na2vs0mg"},{"bike_id":"62a493c7-4534-4419-ad43-0582de34a72a","system_id":"levelo_inurba_marseille","lat":43.21366,"lon":5.355183,"is_reserved":false,"is_disabled":true,"rental_uris":{"android":"levelo://app?vid=62a493c7-4534-4419-ad43-0582de34a72a","ios":"levelo://app?vid=62a493c7-4534-4419-ad43-0582de34a72a"},"vehicle_type_id":"4","last_reported":1750439344,"current_range_meters":0,"station_id":"","pricing_plan_id":"cebpf4jnsgd1na2vs0mg"},{"bike_id":"9d127127-82fe-4c29-a727-04e2b250082b","system_id":"levelo_inurba_marseille","lat":43.271609,"lon":5.42186,"is_reserved":false,"is_disabled":true,"rental_uris":{"android":"levelo://app?vid=9d127127-82fe-4c29-a727-04e2b250082b","ios":"levelo://app?vid=9d127127-82fe-4c29-a727-04e2b250082b"},"vehicle_type_id":"4","last_reported":1750439344,"current_range_meters":0,"station_id":"","pricing_plan_id":"cebpf4jnsgd1na2vs0mg"},{"bike_id":"d5a1ae9e-4421-4539-b5ac-98a00695a8d8","system_id":"levelo_inurba_marseille","lat":43.33425,"lon":5.40044,"is_reserved":false,"is_disabled":true,"rental_uris":{"android":"levelo://app?vid=d5a1ae9e-4421-4539-b5ac-98a00695a8d8","ios":"levelo://app?vid=d5a1ae9e-4421-4539-b5ac-98a00695a8d8"},"vehicle_type_id":"4","last_reported":1750439344,"current_range_meters":0,"station_id":"","pricing_plan_id":"cebpf4jnsgd1na2vs0mg"},{"bike_id":"d6609b4f-333b-43c1-9ebe-8726f5e76e88","system_id":"levelo_inurba_marseille","lat":43.337444,"lon":5.374475,"is_reserved":false,"is_disabled":true,"rental_uris":{"android":"levelo://app?vid=d6609b4f-333b-43c1-9ebe-8726f5e76e88","ios":"levelo://app?vid=d6609b4f-333b-43c1-9ebe-8726f5e76e88"},"vehicle_type_id":"4","last_reported":1750439344,"current_range_meters":0,"station_id":"","pricing_plan_id":"cebpf4jnsgd1na2vs0mg"},{"bike_id":"510a498c-f9b1-4491-b8b2-d059d72f03c7","system_id":"levelo_inurba_marseille","lat":43.2962,"lon":5.37731,"is_reserved":false,"is_disabled":true,"rental_uris":{"android":"levelo://app?vid=510a498c-f9b1-4491-b8b2-d059d72f03c7","ios":"levelo://app?vid=510a498c-f9b1-4491-b8b2-d059d72f03c7"},"vehicle_type_id":"4","last_reported":1750439344,"current_range_meters":0,"station_id":"ce4bgi92rcd13ifvqb90","pricing_plan_id":"cebpf4jnsgd1na2vs0mg"},{"bike_id":"4a0de079-e6f3-4bec-bfc7-ca5aa4bd27ce","system_id":"levelo_inurba_marseille","lat":43.29917,"lon":5.37477,"is_reserved":false,"is_disabled":true,"rental_uris":{"android":"levelo://app?vid=4a0de079-e6f3-4bec-bfc7-ca5aa4bd27ce","ios":"levelo://app?vid=4a0de079-e6f3-4bec-bfc7-ca5aa4bd27ce"},"vehicle_type_id":"4","last_reported":1750439344,"current_range_meters":0,"station_id":"ce4bgjh2rcd13ifvqbg0","pricing_plan_id":"cebpf4jnsgd1na2vs0mg"},{"bike_id":"faedb750-b8ea-4e5f-b7f1-2931a192c239","system_id":"levelo_inurba_marseille","lat":43.31346,"lon":5.36765,"is_reserved":false,"is_disabled":true,"rental_uris":{"android":"levelo://app?vid=faedb750-b8ea-4e5f-b7f1-2931a192c239","ios":"levelo://app?vid=faedb750-b8ea-4e5f-b7f1-2931a192c239"},"vehicle_type_id":"4","last_reported":1750439344,"current_range_meters":0,"station_id":"ce4bgr92rcd13ifvqc6g","pricing_plan_id":"cebpf4jnsgd1na2vs0mg"},{"bike_id":"894ef77f-4bb6-4eb9-bcb6-6f787eb33bc9","system_id":"levelo_inurba_marseille","lat":43.30886,"lon":5.39655,"is_reserved":false,"is_disabled":true,"rental_uris":{"android":"levelo://app?vid=894ef77f-4bb6-4eb9-bcb6-6f787eb33bc9","ios":"levelo://app?vid=894ef77f-4bb6-4eb9-bcb6-6f787eb33bc9"},"vehicle_type_id":"4","last_reported":1750439344,"current_range_meters":0,"station_id":"ce4bh012rcd13ifvqcv0","pricing_plan_id":"cebpf4jnsgd1na2vs0mg"},{"bike_id":"62601cf6-4d7a-474f-a378-dfdbba984829","system_id":"levelo_inurba_marseille","lat":43.312822,"lon":5.401785,"is_reserved":false,"is_disabled":true,"rental_uris":{"android":"levelo://app?vid=62601cf6-4d7a-474f-a378-dfdbba984829","ios":"levelo://app?vid=62601cf6-4d7a-474f-a378-dfdbba984829"},"vehicle_type_id":"4","last_reported":1750439344,"current_range_meters":0,"station_id":"ce4bh092rcd13ifvqd30","pricing_plan_id":"cebpf4jnsgd1na2vs0mg"},{"bike_id":"59ff3c72-26dd-421e-99b7-ced6c3b6d8fa","system_id":"levelo_inurba_marseille","lat":43.29865,"lon":5.38909,"is_reserved":false,"is_disabled":true,"rental_uris":{"android":"levelo://app?vid=59ff3c72-26dd-421e-99b7-ced6c3b6d8fa","ios":"levelo://app?vid=59ff3c72-26dd-421e-99b7-ced6c3b6d8fa"},"vehicle_type_id":"4","last_reported":1750439344,"current_range_meters":0,"station_id":"ce4bh392rcd13ifvqdl0","pricing_plan_id":"cebpf4jnsgd1na2vs0mg"},{"bike_id":"ae917ed6-8cd3-4da0-a67a-475356c6d0c9","system_id":"levelo_inurba_marseille","lat":43.28459,"lon":5.35905,"is_reserved":false,"is_disabled":true,"rental_uris":{"android":"levelo://app?vid=ae917ed6-8cd3-4da0-a67a-475356c6d0c9","ios":"levelo://app?vid=ae917ed6-8cd3-4da0-a67a-475356c6d0c9"},"vehicle_type_id":"4","last_reported":1750439344,"current_range_meters":0,"station_id":"ce4bhah2rcd13ifvqei0","pricing_plan_id":"cebpf4jnsgd1na2vs0mg"},{"bike_id":"8aee6bec-4722-432a-a1e2-1a4ae3da75f7","system_id":"levelo_inurba_marseille","lat":43.28258,"lon":5.35066,"is_reserved":false,"is_disabled":true,"rental_uris":{"android":"levelo://app?vid=8aee6bec-4722-432a-a1e2-1a4ae3da75f7","ios":"levelo://app?vid=8aee6bec-4722-432a-a1e2-1a4ae3da75f7"},"vehicle_type_id":"4","last_reported":1750439344,"current_range_meters":0,"station_id":"ce4bhbp2rcd13ifvqerg","pricing_plan_id":"cebpf4jnsgd1na2vs0mg"},{"bike_id":"102af3b7-3e94-4612-9f8e-2963b4cead29","system_id":"levelo_inurba_marseille","lat":43.282707,"lon":5.350583,"is_reserved":false,"is_disabled":true,"rental_uris":{"android":"levelo://app?vid=102af3b7-3e94-4612-9f8e-2963b4cead29","ios":"levelo://app?vid=102af3b7-3e94-4612-9f8e-2963b4cead29"},"vehicle_type_id":"4","last_reported":1750439344,"current_range_meters":0,"station_id":"ce4bhbp2rcd13ifvqerg","pricing_plan_id":"cebpf4jnsgd1na2vs0mg"},{"bike_id":"a99d34bd-f6f2-4326-8806-8a7b4200a01c","system_id":"levelo_inurba_marseille","lat":43.29275,"lon":5.36845,"is_reserved":false,"is_disabled":true,"rental_uris":{"android":"levelo://app?vid=a99d34bd-f6f2-4326-8806-8a7b4200a01c","ios":"levelo://app?vid=a99d34bd-f6f2-4326-8806-8a7b4200a01c"},"vehicle_type_id":"4","last_reported":1750439344,"current_range_meters":0,"station_id":"ce4bhbp2rcd13ifvqesg","pricing_plan_id":"cebpf4jnsgd1na2vs0mg"},{"bike_id":"018499c1-116e-4aac-9b80-7514fc82a8dc","system_id":"levelo_inurba_marseille","lat":43.28878,"lon":5.35393,"is_reserved":false,"is_disabled":true,"rental_uris":{"android":"levelo://app?vid=018499c1-116e-4aac-9b80-7514fc82a8dc","ios":"levelo://app?vid=018499c1-116e-4aac-9b80-7514fc82a8dc"},"vehicle_type_id":"4","last_reported":1750439344,"current_range_meters":0,"station_id":"ce4bhch2rcd13ifvqeug","pricing_plan_id":"cebpf4jnsgd1na2vs0mg"},{"bike_id":"435ba80f-56b3-4600-a649-06376beff872","system_id":"levelo_inurba_marseille","lat":43.28617,"lon":5.35105,"is_reserved":false,"is_disabled":true,"rental_uris":{"android":"levelo://app?vid=435ba80f-56b3-4600-a649-06376beff872","ios":"levelo://app?vid=435ba80f-56b3-4600-a649-06376beff872"},"vehicle_type_id":"4","last_reported":1750439344,"current_range_meters":0,"station_id":"ce4bhch2rcd13ifvqeug","pricing_plan_id":"cebpf4jnsgd1na2vs0mg"},{"bike_id":"e939f5a6-178e-4c97-ade4-6449eb8ee3c0","system_id":"levelo_inurba_marseille","lat":43.26947,"lon":5.38641,"is_reserved":false,"is_disabled":true,"rental_uris":{"android":"levelo://app?vid=e939f5a6-178e-4c97-ade4-6449eb8ee3c0","ios":"levelo://app?vid=e939f5a6-178e-4c97-ade4-6449eb8ee3c0"},"vehicle_type_id":"4","last_reported":1750439344,"current_range_meters":0,"station_id":"ce4bhh92rcd13ifvqfh0","pricing_plan_id":"cebpf4jnsgd1na2vs0mg"},{"bike_id":"ed17892d-62ac-453f-b660-213668a2c58f","system_id":"levelo_inurba_marseille","lat":43.2572,"lon":5.41112,"is_reserved":false,"is_disabled":true,"rental_uris":{"android":"levelo://app?vid=ed17892d-62ac-453f-b660-213668a2c58f","ios":"levelo://app?vid=ed17892d-62ac-453f-b660-213668a2c58f"},"vehicle_type_id":"4","last_reported":1750439344,"current_range_meters":0,"station_id":"ce4bhkp2rcd13ifvqgd0","pricing_plan_id":"cebpf4jnsgd1na2vs0mg"},{"bike_id":"2be082ca-4467-48fd-b65c-3c02b405800f","system_id":"levelo_inurba_marseille","lat":43.23155,"lon":5.4371,"is_reserved":false,"is_disabled":true,"rental_uris":{"android":"levelo://app?vid=2be082ca-4467-48fd-b65c-3c02b405800f","ios":"levelo://app?vid=2be082ca-4467-48fd-b65c-3c02b405800f"},"vehicle_type_id":"4","last_reported":1750439344,"current_range_meters":0,"station_id":"ce4bhmp2rcd13ifvqgog","pricing_plan_id":"cebpf4jnsgd1na2vs0mg"},{"bike_id":"9491b791-a5aa-472a-b475-a8adbacb70fe","system_id":"levelo_inurba_marseille","lat":43.34145,"lon":5.40909,"is_reserved":false,"is_disabled":true,"rental_uris":{"android":"levelo://app?vid=9491b791-a5aa-472a-b475-a8adbacb70fe","ios":"levelo://app?vid=9491b791-a5aa-472a-b475-a8adbacb70fe"},"vehicle_type_id":"4","last_reported":1750439344,"current_range_meters":0,"station_id":"ce4bhqh2rcd13ifvqhlg","pricing_plan_id":"cebpf4jnsgd1na2vs0mg"},{"bike_id":"0080b588-b60f-492d-957d-f4bfdfe016d1","system_id":"levelo_inurba_marseille","lat":43.335947,"lon":5.410327,"is_reserved":false,"is_disabled":true,"rental_uris":{"android":"levelo://app?vid=0080b588-b60f-492d-957d-f4bfdfe016d1","ios":"levelo://app?vid=0080b588-b60f-492d-957d-f4bfdfe016d1"},"vehicle_type_id":"4","last_reported":1750439344,"current_range_meters":0,"station_id":"ce4bhqh2rcd13ifvqhmg","pricing_plan_id":"cebpf4jnsgd1na2vs0mg"},{"bike_id":"e9f2a1f6-0a31-4c74-a7b5-0955168083f5","system_id":"levelo_inurba_marseille","lat":43.29316,"lon":5.37172,"is_reserved":false,"is_disabled":true,"rental_uris":{"android":"levelo://app?vid=e9f2a1f6-0a31-4c74-a7b5-0955168083f5","ios":"levelo://app?vid=e9f2a1f6-0a31-4c74-a7b5-0955168083f5"},"vehicle_type_id":"4","last_reported":1750439344,"current_range_meters":400,"station_id":"ce4bgh92rcd13ifvqb40","pricing_plan_id":"cebpf4jnsgd1na2vs0mg"},{"bike_id":"ee272ff7-81d5-4508-9d7d-ba25e59527fd","system_id":"levelo_inurba_marseille","lat":43.31687,"lon":5.40442,"is_reserved":false,"is_disabled":true,"rental_uris":{"android":"levelo://app?vid=ee272ff7-81d5-4508-9d7d-ba25e59527fd","ios":"levelo://app?vid=ee272ff7-81d5-4508-9d7d-ba25e59527fd"},"vehicle_type_id":"4","last_reported":1750439344,"current_range_meters":400,"station_id":"ce4bh012rcd13ifvqd00","pricing_plan_id":"cebpf4jnsgd1na2vs0mg"},{"bike_id":"0429e4a3-d3bf-40bd-b063-80c29d85ae65","system_id":"levelo_inurba_marseille","lat":43.3081,"lon":5.43518,"is_reserved":false,"is_disabled":true,"rental_uris":{"android":"levelo://app?vid=0429e4a3-d3bf-40bd-b063-80c29d85ae65","ios":"levelo://app?vid=0429e4a3-d3bf-40bd-b063-80c29d85ae65"},"vehicle_type_id":"4","last_reported":1750439344,"current_range_meters":400,"station_id":"ce4bhph2rcd13ifvqheg","pricing_plan_id":"cebpf4jnsgd1na2vs0mg"},{"bike_id":"e2cf8e0b-87a3-4435-a676-ed701ac603e7","system_id":"levelo_inurba_marseille","lat":43.23193,"lon":5.355537,"is_reserved":false,"is_disabled":true,"rental_uris":{"android":"levelo://app?vid=e2cf8e0b-87a3-4435-a676-ed701ac603e7","ios":"levelo://app?vid=e2cf8e0b-87a3-4435-a676-ed701ac603e7"},"vehicle_type_id":"4","last_reported":1750439344,"current_range_meters":400,"station_id":"ce4bhu92rcd13ifvqi70","pricing_plan_id":"cebpf4jnsgd1na2vs0mg"},{"bike_id":"24466bb8-ea46-418f-a473-cce465177766","system_id":"levelo_inurba_marseille","lat":43.21741,"lon":5.34602,"is_reserved":false,"is_disabled":true,"rental_uris":{"android":"levelo://app?vid=24466bb8-ea46-418f-a473-cce465177766","ios":"levelo://app?vid=24466bb8-ea46-418f-a473-cce465177766"},"vehicle_type_id":"4","last_reported":1750439344,"current_range_meters":400,"station_id":"st_cvj6r9ubvosntc0bgbag","pricing_plan_id":"cebpf4jnsgd1na2vs0mg"},{"bike_id":"323aa753-fc1d-41e9-9992-b0402b704672","system_id":"levelo_inurba_marseille","lat":43.33161,"lon":5.38177,"is_reserved":false,"is_disabled":true,"rental_uris":{"android":"levelo://app?vid=323aa753-fc1d-41e9-9992-b0402b704672","ios":"levelo://app?vid=323aa753-fc1d-41e9-9992-b0402b704672"},"vehicle_type_id":"4","last_reported":1750439344,"current_range_meters":800,"station_id":"","pricing_plan_id":"cebpf4jnsgd1na2vs0mg"},{"bike_id":"852f6003-94ad-4ff7-9a9d-cfb572f745e0","system_id":"levelo_inurba_marseille","lat":43.30778,"lon":5.37647,"is_reserved":false,"is_disabled":true,"rental_uris":{"android":"levelo://app?vid=852f6003-94ad-4ff7-9a9d-cfb572f745e0","ios":"levelo://app?vid=852f6003-94ad-4ff7-9a9d-cfb572f745e0"},"vehicle_type_id":"4","last_reported":1750439344,"current_range_meters":800,"station_id":"ce4bgv92rcd13ifvqcq0","pricing_plan_id":"cebpf4jnsgd1na2vs0mg"},{"bike_id":"9b335391-2964-43e7-852d-e569defbea0b","system_id":"levelo_inurba_marseille","lat":43.31071,"lon":5.3836,"is_reserved":false,"is_disabled":true,"rental_uris":{"android":"levelo://app?vid=9b335391-2964-43e7-852d-e569defbea0b","ios":"levelo://app?vid=9b335391-2964-43e7-852d-e569defbea0b"},"vehicle_type_id":"4","last_reported":1750439344,"current_range_meters":800,"station_id":"ce4bgv92rcd13ifvqcr0","pricing_plan_id":"cebpf4jnsgd1na2vs0mg"},{"bike_id":"eb26f470-37fd-4564-8a21-e80dd0cd2559","system_id":"levelo_inurba_marseille","lat":43.28261,"lon":5.35081,"is_reserved":false,"is_disabled":true,"rental_uris":{"android":"levelo://app?vid=eb26f470-37fd-4564-8a21-e80dd0cd2559","ios":"levelo://app?vid=eb26f470-37fd-4564-8a21-e80dd0cd2559"},"vehicle_type_id":"4","last_reported":1750439344,"current_range_meters":800,"station_id":"ce4bhbp2rcd13ifvqerg","pricing_plan_id":"cebpf4jnsgd1na2vs0mg"},{"bike_id":"d5a76eef-6fb6-4b13-80f4-d0fb62ed6d20","system_id":"levelo_inurba_marseille","lat":43.27179,"lon":5.40993,"is_reserved":false,"is_disabled":true,"rental_uris":{"android":"levelo://app?vid=d5a76eef-6fb6-4b13-80f4-d0fb62ed6d20","ios":"levelo://app?vid=d5a76eef-6fb6-4b13-80f4-d0fb62ed6d20"},"vehicle_type_id":"4","last_reported":1750439344,"current_range_meters":800,"station_id":"ce4bhl12rcd13ifvqgf0","pricing_plan_id":"cebpf4jnsgd1na2vs0mg"},{"bike_id":"b1ea64e5-9981-4460-a2b3-59bf05260b31","system_id":"levelo_inurba_marseille","lat":43.32353,"lon":5.38868,"is_reserved":false,"is_disabled":true,"rental_uris":{"android":"levelo://app?vid=b1ea64e5-9981-4460-a2b3-59bf05260b31","ios":"levelo://app?vid=b1ea64e5-9981-4460-a2b3-59bf05260b31"},"vehicle_type_id":"4","last_reported":1750439344,"current_range_meters":800,"station_id":"ce4bhqp2rcd13ifvqhog","pricing_plan_id":"cebpf4jnsgd1na2vs0mg"},{"bike_id":"0c2817db-548a-44d2-b866-0b60f783e2d0","system_id":"levelo_inurba_marseille","lat":43.29717,"lon":5.36613,"is_reserved":false,"is_disabled":true,"rental_uris":{"android":"levelo://app?vid=0c2817db-548a-44d2-b866-0b60f783e2d0","ios":"levelo://app?vid=0c2817db-548a-44d2-b866-0b60f783e2d0"},"vehicle_type_id":"4","last_reported":1750439344,"current_range_meters":1200,"station_id":"ce4bgn12rcd13ifvqbt0","pricing_plan_id":"cebpf4jnsgd1na2vs0mg"},{"bike_id":"0b3b0133-b856-4471-9b7d-df6964f27fe5","system_id":"levelo_inurba_marseille","lat":43.30329,"lon":5.40438,"is_reserved":false,"is_disabled":true,"rental_uris":{"android":"levelo://app?vid=0b3b0133-b856-4471-9b7d-df6964f27fe5","ios":"levelo://app?vid=0b3b0133-b856-4471-9b7d-df6964f27fe5"},"vehicle_type_id":"4","last_reported":1750439344,"current_range_meters":1200,"station_id":"ce4bh012rcd13ifvqd10","pricing_plan_id":"cebpf4jnsgd1na2vs0mg"},{"bike_id":"7213ec3a-6267-4420-8aac-541e7ee3cb8e","system_id":"levelo_inurba_marseille","lat":43.28415,"lon":5.37521,"is_reserved":false,"is_disabled":true,"rental_uris":{"android":"levelo://app?vid=7213ec3a-6267-4420-8aac-541e7ee3cb8e","ios":"levelo://app?vid=7213ec3a-6267-4420-8aac-541e7ee3cb8e"},"vehicle_type_id":"4","last_reported":1750439344,"current_range_meters":1200,"station_id":"ce4bh412rcd13ifvqds0","pricing_plan_id":"cebpf4jnsgd1na2vs0mg"},{"bike_id":"f9d1b052-92c9-45c2-862e-c7023cd7197f","system_id":"levelo_inurba_marseille","lat":43.26558,"lon":5.37288,"is_reserved":false,"is_disabled":true,"rental_uris":{"android":"levelo://app?vid=f9d1b052-92c9-45c2-862e-c7023cd7197f","ios":"levelo://app?vid=f9d1b052-92c9-45c2-862e-c7023cd7197f"},"vehicle_type_id":"4","last_reported":1750439344,"current_range_meters":1200,"station_id":"ce4bhg12rcd13ifvqf70","pricing_plan_id":"cebpf4jnsgd1na2vs0mg"},{"bike_id":"2197982a-18de-42e3-9746-de686bcbe424","system_id":"levelo_inurba_marseille","lat":43.28154,"lon":5.42646,"is_reserved":false,"is_disabled":true,"rental_uris":{"android":"levelo://app?vid=2197982a-18de-42e3-9746-de686bcbe424","ios":"levelo://app?vid=2197982a-18de-42e3-9746-de686bcbe424"},"vehicle_type_id":"4","last_reported":1750439344,"current_range_meters":1200,"station_id":"ce4bhnh2rcd13ifvqgug","pricing_plan_id":"cebpf4jnsgd1na2vs0mg"},{"bike_id":"091fcb0c-ecce-41ae-9f81-09966ac2ef4a","system_id":"levelo_inurba_marseille","lat":43.303825,"lon":5.42483,"is_reserved":false,"is_disabled":true,"rental_uris":{"android":"levelo://app?vid=091fcb0c-ecce-41ae-9f81-09966ac2ef4a","ios":"levelo://app?vid=091fcb0c-ecce-41ae-9f81-09966ac2ef4a"},"vehicle_type_id":"4","last_reported":1750439344,"current_range_meters":1200,"station_id":"ce4bhoh2rcd13ifvqh6g","pricing_plan_id":"cebpf4jnsgd1na2vs0mg"},{"bike_id":"0bae73e6-e831-45be-ad06-9a7d061fcf2f","system_id":"levelo_inurba_marseille","lat":43.30794,"lon":5.43532,"is_reserved":false,"is_disabled":true,"rental_uris":{"android":"levelo://app?vid=0bae73e6-e831-45be-ad06-9a7d061fcf2f","ios":"levelo://app?vid=0bae73e6-e831-45be-ad06-9a7d061fcf2f"},"vehicle_type_id":"4","last_reported":1750439344,"current_range_meters":1200,"station_id":"ce4bhph2rcd13ifvqheg","pricing_plan_id":"cebpf4jnsgd1na2vs0mg"},{"bike_id":"3979874f-9206-4b9b-a6c9-5d5c781b8217","system_id":"levelo_inurba_marseille","lat":43.30931,"lon":5.40144,"is_reserved":false,"is_disabled":true,"rental_uris":{"android":"levelo://app?vid=3979874f-9206-4b9b-a6c9-5d5c781b8217","ios":"levelo://app?vid=3979874f-9206-4b9b-a6c9-5d5c781b8217"},"vehicle_type_id":"4","last_reported":1750439344,"current_range_meters":1600,"station_id":"ce4bgvp2rcd13ifvqct0","pricing_plan_id":"cebpf4jnsgd1na2vs0mg"},{"bike_id":"11894863-0b15-4b40-8933-e956531d0dd2","system_id":"levelo_inurba_marseille","lat":43.286082,"lon":5.350973,"is_reserved":false,"is_disabled":true,"rental_uris":{"android":"levelo://app?vid=11894863-0b15-4b40-8933-e956531d0dd2","ios":"levelo://app?vid=11894863-0b15-4b40-8933-e956531d0dd2"},"vehicle_type_id":"4","last_reported":1750439344,"current_range_meters":1600,"station_id":"ce4bhch2rcd13ifvqeug","pricing_plan_id":"cebpf4jnsgd1na2vs0mg"},{"bike_id":"092b3e61-6d91-45f7-af57-58a33dc97498","system_id":"levelo_inurba_marseille","lat":43.26576,"lon":5.39021,"is_reserved":false,"is_disabled":true,"rental_uris":{"android":"levelo://app?vid=092b3e61-6d91-45f7-af57-58a33dc97498","ios":"levelo://app?vid=092b3e61-6d91-45f7-af57-58a33dc97498"},"vehicle_type_id":"4","last_reported":1750439344,"current_range_meters":1600,"station_id":"ce4bhe12rcd13ifvqf30","pricing_plan_id":"cebpf4jnsgd1na2vs0mg"},{"bike_id":"ac88976b-c7cc-4cf0-8970-0bebf1e3a21a","system_id":"levelo_inurba_marseille","lat":43.24546,"lon":5.39526,"is_reserved":false,"is_disabled":true,"rental_uris":{"android":"levelo://app?vid=ac88976b-c7cc-4cf0-8970-0bebf1e3a21a","ios":"levelo://app?vid=ac88976b-c7cc-4cf0-8970-0bebf1e3a21a"},"vehicle_type_id":"4","last_reported":1750439344,"current_range_meters":1600,"station_id":"ce4bhlp2rcd13ifvqgjg","pricing_plan_id":"cebpf4jnsgd1na2vs0mg"},{"bike_id":"53ccfb0d-aa8f-48ac-870d-4d68f13f3d35","system_id":"levelo_inurba_marseille","lat":43.269453,"lon":5.40247,"is_reserved":false,"is_disabled":true,"rental_uris":{"android":"levelo://app?vid=53ccfb0d-aa8f-48ac-870d-4d68f13f3d35","ios":"levelo://app?vid=53ccfb0d-aa8f-48ac-870d-4d68f13f3d35"},"vehicle_type_id":"4","last_reported":1750439344,"current_range_meters":1600,"station_id":"cjm6bp8fraef2m0cb0m0","pricing_plan_id":"cebpf4jnsgd1na2vs0mg"},{"bike_id":"1a41e202-3c6f-4ce7-822d-6ef7e9c3cef7","system_id":"levelo_inurba_marseille","lat":43.29568,"lon":5.39968,"is_reserved":false,"is_disabled":true,"rental_uris":{"android":"levelo://app?vid=1a41e202-3c6f-4ce7-822d-6ef7e9c3cef7","ios":"levelo://app?vid=1a41e202-3c6f-4ce7-822d-6ef7e9c3cef7"},"vehicle_type_id":"4","last_reported":1750439344,"current_range_meters":2000,"station_id":"ce4bh312rcd13ifvqdj0","pricing_plan_id":"cebpf4jnsgd1na2vs0mg"},{"bike_id":"4751f6ef-1509-420e-85f0-28f00cbc1bbb","system_id":"levelo_inurba_marseille","lat":43.28856,"lon":5.35864,"is_reserved":false,"is_disabled":false,"rental_uris":{"android":"levelo://app?vid=4751f6ef-1509-420e-85f0-28f00cbc1bbb","ios":"levelo://app?vid=4751f6ef-1509-420e-85f0-28f00cbc1bbb"},"vehicle_type_id":"4","last_reported":1750439344,"current_range_meters":2000,"station_id":"ce4bhb12rcd13ifvqem0","pricing_plan_id":"cebpf4jnsgd1na2vs0mg"},{"bike_id":"0133fbd7-9ef6-4c0c-8ba3-45011762c59f","system_id":"levelo_inurba_marseille","lat":43.281545,"lon":5.42645,"is_reserved":false,"is_disabled":true,"rental_uris":{"android":"levelo://app?vid=0133fbd7-9ef6-4c0c-8ba3-45011762c59f","ios":"levelo://app?vid=0133fbd7-9ef6-4c0c-8ba3-45011762c59f"},"vehicle_type_id":"4","last_reported":1750439344,"current_range_meters":2000,"station_id":"ce4bhnh2rcd13ifvqgug","pricing_plan_id":"cebpf4jnsgd1na2vs0mg"},{"bike_id":"1ebd15a7-d6fa-4ef5-a263-e11b9f853544","system_id":"levelo_inurba_marseille","lat":43.29596,"lon":5.38101,"is_reserved":false,"is_disabled":false,"rental_uris":{"android":"levelo://app?vid=1ebd15a7-d6fa-4ef5-a263-e11b9f853544","ios":"levelo://app?vid=1ebd15a7-d6fa-4ef5-a263-e11b9f853544"},"vehicle_type_id":"4","last_reported":1750439344,"current_range_meters":2800,"station_id":"ce4bgl12rcd13ifvqbo0","pricing_plan_id":"cebpf4jnsgd1na2vs0mg"},{"bike_id":"0a2b52b3-97d0-4927-a73e-7e816f2d90db","system_id":"levelo_inurba_marseille","lat":43.29587,"lon":5.36739,"is_reserved":false,"is_disabled":false,"rental_uris":{"android":"levelo://app?vid=0a2b52b3-97d0-4927-a73e-7e816f2d90db","ios":"levelo://app?vid=0a2b52b3-97d0-4927-a73e-7e816f2d90db"},"vehicle_type_id":"4","last_reported":1750439344,"current_range_meters":2800,"station_id":"ce4bgph2rcd13ifvqc2g","pricing_plan_id":"cebpf4jnsgd1na2vs0mg"},{"bike_id":"da1489c7-ffd3-44d0-97f3-18cee90e5143","system_id":"levelo_inurba_marseille","lat":43.32349,"lon":5.38879,"is_reserved":false,"is_disabled":false,"rental_uris":{"android":"levelo://app?vid=da1489c7-ffd3-44d0-97f3-18cee90e5143","ios":"levelo://app?vid=da1489c7-ffd3-44d0-97f3-18cee90e5143"},"vehicle_type_id":"4","last_reported":1750439344,"current_range_meters":2800,"station_id":"ce4bhqp2rcd13ifvqhog","pricing_plan_id":"cebpf4jnsgd1na2vs0mg"},{"bike_id":"ea751e48-aa7c-4d40-9fc1-c102f48c97dc","system_id":"levelo_inurba_marseille","lat":43.28985,"lon":5.35558,"is_reserved":false,"is_disabled":false,"rental_uris":{"android":"levelo://app?vid=ea751e48-aa7c-4d40-9fc1-c102f48c97dc","ios":"levelo://app?vid=ea751e48-aa7c-4d40-9fc1-c102f48c97dc"},"vehicle_type_id":"4","last_reported":1750439344,"current_range_meters":3200,"station_id":"","pricing_plan_id":"cebpf4jnsgd1na2vs0mg"},{"bike_id":"fc9dbf96-c3ca-49fa-8644-c9e9d23d1311","system_id":"levelo_inurba_marseille","lat":43.28569,"lon":5.39495,"is_reserved":false,"is_disabled":false,"rental_uris":{"android":"levelo://app?vid=fc9dbf96-c3ca-49fa-8644-c9e9d23d1311","ios":"levelo://app?vid=fc9dbf96-c3ca-49fa-8644-c9e9d23d1311"},"vehicle_type_id":"4","last_reported":1750439344,"current_range_meters":3200,"station_id":"ce4bh292rcd13ifvqdg0","pricing_plan_id":"cebpf4jnsgd1na2vs0mg"},{"bike_id":"685801cb-0f12-44e4-bb4e-4573f333efee","system_id":"levelo_inurba_marseille","lat":43.313273,"lon":5.396912,"is_reserved":false,"is_disabled":false,"rental_uris":{"android":"levelo://app?vid=685801cb-0f12-44e4-bb4e-4573f333efee","ios":"levelo://app?vid=685801cb-0f12-44e4-bb4e-4573f333efee"},"vehicle_type_id":"4","last_reported":1750439344,"current_range_meters":3600,"station_id":"ce4bgvp2rcd13ifvqcu0","pricing_plan_id":"cebpf4jnsgd1na2vs0mg"},{"bike_id":"038f665f-d426-4975-959f-acbe8a7f854e","system_id":"levelo_inurba_marseille","lat":43.29849,"lon":5.36274,"is_reserved":false,"is_disabled":false,"rental_uris":{"android":"levelo://app?vid=038f665f-d426-4975-959f-acbe8a7f854e","ios":"levelo://app?vid=038f665f-d426-4975-959f-acbe8a7f854e"},"vehicle_type_id":"4","last_reported":1750439344,"current_range_meters":4000,"station_id":"ce4bgpp2rcd13ifvqc3g","pricing_plan_id":"cebpf4jnsgd1na2vs0mg"},{"bike_id":"91e789dd-b4e5-46cf-89a9-b8017eded1a4","system_id":"levelo_inurba_marseille","lat":43.29869,"lon":5.39723,"is_reserved":false,"is_disabled":false,"rental_uris":{"android":"levelo://app?vid=91e789dd-b4e5-46cf-89a9-b8017eded1a4","ios":"levelo://app?vid=91e789dd-b4e5-46cf-89a9-b8017eded1a4"},"vehicle_type_id":"4","last_reported":1750439344,"current_range_meters":4000,"station_id":"ce4bh0h2rcd13ifvqd50","pricing_plan_id":"cebpf4jnsgd1na2vs0mg"},{"bike_id":"de063f9f-2f24-47c5-96ae-1ae597c8c526","system_id":"levelo_inurba_marseille","lat":43.281547,"lon":5.426467,"is_reserved":false,"is_disabled":false,"rental_uris":{"android":"levelo://app?vid=de063f9f-2f24-47c5-96ae-1ae597c8c526","ios":"levelo://app?vid=de063f9f-2f24-47c5-96ae-1ae597c8c526"},"vehicle_type_id":"4","last_reported":1750439344,"current_range_meters":4000,"station_id":"ce4bhnh2rcd13ifvqgug","pricing_plan_id":"cebpf4jnsgd1na2vs0mg"},{"bike_id":"bda8d338-f0ea-44c6-9153-cbcc1ddd3d3b","system_id":"levelo_inurba_marseille","lat":43.30891,"lon":5.39644,"is_reserved":false,"is_disabled":false,"rental_uris":{"android":"levelo://app?vid=bda8d338-f0ea-44c6-9153-cbcc1ddd3d3b","ios":"levelo://app?vid=bda8d338-f0ea-44c6-9153-cbcc1ddd3d3b"},"vehicle_type_id":"4","last_reported":1750439344,"current_range_meters":4800,"station_id":"ce4bh012rcd13ifvqcv0","pricing_plan_id":"cebpf4jnsgd1na2vs0mg"},{"bike_id":"490aefa5-06c9-4aa0-b37a-5b93696b3d51","system_id":"levelo_inurba_marseille","lat":43.27841,"lon":5.39209,"is_reserved":false,"is_disabled":false,"rental_uris":{"android":"levelo://app?vid=490aefa5-06c9-4aa0-b37a-5b93696b3d51","ios":"levelo://app?vid=490aefa5-06c9-4aa0-b37a-5b93696b3d51"},"vehicle_type_id":"4","last_reported":1750439344,"current_range_meters":4800,"station_id":"ce4bhjp2rcd13ifvqga0","pricing_plan_id":"cebpf4jnsgd1na2vs0mg"},{"bike_id":"09c97d52-fbc6-47bd-9c3b-07105eb4c825","system_id":"levelo_inurba_marseille","lat":43.29899,"lon":5.43668,"is_reserved":false,"is_disabled":false,"rental_uris":{"android":"levelo://app?vid=09c97d52-fbc6-47bd-9c3b-07105eb4c825","ios":"levelo://app?vid=09c97d52-fbc6-47bd-9c3b-07105eb4c825"},"vehicle_type_id":"4","last_reported":1750439344,"current_range_meters":4800,"station_id":"ce4bhpp2rcd13ifvqhfg","pricing_plan_id":"cebpf4jnsgd1na2vs0mg"},{"bike_id":"268aafb4-1331-426c-97bc-a7d6564caeb6","system_id":"levelo_inurba_marseille","lat":43.32933,"lon":5.37919,"is_reserved":false,"is_disabled":false,"rental_uris":{"android":"levelo://app?vid=268aafb4-1331-426c-97bc-a7d6564caeb6","ios":"levelo://app?vid=268aafb4-1331-426c-97bc-a7d6564caeb6"},"vehicle_type_id":"4","last_reported":1750439344,"current_range_meters":5600,"station_id":"","pricing_plan_id":"cebpf4jnsgd1na2vs0mg"},{"bike_id":"0dedb6f6-6801-483b-bfb8-9cd4533d158f","system_id":"levelo_inurba_marseille","lat":43.311421,"lon":5.381066,"is_reserved":false,"is_disabled":false,"rental_uris":{"android":"levelo://app?vid=0dedb6f6-6801-483b-bfb8-9cd4533d158f","ios":"levelo://app?vid=0dedb6f6-6801-483b-bfb8-9cd4533d158f"},"vehicle_type_id":"4","last_reported":1750439344,"current_range_meters":5600,"station_id":"","pricing_plan_id":"cebpf4jnsgd1na2vs0mg"},{"bike_id":"ade126f5-a9c9-4318-9f95-f1da5f03debe","system_id":"levelo_inurba_marseille","lat":43.28696,"lon":5.39993,"is_reserved":false,"is_disabled":false,"rental_uris":{"android":"levelo://app?vid=ade126f5-a9c9-4318-9f95-f1da5f03debe","ios":"levelo://app?vid=ade126f5-a9c9-4318-9f95-f1da5f03debe"},"vehicle_type_id":"4","last_reported":1750439344,"current_range_meters":5600,"station_id":"ce4bho92rcd13ifvqh3g","pricing_plan_id":"cebpf4jnsgd1na2vs0mg"},{"bike_id":"1396b7f4-6208-4566-80b2-d3335561f729","system_id":"levelo_inurba_marseille","lat":43.23195,"lon":5.35555,"is_reserved":false,"is_disabled":false,"rental_uris":{"android":"levelo://app?vid=1396b7f4-6208-4566-80b2-d3335561f729","ios":"levelo://app?vid=1396b7f4-6208-4566-80b2-d3335561f729"},"vehicle_type_id":"4","last_reported":1750439344,"current_range_meters":5600,"station_id":"ce4bhu92rcd13ifvqi70","pricing_plan_id":"cebpf4jnsgd1na2vs0mg"},{"bike_id":"f0ccf258-05e1-4ba1-9173-4f9235a20155","system_id":"levelo_inurba_marseille","lat":43.27288,"lon":5.38275,"is_reserved":false,"is_disabled":false,"rental_uris":{"android":"levelo://app?vid=f0ccf258-05e1-4ba1-9173-4f9235a20155","ios":"levelo://app?vid=f0ccf258-05e1-4ba1-9173-4f9235a20155"},"vehicle_type_id":"4","last_reported":1750439344,"current_range_meters":6000,"station_id":"","pricing_plan_id":"cebpf4jnsgd1na2vs0mg"},{"bike_id":"a62649fc-3a9a-4afa-90c1-6919e94370e8","system_id":"levelo_inurba_marseille","lat":43.23959,"lon":5.36638,"is_reserved":false,"is_disabled":false,"rental_uris":{"android":"levelo://app?vid=a62649fc-3a9a-4afa-90c1-6919e94370e8","ios":"levelo://app?vid=a62649fc-3a9a-4afa-90c1-6919e94370e8"},"vehicle_type_id":"4","last_reported":1750439344,"current_range_meters":6000,"station_id":"ce4bhi12rcd13ifvqfp0","pricing_plan_id":"cebpf4jnsgd1na2vs0mg"},{"bike_id":"e7ea39a0-08e1-4f09-8f3f-e30c119e669a","system_id":"levelo_inurba_marseille","lat":43.30801,"lon":5.43695,"is_reserved":false,"is_disabled":false,"rental_uris":{"android":"levelo://app?vid=e7ea39a0-08e1-4f09-8f3f-e30c119e669a","ios":"levelo://app?vid=e7ea39a0-08e1-4f09-8f3f-e30c119e669a"},"vehicle_type_id":"4","last_reported":1750439344,"current_range_meters":6400,"station_id":"","pricing_plan_id":"cebpf4jnsgd1na2vs0mg"},{"bike_id":"8b586459-260f-481d-907f-89bb6c5eb5d9","system_id":"levelo_inurba_marseille","lat":43.28254,"lon":5.35076,"is_reserved":false,"is_disabled":false,"rental_uris":{"android":"levelo://app?vid=8b586459-260f-481d-907f-89bb6c5eb5d9","ios":"levelo://app?vid=8b586459-260f-481d-907f-89bb6c5eb5d9"},"vehicle_type_id":"4","last_reported":1750439344,"current_range_meters":6800,"station_id":"ce4bhbp2rcd13ifvqerg","pricing_plan_id":"cebpf4jnsgd1na2vs0mg"},{"bike_id":"635abf19-281b-4057-9b12-acd0a1994687","system_id":"levelo_inurba_marseille","lat":43.27971,"lon":5.38737,"is_reserved":false,"is_disabled":false,"rental_uris":{"android":"levelo://app?vid=635abf19-281b-4057-9b12-acd0a1994687","ios":"levelo://app?vid=635abf19-281b-4057-9b12-acd0a1994687"},"vehicle_type_id":"4","last_reported":1750439344,"current_range_meters":6800,"station_id":"ce4bhg12rcd13ifvqf80","pricing_plan_id":"cebpf4jnsgd1na2vs0mg"},{"bike_id":"84248fbf-3128-491d-8b94-cce96f3971f5","system_id":"levelo_inurba_marseille","lat":43.26063,"lon":5.39401,"is_reserved":false,"is_disabled":false,"rental_uris":{"android":"levelo://app?vid=84248fbf-3128-491d-8b94-cce96f3971f5","ios":"levelo://app?vid=84248fbf-3128-491d-8b94-cce96f3971f5"},"vehicle_type_id":"4","last_reported":1750439344,"current_range_meters":6800,"station_id":"ce4bhh92rcd13ifvqfj0","pricing_plan_id":"cebpf4jnsgd1na2vs0mg"},{"bike_id":"f06f89bf-6125-4499-b773-9eec329af720","system_id":"levelo_inurba_marseille","lat":43.2817,"lon":5.42641,"is_reserved":false,"is_disabled":false,"rental_uris":{"android":"levelo://app?vid=f06f89bf-6125-4499-b773-9eec329af720","ios":"levelo://app?vid=f06f89bf-6125-4499-b773-9eec329af720"},"vehicle_type_id":"4","last_reported":1750439344,"current_range_meters":6800,"station_id":"ce4bhnh2rcd13ifvqgug","pricing_plan_id":"cebpf4jnsgd1na2vs0mg"},{"bike_id":"3174937f-280e-4b05-b775-7f3d6d5f6aad","system_id":"levelo_inurba_marseille","lat":43.26943,"lon":5.40259,"is_reserved":false,"is_disabled":false,"rental_uris":{"android":"levelo://app?vid=3174937f-280e-4b05-b775-7f3d6d5f6aad","ios":"levelo://app?vid=3174937f-280e-4b05-b775-7f3d6d5f6aad"},"vehicle_type_id":"4","last_reported":1750439344,"current_range_meters":6800,"station_id":"cjm6bp8fraef2m0cb0m0","pricing_plan_id":"cebpf4jnsgd1na2vs0mg"},{"bike_id":"1951a100-8920-4a86-a65a-1291dea1e8df","system_id":"levelo_inurba_marseille","lat":43.3129,"lon":5.37314,"is_reserved":false,"is_disabled":false,"rental_uris":{"android":"levelo://app?vid=1951a100-8920-4a86-a65a-1291dea1e8df","ios":"levelo://app?vid=1951a100-8920-4a86-a65a-1291dea1e8df"},"vehicle_type_id":"4","last_reported":1750439344,"current_range_meters":7200,"station_id":"","pricing_plan_id":"cebpf4jnsgd1na2vs0mg"},{"bike_id":"3328efb2-d32c-440d-878f-4269eb3671d3","system_id":"levelo_inurba_marseille","lat":43.31528,"lon":5.37314,"is_reserved":false,"is_disabled":false,"rental_uris":{"android":"levelo://app?vid=3328efb2-d32c-440d-878f-4269eb3671d3","ios":"levelo://app?vid=3328efb2-d32c-440d-878f-4269eb3671d3"},"vehicle_type_id":"4","last_reported":1750439344,"current_range_meters":7200,"station_id":"","pricing_plan_id":"cebpf4jnsgd1na2vs0mg"},{"bike_id":"49af34c0-47b5-46e3-b616-da04a634090f","system_id":"levelo_inurba_marseille","lat":43.29532,"lon":5.38556,"is_reserved":false,"is_disabled":false,"rental_uris":{"android":"levelo://app?vid=49af34c0-47b5-46e3-b616-da04a634090f","ios":"levelo://app?vid=49af34c0-47b5-46e3-b616-da04a634090f"},"vehicle_type_id":"4","last_reported":1750439344,"current_range_meters":7200,"station_id":"ce4bgih2rcd13ifvqba0","pricing_plan_id":"cebpf4jnsgd1na2vs0mg"},{"bike_id":"7fe95f7b-5121-4b94-8642-d3fc8a9c31ab","system_id":"levelo_inurba_marseille","lat":43.304321,"lon":5.397398,"is_reserved":false,"is_disabled":false,"rental_uris":{"android":"levelo://app?vid=7fe95f7b-5121-4b94-8642-d3fc8a9c31ab","ios":"levelo://app?vid=7fe95f7b-5121-4b94-8642-d3fc8a9c31ab"},"vehicle_type_id":"4","last_reported":1750439344,"current_range_meters":7200,"station_id":"ce4bh092rcd13ifvqd20","pricing_plan_id":"cebpf4jnsgd1na2vs0mg"},{"bike_id":"26b27e2a-c4f8-441b-8e03-c8c42fc9550f","system_id":"levelo_inurba_marseille","lat":43.29443,"lon":5.39768,"is_reserved":false,"is_disabled":false,"rental_uris":{"android":"levelo://app?vid=26b27e2a-c4f8-441b-8e03-c8c42fc9550f","ios":"levelo://app?vid=26b27e2a-c4f8-441b-8e03-c8c42fc9550f"},"vehicle_type_id":"4","last_reported":1750439344,"current_range_meters":7200,"station_id":"ce4bh3h2rcd13ifvqdo0","pricing_plan_id":"cebpf4jnsgd1na2vs0mg"},{"bike_id":"1553a6b5-d7b5-4e85-9a92-9d06f6b12c6b","system_id":"levelo_inurba_marseille","lat":43.28729,"lon":5.37946,"is_reserved":false,"is_disabled":false,"rental_uris":{"android":"levelo://app?vid=1553a6b5-d7b5-4e85-9a92-9d06f6b12c6b","ios":"levelo://app?vid=1553a6b5-d7b5-4e85-9a92-9d06f6b12c6b"},"vehicle_type_id":"4","last_reported":1750439344,"current_range_meters":7200,"station_id":"ce4bh9p2rcd13ifvqec0","pricing_plan_id":"cebpf4jnsgd1na2vs0mg"},{"bike_id":"a78b2ecd-3b69-441c-a961-2811d20eae01","system_id":"levelo_inurba_marseille","lat":43.33613,"lon":5.41037,"is_reserved":false,"is_disabled":false,"rental_uris":{"android":"levelo://app?vid=a78b2ecd-3b69-441c-a961-2811d20eae01","ios":"levelo://app?vid=a78b2ecd-3b69-441c-a961-2811d20eae01"},"vehicle_type_id":"4","last_reported":1750439344,"current_range_meters":7200,"station_id":"ce4bhqh2rcd13ifvqhmg","pricing_plan_id":"cebpf4jnsgd1na2vs0mg"},{"bike_id":"f025e0b0-8595-426c-b214-cb9b74c5fcfd","system_id":"levelo_inurba_marseille","lat":43.32189,"lon":5.40571,"is_reserved":false,"is_disabled":false,"rental_uris":{"android":"levelo://app?vid=f025e0b0-8595-426c-b214-cb9b74c5fcfd","ios":"levelo://app?vid=f025e0b0-8595-426c-b214-cb9b74c5fcfd"},"vehicle_type_id":"4","last_reported":1750439344,"current_range_meters":8000,"station_id":"","pricing_plan_id":"cebpf4jnsgd1na2vs0mg"},{"bike_id":"4f53cb6c-a0ce-4c4c-8515-ee40bc48ec4d","system_id":"levelo_inurba_marseille","lat":43.273749,"lon":5.362581,"is_reserved":false,"is_disabled":false,"rental_uris":{"android":"levelo://app?vid=4f53cb6c-a0ce-4c4c-8515-ee40bc48ec4d","ios":"levelo://app?vid=4f53cb6c-a0ce-4c4c-8515-ee40bc48ec4d"},"vehicle_type_id":"4","last_reported":1750439344,"current_range_meters":8000,"station_id":"ce4bhbh2rcd13ifvqeo0","pricing_plan_id":"cebpf4jnsgd1na2vs0mg"},{"bike_id":"8e345879-7998-4a93-a0b9-eae73d36b9bb","system_id":"levelo_inurba_marseille","lat":43.25503,"lon":5.37646,"is_reserved":false,"is_disabled":false,"rental_uris":{"android":"levelo://app?vid=8e345879-7998-4a93-a0b9-eae73d36b9bb","ios":"levelo://app?vid=8e345879-7998-4a93-a0b9-eae73d36b9bb"},"vehicle_type_id":"4","last_reported":1750439344,"current_range_meters":8000,"station_id":"ce4bhh12rcd13ifvqff0","pricing_plan_id":"cebpf4jnsgd1na2vs0mg"},{"bike_id":"0e38079a-3d92-4ede-8a2e-bfdf8d2c640d","system_id":"levelo_inurba_marseille","lat":43.2175,"lon":5.34599,"is_reserved":false,"is_disabled":false,"rental_uris":{"android":"levelo://app?vid=0e38079a-3d92-4ede-8a2e-bfdf8d2c640d","ios":"levelo://app?vid=0e38079a-3d92-4ede-8a2e-bfdf8d2c640d"},"vehicle_type_id":"4","last_reported":1750439344,"current_range_meters":8400,"station_id":"","pricing_plan_id":"cebpf4jnsgd1na2vs0mg"},{"bike_id":"73521383-be10-4e11-87d9-5858a5a26f0a","system_id":"levelo_inurba_marseille","lat":43.337444,"lon":5.374475,"is_reserved":false,"is_disabled":false,"rental_uris":{"android":"levelo://app?vid=73521383-be10-4e11-87d9-5858a5a26f0a","ios":"levelo://app?vid=73521383-be10-4e11-87d9-5858a5a26f0a"},"vehicle_type_id":"4","last_reported":1750439344,"current_range_meters":8400,"station_id":"","pricing_plan_id":"cebpf4jnsgd1na2vs0mg"},{"bike_id":"7c1dec93-cd01-4fce-830c-2400b4946514","system_id":"levelo_inurba_marseille","lat":43.27618,"lon":5.36111,"is_reserved":false,"is_disabled":false,"rental_uris":{"android":"levelo://app?vid=7c1dec93-cd01-4fce-830c-2400b4946514","ios":"levelo://app?vid=7c1dec93-cd01-4fce-830c-2400b4946514"},"vehicle_type_id":"4","last_reported":1750439344,"current_range_meters":8400,"station_id":"ce4bgj92rcd13ifvqbe0","pricing_plan_id":"cebpf4jnsgd1na2vs0mg"},{"bike_id":"df1284a6-f221-4643-9e69-f589c41adff0","system_id":"levelo_inurba_marseille","lat":43.308801,"lon":5.396309,"is_reserved":false,"is_disabled":false,"rental_uris":{"android":"levelo://app?vid=df1284a6-f221-4643-9e69-f589c41adff0","ios":"levelo://app?vid=df1284a6-f221-4643-9e69-f589c41adff0"},"vehicle_type_id":"4","last_reported":1750439344,"current_range_meters":8400,"station_id":"ce4bh012rcd13ifvqcv0","pricing_plan_id":"cebpf4jnsgd1na2vs0mg"},{"bike_id":"47cab60f-470a-4b98-81cc-cb27b35ba55a","system_id":"levelo_inurba_marseille","lat":43.28152,"lon":5.4265,"is_reserved":false,"is_disabled":false,"rental_uris":{"android":"levelo://app?vid=47cab60f-470a-4b98-81cc-cb27b35ba55a","ios":"levelo://app?vid=47cab60f-470a-4b98-81cc-cb27b35ba55a"},"vehicle_type_id":"4","last_reported":1750439344,"current_range_meters":8400,"station_id":"ce4bhnh2rcd13ifvqgug","pricing_plan_id":"cebpf4jnsgd1na2vs0mg"},{"bike_id":"df735c88-ae0a-4f8e-9723-d29eb27d80b9","system_id":"levelo_inurba_marseille","lat":43.299196,"lon":5.376259,"is_reserved":false,"is_disabled":false,"rental_uris":{"android":"levelo://app?vid=df735c88-ae0a-4f8e-9723-d29eb27d80b9","ios":"levelo://app?vid=df735c88-ae0a-4f8e-9723-d29eb27d80b9"},"vehicle_type_id":"4","last_reported":1750439344,"current_range_meters":8800,"station_id":"","pricing_plan_id":"cebpf4jnsgd1na2vs0mg"},{"bike_id":"fec72ab8-d7a6-46b8-aad3-61d01b715447","system_id":"levelo_inurba_marseille","lat":43.27521,"lon":5.37721,"is_reserved":false,"is_disabled":false,"rental_uris":{"android":"levelo://app?vid=fec72ab8-d7a6-46b8-aad3-61d01b715447","ios":"levelo://app?vid=fec72ab8-d7a6-46b8-aad3-61d01b715447"},"vehicle_type_id":"4","last_reported":1750439344,"current_range_meters":8800,"station_id":"","pricing_plan_id":"cebpf4jnsgd1na2vs0mg"},{"bike_id":"5e2cb32a-6fdc-43e0-8777-b75c4fa2880f","system_id":"levelo_inurba_marseille","lat":43.30888,"lon":5.39648,"is_reserved":false,"is_disabled":false,"rental_uris":{"android":"levelo://app?vid=5e2cb32a-6fdc-43e0-8777-b75c4fa2880f","ios":"levelo://app?vid=5e2cb32a-6fdc-43e0-8777-b75c4fa2880f"},"vehicle_type_id":"4","last_reported":1750439344,"current_range_meters":8800,"station_id":"ce4bh012rcd13ifvqcv0","pricing_plan_id":"cebpf4jnsgd1na2vs0mg"},{"bike_id":"ffbe9469-ea1d-4461-adff-d46f1f4f2b67","system_id":"levelo_inurba_marseille","lat":43.2707,"lon":5.4228,"is_reserved":false,"is_disabled":false,"rental_uris":{"android":"levelo://app?vid=ffbe9469-ea1d-4461-adff-d46f1f4f2b67","ios":"levelo://app?vid=ffbe9469-ea1d-4461-adff-d46f1f4f2b67"},"vehicle_type_id":"4","last_reported":1750439344,"current_range_meters":8800,"station_id":"ce4bhk92rcd13ifvqgb0","pricing_plan_id":"cebpf4jnsgd1na2vs0mg"},{"bike_id":"66888e42-3ca3-4444-93ec-206aebe820cf","system_id":"levelo_inurba_marseille","lat":43.29007,"lon":5.35626,"is_reserved":false,"is_disabled":false,"rental_uris":{"android":"levelo://app?vid=66888e42-3ca3-4444-93ec-206aebe820cf","ios":"levelo://app?vid=66888e42-3ca3-4444-93ec-206aebe820cf"},"vehicle_type_id":"4","last_reported":1750439344,"current_range_meters":9200,"station_id":"ce4bhb92rcd13ifvqen0","pricing_plan_id":"cebpf4jnsgd1na2vs0mg"},{"bike_id":"deec4031-4665-45f5-a220-c93e4e4bd7e9","system_id":"levelo_inurba_marseille","lat":43.273697,"lon":5.362602,"is_reserved":false,"is_disabled":false,"rental_uris":{"android":"levelo://app?vid=deec4031-4665-45f5-a220-c93e4e4bd7e9","ios":"levelo://app?vid=deec4031-4665-45f5-a220-c93e4e4bd7e9"},"vehicle_type_id":"4","last_reported":1750439344,"current_range_meters":9200,"station_id":"ce4bhbh2rcd13ifvqeo0","pricing_plan_id":"cebpf4jnsgd1na2vs0mg"},{"bike_id":"c3790e60-e45d-40aa-ac15-70118e5eec35","system_id":"levelo_inurba_marseille","lat":43.29882,"lon":5.43656,"is_reserved":false,"is_disabled":false,"rental_uris":{"android":"levelo://app?vid=c3790e60-e45d-40aa-ac15-70118e5eec35","ios":"levelo://app?vid=c3790e60-e45d-40aa-ac15-70118e5eec35"},"vehicle_type_id":"4","last_reported":1750439344,"current_range_meters":9200,"station_id":"ce4bhpp2rcd13ifvqhfg","pricing_plan_id":"cebpf4jnsgd1na2vs0mg"},{"bike_id":"ccf163a7-3a7a-41a1-b538-4c04f141a3b9","system_id":"levelo_inurba_marseille","lat":43.32285,"lon":5.38282,"is_reserved":false,"is_disabled":false,"rental_uris":{"android":"levelo://app?vid=ccf163a7-3a7a-41a1-b538-4c04f141a3b9","ios":"levelo://app?vid=ccf163a7-3a7a-41a1-b538-4c04f141a3b9"},"vehicle_type_id":"4","last_reported":1750439344,"current_range_meters":9200,"station_id":"ce4bhr12rcd13ifvqhqg","pricing_plan_id":"cebpf4jnsgd1na2vs0mg"},{"bike_id":"13ef7d1f-42ab-45c6-8760-bd0b9207222f","system_id":"levelo_inurba_marseille","lat":43.21166,"lon":5.35086,"is_reserved":false,"is_disabled":false,"rental_uris":{"android":"levelo://app?vid=13ef7d1f-42ab-45c6-8760-bd0b9207222f","ios":"levelo://app?vid=13ef7d1f-42ab-45c6-8760-bd0b9207222f"},"vehicle_type_id":"4","last_reported":1750439344,"current_range_meters":9200,"station_id":"st_cvj6sg6p6f1abm77japg","pricing_plan_id":"cebpf4jnsgd1na2vs0mg"},{"bike_id":"943d57f3-b313-44b7-ae78-a394f179e07f","system_id":"levelo_inurba_marseille","lat":43.298147,"lon":5.415773,"is_reserved":false,"is_disabled":false,"rental_uris":{"android":"levelo://app?vid=943d57f3-b313-44b7-ae78-a394f179e07f","ios":"levelo://app?vid=943d57f3-b313-44b7-ae78-a394f179e07f"},"vehicle_type_id":"4","last_reported":1750439344,"current_range_meters":9600,"station_id":"","pricing_plan_id":"cebpf4jnsgd1na2vs0mg"},{"bike_id":"b11d5016-b830-42fc-aa77-36580d18bb7a","system_id":"levelo_inurba_marseille","lat":43.30144,"lon":5.39851,"is_reserved":false,"is_disabled":false,"rental_uris":{"android":"levelo://app?vid=b11d5016-b830-42fc-aa77-36580d18bb7a","ios":"levelo://app?vid=b11d5016-b830-42fc-aa77-36580d18bb7a"},"vehicle_type_id":"4","last_reported":1750439344,"current_range_meters":9600,"station_id":"ce4bh0h2rcd13ifvqd40","pricing_plan_id":"cebpf4jnsgd1na2vs0mg"},{"bike_id":"ac97865e-ac65-4729-bd6e-a20131e27f8a","system_id":"levelo_inurba_marseille","lat":43.28255,"lon":5.35066,"is_reserved":false,"is_disabled":false,"rental_uris":{"android":"levelo://app?vid=ac97865e-ac65-4729-bd6e-a20131e27f8a","ios":"levelo://app?vid=ac97865e-ac65-4729-bd6e-a20131e27f8a"},"vehicle_type_id":"4","last_reported":1750439344,"current_range_meters":9600,"station_id":"ce4bhbp2rcd13ifvqerg","pricing_plan_id":"cebpf4jnsgd1na2vs0mg"},{"bike_id":"03451674-e7b0-4790-9e85-d6f41f73860c","system_id":"levelo_inurba_marseille","lat":43.28268,"lon":5.35077,"is_reserved":false,"is_disabled":false,"rental_uris":{"android":"levelo://app?vid=03451674-e7b0-4790-9e85-d6f41f73860c","ios":"levelo://app?vid=03451674-e7b0-4790-9e85-d6f41f73860c"},"vehicle_type_id":"4","last_reported":1750439344,"current_range_meters":9600,"station_id":"ce4bhbp2rcd13ifvqerg","pricing_plan_id":"cebpf4jnsgd1na2vs0mg"},{"bike_id":"c3e98e54-2f6a-4c45-abd3-e219fae912eb","system_id":"levelo_inurba_marseille","lat":43.23957,"lon":5.36645,"is_reserved":false,"is_disabled":false,"rental_uris":{"android":"levelo://app?vid=c3e98e54-2f6a-4c45-abd3-e219fae912eb","ios":"levelo://app?vid=c3e98e54-2f6a-4c45-abd3-e219fae912eb"},"vehicle_type_id":"4","last_reported":1750439344,"current_range_meters":9600,"station_id":"ce4bhi12rcd13ifvqfp0","pricing_plan_id":"cebpf4jnsgd1na2vs0mg"},{"bike_id":"6a019656-ccb0-45ed-bbfa-0f386c099ac3","system_id":"levelo_inurba_marseille","lat":43.23186,"lon":5.39989,"is_reserved":false,"is_disabled":false,"rental_uris":{"android":"levelo://app?vid=6a019656-ccb0-45ed-bbfa-0f386c099ac3","ios":"levelo://app?vid=6a019656-ccb0-45ed-bbfa-0f386c099ac3"},"vehicle_type_id":"4","last_reported":1750439344,"current_range_meters":9600,"station_id":"ce4bhn12rcd13ifvqgqg","pricing_plan_id":"cebpf4jnsgd1na2vs0mg"},{"bike_id":"3291d3bb-8a0c-4efa-990b-16f9ceaf1635","system_id":"levelo_inurba_marseille","lat":43.33034,"lon":5.39043,"is_reserved":false,"is_disabled":false,"rental_uris":{"android":"levelo://app?vid=3291d3bb-8a0c-4efa-990b-16f9ceaf1635","ios":"levelo://app?vid=3291d3bb-8a0c-4efa-990b-16f9ceaf1635"},"vehicle_type_id":"4","last_reported":1750439344,"current_range_meters":9600,"station_id":"ce4bhr92rcd13ifvqhrg","pricing_plan_id":"cebpf4jnsgd1na2vs0mg"},{"bike_id":"a9ffee67-06f4-44af-a9a7-86d043a2db95","system_id":"levelo_inurba_marseille","lat":43.29007,"lon":5.3562,"is_reserved":false,"is_disabled":false,"rental_uris":{"android":"levelo://app?vid=a9ffee67-06f4-44af-a9a7-86d043a2db95","ios":"levelo://app?vid=a9ffee67-06f4-44af-a9a7-86d043a2db95"},"vehicle_type_id":"4","last_reported":1750439344,"current_range_meters":10000,"station_id":"ce4bhb92rcd13ifvqen0","pricing_plan_id":"cebpf4jnsgd1na2vs0mg"},{"bike_id":"226f9053-f467-4aee-bab3-f8d8708a8049","system_id":"levelo_inurba_marseille","lat":43.33031,"lon":5.39037,"is_reserved":false,"is_disabled":false,"rental_uris":{"android":"levelo://app?vid=226f9053-f467-4aee-bab3-f8d8708a8049","ios":"levelo://app?vid=226f9053-f467-4aee-bab3-f8d8708a8049"},"vehicle_type_id":"4","last_reported":1750439344,"current_range_meters":10000,"station_id":"ce4bhr92rcd13ifvqhrg","pricing_plan_id":"cebpf4jnsgd1na2vs0mg"},{"bike_id":"813eccb6-94a4-4d99-bdb7-dd56efd1d864","system_id":"levelo_inurba_marseille","lat":43.27617,"lon":5.36109,"is_reserved":false,"is_disabled":false,"rental_uris":{"android":"levelo://app?vid=813eccb6-94a4-4d99-bdb7-dd56efd1d864","ios":"levelo://app?vid=813eccb6-94a4-4d99-bdb7-dd56efd1d864"},"vehicle_type_id":"4","last_reported":1750439344,"current_range_meters":10800,"station_id":"ce4bgj92rcd13ifvqbe0","pricing_plan_id":"cebpf4jnsgd1na2vs0mg"},{"bike_id":"fd8664c2-303e-4387-a3bb-cf1355553a94","system_id":"levelo_inurba_marseille","lat":43.29843,"lon":5.36275,"is_reserved":false,"is_disabled":false,"rental_uris":{"android":"levelo://app?vid=fd8664c2-303e-4387-a3bb-cf1355553a94","ios":"levelo://app?vid=fd8664c2-303e-4387-a3bb-cf1355553a94"},"vehicle_type_id":"4","last_reported":1750439344,"current_range_meters":10800,"station_id":"ce4bgpp2rcd13ifvqc3g","pricing_plan_id":"cebpf4jnsgd1na2vs0mg"},{"bike_id":"e7b0143e-9819-4e7b-b19a-f615fd29629e","system_id":"levelo_inurba_marseille","lat":43.28424,"lon":5.34991,"is_reserved":false,"is_disabled":false,"rental_uris":{"android":"levelo://app?vid=e7b0143e-9819-4e7b-b19a-f615fd29629e","ios":"levelo://app?vid=e7b0143e-9819-4e7b-b19a-f615fd29629e"},"vehicle_type_id":"4","last_reported":1750439344,"current_range_meters":10800,"station_id":"ce4bhbh2rcd13ifvqepg","pricing_plan_id":"cebpf4jnsgd1na2vs0mg"},{"bike_id":"c3503c6e-ea90-48af-bff9-c74b7219975b","system_id":"levelo_inurba_marseille","lat":43.28256,"lon":5.35064,"is_reserved":false,"is_disabled":false,"rental_uris":{"android":"levelo://app?vid=c3503c6e-ea90-48af-bff9-c74b7219975b","ios":"levelo://app?vid=c3503c6e-ea90-48af-bff9-c74b7219975b"},"vehicle_type_id":"4","last_reported":1750439344,"current_range_meters":10800,"station_id":"ce4bhbp2rcd13ifvqerg","pricing_plan_id":"cebpf4jnsgd1na2vs0mg"},{"bike_id":"b541172b-5b30-43b7-90a7-1f304b078276","system_id":"levelo_inurba_marseille","lat":43.28254,"lon":5.35102,"is_reserved":false,"is_disabled":false,"rental_uris":{"android":"levelo://app?vid=b541172b-5b30-43b7-90a7-1f304b078276","ios":"levelo://app?vid=b541172b-5b30-43b7-90a7-1f304b078276"},"vehicle_type_id":"4","last_reported":1750439344,"current_range_meters":11200,"station_id":"ce4bhbp2rcd13ifvqerg","pricing_plan_id":"cebpf4jnsgd1na2vs0mg"},{"bike_id":"1adf6370-b788-42b6-a480-8dc73ef49681","system_id":"levelo_inurba_marseille","lat":43.27621,"lon":5.36109,"is_reserved":false,"is_disabled":false,"rental_uris":{"android":"levelo://app?vid=1adf6370-b788-42b6-a480-8dc73ef49681","ios":"levelo://app?vid=1adf6370-b788-42b6-a480-8dc73ef49681"},"vehicle_type_id":"4","last_reported":1750439344,"current_range_meters":11600,"station_id":"ce4bgj92rcd13ifvqbe0","pricing_plan_id":"cebpf4jnsgd1na2vs0mg"},{"bike_id":"1e11989f-e475-4397-9a45-bd9147224a5e","system_id":"levelo_inurba_marseille","lat":43.244052,"lon":5.371037,"is_reserved":false,"is_disabled":false,"rental_uris":{"android":"levelo://app?vid=1e11989f-e475-4397-9a45-bd9147224a5e","ios":"levelo://app?vid=1e11989f-e475-4397-9a45-bd9147224a5e"},"vehicle_type_id":"4","last_reported":1750439344,"current_range_meters":11600,"station_id":"ce4bhhh2rcd13ifvqfk0","pricing_plan_id":"cebpf4jnsgd1na2vs0mg"},{"bike_id":"f30123e7-96d3-442d-9d01-6c98dc61e7c8","system_id":"levelo_inurba_marseille","lat":43.29797,"lon":5.36853,"is_reserved":false,"is_disabled":false,"rental_uris":{"android":"levelo://app?vid=f30123e7-96d3-442d-9d01-6c98dc61e7c8","ios":"levelo://app?vid=f30123e7-96d3-442d-9d01-6c98dc61e7c8"},"vehicle_type_id":"4","last_reported":1750439344,"current_range_meters":12000,"station_id":"","pricing_plan_id":"cebpf4jnsgd1na2vs0mg"},{"bike_id":"199c2831-e081-4bc0-9b94-19503817091d","system_id":"levelo_inurba_marseille","lat":43.24935,"lon":5.4068,"is_reserved":false,"is_disabled":false,"rental_uris":{"android":"levelo://app?vid=199c2831-e081-4bc0-9b94-19503817091d","ios":"levelo://app?vid=199c2831-e081-4bc0-9b94-19503817091d"},"vehicle_type_id":"4","last_reported":1750439344,"current_range_meters":12000,"station_id":"","pricing_plan_id":"cebpf4jnsgd1na2vs0mg"},{"bike_id":"64459f3d-affe-47be-8167-d29c32f87f63","system_id":"levelo_inurba_marseille","lat":43.273753,"lon":5.362553,"is_reserved":false,"is_disabled":false,"rental_uris":{"android":"levelo://app?vid=64459f3d-affe-47be-8167-d29c32f87f63","ios":"levelo://app?vid=64459f3d-affe-47be-8167-d29c32f87f63"},"vehicle_type_id":"4","last_reported":1750439344,"current_range_meters":12000,"station_id":"ce4bhbh2rcd13ifvqeo0","pricing_plan_id":"cebpf4jnsgd1na2vs0mg"},{"bike_id":"08826685-b807-4e0e-befc-46ec2bfc4b3b","system_id":"levelo_inurba_marseille","lat":43.28259,"lon":5.35075,"is_reserved":false,"is_disabled":false,"rental_uris":{"android":"levelo://app?vid=08826685-b807-4e0e-befc-46ec2bfc4b3b","ios":"levelo://app?vid=08826685-b807-4e0e-befc-46ec2bfc4b3b"},"vehicle_type_id":"4","last_reported":1750439344,"current_range_meters":12000,"station_id":"ce4bhbp2rcd13ifvqerg","pricing_plan_id":"cebpf4jnsgd1na2vs0mg"},{"bike_id":"496f3967-646c-4b11-b018-4b2db8cbc554","system_id":"levelo_inurba_marseille","lat":43.28267,"lon":5.35088,"is_reserved":false,"is_disabled":false,"rental_uris":{"android":"levelo://app?vid=496f3967-646c-4b11-b018-4b2db8cbc554","ios":"levelo://app?vid=496f3967-646c-4b11-b018-4b2db8cbc554"},"vehicle_type_id":"4","last_reported":1750439344,"current_range_meters":12000,"station_id":"ce4bhbp2rcd13ifvqerg","pricing_plan_id":"cebpf4jnsgd1na2vs0mg"},{"bike_id":"0bca9a6f-f277-45f3-8794-b6271f3fa9cc","system_id":"levelo_inurba_marseille","lat":43.23959,"lon":5.36634,"is_reserved":false,"is_disabled":false,"rental_uris":{"android":"levelo://app?vid=0bca9a6f-f277-45f3-8794-b6271f3fa9cc","ios":"levelo://app?vid=0bca9a6f-f277-45f3-8794-b6271f3fa9cc"},"vehicle_type_id":"4","last_reported":1750439344,"current_range_meters":12000,"station_id":"ce4bhi12rcd13ifvqfp0","pricing_plan_id":"cebpf4jnsgd1na2vs0mg"},{"bike_id":"62f9abcf-c80a-4e72-822a-a526006e9f09","system_id":"levelo_inurba_marseille","lat":43.27819,"lon":5.407,"is_reserved":false,"is_disabled":false,"rental_uris":{"android":"levelo://app?vid=62f9abcf-c80a-4e72-822a-a526006e9f09","ios":"levelo://app?vid=62f9abcf-c80a-4e72-822a-a526006e9f09"},"vehicle_type_id":"4","last_reported":1750439344,"current_range_meters":12000,"station_id":"ce4bhnh2rcd13ifvqgtg","pricing_plan_id":"cebpf4jnsgd1na2vs0mg"},{"bike_id":"b4179116-d9eb-4095-9214-13fcf648698e","system_id":"levelo_inurba_marseille","lat":43.3205,"lon":5.41546,"is_reserved":false,"is_disabled":false,"rental_uris":{"android":"levelo://app?vid=b4179116-d9eb-4095-9214-13fcf648698e","ios":"levelo://app?vid=b4179116-d9eb-4095-9214-13fcf648698e"},"vehicle_type_id":"4","last_reported":1750439344,"current_range_meters":12000,"station_id":"ce4bhq92rcd13ifvqhkg","pricing_plan_id":"cebpf4jnsgd1na2vs0mg"},{"bike_id":"8fd94bfe-b0a3-4509-a3c9-0f6e3f8eed78","system_id":"levelo_inurba_marseille","lat":43.24161,"lon":5.36399,"is_reserved":false,"is_disabled":false,"rental_uris":{"android":"levelo://app?vid=8fd94bfe-b0a3-4509-a3c9-0f6e3f8eed78","ios":"levelo://app?vid=8fd94bfe-b0a3-4509-a3c9-0f6e3f8eed78"},"vehicle_type_id":"4","last_reported":1750439344,"current_range_meters":12000,"station_id":"cpo36qri1sfpv3e86is0","pricing_plan_id":"cebpf4jnsgd1na2vs0mg"},{"bike_id":"4f840ece-db76-4ddc-94e5-d1aba639fb48","system_id":"levelo_inurba_marseille","lat":43.29424,"lon":5.42838,"is_reserved":false,"is_disabled":false,"rental_uris":{"android":"levelo://app?vid=4f840ece-db76-4ddc-94e5-d1aba639fb48","ios":"levelo://app?vid=4f840ece-db76-4ddc-94e5-d1aba639fb48"},"vehicle_type_id":"4","last_reported":1750439344,"current_range_meters":12400,"station_id":"","pricing_plan_id":"cebpf4jnsgd1na2vs0mg"},{"bike_id":"951c86fe-4c07-4fe9-b166-ddc00d3c61da","system_id":"levelo_inurba_marseille","lat":43.311151,"lon":5.377738,"is_reserved":false,"is_disabled":false,"rental_uris":{"android":"levelo://app?vid=951c86fe-4c07-4fe9-b166-ddc00d3c61da","ios":"levelo://app?vid=951c86fe-4c07-4fe9-b166-ddc00d3c61da"},"vehicle_type_id":"4","last_reported":1750439344,"current_range_meters":12400,"station_id":"ce4bgt92rcd13ifvqcg0","pricing_plan_id":"cebpf4jnsgd1na2vs0mg"},{"bike_id":"9049a79c-fc92-4646-9bd7-c26ae2ef82ad","system_id":"levelo_inurba_marseille","lat":43.27375,"lon":5.3626,"is_reserved":false,"is_disabled":false,"rental_uris":{"android":"levelo://app?vid=9049a79c-fc92-4646-9bd7-c26ae2ef82ad","ios":"levelo://app?vid=9049a79c-fc92-4646-9bd7-c26ae2ef82ad"},"vehicle_type_id":"4","last_reported":1750439344,"current_range_meters":12400,"station_id":"ce4bhbh2rcd13ifvqeo0","pricing_plan_id":"cebpf4jnsgd1na2vs0mg"},{"bike_id":"0b4e1318-7d3c-4bb0-9326-34d57cbfba6b","system_id":"levelo_inurba_marseille","lat":43.25496,"lon":5.37653,"is_reserved":false,"is_disabled":false,"rental_uris":{"android":"levelo://app?vid=0b4e1318-7d3c-4bb0-9326-34d57cbfba6b","ios":"levelo://app?vid=0b4e1318-7d3c-4bb0-9326-34d57cbfba6b"},"vehicle_type_id":"4","last_reported":1750439344,"current_range_meters":12400,"station_id":"ce4bhh12rcd13ifvqff0","pricing_plan_id":"cebpf4jnsgd1na2vs0mg"},{"bike_id":"8300812b-c3f4-4460-a462-0c10590e5460","system_id":"levelo_inurba_marseille","lat":43.32915,"lon":5.40564,"is_reserved":false,"is_disabled":false,"rental_uris":{"android":"levelo://app?vid=8300812b-c3f4-4460-a462-0c10590e5460","ios":"levelo://app?vid=8300812b-c3f4-4460-a462-0c10590e5460"},"vehicle_type_id":"4","last_reported":1750439344,"current_range_meters":12800,"station_id":"","pricing_plan_id":"cebpf4jnsgd1na2vs0mg"},{"bike_id":"0eb04758-0b59-4b82-b42b-fbfc24d51078","system_id":"levelo_inurba_marseille","lat":43.273685,"lon":5.362193,"is_reserved":false,"is_disabled":false,"rental_uris":{"android":"levelo://app?vid=0eb04758-0b59-4b82-b42b-fbfc24d51078","ios":"levelo://app?vid=0eb04758-0b59-4b82-b42b-fbfc24d51078"},"vehicle_type_id":"4","last_reported":1750439344,"current_range_meters":12800,"station_id":"","pricing_plan_id":"cebpf4jnsgd1na2vs0mg"},{"bike_id":"aa230291-cc07-4fcc-8f1d-ec086513019f","system_id":"levelo_inurba_marseille","lat":43.30106,"lon":5.3911,"is_reserved":false,"is_disabled":false,"rental_uris":{"android":"levelo://app?vid=aa230291-cc07-4fcc-8f1d-ec086513019f","ios":"levelo://app?vid=aa230291-cc07-4fcc-8f1d-ec086513019f"},"vehicle_type_id":"4","last_reported":1750439344,"current_range_meters":12800,"station_id":"ce4bh192rcd13ifvqdb0","pricing_plan_id":"cebpf4jnsgd1na2vs0mg"},{"bike_id":"510b1add-e212-408d-95f0-109a5e2ca67a","system_id":"levelo_inurba_marseille","lat":43.28425,"lon":5.35003,"is_reserved":false,"is_disabled":false,"rental_uris":{"android":"levelo://app?vid=510b1add-e212-408d-95f0-109a5e2ca67a","ios":"levelo://app?vid=510b1add-e212-408d-95f0-109a5e2ca67a"},"vehicle_type_id":"4","last_reported":1750439344,"current_range_meters":12800,"station_id":"ce4bhbh2rcd13ifvqepg","pricing_plan_id":"cebpf4jnsgd1na2vs0mg"},{"bike_id":"49dde9e5-d306-40b2-a36a-fd4c1af3425f","system_id":"levelo_inurba_marseille","lat":43.28266,"lon":5.35064,"is_reserved":false,"is_disabled":false,"rental_uris":{"android":"levelo://app?vid=49dde9e5-d306-40b2-a36a-fd4c1af3425f","ios":"levelo://app?vid=49dde9e5-d306-40b2-a36a-fd4c1af3425f"},"vehicle_type_id":"4","last_reported":1750439344,"current_range_meters":12800,"station_id":"ce4bhbp2rcd13ifvqerg","pricing_plan_id":"cebpf4jnsgd1na2vs0mg"},{"bike_id":"4f9b40b6-1892-43a4-8e16-5f9019749522","system_id":"levelo_inurba_marseille","lat":43.26557,"lon":5.37282,"is_reserved":false,"is_disabled":false,"rental_uris":{"android":"levelo://app?vid=4f9b40b6-1892-43a4-8e16-5f9019749522","ios":"levelo://app?vid=4f9b40b6-1892-43a4-8e16-5f9019749522"},"vehicle_type_id":"4","last_reported":1750439344,"current_range_meters":12800,"station_id":"ce4bhg12rcd13ifvqf70","pricing_plan_id":"cebpf4jnsgd1na2vs0mg"},{"bike_id":"e1eb239d-1ea9-4318-ba35-6dde1cb2cc26","system_id":"levelo_inurba_marseille","lat":43.31488,"lon":5.37313,"is_reserved":false,"is_disabled":false,"rental_uris":{"android":"levelo://app?vid=e1eb239d-1ea9-4318-ba35-6dde1cb2cc26","ios":"levelo://app?vid=e1eb239d-1ea9-4318-ba35-6dde1cb2cc26"},"vehicle_type_id":"4","last_reported":1750439344,"current_range_meters":13600,"station_id":"ce4bgt12rcd13ifvqcd0","pricing_plan_id":"cebpf4jnsgd1na2vs0mg"},{"bike_id":"dd45b830-666c-4c76-b06e-9938bffa2cad","system_id":"levelo_inurba_marseille","lat":43.29224,"lon":5.36217,"is_reserved":false,"is_disabled":false,"rental_uris":{"android":"levelo://app?vid=dd45b830-666c-4c76-b06e-9938bffa2cad","ios":"levelo://app?vid=dd45b830-666c-4c76-b06e-9938bffa2cad"},"vehicle_type_id":"4","last_reported":1750439344,"current_range_meters":14000,"station_id":"","pricing_plan_id":"cebpf4jnsgd1na2vs0mg"},{"bike_id":"8d712c78-897c-4dbb-b8ab-b4b97810783f","system_id":"levelo_inurba_marseille","lat":43.29038,"lon":5.37597,"is_reserved":false,"is_disabled":false,"rental_uris":{"android":"levelo://app?vid=8d712c78-897c-4dbb-b8ab-b4b97810783f","ios":"levelo://app?vid=8d712c78-897c-4dbb-b8ab-b4b97810783f"},"vehicle_type_id":"4","last_reported":1750439344,"current_range_meters":14000,"station_id":"ce4bh692rcd13ifvqe90","pricing_plan_id":"cebpf4jnsgd1na2vs0mg"},{"bike_id":"b21d451a-8fb4-40d3-a841-d6075260b899","system_id":"levelo_inurba_marseille","lat":43.24167,"lon":5.36393,"is_reserved":false,"is_disabled":false,"rental_uris":{"android":"levelo://app?vid=b21d451a-8fb4-40d3-a841-d6075260b899","ios":"levelo://app?vid=b21d451a-8fb4-40d3-a841-d6075260b899"},"vehicle_type_id":"4","last_reported":1750439344,"current_range_meters":14000,"station_id":"cpo36qri1sfpv3e86is0","pricing_plan_id":"cebpf4jnsgd1na2vs0mg"},{"bike_id":"444a6f2d-49e3-4a7e-9aa6-843d2fb0dfa6","system_id":"levelo_inurba_marseille","lat":43.29306,"lon":5.37181,"is_reserved":false,"is_disabled":false,"rental_uris":{"android":"levelo://app?vid=444a6f2d-49e3-4a7e-9aa6-843d2fb0dfa6","ios":"levelo://app?vid=444a6f2d-49e3-4a7e-9aa6-843d2fb0dfa6"},"vehicle_type_id":"4","last_reported":1750439344,"current_range_meters":14400,"station_id":"ce4bgh92rcd13ifvqb40","pricing_plan_id":"cebpf4jnsgd1na2vs0mg"},{"bike_id":"9a6c3152-b3ed-4a86-9010-9ad4050ba10b","system_id":"levelo_inurba_marseille","lat":43.3132,"lon":5.397077,"is_reserved":false,"is_disabled":false,"rental_uris":{"android":"levelo://app?vid=9a6c3152-b3ed-4a86-9010-9ad4050ba10b","ios":"levelo://app?vid=9a6c3152-b3ed-4a86-9010-9ad4050ba10b"},"vehicle_type_id":"4","last_reported":1750439344,"current_range_meters":14400,"station_id":"ce4bgvp2rcd13ifvqcu0","pricing_plan_id":"cebpf4jnsgd1na2vs0mg"},{"bike_id":"d187998f-66e3-4b4a-bfbe-22ac898300e4","system_id":"levelo_inurba_marseille","lat":43.30889,"lon":5.39648,"is_reserved":false,"is_disabled":false,"rental_uris":{"android":"levelo://app?vid=d187998f-66e3-4b4a-bfbe-22ac898300e4","ios":"levelo://app?vid=d187998f-66e3-4b4a-bfbe-22ac898300e4"},"vehicle_type_id":"4","last_reported":1750439344,"current_range_meters":14400,"station_id":"ce4bh012rcd13ifvqcv0","pricing_plan_id":"cebpf4jnsgd1na2vs0mg"},{"bike_id":"7c4c8bb3-9d97-433b-8343-02bd2644813d","system_id":"levelo_inurba_marseille","lat":43.2827,"lon":5.35062,"is_reserved":false,"is_disabled":false,"rental_uris":{"android":"levelo://app?vid=7c4c8bb3-9d97-433b-8343-02bd2644813d","ios":"levelo://app?vid=7c4c8bb3-9d97-433b-8343-02bd2644813d"},"vehicle_type_id":"4","last_reported":1750439344,"current_range_meters":14400,"station_id":"ce4bhbp2rcd13ifvqerg","pricing_plan_id":"cebpf4jnsgd1na2vs0mg"},{"bike_id":"32b33686-79a4-4215-98ad-2c73dfa0a2ab","system_id":"levelo_inurba_marseille","lat":43.28623,"lon":5.35109,"is_reserved":false,"is_disabled":false,"rental_uris":{"android":"levelo://app?vid=32b33686-79a4-4215-98ad-2c73dfa0a2ab","ios":"levelo://app?vid=32b33686-79a4-4215-98ad-2c73dfa0a2ab"},"vehicle_type_id":"4","last_reported":1750439344,"current_range_meters":14400,"station_id":"ce4bhch2rcd13ifvqeug","pricing_plan_id":"cebpf4jnsgd1na2vs0mg"},{"bike_id":"2386a953-1cab-439f-9f4b-5f05364d479d","system_id":"levelo_inurba_marseille","lat":43.28004,"lon":5.4001,"is_reserved":false,"is_disabled":false,"rental_uris":{"android":"levelo://app?vid=2386a953-1cab-439f-9f4b-5f05364d479d","ios":"levelo://app?vid=2386a953-1cab-439f-9f4b-5f05364d479d"},"vehicle_type_id":"4","last_reported":1750439344,"current_range_meters":14400,"station_id":"ce4bho92rcd13ifvqh4g","pricing_plan_id":"cebpf4jnsgd1na2vs0mg"},{"bike_id":"4d121d4a-60c5-4fec-b38c-875fe2d1d56a","system_id":"levelo_inurba_marseille","lat":43.31756,"lon":5.39015,"is_reserved":false,"is_disabled":false,"rental_uris":{"android":"levelo://app?vid=4d121d4a-60c5-4fec-b38c-875fe2d1d56a","ios":"levelo://app?vid=4d121d4a-60c5-4fec-b38c-875fe2d1d56a"},"vehicle_type_id":"4","last_reported":1750439344,"current_range_meters":14400,"station_id":"ce4bhqp2rcd13ifvqhng","pricing_plan_id":"cebpf4jnsgd1na2vs0mg"},{"bike_id":"51e479d8-905f-460f-a482-745878976d9a","system_id":"levelo_inurba_marseille","lat":43.23207,"lon":5.35547,"is_reserved":false,"is_disabled":false,"rental_uris":{"android":"levelo://app?vid=51e479d8-905f-460f-a482-745878976d9a","ios":"levelo://app?vid=51e479d8-905f-460f-a482-745878976d9a"},"vehicle_type_id":"4","last_reported":1750439344,"current_range_meters":14400,"station_id":"ce4bhu92rcd13ifvqi70","pricing_plan_id":"cebpf4jnsgd1na2vs0mg"},{"bike_id":"0b09f5e7-c66f-4991-809c-3835119205ff","system_id":"levelo_inurba_marseille","lat":43.29696,"lon":5.37306,"is_reserved":false,"is_disabled":false,"rental_uris":{"android":"levelo://app?vid=0b09f5e7-c66f-4991-809c-3835119205ff","ios":"levelo://app?vid=0b09f5e7-c66f-4991-809c-3835119205ff"},"vehicle_type_id":"4","last_reported":1750439344,"current_range_meters":14800,"station_id":"ce4bgk12rcd13ifvqbj0","pricing_plan_id":"cebpf4jnsgd1na2vs0mg"},{"bike_id":"a0c6052c-ec1c-4c6b-baf2-74ae3a20362a","system_id":"levelo_inurba_marseille","lat":43.27375,"lon":5.36262,"is_reserved":false,"is_disabled":false,"rental_uris":{"android":"levelo://app?vid=a0c6052c-ec1c-4c6b-baf2-74ae3a20362a","ios":"levelo://app?vid=a0c6052c-ec1c-4c6b-baf2-74ae3a20362a"},"vehicle_type_id":"4","last_reported":1750439344,"current_range_meters":14800,"station_id":"ce4bhbh2rcd13ifvqeo0","pricing_plan_id":"cebpf4jnsgd1na2vs0mg"},{"bike_id":"5c3b2912-54ee-4b02-948c-1965a00526d4","system_id":"levelo_inurba_marseille","lat":43.27376,"lon":5.36261,"is_reserved":false,"is_disabled":false,"rental_uris":{"android":"levelo://app?vid=5c3b2912-54ee-4b02-948c-1965a00526d4","ios":"levelo://app?vid=5c3b2912-54ee-4b02-948c-1965a00526d4"},"vehicle_type_id":"4","last_reported":1750439344,"current_range_meters":14800,"station_id":"ce4bhbh2rcd13ifvqeo0","pricing_plan_id":"cebpf4jnsgd1na2vs0mg"},{"bike_id":"f65505f7-bdc9-40cf-a641-25b38f2e8d77","system_id":"levelo_inurba_marseille","lat":43.2738,"lon":5.36257,"is_reserved":false,"is_disabled":false,"rental_uris":{"android":"levelo://app?vid=f65505f7-bdc9-40cf-a641-25b38f2e8d77","ios":"levelo://app?vid=f65505f7-bdc9-40cf-a641-25b38f2e8d77"},"vehicle_type_id":"4","last_reported":1750439344,"current_range_meters":14800,"station_id":"ce4bhbh2rcd13ifvqeo0","pricing_plan_id":"cebpf4jnsgd1na2vs0mg"},{"bike_id":"c3507ecf-350a-4f40-a3ec-c054291d999e","system_id":"levelo_inurba_marseille","lat":43.282713,"lon":5.350864,"is_reserved":false,"is_disabled":false,"rental_uris":{"android":"levelo://app?vid=c3507ecf-350a-4f40-a3ec-c054291d999e","ios":"levelo://app?vid=c3507ecf-350a-4f40-a3ec-c054291d999e"},"vehicle_type_id":"4","last_reported":1750439344,"current_range_meters":14800,"station_id":"ce4bhbp2rcd13ifvqerg","pricing_plan_id":"cebpf4jnsgd1na2vs0mg"},{"bike_id":"8e92feac-7d18-4ddd-8b47-3e77cf9b9c34","system_id":"levelo_inurba_marseille","lat":43.231916,"lon":5.355744,"is_reserved":false,"is_disabled":false,"rental_uris":{"android":"levelo://app?vid=8e92feac-7d18-4ddd-8b47-3e77cf9b9c34","ios":"levelo://app?vid=8e92feac-7d18-4ddd-8b47-3e77cf9b9c34"},"vehicle_type_id":"4","last_reported":1750439344,"current_range_meters":14800,"station_id":"ce4bhu92rcd13ifvqi70","pricing_plan_id":"cebpf4jnsgd1na2vs0mg"},{"bike_id":"a56812dc-d58e-4212-8816-d25fa92c5a65","system_id":"levelo_inurba_marseille","lat":43.29197,"lon":5.35791,"is_reserved":false,"is_disabled":false,"rental_uris":{"android":"levelo://app?vid=a56812dc-d58e-4212-8816-d25fa92c5a65","ios":"levelo://app?vid=a56812dc-d58e-4212-8816-d25fa92c5a65"},"vehicle_type_id":"4","last_reported":1750439344,"current_range_meters":15200,"station_id":"ce4bhb12rcd13ifvqel0","pricing_plan_id":"cebpf4jnsgd1na2vs0mg"},{"bike_id":"8f063f00-f9a0-444b-a2a3-5de8850d4b96","system_id":"levelo_inurba_marseille","lat":43.28264,"lon":5.35083,"is_reserved":false,"is_disabled":false,"rental_uris":{"android":"levelo://app?vid=8f063f00-f9a0-444b-a2a3-5de8850d4b96","ios":"levelo://app?vid=8f063f00-f9a0-444b-a2a3-5de8850d4b96"},"vehicle_type_id":"4","last_reported":1750439344,"current_range_meters":15200,"station_id":"ce4bhbp2rcd13ifvqerg","pricing_plan_id":"cebpf4jnsgd1na2vs0mg"},{"bike_id":"dc540ba2-fb63-45eb-b83a-1826fb3d30b7","system_id":"levelo_inurba_marseille","lat":43.24603,"lon":5.39264,"is_reserved":false,"is_disabled":false,"rental_uris":{"android":"levelo://app?vid=dc540ba2-fb63-45eb-b83a-1826fb3d30b7","ios":"levelo://app?vid=dc540ba2-fb63-45eb-b83a-1826fb3d30b7"},"vehicle_type_id":"4","last_reported":1750439344,"current_range_meters":16000,"station_id":"","pricing_plan_id":"cebpf4jnsgd1na2vs0mg"},{"bike_id":"e9b72e0a-22b6-43d3-b8dd-d3e494e7b121","system_id":"levelo_inurba_marseille","lat":43.28666,"lon":5.35169,"is_reserved":false,"is_disabled":false,"rental_uris":{"android":"levelo://app?vid=e9b72e0a-22b6-43d3-b8dd-d3e494e7b121","ios":"levelo://app?vid=e9b72e0a-22b6-43d3-b8dd-d3e494e7b121"},"vehicle_type_id":"4","last_reported":1750439344,"current_range_meters":16000,"station_id":"","pricing_plan_id":"cebpf4jnsgd1na2vs0mg"},{"bike_id":"d40af265-11b5-43a6-9bb6-f910f57901ba","system_id":"levelo_inurba_marseille","lat":43.32956,"lon":5.38096,"is_reserved":false,"is_disabled":false,"rental_uris":{"android":"levelo://app?vid=d40af265-11b5-43a6-9bb6-f910f57901ba","ios":"levelo://app?vid=d40af265-11b5-43a6-9bb6-f910f57901ba"},"vehicle_type_id":"4","last_reported":1750439344,"current_range_meters":16000,"station_id":"","pricing_plan_id":"cebpf4jnsgd1na2vs0mg"},{"bike_id":"bd27fe72-6fbc-453f-8b77-bee10ab3b13c","system_id":"levelo_inurba_marseille","lat":43.29529,"lon":5.42365,"is_reserved":false,"is_disabled":false,"rental_uris":{"android":"levelo://app?vid=bd27fe72-6fbc-453f-8b77-bee10ab3b13c","ios":"levelo://app?vid=bd27fe72-6fbc-453f-8b77-bee10ab3b13c"},"vehicle_type_id":"4","last_reported":1750439344,"current_range_meters":16000,"station_id":"","pricing_plan_id":"cebpf4jnsgd1na2vs0mg"},{"bike_id":"8ef11a45-504d-45b0-a2b5-97fef9594218","system_id":"levelo_inurba_marseille","lat":43.295564,"lon":5.38149,"is_reserved":false,"is_disabled":false,"rental_uris":{"android":"levelo://app?vid=8ef11a45-504d-45b0-a2b5-97fef9594218","ios":"levelo://app?vid=8ef11a45-504d-45b0-a2b5-97fef9594218"},"vehicle_type_id":"4","last_reported":1750439344,"current_range_meters":16000,"station_id":"","pricing_plan_id":"cebpf4jnsgd1na2vs0mg"},{"bike_id":"ad9ff56f-6cb6-44b6-9ef1-815b543e217b","system_id":"levelo_inurba_marseille","lat":43.27378,"lon":5.3626,"is_reserved":false,"is_disabled":false,"rental_uris":{"android":"levelo://app?vid=ad9ff56f-6cb6-44b6-9ef1-815b543e217b","ios":"levelo://app?vid=ad9ff56f-6cb6-44b6-9ef1-815b543e217b"},"vehicle_type_id":"4","last_reported":1750439344,"current_range_meters":16000,"station_id":"ce4bhbh2rcd13ifvqeo0","pricing_plan_id":"cebpf4jnsgd1na2vs0mg"},{"bike_id":"b7800cbf-9cdd-49f9-858e-00068788a073","system_id":"levelo_inurba_marseille","lat":43.24184,"lon":5.36407,"is_reserved":false,"is_disabled":false,"rental_uris":{"android":"levelo://app?vid=b7800cbf-9cdd-49f9-858e-00068788a073","ios":"levelo://app?vid=b7800cbf-9cdd-49f9-858e-00068788a073"},"vehicle_type_id":"4","last_reported":1750439344,"current_range_meters":16000,"station_id":"cpo36qri1sfpv3e86is0","pricing_plan_id":"cebpf4jnsgd1na2vs0mg"},{"bike_id":"c9983734-77ea-43e9-a5df-49417ab10a99","system_id":"levelo_inurba_marseille","lat":43.297912,"lon":5.380973,"is_reserved":false,"is_disabled":false,"rental_uris":{"android":"levelo://app?vid=c9983734-77ea-43e9-a5df-49417ab10a99","ios":"levelo://app?vid=c9983734-77ea-43e9-a5df-49417ab10a99"},"vehicle_type_id":"4","last_reported":1750439344,"current_range_meters":16400,"station_id":"ce4bgip2rcd13ifvqbb0","pricing_plan_id":"cebpf4jnsgd1na2vs0mg"},{"bike_id":"c0848119-0abc-4789-9d3f-85fd3abd5d08","system_id":"levelo_inurba_marseille","lat":43.2827,"lon":5.3507,"is_reserved":false,"is_disabled":false,"rental_uris":{"android":"levelo://app?vid=c0848119-0abc-4789-9d3f-85fd3abd5d08","ios":"levelo://app?vid=c0848119-0abc-4789-9d3f-85fd3abd5d08"},"vehicle_type_id":"4","last_reported":1750439344,"current_range_meters":16400,"station_id":"ce4bhbp2rcd13ifvqerg","pricing_plan_id":"cebpf4jnsgd1na2vs0mg"},{"bike_id":"8789fae4-719a-4491-ab04-6ab3fa071721","system_id":"levelo_inurba_marseille","lat":43.282713,"lon":5.350674,"is_reserved":false,"is_disabled":false,"rental_uris":{"android":"levelo://app?vid=8789fae4-719a-4491-ab04-6ab3fa071721","ios":"levelo://app?vid=8789fae4-719a-4491-ab04-6ab3fa071721"},"vehicle_type_id":"4","last_reported":1750439344,"current_range_meters":16400,"station_id":"ce4bhbp2rcd13ifvqerg","pricing_plan_id":"cebpf4jnsgd1na2vs0mg"},{"bike_id":"818f94fb-d99e-4d66-b0ab-9acc162e09b4","system_id":"levelo_inurba_marseille","lat":43.23967,"lon":5.36635,"is_reserved":false,"is_disabled":false,"rental_uris":{"android":"levelo://app?vid=818f94fb-d99e-4d66-b0ab-9acc162e09b4","ios":"levelo://app?vid=818f94fb-d99e-4d66-b0ab-9acc162e09b4"},"vehicle_type_id":"4","last_reported":1750439344,"current_range_meters":16400,"station_id":"ce4bhi12rcd13ifvqfp0","pricing_plan_id":"cebpf4jnsgd1na2vs0mg"},{"bike_id":"1d506818-6f62-466b-ba5f-9d90080acc85","system_id":"levelo_inurba_marseille","lat":43.28699,"lon":5.39982,"is_reserved":false,"is_disabled":false,"rental_uris":{"android":"levelo://app?vid=1d506818-6f62-466b-ba5f-9d90080acc85","ios":"levelo://app?vid=1d506818-6f62-466b-ba5f-9d90080acc85"},"vehicle_type_id":"4","last_reported":1750439344,"current_range_meters":16400,"station_id":"ce4bho92rcd13ifvqh3g","pricing_plan_id":"cebpf4jnsgd1na2vs0mg"},{"bike_id":"a22aa312-0025-4f42-88e2-b1e95e79340f","system_id":"levelo_inurba_marseille","lat":43.31725,"lon":5.38385,"is_reserved":false,"is_disabled":false,"rental_uris":{"android":"levelo://app?vid=a22aa312-0025-4f42-88e2-b1e95e79340f","ios":"levelo://app?vid=a22aa312-0025-4f42-88e2-b1e95e79340f"},"vehicle_type_id":"4","last_reported":1750439344,"current_range_meters":16800,"station_id":"","pricing_plan_id":"cebpf4jnsgd1na2vs0mg"},{"bike_id":"990596bf-f7ed-4931-b239-10b588f9c7ed","system_id":"levelo_inurba_marseille","lat":43.28456,"lon":5.34967,"is_reserved":false,"is_disabled":false,"rental_uris":{"android":"levelo://app?vid=990596bf-f7ed-4931-b239-10b588f9c7ed","ios":"levelo://app?vid=990596bf-f7ed-4931-b239-10b588f9c7ed"},"vehicle_type_id":"4","last_reported":1750439344,"current_range_meters":16800,"station_id":"ce4bhbh2rcd13ifvqepg","pricing_plan_id":"cebpf4jnsgd1na2vs0mg"},{"bike_id":"eee77d17-53bc-4ba5-b76e-054a4d3dcceb","system_id":"levelo_inurba_marseille","lat":43.2842,"lon":5.34994,"is_reserved":false,"is_disabled":false,"rental_uris":{"android":"levelo://app?vid=eee77d17-53bc-4ba5-b76e-054a4d3dcceb","ios":"levelo://app?vid=eee77d17-53bc-4ba5-b76e-054a4d3dcceb"},"vehicle_type_id":"4","last_reported":1750439344,"current_range_meters":16800,"station_id":"ce4bhbh2rcd13ifvqepg","pricing_plan_id":"cebpf4jnsgd1na2vs0mg"},{"bike_id":"9478d6de-45b8-49ec-838a-713d0d99de63","system_id":"levelo_inurba_marseille","lat":43.26554,"lon":5.37285,"is_reserved":false,"is_disabled":false,"rental_uris":{"android":"levelo://app?vid=9478d6de-45b8-49ec-838a-713d0d99de63","ios":"levelo://app?vid=9478d6de-45b8-49ec-838a-713d0d99de63"},"vehicle_type_id":"4","last_reported":1750439344,"current_range_meters":16800,"station_id":"ce4bhg12rcd13ifvqf70","pricing_plan_id":"cebpf4jnsgd1na2vs0mg"},{"bike_id":"ccf4ab64-4a82-42e6-a3c9-8579eb4adb05","system_id":"levelo_inurba_marseille","lat":43.262153,"lon":5.374393,"is_reserved":false,"is_disabled":false,"rental_uris":{"android":"levelo://app?vid=ccf4ab64-4a82-42e6-a3c9-8579eb4adb05","ios":"levelo://app?vid=ccf4ab64-4a82-42e6-a3c9-8579eb4adb05"},"vehicle_type_id":"4","last_reported":1750439344,"current_range_meters":16800,"station_id":"ce4bhgp2rcd13ifvqfc0","pricing_plan_id":"cebpf4jnsgd1na2vs0mg"},{"bike_id":"1e91e22b-9bd0-4463-9755-697efea4d43e","system_id":"levelo_inurba_marseille","lat":43.27317,"lon":5.39081,"is_reserved":false,"is_disabled":false,"rental_uris":{"android":"levelo://app?vid=1e91e22b-9bd0-4463-9755-697efea4d43e","ios":"levelo://app?vid=1e91e22b-9bd0-4463-9755-697efea4d43e"},"vehicle_type_id":"4","last_reported":1750439344,"current_range_meters":16800,"station_id":"ce4bhgp2rcd13ifvqfe0","pricing_plan_id":"cebpf4jnsgd1na2vs0mg"},{"bike_id":"2c2b645d-2988-41cf-ba60-b52372807ac6","system_id":"levelo_inurba_marseille","lat":43.25498,"lon":5.37649,"is_reserved":false,"is_disabled":false,"rental_uris":{"android":"levelo://app?vid=2c2b645d-2988-41cf-ba60-b52372807ac6","ios":"levelo://app?vid=2c2b645d-2988-41cf-ba60-b52372807ac6"},"vehicle_type_id":"4","last_reported":1750439344,"current_range_meters":16800,"station_id":"ce4bhh12rcd13ifvqff0","pricing_plan_id":"cebpf4jnsgd1na2vs0mg"},{"bike_id":"3dc1a2f8-8b98-4a65-980d-b42a647d0080","system_id":"levelo_inurba_marseille","lat":43.239616,"lon":5.366378,"is_reserved":false,"is_disabled":false,"rental_uris":{"android":"levelo://app?vid=3dc1a2f8-8b98-4a65-980d-b42a647d0080","ios":"levelo://app?vid=3dc1a2f8-8b98-4a65-980d-b42a647d0080"},"vehicle_type_id":"4","last_reported":1750439344,"current_range_meters":16800,"station_id":"ce4bhi12rcd13ifvqfp0","pricing_plan_id":"cebpf4jnsgd1na2vs0mg"},{"bike_id":"dd4685b9-5336-4cfe-9ad6-51a3eb1d5651","system_id":"levelo_inurba_marseille","lat":43.32363,"lon":5.38885,"is_reserved":false,"is_disabled":false,"rental_uris":{"android":"levelo://app?vid=dd4685b9-5336-4cfe-9ad6-51a3eb1d5651","ios":"levelo://app?vid=dd4685b9-5336-4cfe-9ad6-51a3eb1d5651"},"vehicle_type_id":"4","last_reported":1750439344,"current_range_meters":16800,"station_id":"ce4bhqp2rcd13ifvqhog","pricing_plan_id":"cebpf4jnsgd1na2vs0mg"},{"bike_id":"4643bc90-1bac-4c4b-98b1-e2d500830573","system_id":"levelo_inurba_marseille","lat":43.31361,"lon":5.37691,"is_reserved":false,"is_disabled":false,"rental_uris":{"android":"levelo://app?vid=4643bc90-1bac-4c4b-98b1-e2d500830573","ios":"levelo://app?vid=4643bc90-1bac-4c4b-98b1-e2d500830573"},"vehicle_type_id":"4","last_reported":1750439344,"current_range_meters":17200,"station_id":"","pricing_plan_id":"cebpf4jnsgd1na2vs0mg"},{"bike_id":"90c109b5-5cee-495e-8f11-f318c0f086b6","system_id":"levelo_inurba_marseille","lat":43.32488,"lon":5.43456,"is_reserved":false,"is_disabled":false,"rental_uris":{"android":"levelo://app?vid=90c109b5-5cee-495e-8f11-f318c0f086b6","ios":"levelo://app?vid=90c109b5-5cee-495e-8f11-f318c0f086b6"},"vehicle_type_id":"4","last_reported":1750439344,"current_range_meters":17200,"station_id":"","pricing_plan_id":"cebpf4jnsgd1na2vs0mg"},{"bike_id":"a27dfe13-84f1-4a5a-95b6-055954b50ba0","system_id":"levelo_inurba_marseille","lat":43.2737,"lon":5.36258,"is_reserved":false,"is_disabled":false,"rental_uris":{"android":"levelo://app?vid=a27dfe13-84f1-4a5a-95b6-055954b50ba0","ios":"levelo://app?vid=a27dfe13-84f1-4a5a-95b6-055954b50ba0"},"vehicle_type_id":"4","last_reported":1750439344,"current_range_meters":17200,"station_id":"ce4bhbh2rcd13ifvqeo0","pricing_plan_id":"cebpf4jnsgd1na2vs0mg"},{"bike_id":"6e37c715-ddd1-4f05-ba0b-28a60fbb9bb1","system_id":"levelo_inurba_marseille","lat":43.28642,"lon":5.35088,"is_reserved":false,"is_disabled":false,"rental_uris":{"android":"levelo://app?vid=6e37c715-ddd1-4f05-ba0b-28a60fbb9bb1","ios":"levelo://app?vid=6e37c715-ddd1-4f05-ba0b-28a60fbb9bb1"},"vehicle_type_id":"4","last_reported":1750439344,"current_range_meters":17200,"station_id":"ce4bhch2rcd13ifvqeug","pricing_plan_id":"cebpf4jnsgd1na2vs0mg"},{"bike_id":"d1b5972b-dc80-45de-9dad-61456c9acb6b","system_id":"levelo_inurba_marseille","lat":43.28612,"lon":5.35109,"is_reserved":false,"is_disabled":false,"rental_uris":{"android":"levelo://app?vid=d1b5972b-dc80-45de-9dad-61456c9acb6b","ios":"levelo://app?vid=d1b5972b-dc80-45de-9dad-61456c9acb6b"},"vehicle_type_id":"4","last_reported":1750439344,"current_range_meters":17200,"station_id":"ce4bhch2rcd13ifvqeug","pricing_plan_id":"cebpf4jnsgd1na2vs0mg"},{"bike_id":"7292142d-a01f-49a7-8bbe-828e8933a3de","system_id":"levelo_inurba_marseille","lat":43.26565,"lon":5.37323,"is_reserved":false,"is_disabled":false,"rental_uris":{"android":"levelo://app?vid=7292142d-a01f-49a7-8bbe-828e8933a3de","ios":"levelo://app?vid=7292142d-a01f-49a7-8bbe-828e8933a3de"},"vehicle_type_id":"4","last_reported":1750439344,"current_range_meters":17200,"station_id":"ce4bhg12rcd13ifvqf70","pricing_plan_id":"cebpf4jnsgd1na2vs0mg"},{"bike_id":"7e2e4b82-c3da-4ad0-ae28-87b63853112c","system_id":"levelo_inurba_marseille","lat":43.26221,"lon":5.37467,"is_reserved":false,"is_disabled":false,"rental_uris":{"android":"levelo://app?vid=7e2e4b82-c3da-4ad0-ae28-87b63853112c","ios":"levelo://app?vid=7e2e4b82-c3da-4ad0-ae28-87b63853112c"},"vehicle_type_id":"4","last_reported":1750439344,"current_range_meters":17200,"station_id":"ce4bhgp2rcd13ifvqfc0","pricing_plan_id":"cebpf4jnsgd1na2vs0mg"},{"bike_id":"204afd8f-d13a-468d-a59c-e2db9671fff1","system_id":"levelo_inurba_marseille","lat":43.244096,"lon":5.371069,"is_reserved":false,"is_disabled":false,"rental_uris":{"android":"levelo://app?vid=204afd8f-d13a-468d-a59c-e2db9671fff1","ios":"levelo://app?vid=204afd8f-d13a-468d-a59c-e2db9671fff1"},"vehicle_type_id":"4","last_reported":1750439344,"current_range_meters":17200,"station_id":"ce4bhhh2rcd13ifvqfk0","pricing_plan_id":"cebpf4jnsgd1na2vs0mg"},{"bike_id":"f6069a5d-a2bc-44cc-bc6f-f26f79591d92","system_id":"levelo_inurba_marseille","lat":43.30797,"lon":5.37351,"is_reserved":false,"is_disabled":false,"rental_uris":{"android":"levelo://app?vid=f6069a5d-a2bc-44cc-bc6f-f26f79591d92","ios":"levelo://app?vid=f6069a5d-a2bc-44cc-bc6f-f26f79591d92"},"vehicle_type_id":"4","last_reported":1750439344,"current_range_meters":17600,"station_id":"","pricing_plan_id":"cebpf4jnsgd1na2vs0mg"},{"bike_id":"5ae289ba-ee0c-41a0-b17a-2f868061a716","system_id":"levelo_inurba_marseille","lat":43.30118,"lon":5.37451,"is_reserved":false,"is_disabled":false,"rental_uris":{"android":"levelo://app?vid=5ae289ba-ee0c-41a0-b17a-2f868061a716","ios":"levelo://app?vid=5ae289ba-ee0c-41a0-b17a-2f868061a716"},"vehicle_type_id":"4","last_reported":1750439344,"current_range_meters":17600,"station_id":"ce4bgs92rcd13ifvqcc0","pricing_plan_id":"cebpf4jnsgd1na2vs0mg"},{"bike_id":"a0af0bd6-836b-4c1d-9ef7-9add5719e518","system_id":"levelo_inurba_marseille","lat":43.30883,"lon":5.39656,"is_reserved":false,"is_disabled":false,"rental_uris":{"android":"levelo://app?vid=a0af0bd6-836b-4c1d-9ef7-9add5719e518","ios":"levelo://app?vid=a0af0bd6-836b-4c1d-9ef7-9add5719e518"},"vehicle_type_id":"4","last_reported":1750439344,"current_range_meters":17600,"station_id":"ce4bh012rcd13ifvqcv0","pricing_plan_id":"cebpf4jnsgd1na2vs0mg"},{"bike_id":"a23a8be5-b602-4fa4-ad37-0b65a71333a0","system_id":"levelo_inurba_marseille","lat":43.28263,"lon":5.35067,"is_reserved":false,"is_disabled":false,"rental_uris":{"android":"levelo://app?vid=a23a8be5-b602-4fa4-ad37-0b65a71333a0","ios":"levelo://app?vid=a23a8be5-b602-4fa4-ad37-0b65a71333a0"},"vehicle_type_id":"4","last_reported":1750439344,"current_range_meters":17600,"station_id":"ce4bhbp2rcd13ifvqerg","pricing_plan_id":"cebpf4jnsgd1na2vs0mg"},{"bike_id":"e6a42f62-a663-4440-9642-aaccbebc3427","system_id":"levelo_inurba_marseille","lat":43.28261,"lon":5.3506,"is_reserved":false,"is_disabled":false,"rental_uris":{"android":"levelo://app?vid=e6a42f62-a663-4440-9642-aaccbebc3427","ios":"levelo://app?vid=e6a42f62-a663-4440-9642-aaccbebc3427"},"vehicle_type_id":"4","last_reported":1750439344,"current_range_meters":17600,"station_id":"ce4bhbp2rcd13ifvqerg","pricing_plan_id":"cebpf4jnsgd1na2vs0mg"},{"bike_id":"a9fe177d-6cf7-41a6-b924-383cb8edf7ce","system_id":"levelo_inurba_marseille","lat":43.28621,"lon":5.35102,"is_reserved":false,"is_disabled":false,"rental_uris":{"android":"levelo://app?vid=a9fe177d-6cf7-41a6-b924-383cb8edf7ce","ios":"levelo://app?vid=a9fe177d-6cf7-41a6-b924-383cb8edf7ce"},"vehicle_type_id":"4","last_reported":1750439344,"current_range_meters":17600,"station_id":"ce4bhch2rcd13ifvqeug","pricing_plan_id":"cebpf4jnsgd1na2vs0mg"},{"bike_id":"01c0ac0f-b40f-4f7c-a9fe-4fc3ed3169fe","system_id":"levelo_inurba_marseille","lat":43.259958,"lon":5.375591,"is_reserved":false,"is_disabled":false,"rental_uris":{"android":"levelo://app?vid=01c0ac0f-b40f-4f7c-a9fe-4fc3ed3169fe","ios":"levelo://app?vid=01c0ac0f-b40f-4f7c-a9fe-4fc3ed3169fe"},"vehicle_type_id":"4","last_reported":1750439344,"current_range_meters":17600,"station_id":"ce4bhgh2rcd13ifvqfa0","pricing_plan_id":"cebpf4jnsgd1na2vs0mg"},{"bike_id":"bfc717a1-a232-4cc8-920b-74c66f39a68f","system_id":"levelo_inurba_marseille","lat":43.29559,"lon":5.42291,"is_reserved":false,"is_disabled":false,"rental_uris":{"android":"levelo://app?vid=bfc717a1-a232-4cc8-920b-74c66f39a68f","ios":"levelo://app?vid=bfc717a1-a232-4cc8-920b-74c66f39a68f"},"vehicle_type_id":"4","last_reported":1750439344,"current_range_meters":17600,"station_id":"ce4bhph2rcd13ifvqhdg","pricing_plan_id":"cebpf4jnsgd1na2vs0mg"},{"bike_id":"ffbb0c22-3f4e-4cdb-a0e5-79e3b9f3e1a2","system_id":"levelo_inurba_marseille","lat":43.33797,"lon":5.3741,"is_reserved":false,"is_disabled":false,"rental_uris":{"android":"levelo://app?vid=ffbb0c22-3f4e-4cdb-a0e5-79e3b9f3e1a2","ios":"levelo://app?vid=ffbb0c22-3f4e-4cdb-a0e5-79e3b9f3e1a2"},"vehicle_type_id":"4","last_reported":1750439344,"current_range_meters":18000,"station_id":"","pricing_plan_id":"cebpf4jnsgd1na2vs0mg"},{"bike_id":"4f566e17-ff24-4089-9aa8-a8bb8822a902","system_id":"levelo_inurba_marseille","lat":43.28277,"lon":5.35098,"is_reserved":false,"is_disabled":false,"rental_uris":{"android":"levelo://app?vid=4f566e17-ff24-4089-9aa8-a8bb8822a902","ios":"levelo://app?vid=4f566e17-ff24-4089-9aa8-a8bb8822a902"},"vehicle_type_id":"4","last_reported":1750439344,"current_range_meters":18000,"station_id":"ce4bhbp2rcd13ifvqerg","pricing_plan_id":"cebpf4jnsgd1na2vs0mg"},{"bike_id":"ce1e8339-e74d-49f8-bed1-a3b5e59be9b9","system_id":"levelo_inurba_marseille","lat":43.2828,"lon":5.35063,"is_reserved":false,"is_disabled":false,"rental_uris":{"android":"levelo://app?vid=ce1e8339-e74d-49f8-bed1-a3b5e59be9b9","ios":"levelo://app?vid=ce1e8339-e74d-49f8-bed1-a3b5e59be9b9"},"vehicle_type_id":"4","last_reported":1750439344,"current_range_meters":18000,"station_id":"ce4bhbp2rcd13ifvqerg","pricing_plan_id":"cebpf4jnsgd1na2vs0mg"},{"bike_id":"308f52b2-f293-4d16-91e5-ed21034c7800","system_id":"levelo_inurba_marseille","lat":43.28262,"lon":5.35087,"is_reserved":false,"is_disabled":false,"rental_uris":{"android":"levelo://app?vid=308f52b2-f293-4d16-91e5-ed21034c7800","ios":"levelo://app?vid=308f52b2-f293-4d16-91e5-ed21034c7800"},"vehicle_type_id":"4","last_reported":1750439344,"current_range_meters":18000,"station_id":"ce4bhbp2rcd13ifvqerg","pricing_plan_id":"cebpf4jnsgd1na2vs0mg"},{"bike_id":"7f360280-99ae-40b6-a983-d264902e9840","system_id":"levelo_inurba_marseille","lat":43.23179,"lon":5.3999,"is_reserved":false,"is_disabled":false,"rental_uris":{"android":"levelo://app?vid=7f360280-99ae-40b6-a983-d264902e9840","ios":"levelo://app?vid=7f360280-99ae-40b6-a983-d264902e9840"},"vehicle_type_id":"4","last_reported":1750439344,"current_range_meters":18000,"station_id":"ce4bhn12rcd13ifvqgqg","pricing_plan_id":"cebpf4jnsgd1na2vs0mg"},{"bike_id":"5bc1962c-7a28-4e41-9236-e4be2ecb06db","system_id":"levelo_inurba_marseille","lat":43.29578,"lon":5.36745,"is_reserved":false,"is_disabled":false,"rental_uris":{"android":"levelo://app?vid=5bc1962c-7a28-4e41-9236-e4be2ecb06db","ios":"levelo://app?vid=5bc1962c-7a28-4e41-9236-e4be2ecb06db"},"vehicle_type_id":"4","last_reported":1750439344,"current_range_meters":18800,"station_id":"ce4bgph2rcd13ifvqc2g","pricing_plan_id":"cebpf4jnsgd1na2vs0mg"},{"bike_id":"9643c9a8-8831-4b1f-9a2c-9a8bd485cf88","system_id":"levelo_inurba_marseille","lat":43.290716,"lon":5.371874,"is_reserved":false,"is_disabled":false,"rental_uris":{"android":"levelo://app?vid=9643c9a8-8831-4b1f-9a2c-9a8bd485cf88","ios":"levelo://app?vid=9643c9a8-8831-4b1f-9a2c-9a8bd485cf88"},"vehicle_type_id":"4","last_reported":1750439344,"current_range_meters":18800,"station_id":"ce4bh5p2rcd13ifvqe4g","pricing_plan_id":"cebpf4jnsgd1na2vs0mg"},{"bike_id":"c7b5c95f-8bbc-4862-afd3-052c6de8a4e2","system_id":"levelo_inurba_marseille","lat":43.289316,"lon":5.366398,"is_reserved":false,"is_disabled":false,"rental_uris":{"android":"levelo://app?vid=c7b5c95f-8bbc-4862-afd3-052c6de8a4e2","ios":"levelo://app?vid=c7b5c95f-8bbc-4862-afd3-052c6de8a4e2"},"vehicle_type_id":"4","last_reported":1750439344,"current_range_meters":18800,"station_id":"ce4bhap2rcd13ifvqek0","pricing_plan_id":"cebpf4jnsgd1na2vs0mg"},{"bike_id":"50224c76-4c4a-4d95-be2b-c045f2587996","system_id":"levelo_inurba_marseille","lat":43.291963,"lon":5.358042,"is_reserved":false,"is_disabled":false,"rental_uris":{"android":"levelo://app?vid=50224c76-4c4a-4d95-be2b-c045f2587996","ios":"levelo://app?vid=50224c76-4c4a-4d95-be2b-c045f2587996"},"vehicle_type_id":"4","last_reported":1750439344,"current_range_meters":18800,"station_id":"ce4bhb12rcd13ifvqel0","pricing_plan_id":"cebpf4jnsgd1na2vs0mg"},{"bike_id":"390b34c5-41b8-421c-a4d7-4b2c69479963","system_id":"levelo_inurba_marseille","lat":43.29007,"lon":5.35617,"is_reserved":false,"is_disabled":false,"rental_uris":{"android":"levelo://app?vid=390b34c5-41b8-421c-a4d7-4b2c69479963","ios":"levelo://app?vid=390b34c5-41b8-421c-a4d7-4b2c69479963"},"vehicle_type_id":"4","last_reported":1750439344,"current_range_meters":18800,"station_id":"ce4bhb92rcd13ifvqen0","pricing_plan_id":"cebpf4jnsgd1na2vs0mg"},{"bike_id":"0e194cea-8d4b-41ab-8239-e46158d650f7","system_id":"levelo_inurba_marseille","lat":43.282606,"lon":5.350913,"is_reserved":false,"is_disabled":false,"rental_uris":{"android":"levelo://app?vid=0e194cea-8d4b-41ab-8239-e46158d650f7","ios":"levelo://app?vid=0e194cea-8d4b-41ab-8239-e46158d650f7"},"vehicle_type_id":"4","last_reported":1750439344,"current_range_meters":18800,"station_id":"ce4bhbp2rcd13ifvqerg","pricing_plan_id":"cebpf4jnsgd1na2vs0mg"},{"bike_id":"0c7cb20c-0319-43e7-becd-7a46b5373f69","system_id":"levelo_inurba_marseille","lat":43.28614,"lon":5.35108,"is_reserved":false,"is_disabled":false,"rental_uris":{"android":"levelo://app?vid=0c7cb20c-0319-43e7-becd-7a46b5373f69","ios":"levelo://app?vid=0c7cb20c-0319-43e7-becd-7a46b5373f69"},"vehicle_type_id":"4","last_reported":1750439344,"current_range_meters":18800,"station_id":"ce4bhch2rcd13ifvqeug","pricing_plan_id":"cebpf4jnsgd1na2vs0mg"},{"bike_id":"d499f9d7-9b04-46e2-bbc6-fd3bcf9f2103","system_id":"levelo_inurba_marseille","lat":43.26582,"lon":5.3897,"is_reserved":false,"is_disabled":false,"rental_uris":{"android":"levelo://app?vid=d499f9d7-9b04-46e2-bbc6-fd3bcf9f2103","ios":"levelo://app?vid=d499f9d7-9b04-46e2-bbc6-fd3bcf9f2103"},"vehicle_type_id":"4","last_reported":1750439344,"current_range_meters":18800,"station_id":"ce4bhe12rcd13ifvqf30","pricing_plan_id":"cebpf4jnsgd1na2vs0mg"},{"bike_id":"f40b14e2-3a68-45fd-9433-444c784b4081","system_id":"levelo_inurba_marseille","lat":43.21748,"lon":5.34601,"is_reserved":false,"is_disabled":false,"rental_uris":{"android":"levelo://app?vid=f40b14e2-3a68-45fd-9433-444c784b4081","ios":"levelo://app?vid=f40b14e2-3a68-45fd-9433-444c784b4081"},"vehicle_type_id":"4","last_reported":1750439344,"current_range_meters":18800,"station_id":"st_cvj6r9ubvosntc0bgbag","pricing_plan_id":"cebpf4jnsgd1na2vs0mg"},{"bike_id":"73a224ff-f6a3-4c18-9279-d392a3f86d72","system_id":"levelo_inurba_marseille","lat":43.21747,"lon":5.346,"is_reserved":false,"is_disabled":false,"rental_uris":{"android":"levelo://app?vid=73a224ff-f6a3-4c18-9279-d392a3f86d72","ios":"levelo://app?vid=73a224ff-f6a3-4c18-9279-d392a3f86d72"},"vehicle_type_id":"4","last_reported":1750439344,"current_range_meters":18800,"station_id":"st_cvj6r9ubvosntc0bgbag","pricing_plan_id":"cebpf4jnsgd1na2vs0mg"},{"bike_id":"64198631-29f4-47e4-896a-e3675e77b2a1","system_id":"levelo_inurba_marseille","lat":43.21193,"lon":5.35064,"is_reserved":false,"is_disabled":false,"rental_uris":{"android":"levelo://app?vid=64198631-29f4-47e4-896a-e3675e77b2a1","ios":"levelo://app?vid=64198631-29f4-47e4-896a-e3675e77b2a1"},"vehicle_type_id":"4","last_reported":1750439344,"current_range_meters":18800,"station_id":"st_cvj6sg6p6f1abm77japg","pricing_plan_id":"cebpf4jnsgd1na2vs0mg"},{"bike_id":"8059a22c-5067-4fa5-86f7-7ccef752acc3","system_id":"levelo_inurba_marseille","lat":43.24438,"lon":5.369923,"is_reserved":false,"is_disabled":false,"rental_uris":{"android":"levelo://app?vid=8059a22c-5067-4fa5-86f7-7ccef752acc3","ios":"levelo://app?vid=8059a22c-5067-4fa5-86f7-7ccef752acc3"},"vehicle_type_id":"4","last_reported":1750439344,"current_range_meters":19200,"station_id":"","pricing_plan_id":"cebpf4jnsgd1na2vs0mg"},{"bike_id":"7e4eb24f-d3fd-47a1-8286-d45a6eea44c4","system_id":"levelo_inurba_marseille","lat":43.3203,"lon":5.40817,"is_reserved":false,"is_disabled":false,"rental_uris":{"android":"levelo://app?vid=7e4eb24f-d3fd-47a1-8286-d45a6eea44c4","ios":"levelo://app?vid=7e4eb24f-d3fd-47a1-8286-d45a6eea44c4"},"vehicle_type_id":"4","last_reported":1750439344,"current_range_meters":19200,"station_id":"","pricing_plan_id":"cebpf4jnsgd1na2vs0mg"},{"bike_id":"7702607e-db73-4f86-9a88-fe4400b24123","system_id":"levelo_inurba_marseille","lat":43.29269,"lon":5.3763,"is_reserved":false,"is_disabled":false,"rental_uris":{"android":"levelo://app?vid=7702607e-db73-4f86-9a88-fe4400b24123","ios":"levelo://app?vid=7702607e-db73-4f86-9a88-fe4400b24123"},"vehicle_type_id":"4","last_reported":1750439344,"current_range_meters":19200,"station_id":"ce4bgi12rcd13ifvqb80","pricing_plan_id":"cebpf4jnsgd1na2vs0mg"},{"bike_id":"580726f7-3dfb-4b89-9728-fab45ed22c5e","system_id":"levelo_inurba_marseille","lat":43.29708,"lon":5.36612,"is_reserved":false,"is_disabled":false,"rental_uris":{"android":"levelo://app?vid=580726f7-3dfb-4b89-9728-fab45ed22c5e","ios":"levelo://app?vid=580726f7-3dfb-4b89-9728-fab45ed22c5e"},"vehicle_type_id":"4","last_reported":1750439344,"current_range_meters":19200,"station_id":"ce4bgn12rcd13ifvqbt0","pricing_plan_id":"cebpf4jnsgd1na2vs0mg"},{"bike_id":"0e3d9b4e-3533-41df-9847-4d511d1776b0","system_id":"levelo_inurba_marseille","lat":43.31271,"lon":5.4016,"is_reserved":false,"is_disabled":false,"rental_uris":{"android":"levelo://app?vid=0e3d9b4e-3533-41df-9847-4d511d1776b0","ios":"levelo://app?vid=0e3d9b4e-3533-41df-9847-4d511d1776b0"},"vehicle_type_id":"4","last_reported":1750439344,"current_range_meters":19200,"station_id":"ce4bh092rcd13ifvqd30","pricing_plan_id":"cebpf4jnsgd1na2vs0mg"},{"bike_id":"9eee702d-5b3b-4061-b212-ca8867ab6d06","system_id":"levelo_inurba_marseille","lat":43.29259,"lon":5.40904,"is_reserved":false,"is_disabled":false,"rental_uris":{"android":"levelo://app?vid=9eee702d-5b3b-4061-b212-ca8867ab6d06","ios":"levelo://app?vid=9eee702d-5b3b-4061-b212-ca8867ab6d06"},"vehicle_type_id":"4","last_reported":1750439344,"current_range_meters":19200,"station_id":"ce4bh192rcd13ifvqdc0","pricing_plan_id":"cebpf4jnsgd1na2vs0mg"},{"bike_id":"454732b6-5d07-4e7c-8266-bcc2261960ef","system_id":"levelo_inurba_marseille","lat":43.29194,"lon":5.35808,"is_reserved":false,"is_disabled":false,"rental_uris":{"android":"levelo://app?vid=454732b6-5d07-4e7c-8266-bcc2261960ef","ios":"levelo://app?vid=454732b6-5d07-4e7c-8266-bcc2261960ef"},"vehicle_type_id":"4","last_reported":1750439344,"current_range_meters":19200,"station_id":"ce4bhb12rcd13ifvqel0","pricing_plan_id":"cebpf4jnsgd1na2vs0mg"},{"bike_id":"4870ac76-2519-433f-b9f7-52ec8de05fde","system_id":"levelo_inurba_marseille","lat":43.29196,"lon":5.35806,"is_reserved":false,"is_disabled":false,"rental_uris":{"android":"levelo://app?vid=4870ac76-2519-433f-b9f7-52ec8de05fde","ios":"levelo://app?vid=4870ac76-2519-433f-b9f7-52ec8de05fde"},"vehicle_type_id":"4","last_reported":1750439344,"current_range_meters":19200,"station_id":"ce4bhb12rcd13ifvqel0","pricing_plan_id":"cebpf4jnsgd1na2vs0mg"},{"bike_id":"5c5d6b58-25c7-4701-aad4-0ab4f733c18e","system_id":"levelo_inurba_marseille","lat":43.29194,"lon":5.35809,"is_reserved":false,"is_disabled":false,"rental_uris":{"android":"levelo://app?vid=5c5d6b58-25c7-4701-aad4-0ab4f733c18e","ios":"levelo://app?vid=5c5d6b58-25c7-4701-aad4-0ab4f733c18e"},"vehicle_type_id":"4","last_reported":1750439344,"current_range_meters":19200,"station_id":"ce4bhb12rcd13ifvqel0","pricing_plan_id":"cebpf4jnsgd1na2vs0mg"},{"bike_id":"e631847c-453c-4b61-8697-eacfe67a8a5f","system_id":"levelo_inurba_marseille","lat":43.284034,"lon":5.349789,"is_reserved":false,"is_disabled":false,"rental_uris":{"android":"levelo://app?vid=e631847c-453c-4b61-8697-eacfe67a8a5f","ios":"levelo://app?vid=e631847c-453c-4b61-8697-eacfe67a8a5f"},"vehicle_type_id":"4","last_reported":1750439344,"current_range_meters":19200,"station_id":"ce4bhbh2rcd13ifvqepg","pricing_plan_id":"cebpf4jnsgd1na2vs0mg"},{"bike_id":"367922b5-42cb-42f4-aad2-93d24b9cba6f","system_id":"levelo_inurba_marseille","lat":43.28419,"lon":5.34976,"is_reserved":false,"is_disabled":false,"rental_uris":{"android":"levelo://app?vid=367922b5-42cb-42f4-aad2-93d24b9cba6f","ios":"levelo://app?vid=367922b5-42cb-42f4-aad2-93d24b9cba6f"},"vehicle_type_id":"4","last_reported":1750439344,"current_range_meters":19200,"station_id":"ce4bhbh2rcd13ifvqepg","pricing_plan_id":"cebpf4jnsgd1na2vs0mg"},{"bike_id":"ef5a24f2-8ed0-4e4c-a837-410d7398a6f2","system_id":"levelo_inurba_marseille","lat":43.28417,"lon":5.34983,"is_reserved":false,"is_disabled":false,"rental_uris":{"android":"levelo://app?vid=ef5a24f2-8ed0-4e4c-a837-410d7398a6f2","ios":"levelo://app?vid=ef5a24f2-8ed0-4e4c-a837-410d7398a6f2"},"vehicle_type_id":"4","last_reported":1750439344,"current_range_meters":19200,"station_id":"ce4bhbh2rcd13ifvqepg","pricing_plan_id":"cebpf4jnsgd1na2vs0mg"},{"bike_id":"2c362067-3106-419a-84c5-258bc9c39840","system_id":"levelo_inurba_marseille","lat":43.25498,"lon":5.3765,"is_reserved":false,"is_disabled":false,"rental_uris":{"android":"levelo://app?vid=2c362067-3106-419a-84c5-258bc9c39840","ios":"levelo://app?vid=2c362067-3106-419a-84c5-258bc9c39840"},"vehicle_type_id":"4","last_reported":1750439344,"current_range_meters":19200,"station_id":"ce4bhh12rcd13ifvqff0","pricing_plan_id":"cebpf4jnsgd1na2vs0mg"},{"bike_id":"90c5a1b6-730c-413e-bcee-b223ffbd4504","system_id":"levelo_inurba_marseille","lat":43.241758,"lon":5.364004,"is_reserved":false,"is_disabled":false,"rental_uris":{"android":"levelo://app?vid=90c5a1b6-730c-413e-bcee-b223ffbd4504","ios":"levelo://app?vid=90c5a1b6-730c-413e-bcee-b223ffbd4504"},