{"last_updated":1698339972,"ttl":30,"version":"2.2","data":{"bikes":[{"bike_id":"cb7576bb-0362-4fbf-baa4-dcb32e287db2","system_id":"levelo_inurba_marseille","lat":43.313231,"lon":5.36681,"is_reserved":false,"is_disabled":false,"rental_uris":{"android":"levelo://app?vid=cb7576bb-0362-4fbf-baa4-dcb32e287db2","ios":"levelo://app?vid=cb7576bb-0362-4fbf-baa4-dcb32e287db2"},"vehicle_type_id":"4","last_reported":1698339972,"current_range_meters":28800,"station_id":"","pricing_plan_id":"free"},{"bike_id":"f5c58904-aeb7-4548-b4b5-9f5e83f269ce","system_id":"levelo_inurba_marseille","lat":43.309797,"lon":5.368093,"is_reserved":false,"is_disabled":false,"rental_uris":{"android":"levelo://app?vid=f5c58904-aeb7-4548-b4b5-9f5e83f269ce","ios":"levelo://app?vid=f5c58904-aeb7-4548-b4b5-9f5e83f269ce"},"vehicle_type_id":"4","last_reported":1698339972,"current_range_meters":0,"station_id":"ce4bgn92rcd13ifvqbvg","pricing_plan_id":"free"},{"bike_id":"991ca61c-4548-4bd8-9a43-1900373ad3e1","system_id":"levelo_inurba_marseille","lat":43.309066,"lon":5.368457,"is_reserved":false,"is_disabled":false,"rental_uris":{"android":"levelo://app?vid=991ca61c-4548-4bd8-9a43-1900373ad3e1","ios":"levelo://app?vid=991ca61c-4548-4bd8-9a43-1900373ad3e1"},"vehicle_type_id":"4","last_reported":1698339972,"current_range_meters":19200,"station_id":"","pricing_plan_id":"free"},{"bike_id":"08ffa7f1-d843-438e-86c1-59f0757f34f5","system_id":"levelo_inurba_marseille","lat":43.314811,"lon":5.373104,"is_reserved":false,"is_disabled":false,"rental_uris":{"android":"levelo://app?vid=08ffa7f1-d843-438e-86c1-59f0757f34f5","ios":"levelo://app?vid=08ffa7f1-d843-438e-86c1-59f0757f34f5"},"vehicle_type_id":"4","last_reported":1698339972,"current_range_meters":11600,"station_id":"ce4bgt12rcd13ifvqcd0","pricing_plan_id":"free"},{"bike_id":"cf04d626-4cf4-4f35-a4f3-10bebc31c564","system_id":"levelo_inurba_marseille","lat":43.315439,"lon":5.372771,"is_reserved":false,"is_disabled":false,"rental_uris":{"android":"levelo://app?vid=cf04d626-4cf4-4f35-a4f3-10bebc31c564","ios":"levelo://app?vid=cf04d626-4cf4-4f35-a4f3-10bebc31c564"},"vehicle_type_id":"4","last_reported":1698339972,"current_range_meters":3600,"station_id":"","pricing_plan_id":"free"},{"bike_id":"dbbdea51-7e3d-4271-bd96-c3aabecbd7e2","system_id":"levelo_inurba_marseille","lat":43.315783,"lon":5.372523,"is_reserved":false,"is_disabled":false,"rental_uris":{"android":"levelo://app?vid=dbbdea51-7e3d-4271-bd96-c3aabecbd7e2","ios":"levelo://app?vid=dbbdea51-7e3d-4271-bd96-c3aabecbd7e2"},"vehicle_type_id":"4","last_reported":1698339972,"current_range_meters":15200,"station_id":"","pricing_plan_id":"free"},{"bike_id":"9865024a-215a-4b93-9a74-9beaf7fd5b37","system_id":"levelo_inurba_marseille","lat":43.309039,"lon":5.371797,"is_reserved":false,"is_disabled":false,"rental_uris":{"android":"levelo://app?vid=9865024a-215a-4b93-9a74-9beaf7fd5b37","ios":"levelo://app?vid=9865024a-215a-4b93-9a74-9beaf7fd5b37"},"vehicle_type_id":"4","last_reported":1698339972,"current_range_meters":27600,"station_id":"ce4bguh2rcd13ifvqckg","pricing_plan_id":"free"},{"bike_id":"8f586d39-b7e1-4c20-a966-031b259bbee2","system_id":"levelo_inurba_marseille","lat":43.30547,"lon":5.36525,"is_reserved":false,"is_disabled":false,"rental_uris":{"android":"levelo://app?vid=8f586d39-b7e1-4c20-a966-031b259bbee2","ios":"levelo://app?vid=8f586d39-b7e1-4c20-a966-031b259bbee2"},"vehicle_type_id":"4","last_reported":1698339972,"current_range_meters":0,"station_id":"ce4bgs12rcd13ifvqcag","pricing_plan_id":"free"},{"bike_id":"f252b071-dddd-4e5f-ad07-506846af6d1a","system_id":"levelo_inurba_marseille","lat":43.30542,"lon":5.36528,"is_reserved":false,"is_disabled":false,"rental_uris":{"android":"levelo://app?vid=f252b071-dddd-4e5f-ad07-506846af6d1a","ios":"levelo://app?vid=f252b071-dddd-4e5f-ad07-506846af6d1a"},"vehicle_type_id":"4","last_reported":1698339972,"current_range_meters":28400,"station_id":"ce4bgs12rcd13ifvqcag","pricing_plan_id":"free"},{"bike_id":"0cb59448-e2f8-4cf1-8f01-23dc6465f395","system_id":"levelo_inurba_marseille","lat":43.305706,"lon":5.365654,"is_reserved":false,"is_disabled":false,"rental_uris":{"android":"levelo://app?vid=0cb59448-e2f8-4cf1-8f01-23dc6465f395","ios":"levelo://app?vid=0cb59448-e2f8-4cf1-8f01-23dc6465f395"},"vehicle_type_id":"4","last_reported":1698339972,"current_range_meters":0,"station_id":"ce4bgs12rcd13ifvqcag","pricing_plan_id":"free"},{"bike_id":"4b821b35-e1ae-4668-a879-30e1fb6dc4dd","system_id":"levelo_inurba_marseille","lat":43.305706,"lon":5.365654,"is_reserved":false,"is_disabled":false,"rental_uris":{"android":"levelo://app?vid=4b821b35-e1ae-4668-a879-30e1fb6dc4dd","ios":"levelo://app?vid=4b821b35-e1ae-4668-a879-30e1fb6dc4dd"},"vehicle_type_id":"4","last_reported":1698339972,"current_range_meters":0,"station_id":"ce4bgs12rcd13ifvqcag","pricing_plan_id":"free"},{"bike_id":"99d98c6e-45b2-4333-817f-3e47e4570f92","system_id":"levelo_inurba_marseille","lat":43.31121,"lon":5.37786,"is_reserved":false,"is_disabled":false,"rental_uris":{"android":"levelo://app?vid=99d98c6e-45b2-4333-817f-3e47e4570f92","ios":"levelo://app?vid=99d98c6e-45b2-4333-817f-3e47e4570f92"},"vehicle_type_id":"4","last_reported":1698339972,"current_range_meters":4800,"station_id":"","pricing_plan_id":"free"},{"bike_id":"2fe6addf-3f28-4e18-9be7-8e324eee151f","system_id":"levelo_inurba_marseille","lat":43.30501,"lon":5.37088,"is_reserved":false,"is_disabled":false,"rental_uris":{"android":"levelo://app?vid=2fe6addf-3f28-4e18-9be7-8e324eee151f","ios":"levelo://app?vid=2fe6addf-3f28-4e18-9be7-8e324eee151f"},"vehicle_type_id":"4","last_reported":1698339972,"current_range_meters":9600,"station_id":"","pricing_plan_id":"free"},{"bike_id":"66f84e0f-5e8d-4c50-87d0-cf3b74ace8f0","system_id":"levelo_inurba_marseille","lat":43.30786,"lon":5.37655,"is_reserved":false,"is_disabled":false,"rental_uris":{"android":"levelo://app?vid=66f84e0f-5e8d-4c50-87d0-cf3b74ace8f0","ios":"levelo://app?vid=66f84e0f-5e8d-4c50-87d0-cf3b74ace8f0"},"vehicle_type_id":"4","last_reported":1698339972,"current_range_meters":0,"station_id":"ce4bgv92rcd13ifvqcq0","pricing_plan_id":"free"},{"bike_id":"0c6c8f27-60e7-4fd1-a2fc-0041cde815e9","system_id":"levelo_inurba_marseille","lat":43.30388,"lon":5.36822,"is_reserved":false,"is_disabled":false,"rental_uris":{"android":"levelo://app?vid=0c6c8f27-60e7-4fd1-a2fc-0041cde815e9","ios":"levelo://app?vid=0c6c8f27-60e7-4fd1-a2fc-0041cde815e9"},"vehicle_type_id":"4","last_reported":1698339972,"current_range_meters":0,"station_id":"","pricing_plan_id":"free"},{"bike_id":"fcf5847c-c456-4790-aa46-99bd346d6804","system_id":"levelo_inurba_marseille","lat":43.315365,"lon":5.380329,"is_reserved":false,"is_disabled":false,"rental_uris":{"android":"levelo://app?vid=fcf5847c-c456-4790-aa46-99bd346d6804","ios":"levelo://app?vid=fcf5847c-c456-4790-aa46-99bd346d6804"},"vehicle_type_id":"4","last_reported":1698339972,"current_range_meters":24800,"station_id":"ce4bhsp2rcd13ifvqi50","pricing_plan_id":"free"},{"bike_id":"b5486ec8-1ff7-40d7-bec6-6ee79c5c6120","system_id":"levelo_inurba_marseille","lat":43.308012,"lon":5.381511,"is_reserved":false,"is_disabled":false,"rental_uris":{"android":"levelo://app?vid=b5486ec8-1ff7-40d7-bec6-6ee79c5c6120","ios":"levelo://app?vid=b5486ec8-1ff7-40d7-bec6-6ee79c5c6120"},"vehicle_type_id":"4","last_reported":1698339972,"current_range_meters":4000,"station_id":"ce4bgt12rcd13ifvqce0","pricing_plan_id":"free"},{"bike_id":"6a8479bb-ec66-41f9-a74c-51d3bedfe3af","system_id":"levelo_inurba_marseille","lat":43.304606,"lon":5.379026,"is_reserved":false,"is_disabled":false,"rental_uris":{"android":"levelo://app?vid=6a8479bb-ec66-41f9-a74c-51d3bedfe3af","ios":"levelo://app?vid=6a8479bb-ec66-41f9-a74c-51d3bedfe3af"},"vehicle_type_id":"4","last_reported":1698339972,"current_range_meters":0,"station_id":"ce4bgup2rcd13ifvqcn0","pricing_plan_id":"free"},{"bike_id":"9b2907ba-813b-4d0c-8bac-ab8fe9550fb3","system_id":"levelo_inurba_marseille","lat":43.304606,"lon":5.379026,"is_reserved":false,"is_disabled":false,"rental_uris":{"android":"levelo://app?vid=9b2907ba-813b-4d0c-8bac-ab8fe9550fb3","ios":"levelo://app?vid=9b2907ba-813b-4d0c-8bac-ab8fe9550fb3"},"vehicle_type_id":"4","last_reported":1698339972,"current_range_meters":4000,"station_id":"ce4bgup2rcd13ifvqcn0","pricing_plan_id":"free"},{"bike_id":"9499ea0f-1f2b-4282-939c-33b92bfcf8fd","system_id":"levelo_inurba_marseille","lat":43.304606,"lon":5.379026,"is_reserved":false,"is_disabled":false,"rental_uris":{"android":"levelo://app?vid=9499ea0f-1f2b-4282-939c-33b92bfcf8fd","ios":"levelo://app?vid=9499ea0f-1f2b-4282-939c-33b92bfcf8fd"},"vehicle_type_id":"4","last_reported":1698339972,"current_range_meters":0,"station_id":"ce4bgup2rcd13ifvqcn0","pricing_plan_id":"free"},{"bike_id":"1047bcc5-10ff-460b-bd6f-eac1d4a67db4","system_id":"levelo_inurba_marseille","lat":43.31745,"lon":5.382537,"is_reserved":false,"is_disabled":false,"rental_uris":{"android":"levelo://app?vid=1047bcc5-10ff-460b-bd6f-eac1d4a67db4","ios":"levelo://app?vid=1047bcc5-10ff-460b-bd6f-eac1d4a67db4"},"vehicle_type_id":"4","last_reported":1698339972,"current_range_meters":0,"station_id":"","pricing_plan_id":"free"},{"bike_id":"67fc0c4c-164d-405c-b3a5-6b77d91feb1d","system_id":"levelo_inurba_marseille","lat":43.302784,"lon":5.377158,"is_reserved":false,"is_disabled":false,"rental_uris":{"android":"levelo://app?vid=67fc0c4c-164d-405c-b3a5-6b77d91feb1d","ios":"levelo://app?vid=67fc0c4c-164d-405c-b3a5-6b77d91feb1d"},"vehicle_type_id":"4","last_reported":1698339972,"current_range_meters":14400,"station_id":"ce4bguh2rcd13ifvqcj0","pricing_plan_id":"free"},{"bike_id":"46e59620-997e-486c-a36f-24a6f0541ad5","system_id":"levelo_inurba_marseille","lat":43.319937,"lon":5.381563,"is_reserved":false,"is_disabled":false,"rental_uris":{"android":"levelo://app?vid=46e59620-997e-486c-a36f-24a6f0541ad5","ios":"levelo://app?vid=46e59620-997e-486c-a36f-24a6f0541ad5"},"vehicle_type_id":"4","last_reported":1698339972,"current_range_meters":10000,"station_id":"","pricing_plan_id":"free"},{"bike_id":"958a38cf-e6a5-4c2c-8ca8-bac2c7f3d3c4","system_id":"levelo_inurba_marseille","lat":43.299222,"lon":5.365554,"is_reserved":false,"is_disabled":false,"rental_uris":{"android":"levelo://app?vid=958a38cf-e6a5-4c2c-8ca8-bac2c7f3d3c4","ios":"levelo://app?vid=958a38cf-e6a5-4c2c-8ca8-bac2c7f3d3c4"},"vehicle_type_id":"4","last_reported":1698339972,"current_range_meters":400,"station_id":"ce4bgm92rcd13ifvqbr0","pricing_plan_id":"free"},{"bike_id":"97997ef7-b347-4148-ba57-9a15ecc4912d","system_id":"levelo_inurba_marseille","lat":43.320945,"lon":5.38306,"is_reserved":false,"is_disabled":false,"rental_uris":{"android":"levelo://app?vid=97997ef7-b347-4148-ba57-9a15ecc4912d","ios":"levelo://app?vid=97997ef7-b347-4148-ba57-9a15ecc4912d"},"vehicle_type_id":"4","last_reported":1698339972,"current_range_meters":400,"station_id":"","pricing_plan_id":"free"},{"bike_id":"d478f52d-33a1-4414-bc3e-772d5356b587","system_id":"levelo_inurba_marseille","lat":43.311722,"lon":5.387247,"is_reserved":false,"is_disabled":false,"rental_uris":{"android":"levelo://app?vid=d478f52d-33a1-4414-bc3e-772d5356b587","ios":"levelo://app?vid=d478f52d-33a1-4414-bc3e-772d5356b587"},"vehicle_type_id":"4","last_reported":1698339972,"current_range_meters":800,"station_id":"ce4bgv12rcd13ifvqcp0","pricing_plan_id":"free"},{"bike_id":"cf78f597-e9db-4fa2-b29b-2dd0d6b715ff","system_id":"levelo_inurba_marseille","lat":43.311722,"lon":5.387247,"is_reserved":false,"is_disabled":false,"rental_uris":{"android":"levelo://app?vid=cf78f597-e9db-4fa2-b29b-2dd0d6b715ff","ios":"levelo://app?vid=cf78f597-e9db-4fa2-b29b-2dd0d6b715ff"},"vehicle_type_id":"4","last_reported":1698339972,"current_range_meters":22800,"station_id":"ce4bgv12rcd13ifvqcp0","pricing_plan_id":"free"},{"bike_id":"250a360f-2e18-4987-ae1d-ddd1293a2b45","system_id":"levelo_inurba_marseille","lat":43.32288,"lon":5.38275,"is_reserved":false,"is_disabled":false,"rental_uris":{"android":"levelo://app?vid=250a360f-2e18-4987-ae1d-ddd1293a2b45","ios":"levelo://app?vid=250a360f-2e18-4987-ae1d-ddd1293a2b45"},"vehicle_type_id":"4","last_reported":1698339972,"current_range_meters":10000,"station_id":"ce4bhr12rcd13ifvqhqg","pricing_plan_id":"free"},{"bike_id":"6d07e92f-86a3-47ed-ba80-0b190cefb948","system_id":"levelo_inurba_marseille","lat":43.322872,"lon":5.382756,"is_reserved":false,"is_disabled":false,"rental_uris":{"android":"levelo://app?vid=6d07e92f-86a3-47ed-ba80-0b190cefb948","ios":"levelo://app?vid=6d07e92f-86a3-47ed-ba80-0b190cefb948"},"vehicle_type_id":"4","last_reported":1698339972,"current_range_meters":28000,"station_id":"ce4bhr12rcd13ifvqhqg","pricing_plan_id":"free"},{"bike_id":"2bf09692-7151-4aba-9fa7-8ce1d6106004","system_id":"levelo_inurba_marseille","lat":43.328303,"lon":5.366873,"is_reserved":false,"is_disabled":false,"rental_uris":{"android":"levelo://app?vid=2bf09692-7151-4aba-9fa7-8ce1d6106004","ios":"levelo://app?vid=2bf09692-7151-4aba-9fa7-8ce1d6106004"},"vehicle_type_id":"4","last_reported":1698339972,"current_range_meters":20000,"station_id":"","pricing_plan_id":"free"},{"bike_id":"b3e63496-ef57-4fe7-9649-3ee98b2a4e91","system_id":"levelo_inurba_marseille","lat":43.328371,"lon":5.366912,"is_reserved":false,"is_disabled":false,"rental_uris":{"android":"levelo://app?vid=b3e63496-ef57-4fe7-9649-3ee98b2a4e91","ios":"levelo://app?vid=b3e63496-ef57-4fe7-9649-3ee98b2a4e91"},"vehicle_type_id":"4","last_reported":1698339972,"current_range_meters":15600,"station_id":"ce4bhs92rcd13ifvqi0g","pricing_plan_id":"free"},{"bike_id":"5b59682e-3f29-4a89-90fc-2781721d815e","system_id":"levelo_inurba_marseille","lat":43.328371,"lon":5.366912,"is_reserved":false,"is_disabled":false,"rental_uris":{"android":"levelo://app?vid=5b59682e-3f29-4a89-90fc-2781721d815e","ios":"levelo://app?vid=5b59682e-3f29-4a89-90fc-2781721d815e"},"vehicle_type_id":"4","last_reported":1698339972,"current_range_meters":0,"station_id":"ce4bhs92rcd13ifvqi0g","pricing_plan_id":"free"},{"bike_id":"58ea78a3-d62d-480c-b7bc-cf227875ae61","system_id":"levelo_inurba_marseille","lat":43.296131,"lon":5.370791,"is_reserved":false,"is_disabled":false,"rental_uris":{"android":"levelo://app?vid=58ea78a3-d62d-480c-b7bc-cf227875ae61","ios":"levelo://app?vid=58ea78a3-d62d-480c-b7bc-cf227875ae61"},"vehicle_type_id":"4","last_reported":1698339972,"current_range_meters":0,"station_id":"ce4bgnh2rcd13ifvqc0g","pricing_plan_id":"free"},{"bike_id":"965da4a5-7e25-4b1d-b4b7-dbd1ff8cd978","system_id":"levelo_inurba_marseille","lat":43.296131,"lon":5.370773,"is_reserved":false,"is_disabled":false,"rental_uris":{"android":"levelo://app?vid=965da4a5-7e25-4b1d-b4b7-dbd1ff8cd978","ios":"levelo://app?vid=965da4a5-7e25-4b1d-b4b7-dbd1ff8cd978"},"vehicle_type_id":"4","last_reported":1698339972,"current_range_meters":29200,"station_id":"ce4bgnh2rcd13ifvqc0g","pricing_plan_id":"free"},{"bike_id":"f3d0381f-7a2d-409e-a12f-bd3d9095653d","system_id":"levelo_inurba_marseille","lat":43.329673,"lon":5.365468,"is_reserved":false,"is_disabled":false,"rental_uris":{"android":"levelo://app?vid=f3d0381f-7a2d-409e-a12f-bd3d9095653d","ios":"levelo://app?vid=f3d0381f-7a2d-409e-a12f-bd3d9095653d"},"vehicle_type_id":"4","last_reported":1698339972,"current_range_meters":12400,"station_id":"","pricing_plan_id":"free"},{"bike_id":"f2441f78-349c-4961-95bd-df832b356934","system_id":"levelo_inurba_marseille","lat":43.299028,"lon":5.381509,"is_reserved":false,"is_disabled":false,"rental_uris":{"android":"levelo://app?vid=f2441f78-349c-4961-95bd-df832b356934","ios":"levelo://app?vid=f2441f78-349c-4961-95bd-df832b356934"},"vehicle_type_id":"4","last_reported":1698339972,"current_range_meters":27200,"station_id":"ce4bgj12rcd13ifvqbc0","pricing_plan_id":"free"},{"bike_id":"9a7053b0-9c36-45eb-884a-ed4109978149","system_id":"levelo_inurba_marseille","lat":43.309589,"lon":5.390258,"is_reserved":false,"is_disabled":false,"rental_uris":{"android":"levelo://app?vid=9a7053b0-9c36-45eb-884a-ed4109978149","ios":"levelo://app?vid=9a7053b0-9c36-45eb-884a-ed4109978149"},"vehicle_type_id":"4","last_reported":1698339972,"current_range_meters":25200,"station_id":"ce4bgup2rcd13ifvqco0","pricing_plan_id":"free"},{"bike_id":"2e9b280a-3925-46fb-ac83-74aaea59ef04","system_id":"levelo_inurba_marseille","lat":43.299045,"lon":5.381585,"is_reserved":false,"is_disabled":false,"rental_uris":{"android":"levelo://app?vid=2e9b280a-3925-46fb-ac83-74aaea59ef04","ios":"levelo://app?vid=2e9b280a-3925-46fb-ac83-74aaea59ef04"},"vehicle_type_id":"4","last_reported":1698339972,"current_range_meters":0,"station_id":"ce4bgj12rcd13ifvqbc0","pricing_plan_id":"free"},{"bike_id":"cf12b229-22ee-4bd7-82fc-f8908e9c8b8c","system_id":"levelo_inurba_marseille","lat":43.296921,"lon":5.376579,"is_reserved":false,"is_disabled":false,"rental_uris":{"android":"levelo://app?vid=cf12b229-22ee-4bd7-82fc-f8908e9c8b8c","ios":"levelo://app?vid=cf12b229-22ee-4bd7-82fc-f8908e9c8b8c"},"vehicle_type_id":"4","last_reported":1698339972,"current_range_meters":18800,"station_id":"ce4bgkh2rcd13ifvqbl0","pricing_plan_id":"free"},{"bike_id":"302b2963-b9e2-4704-9e25-4a30432b1449","system_id":"levelo_inurba_marseille","lat":43.267959,"lon":5.402685,"is_reserved":false,"is_disabled":false,"rental_uris":{"android":"levelo://app?vid=302b2963-b9e2-4704-9e25-4a30432b1449","ios":"levelo://app?vid=302b2963-b9e2-4704-9e25-4a30432b1449"},"vehicle_type_id":"4","last_reported":1698339972,"current_range_meters":21600,"station_id":"ce501612rcd8frsf0b60","pricing_plan_id":"free"},{"bike_id":"895cb960-cf46-4d66-9714-4304eb3b135e","system_id":"levelo_inurba_marseille","lat":43.295748,"lon":5.37522,"is_reserved":false,"is_disabled":false,"rental_uris":{"android":"levelo://app?vid=895cb960-cf46-4d66-9714-4304eb3b135e","ios":"levelo://app?vid=895cb960-cf46-4d66-9714-4304eb3b135e"},"vehicle_type_id":"4","last_reported":1698339972,"current_range_meters":0,"station_id":"ce4bgh92rcd13ifvqb50","pricing_plan_id":"free"},{"bike_id":"1074d5cd-4d7b-41f9-8e5c-6e04096bcbcc","system_id":"levelo_inurba_marseille","lat":43.296281,"lon":5.377037,"is_reserved":false,"is_disabled":false,"rental_uris":{"android":"levelo://app?vid=1074d5cd-4d7b-41f9-8e5c-6e04096bcbcc","ios":"levelo://app?vid=1074d5cd-4d7b-41f9-8e5c-6e04096bcbcc"},"vehicle_type_id":"4","last_reported":1698339972,"current_range_meters":16400,"station_id":"ce4bgi92rcd13ifvqb90","pricing_plan_id":"free"},{"bike_id":"8fbddaaa-e80b-4425-97a4-572e52c7aef7","system_id":"levelo_inurba_marseille","lat":43.304274,"lon":5.388873,"is_reserved":false,"is_disabled":false,"rental_uris":{"android":"levelo://app?vid=8fbddaaa-e80b-4425-97a4-572e52c7aef7","ios":"levelo://app?vid=8fbddaaa-e80b-4425-97a4-572e52c7aef7"},"vehicle_type_id":"4","last_reported":1698339972,"current_range_meters":16400,"station_id":"ce4bgk12rcd13ifvqbi0","pricing_plan_id":"free"},{"bike_id":"f41b9166-86fb-4427-bf7a-a7535ff4bd61","system_id":"levelo_inurba_marseille","lat":43.304365,"lon":5.388966,"is_reserved":false,"is_disabled":false,"rental_uris":{"android":"levelo://app?vid=f41b9166-86fb-4427-bf7a-a7535ff4bd61","ios":"levelo://app?vid=f41b9166-86fb-4427-bf7a-a7535ff4bd61"},"vehicle_type_id":"4","last_reported":1698339972,"current_range_meters":0,"station_id":"ce4bgk12rcd13ifvqbi0","pricing_plan_id":"free"},{"bike_id":"dc539f35-8875-4f7e-a968-2eac7a58ba04","system_id":"levelo_inurba_marseille","lat":43.299707,"lon":5.384859,"is_reserved":false,"is_disabled":false,"rental_uris":{"android":"levelo://app?vid=dc539f35-8875-4f7e-a968-2eac7a58ba04","ios":"levelo://app?vid=dc539f35-8875-4f7e-a968-2eac7a58ba04"},"vehicle_type_id":"4","last_reported":1698339972,"current_range_meters":10400,"station_id":"ce4bgj92rcd13ifvqbd0","pricing_plan_id":"free"},{"bike_id":"50ba0a4e-dc52-4b36-bbea-ef74378b458b","system_id":"levelo_inurba_marseille","lat":43.29698,"lon":5.3812,"is_reserved":false,"is_disabled":false,"rental_uris":{"android":"levelo://app?vid=50ba0a4e-dc52-4b36-bbea-ef74378b458b","ios":"levelo://app?vid=50ba0a4e-dc52-4b36-bbea-ef74378b458b"},"vehicle_type_id":"4","last_reported":1698339972,"current_range_meters":1600,"station_id":"","pricing_plan_id":"free"},{"bike_id":"cef65dd8-e2a9-4bc6-9bda-0dd66b80ef3f","system_id":"levelo_inurba_marseille","lat":43.323675,"lon":5.388852,"is_reserved":false,"is_disabled":false,"rental_uris":{"android":"levelo://app?vid=cef65dd8-e2a9-4bc6-9bda-0dd66b80ef3f","ios":"levelo://app?vid=cef65dd8-e2a9-4bc6-9bda-0dd66b80ef3f"},"vehicle_type_id":"4","last_reported":1698339972,"current_range_meters":20800,"station_id":"","pricing_plan_id":"free"},{"bike_id":"b961e133-c9b3-4ea8-9ac2-9fb830c54c5f","system_id":"levelo_inurba_marseille","lat":43.29605,"lon":5.38104,"is_reserved":false,"is_disabled":false,"rental_uris":{"android":"levelo://app?vid=b961e133-c9b3-4ea8-9ac2-9fb830c54c5f","ios":"levelo://app?vid=b961e133-c9b3-4ea8-9ac2-9fb830c54c5f"},"vehicle_type_id":"4","last_reported":1698339972,"current_range_meters":6800,"station_id":"ce4bgl12rcd13ifvqbo0","pricing_plan_id":"free"},{"bike_id":"eb5bc363-d62b-4f46-aa7f-e66fa55022c2","system_id":"levelo_inurba_marseille","lat":43.32411,"lon":5.38893,"is_reserved":false,"is_disabled":false,"rental_uris":{"android":"levelo://app?vid=eb5bc363-d62b-4f46-aa7f-e66fa55022c2","ios":"levelo://app?vid=eb5bc363-d62b-4f46-aa7f-e66fa55022c2"},"vehicle_type_id":"4","last_reported":1698339972,"current_range_meters":0,"station_id":"ce4bhqp2rcd13ifvqhog","pricing_plan_id":"free"},{"bike_id":"ec302ae5-cfe5-4710-ad8f-0fde48b4deef","system_id":"levelo_inurba_marseille","lat":43.29595,"lon":5.38094,"is_reserved":false,"is_disabled":false,"rental_uris":{"android":"levelo://app?vid=ec302ae5-cfe5-4710-ad8f-0fde48b4deef","ios":"levelo://app?vid=ec302ae5-cfe5-4710-ad8f-0fde48b4deef"},"vehicle_type_id":"4","last_reported":1698339972,"current_range_meters":18400,"station_id":"ce4bgl12rcd13ifvqbo0","pricing_plan_id":"free"},{"bike_id":"b11a2e6f-fd0a-4d15-9bb6-ea9d35d4b32f","system_id":"levelo_inurba_marseille","lat":43.323569,"lon":5.389753,"is_reserved":false,"is_disabled":false,"rental_uris":{"android":"levelo://app?vid=b11a2e6f-fd0a-4d15-9bb6-ea9d35d4b32f","ios":"levelo://app?vid=b11a2e6f-fd0a-4d15-9bb6-ea9d35d4b32f"},"vehicle_type_id":"4","last_reported":1698339972,"current_range_meters":27200,"station_id":"ce4bhqp2rcd13ifvqhog","pricing_plan_id":"free"},{"bike_id":"f7a90f13-c9f2-494d-baa4-86a02a3485ed","system_id":"levelo_inurba_marseille","lat":43.29304,"lon":5.37178,"is_reserved":false,"is_disabled":false,"rental_uris":{"android":"levelo://app?vid=f7a90f13-c9f2-494d-baa4-86a02a3485ed","ios":"levelo://app?vid=f7a90f13-c9f2-494d-baa4-86a02a3485ed"},"vehicle_type_id":"4","last_reported":1698339972,"current_range_meters":8400,"station_id":"ce4bgh92rcd13ifvqb40","pricing_plan_id":"free"},{"bike_id":"80d7c091-bf29-442e-98bf-4d7ecd0082c0","system_id":"levelo_inurba_marseille","lat":43.29302,"lon":5.37173,"is_reserved":false,"is_disabled":false,"rental_uris":{"android":"levelo://app?vid=80d7c091-bf29-442e-98bf-4d7ecd0082c0","ios":"levelo://app?vid=80d7c091-bf29-442e-98bf-4d7ecd0082c0"},"vehicle_type_id":"4","last_reported":1698339972,"current_range_meters":400,"station_id":"ce4bgh92rcd13ifvqb40","pricing_plan_id":"free"},{"bike_id":"bbab7e28-ee01-4080-b12e-dd8baccd43d0","system_id":"levelo_inurba_marseille","lat":43.32394,"lon":5.389747,"is_reserved":false,"is_disabled":false,"rental_uris":{"android":"levelo://app?vid=bbab7e28-ee01-4080-b12e-dd8baccd43d0","ios":"levelo://app?vid=bbab7e28-ee01-4080-b12e-dd8baccd43d0"},"vehicle_type_id":"4","last_reported":1698339972,"current_range_meters":16000,"station_id":"","pricing_plan_id":"free"},{"bike_id":"5d96723b-de33-402f-9b3f-e90d7737cd91","system_id":"levelo_inurba_marseille","lat":43.293009,"lon":5.374584,"is_reserved":false,"is_disabled":false,"rental_uris":{"android":"levelo://app?vid=5d96723b-de33-402f-9b3f-e90d7737cd91","ios":"levelo://app?vid=5d96723b-de33-402f-9b3f-e90d7737cd91"},"vehicle_type_id":"4","last_reported":1698339972,"current_range_meters":0,"station_id":"ce4bgi12rcd13ifvqb70","pricing_plan_id":"free"},{"bike_id":"27441a86-4507-4191-aa77-a5bb144ab45b","system_id":"levelo_inurba_marseille","lat":43.293014,"lon":5.374584,"is_reserved":false,"is_disabled":false,"rental_uris":{"android":"levelo://app?vid=27441a86-4507-4191-aa77-a5bb144ab45b","ios":"levelo://app?vid=27441a86-4507-4191-aa77-a5bb144ab45b"},"vehicle_type_id":"4","last_reported":1698339972,"current_range_meters":18400,"station_id":"ce4bgi12rcd13ifvqb70","pricing_plan_id":"free"},{"bike_id":"ba303730-a74e-4fac-8fad-58b50bea5d15","system_id":"levelo_inurba_marseille","lat":43.30592,"lon":5.39358,"is_reserved":false,"is_disabled":false,"rental_uris":{"android":"levelo://app?vid=ba303730-a74e-4fac-8fad-58b50bea5d15","ios":"levelo://app?vid=ba303730-a74e-4fac-8fad-58b50bea5d15"},"vehicle_type_id":"4","last_reported":1698339972,"current_range_meters":0,"station_id":"ce4bh0p2rcd13ifvqd80","pricing_plan_id":"free"},{"bike_id":"432d0acf-0cc7-4ff5-9a0f-0d2ff900f711","system_id":"levelo_inurba_marseille","lat":43.29296,"lon":5.37469,"is_reserved":false,"is_disabled":false,"rental_uris":{"android":"levelo://app?vid=432d0acf-0cc7-4ff5-9a0f-0d2ff900f711","ios":"levelo://app?vid=432d0acf-0cc7-4ff5-9a0f-0d2ff900f711"},"vehicle_type_id":"4","last_reported":1698339972,"current_range_meters":0,"station_id":"ce4bgi12rcd13ifvqb70","pricing_plan_id":"free"},{"bike_id":"4c1c092e-6117-45ac-814f-1ca30b5b3ef9","system_id":"levelo_inurba_marseille","lat":43.2936,"lon":5.37835,"is_reserved":false,"is_disabled":false,"rental_uris":{"android":"levelo://app?vid=4c1c092e-6117-45ac-814f-1ca30b5b3ef9","ios":"levelo://app?vid=4c1c092e-6117-45ac-814f-1ca30b5b3ef9"},"vehicle_type_id":"4","last_reported":1698339972,"current_range_meters":0,"station_id":"ce4bgjh2rcd13ifvqbf0","pricing_plan_id":"free"},{"bike_id":"e47b9406-a305-4934-8226-e51bf29e3c8e","system_id":"levelo_inurba_marseille","lat":43.302992,"lon":5.392136,"is_reserved":false,"is_disabled":false,"rental_uris":{"android":"levelo://app?vid=e47b9406-a305-4934-8226-e51bf29e3c8e","ios":"levelo://app?vid=e47b9406-a305-4934-8226-e51bf29e3c8e"},"vehicle_type_id":"4","last_reported":1698339972,"current_range_meters":10800,"station_id":"ce4bgkh2rcd13ifvqbk0","pricing_plan_id":"free"},{"bike_id":"63cc90e8-b520-456b-bdb2-2b4f5d51ed59","system_id":"levelo_inurba_marseille","lat":43.300852,"lon":5.390859,"is_reserved":false,"is_disabled":false,"rental_uris":{"android":"levelo://app?vid=63cc90e8-b520-456b-bdb2-2b4f5d51ed59","ios":"levelo://app?vid=63cc90e8-b520-456b-bdb2-2b4f5d51ed59"},"vehicle_type_id":"4","last_reported":1698339972,"current_range_meters":27600,"station_id":"ce4bh192rcd13ifvqdb0","pricing_plan_id":"free"},{"bike_id":"c012931d-89d6-49dd-bff7-09e83340791e","system_id":"levelo_inurba_marseille","lat":43.29873,"lon":5.38915,"is_reserved":false,"is_disabled":false,"rental_uris":{"android":"levelo://app?vid=c012931d-89d6-49dd-bff7-09e83340791e","ios":"levelo://app?vid=c012931d-89d6-49dd-bff7-09e83340791e"},"vehicle_type_id":"4","last_reported":1698339972,"current_range_meters":0,"station_id":"ce4bh392rcd13ifvqdl0","pricing_plan_id":"free"},{"bike_id":"9673ea74-ae31-47d6-add7-20d222a79019","system_id":"levelo_inurba_marseille","lat":43.313291,"lon":5.396838,"is_reserved":false,"is_disabled":false,"rental_uris":{"android":"levelo://app?vid=9673ea74-ae31-47d6-add7-20d222a79019","ios":"levelo://app?vid=9673ea74-ae31-47d6-add7-20d222a79019"},"vehicle_type_id":"4","last_reported":1698339972,"current_range_meters":13200,"station_id":"ce4bgvp2rcd13ifvqcu0","pricing_plan_id":"free"},{"bike_id":"caff48ba-0f64-445b-a2fc-483dbf90cda8","system_id":"levelo_inurba_marseille","lat":43.309047,"lon":5.396551,"is_reserved":false,"is_disabled":false,"rental_uris":{"android":"levelo://app?vid=caff48ba-0f64-445b-a2fc-483dbf90cda8","ios":"levelo://app?vid=caff48ba-0f64-445b-a2fc-483dbf90cda8"},"vehicle_type_id":"4","last_reported":1698339972,"current_range_meters":22800,"station_id":"ce4bh012rcd13ifvqcv0","pricing_plan_id":"free"},{"bike_id":"2dae3cc9-68ef-444a-a749-96043a70b23f","system_id":"levelo_inurba_marseille","lat":43.309047,"lon":5.396551,"is_reserved":false,"is_disabled":false,"rental_uris":{"android":"levelo://app?vid=2dae3cc9-68ef-444a-a749-96043a70b23f","ios":"levelo://app?vid=2dae3cc9-68ef-444a-a749-96043a70b23f"},"vehicle_type_id":"4","last_reported":1698339972,"current_range_meters":26000,"station_id":"ce4bh012rcd13ifvqcv0","pricing_plan_id":"free"},{"bike_id":"126d4670-e812-40c6-9f2a-535ee2ec9a6b","system_id":"levelo_inurba_marseille","lat":43.33219,"lon":5.38149,"is_reserved":false,"is_disabled":false,"rental_uris":{"android":"levelo://app?vid=126d4670-e812-40c6-9f2a-535ee2ec9a6b","ios":"levelo://app?vid=126d4670-e812-40c6-9f2a-535ee2ec9a6b"},"vehicle_type_id":"4","last_reported":1698339972,"current_range_meters":2800,"station_id":"","pricing_plan_id":"free"},{"bike_id":"a7f17507-076c-41e0-9e76-fecbcf8fefb3","system_id":"levelo_inurba_marseille","lat":43.308287,"lon":5.397418,"is_reserved":false,"is_disabled":false,"rental_uris":{"android":"levelo://app?vid=a7f17507-076c-41e0-9e76-fecbcf8fefb3","ios":"levelo://app?vid=a7f17507-076c-41e0-9e76-fecbcf8fefb3"},"vehicle_type_id":"4","last_reported":1698339972,"current_range_meters":30000,"station_id":"ce4bh0p2rcd13ifvqd70","pricing_plan_id":"free"},{"bike_id":"c0dfc5a1-8ecf-4b73-ac3e-2993974aeb3e","system_id":"levelo_inurba_marseille","lat":43.302008,"lon":5.394694,"is_reserved":false,"is_disabled":false,"rental_uris":{"android":"levelo://app?vid=c0dfc5a1-8ecf-4b73-ac3e-2993974aeb3e","ios":"levelo://app?vid=c0dfc5a1-8ecf-4b73-ac3e-2993974aeb3e"},"vehicle_type_id":"4","last_reported":1698339972,"current_range_meters":15600,"station_id":"ce4bh0p2rcd13ifvqd70","pricing_plan_id":"free"},{"bike_id":"5e90fc52-0161-4a26-a552-f41afbd87c39","system_id":"levelo_inurba_marseille","lat":43.302008,"lon":5.394694,"is_reserved":false,"is_disabled":false,"rental_uris":{"android":"levelo://app?vid=5e90fc52-0161-4a26-a552-f41afbd87c39","ios":"levelo://app?vid=5e90fc52-0161-4a26-a552-f41afbd87c39"},"vehicle_type_id":"4","last_reported":1698339972,"current_range_meters":2400,"station_id":"ce4bh0p2rcd13ifvqd70","pricing_plan_id":"free"},{"bike_id":"d445e7dc-8f39-4198-8d15-1838ad42556e","system_id":"levelo_inurba_marseille","lat":43.302168,"lon":5.394703,"is_reserved":false,"is_disabled":false,"rental_uris":{"android":"levelo://app?vid=d445e7dc-8f39-4198-8d15-1838ad42556e","ios":"levelo://app?vid=d445e7dc-8f39-4198-8d15-1838ad42556e"},"vehicle_type_id":"4","last_reported":1698339972,"current_range_meters":12000,"station_id":"ce4bh0p2rcd13ifvqd70","pricing_plan_id":"free"},{"bike_id":"3ba9337c-3a4c-4b79-bb22-9c08f678ee27","system_id":"levelo_inurba_marseille","lat":43.3339,"lon":5.37907,"is_reserved":false,"is_disabled":false,"rental_uris":{"android":"levelo://app?vid=3ba9337c-3a4c-4b79-bb22-9c08f678ee27","ios":"levelo://app?vid=3ba9337c-3a4c-4b79-bb22-9c08f678ee27"},"vehicle_type_id":"4","last_reported":1698339972,"current_range_meters":22000,"station_id":"","pricing_plan_id":"free"},{"bike_id":"70502af6-d766-4e40-ad0b-f977955026b0","system_id":"levelo_inurba_marseille","lat":43.294153,"lon":5.386305,"is_reserved":false,"is_disabled":false,"rental_uris":{"android":"levelo://app?vid=70502af6-d766-4e40-ad0b-f977955026b0","ios":"levelo://app?vid=70502af6-d766-4e40-ad0b-f977955026b0"},"vehicle_type_id":"4","last_reported":1698339972,"current_range_meters":14000,"station_id":"ce4bh2h2rcd13ifvqdh0","pricing_plan_id":"free"},{"bike_id":"ef0d7729-c9c8-409e-aced-9a71523bd42f","system_id":"levelo_inurba_marseille","lat":43.294153,"lon":5.386305,"is_reserved":false,"is_disabled":false,"rental_uris":{"android":"levelo://app?vid=ef0d7729-c9c8-409e-aced-9a71523bd42f","ios":"levelo://app?vid=ef0d7729-c9c8-409e-aced-9a71523bd42f"},"vehicle_type_id":"4","last_reported":1698339972,"current_range_meters":800,"station_id":"ce4bh2h2rcd13ifvqdh0","pricing_plan_id":"free"},{"bike_id":"8c31eaf3-6460-43d5-bd0f-13b3aa7d998e","system_id":"levelo_inurba_marseille","lat":43.294217,"lon":5.386255,"is_reserved":false,"is_disabled":false,"rental_uris":{"android":"levelo://app?vid=8c31eaf3-6460-43d5-bd0f-13b3aa7d998e","ios":"levelo://app?vid=8c31eaf3-6460-43d5-bd0f-13b3aa7d998e"},"vehicle_type_id":"4","last_reported":1698339972,"current_range_meters":0,"station_id":"ce4bh2h2rcd13ifvqdh0","pricing_plan_id":"free"},{"bike_id":"6adc2d71-7e88-48d7-8375-4dffddbaa16a","system_id":"levelo_inurba_marseille","lat":43.29036,"lon":5.37567,"is_reserved":false,"is_disabled":false,"rental_uris":{"android":"levelo://app?vid=6adc2d71-7e88-48d7-8375-4dffddbaa16a","ios":"levelo://app?vid=6adc2d71-7e88-48d7-8375-4dffddbaa16a"},"vehicle_type_id":"4","last_reported":1698339972,"current_range_meters":0,"station_id":"ce4bh692rcd13ifvqe90","pricing_plan_id":"free"},{"bike_id":"75648275-e856-470b-ad4c-7f0e233a7e19","system_id":"levelo_inurba_marseille","lat":43.294162,"lon":5.386292,"is_reserved":false,"is_disabled":false,"rental_uris":{"android":"levelo://app?vid=75648275-e856-470b-ad4c-7f0e233a7e19","ios":"levelo://app?vid=75648275-e856-470b-ad4c-7f0e233a7e19"},"vehicle_type_id":"4","last_reported":1698339972,"current_range_meters":18000,"station_id":"ce4bh2h2rcd13ifvqdh0","pricing_plan_id":"free"},{"bike_id":"0ff137f7-0574-40b0-b6c7-954b7ed1a565","system_id":"levelo_inurba_marseille","lat":43.289184,"lon":5.366408,"is_reserved":false,"is_disabled":false,"rental_uris":{"android":"levelo://app?vid=0ff137f7-0574-40b0-b6c7-954b7ed1a565","ios":"levelo://app?vid=0ff137f7-0574-40b0-b6c7-954b7ed1a565"},"vehicle_type_id":"4","last_reported":1698339972,"current_range_meters":18000,"station_id":"ce4bhap2rcd13ifvqek0","pricing_plan_id":"free"},{"bike_id":"25d2765a-92b1-4c2f-bc1e-e8c0a4aed0bc","system_id":"levelo_inurba_marseille","lat":43.294162,"lon":5.386292,"is_reserved":false,"is_disabled":false,"rental_uris":{"android":"levelo://app?vid=25d2765a-92b1-4c2f-bc1e-e8c0a4aed0bc","ios":"levelo://app?vid=25d2765a-92b1-4c2f-bc1e-e8c0a4aed0bc"},"vehicle_type_id":"4","last_reported":1698339972,"current_range_meters":16400,"station_id":"ce4bh2h2rcd13ifvqdh0","pricing_plan_id":"free"},{"bike_id":"4dfd743c-7a84-4809-b428-12151509ae93","system_id":"levelo_inurba_marseille","lat":43.289468,"lon":5.363719,"is_reserved":false,"is_disabled":false,"rental_uris":{"android":"levelo://app?vid=4dfd743c-7a84-4809-b428-12151509ae93","ios":"levelo://app?vid=4dfd743c-7a84-4809-b428-12151509ae93"},"vehicle_type_id":"4","last_reported":1698339972,"current_range_meters":26800,"station_id":"ce4bhc92rcd13ifvqetg","pricing_plan_id":"free"},{"bike_id":"6f282ea3-333e-425b-84ef-b4f1ae8ac960","system_id":"levelo_inurba_marseille","lat":43.29275,"lon":5.38448,"is_reserved":false,"is_disabled":false,"rental_uris":{"android":"levelo://app?vid=6f282ea3-333e-425b-84ef-b4f1ae8ac960","ios":"levelo://app?vid=6f282ea3-333e-425b-84ef-b4f1ae8ac960"},"vehicle_type_id":"4","last_reported":1698339972,"current_range_meters":5200,"station_id":"ce4bh692rcd13ifvqea0","pricing_plan_id":"free"},{"bike_id":"adf1562a-2d3a-4539-a404-828cf8a369cc","system_id":"levelo_inurba_marseille","lat":43.292642,"lon":5.384254,"is_reserved":false,"is_disabled":false,"rental_uris":{"android":"levelo://app?vid=adf1562a-2d3a-4539-a404-828cf8a369cc","ios":"levelo://app?vid=adf1562a-2d3a-4539-a404-828cf8a369cc"},"vehicle_type_id":"4","last_reported":1698339972,"current_range_meters":8800,"station_id":"ce4bh692rcd13ifvqea0","pricing_plan_id":"free"},{"bike_id":"a660ed62-49ba-4d1f-a12b-9cb5014e13b5","system_id":"levelo_inurba_marseille","lat":43.292648,"lon":5.384345,"is_reserved":false,"is_disabled":false,"rental_uris":{"android":"levelo://app?vid=a660ed62-49ba-4d1f-a12b-9cb5014e13b5","ios":"levelo://app?vid=a660ed62-49ba-4d1f-a12b-9cb5014e13b5"},"vehicle_type_id":"4","last_reported":1698339972,"current_range_meters":400,"station_id":"ce4bh692rcd13ifvqea0","pricing_plan_id":"free"},{"bike_id":"415d23a8-fc2a-4a28-9389-26800a5b04e1","system_id":"levelo_inurba_marseille","lat":43.292642,"lon":5.384254,"is_reserved":false,"is_disabled":false,"rental_uris":{"android":"levelo://app?vid=415d23a8-fc2a-4a28-9389-26800a5b04e1","ios":"levelo://app?vid=415d23a8-fc2a-4a28-9389-26800a5b04e1"},"vehicle_type_id":"4","last_reported":1698339972,"current_range_meters":10800,"station_id":"ce4bh692rcd13ifvqea0","pricing_plan_id":"free"},{"bike_id":"fe3dce40-83ff-46bd-81fd-90906dc054bc","system_id":"levelo_inurba_marseille","lat":43.29265,"lon":5.38452,"is_reserved":false,"is_disabled":false,"rental_uris":{"android":"levelo://app?vid=fe3dce40-83ff-46bd-81fd-90906dc054bc","ios":"levelo://app?vid=fe3dce40-83ff-46bd-81fd-90906dc054bc"},"vehicle_type_id":"4","last_reported":1698339972,"current_range_meters":18800,"station_id":"ce4bh692rcd13ifvqea0","pricing_plan_id":"free"},{"bike_id":"3b23d7b5-de76-4b3a-beb5-1398f1755ec4","system_id":"levelo_inurba_marseille","lat":43.292644,"lon":5.384257,"is_reserved":false,"is_disabled":false,"rental_uris":{"android":"levelo://app?vid=3b23d7b5-de76-4b3a-beb5-1398f1755ec4","ios":"levelo://app?vid=3b23d7b5-de76-4b3a-beb5-1398f1755ec4"},"vehicle_type_id":"4","last_reported":1698339972,"current_range_meters":18000,"station_id":"ce4bh692rcd13ifvqea0","pricing_plan_id":"free"},{"bike_id":"4231fe23-15da-4c30-bcde-452c42424468","system_id":"levelo_inurba_marseille","lat":43.292644,"lon":5.384257,"is_reserved":false,"is_disabled":false,"rental_uris":{"android":"levelo://app?vid=4231fe23-15da-4c30-bcde-452c42424468","ios":"levelo://app?vid=4231fe23-15da-4c30-bcde-452c42424468"},"vehicle_type_id":"4","last_reported":1698339972,"current_range_meters":0,"station_id":"ce4bh692rcd13ifvqea0","pricing_plan_id":"free"},{"bike_id":"f382b317-27a2-4379-9023-028d4e7d2af0","system_id":"levelo_inurba_marseille","lat":43.273613,"lon":5.362705,"is_reserved":false,"is_disabled":false,"rental_uris":{"android":"levelo://app?vid=f382b317-27a2-4379-9023-028d4e7d2af0","ios":"levelo://app?vid=f382b317-27a2-4379-9023-028d4e7d2af0"},"vehicle_type_id":"4","last_reported":1698339972,"current_range_meters":0,"station_id":"ce4bhbh2rcd13ifvqeo0","pricing_plan_id":"free"},{"bike_id":"10c9a5ea-3b5b-4d27-8191-60400c8f7d13","system_id":"levelo_inurba_marseille","lat":43.292644,"lon":5.384257,"is_reserved":false,"is_disabled":false,"rental_uris":{"android":"levelo://app?vid=10c9a5ea-3b5b-4d27-8191-60400c8f7d13","ios":"levelo://app?vid=10c9a5ea-3b5b-4d27-8191-60400c8f7d13"},"vehicle_type_id":"4","last_reported":1698339972,"current_range_meters":4400,"station_id":"ce4bh692rcd13ifvqea0","pricing_plan_id":"free"},{"bike_id":"491c556b-f384-495a-ab4e-c7c71472b108","system_id":"levelo_inurba_marseille","lat":43.282754,"lon":5.350519,"is_reserved":false,"is_disabled":false,"rental_uris":{"android":"levelo://app?vid=491c556b-f384-495a-ab4e-c7c71472b108","ios":"levelo://app?vid=491c556b-f384-495a-ab4e-c7c71472b108"},"vehicle_type_id":"4","last_reported":1698339972,"current_range_meters":0,"station_id":"ce4bhbp2rcd13ifvqerg","pricing_plan_id":"free"},{"bike_id":"e0e322ef-160e-4106-b6fa-5c9fbfdd8220","system_id":"levelo_inurba_marseille","lat":43.297815,"lon":5.393548,"is_reserved":false,"is_disabled":false,"rental_uris":{"android":"levelo://app?vid=e0e322ef-160e-4106-b6fa-5c9fbfdd8220","ios":"levelo://app?vid=e0e322ef-160e-4106-b6fa-5c9fbfdd8220"},"vehicle_type_id":"4","last_reported":1698339972,"current_range_meters":23600,"station_id":"chh1huq6cuj3fo74tm60","pricing_plan_id":"free"},{"bike_id":"21043695-3bc0-40bd-8d74-aa4e9d3e73f4","system_id":"levelo_inurba_marseille","lat":43.297815,"lon":5.393501,"is_reserved":false,"is_disabled":false,"rental_uris":{"android":"levelo://app?vid=21043695-3bc0-40bd-8d74-aa4e9d3e73f4","ios":"levelo://app?vid=21043695-3bc0-40bd-8d74-aa4e9d3e73f4"},"vehicle_type_id":"4","last_reported":1698339972,"current_range_meters":9600,"station_id":"chh1huq6cuj3fo74tm60","pricing_plan_id":"free"},{"bike_id":"f107e905-c674-42af-bce4-1b189455ba68","system_id":"levelo_inurba_marseille","lat":43.28856,"lon":5.358371,"is_reserved":false,"is_disabled":false,"rental_uris":{"android":"levelo://app?vid=f107e905-c674-42af-bce4-1b189455ba68","ios":"levelo://app?vid=f107e905-c674-42af-bce4-1b189455ba68"},"vehicle_type_id":"4","last_reported":1698339972,"current_range_meters":21200,"station_id":"ce4bhb12rcd13ifvqem0","pricing_plan_id":"free"},{"bike_id":"024668e1-f042-4771-a1b3-6bcd9cb8c931","system_id":"levelo_inurba_marseille","lat":43.337446,"lon":5.374652,"is_reserved":false,"is_disabled":false,"rental_uris":{"android":"levelo://app?vid=024668e1-f042-4771-a1b3-6bcd9cb8c931","ios":"levelo://app?vid=024668e1-f042-4771-a1b3-6bcd9cb8c931"},"vehicle_type_id":"4","last_reported":1698339972,"current_range_meters":27200,"station_id":"","pricing_plan_id":"free"},{"bike_id":"db2d2746-4ba6-486c-a2b3-f69d81ce3990","system_id":"levelo_inurba_marseille","lat":43.312609,"lon":5.401662,"is_reserved":false,"is_disabled":false,"rental_uris":{"android":"levelo://app?vid=db2d2746-4ba6-486c-a2b3-f69d81ce3990","ios":"levelo://app?vid=db2d2746-4ba6-486c-a2b3-f69d81ce3990"},"vehicle_type_id":"4","last_reported":1698339972,"current_range_meters":23200,"station_id":"ce4bh092rcd13ifvqd30","pricing_plan_id":"free"},{"bike_id":"32001e34-27e0-42e2-a2a5-d14da91c50d7","system_id":"levelo_inurba_marseille","lat":43.30642,"lon":5.401031,"is_reserved":false,"is_disabled":false,"rental_uris":{"android":"levelo://app?vid=32001e34-27e0-42e2-a2a5-d14da91c50d7","ios":"levelo://app?vid=32001e34-27e0-42e2-a2a5-d14da91c50d7"},"vehicle_type_id":"4","last_reported":1698339972,"current_range_meters":16800,"station_id":"ce4bh112rcd13ifvqda0","pricing_plan_id":"free"},{"bike_id":"bfe7a790-a844-4f44-8a49-44c046962c05","system_id":"levelo_inurba_marseille","lat":43.30148,"lon":5.39831,"is_reserved":false,"is_disabled":false,"rental_uris":{"android":"levelo://app?vid=bfe7a790-a844-4f44-8a49-44c046962c05","ios":"levelo://app?vid=bfe7a790-a844-4f44-8a49-44c046962c05"},"vehicle_type_id":"4","last_reported":1698339972,"current_range_meters":4400,"station_id":"ce4bh0h2rcd13ifvqd40","pricing_plan_id":"free"},{"bike_id":"8f3dac5b-f622-44f8-8d03-a6d0295add83","system_id":"levelo_inurba_marseille","lat":43.30642,"lon":5.401031,"is_reserved":false,"is_disabled":false,"rental_uris":{"android":"levelo://app?vid=8f3dac5b-f622-44f8-8d03-a6d0295add83","ios":"levelo://app?vid=8f3dac5b-f622-44f8-8d03-a6d0295add83"},"vehicle_type_id":"4","last_reported":1698339972,"current_range_meters":12000,"station_id":"ce4bh112rcd13ifvqda0","pricing_plan_id":"free"},{"bike_id":"92c822b2-1382-4b14-a062-a53cfb059cf0","system_id":"levelo_inurba_marseille","lat":43.301283,"lon":5.398509,"is_reserved":false,"is_disabled":false,"rental_uris":{"android":"levelo://app?vid=92c822b2-1382-4b14-a062-a53cfb059cf0","ios":"levelo://app?vid=92c822b2-1382-4b14-a062-a53cfb059cf0"},"vehicle_type_id":"4","last_reported":1698339972,"current_range_meters":9200,"station_id":"ce4bh0h2rcd13ifvqd40","pricing_plan_id":"free"},{"bike_id":"75f90524-c33e-4e77-b5e0-f4fb90f62dd5","system_id":"levelo_inurba_marseille","lat":43.30135,"lon":5.39871,"is_reserved":false,"is_disabled":false,"rental_uris":{"android":"levelo://app?vid=75f90524-c33e-4e77-b5e0-f4fb90f62dd5","ios":"levelo://app?vid=75f90524-c33e-4e77-b5e0-f4fb90f62dd5"},"vehicle_type_id":"4","last_reported":1698339972,"current_range_meters":0,"station_id":"ce4bh0h2rcd13ifvqd40","pricing_plan_id":"free"},{"bike_id":"2217e65d-4b74-4c96-b64c-feefaa3d150d","system_id":"levelo_inurba_marseille","lat":43.28727,"lon":5.36078,"is_reserved":false,"is_disabled":false,"rental_uris":{"android":"levelo://app?vid=2217e65d-4b74-4c96-b64c-feefaa3d150d","ios":"levelo://app?vid=2217e65d-4b74-4c96-b64c-feefaa3d150d"},"vehicle_type_id":"4","last_reported":1698339972,"current_range_meters":9600,"station_id":"cki0cbj6b192h4jlfktg","pricing_plan_id":"free"},{"bike_id":"68283eaa-fcc1-4001-9a6f-baefe977c9e2","system_id":"levelo_inurba_marseille","lat":43.29889,"lon":5.39725,"is_reserved":false,"is_disabled":false,"rental_uris":{"android":"levelo://app?vid=68283eaa-fcc1-4001-9a6f-baefe977c9e2","ios":"levelo://app?vid=68283eaa-fcc1-4001-9a6f-baefe977c9e2"},"vehicle_type_id":"4","last_reported":1698339972,"current_range_meters":0,"station_id":"ce4bh0h2rcd13ifvqd50","pricing_plan_id":"free"},{"bike_id":"62a20639-4c95-4a92-bf8a-b616a59bf5e9","system_id":"levelo_inurba_marseille","lat":43.286591,"lon":5.363346,"is_reserved":false,"is_disabled":false,"rental_uris":{"android":"levelo://app?vid=62a20639-4c95-4a92-bf8a-b616a59bf5e9","ios":"levelo://app?vid=62a20639-4c95-4a92-bf8a-b616a59bf5e9"},"vehicle_type_id":"4","last_reported":1698339972,"current_range_meters":20000,"station_id":"ce4bhah2rcd13ifvqej0","pricing_plan_id":"free"},{"bike_id":"85efb757-50ed-4252-9e6f-36f99e126c2d","system_id":"levelo_inurba_marseille","lat":43.286961,"lon":5.373785,"is_reserved":false,"is_disabled":false,"rental_uris":{"android":"levelo://app?vid=85efb757-50ed-4252-9e6f-36f99e126c2d","ios":"levelo://app?vid=85efb757-50ed-4252-9e6f-36f99e126c2d"},"vehicle_type_id":"4","last_reported":1698339972,"current_range_meters":1200,"station_id":"ce4bh3p2rcd13ifvqdq0","pricing_plan_id":"free"},{"bike_id":"7d4d1d8f-112e-441e-a309-71f225179ff4","system_id":"levelo_inurba_marseille","lat":43.286961,"lon":5.373785,"is_reserved":false,"is_disabled":false,"rental_uris":{"android":"levelo://app?vid=7d4d1d8f-112e-441e-a309-71f225179ff4","ios":"levelo://app?vid=7d4d1d8f-112e-441e-a309-71f225179ff4"},"vehicle_type_id":"4","last_reported":1698339972,"current_range_meters":0,"station_id":"ce4bh3p2rcd13ifvqdq0","pricing_plan_id":"free"},{"bike_id":"15364636-acbd-4d67-9b8b-63beba3902f0","system_id":"levelo_inurba_marseille","lat":43.286961,"lon":5.373785,"is_reserved":false,"is_disabled":false,"rental_uris":{"android":"levelo://app?vid=15364636-acbd-4d67-9b8b-63beba3902f0","ios":"levelo://app?vid=15364636-acbd-4d67-9b8b-63beba3902f0"},"vehicle_type_id":"4","last_reported":1698339972,"current_range_meters":27600,"station_id":"ce4bh3p2rcd13ifvqdq0","pricing_plan_id":"free"},{"bike_id":"5218370a-02c3-4a26-ba81-865c26af58b2","system_id":"levelo_inurba_marseille","lat":43.302759,"lon":5.400793,"is_reserved":false,"is_disabled":false,"rental_uris":{"android":"levelo://app?vid=5218370a-02c3-4a26-ba81-865c26af58b2","ios":"levelo://app?vid=5218370a-02c3-4a26-ba81-865c26af58b2"},"vehicle_type_id":"4","last_reported":1698339972,"current_range_meters":8800,"station_id":"ce4bgvh2rcd13ifvqcs0","pricing_plan_id":"free"},{"bike_id":"b9ad45c5-350d-4590-9e2c-e5a1d423e13e","system_id":"levelo_inurba_marseille","lat":43.2893,"lon":5.38384,"is_reserved":false,"is_disabled":false,"rental_uris":{"android":"levelo://app?vid=b9ad45c5-350d-4590-9e2c-e5a1d423e13e","ios":"levelo://app?vid=b9ad45c5-350d-4590-9e2c-e5a1d423e13e"},"vehicle_type_id":"4","last_reported":1698339972,"current_range_meters":0,"station_id":"ce4bh612rcd13ifvqe6g","pricing_plan_id":"free"},{"bike_id":"952c20f2-7093-4d81-a440-e5579b1d0ab7","system_id":"levelo_inurba_marseille","lat":43.29045,"lon":5.38662,"is_reserved":false,"is_disabled":false,"rental_uris":{"android":"levelo://app?vid=952c20f2-7093-4d81-a440-e5579b1d0ab7","ios":"levelo://app?vid=952c20f2-7093-4d81-a440-e5579b1d0ab7"},"vehicle_type_id":"4","last_reported":1698339972,"current_range_meters":0,"station_id":"ce4bh4p2rcd13ifvqe0g","pricing_plan_id":"free"},{"bike_id":"b94de893-3a71-4f6e-b154-2116cc021e8d","system_id":"levelo_inurba_marseille","lat":43.30245,"lon":5.40061,"is_reserved":false,"is_disabled":false,"rental_uris":{"android":"levelo://app?vid=b94de893-3a71-4f6e-b154-2116cc021e8d","ios":"levelo://app?vid=b94de893-3a71-4f6e-b154-2116cc021e8d"},"vehicle_type_id":"4","last_reported":1698339972,"current_range_meters":26000,"station_id":"ce4bgvh2rcd13ifvqcs0","pricing_plan_id":"free"},{"bike_id":"5c2039a1-9a0b-48c3-9f55-425ea093117e","system_id":"levelo_inurba_marseille","lat":43.30248,"lon":5.40071,"is_reserved":false,"is_disabled":false,"rental_uris":{"android":"levelo://app?vid=5c2039a1-9a0b-48c3-9f55-425ea093117e","ios":"levelo://app?vid=5c2039a1-9a0b-48c3-9f55-425ea093117e"},"vehicle_type_id":"4","last_reported":1698339972,"current_range_meters":14000,"station_id":"ce4bgvh2rcd13ifvqcs0","pricing_plan_id":"free"},{"bike_id":"35264644-1653-49b5-a59a-8484af47e81a","system_id":"levelo_inurba_marseille","lat":43.30249,"lon":5.40075,"is_reserved":false,"is_disabled":false,"rental_uris":{"android":"levelo://app?vid=35264644-1653-49b5-a59a-8484af47e81a","ios":"levelo://app?vid=35264644-1653-49b5-a59a-8484af47e81a"},"vehicle_type_id":"4","last_reported":1698339972,"current_range_meters":13600,"station_id":"ce4bgvh2rcd13ifvqcs0","pricing_plan_id":"free"},{"bike_id":"102acd1d-801b-4046-9d1d-3bfb703fade1","system_id":"levelo_inurba_marseille","lat":43.302759,"lon":5.400793,"is_reserved":false,"is_disabled":false,"rental_uris":{"android":"levelo://app?vid=102acd1d-801b-4046-9d1d-3bfb703fade1","ios":"levelo://app?vid=102acd1d-801b-4046-9d1d-3bfb703fade1"},"vehicle_type_id":"4","last_reported":1698339972,"current_range_meters":1200,"station_id":"ce4bgvh2rcd13ifvqcs0","pricing_plan_id":"free"},{"bike_id":"237c2e2c-6cb2-4fb4-8f9a-8967233c2b49","system_id":"levelo_inurba_marseille","lat":43.286039,"lon":5.370681,"is_reserved":false,"is_disabled":false,"rental_uris":{"android":"levelo://app?vid=237c2e2c-6cb2-4fb4-8f9a-8967233c2b49","ios":"levelo://app?vid=237c2e2c-6cb2-4fb4-8f9a-8967233c2b49"},"vehicle_type_id":"4","last_reported":1698339972,"current_range_meters":15600,"station_id":"ce4bht12rcd13ifvqi60","pricing_plan_id":"free"},{"bike_id":"bc368e20-93c0-495a-bb4f-cd8ed7ee7f0d","system_id":"levelo_inurba_marseille","lat":43.335307,"lon":5.388143,"is_reserved":false,"is_disabled":false,"rental_uris":{"android":"levelo://app?vid=bc368e20-93c0-495a-bb4f-cd8ed7ee7f0d","ios":"levelo://app?vid=bc368e20-93c0-495a-bb4f-cd8ed7ee7f0d"},"vehicle_type_id":"4","last_reported":1698339972,"current_range_meters":0,"station_id":"","pricing_plan_id":"free"},{"bike_id":"98384518-dcb4-48f8-9899-a6910e4a420a","system_id":"levelo_inurba_marseille","lat":43.294314,"lon":5.397498,"is_reserved":false,"is_disabled":false,"rental_uris":{"android":"levelo://app?vid=98384518-dcb4-48f8-9899-a6910e4a420a","ios":"levelo://app?vid=98384518-dcb4-48f8-9899-a6910e4a420a"},"vehicle_type_id":"4","last_reported":1698339972,"current_range_meters":2000,"station_id":"ce4bh3h2rcd13ifvqdo0","pricing_plan_id":"free"},{"bike_id":"70467a78-b4ff-4e05-8dbb-3eac0d0d2179","system_id":"levelo_inurba_marseille","lat":43.284534,"lon":5.358662,"is_reserved":false,"is_disabled":false,"rental_uris":{"android":"levelo://app?vid=70467a78-b4ff-4e05-8dbb-3eac0d0d2179","ios":"levelo://app?vid=70467a78-b4ff-4e05-8dbb-3eac0d0d2179"},"vehicle_type_id":"4","last_reported":1698339972,"current_range_meters":2400,"station_id":"ce4bhah2rcd13ifvqei0","pricing_plan_id":"free"},{"bike_id":"edd95d2f-30ff-4a90-b07e-90c72856e958","system_id":"levelo_inurba_marseille","lat":43.284534,"lon":5.358662,"is_reserved":false,"is_disabled":false,"rental_uris":{"android":"levelo://app?vid=edd95d2f-30ff-4a90-b07e-90c72856e958","ios":"levelo://app?vid=edd95d2f-30ff-4a90-b07e-90c72856e958"},"vehicle_type_id":"4","last_reported":1698339972,"current_range_meters":12400,"station_id":"ce4bhah2rcd13ifvqei0","pricing_plan_id":"free"},{"bike_id":"2a174eeb-d10e-49b0-bcf1-f23ea9cb7f65","system_id":"levelo_inurba_marseille","lat":43.289363,"lon":5.396322,"is_reserved":false,"is_disabled":false,"rental_uris":{"android":"levelo://app?vid=2a174eeb-d10e-49b0-bcf1-f23ea9cb7f65","ios":"levelo://app?vid=2a174eeb-d10e-49b0-bcf1-f23ea9cb7f65"},"vehicle_type_id":"4","last_reported":1698339972,"current_range_meters":0,"station_id":"ce4bh3h2rcd13ifvqdn0","pricing_plan_id":"free"},{"bike_id":"922d1bef-802d-4d87-ad6c-235350dcdc51","system_id":"levelo_inurba_marseille","lat":43.286143,"lon":5.3511,"is_reserved":false,"is_disabled":false,"rental_uris":{"android":"levelo://app?vid=922d1bef-802d-4d87-ad6c-235350dcdc51","ios":"levelo://app?vid=922d1bef-802d-4d87-ad6c-235350dcdc51"},"vehicle_type_id":"4","last_reported":1698339972,"current_range_meters":7600,"station_id":"ce4bhch2rcd13ifvqeug","pricing_plan_id":"free"},{"bike_id":"16d7fe17-6626-4bed-98bd-e197d2830461","system_id":"levelo_inurba_marseille","lat":43.286115,"lon":5.351171,"is_reserved":false,"is_disabled":false,"rental_uris":{"android":"levelo://app?vid=16d7fe17-6626-4bed-98bd-e197d2830461","ios":"levelo://app?vid=16d7fe17-6626-4bed-98bd-e197d2830461"},"vehicle_type_id":"4","last_reported":1698339972,"current_range_meters":0,"station_id":"ce4bhch2rcd13ifvqeug","pricing_plan_id":"free"},{"bike_id":"860eae15-0b8f-4f0a-ab1a-e8c6e6830fcb","system_id":"levelo_inurba_marseille","lat":43.294314,"lon":5.397498,"is_reserved":false,"is_disabled":false,"rental_uris":{"android":"levelo://app?vid=860eae15-0b8f-4f0a-ab1a-e8c6e6830fcb","ios":"levelo://app?vid=860eae15-0b8f-4f0a-ab1a-e8c6e6830fcb"},"vehicle_type_id":"4","last_reported":1698339972,"current_range_meters":8800,"station_id":"ce4bh3h2rcd13ifvqdo0","pricing_plan_id":"free"},{"bike_id":"0d3344b8-cfa1-4bce-acc0-14c8f24481fe","system_id":"levelo_inurba_marseille","lat":43.29584,"lon":5.39961,"is_reserved":false,"is_disabled":false,"rental_uris":{"android":"levelo://app?vid=0d3344b8-cfa1-4bce-acc0-14c8f24481fe","ios":"levelo://app?vid=0d3344b8-cfa1-4bce-acc0-14c8f24481fe"},"vehicle_type_id":"4","last_reported":1698339972,"current_range_meters":12000,"station_id":"ce4bh312rcd13ifvqdj0","pricing_plan_id":"free"},{"bike_id":"0072ce6d-7b2c-4686-923e-c31adda65a64","system_id":"levelo_inurba_marseille","lat":43.28411,"lon":5.37527,"is_reserved":false,"is_disabled":false,"rental_uris":{"android":"levelo://app?vid=0072ce6d-7b2c-4686-923e-c31adda65a64","ios":"levelo://app?vid=0072ce6d-7b2c-4686-923e-c31adda65a64"},"vehicle_type_id":"4","last_reported":1698339972,"current_range_meters":3600,"station_id":"ce4bh412rcd13ifvqds0","pricing_plan_id":"free"},{"bike_id":"bc005b01-5c91-4a4e-9d38-220ebbdb1ec3","system_id":"levelo_inurba_marseille","lat":43.284062,"lon":5.375222,"is_reserved":false,"is_disabled":false,"rental_uris":{"android":"levelo://app?vid=bc005b01-5c91-4a4e-9d38-220ebbdb1ec3","ios":"levelo://app?vid=bc005b01-5c91-4a4e-9d38-220ebbdb1ec3"},"vehicle_type_id":"4","last_reported":1698339972,"current_range_meters":6000,"station_id":"ce4bh412rcd13ifvqds0","pricing_plan_id":"free"},{"bike_id":"86e08904-4d6c-498e-a645-eb4c667921b1","system_id":"levelo_inurba_marseille","lat":43.283998,"lon":5.375062,"is_reserved":false,"is_disabled":false,"rental_uris":{"android":"levelo://app?vid=86e08904-4d6c-498e-a645-eb4c667921b1","ios":"levelo://app?vid=86e08904-4d6c-498e-a645-eb4c667921b1"},"vehicle_type_id":"4","last_reported":1698339972,"current_range_meters":0,"station_id":"ce4bh412rcd13ifvqds0","pricing_plan_id":"free"},{"bike_id":"e457e6f2-3c94-4ef3-a1f4-d33ab9321690","system_id":"levelo_inurba_marseille","lat":43.283998,"lon":5.375062,"is_reserved":false,"is_disabled":false,"rental_uris":{"android":"levelo://app?vid=e457e6f2-3c94-4ef3-a1f4-d33ab9321690","ios":"levelo://app?vid=e457e6f2-3c94-4ef3-a1f4-d33ab9321690"},"vehicle_type_id":"4","last_reported":1698339972,"current_range_meters":24000,"station_id":"ce4bh412rcd13ifvqds0","pricing_plan_id":"free"},{"bike_id":"ccbcd672-1503-46cb-871f-6be9ef4245b1","system_id":"levelo_inurba_marseille","lat":43.283998,"lon":5.375062,"is_reserved":false,"is_disabled":false,"rental_uris":{"android":"levelo://app?vid=ccbcd672-1503-46cb-871f-6be9ef4245b1","ios":"levelo://app?vid=ccbcd672-1503-46cb-871f-6be9ef4245b1"},"vehicle_type_id":"4","last_reported":1698339972,"current_range_meters":800,"station_id":"ce4bh412rcd13ifvqds0","pricing_plan_id":"free"},{"bike_id":"c32ee54f-8aa7-4088-96f5-3428de700ef6","system_id":"levelo_inurba_marseille","lat":43.286595,"lon":5.386795,"is_reserved":false,"is_disabled":false,"rental_uris":{"android":"levelo://app?vid=c32ee54f-8aa7-4088-96f5-3428de700ef6","ios":"levelo://app?vid=c32ee54f-8aa7-4088-96f5-3428de700ef6"},"vehicle_type_id":"4","last_reported":1698339972,"current_range_meters":10400,"station_id":"ce4bh492rcd13ifvqdug","pricing_plan_id":"free"},{"bike_id":"cdb9a7c5-ac5e-4c63-a0eb-ca3b8cf702da","system_id":"levelo_inurba_marseille","lat":43.29041,"lon":5.399634,"is_reserved":false,"is_disabled":false,"rental_uris":{"android":"levelo://app?vid=cdb9a7c5-ac5e-4c63-a0eb-ca3b8cf702da","ios":"levelo://app?vid=cdb9a7c5-ac5e-4c63-a0eb-ca3b8cf702da"},"vehicle_type_id":"4","last_reported":1698339972,"current_range_meters":0,"station_id":"ce4bh392rcd13ifvqdm0","pricing_plan_id":"free"},{"bike_id":"6c0f120d-7271-4971-bc94-37079cabe8d6","system_id":"levelo_inurba_marseille","lat":43.34149,"lon":5.37725,"is_reserved":false,"is_disabled":false,"rental_uris":{"android":"levelo://app?vid=6c0f120d-7271-4971-bc94-37079cabe8d6","ios":"levelo://app?vid=6c0f120d-7271-4971-bc94-37079cabe8d6"},"vehicle_type_id":"4","last_reported":1698339972,"current_range_meters":400,"station_id":"","pricing_plan_id":"free"},{"bike_id":"c3bd8ade-d013-4aa1-a3c9-c07fc31710d8","system_id":"levelo_inurba_marseille","lat":43.28647,"lon":5.38607,"is_reserved":false,"is_disabled":false,"rental_uris":{"android":"levelo://app?vid=c3bd8ade-d013-4aa1-a3c9-c07fc31710d8","ios":"levelo://app?vid=c3bd8ade-d013-4aa1-a3c9-c07fc31710d8"},"vehicle_type_id":"4","last_reported":1698339972,"current_range_meters":0,"station_id":"","pricing_plan_id":"free"},{"bike_id":"a04dca67-8317-445e-90d6-5788929468fd","system_id":"levelo_inurba_marseille","lat":43.33674,"lon":5.39198,"is_reserved":false,"is_disabled":false,"rental_uris":{"android":"levelo://app?vid=a04dca67-8317-445e-90d6-5788929468fd","ios":"levelo://app?vid=a04dca67-8317-445e-90d6-5788929468fd"},"vehicle_type_id":"4","last_reported":1698339972,"current_range_meters":12800,"station_id":"","pricing_plan_id":"free"},{"bike_id":"e2f6c87a-6870-4cbc-b69d-aeb7a4f4ab5a","system_id":"levelo_inurba_marseille","lat":43.284793,"lon":5.384113,"is_reserved":false,"is_disabled":false,"rental_uris":{"android":"levelo://app?vid=e2f6c87a-6870-4cbc-b69d-aeb7a4f4ab5a","ios":"levelo://app?vid=e2f6c87a-6870-4cbc-b69d-aeb7a4f4ab5a"},"vehicle_type_id":"4","last_reported":1698339972,"current_range_meters":0,"station_id":"ce4bh512rcd13ifvqe3g","pricing_plan_id":"free"},{"bike_id":"6cdc2401-f7ab-4366-8fe0-aac6ef1220f7","system_id":"levelo_inurba_marseille","lat":43.288497,"lon":5.393089,"is_reserved":false,"is_disabled":false,"rental_uris":{"android":"levelo://app?vid=6cdc2401-f7ab-4366-8fe0-aac6ef1220f7","ios":"levelo://app?vid=6cdc2401-f7ab-4366-8fe0-aac6ef1220f7"},"vehicle_type_id":"4","last_reported":1698339972,"current_range_meters":0,"station_id":"ce4bh2p2rcd13ifvqdi0","pricing_plan_id":"free"},{"bike_id":"b4db564f-c481-4729-9e44-0a0c351ef261","system_id":"levelo_inurba_marseille","lat":43.29795,"lon":5.404086,"is_reserved":false,"is_disabled":false,"rental_uris":{"android":"levelo://app?vid=b4db564f-c481-4729-9e44-0a0c351ef261","ios":"levelo://app?vid=b4db564f-c481-4729-9e44-0a0c351ef261"},"vehicle_type_id":"4","last_reported":1698339972,"current_range_meters":9200,"station_id":"ce4bh112rcd13ifvqd90","pricing_plan_id":"free"},{"bike_id":"dbef3eaf-21c7-4e67-b57e-0c076af6d538","system_id":"levelo_inurba_marseille","lat":43.288497,"lon":5.393089,"is_reserved":false,"is_disabled":false,"rental_uris":{"android":"levelo://app?vid=dbef3eaf-21c7-4e67-b57e-0c076af6d538","ios":"levelo://app?vid=dbef3eaf-21c7-4e67-b57e-0c076af6d538"},"vehicle_type_id":"4","last_reported":1698339972,"current_range_meters":8000,"station_id":"ce4bh2p2rcd13ifvqdi0","pricing_plan_id":"free"},{"bike_id":"67241d35-eea5-4879-94ff-64ed2bc54afd","system_id":"levelo_inurba_marseille","lat":43.288501,"lon":5.393087,"is_reserved":false,"is_disabled":false,"rental_uris":{"android":"levelo://app?vid=67241d35-eea5-4879-94ff-64ed2bc54afd","ios":"levelo://app?vid=67241d35-eea5-4879-94ff-64ed2bc54afd"},"vehicle_type_id":"4","last_reported":1698339972,"current_range_meters":2000,"station_id":"ce4bh2p2rcd13ifvqdi0","pricing_plan_id":"free"},{"bike_id":"d6e0f25c-aaad-4436-9a20-7d785d7e759e","system_id":"levelo_inurba_marseille","lat":43.32521,"lon":5.40572,"is_reserved":false,"is_disabled":false,"rental_uris":{"android":"levelo://app?vid=d6e0f25c-aaad-4436-9a20-7d785d7e759e","ios":"levelo://app?vid=d6e0f25c-aaad-4436-9a20-7d785d7e759e"},"vehicle_type_id":"4","last_reported":1698339972,"current_range_meters":400,"station_id":"","pricing_plan_id":"free"},{"bike_id":"2f666bbb-190f-4291-ade2-95e2c0cfd815","system_id":"levelo_inurba_marseille","lat":43.325281,"lon":5.405683,"is_reserved":false,"is_disabled":false,"rental_uris":{"android":"levelo://app?vid=2f666bbb-190f-4291-ade2-95e2c0cfd815","ios":"levelo://app?vid=2f666bbb-190f-4291-ade2-95e2c0cfd815"},"vehicle_type_id":"4","last_reported":1698339972,"current_range_meters":25200,"station_id":"","pricing_plan_id":"free"},{"bike_id":"4812398a-f8f9-4fdb-a85b-10af4b13c980","system_id":"levelo_inurba_marseille","lat":43.269467,"lon":5.386439,"is_reserved":false,"is_disabled":false,"rental_uris":{"android":"levelo://app?vid=4812398a-f8f9-4fdb-a85b-10af4b13c980","ios":"levelo://app?vid=4812398a-f8f9-4fdb-a85b-10af4b13c980"},"vehicle_type_id":"4","last_reported":1698339972,"current_range_meters":12000,"station_id":"ce4bhh92rcd13ifvqfh0","pricing_plan_id":"free"},{"bike_id":"0bbdca24-e5b7-4ccc-8dbc-64c6ff6f9d23","system_id":"levelo_inurba_marseille","lat":43.284219,"lon":5.3497,"is_reserved":false,"is_disabled":false,"rental_uris":{"android":"levelo://app?vid=0bbdca24-e5b7-4ccc-8dbc-64c6ff6f9d23","ios":"levelo://app?vid=0bbdca24-e5b7-4ccc-8dbc-64c6ff6f9d23"},"vehicle_type_id":"4","last_reported":1698339972,"current_range_meters":6400,"station_id":"ce4bhbh2rcd13ifvqepg","pricing_plan_id":"free"},{"bike_id":"f40911b1-bf3d-4fae-85b6-d3fcaee97a34","system_id":"levelo_inurba_marseille","lat":43.282744,"lon":5.350533,"is_reserved":false,"is_disabled":false,"rental_uris":{"android":"levelo://app?vid=f40911b1-bf3d-4fae-85b6-d3fcaee97a34","ios":"levelo://app?vid=f40911b1-bf3d-4fae-85b6-d3fcaee97a34"},"vehicle_type_id":"4","last_reported":1698339972,"current_range_meters":9200,"station_id":"ce4bhbp2rcd13ifvqerg","pricing_plan_id":"free"},{"bike_id":"8293c112-ed0f-4768-9bda-a67983c1b9a2","system_id":"levelo_inurba_marseille","lat":43.28271,"lon":5.35073,"is_reserved":false,"is_disabled":false,"rental_uris":{"android":"levelo://app?vid=8293c112-ed0f-4768-9bda-a67983c1b9a2","ios":"levelo://app?vid=8293c112-ed0f-4768-9bda-a67983c1b9a2"},"vehicle_type_id":"4","last_reported":1698339972,"current_range_meters":0,"station_id":"ce4bhbp2rcd13ifvqerg","pricing_plan_id":"free"},{"bike_id":"c05a9018-cfc3-46bd-8cc2-2609e9adc317","system_id":"levelo_inurba_marseille","lat":43.283502,"lon":5.386471,"is_reserved":false,"is_disabled":false,"rental_uris":{"android":"levelo://app?vid=c05a9018-cfc3-46bd-8cc2-2609e9adc317","ios":"levelo://app?vid=c05a9018-cfc3-46bd-8cc2-2609e9adc317"},"vehicle_type_id":"4","last_reported":1698339972,"current_range_meters":4400,"station_id":"ce4bh492rcd13ifvqdvg","pricing_plan_id":"free"},{"bike_id":"3893999a-d9e6-459a-ac5c-dc96c8c855aa","system_id":"levelo_inurba_marseille","lat":43.28039,"lon":5.369297,"is_reserved":false,"is_disabled":false,"rental_uris":{"android":"levelo://app?vid=3893999a-d9e6-459a-ac5c-dc96c8c855aa","ios":"levelo://app?vid=3893999a-d9e6-459a-ac5c-dc96c8c855aa"},"vehicle_type_id":"4","last_reported":1698339972,"current_range_meters":14000,"station_id":"ce4bha12rcd13ifvqef0","pricing_plan_id":"free"},{"bike_id":"c0818e24-9aff-465d-a1df-e31705aef236","system_id":"levelo_inurba_marseille","lat":43.283502,"lon":5.386471,"is_reserved":false,"is_disabled":false,"rental_uris":{"android":"levelo://app?vid=c0818e24-9aff-465d-a1df-e31705aef236","ios":"levelo://app?vid=c0818e24-9aff-465d-a1df-e31705aef236"},"vehicle_type_id":"4","last_reported":1698339972,"current_range_meters":12000,"station_id":"ce4bh492rcd13ifvqdvg","pricing_plan_id":"free"},{"bike_id":"c7291be7-fd2e-44d3-a482-b3f30aabba3a","system_id":"levelo_inurba_marseille","lat":43.283502,"lon":5.386471,"is_reserved":false,"is_disabled":false,"rental_uris":{"android":"levelo://app?vid=c7291be7-fd2e-44d3-a482-b3f30aabba3a","ios":"levelo://app?vid=c7291be7-fd2e-44d3-a482-b3f30aabba3a"},"vehicle_type_id":"4","last_reported":1698339972,"current_range_meters":21600,"station_id":"ce4bh492rcd13ifvqdvg","pricing_plan_id":"free"},{"bike_id":"eae608c4-d84e-4731-b7f0-fdf7ef265fdf","system_id":"levelo_inurba_marseille","lat":43.28039,"lon":5.369297,"is_reserved":false,"is_disabled":false,"rental_uris":{"android":"levelo://app?vid=eae608c4-d84e-4731-b7f0-fdf7ef265fdf","ios":"levelo://app?vid=eae608c4-d84e-4731-b7f0-fdf7ef265fdf"},"vehicle_type_id":"4","last_reported":1698339972,"current_range_meters":10000,"station_id":"ce4bha12rcd13ifvqef0","pricing_plan_id":"free"},{"bike_id":"bd29e73a-fd6e-45d1-8248-2e716306868d","system_id":"levelo_inurba_marseille","lat":43.28039,"lon":5.369297,"is_reserved":false,"is_disabled":false,"rental_uris":{"android":"levelo://app?vid=bd29e73a-fd6e-45d1-8248-2e716306868d","ios":"levelo://app?vid=bd29e73a-fd6e-45d1-8248-2e716306868d"},"vehicle_type_id":"4","last_reported":1698339972,"current_range_meters":29200,"station_id":"ce4bha12rcd13ifvqef0","pricing_plan_id":"free"},{"bike_id":"16e49b95-787b-4792-ab87-d3916ea8e7e6","system_id":"levelo_inurba_marseille","lat":43.28039,"lon":5.369297,"is_reserved":false,"is_disabled":false,"rental_uris":{"android":"levelo://app?vid=16e49b95-787b-4792-ab87-d3916ea8e7e6","ios":"levelo://app?vid=16e49b95-787b-4792-ab87-d3916ea8e7e6"},"vehicle_type_id":"4","last_reported":1698339972,"current_range_meters":18000,"station_id":"ce4bha12rcd13ifvqef0","pricing_plan_id":"free"},{"bike_id":"5e17383a-f607-4265-8edf-37ac0d57c7f0","system_id":"levelo_inurba_marseille","lat":43.28039,"lon":5.369297,"is_reserved":false,"is_disabled":false,"rental_uris":{"android":"levelo://app?vid=5e17383a-f607-4265-8edf-37ac0d57c7f0","ios":"levelo://app?vid=5e17383a-f607-4265-8edf-37ac0d57c7f0"},"vehicle_type_id":"4","last_reported":1698339972,"current_range_meters":7600,"station_id":"ce4bha12rcd13ifvqef0","pricing_plan_id":"free"},{"bike_id":"c0449154-414a-4a97-8c66-4ecd834e8e24","system_id":"levelo_inurba_marseille","lat":43.280382,"lon":5.369291,"is_reserved":false,"is_disabled":false,"rental_uris":{"android":"levelo://app?vid=c0449154-414a-4a97-8c66-4ecd834e8e24","ios":"levelo://app?vid=c0449154-414a-4a97-8c66-4ecd834e8e24"},"vehicle_type_id":"4","last_reported":1698339972,"current_range_meters":26800,"station_id":"ce4bha12rcd13ifvqef0","pricing_plan_id":"free"},{"bike_id":"77a36b93-e47c-4023-9d12-bb4f9db102c7","system_id":"levelo_inurba_marseille","lat":43.280382,"lon":5.369291,"is_reserved":false,"is_disabled":false,"rental_uris":{"android":"levelo://app?vid=77a36b93-e47c-4023-9d12-bb4f9db102c7","ios":"levelo://app?vid=77a36b93-e47c-4023-9d12-bb4f9db102c7"},"vehicle_type_id":"4","last_reported":1698339972,"current_range_meters":8000,"station_id":"ce4bha12rcd13ifvqef0","pricing_plan_id":"free"},{"bike_id":"fdcf3760-7cc8-47fb-970e-761890579f86","system_id":"levelo_inurba_marseille","lat":43.290318,"lon":5.399657,"is_reserved":false,"is_disabled":false,"rental_uris":{"android":"levelo://app?vid=fdcf3760-7cc8-47fb-970e-761890579f86","ios":"levelo://app?vid=fdcf3760-7cc8-47fb-970e-761890579f86"},"vehicle_type_id":"4","last_reported":1698339972,"current_range_meters":0,"station_id":"","pricing_plan_id":"free"},{"bike_id":"597f455d-af12-40c5-b9c6-cf164d091359","system_id":"levelo_inurba_marseille","lat":43.296263,"lon":5.40601,"is_reserved":false,"is_disabled":false,"rental_uris":{"android":"levelo://app?vid=597f455d-af12-40c5-b9c6-cf164d091359","ios":"levelo://app?vid=597f455d-af12-40c5-b9c6-cf164d091359"},"vehicle_type_id":"4","last_reported":1698339972,"current_range_meters":3600,"station_id":"ce4bh0h2rcd13ifvqd60","pricing_plan_id":"free"},{"bike_id":"1ca242fe-6084-4f9b-8b54-35d465872844","system_id":"levelo_inurba_marseille","lat":43.29041,"lon":5.399634,"is_reserved":false,"is_disabled":false,"rental_uris":{"android":"levelo://app?vid=1ca242fe-6084-4f9b-8b54-35d465872844","ios":"levelo://app?vid=1ca242fe-6084-4f9b-8b54-35d465872844"},"vehicle_type_id":"4","last_reported":1698339972,"current_range_meters":22800,"station_id":"ce4bh392rcd13ifvqdm0","pricing_plan_id":"free"},{"bike_id":"dcdbbb11-4cff-4fe5-b2dc-235ce270151f","system_id":"levelo_inurba_marseille","lat":43.296263,"lon":5.40601,"is_reserved":false,"is_disabled":false,"rental_uris":{"android":"levelo://app?vid=dcdbbb11-4cff-4fe5-b2dc-235ce270151f","ios":"levelo://app?vid=dcdbbb11-4cff-4fe5-b2dc-235ce270151f"},"vehicle_type_id":"4","last_reported":1698339972,"current_range_meters":0,"station_id":"ce4bh0h2rcd13ifvqd60","pricing_plan_id":"free"},{"bike_id":"430fc058-a335-47b7-a376-f957d0ef92f5","system_id":"levelo_inurba_marseille","lat":43.281044,"lon":5.378308,"is_reserved":false,"is_disabled":false,"rental_uris":{"android":"levelo://app?vid=430fc058-a335-47b7-a376-f957d0ef92f5","ios":"levelo://app?vid=430fc058-a335-47b7-a376-f957d0ef92f5"},"vehicle_type_id":"4","last_reported":1698339972,"current_range_meters":1600,"station_id":"ce4bha12rcd13ifvqee0","pricing_plan_id":"free"},{"bike_id":"3642a6b9-8144-4e2b-8a56-907c72080d24","system_id":"levelo_inurba_marseille","lat":43.281044,"lon":5.378308,"is_reserved":false,"is_disabled":false,"rental_uris":{"android":"levelo://app?vid=3642a6b9-8144-4e2b-8a56-907c72080d24","ios":"levelo://app?vid=3642a6b9-8144-4e2b-8a56-907c72080d24"},"vehicle_type_id":"4","last_reported":1698339972,"current_range_meters":20800,"station_id":"ce4bha12rcd13ifvqee0","pricing_plan_id":"free"},{"bike_id":"a57d0fdb-b213-4e44-87aa-9e931832f41a","system_id":"levelo_inurba_marseille","lat":43.336569,"lon":5.398701,"is_reserved":false,"is_disabled":false,"rental_uris":{"android":"levelo://app?vid=a57d0fdb-b213-4e44-87aa-9e931832f41a","ios":"levelo://app?vid=a57d0fdb-b213-4e44-87aa-9e931832f41a"},"vehicle_type_id":"4","last_reported":1698339972,"current_range_meters":0,"station_id":"","pricing_plan_id":"free"},{"bike_id":"68e2eef6-26ff-41e0-9ea3-0c40b4ee5fc8","system_id":"levelo_inurba_marseille","lat":43.304188,"lon":5.412904,"is_reserved":false,"is_disabled":false,"rental_uris":{"android":"levelo://app?vid=68e2eef6-26ff-41e0-9ea3-0c40b4ee5fc8","ios":"levelo://app?vid=68e2eef6-26ff-41e0-9ea3-0c40b4ee5fc8"},"vehicle_type_id":"4","last_reported":1698339972,"current_range_meters":20400,"station_id":"ce4bhop2rcd13ifvqh8g","pricing_plan_id":"free"},{"bike_id":"016674fc-e6ea-42b1-a664-eac1ac7da5a3","system_id":"levelo_inurba_marseille","lat":43.30421,"lon":5.41283,"is_reserved":false,"is_disabled":false,"rental_uris":{"android":"levelo://app?vid=016674fc-e6ea-42b1-a664-eac1ac7da5a3","ios":"levelo://app?vid=016674fc-e6ea-42b1-a664-eac1ac7da5a3"},"vehicle_type_id":"4","last_reported":1698339972,"current_range_meters":16800,"station_id":"ce4bhop2rcd13ifvqh8g","pricing_plan_id":"free"},{"bike_id":"4e9d800b-51d0-4031-9b81-15661c733994","system_id":"levelo_inurba_marseille","lat":43.279087,"lon":5.380114,"is_reserved":false,"is_disabled":false,"rental_uris":{"android":"levelo://app?vid=4e9d800b-51d0-4031-9b81-15661c733994","ios":"levelo://app?vid=4e9d800b-51d0-4031-9b81-15661c733994"},"vehicle_type_id":"4","last_reported":1698339972,"current_range_meters":24000,"station_id":"ce4bhf92rcd13ifvqf50","pricing_plan_id":"free"},{"bike_id":"d3c4c40e-a795-47c4-aca5-538c9f69a935","system_id":"levelo_inurba_marseille","lat":43.279087,"lon":5.380114,"is_reserved":false,"is_disabled":false,"rental_uris":{"android":"levelo://app?vid=d3c4c40e-a795-47c4-aca5-538c9f69a935","ios":"levelo://app?vid=d3c4c40e-a795-47c4-aca5-538c9f69a935"},"vehicle_type_id":"4","last_reported":1698339972,"current_range_meters":14400,"station_id":"ce4bhf92rcd13ifvqf50","pricing_plan_id":"free"},{"bike_id":"e43c4cb6-2f9e-46c4-af87-d5cf9df0996a","system_id":"levelo_inurba_marseille","lat":43.287154,"lon":5.399979,"is_reserved":false,"is_disabled":false,"rental_uris":{"android":"levelo://app?vid=e43c4cb6-2f9e-46c4-af87-d5cf9df0996a","ios":"levelo://app?vid=e43c4cb6-2f9e-46c4-af87-d5cf9df0996a"},"vehicle_type_id":"4","last_reported":1698339972,"current_range_meters":26000,"station_id":"ce4bho92rcd13ifvqh3g","pricing_plan_id":"free"},{"bike_id":"a1ef4977-5d57-4274-89e6-12f86f92da81","system_id":"levelo_inurba_marseille","lat":43.287154,"lon":5.399979,"is_reserved":false,"is_disabled":false,"rental_uris":{"android":"levelo://app?vid=a1ef4977-5d57-4274-89e6-12f86f92da81","ios":"levelo://app?vid=a1ef4977-5d57-4274-89e6-12f86f92da81"},"vehicle_type_id":"4","last_reported":1698339972,"current_range_meters":0,"station_id":"ce4bho92rcd13ifvqh3g","pricing_plan_id":"free"},{"bike_id":"4bf7168d-90a9-4f30-9eb7-8bb199bd9beb","system_id":"levelo_inurba_marseille","lat":43.299577,"lon":5.413277,"is_reserved":false,"is_disabled":false,"rental_uris":{"android":"levelo://app?vid=4bf7168d-90a9-4f30-9eb7-8bb199bd9beb","ios":"levelo://app?vid=4bf7168d-90a9-4f30-9eb7-8bb199bd9beb"},"vehicle_type_id":"4","last_reported":1698339972,"current_range_meters":21200,"station_id":"ce4bhp12rcd13ifvqh9g","pricing_plan_id":"free"},{"bike_id":"3135f09a-7fe6-4654-9aed-555b6efceedf","system_id":"levelo_inurba_marseille","lat":43.27958,"lon":5.38724,"is_reserved":false,"is_disabled":false,"rental_uris":{"android":"levelo://app?vid=3135f09a-7fe6-4654-9aed-555b6efceedf","ios":"levelo://app?vid=3135f09a-7fe6-4654-9aed-555b6efceedf"},"vehicle_type_id":"4","last_reported":1698339972,"current_range_meters":0,"station_id":"ce4bhg12rcd13ifvqf80","pricing_plan_id":"free"},{"bike_id":"e65cafda-39ff-44c0-b87d-e402e09f0c2d","system_id":"levelo_inurba_marseille","lat":43.292571,"lon":5.409107,"is_reserved":false,"is_disabled":false,"rental_uris":{"android":"levelo://app?vid=e65cafda-39ff-44c0-b87d-e402e09f0c2d","ios":"levelo://app?vid=e65cafda-39ff-44c0-b87d-e402e09f0c2d"},"vehicle_type_id":"4","last_reported":1698339972,"current_range_meters":11600,"station_id":"ce4bh192rcd13ifvqdc0","pricing_plan_id":"free"},{"bike_id":"37f88b57-3abe-436e-8b53-22c928429bf0","system_id":"levelo_inurba_marseille","lat":43.292571,"lon":5.409107,"is_reserved":false,"is_disabled":false,"rental_uris":{"android":"levelo://app?vid=37f88b57-3abe-436e-8b53-22c928429bf0","ios":"levelo://app?vid=37f88b57-3abe-436e-8b53-22c928429bf0"},"vehicle_type_id":"4","last_reported":1698339972,"current_range_meters":8800,"station_id":"ce4bh192rcd13ifvqdc0","pricing_plan_id":"free"},{"bike_id":"fc91c726-04bb-4ed1-8e42-ce0d34bf6104","system_id":"levelo_inurba_marseille","lat":43.292571,"lon":5.409107,"is_reserved":false,"is_disabled":false,"rental_uris":{"android":"levelo://app?vid=fc91c726-04bb-4ed1-8e42-ce0d34bf6104","ios":"levelo://app?vid=fc91c726-04bb-4ed1-8e42-ce0d34bf6104"},"vehicle_type_id":"4","last_reported":1698339972,"current_range_meters":25200,"station_id":"ce4bh192rcd13ifvqdc0","pricing_plan_id":"free"},{"bike_id":"59156e0e-52b7-49e8-9dd8-9da366df49d7","system_id":"levelo_inurba_marseille","lat":43.303837,"lon":5.418724,"is_reserved":false,"is_disabled":false,"rental_uris":{"android":"levelo://app?vid=59156e0e-52b7-49e8-9dd8-9da366df49d7","ios":"levelo://app?vid=59156e0e-52b7-49e8-9dd8-9da366df49d7"},"vehicle_type_id":"4","last_reported":1698339972,"current_range_meters":18400,"station_id":"ce4bhop2rcd13ifvqh7g","pricing_plan_id":"free"},{"bike_id":"a2027346-b519-4327-82ca-910bbd21e69d","system_id":"levelo_inurba_marseille","lat":43.30357,"lon":5.41887,"is_reserved":false,"is_disabled":false,"rental_uris":{"android":"levelo://app?vid=a2027346-b519-4327-82ca-910bbd21e69d","ios":"levelo://app?vid=a2027346-b519-4327-82ca-910bbd21e69d"},"vehicle_type_id":"4","last_reported":1698339972,"current_range_meters":0,"station_id":"ce4bhop2rcd13ifvqh7g","pricing_plan_id":"free"},{"bike_id":"536f0632-0fcf-45ed-9603-3b3e38f8d362","system_id":"levelo_inurba_marseille","lat":43.275625,"lon":5.384392,"is_reserved":false,"is_disabled":false,"rental_uris":{"android":"levelo://app?vid=536f0632-0fcf-45ed-9603-3b3e38f8d362","ios":"levelo://app?vid=536f0632-0fcf-45ed-9603-3b3e38f8d362"},"vehicle_type_id":"4","last_reported":1698339972,"current_range_meters":20800,"station_id":"ce4bhh92rcd13ifvqfi0","pricing_plan_id":"free"},{"bike_id":"8a834604-096d-4e36-bd92-c07e1336ecff","system_id":"levelo_inurba_marseille","lat":43.278401,"lon":5.392152,"is_reserved":false,"is_disabled":false,"rental_uris":{"android":"levelo://app?vid=8a834604-096d-4e36-bd92-c07e1336ecff","ios":"levelo://app?vid=8a834604-096d-4e36-bd92-c07e1336ecff"},"vehicle_type_id":"4","last_reported":1698339972,"current_range_meters":24800,"station_id":"ce4bhjp2rcd13ifvqga0","pricing_plan_id":"free"},{"bike_id":"75a7b360-1655-4dbf-99e0-c87fca4d0430","system_id":"levelo_inurba_marseille","lat":43.273609,"lon":5.362708,"is_reserved":false,"is_disabled":false,"rental_uris":{"android":"levelo://app?vid=75a7b360-1655-4dbf-99e0-c87fca4d0430","ios":"levelo://app?vid=75a7b360-1655-4dbf-99e0-c87fca4d0430"},"vehicle_type_id":"4","last_reported":1698339972,"current_range_meters":2000,"station_id":"ce4bhbh2rcd13ifvqeo0","pricing_plan_id":"free"},{"bike_id":"9eb47525-552e-4727-99a8-12bc926e7eb4","system_id":"levelo_inurba_marseille","lat":43.336134,"lon":5.410341,"is_reserved":false,"is_disabled":false,"rental_uris":{"android":"levelo://app?vid=9eb47525-552e-4727-99a8-12bc926e7eb4","ios":"levelo://app?vid=9eb47525-552e-4727-99a8-12bc926e7eb4"},"vehicle_type_id":"4","last_reported":1698339972,"current_range_meters":0,"station_id":"ce4bhqh2rcd13ifvqhmg","pricing_plan_id":"free"},{"bike_id":"c156c777-018f-4afd-ad77-d5350a5d71fb","system_id":"levelo_inurba_marseille","lat":43.27682,"lon":5.38875,"is_reserved":false,"is_disabled":false,"rental_uris":{"android":"levelo://app?vid=c156c777-018f-4afd-ad77-d5350a5d71fb","ios":"levelo://app?vid=c156c777-018f-4afd-ad77-d5350a5d71fb"},"vehicle_type_id":"4","last_reported":1698339972,"current_range_meters":0,"station_id":"ce4bhi12rcd13ifvqfo0","pricing_plan_id":"free"},{"bike_id":"444d51e5-c0af-4b5e-802c-c1ec3762b314","system_id":"levelo_inurba_marseille","lat":43.27682,"lon":5.38877,"is_reserved":false,"is_disabled":false,"rental_uris":{"android":"levelo://app?vid=444d51e5-c0af-4b5e-802c-c1ec3762b314","ios":"levelo://app?vid=444d51e5-c0af-4b5e-802c-c1ec3762b314"},"vehicle_type_id":"4","last_reported":1698339972,"current_range_meters":0,"station_id":"ce4bhi12rcd13ifvqfo0","pricing_plan_id":"free"},{"bike_id":"9d947250-39d1-4b7b-a238-c0ace313163d","system_id":"levelo_inurba_marseille","lat":43.276771,"lon":5.388799,"is_reserved":false,"is_disabled":false,"rental_uris":{"android":"levelo://app?vid=9d947250-39d1-4b7b-a238-c0ace313163d","ios":"levelo://app?vid=9d947250-39d1-4b7b-a238-c0ace313163d"},"vehicle_type_id":"4","last_reported":1698339972,"current_range_meters":0,"station_id":"ce4bhi12rcd13ifvqfo0","pricing_plan_id":"free"},{"bike_id":"25cfaac1-e172-4c21-9981-1f0dd6c5c7da","system_id":"levelo_inurba_marseille","lat":43.27997,"lon":5.40019,"is_reserved":false,"is_disabled":false,"rental_uris":{"android":"levelo://app?vid=25cfaac1-e172-4c21-9981-1f0dd6c5c7da","ios":"levelo://app?vid=25cfaac1-e172-4c21-9981-1f0dd6c5c7da"},"vehicle_type_id":"4","last_reported":1698339972,"current_range_meters":0,"station_id":"ce4bho92rcd13ifvqh4g","pricing_plan_id":"free"},{"bike_id":"08142ef6-e381-4788-b104-c0a1335b54e5","system_id":"levelo_inurba_marseille","lat":43.31716,"lon":5.42412,"is_reserved":false,"is_disabled":false,"rental_uris":{"android":"levelo://app?vid=08142ef6-e381-4788-b104-c0a1335b54e5","ios":"levelo://app?vid=08142ef6-e381-4788-b104-c0a1335b54e5"},"vehicle_type_id":"4","last_reported":1698339972,"current_range_meters":18400,"station_id":"ce4bhp92rcd13ifvqhbg","pricing_plan_id":"free"},{"bike_id":"10771e27-9dfa-483f-a879-18ff14f74247","system_id":"levelo_inurba_marseille","lat":43.310021,"lon":5.425067,"is_reserved":false,"is_disabled":false,"rental_uris":{"android":"levelo://app?vid=10771e27-9dfa-483f-a879-18ff14f74247","ios":"levelo://app?vid=10771e27-9dfa-483f-a879-18ff14f74247"},"vehicle_type_id":"4","last_reported":1698339972,"current_range_meters":4400,"station_id":"","pricing_plan_id":"free"},{"bike_id":"62210262-dbb7-435b-810f-2bfbccdc172f","system_id":"levelo_inurba_marseille","lat":43.273125,"lon":5.390731,"is_reserved":false,"is_disabled":false,"rental_uris":{"android":"levelo://app?vid=62210262-dbb7-435b-810f-2bfbccdc172f","ios":"levelo://app?vid=62210262-dbb7-435b-810f-2bfbccdc172f"},"vehicle_type_id":"4","last_reported":1698339972,"current_range_meters":0,"station_id":"ce4bhgp2rcd13ifvqfe0","pricing_plan_id":"free"},{"bike_id":"c444cc38-29fc-488d-84fa-2db8a3da3d0a","system_id":"levelo_inurba_marseille","lat":43.273125,"lon":5.390731,"is_reserved":false,"is_disabled":false,"rental_uris":{"android":"levelo://app?vid=c444cc38-29fc-488d-84fa-2db8a3da3d0a","ios":"levelo://app?vid=c444cc38-29fc-488d-84fa-2db8a3da3d0a"},"vehicle_type_id":"4","last_reported":1698339972,"current_range_meters":10000,"station_id":"ce4bhgp2rcd13ifvqfe0","pricing_plan_id":"free"},{"bike_id":"6a00d3fd-8327-4241-a60a-3b3cfa594a9d","system_id":"levelo_inurba_marseille","lat":43.274099,"lon":5.394019,"is_reserved":false,"is_disabled":false,"rental_uris":{"android":"levelo://app?vid=6a00d3fd-8327-4241-a60a-3b3cfa594a9d","ios":"levelo://app?vid=6a00d3fd-8327-4241-a60a-3b3cfa594a9d"},"vehicle_type_id":"4","last_reported":1698339972,"current_range_meters":12400,"station_id":"ce4bhdp2rcd13ifvqf20","pricing_plan_id":"free"},{"bike_id":"304b5f18-5067-4844-a4c8-34b5ffe5a7e3","system_id":"levelo_inurba_marseille","lat":43.274099,"lon":5.394019,"is_reserved":false,"is_disabled":false,"rental_uris":{"android":"levelo://app?vid=304b5f18-5067-4844-a4c8-34b5ffe5a7e3","ios":"levelo://app?vid=304b5f18-5067-4844-a4c8-34b5ffe5a7e3"},"vehicle_type_id":"4","last_reported":1698339972,"current_range_meters":31200,"station_id":"ce4bhdp2rcd13ifvqf20","pricing_plan_id":"free"},{"bike_id":"0c68240c-5a6f-4f9b-b90e-77d889a9b6c5","system_id":"levelo_inurba_marseille","lat":43.274103,"lon":5.394016,"is_reserved":false,"is_disabled":false,"rental_uris":{"android":"levelo://app?vid=0c68240c-5a6f-4f9b-b90e-77d889a9b6c5","ios":"levelo://app?vid=0c68240c-5a6f-4f9b-b90e-77d889a9b6c5"},"vehicle_type_id":"4","last_reported":1698339972,"current_range_meters":19600,"station_id":"ce4bhdp2rcd13ifvqf20","pricing_plan_id":"free"},{"bike_id":"bb8bc910-d854-4276-a697-62b4f54e6695","system_id":"levelo_inurba_marseille","lat":43.274099,"lon":5.394019,"is_reserved":false,"is_disabled":false,"rental_uris":{"android":"levelo://app?vid=bb8bc910-d854-4276-a697-62b4f54e6695","ios":"levelo://app?vid=bb8bc910-d854-4276-a697-62b4f54e6695"},"vehicle_type_id":"4","last_reported":1698339972,"current_range_meters":17600,"station_id":"ce4bhdp2rcd13ifvqf20","pricing_plan_id":"free"},{"bike_id":"77259719-80c3-42c6-8acf-c37bf397c815","system_id":"levelo_inurba_marseille","lat":43.274099,"lon":5.394019,"is_reserved":false,"is_disabled":false,"rental_uris":{"android":"levelo://app?vid=77259719-80c3-42c6-8acf-c37bf397c815","ios":"levelo://app?vid=77259719-80c3-42c6-8acf-c37bf397c815"},"vehicle_type_id":"4","last_reported":1698339972,"current_range_meters":23600,"station_id":"ce4bhdp2rcd13ifvqf20","pricing_plan_id":"free"},{"bike_id":"9646a2ee-6867-4298-b619-9b7e4f8d73dc","system_id":"levelo_inurba_marseille","lat":43.274099,"lon":5.394019,"is_reserved":false,"is_disabled":false,"rental_uris":{"android":"levelo://app?vid=9646a2ee-6867-4298-b619-9b7e4f8d73dc","ios":"levelo://app?vid=9646a2ee-6867-4298-b619-9b7e4f8d73dc"},"vehicle_type_id":"4","last_reported":1698339972,"current_range_meters":7200,"station_id":"ce4bhdp2rcd13ifvqf20","pricing_plan_id":"free"},{"bike_id":"23ca435b-14f5-44c0-a92b-b29c88b19902","system_id":"levelo_inurba_marseille","lat":43.274099,"lon":5.394019,"is_reserved":false,"is_disabled":false,"rental_uris":{"android":"levelo://app?vid=23ca435b-14f5-44c0-a92b-b29c88b19902","ios":"levelo://app?vid=23ca435b-14f5-44c0-a92b-b29c88b19902"},"vehicle_type_id":"4","last_reported":1698339972,"current_range_meters":5600,"station_id":"ce4bhdp2rcd13ifvqf20","pricing_plan_id":"free"},{"bike_id":"35e9b688-2568-4441-9f55-df97b6fd1feb","system_id":"levelo_inurba_marseille","lat":43.274099,"lon":5.394019,"is_reserved":false,"is_disabled":false,"rental_uris":{"android":"levelo://app?vid=35e9b688-2568-4441-9f55-df97b6fd1feb","ios":"levelo://app?vid=35e9b688-2568-4441-9f55-df97b6fd1feb"},"vehicle_type_id":"4","last_reported":1698339972,"current_range_meters":12000,"station_id":"ce4bhdp2rcd13ifvqf20","pricing_plan_id":"free"},{"bike_id":"0e29acaa-3189-479f-91ad-81341fcc313e","system_id":"levelo_inurba_marseille","lat":43.304096,"lon":5.425385,"is_reserved":false,"is_disabled":false,"rental_uris":{"android":"levelo://app?vid=0e29acaa-3189-479f-91ad-81341fcc313e","ios":"levelo://app?vid=0e29acaa-3189-479f-91ad-81341fcc313e"},"vehicle_type_id":"4","last_reported":1698339972,"current_range_meters":0,"station_id":"ce4bhoh2rcd13ifvqh6g","pricing_plan_id":"free"},{"bike_id":"b513ca5d-9858-4999-832c-9395765a9b3c","system_id":"levelo_inurba_marseille","lat":43.304114,"lon":5.425444,"is_reserved":false,"is_disabled":false,"rental_uris":{"android":"levelo://app?vid=b513ca5d-9858-4999-832c-9395765a9b3c","ios":"levelo://app?vid=b513ca5d-9858-4999-832c-9395765a9b3c"},"vehicle_type_id":"4","last_reported":1698339972,"current_range_meters":18400,"station_id":"ce4bhoh2rcd13ifvqh6g","pricing_plan_id":"free"},{"bike_id":"48b1c85d-4258-4ca8-9cba-545fb5b198e8","system_id":"levelo_inurba_marseille","lat":43.295496,"lon":5.422762,"is_reserved":false,"is_disabled":false,"rental_uris":{"android":"levelo://app?vid=48b1c85d-4258-4ca8-9cba-545fb5b198e8","ios":"levelo://app?vid=48b1c85d-4258-4ca8-9cba-545fb5b198e8"},"vehicle_type_id":"4","last_reported":1698339972,"current_range_meters":14000,"station_id":"ce4bhph2rcd13ifvqhdg","pricing_plan_id":"free"},{"bike_id":"cff879bb-7386-423d-b496-7e98836143ab","system_id":"levelo_inurba_marseille","lat":43.295587,"lon":5.42297,"is_reserved":false,"is_disabled":false,"rental_uris":{"android":"levelo://app?vid=cff879bb-7386-423d-b496-7e98836143ab","ios":"levelo://app?vid=cff879bb-7386-423d-b496-7e98836143ab"},"vehicle_type_id":"4","last_reported":1698339972,"current_range_meters":16800,"station_id":"","pricing_plan_id":"free"},{"bike_id":"45124ef3-641b-4e37-9dd3-a573ecde657c","system_id":"levelo_inurba_marseille","lat":43.272124,"lon":5.391768,"is_reserved":false,"is_disabled":false,"rental_uris":{"android":"levelo://app?vid=45124ef3-641b-4e37-9dd3-a573ecde657c","ios":"levelo://app?vid=45124ef3-641b-4e37-9dd3-a573ecde657c"},"vehicle_type_id":"4","last_reported":1698339972,"current_range_meters":31200,"station_id":"ce4bhhp2rcd13ifvqfm0","pricing_plan_id":"free"},{"bike_id":"62502b77-ec4a-4bb2-a9b5-a1ae89b6bebc","system_id":"levelo_inurba_marseille","lat":43.272116,"lon":5.391763,"is_reserved":false,"is_disabled":false,"rental_uris":{"android":"levelo://app?vid=62502b77-ec4a-4bb2-a9b5-a1ae89b6bebc","ios":"levelo://app?vid=62502b77-ec4a-4bb2-a9b5-a1ae89b6bebc"},"vehicle_type_id":"4","last_reported":1698339972,"current_range_meters":18800,"station_id":"ce4bhhp2rcd13ifvqfm0","pricing_plan_id":"free"},{"bike_id":"e666900c-95ea-4c04-b01d-ad8d6abfaaa5","system_id":"levelo_inurba_marseille","lat":43.272124,"lon":5.391768,"is_reserved":false,"is_disabled":false,"rental_uris":{"android":"levelo://app?vid=e666900c-95ea-4c04-b01d-ad8d6abfaaa5","ios":"levelo://app?vid=e666900c-95ea-4c04-b01d-ad8d6abfaaa5"},"vehicle_type_id":"4","last_reported":1698339972,"current_range_meters":29600,"station_id":"ce4bhhp2rcd13ifvqfm0","pricing_plan_id":"free"},{"bike_id":"bbf89468-32e3-4ee6-95a3-a728b168178e","system_id":"levelo_inurba_marseille","lat":43.272116,"lon":5.391763,"is_reserved":false,"is_disabled":false,"rental_uris":{"android":"levelo://app?vid=bbf89468-32e3-4ee6-95a3-a728b168178e","ios":"levelo://app?vid=bbf89468-32e3-4ee6-95a3-a728b168178e"},"vehicle_type_id":"4","last_reported":1698339972,"current_range_meters":31200,"station_id":"ce4bhhp2rcd13ifvqfm0","pricing_plan_id":"free"},{"bike_id":"50b1f746-6a76-4129-9348-efacd0ecca2e","system_id":"levelo_inurba_marseille","lat":43.272118,"lon":5.391758,"is_reserved":false,"is_disabled":false,"rental_uris":{"android":"levelo://app?vid=50b1f746-6a76-4129-9348-efacd0ecca2e","ios":"levelo://app?vid=50b1f746-6a76-4129-9348-efacd0ecca2e"},"vehicle_type_id":"4","last_reported":1698339972,"current_range_meters":14400,"station_id":"ce4bhhp2rcd13ifvqfm0","pricing_plan_id":"free"},{"bike_id":"bb2f0d64-7ae1-4cb9-9964-4161806fdc1a","system_id":"levelo_inurba_marseille","lat":43.272116,"lon":5.391763,"is_reserved":false,"is_disabled":false,"rental_uris":{"android":"levelo://app?vid=bb2f0d64-7ae1-4cb9-9964-4161806fdc1a","ios":"levelo://app?vid=bb2f0d64-7ae1-4cb9-9964-4161806fdc1a"},"vehicle_type_id":"4","last_reported":1698339972,"current_range_meters":30400,"station_id":"ce4bhhp2rcd13ifvqfm0","pricing_plan_id":"free"},{"bike_id":"b67b050b-9577-442b-bd70-301fce6cc318","system_id":"levelo_inurba_marseille","lat":43.272118,"lon":5.391758,"is_reserved":false,"is_disabled":false,"rental_uris":{"android":"levelo://app?vid=b67b050b-9577-442b-bd70-301fce6cc318","ios":"levelo://app?vid=b67b050b-9577-442b-bd70-301fce6cc318"},"vehicle_type_id":"4","last_reported":1698339972,"current_range_meters":15600,"station_id":"ce4bhhp2rcd13ifvqfm0","pricing_plan_id":"free"},{"bike_id":"6802a647-40f7-47ad-985a-a707f081a631","system_id":"levelo_inurba_marseille","lat":43.272116,"lon":5.391763,"is_reserved":false,"is_disabled":false,"rental_uris":{"android":"levelo://app?vid=6802a647-40f7-47ad-985a-a707f081a631","ios":"levelo://app?vid=6802a647-40f7-47ad-985a-a707f081a631"},"vehicle_type_id":"4","last_reported":1698339972,"current_range_meters":28400,"station_id":"ce4bhhp2rcd13ifvqfm0","pricing_plan_id":"free"},{"bike_id":"b2c184be-48b3-47c6-a8a9-27cc60227fd6","system_id":"levelo_inurba_marseille","lat":43.272124,"lon":5.391768,"is_reserved":false,"is_disabled":false,"rental_uris":{"android":"levelo://app?vid=b2c184be-48b3-47c6-a8a9-27cc60227fd6","ios":"levelo://app?vid=b2c184be-48b3-47c6-a8a9-27cc60227fd6"},"vehicle_type_id":"4","last_reported":1698339972,"current_range_meters":20000,"station_id":"ce4bhhp2rcd13ifvqfm0","pricing_plan_id":"free"},{"bike_id":"f3d08946-268f-4a61-9830-e819de85e0af","system_id":"levelo_inurba_marseille","lat":43.272118,"lon":5.391758,"is_reserved":false,"is_disabled":false,"rental_uris":{"android":"levelo://app?vid=f3d08946-268f-4a61-9830-e819de85e0af","ios":"levelo://app?vid=f3d08946-268f-4a61-9830-e819de85e0af"},"vehicle_type_id":"4","last_reported":1698339972,"current_range_meters":31200,"station_id":"ce4bhhp2rcd13ifvqfm0","pricing_plan_id":"free"},{"bike_id":"ada36222-49e2-47b2-a8a1-6ec07a2c26f1","system_id":"levelo_inurba_marseille","lat":43.272118,"lon":5.391758,"is_reserved":false,"is_disabled":false,"rental_uris":{"android":"levelo://app?vid=ada36222-49e2-47b2-a8a1-6ec07a2c26f1","ios":"levelo://app?vid=ada36222-49e2-47b2-a8a1-6ec07a2c26f1"},"vehicle_type_id":"4","last_reported":1698339972,"current_range_meters":14000,"station_id":"ce4bhhp2rcd13ifvqfm0","pricing_plan_id":"free"},{"bike_id":"d641144d-b5b8-45fe-9432-7931e7755b04","system_id":"levelo_inurba_marseille","lat":43.272116,"lon":5.391763,"is_reserved":false,"is_disabled":false,"rental_uris":{"android":"levelo://app?vid=d641144d-b5b8-45fe-9432-7931e7755b04","ios":"levelo://app?vid=d641144d-b5b8-45fe-9432-7931e7755b04"},"vehicle_type_id":"4","last_reported":1698339972,"current_range_meters":27600,"station_id":"ce4bhhp2rcd13ifvqfm0","pricing_plan_id":"free"},{"bike_id":"1da2b62f-8bca-4005-ac15-43584f2e05a7","system_id":"levelo_inurba_marseille","lat":43.278128,"lon":5.407195,"is_reserved":false,"is_disabled":false,"rental_uris":{"android":"levelo://app?vid=1da2b62f-8bca-4005-ac15-43584f2e05a7","ios":"levelo://app?vid=1da2b62f-8bca-4005-ac15-43584f2e05a7"},"vehicle_type_id":"4","last_reported":1698339972,"current_range_meters":400,"station_id":"ce4bhnh2rcd13ifvqgtg","pricing_plan_id":"free"},{"bike_id":"489652d8-09ac-4057-9c1d-08bdd007090b","system_id":"levelo_inurba_marseille","lat":43.278128,"lon":5.407195,"is_reserved":false,"is_disabled":false,"rental_uris":{"android":"levelo://app?vid=489652d8-09ac-4057-9c1d-08bdd007090b","ios":"levelo://app?vid=489652d8-09ac-4057-9c1d-08bdd007090b"},"vehicle_type_id":"4","last_reported":1698339972,"current_range_meters":21600,"station_id":"ce4bhnh2rcd13ifvqgtg","pricing_plan_id":"free"},{"bike_id":"8e58a0fd-c2e0-4378-8a03-2f8bec7de8e7","system_id":"levelo_inurba_marseille","lat":43.278128,"lon":5.407195,"is_reserved":false,"is_disabled":false,"rental_uris":{"android":"levelo://app?vid=8e58a0fd-c2e0-4378-8a03-2f8bec7de8e7","ios":"levelo://app?vid=8e58a0fd-c2e0-4378-8a03-2f8bec7de8e7"},"vehicle_type_id":"4","last_reported":1698339972,"current_range_meters":2800,"station_id":"ce4bhnh2rcd13ifvqgtg","pricing_plan_id":"free"},{"bike_id":"a9809c64-118a-4372-a698-da5f389c6ef3","system_id":"levelo_inurba_marseille","lat":43.278128,"lon":5.407195,"is_reserved":false,"is_disabled":false,"rental_uris":{"android":"levelo://app?vid=a9809c64-118a-4372-a698-da5f389c6ef3","ios":"levelo://app?vid=a9809c64-118a-4372-a698-da5f389c6ef3"},"vehicle_type_id":"4","last_reported":1698339972,"current_range_meters":1200,"station_id":"ce4bhnh2rcd13ifvqgtg","pricing_plan_id":"free"},{"bike_id":"a4218121-4455-4416-9d3b-5bc79610a638","system_id":"levelo_inurba_marseille","lat":43.278051,"lon":5.407157,"is_reserved":false,"is_disabled":false,"rental_uris":{"android":"levelo://app?vid=a4218121-4455-4416-9d3b-5bc79610a638","ios":"levelo://app?vid=a4218121-4455-4416-9d3b-5bc79610a638"},"vehicle_type_id":"4","last_reported":1698339972,"current_range_meters":26000,"station_id":"ce4bhnh2rcd13ifvqgtg","pricing_plan_id":"free"},{"bike_id":"ad5d9763-da45-4d5a-88f0-26ead3d072d4","system_id":"levelo_inurba_marseille","lat":43.27807,"lon":5.40719,"is_reserved":false,"is_disabled":false,"rental_uris":{"android":"levelo://app?vid=ad5d9763-da45-4d5a-88f0-26ead3d072d4","ios":"levelo://app?vid=ad5d9763-da45-4d5a-88f0-26ead3d072d4"},"vehicle_type_id":"4","last_reported":1698339972,"current_range_meters":24800,"station_id":"ce4bhnh2rcd13ifvqgtg","pricing_plan_id":"free"},{"bike_id":"26e3f933-2a8e-4df1-b73c-69afc6c1a14e","system_id":"levelo_inurba_marseille","lat":43.278128,"lon":5.407195,"is_reserved":false,"is_disabled":false,"rental_uris":{"android":"levelo://app?vid=26e3f933-2a8e-4df1-b73c-69afc6c1a14e","ios":"levelo://app?vid=26e3f933-2a8e-4df1-b73c-69afc6c1a14e"},"vehicle_type_id":"4","last_reported":1698339972,"current_range_meters":4400,"station_id":"ce4bhnh2rcd13ifvqgtg","pricing_plan_id":"free"},{"bike_id":"eae2816a-638f-4189-b251-93c38b445211","system_id":"levelo_inurba_marseille","lat":43.26956,"lon":5.3863,"is_reserved":false,"is_disabled":false,"rental_uris":{"android":"levelo://app?vid=eae2816a-638f-4189-b251-93c38b445211","ios":"levelo://app?vid=eae2816a-638f-4189-b251-93c38b445211"},"vehicle_type_id":"4","last_reported":1698339972,"current_range_meters":0,"station_id":"ce4bhh92rcd13ifvqfh0","pricing_plan_id":"free"},{"bike_id":"891e1734-0f2b-4304-8bd4-989a6a3bbdb4","system_id":"levelo_inurba_marseille","lat":43.279465,"lon":5.410561,"is_reserved":false,"is_disabled":false,"rental_uris":{"android":"levelo://app?vid=891e1734-0f2b-4304-8bd4-989a6a3bbdb4","ios":"levelo://app?vid=891e1734-0f2b-4304-8bd4-989a6a3bbdb4"},"vehicle_type_id":"4","last_reported":1698339972,"current_range_meters":8400,"station_id":"ce4bhnp2rcd13ifvqh0g","pricing_plan_id":"free"},{"bike_id":"66a46cce-2509-423f-8e36-ccbf8c1330ab","system_id":"levelo_inurba_marseille","lat":43.26935,"lon":5.38911,"is_reserved":false,"is_disabled":false,"rental_uris":{"android":"levelo://app?vid=66a46cce-2509-423f-8e36-ccbf8c1330ab","ios":"levelo://app?vid=66a46cce-2509-423f-8e36-ccbf8c1330ab"},"vehicle_type_id":"4","last_reported":1698339972,"current_range_meters":17600,"station_id":"ce4bhhh2rcd13ifvqfl0","pricing_plan_id":"free"},{"bike_id":"55f4e549-5087-4710-af41-cf2fa491eff6","system_id":"levelo_inurba_marseille","lat":43.26681,"lon":5.382694,"is_reserved":false,"is_disabled":false,"rental_uris":{"android":"levelo://app?vid=55f4e549-5087-4710-af41-cf2fa491eff6","ios":"levelo://app?vid=55f4e549-5087-4710-af41-cf2fa491eff6"},"vehicle_type_id":"4","last_reported":1698339972,"current_range_meters":0,"station_id":"ce4bhg92rcd13ifvqf90","pricing_plan_id":"free"},{"bike_id":"314c9674-2787-4bc2-a19e-46cee1990b91","system_id":"levelo_inurba_marseille","lat":43.26556,"lon":5.37285,"is_reserved":false,"is_disabled":false,"rental_uris":{"android":"levelo://app?vid=314c9674-2787-4bc2-a19e-46cee1990b91","ios":"levelo://app?vid=314c9674-2787-4bc2-a19e-46cee1990b91"},"vehicle_type_id":"4","last_reported":1698339972,"current_range_meters":24800,"station_id":"ce4bhg12rcd13ifvqf70","pricing_plan_id":"free"},{"bike_id":"2dd6044b-b91b-40e2-8b30-c3617c0087e2","system_id":"levelo_inurba_marseille","lat":43.26553,"lon":5.3729,"is_reserved":false,"is_disabled":false,"rental_uris":{"android":"levelo://app?vid=2dd6044b-b91b-40e2-8b30-c3617c0087e2","ios":"levelo://app?vid=2dd6044b-b91b-40e2-8b30-c3617c0087e2"},"vehicle_type_id":"4","last_reported":1698339972,"current_range_meters":27600,"station_id":"ce4bhg12rcd13ifvqf70","pricing_plan_id":"free"},{"bike_id":"5ec85365-0e81-4211-87ad-4e94a8dde9d9","system_id":"levelo_inurba_marseille","lat":43.33122,"lon":5.42905,"is_reserved":false,"is_disabled":false,"rental_uris":{"android":"levelo://app?vid=5ec85365-0e81-4211-87ad-4e94a8dde9d9","ios":"levelo://app?vid=5ec85365-0e81-4211-87ad-4e94a8dde9d9"},"vehicle_type_id":"4","last_reported":1698339972,"current_range_meters":5600,"station_id":"","pricing_plan_id":"free"},{"bike_id":"cc2c3327-2441-4b8f-aa83-48ee3771edfa","system_id":"levelo_inurba_marseille","lat":43.27993,"lon":5.41663,"is_reserved":false,"is_disabled":false,"rental_uris":{"android":"levelo://app?vid=cc2c3327-2441-4b8f-aa83-48ee3771edfa","ios":"levelo://app?vid=cc2c3327-2441-4b8f-aa83-48ee3771edfa"},"vehicle_type_id":"4","last_reported":1698339972,"current_range_meters":4400,"station_id":"ce4bho12rcd13ifvqh1g","pricing_plan_id":"free"},{"bike_id":"b6333a72-515f-4eb2-943a-fa125a56b9ad","system_id":"levelo_inurba_marseille","lat":43.26803,"lon":5.39409,"is_reserved":false,"is_disabled":false,"rental_uris":{"android":"levelo://app?vid=b6333a72-515f-4eb2-943a-fa125a56b9ad","ios":"levelo://app?vid=b6333a72-515f-4eb2-943a-fa125a56b9ad"},"vehicle_type_id":"4","last_reported":1698339972,"current_range_meters":31200,"station_id":"","pricing_plan_id":"free"},{"bike_id":"ac787bb4-2c65-430b-b92d-010a9dadd829","system_id":"levelo_inurba_marseille","lat":43.267955,"lon":5.39412,"is_reserved":false,"is_disabled":false,"rental_uris":{"android":"levelo://app?vid=ac787bb4-2c65-430b-b92d-010a9dadd829","ios":"levelo://app?vid=ac787bb4-2c65-430b-b92d-010a9dadd829"},"vehicle_type_id":"4","last_reported":1698339972,"current_range_meters":31200,"station_id":"ce4bhh12rcd13ifvqfg0","pricing_plan_id":"free"},{"bike_id":"f5234a36-4857-4e0a-aa78-f9d886fee289","system_id":"levelo_inurba_marseille","lat":43.267966,"lon":5.393976,"is_reserved":false,"is_disabled":false,"rental_uris":{"android":"levelo://app?vid=f5234a36-4857-4e0a-aa78-f9d886fee289","ios":"levelo://app?vid=f5234a36-4857-4e0a-aa78-f9d886fee289"},"vehicle_type_id":"4","last_reported":1698339972,"current_range_meters":12800,"station_id":"ce4bhh12rcd13ifvqfg0","pricing_plan_id":"free"},{"bike_id":"69a8e73f-3b00-40d9-8afa-0cadbbd875ea","system_id":"levelo_inurba_marseille","lat":43.26795,"lon":5.39418,"is_reserved":false,"is_disabled":false,"rental_uris":{"android":"levelo://app?vid=69a8e73f-3b00-40d9-8afa-0cadbbd875ea","ios":"levelo://app?vid=69a8e73f-3b00-40d9-8afa-0cadbbd875ea"},