{"last_updated":1740161561,"ttl":60,"version":"2.2","data":{"bikes":[{"bike_id":"b3af2c71-c79e-4366-a65a-12c6a623da36","system_id":"levelo_inurba_marseille","lat":43.31269,"lon":5.40138,"is_reserved":false,"is_disabled":false,"rental_uris":{"android":"levelo://app?vid=b3af2c71-c79e-4366-a65a-12c6a623da36","ios":"levelo://app?vid=b3af2c71-c79e-4366-a65a-12c6a623da36"},"vehicle_type_id":"4","last_reported":1740161562,"current_range_meters":2800,"station_id":"ce4bh092rcd13ifvqd30","pricing_plan_id":"cebpf4jnsgd1na2vs0mg"},{"bike_id":"888d7000-1a64-434d-903a-856e413cbe5e","system_id":"levelo_inurba_marseille","lat":43.27938,"lon":5.41043,"is_reserved":false,"is_disabled":false,"rental_uris":{"android":"levelo://app?vid=888d7000-1a64-434d-903a-856e413cbe5e","ios":"levelo://app?vid=888d7000-1a64-434d-903a-856e413cbe5e"},"vehicle_type_id":"4","last_reported":1740161562,"current_range_meters":2800,"station_id":"ce4bhnp2rcd13ifvqh0g","pricing_plan_id":"cebpf4jnsgd1na2vs0mg"},{"bike_id":"4b57187e-2569-4a17-84f5-8486548aaefb","system_id":"levelo_inurba_marseille","lat":43.31277,"lon":5.40172,"is_reserved":false,"is_disabled":false,"rental_uris":{"android":"levelo://app?vid=4b57187e-2569-4a17-84f5-8486548aaefb","ios":"levelo://app?vid=4b57187e-2569-4a17-84f5-8486548aaefb"},"vehicle_type_id":"4","last_reported":1740161562,"current_range_meters":2800,"station_id":"ce4bh092rcd13ifvqd30","pricing_plan_id":"cebpf4jnsgd1na2vs0mg"},{"bike_id":"0daceb12-03c8-4738-8cca-d21330c01121","system_id":"levelo_inurba_marseille","lat":43.28853,"lon":5.35841,"is_reserved":false,"is_disabled":false,"rental_uris":{"android":"levelo://app?vid=0daceb12-03c8-4738-8cca-d21330c01121","ios":"levelo://app?vid=0daceb12-03c8-4738-8cca-d21330c01121"},"vehicle_type_id":"4","last_reported":1740161562,"current_range_meters":3200,"station_id":"ce4bhb12rcd13ifvqem0","pricing_plan_id":"cebpf4jnsgd1na2vs0mg"},{"bike_id":"869fc4e9-e959-436d-9d8d-935013c9e624","system_id":"levelo_inurba_marseille","lat":43.23962,"lon":5.36629,"is_reserved":false,"is_disabled":false,"rental_uris":{"android":"levelo://app?vid=869fc4e9-e959-436d-9d8d-935013c9e624","ios":"levelo://app?vid=869fc4e9-e959-436d-9d8d-935013c9e624"},"vehicle_type_id":"4","last_reported":1740161562,"current_range_meters":3200,"station_id":"ce4bhi12rcd13ifvqfp0","pricing_plan_id":"cebpf4jnsgd1na2vs0mg"},{"bike_id":"0a1f670c-8f97-4c13-bfb3-d7e234dfa8bc","system_id":"levelo_inurba_marseille","lat":43.31328,"lon":5.39703,"is_reserved":false,"is_disabled":false,"rental_uris":{"android":"levelo://app?vid=0a1f670c-8f97-4c13-bfb3-d7e234dfa8bc","ios":"levelo://app?vid=0a1f670c-8f97-4c13-bfb3-d7e234dfa8bc"},"vehicle_type_id":"4","last_reported":1740161562,"current_range_meters":3600,"station_id":"ce4bgvp2rcd13ifvqcu0","pricing_plan_id":"cebpf4jnsgd1na2vs0mg"},{"bike_id":"3cd1a2ca-cac2-40d0-86dd-3d9bfeee6038","system_id":"levelo_inurba_marseille","lat":43.26221,"lon":5.40457,"is_reserved":false,"is_disabled":false,"rental_uris":{"android":"levelo://app?vid=3cd1a2ca-cac2-40d0-86dd-3d9bfeee6038","ios":"levelo://app?vid=3cd1a2ca-cac2-40d0-86dd-3d9bfeee6038"},"vehicle_type_id":"4","last_reported":1740161562,"current_range_meters":4000,"station_id":"ce4bhmh2rcd13ifvqgmg","pricing_plan_id":"cebpf4jnsgd1na2vs0mg"},{"bike_id":"7b9eaf6e-4489-4224-b436-ef6be4484e51","system_id":"levelo_inurba_marseille","lat":43.24803,"lon":5.37459,"is_reserved":false,"is_disabled":false,"rental_uris":{"android":"levelo://app?vid=7b9eaf6e-4489-4224-b436-ef6be4484e51","ios":"levelo://app?vid=7b9eaf6e-4489-4224-b436-ef6be4484e51"},"vehicle_type_id":"4","last_reported":1740161562,"current_range_meters":4000,"station_id":"ce4bhgh2rcd13ifvqfb0","pricing_plan_id":"cebpf4jnsgd1na2vs0mg"},{"bike_id":"2f441ed6-c5d7-479e-baaa-3a951830dba9","system_id":"levelo_inurba_marseille","lat":43.29005,"lon":5.35607,"is_reserved":false,"is_disabled":false,"rental_uris":{"android":"levelo://app?vid=2f441ed6-c5d7-479e-baaa-3a951830dba9","ios":"levelo://app?vid=2f441ed6-c5d7-479e-baaa-3a951830dba9"},"vehicle_type_id":"4","last_reported":1740161562,"current_range_meters":4000,"station_id":"","pricing_plan_id":"cebpf4jnsgd1na2vs0mg"},{"bike_id":"82de3f77-487b-47ad-960d-73c828194890","system_id":"levelo_inurba_marseille","lat":43.29028,"lon":5.38649,"is_reserved":false,"is_disabled":false,"rental_uris":{"android":"levelo://app?vid=82de3f77-487b-47ad-960d-73c828194890","ios":"levelo://app?vid=82de3f77-487b-47ad-960d-73c828194890"},"vehicle_type_id":"4","last_reported":1740161562,"current_range_meters":4400,"station_id":"ce4bh4p2rcd13ifvqe0g","pricing_plan_id":"cebpf4jnsgd1na2vs0mg"},{"bike_id":"6f4e1524-4b8c-4c11-8ada-c33a2e79163c","system_id":"levelo_inurba_marseille","lat":43.27951,"lon":5.41047,"is_reserved":false,"is_disabled":true,"rental_uris":{"android":"levelo://app?vid=6f4e1524-4b8c-4c11-8ada-c33a2e79163c","ios":"levelo://app?vid=6f4e1524-4b8c-4c11-8ada-c33a2e79163c"},"vehicle_type_id":"4","last_reported":1740161562,"current_range_meters":4400,"station_id":"ce4bhnp2rcd13ifvqh0g","pricing_plan_id":"cebpf4jnsgd1na2vs0mg"},{"bike_id":"f8c43784-0dae-4c59-b673-0261c34ce0f2","system_id":"levelo_inurba_marseille","lat":43.28158,"lon":5.42642,"is_reserved":false,"is_disabled":false,"rental_uris":{"android":"levelo://app?vid=f8c43784-0dae-4c59-b673-0261c34ce0f2","ios":"levelo://app?vid=f8c43784-0dae-4c59-b673-0261c34ce0f2"},"vehicle_type_id":"4","last_reported":1740161562,"current_range_meters":4400,"station_id":"ce4bhnh2rcd13ifvqgug","pricing_plan_id":"cebpf4jnsgd1na2vs0mg"},{"bike_id":"03edd3dc-a746-4f71-8f34-9a6ae6b8d503","system_id":"levelo_inurba_marseille","lat":43.27604,"lon":5.36102,"is_reserved":false,"is_disabled":false,"rental_uris":{"android":"levelo://app?vid=03edd3dc-a746-4f71-8f34-9a6ae6b8d503","ios":"levelo://app?vid=03edd3dc-a746-4f71-8f34-9a6ae6b8d503"},"vehicle_type_id":"4","last_reported":1740161562,"current_range_meters":4800,"station_id":"ce4bgj92rcd13ifvqbe0","pricing_plan_id":"cebpf4jnsgd1na2vs0mg"},{"bike_id":"775d1d32-c9b9-4818-ba71-8bba2e604d17","system_id":"levelo_inurba_marseille","lat":43.2942,"lon":5.38622,"is_reserved":false,"is_disabled":false,"rental_uris":{"android":"levelo://app?vid=775d1d32-c9b9-4818-ba71-8bba2e604d17","ios":"levelo://app?vid=775d1d32-c9b9-4818-ba71-8bba2e604d17"},"vehicle_type_id":"4","last_reported":1740161562,"current_range_meters":4800,"station_id":"ce4bh2h2rcd13ifvqdh0","pricing_plan_id":"cebpf4jnsgd1na2vs0mg"},{"bike_id":"49fc274b-881d-43ab-95b4-fd55fc22f4c6","system_id":"levelo_inurba_marseille","lat":43.29415,"lon":5.39879,"is_reserved":false,"is_disabled":false,"rental_uris":{"android":"levelo://app?vid=49fc274b-881d-43ab-95b4-fd55fc22f4c6","ios":"levelo://app?vid=49fc274b-881d-43ab-95b4-fd55fc22f4c6"},"vehicle_type_id":"4","last_reported":1740161562,"current_range_meters":4800,"station_id":"ce4bh3h2rcd13ifvqdo0","pricing_plan_id":"cebpf4jnsgd1na2vs0mg"},{"bike_id":"c0d4a6bb-34cd-4aad-b771-2f8713c2362e","system_id":"levelo_inurba_marseille","lat":43.301462,"lon":5.38767,"is_reserved":false,"is_disabled":false,"rental_uris":{"android":"levelo://app?vid=c0d4a6bb-34cd-4aad-b771-2f8713c2362e","ios":"levelo://app?vid=c0d4a6bb-34cd-4aad-b771-2f8713c2362e"},"vehicle_type_id":"4","last_reported":1740161562,"current_range_meters":5600,"station_id":"ce4bhh92rcd13ifvqfi0","pricing_plan_id":"cebpf4jnsgd1na2vs0mg"},{"bike_id":"ad1fa0eb-3cc4-4b11-b18a-48d7f104f97e","system_id":"levelo_inurba_marseille","lat":43.28418,"lon":5.34976,"is_reserved":false,"is_disabled":false,"rental_uris":{"android":"levelo://app?vid=ad1fa0eb-3cc4-4b11-b18a-48d7f104f97e","ios":"levelo://app?vid=ad1fa0eb-3cc4-4b11-b18a-48d7f104f97e"},"vehicle_type_id":"4","last_reported":1740161562,"current_range_meters":5600,"station_id":"ce4bhbh2rcd13ifvqepg","pricing_plan_id":"cebpf4jnsgd1na2vs0mg"},{"bike_id":"ec9bcd19-18ae-45b2-8018-027b7645a244","system_id":"levelo_inurba_marseille","lat":43.28983,"lon":5.3782,"is_reserved":false,"is_disabled":false,"rental_uris":{"android":"levelo://app?vid=ec9bcd19-18ae-45b2-8018-027b7645a244","ios":"levelo://app?vid=ec9bcd19-18ae-45b2-8018-027b7645a244"},"vehicle_type_id":"4","last_reported":1740161562,"current_range_meters":6000,"station_id":"ce4bh9p2rcd13ifvqed0","pricing_plan_id":"cebpf4jnsgd1na2vs0mg"},{"bike_id":"d1326944-48c1-4b8b-af72-a96dbb77ffca","system_id":"levelo_inurba_marseille","lat":43.28003,"lon":5.39995,"is_reserved":false,"is_disabled":false,"rental_uris":{"android":"levelo://app?vid=d1326944-48c1-4b8b-af72-a96dbb77ffca","ios":"levelo://app?vid=d1326944-48c1-4b8b-af72-a96dbb77ffca"},"vehicle_type_id":"4","last_reported":1740161562,"current_range_meters":6000,"station_id":"ce4bho92rcd13ifvqh4g","pricing_plan_id":"cebpf4jnsgd1na2vs0mg"},{"bike_id":"77ff63e8-b5ae-48d0-8725-3fc2e7c2e786","system_id":"levelo_inurba_marseille","lat":43.32106,"lon":5.36782,"is_reserved":false,"is_disabled":false,"rental_uris":{"android":"levelo://app?vid=77ff63e8-b5ae-48d0-8725-3fc2e7c2e786","ios":"levelo://app?vid=77ff63e8-b5ae-48d0-8725-3fc2e7c2e786"},"vehicle_type_id":"4","last_reported":1740161562,"current_range_meters":6000,"station_id":"ce4bhrh2rcd13ifvqhug","pricing_plan_id":"cebpf4jnsgd1na2vs0mg"},{"bike_id":"bb4f28ff-5fb2-4485-9b37-b89db23feead","system_id":"levelo_inurba_marseille","lat":43.246678,"lon":5.381638,"is_reserved":false,"is_disabled":false,"rental_uris":{"android":"levelo://app?vid=bb4f28ff-5fb2-4485-9b37-b89db23feead","ios":"levelo://app?vid=bb4f28ff-5fb2-4485-9b37-b89db23feead"},"vehicle_type_id":"4","last_reported":1740161562,"current_range_meters":6000,"station_id":"ce4bhih2rcd13ifvqfr0","pricing_plan_id":"cebpf4jnsgd1na2vs0mg"},{"bike_id":"05a3bf9c-4042-4bea-a52c-c79e7ce07b4a","system_id":"levelo_inurba_marseille","lat":43.29772,"lon":5.37098,"is_reserved":false,"is_disabled":false,"rental_uris":{"android":"levelo://app?vid=05a3bf9c-4042-4bea-a52c-c79e7ce07b4a","ios":"levelo://app?vid=05a3bf9c-4042-4bea-a52c-c79e7ce07b4a"},"vehicle_type_id":"4","last_reported":1740161562,"current_range_meters":6000,"station_id":"ce4bgop2rcd13ifvqc1g","pricing_plan_id":"cebpf4jnsgd1na2vs0mg"},{"bike_id":"c1d35556-a6b0-4933-a5b8-b7d7aa2b5d89","system_id":"levelo_inurba_marseille","lat":43.29906,"lon":5.38146,"is_reserved":false,"is_disabled":false,"rental_uris":{"android":"levelo://app?vid=c1d35556-a6b0-4933-a5b8-b7d7aa2b5d89","ios":"levelo://app?vid=c1d35556-a6b0-4933-a5b8-b7d7aa2b5d89"},"vehicle_type_id":"4","last_reported":1740161562,"current_range_meters":6000,"station_id":"ce4bgj12rcd13ifvqbc0","pricing_plan_id":"cebpf4jnsgd1na2vs0mg"},{"bike_id":"d4fca504-dbbc-496e-b2bb-268afc677883","system_id":"levelo_inurba_marseille","lat":43.27494,"lon":5.42451,"is_reserved":false,"is_disabled":false,"rental_uris":{"android":"levelo://app?vid=d4fca504-dbbc-496e-b2bb-268afc677883","ios":"levelo://app?vid=d4fca504-dbbc-496e-b2bb-268afc677883"},"vehicle_type_id":"4","last_reported":1740161562,"current_range_meters":6400,"station_id":"ce4bhn92rcd13ifvqgrg","pricing_plan_id":"cebpf4jnsgd1na2vs0mg"},{"bike_id":"7f210161-0afc-456c-91d6-f90c66bc0ab3","system_id":"levelo_inurba_marseille","lat":43.29898,"lon":5.436678,"is_reserved":false,"is_disabled":false,"rental_uris":{"android":"levelo://app?vid=7f210161-0afc-456c-91d6-f90c66bc0ab3","ios":"levelo://app?vid=7f210161-0afc-456c-91d6-f90c66bc0ab3"},"vehicle_type_id":"4","last_reported":1740161562,"current_range_meters":6400,"station_id":"ce4bhpp2rcd13ifvqhfg","pricing_plan_id":"cebpf4jnsgd1na2vs0mg"},{"bike_id":"52c822bb-f047-4e7b-9186-7dd39f7763d9","system_id":"levelo_inurba_marseille","lat":43.29079,"lon":5.37172,"is_reserved":false,"is_disabled":false,"rental_uris":{"android":"levelo://app?vid=52c822bb-f047-4e7b-9186-7dd39f7763d9","ios":"levelo://app?vid=52c822bb-f047-4e7b-9186-7dd39f7763d9"},"vehicle_type_id":"4","last_reported":1740161562,"current_range_meters":6400,"station_id":"ce4bh5p2rcd13ifvqe4g","pricing_plan_id":"cebpf4jnsgd1na2vs0mg"},{"bike_id":"c96c3d3b-9528-4c97-971b-3e11a7e1ad2c","system_id":"levelo_inurba_marseille","lat":43.30936,"lon":5.40151,"is_reserved":false,"is_disabled":false,"rental_uris":{"android":"levelo://app?vid=c96c3d3b-9528-4c97-971b-3e11a7e1ad2c","ios":"levelo://app?vid=c96c3d3b-9528-4c97-971b-3e11a7e1ad2c"},"vehicle_type_id":"4","last_reported":1740161562,"current_range_meters":6400,"station_id":"ce4bgvp2rcd13ifvqct0","pricing_plan_id":"cebpf4jnsgd1na2vs0mg"},{"bike_id":"1515e8a3-e053-46f0-acd0-34b8fda3414c","system_id":"levelo_inurba_marseille","lat":43.29786,"lon":5.39336,"is_reserved":false,"is_disabled":false,"rental_uris":{"android":"levelo://app?vid=1515e8a3-e053-46f0-acd0-34b8fda3414c","ios":"levelo://app?vid=1515e8a3-e053-46f0-acd0-34b8fda3414c"},"vehicle_type_id":"4","last_reported":1740161562,"current_range_meters":6400,"station_id":"chh1huq6cuj3fo74tm60","pricing_plan_id":"cebpf4jnsgd1na2vs0mg"},{"bike_id":"3c70252b-115f-47bd-ae1e-959b3f57e0de","system_id":"levelo_inurba_marseille","lat":43.29965,"lon":5.38493,"is_reserved":false,"is_disabled":false,"rental_uris":{"android":"levelo://app?vid=3c70252b-115f-47bd-ae1e-959b3f57e0de","ios":"levelo://app?vid=3c70252b-115f-47bd-ae1e-959b3f57e0de"},"vehicle_type_id":"4","last_reported":1740161562,"current_range_meters":6400,"station_id":"ce4bgj92rcd13ifvqbd0","pricing_plan_id":"cebpf4jnsgd1na2vs0mg"},{"bike_id":"cfb05cb1-bdaf-4628-af25-de48d634065f","system_id":"levelo_inurba_marseille","lat":43.29213,"lon":5.36047,"is_reserved":false,"is_disabled":false,"rental_uris":{"android":"levelo://app?vid=cfb05cb1-bdaf-4628-af25-de48d634065f","ios":"levelo://app?vid=cfb05cb1-bdaf-4628-af25-de48d634065f"},"vehicle_type_id":"4","last_reported":1740161562,"current_range_meters":6800,"station_id":"ce4bhbh2rcd13ifvqeqg","pricing_plan_id":"cebpf4jnsgd1na2vs0mg"},{"bike_id":"7a227780-efa1-4341-8263-6444da5d6812","system_id":"levelo_inurba_marseille","lat":43.27917,"lon":5.39592,"is_reserved":false,"is_disabled":false,"rental_uris":{"android":"levelo://app?vid=7a227780-efa1-4341-8263-6444da5d6812","ios":"levelo://app?vid=7a227780-efa1-4341-8263-6444da5d6812"},"vehicle_type_id":"4","last_reported":1740161562,"current_range_meters":6800,"station_id":"ce4bhf92rcd13ifvqf40","pricing_plan_id":"cebpf4jnsgd1na2vs0mg"},{"bike_id":"10c0439c-897d-41db-ada0-71188821f26b","system_id":"levelo_inurba_marseille","lat":43.299109,"lon":5.384844,"is_reserved":false,"is_disabled":false,"rental_uris":{"android":"levelo://app?vid=10c0439c-897d-41db-ada0-71188821f26b","ios":"levelo://app?vid=10c0439c-897d-41db-ada0-71188821f26b"},"vehicle_type_id":"4","last_reported":1740161562,"current_range_meters":7200,"station_id":"ce4bgph2rcd13ifvqc2g","pricing_plan_id":"cebpf4jnsgd1na2vs0mg"},{"bike_id":"948ca15e-dd0e-4b24-9dae-3803d237a65d","system_id":"levelo_inurba_marseille","lat":43.23951,"lon":5.36648,"is_reserved":false,"is_disabled":false,"rental_uris":{"android":"levelo://app?vid=948ca15e-dd0e-4b24-9dae-3803d237a65d","ios":"levelo://app?vid=948ca15e-dd0e-4b24-9dae-3803d237a65d"},"vehicle_type_id":"4","last_reported":1740161562,"current_range_meters":7200,"station_id":"ce4bhi12rcd13ifvqfp0","pricing_plan_id":"cebpf4jnsgd1na2vs0mg"},{"bike_id":"4c87352b-e4ee-4aa9-b24f-9d6ccdea13e6","system_id":"levelo_inurba_marseille","lat":43.25088,"lon":5.39518,"is_reserved":false,"is_disabled":false,"rental_uris":{"android":"levelo://app?vid=4c87352b-e4ee-4aa9-b24f-9d6ccdea13e6","ios":"levelo://app?vid=4c87352b-e4ee-4aa9-b24f-9d6ccdea13e6"},"vehicle_type_id":"4","last_reported":1740161562,"current_range_meters":7200,"station_id":"ce4bhm12rcd13ifvqgkg","pricing_plan_id":"cebpf4jnsgd1na2vs0mg"},{"bike_id":"0584e728-54f2-4eca-887e-fe95607e016b","system_id":"levelo_inurba_marseille","lat":43.28283,"lon":5.35085,"is_reserved":false,"is_disabled":false,"rental_uris":{"android":"levelo://app?vid=0584e728-54f2-4eca-887e-fe95607e016b","ios":"levelo://app?vid=0584e728-54f2-4eca-887e-fe95607e016b"},"vehicle_type_id":"4","last_reported":1740161562,"current_range_meters":7200,"station_id":"ce4bhbp2rcd13ifvqerg","pricing_plan_id":"cebpf4jnsgd1na2vs0mg"},{"bike_id":"87590419-9431-46cd-a562-7648976d855a","system_id":"levelo_inurba_marseille","lat":43.2791,"lon":5.41206,"is_reserved":false,"is_disabled":false,"rental_uris":{"android":"levelo://app?vid=87590419-9431-46cd-a562-7648976d855a","ios":"levelo://app?vid=87590419-9431-46cd-a562-7648976d855a"},"vehicle_type_id":"4","last_reported":1740161562,"current_range_meters":7200,"station_id":"","pricing_plan_id":"cebpf4jnsgd1na2vs0mg"},{"bike_id":"195fb267-bf4a-4c03-8ec9-aebd73fa953c","system_id":"levelo_inurba_marseille","lat":43.27949,"lon":5.41046,"is_reserved":false,"is_disabled":false,"rental_uris":{"android":"levelo://app?vid=195fb267-bf4a-4c03-8ec9-aebd73fa953c","ios":"levelo://app?vid=195fb267-bf4a-4c03-8ec9-aebd73fa953c"},"vehicle_type_id":"4","last_reported":1740161562,"current_range_meters":7200,"station_id":"ce4bhnp2rcd13ifvqh0g","pricing_plan_id":"cebpf4jnsgd1na2vs0mg"},{"bike_id":"6b6e1059-5264-45b9-9cb9-d24cf5205f2a","system_id":"levelo_inurba_marseille","lat":43.23971,"lon":5.36647,"is_reserved":false,"is_disabled":true,"rental_uris":{"android":"levelo://app?vid=6b6e1059-5264-45b9-9cb9-d24cf5205f2a","ios":"levelo://app?vid=6b6e1059-5264-45b9-9cb9-d24cf5205f2a"},"vehicle_type_id":"4","last_reported":1740161562,"current_range_meters":8000,"station_id":"","pricing_plan_id":"cebpf4jnsgd1na2vs0mg"},{"bike_id":"fc0349de-a96b-4e9e-88b6-f49bf89d84ae","system_id":"levelo_inurba_marseille","lat":43.27996,"lon":5.4002,"is_reserved":false,"is_disabled":false,"rental_uris":{"android":"levelo://app?vid=fc0349de-a96b-4e9e-88b6-f49bf89d84ae","ios":"levelo://app?vid=fc0349de-a96b-4e9e-88b6-f49bf89d84ae"},"vehicle_type_id":"4","last_reported":1740161562,"current_range_meters":8000,"station_id":"ce4bho92rcd13ifvqh4g","pricing_plan_id":"cebpf4jnsgd1na2vs0mg"},{"bike_id":"4ed90452-5a4b-4b5c-8141-5250d5eb03aa","system_id":"levelo_inurba_marseille","lat":43.28686,"lon":5.38661,"is_reserved":false,"is_disabled":false,"rental_uris":{"android":"levelo://app?vid=4ed90452-5a4b-4b5c-8141-5250d5eb03aa","ios":"levelo://app?vid=4ed90452-5a4b-4b5c-8141-5250d5eb03aa"},"vehicle_type_id":"4","last_reported":1740161562,"current_range_meters":8000,"station_id":"ce4bh492rcd13ifvqdug","pricing_plan_id":"cebpf4jnsgd1na2vs0mg"},{"bike_id":"5f51c95d-2056-405b-84c3-ec0f06069b58","system_id":"levelo_inurba_marseille","lat":43.28999,"lon":5.35617,"is_reserved":false,"is_disabled":false,"rental_uris":{"android":"levelo://app?vid=5f51c95d-2056-405b-84c3-ec0f06069b58","ios":"levelo://app?vid=5f51c95d-2056-405b-84c3-ec0f06069b58"},"vehicle_type_id":"4","last_reported":1740161562,"current_range_meters":8400,"station_id":"ce4bhb92rcd13ifvqen0","pricing_plan_id":"cebpf4jnsgd1na2vs0mg"},{"bike_id":"ec69af9d-63ff-4794-b8e6-9a5f126ba498","system_id":"levelo_inurba_marseille","lat":43.28357,"lon":5.38632,"is_reserved":false,"is_disabled":false,"rental_uris":{"android":"levelo://app?vid=ec69af9d-63ff-4794-b8e6-9a5f126ba498","ios":"levelo://app?vid=ec69af9d-63ff-4794-b8e6-9a5f126ba498"},"vehicle_type_id":"4","last_reported":1740161562,"current_range_meters":8400,"station_id":"ce4bh492rcd13ifvqdvg","pricing_plan_id":"cebpf4jnsgd1na2vs0mg"},{"bike_id":"79d2436b-aefa-41bd-a744-4892f010c4e3","system_id":"levelo_inurba_marseille","lat":43.29631,"lon":5.40596,"is_reserved":false,"is_disabled":false,"rental_uris":{"android":"levelo://app?vid=79d2436b-aefa-41bd-a744-4892f010c4e3","ios":"levelo://app?vid=79d2436b-aefa-41bd-a744-4892f010c4e3"},"vehicle_type_id":"4","last_reported":1740161562,"current_range_meters":8400,"station_id":"ce4bh0h2rcd13ifvqd60","pricing_plan_id":"cebpf4jnsgd1na2vs0mg"},{"bike_id":"f75ece54-414d-4d3e-9198-c4a6ae7eb90d","system_id":"levelo_inurba_marseille","lat":43.25007,"lon":5.38919,"is_reserved":false,"is_disabled":false,"rental_uris":{"android":"levelo://app?vid=f75ece54-414d-4d3e-9198-c4a6ae7eb90d","ios":"levelo://app?vid=f75ece54-414d-4d3e-9198-c4a6ae7eb90d"},"vehicle_type_id":"4","last_reported":1740161562,"current_range_meters":8800,"station_id":"ce4bhgp2rcd13ifvqfd0","pricing_plan_id":"cebpf4jnsgd1na2vs0mg"},{"bike_id":"ac548fcf-7683-4a63-94bd-c0fb76b286e9","system_id":"levelo_inurba_marseille","lat":43.29305,"lon":5.37433,"is_reserved":false,"is_disabled":false,"rental_uris":{"android":"levelo://app?vid=ac548fcf-7683-4a63-94bd-c0fb76b286e9","ios":"levelo://app?vid=ac548fcf-7683-4a63-94bd-c0fb76b286e9"},"vehicle_type_id":"4","last_reported":1740161562,"current_range_meters":8800,"station_id":"ce4bgi12rcd13ifvqb70","pricing_plan_id":"cebpf4jnsgd1na2vs0mg"},{"bike_id":"e2124d37-d1a5-4d4d-8c06-fda2ba0b4397","system_id":"levelo_inurba_marseille","lat":43.29246,"lon":5.42657,"is_reserved":false,"is_disabled":false,"rental_uris":{"android":"levelo://app?vid=e2124d37-d1a5-4d4d-8c06-fda2ba0b4397","ios":"levelo://app?vid=e2124d37-d1a5-4d4d-8c06-fda2ba0b4397"},"vehicle_type_id":"4","last_reported":1740161562,"current_range_meters":8800,"station_id":"","pricing_plan_id":"cebpf4jnsgd1na2vs0mg"},{"bike_id":"4f7e46f2-1391-40f9-8413-0decee1e915a","system_id":"levelo_inurba_marseille","lat":43.29252,"lon":5.38446,"is_reserved":false,"is_disabled":false,"rental_uris":{"android":"levelo://app?vid=4f7e46f2-1391-40f9-8413-0decee1e915a","ios":"levelo://app?vid=4f7e46f2-1391-40f9-8413-0decee1e915a"},"vehicle_type_id":"4","last_reported":1740161562,"current_range_meters":8800,"station_id":"ce4bh692rcd13ifvqea0","pricing_plan_id":"cebpf4jnsgd1na2vs0mg"},{"bike_id":"202412c0-da08-47ef-b5f9-1c3583648037","system_id":"levelo_inurba_marseille","lat":43.29106,"lon":5.38235,"is_reserved":false,"is_disabled":false,"rental_uris":{"android":"levelo://app?vid=202412c0-da08-47ef-b5f9-1c3583648037","ios":"levelo://app?vid=202412c0-da08-47ef-b5f9-1c3583648037"},"vehicle_type_id":"4","last_reported":1740161562,"current_range_meters":8800,"station_id":"","pricing_plan_id":"cebpf4jnsgd1na2vs0mg"},{"bike_id":"a7e57524-7096-4476-8d9d-8e8806b1c3d0","system_id":"levelo_inurba_marseille","lat":43.23162,"lon":5.43701,"is_reserved":false,"is_disabled":true,"rental_uris":{"android":"levelo://app?vid=a7e57524-7096-4476-8d9d-8e8806b1c3d0","ios":"levelo://app?vid=a7e57524-7096-4476-8d9d-8e8806b1c3d0"},"vehicle_type_id":"4","last_reported":1740161562,"current_range_meters":8800,"station_id":"ce4bhmp2rcd13ifvqgog","pricing_plan_id":"cebpf4jnsgd1na2vs0mg"},{"bike_id":"3fb37007-da68-40dc-82e6-d2775f73f14e","system_id":"levelo_inurba_marseille","lat":43.30131,"lon":5.39864,"is_reserved":false,"is_disabled":false,"rental_uris":{"android":"levelo://app?vid=3fb37007-da68-40dc-82e6-d2775f73f14e","ios":"levelo://app?vid=3fb37007-da68-40dc-82e6-d2775f73f14e"},"vehicle_type_id":"4","last_reported":1740161562,"current_range_meters":8800,"station_id":"ce4bh0h2rcd13ifvqd40","pricing_plan_id":"cebpf4jnsgd1na2vs0mg"},{"bike_id":"2e497b6f-a3fb-47b1-a227-317a819a4aa6","system_id":"levelo_inurba_marseille","lat":43.317,"lon":5.37732,"is_reserved":false,"is_disabled":false,"rental_uris":{"android":"levelo://app?vid=2e497b6f-a3fb-47b1-a227-317a819a4aa6","ios":"levelo://app?vid=2e497b6f-a3fb-47b1-a227-317a819a4aa6"},"vehicle_type_id":"4","last_reported":1740161562,"current_range_meters":8800,"station_id":"ce4bgth2rcd13ifvqch0","pricing_plan_id":"cebpf4jnsgd1na2vs0mg"},{"bike_id":"e080c45a-a05d-4297-8995-86678422b056","system_id":"levelo_inurba_marseille","lat":43.34449,"lon":5.38059,"is_reserved":false,"is_disabled":false,"rental_uris":{"android":"levelo://app?vid=e080c45a-a05d-4297-8995-86678422b056","ios":"levelo://app?vid=e080c45a-a05d-4297-8995-86678422b056"},"vehicle_type_id":"4","last_reported":1740161562,"current_range_meters":8800,"station_id":"","pricing_plan_id":"cebpf4jnsgd1na2vs0mg"},{"bike_id":"8462ff6f-1c77-484c-aaac-d8e41790f32b","system_id":"levelo_inurba_marseille","lat":43.29302,"lon":5.37448,"is_reserved":false,"is_disabled":false,"rental_uris":{"android":"levelo://app?vid=8462ff6f-1c77-484c-aaac-d8e41790f32b","ios":"levelo://app?vid=8462ff6f-1c77-484c-aaac-d8e41790f32b"},"vehicle_type_id":"4","last_reported":1740161562,"current_range_meters":9200,"station_id":"ce4bgi12rcd13ifvqb70","pricing_plan_id":"cebpf4jnsgd1na2vs0mg"},{"bike_id":"b2bf7d2e-6a9f-447f-979c-5441966c00eb","system_id":"levelo_inurba_marseille","lat":43.26566,"lon":5.39022,"is_reserved":false,"is_disabled":false,"rental_uris":{"android":"levelo://app?vid=b2bf7d2e-6a9f-447f-979c-5441966c00eb","ios":"levelo://app?vid=b2bf7d2e-6a9f-447f-979c-5441966c00eb"},"vehicle_type_id":"4","last_reported":1740161562,"current_range_meters":9200,"station_id":"ce4bhe12rcd13ifvqf30","pricing_plan_id":"cebpf4jnsgd1na2vs0mg"},{"bike_id":"4fa8bf46-90e7-42f5-bd69-8132a897f84f","system_id":"levelo_inurba_marseille","lat":43.31536,"lon":5.38927,"is_reserved":false,"is_disabled":false,"rental_uris":{"android":"levelo://app?vid=4fa8bf46-90e7-42f5-bd69-8132a897f84f","ios":"levelo://app?vid=4fa8bf46-90e7-42f5-bd69-8132a897f84f"},"vehicle_type_id":"4","last_reported":1740161562,"current_range_meters":9200,"station_id":"","pricing_plan_id":"cebpf4jnsgd1na2vs0mg"},{"bike_id":"d0109f8e-c695-44b8-83b5-050518c2c6c9","system_id":"levelo_inurba_marseille","lat":43.23067,"lon":5.35487,"is_reserved":false,"is_disabled":false,"rental_uris":{"android":"levelo://app?vid=d0109f8e-c695-44b8-83b5-050518c2c6c9","ios":"levelo://app?vid=d0109f8e-c695-44b8-83b5-050518c2c6c9"},"vehicle_type_id":"4","last_reported":1740161562,"current_range_meters":9200,"station_id":"cpo3342slgdg3j2ifvpg","pricing_plan_id":"cebpf4jnsgd1na2vs0mg"},{"bike_id":"e82467a8-cd0f-4ebb-87df-122d13750439","system_id":"levelo_inurba_marseille","lat":43.28713,"lon":5.37921,"is_reserved":false,"is_disabled":false,"rental_uris":{"android":"levelo://app?vid=e82467a8-cd0f-4ebb-87df-122d13750439","ios":"levelo://app?vid=e82467a8-cd0f-4ebb-87df-122d13750439"},"vehicle_type_id":"4","last_reported":1740161562,"current_range_meters":9200,"station_id":"ce4bh9p2rcd13ifvqec0","pricing_plan_id":"cebpf4jnsgd1na2vs0mg"},{"bike_id":"a7432550-0dba-429a-8ec3-0cceb5aac2c7","system_id":"levelo_inurba_marseille","lat":43.28613,"lon":5.35102,"is_reserved":false,"is_disabled":false,"rental_uris":{"android":"levelo://app?vid=a7432550-0dba-429a-8ec3-0cceb5aac2c7","ios":"levelo://app?vid=a7432550-0dba-429a-8ec3-0cceb5aac2c7"},"vehicle_type_id":"4","last_reported":1740161562,"current_range_meters":9200,"station_id":"ce4bhch2rcd13ifvqeug","pricing_plan_id":"cebpf4jnsgd1na2vs0mg"},{"bike_id":"849d245a-be14-47ff-9742-f234bf067745","system_id":"levelo_inurba_marseille","lat":43.29751,"lon":5.3791,"is_reserved":false,"is_disabled":false,"rental_uris":{"android":"levelo://app?vid=849d245a-be14-47ff-9742-f234bf067745","ios":"levelo://app?vid=849d245a-be14-47ff-9742-f234bf067745"},"vehicle_type_id":"4","last_reported":1740161562,"current_range_meters":9200,"station_id":"ce4bguh2rcd13ifvqckg","pricing_plan_id":"cebpf4jnsgd1na2vs0mg"},{"bike_id":"e2605be6-729f-4263-a772-380592b3879d","system_id":"levelo_inurba_marseille","lat":43.30447,"lon":5.38067,"is_reserved":false,"is_disabled":false,"rental_uris":{"android":"levelo://app?vid=e2605be6-729f-4263-a772-380592b3879d","ios":"levelo://app?vid=e2605be6-729f-4263-a772-380592b3879d"},"vehicle_type_id":"4","last_reported":1740161562,"current_range_meters":9200,"station_id":"","pricing_plan_id":"cebpf4jnsgd1na2vs0mg"},{"bike_id":"336b7bad-166b-46a5-af56-11a24742a4be","system_id":"levelo_inurba_marseille","lat":43.29421,"lon":5.38621,"is_reserved":false,"is_disabled":false,"rental_uris":{"android":"levelo://app?vid=336b7bad-166b-46a5-af56-11a24742a4be","ios":"levelo://app?vid=336b7bad-166b-46a5-af56-11a24742a4be"},"vehicle_type_id":"4","last_reported":1740161562,"current_range_meters":9200,"station_id":"ce4bh2h2rcd13ifvqdh0","pricing_plan_id":"cebpf4jnsgd1na2vs0mg"},{"bike_id":"0a9f9d7f-6da2-4992-a9f1-793f0df302a5","system_id":"levelo_inurba_marseille","lat":43.28609,"lon":5.35132,"is_reserved":false,"is_disabled":false,"rental_uris":{"android":"levelo://app?vid=0a9f9d7f-6da2-4992-a9f1-793f0df302a5","ios":"levelo://app?vid=0a9f9d7f-6da2-4992-a9f1-793f0df302a5"},"vehicle_type_id":"4","last_reported":1740161562,"current_range_meters":9600,"station_id":"ce4bhch2rcd13ifvqeug","pricing_plan_id":"cebpf4jnsgd1na2vs0mg"},{"bike_id":"071cf5c5-715e-4e97-a45e-f27746867348","system_id":"levelo_inurba_marseille","lat":43.28355,"lon":5.38107,"is_reserved":false,"is_disabled":false,"rental_uris":{"android":"levelo://app?vid=071cf5c5-715e-4e97-a45e-f27746867348","ios":"levelo://app?vid=071cf5c5-715e-4e97-a45e-f27746867348"},"vehicle_type_id":"4","last_reported":1740161562,"current_range_meters":9600,"station_id":"ce4bh412rcd13ifvqdr0","pricing_plan_id":"cebpf4jnsgd1na2vs0mg"},{"bike_id":"9d3dc9e3-b895-4567-bcd4-8a586170f39e","system_id":"levelo_inurba_marseille","lat":43.2841,"lon":5.37516,"is_reserved":false,"is_disabled":false,"rental_uris":{"android":"levelo://app?vid=9d3dc9e3-b895-4567-bcd4-8a586170f39e","ios":"levelo://app?vid=9d3dc9e3-b895-4567-bcd4-8a586170f39e"},"vehicle_type_id":"4","last_reported":1740161562,"current_range_meters":9600,"station_id":"ce4bh412rcd13ifvqds0","pricing_plan_id":"cebpf4jnsgd1na2vs0mg"},{"bike_id":"cf422212-7d8e-4df6-bff7-8a437741a92f","system_id":"levelo_inurba_marseille","lat":43.286813,"lon":5.386627,"is_reserved":false,"is_disabled":false,"rental_uris":{"android":"levelo://app?vid=cf422212-7d8e-4df6-bff7-8a437741a92f","ios":"levelo://app?vid=cf422212-7d8e-4df6-bff7-8a437741a92f"},"vehicle_type_id":"4","last_reported":1740161562,"current_range_meters":9600,"station_id":"ce4bh492rcd13ifvqdug","pricing_plan_id":"cebpf4jnsgd1na2vs0mg"},{"bike_id":"f1ca7498-7994-4ddd-a828-4fd346a88730","system_id":"levelo_inurba_marseille","lat":43.28614,"lon":5.35104,"is_reserved":false,"is_disabled":false,"rental_uris":{"android":"levelo://app?vid=f1ca7498-7994-4ddd-a828-4fd346a88730","ios":"levelo://app?vid=f1ca7498-7994-4ddd-a828-4fd346a88730"},"vehicle_type_id":"4","last_reported":1740161562,"current_range_meters":9600,"station_id":"ce4bhch2rcd13ifvqeug","pricing_plan_id":"cebpf4jnsgd1na2vs0mg"},{"bike_id":"5c1c3b63-b8e7-4bb0-9eef-e9206534f83e","system_id":"levelo_inurba_marseille","lat":43.32068,"lon":5.4153,"is_reserved":false,"is_disabled":false,"rental_uris":{"android":"levelo://app?vid=5c1c3b63-b8e7-4bb0-9eef-e9206534f83e","ios":"levelo://app?vid=5c1c3b63-b8e7-4bb0-9eef-e9206534f83e"},"vehicle_type_id":"4","last_reported":1740161562,"current_range_meters":9600,"station_id":"ce4bhq92rcd13ifvqhkg","pricing_plan_id":"cebpf4jnsgd1na2vs0mg"},{"bike_id":"2ee16ae6-4b96-4b9b-9ed2-2fc9ce375e38","system_id":"levelo_inurba_marseille","lat":43.30136,"lon":5.38784,"is_reserved":false,"is_disabled":false,"rental_uris":{"android":"levelo://app?vid=2ee16ae6-4b96-4b9b-9ed2-2fc9ce375e38","ios":"levelo://app?vid=2ee16ae6-4b96-4b9b-9ed2-2fc9ce375e38"},"vehicle_type_id":"4","last_reported":1740161562,"current_range_meters":9600,"station_id":"ce4bghh2rcd13ifvqb60","pricing_plan_id":"cebpf4jnsgd1na2vs0mg"},{"bike_id":"84c075d3-179e-4f3d-8887-25bb9583ca9b","system_id":"levelo_inurba_marseille","lat":43.29416,"lon":5.38627,"is_reserved":false,"is_disabled":false,"rental_uris":{"android":"levelo://app?vid=84c075d3-179e-4f3d-8887-25bb9583ca9b","ios":"levelo://app?vid=84c075d3-179e-4f3d-8887-25bb9583ca9b"},"vehicle_type_id":"4","last_reported":1740161562,"current_range_meters":10000,"station_id":"ce4bh2h2rcd13ifvqdh0","pricing_plan_id":"cebpf4jnsgd1na2vs0mg"},{"bike_id":"b7b56740-831a-4757-90eb-e191c693e61b","system_id":"levelo_inurba_marseille","lat":43.29009,"lon":5.35617,"is_reserved":false,"is_disabled":false,"rental_uris":{"android":"levelo://app?vid=b7b56740-831a-4757-90eb-e191c693e61b","ios":"levelo://app?vid=b7b56740-831a-4757-90eb-e191c693e61b"},"vehicle_type_id":"4","last_reported":1740161562,"current_range_meters":10000,"station_id":"ce4bhb92rcd13ifvqen0","pricing_plan_id":"cebpf4jnsgd1na2vs0mg"},{"bike_id":"ff72b3d6-f08b-4cec-82b6-3f5bf8bd662b","system_id":"levelo_inurba_marseille","lat":43.28145,"lon":5.42641,"is_reserved":false,"is_disabled":false,"rental_uris":{"android":"levelo://app?vid=ff72b3d6-f08b-4cec-82b6-3f5bf8bd662b","ios":"levelo://app?vid=ff72b3d6-f08b-4cec-82b6-3f5bf8bd662b"},"vehicle_type_id":"4","last_reported":1740161562,"current_range_meters":10000,"station_id":"ce4bhnh2rcd13ifvqgug","pricing_plan_id":"cebpf4jnsgd1na2vs0mg"},{"bike_id":"903e96ed-1785-4514-80d2-55412010618a","system_id":"levelo_inurba_marseille","lat":43.26552,"lon":5.39022,"is_reserved":false,"is_disabled":false,"rental_uris":{"android":"levelo://app?vid=903e96ed-1785-4514-80d2-55412010618a","ios":"levelo://app?vid=903e96ed-1785-4514-80d2-55412010618a"},"vehicle_type_id":"4","last_reported":1740161562,"current_range_meters":10000,"station_id":"ce4bhe12rcd13ifvqf30","pricing_plan_id":"cebpf4jnsgd1na2vs0mg"},{"bike_id":"6c9333bc-65d4-4f54-a0aa-9bffb29bd229","system_id":"levelo_inurba_marseille","lat":43.29534,"lon":5.38547,"is_reserved":false,"is_disabled":false,"rental_uris":{"android":"levelo://app?vid=6c9333bc-65d4-4f54-a0aa-9bffb29bd229","ios":"levelo://app?vid=6c9333bc-65d4-4f54-a0aa-9bffb29bd229"},"vehicle_type_id":"4","last_reported":1740161562,"current_range_meters":10000,"station_id":"ce4bgih2rcd13ifvqba0","pricing_plan_id":"cebpf4jnsgd1na2vs0mg"},{"bike_id":"37997c59-d0f6-4e17-844d-6b689b8d69d8","system_id":"levelo_inurba_marseille","lat":43.29436,"lon":5.38611,"is_reserved":false,"is_disabled":false,"rental_uris":{"android":"levelo://app?vid=37997c59-d0f6-4e17-844d-6b689b8d69d8","ios":"levelo://app?vid=37997c59-d0f6-4e17-844d-6b689b8d69d8"},"vehicle_type_id":"4","last_reported":1740161562,"current_range_meters":10000,"station_id":"ce4bh2h2rcd13ifvqdh0","pricing_plan_id":"cebpf4jnsgd1na2vs0mg"},{"bike_id":"7e867ce7-0dbc-49a2-af32-d8d669a78e95","system_id":"levelo_inurba_marseille","lat":43.29224,"lon":5.36062,"is_reserved":false,"is_disabled":false,"rental_uris":{"android":"levelo://app?vid=7e867ce7-0dbc-49a2-af32-d8d669a78e95","ios":"levelo://app?vid=7e867ce7-0dbc-49a2-af32-d8d669a78e95"},"vehicle_type_id":"4","last_reported":1740161562,"current_range_meters":10000,"station_id":"ce4bhbh2rcd13ifvqeqg","pricing_plan_id":"cebpf4jnsgd1na2vs0mg"},{"bike_id":"53b97ee1-c4a2-4bbc-9702-d2b3a813e357","system_id":"levelo_inurba_marseille","lat":43.30128,"lon":5.38789,"is_reserved":false,"is_disabled":false,"rental_uris":{"android":"levelo://app?vid=53b97ee1-c4a2-4bbc-9702-d2b3a813e357","ios":"levelo://app?vid=53b97ee1-c4a2-4bbc-9702-d2b3a813e357"},"vehicle_type_id":"4","last_reported":1740161562,"current_range_meters":10000,"station_id":"ce4bghh2rcd13ifvqb60","pricing_plan_id":"cebpf4jnsgd1na2vs0mg"},{"bike_id":"d414c500-f227-4efb-aabd-f7246cca81bc","system_id":"levelo_inurba_marseille","lat":43.23067,"lon":5.35504,"is_reserved":false,"is_disabled":false,"rental_uris":{"android":"levelo://app?vid=d414c500-f227-4efb-aabd-f7246cca81bc","ios":"levelo://app?vid=d414c500-f227-4efb-aabd-f7246cca81bc"},"vehicle_type_id":"4","last_reported":1740161562,"current_range_meters":10000,"station_id":"cpo3342slgdg3j2ifvpg","pricing_plan_id":"cebpf4jnsgd1na2vs0mg"},{"bike_id":"e8fa4b66-fb1a-4574-ba7f-6f2f85fd86fb","system_id":"levelo_inurba_marseille","lat":43.27177,"lon":5.40995,"is_reserved":false,"is_disabled":false,"rental_uris":{"android":"levelo://app?vid=e8fa4b66-fb1a-4574-ba7f-6f2f85fd86fb","ios":"levelo://app?vid=e8fa4b66-fb1a-4574-ba7f-6f2f85fd86fb"},"vehicle_type_id":"4","last_reported":1740161562,"current_range_meters":9600,"station_id":"ce4bhl12rcd13ifvqgf0","pricing_plan_id":"cebpf4jnsgd1na2vs0mg"},{"bike_id":"8825a119-1538-44e3-8781-8f6b7ddf7936","system_id":"levelo_inurba_marseille","lat":43.29088,"lon":5.37185,"is_reserved":false,"is_disabled":false,"rental_uris":{"android":"levelo://app?vid=8825a119-1538-44e3-8781-8f6b7ddf7936","ios":"levelo://app?vid=8825a119-1538-44e3-8781-8f6b7ddf7936"},"vehicle_type_id":"4","last_reported":1740161562,"current_range_meters":10000,"station_id":"ce4bh5p2rcd13ifvqe4g","pricing_plan_id":"cebpf4jnsgd1na2vs0mg"},{"bike_id":"f3feea2e-5bf7-41f6-a6d2-c494ec11d6a2","system_id":"levelo_inurba_marseille","lat":43.230658,"lon":5.354909,"is_reserved":false,"is_disabled":false,"rental_uris":{"android":"levelo://app?vid=f3feea2e-5bf7-41f6-a6d2-c494ec11d6a2","ios":"levelo://app?vid=f3feea2e-5bf7-41f6-a6d2-c494ec11d6a2"},"vehicle_type_id":"4","last_reported":1740161562,"current_range_meters":10000,"station_id":"cpo3342slgdg3j2ifvpg","pricing_plan_id":"cebpf4jnsgd1na2vs0mg"},{"bike_id":"51c173d6-540b-4df3-9391-5466a38409ba","system_id":"levelo_inurba_marseille","lat":43.29003,"lon":5.35607,"is_reserved":false,"is_disabled":false,"rental_uris":{"android":"levelo://app?vid=51c173d6-540b-4df3-9391-5466a38409ba","ios":"levelo://app?vid=51c173d6-540b-4df3-9391-5466a38409ba"},"vehicle_type_id":"4","last_reported":1740161562,"current_range_meters":10000,"station_id":"ce4bhb92rcd13ifvqen0","pricing_plan_id":"cebpf4jnsgd1na2vs0mg"},{"bike_id":"a6c45017-e937-4e9d-9e1b-53522ae521f4","system_id":"levelo_inurba_marseille","lat":43.30605,"lon":5.37223,"is_reserved":false,"is_disabled":false,"rental_uris":{"android":"levelo://app?vid=a6c45017-e937-4e9d-9e1b-53522ae521f4","ios":"levelo://app?vid=a6c45017-e937-4e9d-9e1b-53522ae521f4"},"vehicle_type_id":"4","last_reported":1740161562,"current_range_meters":10000,"station_id":"ce4bgqh2rcd13ifvqc4g","pricing_plan_id":"cebpf4jnsgd1na2vs0mg"},{"bike_id":"ff4ab068-bb28-43d8-8632-e638dc9cd3a7","system_id":"levelo_inurba_marseille","lat":43.30327,"lon":5.40432,"is_reserved":false,"is_disabled":false,"rental_uris":{"android":"levelo://app?vid=ff4ab068-bb28-43d8-8632-e638dc9cd3a7","ios":"levelo://app?vid=ff4ab068-bb28-43d8-8632-e638dc9cd3a7"},"vehicle_type_id":"4","last_reported":1740161562,"current_range_meters":10800,"station_id":"ce4bh012rcd13ifvqd10","pricing_plan_id":"cebpf4jnsgd1na2vs0mg"},{"bike_id":"8198dc47-ae3a-498b-82d2-dc151349a0c0","system_id":"levelo_inurba_marseille","lat":43.27996,"lon":5.40006,"is_reserved":false,"is_disabled":false,"rental_uris":{"android":"levelo://app?vid=8198dc47-ae3a-498b-82d2-dc151349a0c0","ios":"levelo://app?vid=8198dc47-ae3a-498b-82d2-dc151349a0c0"},"vehicle_type_id":"4","last_reported":1740161562,"current_range_meters":11200,"station_id":"ce4bho92rcd13ifvqh4g","pricing_plan_id":"cebpf4jnsgd1na2vs0mg"},{"bike_id":"155946fe-8d69-4032-b4fb-ad8e915f7da3","system_id":"levelo_inurba_marseille","lat":43.3061,"lon":5.37226,"is_reserved":false,"is_disabled":false,"rental_uris":{"android":"levelo://app?vid=155946fe-8d69-4032-b4fb-ad8e915f7da3","ios":"levelo://app?vid=155946fe-8d69-4032-b4fb-ad8e915f7da3"},"vehicle_type_id":"4","last_reported":1740161562,"current_range_meters":11200,"station_id":"ce4bgqh2rcd13ifvqc4g","pricing_plan_id":"cebpf4jnsgd1na2vs0mg"},{"bike_id":"fbdb5bd4-d8df-4cf1-88b9-88590ac3fee1","system_id":"levelo_inurba_marseille","lat":43.24803,"lon":5.37452,"is_reserved":false,"is_disabled":false,"rental_uris":{"android":"levelo://app?vid=fbdb5bd4-d8df-4cf1-88b9-88590ac3fee1","ios":"levelo://app?vid=fbdb5bd4-d8df-4cf1-88b9-88590ac3fee1"},"vehicle_type_id":"4","last_reported":1740161562,"current_range_meters":11200,"station_id":"ce4bhgh2rcd13ifvqfb0","pricing_plan_id":"cebpf4jnsgd1na2vs0mg"},{"bike_id":"accd8e92-2414-4275-9f96-427b52990139","system_id":"levelo_inurba_marseille","lat":43.28145,"lon":5.42633,"is_reserved":false,"is_disabled":false,"rental_uris":{"android":"levelo://app?vid=accd8e92-2414-4275-9f96-427b52990139","ios":"levelo://app?vid=accd8e92-2414-4275-9f96-427b52990139"},"vehicle_type_id":"4","last_reported":1740161562,"current_range_meters":11200,"station_id":"ce4bhnh2rcd13ifvqgug","pricing_plan_id":"cebpf4jnsgd1na2vs0mg"},{"bike_id":"cf955375-6efc-4c58-b72f-488429c9e00a","system_id":"levelo_inurba_marseille","lat":43.29423,"lon":5.38629,"is_reserved":false,"is_disabled":false,"rental_uris":{"android":"levelo://app?vid=cf955375-6efc-4c58-b72f-488429c9e00a","ios":"levelo://app?vid=cf955375-6efc-4c58-b72f-488429c9e00a"},"vehicle_type_id":"4","last_reported":1740161562,"current_range_meters":11200,"station_id":"ce4bh2h2rcd13ifvqdh0","pricing_plan_id":"cebpf4jnsgd1na2vs0mg"},{"bike_id":"943382b3-3ac2-40b7-baae-7ca1aec3b930","system_id":"levelo_inurba_marseille","lat":43.28151,"lon":5.42641,"is_reserved":false,"is_disabled":false,"rental_uris":{"android":"levelo://app?vid=943382b3-3ac2-40b7-baae-7ca1aec3b930","ios":"levelo://app?vid=943382b3-3ac2-40b7-baae-7ca1aec3b930"},"vehicle_type_id":"4","last_reported":1740161562,"current_range_meters":11200,"station_id":"ce4bhnh2rcd13ifvqgug","pricing_plan_id":"cebpf4jnsgd1na2vs0mg"},{"bike_id":"c16c3d02-5538-45bc-a017-5194484457c8","system_id":"levelo_inurba_marseille","lat":43.29275,"lon":5.40911,"is_reserved":false,"is_disabled":false,"rental_uris":{"android":"levelo://app?vid=c16c3d02-5538-45bc-a017-5194484457c8","ios":"levelo://app?vid=c16c3d02-5538-45bc-a017-5194484457c8"},"vehicle_type_id":"4","last_reported":1740161562,"current_range_meters":11200,"station_id":"ce4bh192rcd13ifvqdc0","pricing_plan_id":"cebpf4jnsgd1na2vs0mg"},{"bike_id":"f6026d7c-3117-46cd-931d-5629ce431db5","system_id":"levelo_inurba_marseille","lat":43.26956,"lon":5.38632,"is_reserved":false,"is_disabled":false,"rental_uris":{"android":"levelo://app?vid=f6026d7c-3117-46cd-931d-5629ce431db5","ios":"levelo://app?vid=f6026d7c-3117-46cd-931d-5629ce431db5"},"vehicle_type_id":"4","last_reported":1740161562,"current_range_meters":11200,"station_id":"ce4bhh92rcd13ifvqfh0","pricing_plan_id":"cebpf4jnsgd1na2vs0mg"},{"bike_id":"678be215-d511-4d3b-92b6-58a8358026f2","system_id":"levelo_inurba_marseille","lat":43.2894,"lon":5.3664,"is_reserved":false,"is_disabled":false,"rental_uris":{"android":"levelo://app?vid=678be215-d511-4d3b-92b6-58a8358026f2","ios":"levelo://app?vid=678be215-d511-4d3b-92b6-58a8358026f2"},"vehicle_type_id":"4","last_reported":1740161562,"current_range_meters":11200,"station_id":"ce4bhap2rcd13ifvqek0","pricing_plan_id":"cebpf4jnsgd1na2vs0mg"},{"bike_id":"fb93fe74-593e-4367-8f72-cd13ca98d599","system_id":"levelo_inurba_marseille","lat":43.25822,"lon":5.39435,"is_reserved":false,"is_disabled":false,"rental_uris":{"android":"levelo://app?vid=fb93fe74-593e-4367-8f72-cd13ca98d599","ios":"levelo://app?vid=fb93fe74-593e-4367-8f72-cd13ca98d599"},"vehicle_type_id":"4","last_reported":1740161562,"current_range_meters":11600,"station_id":"ce4bhip2rcd13ifvqft0","pricing_plan_id":"cebpf4jnsgd1na2vs0mg"},{"bike_id":"5348d5dc-5dca-4978-b167-cd7e8ce45433","system_id":"levelo_inurba_marseille","lat":43.30558,"lon":5.36573,"is_reserved":false,"is_disabled":true,"rental_uris":{"android":"levelo://app?vid=5348d5dc-5dca-4978-b167-cd7e8ce45433","ios":"levelo://app?vid=5348d5dc-5dca-4978-b167-cd7e8ce45433"},"vehicle_type_id":"4","last_reported":1740161562,"current_range_meters":11600,"station_id":"ce4bgs12rcd13ifvqcag","pricing_plan_id":"cebpf4jnsgd1na2vs0mg"},{"bike_id":"7a811fd9-b132-4914-a795-bbd931482c71","system_id":"levelo_inurba_marseille","lat":43.29545,"lon":5.38559,"is_reserved":false,"is_disabled":true,"rental_uris":{"android":"levelo://app?vid=7a811fd9-b132-4914-a795-bbd931482c71","ios":"levelo://app?vid=7a811fd9-b132-4914-a795-bbd931482c71"},"vehicle_type_id":"4","last_reported":1740161562,"current_range_meters":12000,"station_id":"ce4bgih2rcd13ifvqba0","pricing_plan_id":"cebpf4jnsgd1na2vs0mg"},{"bike_id":"ab1a6583-633d-405d-bd4a-1fdedc00f747","system_id":"levelo_inurba_marseille","lat":43.33033,"lon":5.39035,"is_reserved":false,"is_disabled":false,"rental_uris":{"android":"levelo://app?vid=ab1a6583-633d-405d-bd4a-1fdedc00f747","ios":"levelo://app?vid=ab1a6583-633d-405d-bd4a-1fdedc00f747"},"vehicle_type_id":"4","last_reported":1740161562,"current_range_meters":12000,"station_id":"ce4bhr92rcd13ifvqhrg","pricing_plan_id":"cebpf4jnsgd1na2vs0mg"},{"bike_id":"2afb22c7-7048-4615-a3b7-71b0be04e579","system_id":"levelo_inurba_marseille","lat":43.23184,"lon":5.3557,"is_reserved":false,"is_disabled":false,"rental_uris":{"android":"levelo://app?vid=2afb22c7-7048-4615-a3b7-71b0be04e579","ios":"levelo://app?vid=2afb22c7-7048-4615-a3b7-71b0be04e579"},"vehicle_type_id":"4","last_reported":1740161562,"current_range_meters":12000,"station_id":"","pricing_plan_id":"cebpf4jnsgd1na2vs0mg"},{"bike_id":"12517b09-e056-425c-95fc-8e6ffba53bc2","system_id":"levelo_inurba_marseille","lat":43.27832,"lon":5.39201,"is_reserved":false,"is_disabled":false,"rental_uris":{"android":"levelo://app?vid=12517b09-e056-425c-95fc-8e6ffba53bc2","ios":"levelo://app?vid=12517b09-e056-425c-95fc-8e6ffba53bc2"},"vehicle_type_id":"4","last_reported":1740161562,"current_range_meters":12000,"station_id":"ce4bhjp2rcd13ifvqga0","pricing_plan_id":"cebpf4jnsgd1na2vs0mg"},{"bike_id":"299beae3-8c92-45ce-932a-34b514d1db86","system_id":"levelo_inurba_marseille","lat":43.30937,"lon":5.40141,"is_reserved":false,"is_disabled":false,"rental_uris":{"android":"levelo://app?vid=299beae3-8c92-45ce-932a-34b514d1db86","ios":"levelo://app?vid=299beae3-8c92-45ce-932a-34b514d1db86"},"vehicle_type_id":"4","last_reported":1740161562,"current_range_meters":12400,"station_id":"ce4bgvp2rcd13ifvqct0","pricing_plan_id":"cebpf4jnsgd1na2vs0mg"},{"bike_id":"6d828095-c5c4-4b10-a620-1be8c1be2ef3","system_id":"levelo_inurba_marseille","lat":43.26186,"lon":5.40377,"is_reserved":false,"is_disabled":false,"rental_uris":{"android":"levelo://app?vid=6d828095-c5c4-4b10-a620-1be8c1be2ef3","ios":"levelo://app?vid=6d828095-c5c4-4b10-a620-1be8c1be2ef3"},"vehicle_type_id":"4","last_reported":1740161562,"current_range_meters":12400,"station_id":"ce4bhmh2rcd13ifvqgmg","pricing_plan_id":"cebpf4jnsgd1na2vs0mg"},{"bike_id":"e501be99-a171-4e91-9e5b-ac547e4c06f2","system_id":"levelo_inurba_marseille","lat":43.23197,"lon":5.35548,"is_reserved":false,"is_disabled":false,"rental_uris":{"android":"levelo://app?vid=e501be99-a171-4e91-9e5b-ac547e4c06f2","ios":"levelo://app?vid=e501be99-a171-4e91-9e5b-ac547e4c06f2"},"vehicle_type_id":"4","last_reported":1740161562,"current_range_meters":12400,"station_id":"ce4bhu92rcd13ifvqi70","pricing_plan_id":"cebpf4jnsgd1na2vs0mg"},{"bike_id":"4668300d-2783-4785-9860-f7aa2cf6af65","system_id":"levelo_inurba_marseille","lat":43.29596,"lon":5.38098,"is_reserved":false,"is_disabled":false,"rental_uris":{"android":"levelo://app?vid=4668300d-2783-4785-9860-f7aa2cf6af65","ios":"levelo://app?vid=4668300d-2783-4785-9860-f7aa2cf6af65"},"vehicle_type_id":"4","last_reported":1740161562,"current_range_meters":12400,"station_id":"ce4bgl12rcd13ifvqbo0","pricing_plan_id":"cebpf4jnsgd1na2vs0mg"},{"bike_id":"c88a28e7-77d6-44e0-a79d-8f6ca388d896","system_id":"levelo_inurba_marseille","lat":43.29259,"lon":5.38432,"is_reserved":false,"is_disabled":false,"rental_uris":{"android":"levelo://app?vid=c88a28e7-77d6-44e0-a79d-8f6ca388d896","ios":"levelo://app?vid=c88a28e7-77d6-44e0-a79d-8f6ca388d896"},"vehicle_type_id":"4","last_reported":1740161562,"current_range_meters":12800,"station_id":"ce4bh692rcd13ifvqea0","pricing_plan_id":"cebpf4jnsgd1na2vs0mg"},{"bike_id":"417001bc-e8ee-4b24-9108-f07a293bf8c3","system_id":"levelo_inurba_marseille","lat":43.29707,"lon":5.37697,"is_reserved":false,"is_disabled":true,"rental_uris":{"android":"levelo://app?vid=417001bc-e8ee-4b24-9108-f07a293bf8c3","ios":"levelo://app?vid=417001bc-e8ee-4b24-9108-f07a293bf8c3"},"vehicle_type_id":"4","last_reported":1740161562,"current_range_meters":12800,"station_id":"ce4bgkh2rcd13ifvqbl0","pricing_plan_id":"cebpf4jnsgd1na2vs0mg"},{"bike_id":"ac65d31a-57a1-441d-a8ab-2b6158df445f","system_id":"levelo_inurba_marseille","lat":43.3057,"lon":5.397901,"is_reserved":false,"is_disabled":false,"rental_uris":{"android":"levelo://app?vid=ac65d31a-57a1-441d-a8ab-2b6158df445f","ios":"levelo://app?vid=ac65d31a-57a1-441d-a8ab-2b6158df445f"},"vehicle_type_id":"4","last_reported":1740161562,"current_range_meters":12800,"station_id":"ce4bh012rcd13ifvqcv0","pricing_plan_id":"cebpf4jnsgd1na2vs0mg"},{"bike_id":"d93b56e8-81a2-4df1-b772-ccfe1aba8adb","system_id":"levelo_inurba_marseille","lat":43.29455,"lon":5.39071,"is_reserved":false,"is_disabled":false,"rental_uris":{"android":"levelo://app?vid=d93b56e8-81a2-4df1-b772-ccfe1aba8adb","ios":"levelo://app?vid=d93b56e8-81a2-4df1-b772-ccfe1aba8adb"},"vehicle_type_id":"4","last_reported":1740161562,"current_range_meters":12800,"station_id":"","pricing_plan_id":"cebpf4jnsgd1na2vs0mg"},{"bike_id":"7c8f3d05-5401-4545-847e-9fcee9ea83d5","system_id":"levelo_inurba_marseille","lat":43.26574,"lon":5.39865,"is_reserved":false,"is_disabled":false,"rental_uris":{"android":"levelo://app?vid=7c8f3d05-5401-4545-847e-9fcee9ea83d5","ios":"levelo://app?vid=7c8f3d05-5401-4545-847e-9fcee9ea83d5"},"vehicle_type_id":"4","last_reported":1740161562,"current_range_meters":12800,"station_id":"","pricing_plan_id":"cebpf4jnsgd1na2vs0mg"},{"bike_id":"a404738f-d592-4923-bb7f-8cad6bf8fec4","system_id":"levelo_inurba_marseille","lat":43.27949,"lon":5.38495,"is_reserved":false,"is_disabled":false,"rental_uris":{"android":"levelo://app?vid=a404738f-d592-4923-bb7f-8cad6bf8fec4","ios":"levelo://app?vid=a404738f-d592-4923-bb7f-8cad6bf8fec4"},"vehicle_type_id":"4","last_reported":1740161562,"current_range_meters":12800,"station_id":"","pricing_plan_id":"cebpf4jnsgd1na2vs0mg"},{"bike_id":"c69e62ef-2d63-4f85-92a7-46aeb5f2ed9d","system_id":"levelo_inurba_marseille","lat":43.28409,"lon":5.3751,"is_reserved":false,"is_disabled":false,"rental_uris":{"android":"levelo://app?vid=c69e62ef-2d63-4f85-92a7-46aeb5f2ed9d","ios":"levelo://app?vid=c69e62ef-2d63-4f85-92a7-46aeb5f2ed9d"},"vehicle_type_id":"4","last_reported":1740161562,"current_range_meters":12800,"station_id":"ce4bh412rcd13ifvqds0","pricing_plan_id":"cebpf4jnsgd1na2vs0mg"},{"bike_id":"d075627a-2811-4622-a11e-66c88406dfb5","system_id":"levelo_inurba_marseille","lat":43.25115,"lon":5.40321,"is_reserved":false,"is_disabled":false,"rental_uris":{"android":"levelo://app?vid=d075627a-2811-4622-a11e-66c88406dfb5","ios":"levelo://app?vid=d075627a-2811-4622-a11e-66c88406dfb5"},"vehicle_type_id":"4","last_reported":1740161562,"current_range_meters":12800,"station_id":"ce4bhlh2rcd13ifvqgig","pricing_plan_id":"cebpf4jnsgd1na2vs0mg"},{"bike_id":"3e6e4df9-bbee-402a-b54f-56ba0e04635a","system_id":"levelo_inurba_marseille","lat":43.29069,"lon":5.37159,"is_reserved":false,"is_disabled":false,"rental_uris":{"android":"levelo://app?vid=3e6e4df9-bbee-402a-b54f-56ba0e04635a","ios":"levelo://app?vid=3e6e4df9-bbee-402a-b54f-56ba0e04635a"},"vehicle_type_id":"4","last_reported":1740161562,"current_range_meters":13600,"station_id":"ce4bh5p2rcd13ifvqe4g","pricing_plan_id":"cebpf4jnsgd1na2vs0mg"},{"bike_id":"78ccc1b5-e05d-4c30-bc5b-473f9d97e2cd","system_id":"levelo_inurba_marseille","lat":43.30143,"lon":5.37828,"is_reserved":false,"is_disabled":false,"rental_uris":{"android":"levelo://app?vid=78ccc1b5-e05d-4c30-bc5b-473f9d97e2cd","ios":"levelo://app?vid=78ccc1b5-e05d-4c30-bc5b-473f9d97e2cd"},"vehicle_type_id":"4","last_reported":1740161562,"current_range_meters":13600,"station_id":"","pricing_plan_id":"cebpf4jnsgd1na2vs0mg"},{"bike_id":"6043b3b6-f5fe-4aab-849f-db220279ba9e","system_id":"levelo_inurba_marseille","lat":43.29059,"lon":5.37155,"is_reserved":false,"is_disabled":false,"rental_uris":{"android":"levelo://app?vid=6043b3b6-f5fe-4aab-849f-db220279ba9e","ios":"levelo://app?vid=6043b3b6-f5fe-4aab-849f-db220279ba9e"},"vehicle_type_id":"4","last_reported":1740161562,"current_range_meters":13600,"station_id":"ce4bh5p2rcd13ifvqe4g","pricing_plan_id":"cebpf4jnsgd1na2vs0mg"},{"bike_id":"efd9f2f1-7b10-4189-aa91-1f4ab21cf36a","system_id":"levelo_inurba_marseille","lat":43.2417,"lon":5.39737,"is_reserved":false,"is_disabled":false,"rental_uris":{"android":"levelo://app?vid=efd9f2f1-7b10-4189-aa91-1f4ab21cf36a","ios":"levelo://app?vid=efd9f2f1-7b10-4189-aa91-1f4ab21cf36a"},"vehicle_type_id":"4","last_reported":1740161562,"current_range_meters":13600,"station_id":"ce4bhn12rcd13ifvqgpg","pricing_plan_id":"cebpf4jnsgd1na2vs0mg"},{"bike_id":"6c2ab6e6-2d04-4225-b04d-1f709ec68055","system_id":"levelo_inurba_marseille","lat":43.22928,"lon":5.35373,"is_reserved":false,"is_disabled":false,"rental_uris":{"android":"levelo://app?vid=6c2ab6e6-2d04-4225-b04d-1f709ec68055","ios":"levelo://app?vid=6c2ab6e6-2d04-4225-b04d-1f709ec68055"},"vehicle_type_id":"4","last_reported":1740161562,"current_range_meters":13600,"station_id":"cpo3532slgdg3j2ikp40","pricing_plan_id":"cebpf4jnsgd1na2vs0mg"},{"bike_id":"54b45f3b-f685-44dd-8b79-1a758bf759d2","system_id":"levelo_inurba_marseille","lat":43.337444,"lon":5.374475,"is_reserved":false,"is_disabled":true,"rental_uris":{"android":"levelo://app?vid=54b45f3b-f685-44dd-8b79-1a758bf759d2","ios":"levelo://app?vid=54b45f3b-f685-44dd-8b79-1a758bf759d2"},"vehicle_type_id":"4","last_reported":1740161562,"current_range_meters":13600,"station_id":"","pricing_plan_id":"cebpf4jnsgd1na2vs0mg"},{"bike_id":"b985ad1f-1942-453b-b5eb-7462cafd1e31","system_id":"levelo_inurba_marseille","lat":43.2318,"lon":5.35544,"is_reserved":false,"is_disabled":false,"rental_uris":{"android":"levelo://app?vid=b985ad1f-1942-453b-b5eb-7462cafd1e31","ios":"levelo://app?vid=b985ad1f-1942-453b-b5eb-7462cafd1e31"},"vehicle_type_id":"4","last_reported":1740161562,"current_range_meters":13600,"station_id":"ce4bhu92rcd13ifvqi70","pricing_plan_id":"cebpf4jnsgd1na2vs0mg"},{"bike_id":"9dcb57ef-268f-49e8-b64e-f91cdc8d88e9","system_id":"levelo_inurba_marseille","lat":43.270426,"lon":5.388083,"is_reserved":false,"is_disabled":false,"rental_uris":{"android":"levelo://app?vid=9dcb57ef-268f-49e8-b64e-f91cdc8d88e9","ios":"levelo://app?vid=9dcb57ef-268f-49e8-b64e-f91cdc8d88e9"},"vehicle_type_id":"4","last_reported":1740161562,"current_range_meters":14000,"station_id":"ce4bhjp2rcd13ifvqga0","pricing_plan_id":"cebpf4jnsgd1na2vs0mg"},{"bike_id":"1b7ac129-ecd5-4ebe-ac49-f8a6cd5fd7db","system_id":"levelo_inurba_marseille","lat":43.2501,"lon":5.38925,"is_reserved":false,"is_disabled":false,"rental_uris":{"android":"levelo://app?vid=1b7ac129-ecd5-4ebe-ac49-f8a6cd5fd7db","ios":"levelo://app?vid=1b7ac129-ecd5-4ebe-ac49-f8a6cd5fd7db"},"vehicle_type_id":"4","last_reported":1740161562,"current_range_meters":14000,"station_id":"ce4bhgp2rcd13ifvqfd0","pricing_plan_id":"cebpf4jnsgd1na2vs0mg"},{"bike_id":"3372843d-d9b8-48e7-a75e-62d9bb27ba4f","system_id":"levelo_inurba_marseille","lat":43.27915,"lon":5.39579,"is_reserved":false,"is_disabled":false,"rental_uris":{"android":"levelo://app?vid=3372843d-d9b8-48e7-a75e-62d9bb27ba4f","ios":"levelo://app?vid=3372843d-d9b8-48e7-a75e-62d9bb27ba4f"},"vehicle_type_id":"4","last_reported":1740161562,"current_range_meters":14000,"station_id":"ce4bhf92rcd13ifvqf40","pricing_plan_id":"cebpf4jnsgd1na2vs0mg"},{"bike_id":"089b421a-1c36-49ca-a690-f002c1cadcb6","system_id":"levelo_inurba_marseille","lat":43.24175,"lon":5.36404,"is_reserved":false,"is_disabled":false,"rental_uris":{"android":"levelo://app?vid=089b421a-1c36-49ca-a690-f002c1cadcb6","ios":"levelo://app?vid=089b421a-1c36-49ca-a690-f002c1cadcb6"},"vehicle_type_id":"4","last_reported":1740161562,"current_range_meters":14000,"station_id":"cpo36qri1sfpv3e86is0","pricing_plan_id":"cebpf4jnsgd1na2vs0mg"},{"bike_id":"81e0de94-2185-4cef-94b2-941de91bef70","system_id":"levelo_inurba_marseille","lat":43.30357,"lon":5.41871,"is_reserved":false,"is_disabled":false,"rental_uris":{"android":"levelo://app?vid=81e0de94-2185-4cef-94b2-941de91bef70","ios":"levelo://app?vid=81e0de94-2185-4cef-94b2-941de91bef70"},"vehicle_type_id":"4","last_reported":1740161562,"current_range_meters":14000,"station_id":"ce4bhop2rcd13ifvqh7g","pricing_plan_id":"cebpf4jnsgd1na2vs0mg"},{"bike_id":"20c03868-5bd2-4011-baaf-a537d64ad403","system_id":"levelo_inurba_marseille","lat":43.2953,"lon":5.3854,"is_reserved":false,"is_disabled":false,"rental_uris":{"android":"levelo://app?vid=20c03868-5bd2-4011-baaf-a537d64ad403","ios":"levelo://app?vid=20c03868-5bd2-4011-baaf-a537d64ad403"},"vehicle_type_id":"4","last_reported":1740161562,"current_range_meters":14000,"station_id":"ce4bgih2rcd13ifvqba0","pricing_plan_id":"cebpf4jnsgd1na2vs0mg"},{"bike_id":"c15366bc-5357-461b-85b2-0e6a5922bf55","system_id":"levelo_inurba_marseille","lat":43.29293,"lon":5.374662,"is_reserved":false,"is_disabled":false,"rental_uris":{"android":"levelo://app?vid=c15366bc-5357-461b-85b2-0e6a5922bf55","ios":"levelo://app?vid=c15366bc-5357-461b-85b2-0e6a5922bf55"},"vehicle_type_id":"4","last_reported":1740161562,"current_range_meters":14000,"station_id":"ce4bh392rcd13ifvqdm0","pricing_plan_id":"cebpf4jnsgd1na2vs0mg"},{"bike_id":"961e5057-0e78-4860-bb2d-5a40f6b3e7aa","system_id":"levelo_inurba_marseille","lat":43.29411,"lon":5.3863,"is_reserved":false,"is_disabled":false,"rental_uris":{"android":"levelo://app?vid=961e5057-0e78-4860-bb2d-5a40f6b3e7aa","ios":"levelo://app?vid=961e5057-0e78-4860-bb2d-5a40f6b3e7aa"},"vehicle_type_id":"4","last_reported":1740161562,"current_range_meters":14400,"station_id":"ce4bh2h2rcd13ifvqdh0","pricing_plan_id":"cebpf4jnsgd1na2vs0mg"},{"bike_id":"04bfba91-bb58-4453-bb6d-94bb64af3f8e","system_id":"levelo_inurba_marseille","lat":43.29898,"lon":5.39766,"is_reserved":false,"is_disabled":false,"rental_uris":{"android":"levelo://app?vid=04bfba91-bb58-4453-bb6d-94bb64af3f8e","ios":"levelo://app?vid=04bfba91-bb58-4453-bb6d-94bb64af3f8e"},"vehicle_type_id":"4","last_reported":1740161562,"current_range_meters":14400,"station_id":"ce4bh0h2rcd13ifvqd50","pricing_plan_id":"cebpf4jnsgd1na2vs0mg"},{"bike_id":"75c683e9-42be-4912-a6ec-78c08589d320","system_id":"levelo_inurba_marseille","lat":43.27585,"lon":5.38413,"is_reserved":false,"is_disabled":false,"rental_uris":{"android":"levelo://app?vid=75c683e9-42be-4912-a6ec-78c08589d320","ios":"levelo://app?vid=75c683e9-42be-4912-a6ec-78c08589d320"},"vehicle_type_id":"4","last_reported":1740161562,"current_range_meters":14400,"station_id":"ce4bhh92rcd13ifvqfi0","pricing_plan_id":"cebpf4jnsgd1na2vs0mg"},{"bike_id":"2bd2e251-7232-4a39-8853-8cfa76cfaeff","system_id":"levelo_inurba_marseille","lat":43.32347,"lon":5.36771,"is_reserved":false,"is_disabled":false,"rental_uris":{"android":"levelo://app?vid=2bd2e251-7232-4a39-8853-8cfa76cfaeff","ios":"levelo://app?vid=2bd2e251-7232-4a39-8853-8cfa76cfaeff"},"vehicle_type_id":"4","last_reported":1740161562,"current_range_meters":14400,"station_id":"ce4bhsh2rcd13ifvqi2g","pricing_plan_id":"cebpf4jnsgd1na2vs0mg"},{"bike_id":"d312ce1d-aae9-4c62-a1e8-38c15d95735a","system_id":"levelo_inurba_marseille","lat":43.22927,"lon":5.35376,"is_reserved":false,"is_disabled":false,"rental_uris":{"android":"levelo://app?vid=d312ce1d-aae9-4c62-a1e8-38c15d95735a","ios":"levelo://app?vid=d312ce1d-aae9-4c62-a1e8-38c15d95735a"},"vehicle_type_id":"4","last_reported":1740161562,"current_range_meters":14800,"station_id":"cpo3532slgdg3j2ikp40","pricing_plan_id":"cebpf4jnsgd1na2vs0mg"},{"bike_id":"9fba7521-ae76-4d2f-a355-c0e49bf3d8c6","system_id":"levelo_inurba_marseille","lat":43.29519,"lon":5.39401,"is_reserved":false,"is_disabled":false,"rental_uris":{"android":"levelo://app?vid=9fba7521-ae76-4d2f-a355-c0e49bf3d8c6","ios":"levelo://app?vid=9fba7521-ae76-4d2f-a355-c0e49bf3d8c6"},"vehicle_type_id":"4","last_reported":1740161562,"current_range_meters":14800,"station_id":"ce4bh292rcd13ifvqdf0","pricing_plan_id":"cebpf4jnsgd1na2vs0mg"},{"bike_id":"3c36db4c-97d5-4134-a36a-ae78baf9a0f4","system_id":"levelo_inurba_marseille","lat":43.28267,"lon":5.35067,"is_reserved":false,"is_disabled":false,"rental_uris":{"android":"levelo://app?vid=3c36db4c-97d5-4134-a36a-ae78baf9a0f4","ios":"levelo://app?vid=3c36db4c-97d5-4134-a36a-ae78baf9a0f4"},"vehicle_type_id":"4","last_reported":1740161562,"current_range_meters":14800,"station_id":"ce4bhbp2rcd13ifvqerg","pricing_plan_id":"cebpf4jnsgd1na2vs0mg"},{"bike_id":"aeab41e3-a4b9-40fb-9da7-cb75c893bb65","system_id":"levelo_inurba_marseille","lat":43.25584,"lon":5.3823,"is_reserved":false,"is_disabled":false,"rental_uris":{"android":"levelo://app?vid=aeab41e3-a4b9-40fb-9da7-cb75c893bb65","ios":"levelo://app?vid=aeab41e3-a4b9-40fb-9da7-cb75c893bb65"},"vehicle_type_id":"4","last_reported":1740161562,"current_range_meters":14800,"station_id":"ce4bhih2rcd13ifvqfs0","pricing_plan_id":"cebpf4jnsgd1na2vs0mg"},{"bike_id":"77d507d7-d9cb-49d8-a6cf-5acd92a086f8","system_id":"levelo_inurba_marseille","lat":43.32054,"lon":5.41549,"is_reserved":false,"is_disabled":false,"rental_uris":{"android":"levelo://app?vid=77d507d7-d9cb-49d8-a6cf-5acd92a086f8","ios":"levelo://app?vid=77d507d7-d9cb-49d8-a6cf-5acd92a086f8"},"vehicle_type_id":"4","last_reported":1740161562,"current_range_meters":14800,"station_id":"ce4bhq92rcd13ifvqhkg","pricing_plan_id":"cebpf4jnsgd1na2vs0mg"},{"bike_id":"cc24adbe-d522-405f-977b-65faffdd997d","system_id":"levelo_inurba_marseille","lat":43.30141,"lon":5.38771,"is_reserved":false,"is_disabled":false,"rental_uris":{"android":"levelo://app?vid=cc24adbe-d522-405f-977b-65faffdd997d","ios":"levelo://app?vid=cc24adbe-d522-405f-977b-65faffdd997d"},"vehicle_type_id":"4","last_reported":1740161562,"current_range_meters":15200,"station_id":"ce4bghh2rcd13ifvqb60","pricing_plan_id":"cebpf4jnsgd1na2vs0mg"},{"bike_id":"3aa1eba5-754b-47a4-a5b6-c1b6b0a8fc18","system_id":"levelo_inurba_marseille","lat":43.28997,"lon":5.35605,"is_reserved":false,"is_disabled":false,"rental_uris":{"android":"levelo://app?vid=3aa1eba5-754b-47a4-a5b6-c1b6b0a8fc18","ios":"levelo://app?vid=3aa1eba5-754b-47a4-a5b6-c1b6b0a8fc18"},"vehicle_type_id":"4","last_reported":1740161562,"current_range_meters":15200,"station_id":"ce4bhb92rcd13ifvqen0","pricing_plan_id":"cebpf4jnsgd1na2vs0mg"},{"bike_id":"35331f57-b06c-41f1-8224-4eb3668702eb","system_id":"levelo_inurba_marseille","lat":43.23056,"lon":5.35491,"is_reserved":false,"is_disabled":false,"rental_uris":{"android":"levelo://app?vid=35331f57-b06c-41f1-8224-4eb3668702eb","ios":"levelo://app?vid=35331f57-b06c-41f1-8224-4eb3668702eb"},"vehicle_type_id":"4","last_reported":1740161562,"current_range_meters":15200,"station_id":"cpo3342slgdg3j2ifvpg","pricing_plan_id":"cebpf4jnsgd1na2vs0mg"},{"bike_id":"8c987be3-0144-467f-ae78-a95854ca2ef5","system_id":"levelo_inurba_marseille","lat":43.29028,"lon":5.38637,"is_reserved":false,"is_disabled":false,"rental_uris":{"android":"levelo://app?vid=8c987be3-0144-467f-ae78-a95854ca2ef5","ios":"levelo://app?vid=8c987be3-0144-467f-ae78-a95854ca2ef5"},"vehicle_type_id":"4","last_reported":1740161562,"current_range_meters":16000,"station_id":"ce4bh4p2rcd13ifvqe0g","pricing_plan_id":"cebpf4jnsgd1na2vs0mg"},{"bike_id":"e297894e-9654-4d80-87c5-92e5d1d23aba","system_id":"levelo_inurba_marseille","lat":43.27494,"lon":5.42464,"is_reserved":false,"is_disabled":false,"rental_uris":{"android":"levelo://app?vid=e297894e-9654-4d80-87c5-92e5d1d23aba","ios":"levelo://app?vid=e297894e-9654-4d80-87c5-92e5d1d23aba"},"vehicle_type_id":"4","last_reported":1740161562,"current_range_meters":16000,"station_id":"ce4bhn92rcd13ifvqgrg","pricing_plan_id":"cebpf4jnsgd1na2vs0mg"},{"bike_id":"009f865c-dac7-4b59-b179-3c9fa0b64360","system_id":"levelo_inurba_marseille","lat":43.32285,"lon":5.3828,"is_reserved":false,"is_disabled":false,"rental_uris":{"android":"levelo://app?vid=009f865c-dac7-4b59-b179-3c9fa0b64360","ios":"levelo://app?vid=009f865c-dac7-4b59-b179-3c9fa0b64360"},"vehicle_type_id":"4","last_reported":1740161562,"current_range_meters":15200,"station_id":"","pricing_plan_id":"cebpf4jnsgd1na2vs0mg"},{"bike_id":"612520cd-606e-4930-b48a-854b6c430bad","system_id":"levelo_inurba_marseille","lat":43.28569,"lon":5.39494,"is_reserved":false,"is_disabled":false,"rental_uris":{"android":"levelo://app?vid=612520cd-606e-4930-b48a-854b6c430bad","ios":"levelo://app?vid=612520cd-606e-4930-b48a-854b6c430bad"},"vehicle_type_id":"4","last_reported":1740161562,"current_range_meters":16000,"station_id":"ce4bh292rcd13ifvqdg0","pricing_plan_id":"cebpf4jnsgd1na2vs0mg"},{"bike_id":"1c2f6c01-e16a-49dc-a36d-0a97c1624db5","system_id":"levelo_inurba_marseille","lat":43.28362,"lon":5.38099,"is_reserved":false,"is_disabled":false,"rental_uris":{"android":"levelo://app?vid=1c2f6c01-e16a-49dc-a36d-0a97c1624db5","ios":"levelo://app?vid=1c2f6c01-e16a-49dc-a36d-0a97c1624db5"},"vehicle_type_id":"4","last_reported":1740161562,"current_range_meters":16400,"station_id":"ce4bh412rcd13ifvqdr0","pricing_plan_id":"cebpf4jnsgd1na2vs0mg"},{"bike_id":"4da68edf-451a-4adf-bccd-ad67d140ad90","system_id":"levelo_inurba_marseille","lat":43.30137,"lon":5.37379,"is_reserved":false,"is_disabled":false,"rental_uris":{"android":"levelo://app?vid=4da68edf-451a-4adf-bccd-ad67d140ad90","ios":"levelo://app?vid=4da68edf-451a-4adf-bccd-ad67d140ad90"},"vehicle_type_id":"4","last_reported":1740161562,"current_range_meters":16400,"station_id":"ce4bgs92rcd13ifvqcc0","pricing_plan_id":"cebpf4jnsgd1na2vs0mg"},{"bike_id":"1af71f24-4e09-4614-8c45-d76ced2f74ef","system_id":"levelo_inurba_marseille","lat":43.23202,"lon":5.35534,"is_reserved":false,"is_disabled":false,"rental_uris":{"android":"levelo://app?vid=1af71f24-4e09-4614-8c45-d76ced2f74ef","ios":"levelo://app?vid=1af71f24-4e09-4614-8c45-d76ced2f74ef"},"vehicle_type_id":"4","last_reported":1740161562,"current_range_meters":16400,"station_id":"ce4bhu92rcd13ifvqi70","pricing_plan_id":"cebpf4jnsgd1na2vs0mg"},{"bike_id":"2438116c-0eac-4745-af80-c56857c3119c","system_id":"levelo_inurba_marseille","lat":43.24809,"lon":5.37458,"is_reserved":false,"is_disabled":false,"rental_uris":{"android":"levelo://app?vid=2438116c-0eac-4745-af80-c56857c3119c","ios":"levelo://app?vid=2438116c-0eac-4745-af80-c56857c3119c"},"vehicle_type_id":"4","last_reported":1740161562,"current_range_meters":16400,"station_id":"ce4bhgh2rcd13ifvqfb0","pricing_plan_id":"cebpf4jnsgd1na2vs0mg"},{"bike_id":"8db7c6d7-e1a9-4eb6-b282-d83b77847bfc","system_id":"levelo_inurba_marseille","lat":43.29511,"lon":5.39405,"is_reserved":false,"is_disabled":false,"rental_uris":{"android":"levelo://app?vid=8db7c6d7-e1a9-4eb6-b282-d83b77847bfc","ios":"levelo://app?vid=8db7c6d7-e1a9-4eb6-b282-d83b77847bfc"},"vehicle_type_id":"4","last_reported":1740161562,"current_range_meters":16400,"station_id":"ce4bh292rcd13ifvqdf0","pricing_plan_id":"cebpf4jnsgd1na2vs0mg"},{"bike_id":"ec32f634-4068-45a4-8eda-8c75badc6fd4","system_id":"levelo_inurba_marseille","lat":43.29525,"lon":5.39042,"is_reserved":false,"is_disabled":false,"rental_uris":{"android":"levelo://app?vid=ec32f634-4068-45a4-8eda-8c75badc6fd4","ios":"levelo://app?vid=ec32f634-4068-45a4-8eda-8c75badc6fd4"},"vehicle_type_id":"4","last_reported":1740161562,"current_range_meters":16400,"station_id":"ce4bh3p2rcd13ifvqdp0","pricing_plan_id":"cebpf4jnsgd1na2vs0mg"},{"bike_id":"2d3cef83-fd1d-4e81-80ba-36de4a9061f2","system_id":"levelo_inurba_marseille","lat":43.29535,"lon":5.38538,"is_reserved":false,"is_disabled":false,"rental_uris":{"android":"levelo://app?vid=2d3cef83-fd1d-4e81-80ba-36de4a9061f2","ios":"levelo://app?vid=2d3cef83-fd1d-4e81-80ba-36de4a9061f2"},"vehicle_type_id":"4","last_reported":1740161562,"current_range_meters":16400,"station_id":"ce4bgih2rcd13ifvqba0","pricing_plan_id":"cebpf4jnsgd1na2vs0mg"},{"bike_id":"6e23b78a-bcf4-4e9b-b7aa-e033b93a52da","system_id":"levelo_inurba_marseille","lat":43.29578,"lon":5.37518,"is_reserved":false,"is_disabled":false,"rental_uris":{"android":"levelo://app?vid=6e23b78a-bcf4-4e9b-b7aa-e033b93a52da","ios":"levelo://app?vid=6e23b78a-bcf4-4e9b-b7aa-e033b93a52da"},"vehicle_type_id":"4","last_reported":1740161562,"current_range_meters":16400,"station_id":"ce4bgh92rcd13ifvqb50","pricing_plan_id":"cebpf4jnsgd1na2vs0mg"},{"bike_id":"1d080a06-ec89-49f4-8cf6-2ab6656d63f3","system_id":"levelo_inurba_marseille","lat":43.3175,"lon":5.39021,"is_reserved":false,"is_disabled":false,"rental_uris":{"android":"levelo://app?vid=1d080a06-ec89-49f4-8cf6-2ab6656d63f3","ios":"levelo://app?vid=1d080a06-ec89-49f4-8cf6-2ab6656d63f3"},"vehicle_type_id":"4","last_reported":1740161562,"current_range_meters":16400,"station_id":"ce4bhqp2rcd13ifvqhng","pricing_plan_id":"cebpf4jnsgd1na2vs0mg"},{"bike_id":"130f9693-efc1-4544-ac5a-952bad4a139b","system_id":"levelo_inurba_marseille","lat":43.31705,"lon":5.43681,"is_reserved":false,"is_disabled":false,"rental_uris":{"android":"levelo://app?vid=130f9693-efc1-4544-ac5a-952bad4a139b","ios":"levelo://app?vid=130f9693-efc1-4544-ac5a-952bad4a139b"},"vehicle_type_id":"4","last_reported":1740161562,"current_range_meters":16400,"station_id":"ce4bhp92rcd13ifvqhcg","pricing_plan_id":"cebpf4jnsgd1na2vs0mg"},{"bike_id":"0b35ef10-1d1d-4e8a-949e-c3122c5e3874","system_id":"levelo_inurba_marseille","lat":43.2398,"lon":5.36635,"is_reserved":false,"is_disabled":false,"rental_uris":{"android":"levelo://app?vid=0b35ef10-1d1d-4e8a-949e-c3122c5e3874","ios":"levelo://app?vid=0b35ef10-1d1d-4e8a-949e-c3122c5e3874"},"vehicle_type_id":"4","last_reported":1740161562,"current_range_meters":16800,"station_id":"ce4bhi12rcd13ifvqfp0","pricing_plan_id":"cebpf4jnsgd1na2vs0mg"},{"bike_id":"06b5b92e-20c2-4581-8ccf-06307578ea44","system_id":"levelo_inurba_marseille","lat":43.27189,"lon":5.40975,"is_reserved":false,"is_disabled":false,"rental_uris":{"android":"levelo://app?vid=06b5b92e-20c2-4581-8ccf-06307578ea44","ios":"levelo://app?vid=06b5b92e-20c2-4581-8ccf-06307578ea44"},"vehicle_type_id":"4","last_reported":1740161562,"current_range_meters":16800,"station_id":"ce4bhl12rcd13ifvqgf0","pricing_plan_id":"cebpf4jnsgd1na2vs0mg"},{"bike_id":"d11be0c5-7c44-446b-87dc-96d0fa4aded0","system_id":"levelo_inurba_marseille","lat":43.27993,"lon":5.40007,"is_reserved":false,"is_disabled":false,"rental_uris":{"android":"levelo://app?vid=d11be0c5-7c44-446b-87dc-96d0fa4aded0","ios":"levelo://app?vid=d11be0c5-7c44-446b-87dc-96d0fa4aded0"},"vehicle_type_id":"4","last_reported":1740161562,"current_range_meters":16800,"station_id":"ce4bho92rcd13ifvqh4g","pricing_plan_id":"cebpf4jnsgd1na2vs0mg"},{"bike_id":"4af8b3ac-544c-48c7-ab34-76b2eb8057ed","system_id":"levelo_inurba_marseille","lat":43.30433,"lon":5.38888,"is_reserved":false,"is_disabled":false,"rental_uris":{"android":"levelo://app?vid=4af8b3ac-544c-48c7-ab34-76b2eb8057ed","ios":"levelo://app?vid=4af8b3ac-544c-48c7-ab34-76b2eb8057ed"},"vehicle_type_id":"4","last_reported":1740161562,"current_range_meters":17200,"station_id":"ce4bgk12rcd13ifvqbi0","pricing_plan_id":"cebpf4jnsgd1na2vs0mg"},{"bike_id":"1951b280-e8ac-4fa5-a3ef-806580107c2a","system_id":"levelo_inurba_marseille","lat":43.28159,"lon":5.42645,"is_reserved":false,"is_disabled":false,"rental_uris":{"android":"levelo://app?vid=1951b280-e8ac-4fa5-a3ef-806580107c2a","ios":"levelo://app?vid=1951b280-e8ac-4fa5-a3ef-806580107c2a"},"vehicle_type_id":"4","last_reported":1740161562,"current_range_meters":17200,"station_id":"ce4bhnh2rcd13ifvqgug","pricing_plan_id":"cebpf4jnsgd1na2vs0mg"},{"bike_id":"47c2bda1-b080-4330-9259-8165a7e570ad","system_id":"levelo_inurba_marseille","lat":43.32694,"lon":5.39005,"is_reserved":false,"is_disabled":false,"rental_uris":{"android":"levelo://app?vid=47c2bda1-b080-4330-9259-8165a7e570ad","ios":"levelo://app?vid=47c2bda1-b080-4330-9259-8165a7e570ad"},"vehicle_type_id":"4","last_reported":1740161562,"current_range_meters":17200,"station_id":"","pricing_plan_id":"cebpf4jnsgd1na2vs0mg"},{"bike_id":"58200a84-9a1f-49a4-afb1-cb49453e12a5","system_id":"levelo_inurba_marseille","lat":43.292023,"lon":5.393283,"is_reserved":false,"is_disabled":false,"rental_uris":{"android":"levelo://app?vid=58200a84-9a1f-49a4-afb1-cb49453e12a5","ios":"levelo://app?vid=58200a84-9a1f-49a4-afb1-cb49453e12a5"},"vehicle_type_id":"4","last_reported":1740161562,"current_range_meters":17200,"station_id":"ce4bh192rcd13ifvqdd0","pricing_plan_id":"cebpf4jnsgd1na2vs0mg"},{"bike_id":"e087f164-31a5-4c74-b577-380af0b24dba","system_id":"levelo_inurba_marseille","lat":43.3228,"lon":5.3827,"is_reserved":false,"is_disabled":false,"rental_uris":{"android":"levelo://app?vid=e087f164-31a5-4c74-b577-380af0b24dba","ios":"levelo://app?vid=e087f164-31a5-4c74-b577-380af0b24dba"},"vehicle_type_id":"4","last_reported":1740161562,"current_range_meters":17200,"station_id":"ce4bhr12rcd13ifvqhqg","pricing_plan_id":"cebpf4jnsgd1na2vs0mg"},{"bike_id":"f4110588-f4d3-44ce-a0f9-44eb07be2390","system_id":"levelo_inurba_marseille","lat":43.29107,"lon":5.39349,"is_reserved":false,"is_disabled":false,"rental_uris":{"android":"levelo://app?vid=f4110588-f4d3-44ce-a0f9-44eb07be2390","ios":"levelo://app?vid=f4110588-f4d3-44ce-a0f9-44eb07be2390"},"vehicle_type_id":"4","last_reported":1740161562,"current_range_meters":17200,"station_id":"ce4bh192rcd13ifvqdd0","pricing_plan_id":"cebpf4jnsgd1na2vs0mg"},{"bike_id":"c78c04c9-5018-4da0-b4a7-022a88a636dd","system_id":"levelo_inurba_marseille","lat":43.29963,"lon":5.385,"is_reserved":false,"is_disabled":false,"rental_uris":{"android":"levelo://app?vid=c78c04c9-5018-4da0-b4a7-022a88a636dd","ios":"levelo://app?vid=c78c04c9-5018-4da0-b4a7-022a88a636dd"},"vehicle_type_id":"4","last_reported":1740161562,"current_range_meters":17200,"station_id":"ce4bgj92rcd13ifvqbd0","pricing_plan_id":"cebpf4jnsgd1na2vs0mg"},{"bike_id":"ce5f586c-8096-48a5-8143-bce662e5979a","system_id":"levelo_inurba_marseille","lat":43.29269,"lon":5.38442,"is_reserved":false,"is_disabled":false,"rental_uris":{"android":"levelo://app?vid=ce5f586c-8096-48a5-8143-bce662e5979a","ios":"levelo://app?vid=ce5f586c-8096-48a5-8143-bce662e5979a"},"vehicle_type_id":"4","last_reported":1740161562,"current_range_meters":17200,"station_id":"ce4bh692rcd13ifvqea0","pricing_plan_id":"cebpf4jnsgd1na2vs0mg"},{"bike_id":"1b0d6542-f74d-4dd5-b78b-1cd1115ff80b","system_id":"levelo_inurba_marseille","lat":43.30631,"lon":5.37362,"is_reserved":false,"is_disabled":false,"rental_uris":{"android":"levelo://app?vid=1b0d6542-f74d-4dd5-b78b-1cd1115ff80b","ios":"levelo://app?vid=1b0d6542-f74d-4dd5-b78b-1cd1115ff80b"},"vehicle_type_id":"4","last_reported":1740161562,"current_range_meters":17600,"station_id":"","pricing_plan_id":"cebpf4jnsgd1na2vs0mg"},{"bike_id":"af6517b5-8e86-4356-ae57-fbef39282085","system_id":"levelo_inurba_marseille","lat":43.31361,"lon":5.38488,"is_reserved":false,"is_disabled":false,"rental_uris":{"android":"levelo://app?vid=af6517b5-8e86-4356-ae57-fbef39282085","ios":"levelo://app?vid=af6517b5-8e86-4356-ae57-fbef39282085"},"vehicle_type_id":"4","last_reported":1740161562,"current_range_meters":17600,"station_id":"ce4bgt92rcd13ifvqcf0","pricing_plan_id":"cebpf4jnsgd1na2vs0mg"},{"bike_id":"519c0d90-c598-4074-9c80-d5e1565ff705","system_id":"levelo_inurba_marseille","lat":43.23062,"lon":5.35479,"is_reserved":false,"is_disabled":false,"rental_uris":{"android":"levelo://app?vid=519c0d90-c598-4074-9c80-d5e1565ff705","ios":"levelo://app?vid=519c0d90-c598-4074-9c80-d5e1565ff705"},"vehicle_type_id":"4","last_reported":1740161562,"current_range_meters":17600,"station_id":"cpo3342slgdg3j2ifvpg","pricing_plan_id":"cebpf4jnsgd1na2vs0mg"},{"bike_id":"303882a4-bd7b-4596-845b-4f2a9078a930","system_id":"levelo_inurba_marseille","lat":43.28724,"lon":5.36086,"is_reserved":false,"is_disabled":false,"rental_uris":{"android":"levelo://app?vid=303882a4-bd7b-4596-845b-4f2a9078a930","ios":"levelo://app?vid=303882a4-bd7b-4596-845b-4f2a9078a930"},"vehicle_type_id":"4","last_reported":1740161562,"current_range_meters":17600,"station_id":"cki0cbj6b192h4jlfktg","pricing_plan_id":"cebpf4jnsgd1na2vs0mg"},{"bike_id":"1deaa002-5243-48d8-8779-82891264a102","system_id":"levelo_inurba_marseille","lat":43.24836,"lon":5.3737,"is_reserved":false,"is_disabled":false,"rental_uris":{"android":"levelo://app?vid=1deaa002-5243-48d8-8779-82891264a102","ios":"levelo://app?vid=1deaa002-5243-48d8-8779-82891264a102"},"vehicle_type_id":"4","last_reported":1740161562,"current_range_meters":17600,"station_id":"","pricing_plan_id":"cebpf4jnsgd1na2vs0mg"},{"bike_id":"abb93cba-6888-4edb-9ac8-e2a73b730e86","system_id":"levelo_inurba_marseille","lat":43.28269,"lon":5.35072,"is_reserved":false,"is_disabled":false,"rental_uris":{"android":"levelo://app?vid=abb93cba-6888-4edb-9ac8-e2a73b730e86","ios":"levelo://app?vid=abb93cba-6888-4edb-9ac8-e2a73b730e86"},"vehicle_type_id":"4","last_reported":1740161562,"current_range_meters":17600,"station_id":"ce4bhbp2rcd13ifvqerg","pricing_plan_id":"cebpf4jnsgd1na2vs0mg"},{"bike_id":"1b5b87c8-f96f-4740-8b60-bcc62c6e3f59","system_id":"levelo_inurba_marseille","lat":43.31387,"lon":5.38444,"is_reserved":false,"is_disabled":false,"rental_uris":{"android":"levelo://app?vid=1b5b87c8-f96f-4740-8b60-bcc62c6e3f59","ios":"levelo://app?vid=1b5b87c8-f96f-4740-8b60-bcc62c6e3f59"},"vehicle_type_id":"4","last_reported":1740161562,"current_range_meters":17600,"station_id":"ce4bgt92rcd13ifvqcf0","pricing_plan_id":"cebpf4jnsgd1na2vs0mg"},{"bike_id":"a3c27f0b-ee3f-46eb-a38c-9c2b2a3fc380","system_id":"levelo_inurba_marseille","lat":43.28346,"lon":5.3809,"is_reserved":false,"is_disabled":false,"rental_uris":{"android":"levelo://app?vid=a3c27f0b-ee3f-46eb-a38c-9c2b2a3fc380","ios":"levelo://app?vid=a3c27f0b-ee3f-46eb-a38c-9c2b2a3fc380"},"vehicle_type_id":"4","last_reported":1740161562,"current_range_meters":17600,"station_id":"ce4bh412rcd13ifvqdr0","pricing_plan_id":"cebpf4jnsgd1na2vs0mg"},{"bike_id":"130638c9-5eb1-479c-b314-23d547c41cdb","system_id":"levelo_inurba_marseille","lat":43.29529,"lon":5.39037,"is_reserved":false,"is_disabled":false,"rental_uris":{"android":"levelo://app?vid=130638c9-5eb1-479c-b314-23d547c41cdb","ios":"levelo://app?vid=130638c9-5eb1-479c-b314-23d547c41cdb"},"vehicle_type_id":"4","last_reported":1740161562,"current_range_meters":17600,"station_id":"ce4bh3p2rcd13ifvqdp0","pricing_plan_id":"cebpf4jnsgd1na2vs0mg"},{"bike_id":"467a0ac7-872c-4bb6-8ee3-3c6f458a51d9","system_id":"levelo_inurba_marseille","lat":43.27893,"lon":5.41229,"is_reserved":false,"is_disabled":false,"rental_uris":{"android":"levelo://app?vid=467a0ac7-872c-4bb6-8ee3-3c6f458a51d9","ios":"levelo://app?vid=467a0ac7-872c-4bb6-8ee3-3c6f458a51d9"},"vehicle_type_id":"4","last_reported":1740161562,"current_range_meters":18000,"station_id":"","pricing_plan_id":"cebpf4jnsgd1na2vs0mg"},{"bike_id":"ba0bce3c-2f0f-4319-a7aa-4f3727bd81ea","system_id":"levelo_inurba_marseille","lat":43.321078,"lon":5.36781,"is_reserved":false,"is_disabled":false,"rental_uris":{"android":"levelo://app?vid=ba0bce3c-2f0f-4319-a7aa-4f3727bd81ea","ios":"levelo://app?vid=ba0bce3c-2f0f-4319-a7aa-4f3727bd81ea"},"vehicle_type_id":"4","last_reported":1740161562,"current_range_meters":18000,"station_id":"ce4bhrh2rcd13ifvqhug","pricing_plan_id":"cebpf4jnsgd1na2vs0mg"},{"bike_id":"ecb792ba-e590-4d62-97cc-1e9b429064df","system_id":"levelo_inurba_marseille","lat":43.24998,"lon":5.3892,"is_reserved":false,"is_disabled":false,"rental_uris":{"android":"levelo://app?vid=ecb792ba-e590-4d62-97cc-1e9b429064df","ios":"levelo://app?vid=ecb792ba-e590-4d62-97cc-1e9b429064df"},"vehicle_type_id":"4","last_reported":1740161562,"current_range_meters":18000,"station_id":"ce4bhgp2rcd13ifvqfd0","pricing_plan_id":"cebpf4jnsgd1na2vs0mg"},{"bike_id":"311b6b19-ed45-471c-8370-22acbd0494ae","system_id":"levelo_inurba_marseille","lat":43.29409,"lon":5.39922,"is_reserved":false,"is_disabled":false,"rental_uris":{"android":"levelo://app?vid=311b6b19-ed45-471c-8370-22acbd0494ae","ios":"levelo://app?vid=311b6b19-ed45-471c-8370-22acbd0494ae"},"vehicle_type_id":"4","last_reported":1740161562,"current_range_meters":18000,"station_id":"ce4bh192rcd13ifvqdc0","pricing_plan_id":"cebpf4jnsgd1na2vs0mg"},{"bike_id":"d5566d2e-78e8-488f-b3e7-c9c338cd491f","system_id":"levelo_inurba_marseille","lat":43.27505,"lon":5.42452,"is_reserved":false,"is_disabled":false,"rental_uris":{"android":"levelo://app?vid=d5566d2e-78e8-488f-b3e7-c9c338cd491f","ios":"levelo://app?vid=d5566d2e-78e8-488f-b3e7-c9c338cd491f"},"vehicle_type_id":"4","last_reported":1740161562,"current_range_meters":18000,"station_id":"ce4bhn92rcd13ifvqgrg","pricing_plan_id":"cebpf4jnsgd1na2vs0mg"},{"bike_id":"0ed12020-28ec-4ae0-807c-68ed0416fc20","system_id":"levelo_inurba_marseille","lat":43.25107,"lon":5.4032,"is_reserved":false,"is_disabled":false,"rental_uris":{"android":"levelo://app?vid=0ed12020-28ec-4ae0-807c-68ed0416fc20","ios":"levelo://app?vid=0ed12020-28ec-4ae0-807c-68ed0416fc20"},"vehicle_type_id":"4","last_reported":1740161562,"current_range_meters":17600,"station_id":"ce4bhlh2rcd13ifvqgig","pricing_plan_id":"cebpf4jnsgd1na2vs0mg"},{"bike_id":"005e5eb8-39b1-40fe-bf10-36f6bd3cba88","system_id":"levelo_inurba_marseille","lat":43.28372,"lon":5.38648,"is_reserved":false,"is_disabled":false,"rental_uris":{"android":"levelo://app?vid=005e5eb8-39b1-40fe-bf10-36f6bd3cba88","ios":"levelo://app?vid=005e5eb8-39b1-40fe-bf10-36f6bd3cba88"},"vehicle_type_id":"4","last_reported":1740161562,"current_range_meters":18000,"station_id":"ce4bh492rcd13ifvqdvg","pricing_plan_id":"cebpf4jnsgd1na2vs0mg"},{"bike_id":"273c6419-dee4-4627-9d53-0902edadbc9c","system_id":"levelo_inurba_marseille","lat":43.2792,"lon":5.39583,"is_reserved":false,"is_disabled":false,"rental_uris":{"android":"levelo://app?vid=273c6419-dee4-4627-9d53-0902edadbc9c","ios":"levelo://app?vid=273c6419-dee4-4627-9d53-0902edadbc9c"},"vehicle_type_id":"4","last_reported":1740161562,"current_range_meters":18000,"station_id":"ce4bhf92rcd13ifvqf40","pricing_plan_id":"cebpf4jnsgd1na2vs0mg"},{"bike_id":"dab960d9-1ede-46dd-ade3-a5360c9021cf","system_id":"levelo_inurba_marseille","lat":43.23197,"lon":5.35557,"is_reserved":false,"is_disabled":false,"rental_uris":{"android":"levelo://app?vid=dab960d9-1ede-46dd-ade3-a5360c9021cf","ios":"levelo://app?vid=dab960d9-1ede-46dd-ade3-a5360c9021cf"},"vehicle_type_id":"4","last_reported":1740161562,"current_range_meters":18000,"station_id":"ce4bhu92rcd13ifvqi70","pricing_plan_id":"cebpf4jnsgd1na2vs0mg"},{"bike_id":"330d64ce-5713-4328-9727-7f6f0bc2e963","system_id":"levelo_inurba_marseille","lat":43.24033,"lon":5.37683,"is_reserved":false,"is_disabled":false,"rental_uris":{"android":"levelo://app?vid=330d64ce-5713-4328-9727-7f6f0bc2e963","ios":"levelo://app?vid=330d64ce-5713-4328-9727-7f6f0bc2e963"},"vehicle_type_id":"4","last_reported":1740161562,"current_range_meters":18000,"station_id":"ce4bhnp2rcd13ifvqgvg","pricing_plan_id":"cebpf4jnsgd1na2vs0mg"},{"bike_id":"af04c52e-64bc-4b40-9c5d-f4b0968fc255","system_id":"levelo_inurba_marseille","lat":43.24052,"lon":5.37761,"is_reserved":false,"is_disabled":false,"rental_uris":{"android":"levelo://app?vid=af04c52e-64bc-4b40-9c5d-f4b0968fc255","ios":"levelo://app?vid=af04c52e-64bc-4b40-9c5d-f4b0968fc255"},"vehicle_type_id":"4","last_reported":1740161562,"current_range_meters":18000,"station_id":"ce4bhnp2rcd13ifvqgvg","pricing_plan_id":"cebpf4jnsgd1na2vs0mg"},{"bike_id":"fa7bfccc-f691-45c2-8772-8deabf5e8809","system_id":"levelo_inurba_marseille","lat":43.30417,"lon":5.39751,"is_reserved":false,"is_disabled":false,"rental_uris":{"android":"levelo://app?vid=fa7bfccc-f691-45c2-8772-8deabf5e8809","ios":"levelo://app?vid=fa7bfccc-f691-45c2-8772-8deabf5e8809"},"vehicle_type_id":"4","last_reported":1740161562,"current_range_meters":18000,"station_id":"ce4bh092rcd13ifvqd20","pricing_plan_id":"cebpf4jnsgd1na2vs0mg"},{"bike_id":"d8181ae7-4fcb-4566-bd56-1f20326f5d02","system_id":"levelo_inurba_marseille","lat":43.30221,"lon":5.39466,"is_reserved":false,"is_disabled":false,"rental_uris":{"android":"levelo://app?vid=d8181ae7-4fcb-4566-bd56-1f20326f5d02","ios":"levelo://app?vid=d8181ae7-4fcb-4566-bd56-1f20326f5d02"},"vehicle_type_id":"4","last_reported":1740161562,"current_range_meters":18800,"station_id":"ce4bh0p2rcd13ifvqd70","pricing_plan_id":"cebpf4jnsgd1na2vs0mg"},{"bike_id":"1f7411cd-9379-4bab-a8bc-411b928d8602","system_id":"levelo_inurba_marseille","lat":43.27493,"lon":5.42463,"is_reserved":false,"is_disabled":false,"rental_uris":{"android":"levelo://app?vid=1f7411cd-9379-4bab-a8bc-411b928d8602","ios":"levelo://app?vid=1f7411cd-9379-4bab-a8bc-411b928d8602"},"vehicle_type_id":"4","last_reported":1740161562,"current_range_meters":18800,"station_id":"ce4bhn92rcd13ifvqgrg","pricing_plan_id":"cebpf4jnsgd1na2vs0mg"},{"bike_id":"6897935d-90c4-4aaa-81bd-a334d1112cb3","system_id":"levelo_inurba_marseille","lat":43.24678,"lon":5.38169,"is_reserved":false,"is_disabled":false,"rental_uris":{"android":"levelo://app?vid=6897935d-90c4-4aaa-81bd-a334d1112cb3","ios":"levelo://app?vid=6897935d-90c4-4aaa-81bd-a334d1112cb3"},"vehicle_type_id":"4","last_reported":1740161562,"current_range_meters":18800,"station_id":"ce4bhih2rcd13ifvqfr0","pricing_plan_id":"cebpf4jnsgd1na2vs0mg"},{"bike_id":"8b52c24a-60e9-4f95-8f6d-a404db75239c","system_id":"levelo_inurba_marseille","lat":43.27377,"lon":5.3625,"is_reserved":false,"is_disabled":false,"rental_uris":{"android":"levelo://app?vid=8b52c24a-60e9-4f95-8f6d-a404db75239c","ios":"levelo://app?vid=8b52c24a-60e9-4f95-8f6d-a404db75239c"},"vehicle_type_id":"4","last_reported":1740161562,"current_range_meters":18800,"station_id":"ce4bhbh2rcd13ifvqeo0","pricing_plan_id":"cebpf4jnsgd1na2vs0mg"},{"bike_id":"888ededb-6f2f-4a24-8193-8dfd5bb4e885","system_id":"levelo_inurba_marseille","lat":43.30147,"lon":5.38781,"is_reserved":false,"is_disabled":false,"rental_uris":{"android":"levelo://app?vid=888ededb-6f2f-4a24-8193-8dfd5bb4e885","ios":"levelo://app?vid=888ededb-6f2f-4a24-8193-8dfd5bb4e885"},"vehicle_type_id":"4","last_reported":1740161562,"current_range_meters":18800,"station_id":"ce4bghh2rcd13ifvqb60","pricing_plan_id":"cebpf4jnsgd1na2vs0mg"},{"bike_id":"3fd2a98c-7939-498c-8625-9658300a849b","system_id":"levelo_inurba_marseille","lat":43.25941,"lon":5.40902,"is_reserved":false,"is_disabled":false,"rental_uris":{"android":"levelo://app?vid=3fd2a98c-7939-498c-8625-9658300a849b","ios":"levelo://app?vid=3fd2a98c-7939-498c-8625-9658300a849b"},"vehicle_type_id":"4","last_reported":1740161562,"current_range_meters":18800,"station_id":"ce4bhm92rcd13ifvqglg","pricing_plan_id":"cebpf4jnsgd1na2vs0mg"},{"bike_id":"8c20ab15-f04e-4e58-be71-0abf1d05d250","system_id":"levelo_inurba_marseille","lat":43.23957,"lon":5.36632,"is_reserved":false,"is_disabled":false,"rental_uris":{"android":"levelo://app?vid=8c20ab15-f04e-4e58-be71-0abf1d05d250","ios":"levelo://app?vid=8c20ab15-f04e-4e58-be71-0abf1d05d250"},"vehicle_type_id":"4","last_reported":1740161562,"current_range_meters":18800,"station_id":"ce4bhi12rcd13ifvqfp0","pricing_plan_id":"cebpf4jnsgd1na2vs0mg"},{"bike_id":"466d630b-7b6f-45f5-8d0f-4023687fac52","system_id":"levelo_inurba_marseille","lat":43.27705,"lon":5.38936,"is_reserved":false,"is_disabled":false,"rental_uris":{"android":"levelo://app?vid=466d630b-7b6f-45f5-8d0f-4023687fac52","ios":"levelo://app?vid=466d630b-7b6f-45f5-8d0f-4023687fac52"},"vehicle_type_id":"4","last_reported":1740161562,"current_range_meters":18800,"station_id":"","pricing_plan_id":"cebpf4jnsgd1na2vs0mg"},{"bike_id":"fd228b2d-ff7d-4639-a1f0-c4c26edc3705","system_id":"levelo_inurba_marseille","lat":43.28571,"lon":5.39492,"is_reserved":false,"is_disabled":false,"rental_uris":{"android":"levelo://app?vid=fd228b2d-ff7d-4639-a1f0-c4c26edc3705","ios":"levelo://app?vid=fd228b2d-ff7d-4639-a1f0-c4c26edc3705"},"vehicle_type_id":"4","last_reported":1740161562,"current_range_meters":18000,"station_id":"ce4bh292rcd13ifvqdg0","pricing_plan_id":"cebpf4jnsgd1na2vs0mg"},{"bike_id":"e3492605-7899-4afd-99e1-b0fa400914f8","system_id":"levelo_inurba_marseille","lat":43.2695,"lon":5.38641,"is_reserved":false,"is_disabled":false,"rental_uris":{"android":"levelo://app?vid=e3492605-7899-4afd-99e1-b0fa400914f8","ios":"levelo://app?vid=e3492605-7899-4afd-99e1-b0fa400914f8"},"vehicle_type_id":"4","last_reported":1740161562,"current_range_meters":18800,"station_id":"ce4bhh92rcd13ifvqfh0","pricing_plan_id":"cebpf4jnsgd1na2vs0mg"},{"bike_id":"1e585f01-d2a4-4b32-8cb2-1a415700af34","system_id":"levelo_inurba_marseille","lat":43.30929,"lon":5.40143,"is_reserved":false,"is_disabled":false,"rental_uris":{"android":"levelo://app?vid=1e585f01-d2a4-4b32-8cb2-1a415700af34","ios":"levelo://app?vid=1e585f01-d2a4-4b32-8cb2-1a415700af34"},"vehicle_type_id":"4","last_reported":1740161562,"current_range_meters":18000,"station_id":"ce4bgvp2rcd13ifvqct0","pricing_plan_id":"cebpf4jnsgd1na2vs0mg"},{"bike_id":"a0373c29-8ea9-4255-9587-71aed2c34734","system_id":"levelo_inurba_marseille","lat":43.29227,"lon":5.36057,"is_reserved":false,"is_disabled":false,"rental_uris":{"android":"levelo://app?vid=a0373c29-8ea9-4255-9587-71aed2c34734","ios":"levelo://app?vid=a0373c29-8ea9-4255-9587-71aed2c34734"},"vehicle_type_id":"4","last_reported":1740161562,"current_range_meters":18800,"station_id":"ce4bhbh2rcd13ifvqeqg","pricing_plan_id":"cebpf4jnsgd1na2vs0mg"},{"bike_id":"ff49b8bb-82c8-4782-bb98-ae74ae771eef","system_id":"levelo_inurba_marseille","lat":43.29601,"lon":5.381,"is_reserved":false,"is_disabled":false,"rental_uris":{"android":"levelo://app?vid=ff49b8bb-82c8-4782-bb98-ae74ae771eef","ios":"levelo://app?vid=ff49b8bb-82c8-4782-bb98-ae74ae771eef"},"vehicle_type_id":"4","last_reported":1740161562,"current_range_meters":18800,"station_id":"ce4bgl12rcd13ifvqbo0","pricing_plan_id":"cebpf4jnsgd1na2vs0mg"},{"bike_id":"11702b8a-a35d-41db-b457-a50349a711d9","system_id":"levelo_inurba_marseille","lat":43.29798,"lon":5.38081,"is_reserved":false,"is_disabled":false,"rental_uris":{"android":"levelo://app?vid=11702b8a-a35d-41db-b457-a50349a711d9","ios":"levelo://app?vid=11702b8a-a35d-41db-b457-a50349a711d9"},"vehicle_type_id":"4","last_reported":1740161562,"current_range_meters":18800,"station_id":"ce4bgip2rcd13ifvqbb0","pricing_plan_id":"cebpf4jnsgd1na2vs0mg"},{"bike_id":"2fbfa42e-4715-40dd-9c55-f2d163b2d6df","system_id":"levelo_inurba_marseille","lat":43.28718,"lon":5.373929,"is_reserved":false,"is_disabled":false,"rental_uris":{"android":"levelo://app?vid=2fbfa42e-4715-40dd-9c55-f2d163b2d6df","ios":"levelo://app?vid=2fbfa42e-4715-40dd-9c55-f2d163b2d6df"},"vehicle_type_id":"4","last_reported":1740161562,"current_range_meters":19200,"station_id":"ce4bhbh2rcd13ifvqeo0","pricing_plan_id":"cebpf4jnsgd1na2vs0mg"},{"bike_id":"da095a97-6be5-4b23-8040-616ab55909e4","system_id":"levelo_inurba_marseille","lat":43.30213,"lon":5.39461,"is_reserved":false,"is_disabled":false,"rental_uris":{"android":"levelo://app?vid=da095a97-6be5-4b23-8040-616ab55909e4","ios":"levelo://app?vid=da095a97-6be5-4b23-8040-616ab55909e4"},"vehicle_type_id":"4","last_reported":1740161562,"current_range_meters":19200,"station_id":"ce4bh0p2rcd13ifvqd70","pricing_plan_id":"cebpf4jnsgd1na2vs0mg"},{"bike_id":"0b4b6c33-07be-4a76-a0f4-6d396661e952","system_id":"levelo_inurba_marseille","lat":43.28931,"lon":5.36394,"is_reserved":false,"is_disabled":false,"rental_uris":{"android":"levelo://app?vid=0b4b6c33-07be-4a76-a0f4-6d396661e952","ios":"levelo://app?vid=0b4b6c33-07be-4a76-a0f4-6d396661e952"},"vehicle_type_id":"4","last_reported":1740161562,"current_range_meters":19200,"station_id":"ce4bhc92rcd13ifvqetg","pricing_plan_id":"cebpf4jnsgd1na2vs0mg"},{"bike_id":"65b78bbd-841c-4ec1-b321-e5a7b067dd82","system_id":"levelo_inurba_marseille","lat":43.31272,"lon":5.40169,"is_reserved":false,"is_disabled":false,"rental_uris":{"android":"levelo://app?vid=65b78bbd-841c-4ec1-b321-e5a7b067dd82","ios":"levelo://app?vid=65b78bbd-841c-4ec1-b321-e5a7b067dd82"},"vehicle_type_id":"4","last_reported":1740161562,"current_range_meters":19200,"station_id":"ce4bh092rcd13ifvqd30","pricing_plan_id":"cebpf4jnsgd1na2vs0mg"},{"bike_id":"764b177b-c16e-469e-9836-cdf4d1ab9313","system_id":"levelo_inurba_marseille","lat":43.29272,"lon":5.37438,"is_reserved":false,"is_disabled":false,"rental_uris":{"android":"levelo://app?vid=764b177b-c16e-469e-9836-cdf4d1ab9313","ios":"levelo://app?vid=764b177b-c16e-469e-9836-cdf4d1ab9313"},"vehicle_type_id":"4","last_reported":1740161562,"current_range_meters":19200,"station_id":"ce4bgi12rcd13ifvqb70","pricing_plan_id":"cebpf4jnsgd1na2vs0mg"},{"bike_id":"6768a68a-fd64-4306-8c95-e9fedb3d1e0a","system_id":"levelo_inurba_marseille","lat":43.30134,"lon":5.38777,"is_reserved":false,"is_disabled":false,"rental_uris":{"android":"levelo://app?vid=6768a68a-fd64-4306-8c95-e9fedb3d1e0a","ios":"levelo://app?vid=6768a68a-fd64-4306-8c95-e9fedb3d1e0a"},"vehicle_type_id":"4","last_reported":1740161562,"current_range_meters":19200,"station_id":"ce4bghh2rcd13ifvqb60","pricing_plan_id":"cebpf4jnsgd1na2vs0mg"},{"bike_id":"38f9bc40-639e-4f64-87e9-15092cc7344e","system_id":"levelo_inurba_marseille","lat":43.34407,"lon":5.38166,"is_reserved":false,"is_disabled":false,"rental_uris":{"android":"levelo://app?vid=38f9bc40-639e-4f64-87e9-15092cc7344e","ios":"levelo://app?vid=38f9bc40-639e-4f64-87e9-15092cc7344e"},"vehicle_type_id":"4","last_reported":1740161562,"current_range_meters":19200,"station_id":"","pricing_plan_id":"cebpf4jnsgd1na2vs0mg"},{"bike_id":"ab46b189-6bae-4129-a7fd-10b3ccd5a48e","system_id":"levelo_inurba_marseille","lat":43.2712,"lon":5.40008,"is_reserved":false,"is_disabled":false,"rental_uris":{"android":"levelo://app?vid=ab46b189-6bae-4129-a7fd-10b3ccd5a48e","ios":"levelo://app?vid=ab46b189-6bae-4129-a7fd-10b3ccd5a48e"},"vehicle_type_id":"4","last_reported":1740161562,"current_range_meters":19200,"station_id":"","pricing_plan_id":"cebpf4jnsgd1na2vs0mg"},{"bike_id":"9b6c1f29-88af-4b3a-8cb7-b2b26744cb25","system_id":"levelo_inurba_marseille","lat":43.27996,"lon":5.40014,"is_reserved":false,"is_disabled":false,"rental_uris":{"android":"levelo://app?vid=9b6c1f29-88af-4b3a-8cb7-b2b26744cb25","ios":"levelo://app?vid=9b6c1f29-88af-4b3a-8cb7-b2b26744cb25"},"vehicle_type_id":"4","last_reported":1740161562,"current_range_meters":19200,"station_id":"ce4bho92rcd13ifvqh4g","pricing_plan_id":"cebpf4jnsgd1na2vs0mg"},{"bike_id":"02c1b320-831e-4668-b5ae-8bae8dcc65b6","system_id":"levelo_inurba_marseille","lat":43.28573,"lon":5.39501,"is_reserved":false,"is_disabled":false,"rental_uris":{"android":"levelo://app?vid=02c1b320-831e-4668-b5ae-8bae8dcc65b6","ios":"levelo://app?vid=02c1b320-831e-4668-b5ae-8bae8dcc65b6"},"vehicle_type_id":"4","last_reported":1740161562,"current_range_meters":18800,"station_id":"ce4bh292rcd13ifvqdg0","pricing_plan_id":"cebpf4jnsgd1na2vs0mg"},{"bike_id":"6645d7fd-5ec0-4513-acce-381f820778b4","system_id":"levelo_inurba_marseille","lat":43.28413,"lon":5.37517,"is_reserved":false,"is_disabled":false,"rental_uris":{"android":"levelo://app?vid=6645d7fd-5ec0-4513-acce-381f820778b4","ios":"levelo://app?vid=6645d7fd-5ec0-4513-acce-381f820778b4"},"vehicle_type_id":"4","last_reported":1740161562,"current_range_meters":19200,"station_id":"ce4bh412rcd13ifvqds0","pricing_plan_id":"cebpf4jnsgd1na2vs0mg"},{"bike_id":"f5298310-14cd-4aed-bc3f-841e7d37dcf5","system_id":"levelo_inurba_marseille","lat":43.32655,"lon":5.40994,"is_reserved":false,"is_disabled":true,"rental_uris":{"android":"levelo://app?vid=f5298310-14cd-4aed-bc3f-841e7d37dcf5","ios":"levelo://app?vid=f5298310-14cd-4aed-bc3f-841e7d37dcf5"},"vehicle_type_id":"4","last_reported":1740161562,"current_range_meters":19200,"station_id":"ce4bhpp2rcd13ifvqhgg","pricing_plan_id":"cebpf4jnsgd1na2vs0mg"},{"bike_id":"8e092e3b-9bc2-43fe-ae0c-18b50e3239ce","system_id":"levelo_inurba_marseille","lat":43.29072,"lon":5.37165,"is_reserved":false,"is_disabled":false,"rental_uris":{"android":"levelo://app?vid=8e092e3b-9bc2-43fe-ae0c-18b50e3239ce","ios":"levelo://app?vid=8e092e3b-9bc2-43fe-ae0c-18b50e3239ce"},"vehicle_type_id":"4","last_reported":1740161562,"current_range_meters":19200,"station_id":"ce4bh5p2rcd13ifvqe4g","pricing_plan_id":"cebpf4jnsgd1na2vs0mg"},{"bike_id":"e74a6e9d-596b-460d-864b-dba1a19197fd","system_id":"levelo_inurba_marseille","lat":43.28358,"lon":5.381,"is_reserved":false,"is_disabled":false,"rental_uris":{"android":"levelo://app?vid=e74a6e9d-596b-460d-864b-dba1a19197fd","ios":"levelo://app?vid=e74a6e9d-596b-460d-864b-dba1a19197fd"},"vehicle_type_id":"4","last_reported":1740161562,"current_range_meters":19200,"station_id":"ce4bh412rcd13ifvqdr0","pricing_plan_id":"cebpf4jnsgd1na2vs0mg"},{"bike_id":"6407674e-746c-4106-8919-010d821e171c","system_id":"levelo_inurba_marseille","lat":43.27799,"lon":5.407203,"is_reserved":false,"is_disabled":false,"rental_uris":{"android":"levelo://app?vid=6407674e-746c-4106-8919-010d821e171c","ios":"levelo://app?vid=6407674e-746c-4106-8919-010d821e171c"},"vehicle_type_id":"4","last_reported":1740161562,"current_range_meters":19600,"station_id":"ce4bhnh2rcd13ifvqgtg","pricing_plan_id":"cebpf4jnsgd1na2vs0mg"},{"bike_id":"418204bb-d845-489c-a63c-8be02144db94","system_id":"levelo_inurba_marseille","lat":43.28618,"lon":5.38347,"is_reserved":false,"is_disabled":false,"rental_uris":{"android":"levelo://app?vid=418204bb-d845-489c-a63c-8be02144db94","ios":"levelo://app?vid=418204bb-d845-489c-a63c-8be02144db94"},"vehicle_type_id":"4","last_reported":1740161562,"current_range_meters":19600,"station_id":"","pricing_plan_id":"cebpf4jnsgd1na2vs0mg"},{"bike_id":"1ba84607-88b3-4793-a4e7-dca4302fce98","system_id":"levelo_inurba_marseille","lat":43.28345,"lon":5.38106,"is_reserved":false,"is_disabled":false,"rental_uris":{"android":"levelo://app?vid=1ba84607-88b3-4793-a4e7-dca4302fce98","ios":"levelo://app?vid=1ba84607-88b3-4793-a4e7-dca4302fce98"},"vehicle_type_id":"4","last_reported":1740161562,"current_range_meters":19600,"station_id":"ce4bh412rcd13ifvqdr0","pricing_plan_id":"cebpf4jnsgd1na2vs0mg"},{"bike_id":"000ba060-d333-4e07-9b82-25c3408a5325","system_id":"levelo_inurba_marseille","lat":43.29593,"lon":5.36744,"is_reserved":false,"is_disabled":false,"rental_uris":{"android":"levelo://app?vid=000ba060-d333-4e07-9b82-25c3408a5325","ios":"levelo://app?vid=000ba060-d333-4e07-9b82-25c3408a5325"},"vehicle_type_id":"4","last_reported":1740161562,"current_range_meters":19600,"station_id":"ce4bgph2rcd13ifvqc2g","pricing_plan_id":"cebpf4jnsgd1na2vs0mg"},{"bike_id":"3956cc44-fc75-4f94-89d5-9c133698b60d","system_id":"levelo_inurba_marseille","lat":43.30021,"lon":5.37184,"is_reserved":false,"is_disabled":true,"rental_uris":{"android":"levelo://app?vid=3956cc44-fc75-4f94-89d5-9c133698b60d","ios":"levelo://app?vid=3956cc44-fc75-4f94-89d5-9c133698b60d"},"vehicle_type_id":"4","last_reported":1740161562,"current_range_meters":20000,"station_id":"","pricing_plan_id":"cebpf4jnsgd1na2vs0mg"},{"bike_id":"e01dfe29-6dfb-48cd-936c-078e409f7481","system_id":"levelo_inurba_marseille","lat":43.28428,"lon":5.34988,"is_reserved":false,"is_disabled":false,"rental_uris":{"android":"levelo://app?vid=e01dfe29-6dfb-48cd-936c-078e409f7481","ios":"levelo://app?vid=e01dfe29-6dfb-48cd-936c-078e409f7481"},"vehicle_type_id":"4","last_reported":1740161562,"current_range_meters":20000,"station_id":"ce4bhbh2rcd13ifvqepg","pricing_plan_id":"cebpf4jnsgd1na2vs0mg"},{"bike_id":"4780e45d-46f4-4499-bddd-097651625f59","system_id":"levelo_inurba_marseille","lat":43.31118,"lon":5.37761,"is_reserved":false,"is_disabled":false,"rental_uris":{"android":"levelo://app?vid=4780e45d-46f4-4499-bddd-097651625f59","ios":"levelo://app?vid=4780e45d-46f4-4499-bddd-097651625f59"},"vehicle_type_id":"4","last_reported":1740161562,"current_range_meters":20000,"station_id":"ce4bgt92rcd13ifvqcg0","pricing_plan_id":"cebpf4jnsgd1na2vs0mg"},{"bike_id":"2492220b-5861-4ccb-8f12-56729b876f72","system_id":"levelo_inurba_marseille","lat":43.28001,"lon":5.40008,"is_reserved":false,"is_disabled":false,"rental_uris":{"android":"levelo://app?vid=2492220b-5861-4ccb-8f12-56729b876f72","ios":"levelo://app?vid=2492220b-5861-4ccb-8f12-56729b876f72"},"vehicle_type_id":"4","last_reported":1740161562,"current_range_meters":20000,"station_id":"ce4bho92rcd13ifvqh4g","pricing_plan_id":"cebpf4jnsgd1na2vs0mg"},{"bike_id":"5cfa87b0-3a73-4167-8775-59a66ca8aac2","system_id":"levelo_inurba_marseille","lat":43.274916,"lon":5.389658,"is_reserved":false,"is_disabled":false,"rental_uris":{"android":"levelo://app?vid=5cfa87b0-3a73-4167-8775-59a66ca8aac2","ios":"levelo://app?vid=5cfa87b0-3a73-4167-8775-59a66ca8aac2"},"vehicle_type_id":"4","last_reported":1740161562,"current_range_meters":20000,"station_id":"ce4bh292rcd13ifvqdg0","pricing_plan_id":"cebpf4jnsgd1na2vs0mg"},{"bike_id":"96f698fc-49f5-4636-b6dc-07ace91a44b8","system_id":"levelo_inurba_marseille","lat":43.246569,"lon":5.381659,"is_reserved":false,"is_disabled":false,"rental_uris":{"android":"levelo://app?vid=96f698fc-49f5-4636-b6dc-07ace91a44b8","ios":"levelo://app?vid=96f698fc-49f5-4636-b6dc-07ace91a44b8"},