{"last_updated":1729246260,"ttl":60,"version":"2.2","data":{"bikes":[{"bike_id":"91f7b89c-94af-4b24-a9ec-51b38c180000","system_id":"levelo_inurba_marseille","lat":43.29557,"lon":5.4229,"is_reserved":false,"is_disabled":false,"rental_uris":{"android":"levelo://app?vid=91f7b89c-94af-4b24-a9ec-51b38c180000","ios":"levelo://app?vid=91f7b89c-94af-4b24-a9ec-51b38c180000"},"vehicle_type_id":"4","last_reported":1729246260,"current_range_meters":32400,"station_id":"ce4bhph2rcd13ifvqhdg","pricing_plan_id":"cebpf4jnsgd1na2vs0mg"},{"bike_id":"88a6a387-5bcf-469b-91ce-94ad492af049","system_id":"levelo_inurba_marseille","lat":43.32109,"lon":5.36766,"is_reserved":false,"is_disabled":false,"rental_uris":{"android":"levelo://app?vid=88a6a387-5bcf-469b-91ce-94ad492af049","ios":"levelo://app?vid=88a6a387-5bcf-469b-91ce-94ad492af049"},"vehicle_type_id":"4","last_reported":1729246260,"current_range_meters":4400,"station_id":"ce4bhrh2rcd13ifvqhug","pricing_plan_id":"cebpf4jnsgd1na2vs0mg"},{"bike_id":"8a416fff-b165-4e17-8c6c-34054add7e79","system_id":"levelo_inurba_marseille","lat":43.28149,"lon":5.42619,"is_reserved":false,"is_disabled":false,"rental_uris":{"android":"levelo://app?vid=8a416fff-b165-4e17-8c6c-34054add7e79","ios":"levelo://app?vid=8a416fff-b165-4e17-8c6c-34054add7e79"},"vehicle_type_id":"4","last_reported":1729246260,"current_range_meters":24000,"station_id":"ce4bhnh2rcd13ifvqgug","pricing_plan_id":"cebpf4jnsgd1na2vs0mg"},{"bike_id":"676ec6c4-6b42-43e0-81fe-327782965da5","system_id":"levelo_inurba_marseille","lat":43.33765,"lon":5.37484,"is_reserved":false,"is_disabled":false,"rental_uris":{"android":"levelo://app?vid=676ec6c4-6b42-43e0-81fe-327782965da5","ios":"levelo://app?vid=676ec6c4-6b42-43e0-81fe-327782965da5"},"vehicle_type_id":"4","last_reported":1729246260,"current_range_meters":18800,"station_id":"","pricing_plan_id":"cebpf4jnsgd1na2vs0mg"},{"bike_id":"1acf01a6-70d4-43ee-9625-7723a2a67f94","system_id":"levelo_inurba_marseille","lat":43.24179,"lon":5.39722,"is_reserved":false,"is_disabled":false,"rental_uris":{"android":"levelo://app?vid=1acf01a6-70d4-43ee-9625-7723a2a67f94","ios":"levelo://app?vid=1acf01a6-70d4-43ee-9625-7723a2a67f94"},"vehicle_type_id":"4","last_reported":1729246260,"current_range_meters":38000,"station_id":"ce4bhn12rcd13ifvqgpg","pricing_plan_id":"cebpf4jnsgd1na2vs0mg"},{"bike_id":"86bbbfa5-cce0-411f-b8ba-ef9db6cc0a42","system_id":"levelo_inurba_marseille","lat":43.313477,"lon":5.36731,"is_reserved":false,"is_disabled":false,"rental_uris":{"android":"levelo://app?vid=86bbbfa5-cce0-411f-b8ba-ef9db6cc0a42","ios":"levelo://app?vid=86bbbfa5-cce0-411f-b8ba-ef9db6cc0a42"},"vehicle_type_id":"4","last_reported":1729246260,"current_range_meters":22400,"station_id":"ce4bgr92rcd13ifvqc6g","pricing_plan_id":"cebpf4jnsgd1na2vs0mg"},{"bike_id":"464165e7-5526-4a31-8741-132004cc56e0","system_id":"levelo_inurba_marseille","lat":43.29786,"lon":5.38109,"is_reserved":false,"is_disabled":false,"rental_uris":{"android":"levelo://app?vid=464165e7-5526-4a31-8741-132004cc56e0","ios":"levelo://app?vid=464165e7-5526-4a31-8741-132004cc56e0"},"vehicle_type_id":"4","last_reported":1729246260,"current_range_meters":38800,"station_id":"ce4bgip2rcd13ifvqbb0","pricing_plan_id":"cebpf4jnsgd1na2vs0mg"},{"bike_id":"cf30a138-86f7-4159-8eea-132a3e8b34e9","system_id":"levelo_inurba_marseille","lat":43.25936,"lon":5.40909,"is_reserved":false,"is_disabled":false,"rental_uris":{"android":"levelo://app?vid=cf30a138-86f7-4159-8eea-132a3e8b34e9","ios":"levelo://app?vid=cf30a138-86f7-4159-8eea-132a3e8b34e9"},"vehicle_type_id":"4","last_reported":1729246260,"current_range_meters":17200,"station_id":"ce4bhm92rcd13ifvqglg","pricing_plan_id":"cebpf4jnsgd1na2vs0mg"},{"bike_id":"2f4f356a-720a-4120-978c-c810a46e91dc","system_id":"levelo_inurba_marseille","lat":43.2957,"lon":5.39982,"is_reserved":false,"is_disabled":false,"rental_uris":{"android":"levelo://app?vid=2f4f356a-720a-4120-978c-c810a46e91dc","ios":"levelo://app?vid=2f4f356a-720a-4120-978c-c810a46e91dc"},"vehicle_type_id":"4","last_reported":1729246260,"current_range_meters":4400,"station_id":"ce4bh312rcd13ifvqdj0","pricing_plan_id":"cebpf4jnsgd1na2vs0mg"},{"bike_id":"25668d1a-6b94-4045-a721-d94eb38e1ae7","system_id":"levelo_inurba_marseille","lat":43.27372,"lon":5.3625,"is_reserved":false,"is_disabled":false,"rental_uris":{"android":"levelo://app?vid=25668d1a-6b94-4045-a721-d94eb38e1ae7","ios":"levelo://app?vid=25668d1a-6b94-4045-a721-d94eb38e1ae7"},"vehicle_type_id":"4","last_reported":1729246260,"current_range_meters":31200,"station_id":"ce4bhbh2rcd13ifvqeo0","pricing_plan_id":"cebpf4jnsgd1na2vs0mg"},{"bike_id":"dccf0f04-4e67-4c53-a7b2-6636b5a9de32","system_id":"levelo_inurba_marseille","lat":43.28136,"lon":5.42648,"is_reserved":false,"is_disabled":false,"rental_uris":{"android":"levelo://app?vid=dccf0f04-4e67-4c53-a7b2-6636b5a9de32","ios":"levelo://app?vid=dccf0f04-4e67-4c53-a7b2-6636b5a9de32"},"vehicle_type_id":"4","last_reported":1729246260,"current_range_meters":12800,"station_id":"ce4bhnh2rcd13ifvqgug","pricing_plan_id":"cebpf4jnsgd1na2vs0mg"},{"bike_id":"0e9ad9af-e89b-412e-a7df-344fe8f113f7","system_id":"levelo_inurba_marseille","lat":43.25,"lon":5.38918,"is_reserved":false,"is_disabled":false,"rental_uris":{"android":"levelo://app?vid=0e9ad9af-e89b-412e-a7df-344fe8f113f7","ios":"levelo://app?vid=0e9ad9af-e89b-412e-a7df-344fe8f113f7"},"vehicle_type_id":"4","last_reported":1729246260,"current_range_meters":39200,"station_id":"ce4bhgp2rcd13ifvqfd0","pricing_plan_id":"cebpf4jnsgd1na2vs0mg"},{"bike_id":"91ac8fa7-b7c8-4143-be6d-e2ffbaedc096","system_id":"levelo_inurba_marseille","lat":43.27065,"lon":5.42269,"is_reserved":false,"is_disabled":false,"rental_uris":{"android":"levelo://app?vid=91ac8fa7-b7c8-4143-be6d-e2ffbaedc096","ios":"levelo://app?vid=91ac8fa7-b7c8-4143-be6d-e2ffbaedc096"},"vehicle_type_id":"4","last_reported":1729246260,"current_range_meters":34800,"station_id":"ce4bhk92rcd13ifvqgb0","pricing_plan_id":"cebpf4jnsgd1na2vs0mg"},{"bike_id":"d18f5ed9-7c56-41eb-ac71-055f9b198acc","system_id":"levelo_inurba_marseille","lat":43.282706,"lon":5.350607,"is_reserved":false,"is_disabled":false,"rental_uris":{"android":"levelo://app?vid=d18f5ed9-7c56-41eb-ac71-055f9b198acc","ios":"levelo://app?vid=d18f5ed9-7c56-41eb-ac71-055f9b198acc"},"vehicle_type_id":"4","last_reported":1729246260,"current_range_meters":22800,"station_id":"ce4bhbp2rcd13ifvqerg","pricing_plan_id":"cebpf4jnsgd1na2vs0mg"},{"bike_id":"ef00c94a-e76e-4e00-bfec-e40b8a260288","system_id":"levelo_inurba_marseille","lat":43.254974,"lon":5.376438,"is_reserved":false,"is_disabled":false,"rental_uris":{"android":"levelo://app?vid=ef00c94a-e76e-4e00-bfec-e40b8a260288","ios":"levelo://app?vid=ef00c94a-e76e-4e00-bfec-e40b8a260288"},"vehicle_type_id":"4","last_reported":1729246260,"current_range_meters":38800,"station_id":"ce4bhh12rcd13ifvqff0","pricing_plan_id":"cebpf4jnsgd1na2vs0mg"},{"bike_id":"a71414de-d2ee-4a17-94ea-50f620ba8558","system_id":"levelo_inurba_marseille","lat":43.28419,"lon":5.34982,"is_reserved":false,"is_disabled":false,"rental_uris":{"android":"levelo://app?vid=a71414de-d2ee-4a17-94ea-50f620ba8558","ios":"levelo://app?vid=a71414de-d2ee-4a17-94ea-50f620ba8558"},"vehicle_type_id":"4","last_reported":1729246260,"current_range_meters":39200,"station_id":"ce4bhbh2rcd13ifvqepg","pricing_plan_id":"cebpf4jnsgd1na2vs0mg"},{"bike_id":"b68db7eb-3f6e-47b8-8f8f-039c933dde7d","system_id":"levelo_inurba_marseille","lat":43.25581,"lon":5.38223,"is_reserved":false,"is_disabled":false,"rental_uris":{"android":"levelo://app?vid=b68db7eb-3f6e-47b8-8f8f-039c933dde7d","ios":"levelo://app?vid=b68db7eb-3f6e-47b8-8f8f-039c933dde7d"},"vehicle_type_id":"4","last_reported":1729246260,"current_range_meters":19200,"station_id":"ce4bhih2rcd13ifvqfs0","pricing_plan_id":"cebpf4jnsgd1na2vs0mg"},{"bike_id":"29d12a33-823d-4548-bba6-ab22c89ac591","system_id":"levelo_inurba_marseille","lat":43.26688,"lon":5.38275,"is_reserved":false,"is_disabled":false,"rental_uris":{"android":"levelo://app?vid=29d12a33-823d-4548-bba6-ab22c89ac591","ios":"levelo://app?vid=29d12a33-823d-4548-bba6-ab22c89ac591"},"vehicle_type_id":"4","last_reported":1729246260,"current_range_meters":38000,"station_id":"ce4bhg92rcd13ifvqf90","pricing_plan_id":"cebpf4jnsgd1na2vs0mg"},{"bike_id":"88ed0f9f-e90c-4cb7-aed8-4122cf81bf11","system_id":"levelo_inurba_marseille","lat":43.26033,"lon":5.37553,"is_reserved":false,"is_disabled":false,"rental_uris":{"android":"levelo://app?vid=88ed0f9f-e90c-4cb7-aed8-4122cf81bf11","ios":"levelo://app?vid=88ed0f9f-e90c-4cb7-aed8-4122cf81bf11"},"vehicle_type_id":"4","last_reported":1729246260,"current_range_meters":38400,"station_id":"ce4bhgh2rcd13ifvqfa0","pricing_plan_id":"cebpf4jnsgd1na2vs0mg"},{"bike_id":"4ae2c184-8c50-452d-87fb-8f7bf4f540f3","system_id":"levelo_inurba_marseille","lat":43.2465,"lon":5.38896,"is_reserved":false,"is_disabled":false,"rental_uris":{"android":"levelo://app?vid=4ae2c184-8c50-452d-87fb-8f7bf4f540f3","ios":"levelo://app?vid=4ae2c184-8c50-452d-87fb-8f7bf4f540f3"},"vehicle_type_id":"4","last_reported":1729246260,"current_range_meters":38800,"station_id":"ce4bhg12rcd13ifvqf60","pricing_plan_id":"cebpf4jnsgd1na2vs0mg"},{"bike_id":"4d541c30-2afa-4623-bc52-da6a261edbc4","system_id":"levelo_inurba_marseille","lat":43.29602,"lon":5.381,"is_reserved":false,"is_disabled":false,"rental_uris":{"android":"levelo://app?vid=4d541c30-2afa-4623-bc52-da6a261edbc4","ios":"levelo://app?vid=4d541c30-2afa-4623-bc52-da6a261edbc4"},"vehicle_type_id":"4","last_reported":1729246260,"current_range_meters":39200,"station_id":"ce4bgl12rcd13ifvqbo0","pricing_plan_id":"cebpf4jnsgd1na2vs0mg"},{"bike_id":"d0fae496-82f2-4fb9-80de-d49c86b5fd33","system_id":"levelo_inurba_marseille","lat":43.24546,"lon":5.3952,"is_reserved":false,"is_disabled":false,"rental_uris":{"android":"levelo://app?vid=d0fae496-82f2-4fb9-80de-d49c86b5fd33","ios":"levelo://app?vid=d0fae496-82f2-4fb9-80de-d49c86b5fd33"},"vehicle_type_id":"4","last_reported":1729246260,"current_range_meters":25600,"station_id":"ce4bhlp2rcd13ifvqgjg","pricing_plan_id":"cebpf4jnsgd1na2vs0mg"},{"bike_id":"2f4d40f2-8a71-42ab-b06b-27e39fde1509","system_id":"levelo_inurba_marseille","lat":43.25585,"lon":5.38224,"is_reserved":false,"is_disabled":false,"rental_uris":{"android":"levelo://app?vid=2f4d40f2-8a71-42ab-b06b-27e39fde1509","ios":"levelo://app?vid=2f4d40f2-8a71-42ab-b06b-27e39fde1509"},"vehicle_type_id":"4","last_reported":1729246260,"current_range_meters":7200,"station_id":"ce4bhih2rcd13ifvqfs0","pricing_plan_id":"cebpf4jnsgd1na2vs0mg"},{"bike_id":"5bdd134b-7ea6-40ee-aae3-e29fd0f285d7","system_id":"levelo_inurba_marseille","lat":43.24393,"lon":5.37055,"is_reserved":false,"is_disabled":false,"rental_uris":{"android":"levelo://app?vid=5bdd134b-7ea6-40ee-aae3-e29fd0f285d7","ios":"levelo://app?vid=5bdd134b-7ea6-40ee-aae3-e29fd0f285d7"},"vehicle_type_id":"4","last_reported":1729246260,"current_range_meters":32800,"station_id":"ce4bhhh2rcd13ifvqfk0","pricing_plan_id":"cebpf4jnsgd1na2vs0mg"},{"bike_id":"cd597893-516c-4bdd-8b50-9548df2ead37","system_id":"levelo_inurba_marseille","lat":43.30099,"lon":5.39083,"is_reserved":false,"is_disabled":false,"rental_uris":{"android":"levelo://app?vid=cd597893-516c-4bdd-8b50-9548df2ead37","ios":"levelo://app?vid=cd597893-516c-4bdd-8b50-9548df2ead37"},"vehicle_type_id":"4","last_reported":1729246260,"current_range_meters":12400,"station_id":"ce4bh192rcd13ifvqdb0","pricing_plan_id":"cebpf4jnsgd1na2vs0mg"},{"bike_id":"d5d87b96-496a-454b-9e81-b0e5a09c72cf","system_id":"levelo_inurba_marseille","lat":43.28613,"lon":5.37061,"is_reserved":false,"is_disabled":false,"rental_uris":{"android":"levelo://app?vid=d5d87b96-496a-454b-9e81-b0e5a09c72cf","ios":"levelo://app?vid=d5d87b96-496a-454b-9e81-b0e5a09c72cf"},"vehicle_type_id":"4","last_reported":1729246260,"current_range_meters":37600,"station_id":"ce4bht12rcd13ifvqi60","pricing_plan_id":"cebpf4jnsgd1na2vs0mg"},{"bike_id":"c664c061-e4f3-4e88-a3b3-53b8afa76dc4","system_id":"levelo_inurba_marseille","lat":43.32479,"lon":5.36561,"is_reserved":false,"is_disabled":false,"rental_uris":{"android":"levelo://app?vid=c664c061-e4f3-4e88-a3b3-53b8afa76dc4","ios":"levelo://app?vid=c664c061-e4f3-4e88-a3b3-53b8afa76dc4"},"vehicle_type_id":"4","last_reported":1729246260,"current_range_meters":11600,"station_id":"ce4bhs12rcd13ifvqhvg","pricing_plan_id":"cebpf4jnsgd1na2vs0mg"},{"bike_id":"59d5f6fa-4be8-4fd5-8315-253d8449e18b","system_id":"levelo_inurba_marseille","lat":43.326538,"lon":5.410021,"is_reserved":false,"is_disabled":false,"rental_uris":{"android":"levelo://app?vid=59d5f6fa-4be8-4fd5-8315-253d8449e18b","ios":"levelo://app?vid=59d5f6fa-4be8-4fd5-8315-253d8449e18b"},"vehicle_type_id":"4","last_reported":1729246260,"current_range_meters":13600,"station_id":"ce4bhpp2rcd13ifvqhgg","pricing_plan_id":"cebpf4jnsgd1na2vs0mg"},{"bike_id":"14bc89c2-4375-4488-91e8-1027b3555b6b","system_id":"levelo_inurba_marseille","lat":43.24541,"lon":5.39525,"is_reserved":false,"is_disabled":false,"rental_uris":{"android":"levelo://app?vid=14bc89c2-4375-4488-91e8-1027b3555b6b","ios":"levelo://app?vid=14bc89c2-4375-4488-91e8-1027b3555b6b"},"vehicle_type_id":"4","last_reported":1729246260,"current_range_meters":38800,"station_id":"ce4bhlp2rcd13ifvqgjg","pricing_plan_id":"cebpf4jnsgd1na2vs0mg"},{"bike_id":"c746da30-0175-4c63-8cc4-f4d0284e8127","system_id":"levelo_inurba_marseille","lat":43.239643,"lon":5.366338,"is_reserved":false,"is_disabled":false,"rental_uris":{"android":"levelo://app?vid=c746da30-0175-4c63-8cc4-f4d0284e8127","ios":"levelo://app?vid=c746da30-0175-4c63-8cc4-f4d0284e8127"},"vehicle_type_id":"4","last_reported":1729246260,"current_range_meters":22800,"station_id":"ce4bhi12rcd13ifvqfp0","pricing_plan_id":"cebpf4jnsgd1na2vs0mg"},{"bike_id":"6f1e6837-daab-45c8-9ac4-b3dc560a9b28","system_id":"levelo_inurba_marseille","lat":43.26202,"lon":5.37926,"is_reserved":false,"is_disabled":false,"rental_uris":{"android":"levelo://app?vid=6f1e6837-daab-45c8-9ac4-b3dc560a9b28","ios":"levelo://app?vid=6f1e6837-daab-45c8-9ac4-b3dc560a9b28"},"vehicle_type_id":"4","last_reported":1729246260,"current_range_meters":32800,"station_id":"ce4bhjp2rcd13ifvqg90","pricing_plan_id":"cebpf4jnsgd1na2vs0mg"},{"bike_id":"278c2e6f-55c5-418e-802c-4af4cd9f1665","system_id":"levelo_inurba_marseille","lat":43.32485,"lon":5.36566,"is_reserved":false,"is_disabled":false,"rental_uris":{"android":"levelo://app?vid=278c2e6f-55c5-418e-802c-4af4cd9f1665","ios":"levelo://app?vid=278c2e6f-55c5-418e-802c-4af4cd9f1665"},"vehicle_type_id":"4","last_reported":1729246260,"current_range_meters":9600,"station_id":"ce4bhs12rcd13ifvqhvg","pricing_plan_id":"cebpf4jnsgd1na2vs0mg"},{"bike_id":"a30ba6e9-23ef-41c4-b5e6-bf55ee4fe6c5","system_id":"levelo_inurba_marseille","lat":43.30145,"lon":5.37423,"is_reserved":false,"is_disabled":false,"rental_uris":{"android":"levelo://app?vid=a30ba6e9-23ef-41c4-b5e6-bf55ee4fe6c5","ios":"levelo://app?vid=a30ba6e9-23ef-41c4-b5e6-bf55ee4fe6c5"},"vehicle_type_id":"4","last_reported":1729246260,"current_range_meters":28800,"station_id":"ce4bgs92rcd13ifvqcc0","pricing_plan_id":"cebpf4jnsgd1na2vs0mg"},{"bike_id":"9bc751c2-897b-42a3-8a10-36f8a493bb07","system_id":"levelo_inurba_marseille","lat":43.27991,"lon":5.40952,"is_reserved":false,"is_disabled":false,"rental_uris":{"android":"levelo://app?vid=9bc751c2-897b-42a3-8a10-36f8a493bb07","ios":"levelo://app?vid=9bc751c2-897b-42a3-8a10-36f8a493bb07"},"vehicle_type_id":"4","last_reported":1729246260,"current_range_meters":10800,"station_id":"","pricing_plan_id":"cebpf4jnsgd1na2vs0mg"},{"bike_id":"4361f052-08fb-4f1b-8a0a-4061ece8354c","system_id":"levelo_inurba_marseille","lat":43.32483,"lon":5.36566,"is_reserved":false,"is_disabled":false,"rental_uris":{"android":"levelo://app?vid=4361f052-08fb-4f1b-8a0a-4061ece8354c","ios":"levelo://app?vid=4361f052-08fb-4f1b-8a0a-4061ece8354c"},"vehicle_type_id":"4","last_reported":1729246260,"current_range_meters":2800,"station_id":"ce4bhs12rcd13ifvqhvg","pricing_plan_id":"cebpf4jnsgd1na2vs0mg"},{"bike_id":"ed078362-42fc-4c79-9dd9-752630de6df4","system_id":"levelo_inurba_marseille","lat":43.2827,"lon":5.35063,"is_reserved":false,"is_disabled":false,"rental_uris":{"android":"levelo://app?vid=ed078362-42fc-4c79-9dd9-752630de6df4","ios":"levelo://app?vid=ed078362-42fc-4c79-9dd9-752630de6df4"},"vehicle_type_id":"4","last_reported":1729246260,"current_range_meters":37600,"station_id":"ce4bhbp2rcd13ifvqerg","pricing_plan_id":"cebpf4jnsgd1na2vs0mg"},{"bike_id":"fcb12529-44f5-46ea-beac-e1057afec656","system_id":"levelo_inurba_marseille","lat":43.337444,"lon":5.374475,"is_reserved":false,"is_disabled":false,"rental_uris":{"android":"levelo://app?vid=fcb12529-44f5-46ea-beac-e1057afec656","ios":"levelo://app?vid=fcb12529-44f5-46ea-beac-e1057afec656"},"vehicle_type_id":"4","last_reported":1729246260,"current_range_meters":37600,"station_id":"","pricing_plan_id":"cebpf4jnsgd1na2vs0mg"},{"bike_id":"6263be57-0fc0-4c12-a63b-da5f6339bbe3","system_id":"levelo_inurba_marseille","lat":43.25933,"lon":5.40916,"is_reserved":false,"is_disabled":false,"rental_uris":{"android":"levelo://app?vid=6263be57-0fc0-4c12-a63b-da5f6339bbe3","ios":"levelo://app?vid=6263be57-0fc0-4c12-a63b-da5f6339bbe3"},"vehicle_type_id":"4","last_reported":1729246260,"current_range_meters":27600,"station_id":"ce4bhm92rcd13ifvqglg","pricing_plan_id":"cebpf4jnsgd1na2vs0mg"},{"bike_id":"3cc9ca15-d23c-4891-9216-c134fa816eb8","system_id":"levelo_inurba_marseille","lat":43.2418,"lon":5.39721,"is_reserved":false,"is_disabled":false,"rental_uris":{"android":"levelo://app?vid=3cc9ca15-d23c-4891-9216-c134fa816eb8","ios":"levelo://app?vid=3cc9ca15-d23c-4891-9216-c134fa816eb8"},"vehicle_type_id":"4","last_reported":1729246260,"current_range_meters":28400,"station_id":"ce4bhn12rcd13ifvqgpg","pricing_plan_id":"cebpf4jnsgd1na2vs0mg"},{"bike_id":"3975687c-4a15-4c49-9c07-ebc5c77cf6fe","system_id":"levelo_inurba_marseille","lat":43.28414,"lon":5.34971,"is_reserved":false,"is_disabled":false,"rental_uris":{"android":"levelo://app?vid=3975687c-4a15-4c49-9c07-ebc5c77cf6fe","ios":"levelo://app?vid=3975687c-4a15-4c49-9c07-ebc5c77cf6fe"},"vehicle_type_id":"4","last_reported":1729246260,"current_range_meters":28400,"station_id":"ce4bhbh2rcd13ifvqepg","pricing_plan_id":"cebpf4jnsgd1na2vs0mg"},{"bike_id":"5a71258d-15df-4a4e-bb61-67cfd14fba4a","system_id":"levelo_inurba_marseille","lat":43.29224,"lon":5.36067,"is_reserved":false,"is_disabled":false,"rental_uris":{"android":"levelo://app?vid=5a71258d-15df-4a4e-bb61-67cfd14fba4a","ios":"levelo://app?vid=5a71258d-15df-4a4e-bb61-67cfd14fba4a"},"vehicle_type_id":"4","last_reported":1729246260,"current_range_meters":38800,"station_id":"ce4bhbh2rcd13ifvqeqg","pricing_plan_id":"cebpf4jnsgd1na2vs0mg"},{"bike_id":"7473fe9f-b28e-4624-a085-92b4bbae5db4","system_id":"levelo_inurba_marseille","lat":43.29001,"lon":5.35613,"is_reserved":false,"is_disabled":false,"rental_uris":{"android":"levelo://app?vid=7473fe9f-b28e-4624-a085-92b4bbae5db4","ios":"levelo://app?vid=7473fe9f-b28e-4624-a085-92b4bbae5db4"},"vehicle_type_id":"4","last_reported":1729246260,"current_range_meters":36000,"station_id":"ce4bhb92rcd13ifvqen0","pricing_plan_id":"cebpf4jnsgd1na2vs0mg"},{"bike_id":"f750ffe4-d9a7-48dd-a273-2b9171289725","system_id":"levelo_inurba_marseille","lat":43.26684,"lon":5.38272,"is_reserved":false,"is_disabled":false,"rental_uris":{"android":"levelo://app?vid=f750ffe4-d9a7-48dd-a273-2b9171289725","ios":"levelo://app?vid=f750ffe4-d9a7-48dd-a273-2b9171289725"},"vehicle_type_id":"4","last_reported":1729246260,"current_range_meters":36400,"station_id":"ce4bhg92rcd13ifvqf90","pricing_plan_id":"cebpf4jnsgd1na2vs0mg"},{"bike_id":"3d7546d0-4dba-4212-88c9-dfe9a2032237","system_id":"levelo_inurba_marseille","lat":43.24163,"lon":5.36397,"is_reserved":false,"is_disabled":false,"rental_uris":{"android":"levelo://app?vid=3d7546d0-4dba-4212-88c9-dfe9a2032237","ios":"levelo://app?vid=3d7546d0-4dba-4212-88c9-dfe9a2032237"},"vehicle_type_id":"4","last_reported":1729246260,"current_range_meters":38000,"station_id":"cpo36qri1sfpv3e86is0","pricing_plan_id":"cebpf4jnsgd1na2vs0mg"},{"bike_id":"007f1dfd-0d2c-426c-a157-0f8331696688","system_id":"levelo_inurba_marseille","lat":43.231885,"lon":5.355515,"is_reserved":false,"is_disabled":false,"rental_uris":{"android":"levelo://app?vid=007f1dfd-0d2c-426c-a157-0f8331696688","ios":"levelo://app?vid=007f1dfd-0d2c-426c-a157-0f8331696688"},"vehicle_type_id":"4","last_reported":1729246260,"current_range_meters":27200,"station_id":"ce4bhu92rcd13ifvqi70","pricing_plan_id":"cebpf4jnsgd1na2vs0mg"},{"bike_id":"5a5de334-96b6-45f8-9eb1-e14d8ff9b5c2","system_id":"levelo_inurba_marseille","lat":43.29164,"lon":5.37172,"is_reserved":false,"is_disabled":false,"rental_uris":{"android":"levelo://app?vid=5a5de334-96b6-45f8-9eb1-e14d8ff9b5c2","ios":"levelo://app?vid=5a5de334-96b6-45f8-9eb1-e14d8ff9b5c2"},"vehicle_type_id":"4","last_reported":1729246260,"current_range_meters":27600,"station_id":"ce4bha92rcd13ifvqeh0","pricing_plan_id":"cebpf4jnsgd1na2vs0mg"},{"bike_id":"25573e2f-a445-4919-a85f-8daef7637352","system_id":"levelo_inurba_marseille","lat":43.30801,"lon":5.43512,"is_reserved":false,"is_disabled":false,"rental_uris":{"android":"levelo://app?vid=25573e2f-a445-4919-a85f-8daef7637352","ios":"levelo://app?vid=25573e2f-a445-4919-a85f-8daef7637352"},"vehicle_type_id":"4","last_reported":1729246260,"current_range_meters":33600,"station_id":"ce4bhph2rcd13ifvqheg","pricing_plan_id":"cebpf4jnsgd1na2vs0mg"},{"bike_id":"ceba77e4-817d-4911-8717-9b4015e9cd05","system_id":"levelo_inurba_marseille","lat":43.23146,"lon":5.43723,"is_reserved":false,"is_disabled":false,"rental_uris":{"android":"levelo://app?vid=ceba77e4-817d-4911-8717-9b4015e9cd05","ios":"levelo://app?vid=ceba77e4-817d-4911-8717-9b4015e9cd05"},"vehicle_type_id":"4","last_reported":1729246260,"current_range_meters":25200,"station_id":"ce4bhmp2rcd13ifvqgog","pricing_plan_id":"cebpf4jnsgd1na2vs0mg"},{"bike_id":"90b7df2b-2805-4913-a745-07d80216980c","system_id":"levelo_inurba_marseille","lat":43.30801,"lon":5.43519,"is_reserved":false,"is_disabled":false,"rental_uris":{"android":"levelo://app?vid=90b7df2b-2805-4913-a745-07d80216980c","ios":"levelo://app?vid=90b7df2b-2805-4913-a745-07d80216980c"},"vehicle_type_id":"4","last_reported":1729246260,"current_range_meters":12000,"station_id":"ce4bhph2rcd13ifvqheg","pricing_plan_id":"cebpf4jnsgd1na2vs0mg"},{"bike_id":"32ce68a3-3fc7-4257-974f-ab657619c295","system_id":"levelo_inurba_marseille","lat":43.33747,"lon":5.37442,"is_reserved":false,"is_disabled":false,"rental_uris":{"android":"levelo://app?vid=32ce68a3-3fc7-4257-974f-ab657619c295","ios":"levelo://app?vid=32ce68a3-3fc7-4257-974f-ab657619c295"},"vehicle_type_id":"4","last_reported":1729246260,"current_range_meters":22800,"station_id":"","pricing_plan_id":"cebpf4jnsgd1na2vs0mg"},{"bike_id":"d035d73f-d14b-4080-8dea-57cf461e8122","system_id":"levelo_inurba_marseille","lat":43.29068,"lon":5.37174,"is_reserved":false,"is_disabled":false,"rental_uris":{"android":"levelo://app?vid=d035d73f-d14b-4080-8dea-57cf461e8122","ios":"levelo://app?vid=d035d73f-d14b-4080-8dea-57cf461e8122"},"vehicle_type_id":"4","last_reported":1729246260,"current_range_meters":18000,"station_id":"ce4bh5p2rcd13ifvqe4g","pricing_plan_id":"cebpf4jnsgd1na2vs0mg"},{"bike_id":"e16104e8-1c66-49d2-85a0-75e556dae417","system_id":"levelo_inurba_marseille","lat":43.25497,"lon":5.37645,"is_reserved":false,"is_disabled":false,"rental_uris":{"android":"levelo://app?vid=e16104e8-1c66-49d2-85a0-75e556dae417","ios":"levelo://app?vid=e16104e8-1c66-49d2-85a0-75e556dae417"},"vehicle_type_id":"4","last_reported":1729246260,"current_range_meters":30000,"station_id":"ce4bhh12rcd13ifvqff0","pricing_plan_id":"cebpf4jnsgd1na2vs0mg"},{"bike_id":"bbf4bc62-2aae-49ae-b779-d4253b940c56","system_id":"levelo_inurba_marseille","lat":43.31359,"lon":5.36708,"is_reserved":false,"is_disabled":false,"rental_uris":{"android":"levelo://app?vid=bbf4bc62-2aae-49ae-b779-d4253b940c56","ios":"levelo://app?vid=bbf4bc62-2aae-49ae-b779-d4253b940c56"},"vehicle_type_id":"4","last_reported":1729246260,"current_range_meters":12400,"station_id":"ce4bgr92rcd13ifvqc6g","pricing_plan_id":"cebpf4jnsgd1na2vs0mg"},{"bike_id":"555ff3cf-777b-4ff4-b149-9575fc002950","system_id":"levelo_inurba_marseille","lat":43.24175,"lon":5.39729,"is_reserved":false,"is_disabled":false,"rental_uris":{"android":"levelo://app?vid=555ff3cf-777b-4ff4-b149-9575fc002950","ios":"levelo://app?vid=555ff3cf-777b-4ff4-b149-9575fc002950"},"vehicle_type_id":"4","last_reported":1729246260,"current_range_meters":32400,"station_id":"ce4bhn12rcd13ifvqgpg","pricing_plan_id":"cebpf4jnsgd1na2vs0mg"},{"bike_id":"b64362e2-b043-4f67-8e42-f68524e828ed","system_id":"levelo_inurba_marseille","lat":43.24176,"lon":5.39708,"is_reserved":false,"is_disabled":false,"rental_uris":{"android":"levelo://app?vid=b64362e2-b043-4f67-8e42-f68524e828ed","ios":"levelo://app?vid=b64362e2-b043-4f67-8e42-f68524e828ed"},"vehicle_type_id":"4","last_reported":1729246260,"current_range_meters":25600,"station_id":"ce4bhn12rcd13ifvqgpg","pricing_plan_id":"cebpf4jnsgd1na2vs0mg"},{"bike_id":"fa7bbdc9-afbe-404d-8676-647037cc76a9","system_id":"levelo_inurba_marseille","lat":43.23193,"lon":5.35546,"is_reserved":false,"is_disabled":false,"rental_uris":{"android":"levelo://app?vid=fa7bbdc9-afbe-404d-8676-647037cc76a9","ios":"levelo://app?vid=fa7bbdc9-afbe-404d-8676-647037cc76a9"},"vehicle_type_id":"4","last_reported":1729246260,"current_range_meters":29600,"station_id":"ce4bhu92rcd13ifvqi70","pricing_plan_id":"cebpf4jnsgd1na2vs0mg"},{"bike_id":"cbdbc0e8-6c64-4503-ba2f-cf30943ace70","system_id":"levelo_inurba_marseille","lat":43.33021,"lon":5.39041,"is_reserved":false,"is_disabled":false,"rental_uris":{"android":"levelo://app?vid=cbdbc0e8-6c64-4503-ba2f-cf30943ace70","ios":"levelo://app?vid=cbdbc0e8-6c64-4503-ba2f-cf30943ace70"},"vehicle_type_id":"4","last_reported":1729246260,"current_range_meters":18800,"station_id":"ce4bhr92rcd13ifvqhrg","pricing_plan_id":"cebpf4jnsgd1na2vs0mg"},{"bike_id":"5dcdc13d-2b4b-4f6d-a05b-d7ad42948191","system_id":"levelo_inurba_marseille","lat":43.28942,"lon":5.36391,"is_reserved":false,"is_disabled":false,"rental_uris":{"android":"levelo://app?vid=5dcdc13d-2b4b-4f6d-a05b-d7ad42948191","ios":"levelo://app?vid=5dcdc13d-2b4b-4f6d-a05b-d7ad42948191"},"vehicle_type_id":"4","last_reported":1729246260,"current_range_meters":3600,"station_id":"ce4bhc92rcd13ifvqetg","pricing_plan_id":"cebpf4jnsgd1na2vs0mg"},{"bike_id":"9c5c28a1-f91b-4a31-a081-7760d2214cc3","system_id":"levelo_inurba_marseille","lat":43.33023,"lon":5.39039,"is_reserved":false,"is_disabled":false,"rental_uris":{"android":"levelo://app?vid=9c5c28a1-f91b-4a31-a081-7760d2214cc3","ios":"levelo://app?vid=9c5c28a1-f91b-4a31-a081-7760d2214cc3"},"vehicle_type_id":"4","last_reported":1729246260,"current_range_meters":38000,"station_id":"ce4bhr92rcd13ifvqhrg","pricing_plan_id":"cebpf4jnsgd1na2vs0mg"},{"bike_id":"f8d2e239-573b-4f9d-8955-e6720aa9663e","system_id":"levelo_inurba_marseille","lat":43.24647,"lon":5.38897,"is_reserved":false,"is_disabled":false,"rental_uris":{"android":"levelo://app?vid=f8d2e239-573b-4f9d-8955-e6720aa9663e","ios":"levelo://app?vid=f8d2e239-573b-4f9d-8955-e6720aa9663e"},"vehicle_type_id":"4","last_reported":1729246260,"current_range_meters":32400,"station_id":"ce4bhg12rcd13ifvqf60","pricing_plan_id":"cebpf4jnsgd1na2vs0mg"},{"bike_id":"d434096b-a0ae-4374-8922-6d49bab951c8","system_id":"levelo_inurba_marseille","lat":43.31755,"lon":5.39019,"is_reserved":false,"is_disabled":false,"rental_uris":{"android":"levelo://app?vid=d434096b-a0ae-4374-8922-6d49bab951c8","ios":"levelo://app?vid=d434096b-a0ae-4374-8922-6d49bab951c8"},"vehicle_type_id":"4","last_reported":1729246260,"current_range_meters":22800,"station_id":"ce4bhqp2rcd13ifvqhng","pricing_plan_id":"cebpf4jnsgd1na2vs0mg"},{"bike_id":"be9fa79f-7d21-48b2-bf62-0284836a1d04","system_id":"levelo_inurba_marseille","lat":43.33027,"lon":5.39042,"is_reserved":false,"is_disabled":false,"rental_uris":{"android":"levelo://app?vid=be9fa79f-7d21-48b2-bf62-0284836a1d04","ios":"levelo://app?vid=be9fa79f-7d21-48b2-bf62-0284836a1d04"},"vehicle_type_id":"4","last_reported":1729246260,"current_range_meters":32000,"station_id":"ce4bhr92rcd13ifvqhrg","pricing_plan_id":"cebpf4jnsgd1na2vs0mg"},{"bike_id":"8c1ec6cb-2291-4814-837b-be8625c706f3","system_id":"levelo_inurba_marseille","lat":43.23196,"lon":5.35543,"is_reserved":false,"is_disabled":false,"rental_uris":{"android":"levelo://app?vid=8c1ec6cb-2291-4814-837b-be8625c706f3","ios":"levelo://app?vid=8c1ec6cb-2291-4814-837b-be8625c706f3"},"vehicle_type_id":"4","last_reported":1729246260,"current_range_meters":33200,"station_id":"ce4bhu92rcd13ifvqi70","pricing_plan_id":"cebpf4jnsgd1na2vs0mg"},{"bike_id":"e05a8545-65f7-4cf3-8739-ba534517b4f3","system_id":"levelo_inurba_marseille","lat":43.27369,"lon":5.36258,"is_reserved":false,"is_disabled":false,"rental_uris":{"android":"levelo://app?vid=e05a8545-65f7-4cf3-8739-ba534517b4f3","ios":"levelo://app?vid=e05a8545-65f7-4cf3-8739-ba534517b4f3"},"vehicle_type_id":"4","last_reported":1729246260,"current_range_meters":29600,"station_id":"","pricing_plan_id":"cebpf4jnsgd1na2vs0mg"},{"bike_id":"f1c18fba-4f4d-408f-ae56-6e62eb96cde7","system_id":"levelo_inurba_marseille","lat":43.24803,"lon":5.37454,"is_reserved":false,"is_disabled":false,"rental_uris":{"android":"levelo://app?vid=f1c18fba-4f4d-408f-ae56-6e62eb96cde7","ios":"levelo://app?vid=f1c18fba-4f4d-408f-ae56-6e62eb96cde7"},"vehicle_type_id":"4","last_reported":1729246260,"current_range_meters":15200,"station_id":"ce4bhgh2rcd13ifvqfb0","pricing_plan_id":"cebpf4jnsgd1na2vs0mg"},{"bike_id":"a888429d-808c-4a3c-9631-547beb254692","system_id":"levelo_inurba_marseille","lat":43.33607,"lon":5.41033,"is_reserved":false,"is_disabled":false,"rental_uris":{"android":"levelo://app?vid=a888429d-808c-4a3c-9631-547beb254692","ios":"levelo://app?vid=a888429d-808c-4a3c-9631-547beb254692"},"vehicle_type_id":"4","last_reported":1729246260,"current_range_meters":24000,"station_id":"ce4bhqh2rcd13ifvqhmg","pricing_plan_id":"cebpf4jnsgd1na2vs0mg"},{"bike_id":"22f00d5a-70ee-48ed-a43d-aa5efd39ff8b","system_id":"levelo_inurba_marseille","lat":43.24998,"lon":5.38928,"is_reserved":false,"is_disabled":false,"rental_uris":{"android":"levelo://app?vid=22f00d5a-70ee-48ed-a43d-aa5efd39ff8b","ios":"levelo://app?vid=22f00d5a-70ee-48ed-a43d-aa5efd39ff8b"},"vehicle_type_id":"4","last_reported":1729246260,"current_range_meters":39200,"station_id":"ce4bhgp2rcd13ifvqfd0","pricing_plan_id":"cebpf4jnsgd1na2vs0mg"},{"bike_id":"c89c2319-61a9-47ef-9229-e31c9eaab143","system_id":"levelo_inurba_marseille","lat":43.23201,"lon":5.35544,"is_reserved":false,"is_disabled":false,"rental_uris":{"android":"levelo://app?vid=c89c2319-61a9-47ef-9229-e31c9eaab143","ios":"levelo://app?vid=c89c2319-61a9-47ef-9229-e31c9eaab143"},"vehicle_type_id":"4","last_reported":1729246260,"current_range_meters":36800,"station_id":"ce4bhu92rcd13ifvqi70","pricing_plan_id":"cebpf4jnsgd1na2vs0mg"},{"bike_id":"ba9bd7c4-d1e3-4f57-8f18-78d353422ae9","system_id":"levelo_inurba_marseille","lat":43.23069,"lon":5.35486,"is_reserved":false,"is_disabled":false,"rental_uris":{"android":"levelo://app?vid=ba9bd7c4-d1e3-4f57-8f18-78d353422ae9","ios":"levelo://app?vid=ba9bd7c4-d1e3-4f57-8f18-78d353422ae9"},"vehicle_type_id":"4","last_reported":1729246260,"current_range_meters":32000,"station_id":"cpo3342slgdg3j2ifvpg","pricing_plan_id":"cebpf4jnsgd1na2vs0mg"},{"bike_id":"196ccea2-6e0b-40ff-8131-2dbce0f1a8a5","system_id":"levelo_inurba_marseille","lat":43.27976,"lon":5.38742,"is_reserved":false,"is_disabled":false,"rental_uris":{"android":"levelo://app?vid=196ccea2-6e0b-40ff-8131-2dbce0f1a8a5","ios":"levelo://app?vid=196ccea2-6e0b-40ff-8131-2dbce0f1a8a5"},"vehicle_type_id":"4","last_reported":1729246260,"current_range_meters":36800,"station_id":"ce4bhg12rcd13ifvqf80","pricing_plan_id":"cebpf4jnsgd1na2vs0mg"},{"bike_id":"15a59784-d515-4a97-ab9b-90e02c51b4d1","system_id":"levelo_inurba_marseille","lat":43.24998,"lon":5.38934,"is_reserved":false,"is_disabled":false,"rental_uris":{"android":"levelo://app?vid=15a59784-d515-4a97-ab9b-90e02c51b4d1","ios":"levelo://app?vid=15a59784-d515-4a97-ab9b-90e02c51b4d1"},"vehicle_type_id":"4","last_reported":1729246260,"current_range_meters":7200,"station_id":"ce4bhgp2rcd13ifvqfd0","pricing_plan_id":"cebpf4jnsgd1na2vs0mg"},{"bike_id":"680d5672-1ea4-4084-aba7-e3e9965ce1cb","system_id":"levelo_inurba_marseille","lat":43.25584,"lon":5.38224,"is_reserved":false,"is_disabled":false,"rental_uris":{"android":"levelo://app?vid=680d5672-1ea4-4084-aba7-e3e9965ce1cb","ios":"levelo://app?vid=680d5672-1ea4-4084-aba7-e3e9965ce1cb"},"vehicle_type_id":"4","last_reported":1729246260,"current_range_meters":8000,"station_id":"ce4bhih2rcd13ifvqfs0","pricing_plan_id":"cebpf4jnsgd1na2vs0mg"},{"bike_id":"97961042-a571-44f0-a535-9a4dbe07ea4d","system_id":"levelo_inurba_marseille","lat":43.27815,"lon":5.40711,"is_reserved":false,"is_disabled":false,"rental_uris":{"android":"levelo://app?vid=97961042-a571-44f0-a535-9a4dbe07ea4d","ios":"levelo://app?vid=97961042-a571-44f0-a535-9a4dbe07ea4d"},"vehicle_type_id":"4","last_reported":1729246260,"current_range_meters":8400,"station_id":"ce4bhnh2rcd13ifvqgtg","pricing_plan_id":"cebpf4jnsgd1na2vs0mg"},{"bike_id":"a14cfc8d-fbbd-40b0-aa99-e624d97946a6","system_id":"levelo_inurba_marseille","lat":43.30799,"lon":5.43521,"is_reserved":false,"is_disabled":false,"rental_uris":{"android":"levelo://app?vid=a14cfc8d-fbbd-40b0-aa99-e624d97946a6","ios":"levelo://app?vid=a14cfc8d-fbbd-40b0-aa99-e624d97946a6"},"vehicle_type_id":"4","last_reported":1729246260,"current_range_meters":28400,"station_id":"ce4bhph2rcd13ifvqheg","pricing_plan_id":"cebpf4jnsgd1na2vs0mg"},{"bike_id":"874494de-7452-4f47-9fec-c5ec79478035","system_id":"levelo_inurba_marseille","lat":43.23963,"lon":5.36634,"is_reserved":false,"is_disabled":false,"rental_uris":{"android":"levelo://app?vid=874494de-7452-4f47-9fec-c5ec79478035","ios":"levelo://app?vid=874494de-7452-4f47-9fec-c5ec79478035"},"vehicle_type_id":"4","last_reported":1729246260,"current_range_meters":24400,"station_id":"ce4bhi12rcd13ifvqfp0","pricing_plan_id":"cebpf4jnsgd1na2vs0mg"},{"bike_id":"8b33911e-5d42-46bd-b00d-c1d5ce72f577","system_id":"levelo_inurba_marseille","lat":43.23184,"lon":5.39987,"is_reserved":false,"is_disabled":false,"rental_uris":{"android":"levelo://app?vid=8b33911e-5d42-46bd-b00d-c1d5ce72f577","ios":"levelo://app?vid=8b33911e-5d42-46bd-b00d-c1d5ce72f577"},"vehicle_type_id":"4","last_reported":1729246260,"current_range_meters":38800,"station_id":"ce4bhn12rcd13ifvqgqg","pricing_plan_id":"cebpf4jnsgd1na2vs0mg"},{"bike_id":"8bc13507-9c63-4041-846a-12b6de217412","system_id":"levelo_inurba_marseille","lat":43.28422,"lon":5.34974,"is_reserved":false,"is_disabled":false,"rental_uris":{"android":"levelo://app?vid=8bc13507-9c63-4041-846a-12b6de217412","ios":"levelo://app?vid=8bc13507-9c63-4041-846a-12b6de217412"},"vehicle_type_id":"4","last_reported":1729246260,"current_range_meters":31200,"station_id":"ce4bhbh2rcd13ifvqepg","pricing_plan_id":"cebpf4jnsgd1na2vs0mg"},{"bike_id":"b87f9f5e-58eb-4c9d-a532-529a7f767e15","system_id":"levelo_inurba_marseille","lat":43.31355,"lon":5.367,"is_reserved":false,"is_disabled":false,"rental_uris":{"android":"levelo://app?vid=b87f9f5e-58eb-4c9d-a532-529a7f767e15","ios":"levelo://app?vid=b87f9f5e-58eb-4c9d-a532-529a7f767e15"},"vehicle_type_id":"4","last_reported":1729246260,"current_range_meters":31200,"station_id":"ce4bgr92rcd13ifvqc6g","pricing_plan_id":"cebpf4jnsgd1na2vs0mg"},{"bike_id":"e0225aaf-ac0b-47af-b6b5-2853b0372b55","system_id":"levelo_inurba_marseille","lat":43.29979,"lon":5.37176,"is_reserved":false,"is_disabled":false,"rental_uris":{"android":"levelo://app?vid=e0225aaf-ac0b-47af-b6b5-2853b0372b55","ios":"levelo://app?vid=e0225aaf-ac0b-47af-b6b5-2853b0372b55"},"vehicle_type_id":"4","last_reported":1729246260,"current_range_meters":38400,"station_id":"ce4bgr92rcd13ifvqc7g","pricing_plan_id":"cebpf4jnsgd1na2vs0mg"},{"bike_id":"6dd67ec1-d844-4dbe-831d-85c3fcafe8d6","system_id":"levelo_inurba_marseille","lat":43.26206,"lon":5.37923,"is_reserved":false,"is_disabled":false,"rental_uris":{"android":"levelo://app?vid=6dd67ec1-d844-4dbe-831d-85c3fcafe8d6","ios":"levelo://app?vid=6dd67ec1-d844-4dbe-831d-85c3fcafe8d6"},"vehicle_type_id":"4","last_reported":1729246260,"current_range_meters":24000,"station_id":"ce4bhjp2rcd13ifvqg90","pricing_plan_id":"cebpf4jnsgd1na2vs0mg"},{"bike_id":"0994d7f0-fa2e-480f-b967-2b1e1b476b78","system_id":"levelo_inurba_marseille","lat":43.23186,"lon":5.3555,"is_reserved":false,"is_disabled":false,"rental_uris":{"android":"levelo://app?vid=0994d7f0-fa2e-480f-b967-2b1e1b476b78","ios":"levelo://app?vid=0994d7f0-fa2e-480f-b967-2b1e1b476b78"},"vehicle_type_id":"4","last_reported":1729246260,"current_range_meters":9200,"station_id":"ce4bhu92rcd13ifvqi70","pricing_plan_id":"cebpf4jnsgd1na2vs0mg"},{"bike_id":"cafacf31-3dc4-4662-b543-8a143108fe4d","system_id":"levelo_inurba_marseille","lat":43.23188,"lon":5.39977,"is_reserved":false,"is_disabled":false,"rental_uris":{"android":"levelo://app?vid=cafacf31-3dc4-4662-b543-8a143108fe4d","ios":"levelo://app?vid=cafacf31-3dc4-4662-b543-8a143108fe4d"},"vehicle_type_id":"4","last_reported":1729246260,"current_range_meters":19200,"station_id":"ce4bhn12rcd13ifvqgqg","pricing_plan_id":"cebpf4jnsgd1na2vs0mg"},{"bike_id":"66ccc46d-618e-4760-b09c-27382152bdab","system_id":"levelo_inurba_marseille","lat":43.23195,"lon":5.35537,"is_reserved":false,"is_disabled":false,"rental_uris":{"android":"levelo://app?vid=66ccc46d-618e-4760-b09c-27382152bdab","ios":"levelo://app?vid=66ccc46d-618e-4760-b09c-27382152bdab"},"vehicle_type_id":"4","last_reported":1729246260,"current_range_meters":28400,"station_id":"ce4bhu92rcd13ifvqi70","pricing_plan_id":"cebpf4jnsgd1na2vs0mg"},{"bike_id":"af5ff28d-5a35-4f8c-9fc0-e6233fbc3f13","system_id":"levelo_inurba_marseille","lat":43.28269,"lon":5.35051,"is_reserved":false,"is_disabled":false,"rental_uris":{"android":"levelo://app?vid=af5ff28d-5a35-4f8c-9fc0-e6233fbc3f13","ios":"levelo://app?vid=af5ff28d-5a35-4f8c-9fc0-e6233fbc3f13"},"vehicle_type_id":"4","last_reported":1729246260,"current_range_meters":36800,"station_id":"ce4bhbp2rcd13ifvqerg","pricing_plan_id":"cebpf4jnsgd1na2vs0mg"},{"bike_id":"2c8b1189-0245-4a05-b36f-f93cde543996","system_id":"levelo_inurba_marseille","lat":43.29569,"lon":5.39981,"is_reserved":false,"is_disabled":false,"rental_uris":{"android":"levelo://app?vid=2c8b1189-0245-4a05-b36f-f93cde543996","ios":"levelo://app?vid=2c8b1189-0245-4a05-b36f-f93cde543996"},"vehicle_type_id":"4","last_reported":1729246260,"current_range_meters":28400,"station_id":"ce4bh312rcd13ifvqdj0","pricing_plan_id":"cebpf4jnsgd1na2vs0mg"},{"bike_id":"8d481af8-b62c-4acc-a2e6-1539cd665ab7","system_id":"levelo_inurba_marseille","lat":43.27504,"lon":5.42452,"is_reserved":false,"is_disabled":false,"rental_uris":{"android":"levelo://app?vid=8d481af8-b62c-4acc-a2e6-1539cd665ab7","ios":"levelo://app?vid=8d481af8-b62c-4acc-a2e6-1539cd665ab7"},"vehicle_type_id":"4","last_reported":1729246260,"current_range_meters":23200,"station_id":"ce4bhnh2rcd13ifvqgtg","pricing_plan_id":"cebpf4jnsgd1na2vs0mg"},{"bike_id":"3f9c5a33-cb3a-4686-90e5-01e08fe7abf9","system_id":"levelo_inurba_marseille","lat":43.28074,"lon":5.39657,"is_reserved":false,"is_disabled":false,"rental_uris":{"android":"levelo://app?vid=3f9c5a33-cb3a-4686-90e5-01e08fe7abf9","ios":"levelo://app?vid=3f9c5a33-cb3a-4686-90e5-01e08fe7abf9"},"vehicle_type_id":"4","last_reported":1729246260,"current_range_meters":34000,"station_id":"ce4bho12rcd13ifvqh2g","pricing_plan_id":"cebpf4jnsgd1na2vs0mg"},{"bike_id":"7f6839fb-aacc-4675-88c4-5875cce1d265","system_id":"levelo_inurba_marseille","lat":43.258606,"lon":5.398956,"is_reserved":false,"is_disabled":false,"rental_uris":{"android":"levelo://app?vid=7f6839fb-aacc-4675-88c4-5875cce1d265","ios":"levelo://app?vid=7f6839fb-aacc-4675-88c4-5875cce1d265"},"vehicle_type_id":"4","last_reported":1729246260,"current_range_meters":7200,"station_id":"ce4bhl92rcd13ifvqghg","pricing_plan_id":"cebpf4jnsgd1na2vs0mg"},{"bike_id":"72ce77f7-81c8-49a3-8760-dfcdc23fbddb","system_id":"levelo_inurba_marseille","lat":43.27071,"lon":5.42278,"is_reserved":false,"is_disabled":false,"rental_uris":{"android":"levelo://app?vid=72ce77f7-81c8-49a3-8760-dfcdc23fbddb","ios":"levelo://app?vid=72ce77f7-81c8-49a3-8760-dfcdc23fbddb"},"vehicle_type_id":"4","last_reported":1729246260,"current_range_meters":26000,"station_id":"ce4bhk92rcd13ifvqgb0","pricing_plan_id":"cebpf4jnsgd1na2vs0mg"},{"bike_id":"fc262b45-2b88-4d3d-8020-e7c946d1fec3","system_id":"levelo_inurba_marseille","lat":43.32112,"lon":5.36767,"is_reserved":false,"is_disabled":false,"rental_uris":{"android":"levelo://app?vid=fc262b45-2b88-4d3d-8020-e7c946d1fec3","ios":"levelo://app?vid=fc262b45-2b88-4d3d-8020-e7c946d1fec3"},"vehicle_type_id":"4","last_reported":1729246260,"current_range_meters":38000,"station_id":"ce4bhrh2rcd13ifvqhug","pricing_plan_id":"cebpf4jnsgd1na2vs0mg"},{"bike_id":"d7992096-705f-4c05-a4cb-e8657ad3ee19","system_id":"levelo_inurba_marseille","lat":43.31343,"lon":5.36739,"is_reserved":false,"is_disabled":false,"rental_uris":{"android":"levelo://app?vid=d7992096-705f-4c05-a4cb-e8657ad3ee19","ios":"levelo://app?vid=d7992096-705f-4c05-a4cb-e8657ad3ee19"},"vehicle_type_id":"4","last_reported":1729246260,"current_range_meters":31200,"station_id":"ce4bgr92rcd13ifvqc6g","pricing_plan_id":"cebpf4jnsgd1na2vs0mg"},{"bike_id":"2a8d8e0d-09f4-4ada-9e2b-a6718972e982","system_id":"levelo_inurba_marseille","lat":43.2315,"lon":5.43698,"is_reserved":false,"is_disabled":false,"rental_uris":{"android":"levelo://app?vid=2a8d8e0d-09f4-4ada-9e2b-a6718972e982","ios":"levelo://app?vid=2a8d8e0d-09f4-4ada-9e2b-a6718972e982"},"vehicle_type_id":"4","last_reported":1729246260,"current_range_meters":19600,"station_id":"ce4bhmp2rcd13ifvqgog","pricing_plan_id":"cebpf4jnsgd1na2vs0mg"},{"bike_id":"0497a6ee-83d0-4655-bb1b-1856c39fef34","system_id":"levelo_inurba_marseille","lat":43.27682,"lon":5.38889,"is_reserved":false,"is_disabled":false,"rental_uris":{"android":"levelo://app?vid=0497a6ee-83d0-4655-bb1b-1856c39fef34","ios":"levelo://app?vid=0497a6ee-83d0-4655-bb1b-1856c39fef34"},"vehicle_type_id":"4","last_reported":1729246260,"current_range_meters":4000,"station_id":"ce4bhi12rcd13ifvqfo0","pricing_plan_id":"cebpf4jnsgd1na2vs0mg"},{"bike_id":"907d90e2-7e08-4846-bbc2-01977b54a9bd","system_id":"levelo_inurba_marseille","lat":43.24168,"lon":5.36392,"is_reserved":false,"is_disabled":false,"rental_uris":{"android":"levelo://app?vid=907d90e2-7e08-4846-bbc2-01977b54a9bd","ios":"levelo://app?vid=907d90e2-7e08-4846-bbc2-01977b54a9bd"},"vehicle_type_id":"4","last_reported":1729246260,"current_range_meters":18000,"station_id":"cpo36qri1sfpv3e86is0","pricing_plan_id":"cebpf4jnsgd1na2vs0mg"},{"bike_id":"b3e91c9f-d86a-45b0-844d-6fa223033368","system_id":"levelo_inurba_marseille","lat":43.26203,"lon":5.37925,"is_reserved":false,"is_disabled":false,"rental_uris":{"android":"levelo://app?vid=b3e91c9f-d86a-45b0-844d-6fa223033368","ios":"levelo://app?vid=b3e91c9f-d86a-45b0-844d-6fa223033368"},"vehicle_type_id":"4","last_reported":1729246260,"current_range_meters":25200,"station_id":"ce4bhjp2rcd13ifvqg90","pricing_plan_id":"cebpf4jnsgd1na2vs0mg"},{"bike_id":"46b9d997-f8a2-4011-9958-a986ffb43361","system_id":"levelo_inurba_marseille","lat":43.3211,"lon":5.36764,"is_reserved":false,"is_disabled":false,"rental_uris":{"android":"levelo://app?vid=46b9d997-f8a2-4011-9958-a986ffb43361","ios":"levelo://app?vid=46b9d997-f8a2-4011-9958-a986ffb43361"},"vehicle_type_id":"4","last_reported":1729246260,"current_range_meters":25600,"station_id":"ce4bhrh2rcd13ifvqhug","pricing_plan_id":"cebpf4jnsgd1na2vs0mg"},{"bike_id":"c22871e7-5721-4a9e-9097-0cbe25c29139","system_id":"levelo_inurba_marseille","lat":43.26198,"lon":5.37931,"is_reserved":false,"is_disabled":false,"rental_uris":{"android":"levelo://app?vid=c22871e7-5721-4a9e-9097-0cbe25c29139","ios":"levelo://app?vid=c22871e7-5721-4a9e-9097-0cbe25c29139"},"vehicle_type_id":"4","last_reported":1729246260,"current_range_meters":29600,"station_id":"ce4bhjp2rcd13ifvqg90","pricing_plan_id":"cebpf4jnsgd1na2vs0mg"},{"bike_id":"d5453104-4e26-49cc-8e26-384ccaaff964","system_id":"levelo_inurba_marseille","lat":43.26558,"lon":5.37275,"is_reserved":false,"is_disabled":false,"rental_uris":{"android":"levelo://app?vid=d5453104-4e26-49cc-8e26-384ccaaff964","ios":"levelo://app?vid=d5453104-4e26-49cc-8e26-384ccaaff964"},"vehicle_type_id":"4","last_reported":1729246260,"current_range_meters":31200,"station_id":"ce4bhg12rcd13ifvqf70","pricing_plan_id":"cebpf4jnsgd1na2vs0mg"},{"bike_id":"944e2bb0-4607-411f-9364-8bb6f04a2a7f","system_id":"levelo_inurba_marseille","lat":43.26795,"lon":5.39414,"is_reserved":false,"is_disabled":false,"rental_uris":{"android":"levelo://app?vid=944e2bb0-4607-411f-9364-8bb6f04a2a7f","ios":"levelo://app?vid=944e2bb0-4607-411f-9364-8bb6f04a2a7f"},"vehicle_type_id":"4","last_reported":1729246260,"current_range_meters":23200,"station_id":"ce4bhh12rcd13ifvqfg0","pricing_plan_id":"cebpf4jnsgd1na2vs0mg"},{"bike_id":"646e2cf2-8282-4589-a194-12e4d373c2b1","system_id":"levelo_inurba_marseille","lat":43.23192,"lon":5.35551,"is_reserved":false,"is_disabled":false,"rental_uris":{"android":"levelo://app?vid=646e2cf2-8282-4589-a194-12e4d373c2b1","ios":"levelo://app?vid=646e2cf2-8282-4589-a194-12e4d373c2b1"},"vehicle_type_id":"4","last_reported":1729246260,"current_range_meters":38800,"station_id":"ce4bhu92rcd13ifvqi70","pricing_plan_id":"cebpf4jnsgd1na2vs0mg"},{"bike_id":"5d0ffe76-8325-4e22-b066-41597301d918","system_id":"levelo_inurba_marseille","lat":43.29874,"lon":5.39724,"is_reserved":false,"is_disabled":false,"rental_uris":{"android":"levelo://app?vid=5d0ffe76-8325-4e22-b066-41597301d918","ios":"levelo://app?vid=5d0ffe76-8325-4e22-b066-41597301d918"},"vehicle_type_id":"4","last_reported":1729246260,"current_range_meters":38800,"station_id":"ce4bh0h2rcd13ifvqd50","pricing_plan_id":"cebpf4jnsgd1na2vs0mg"},{"bike_id":"8e23c297-3167-40ad-a346-3127dba1f666","system_id":"levelo_inurba_marseille","lat":43.296173,"lon":5.37161,"is_reserved":false,"is_disabled":false,"rental_uris":{"android":"levelo://app?vid=8e23c297-3167-40ad-a346-3127dba1f666","ios":"levelo://app?vid=8e23c297-3167-40ad-a346-3127dba1f666"},"vehicle_type_id":"4","last_reported":1729246260,"current_range_meters":31200,"station_id":"ce4bgnh2rcd13ifvqc0g","pricing_plan_id":"cebpf4jnsgd1na2vs0mg"},{"bike_id":"94dad7f8-6585-4b37-b691-74420d23ef13","system_id":"levelo_inurba_marseille","lat":43.30802,"lon":5.43511,"is_reserved":false,"is_disabled":false,"rental_uris":{"android":"levelo://app?vid=94dad7f8-6585-4b37-b691-74420d23ef13","ios":"levelo://app?vid=94dad7f8-6585-4b37-b691-74420d23ef13"},"vehicle_type_id":"4","last_reported":1729246260,"current_range_meters":36400,"station_id":"ce4bhph2rcd13ifvqheg","pricing_plan_id":"cebpf4jnsgd1na2vs0mg"},{"bike_id":"ac711575-16fa-4173-b0a6-0952979f5018","system_id":"levelo_inurba_marseille","lat":43.29687,"lon":5.373,"is_reserved":false,"is_disabled":false,"rental_uris":{"android":"levelo://app?vid=ac711575-16fa-4173-b0a6-0952979f5018","ios":"levelo://app?vid=ac711575-16fa-4173-b0a6-0952979f5018"},"vehicle_type_id":"4","last_reported":1729246260,"current_range_meters":39200,"station_id":"ce4bgk12rcd13ifvqbj0","pricing_plan_id":"cebpf4jnsgd1na2vs0mg"},{"bike_id":"4562e9bb-7c1e-4e0e-95e1-858d0f8d86d1","system_id":"levelo_inurba_marseille","lat":43.23193,"lon":5.35553,"is_reserved":false,"is_disabled":false,"rental_uris":{"android":"levelo://app?vid=4562e9bb-7c1e-4e0e-95e1-858d0f8d86d1","ios":"levelo://app?vid=4562e9bb-7c1e-4e0e-95e1-858d0f8d86d1"},"vehicle_type_id":"4","last_reported":1729246260,"current_range_meters":35600,"station_id":"ce4bhu92rcd13ifvqi70","pricing_plan_id":"cebpf4jnsgd1na2vs0mg"},{"bike_id":"87952883-0bcf-4e99-b227-c8f0f0ecaad4","system_id":"levelo_inurba_marseille","lat":43.30545,"lon":5.36536,"is_reserved":false,"is_disabled":false,"rental_uris":{"android":"levelo://app?vid=87952883-0bcf-4e99-b227-c8f0f0ecaad4","ios":"levelo://app?vid=87952883-0bcf-4e99-b227-c8f0f0ecaad4"},"vehicle_type_id":"4","last_reported":1729246260,"current_range_meters":28800,"station_id":"ce4bgs12rcd13ifvqcag","pricing_plan_id":"cebpf4jnsgd1na2vs0mg"},{"bike_id":"ecfa67fe-1cff-4b31-bb4d-97907e44a8b7","system_id":"levelo_inurba_marseille","lat":43.30552,"lon":5.36711,"is_reserved":false,"is_disabled":false,"rental_uris":{"android":"levelo://app?vid=ecfa67fe-1cff-4b31-bb4d-97907e44a8b7","ios":"levelo://app?vid=ecfa67fe-1cff-4b31-bb4d-97907e44a8b7"},"vehicle_type_id":"4","last_reported":1729246260,"current_range_meters":26000,"station_id":"ce4bgrp2rcd13ifvqc9g","pricing_plan_id":"cebpf4jnsgd1na2vs0mg"},{"bike_id":"6837ac97-30a8-4145-8047-b6d6df61ac48","system_id":"levelo_inurba_marseille","lat":43.23185,"lon":5.39993,"is_reserved":false,"is_disabled":false,"rental_uris":{"android":"levelo://app?vid=6837ac97-30a8-4145-8047-b6d6df61ac48","ios":"levelo://app?vid=6837ac97-30a8-4145-8047-b6d6df61ac48"},"vehicle_type_id":"4","last_reported":1729246260,"current_range_meters":38800,"station_id":"ce4bhn12rcd13ifvqgqg","pricing_plan_id":"cebpf4jnsgd1na2vs0mg"},{"bike_id":"2140b6a3-5118-4150-823e-9225aeb56201","system_id":"levelo_inurba_marseille","lat":43.23198,"lon":5.35547,"is_reserved":false,"is_disabled":false,"rental_uris":{"android":"levelo://app?vid=2140b6a3-5118-4150-823e-9225aeb56201","ios":"levelo://app?vid=2140b6a3-5118-4150-823e-9225aeb56201"},"vehicle_type_id":"4","last_reported":1729246260,"current_range_meters":32000,"station_id":"ce4bhu92rcd13ifvqi70","pricing_plan_id":"cebpf4jnsgd1na2vs0mg"},{"bike_id":"2d26828d-d90f-4409-8e3f-2bdaa5ca0cb2","system_id":"levelo_inurba_marseille","lat":43.2318,"lon":5.39989,"is_reserved":false,"is_disabled":false,"rental_uris":{"android":"levelo://app?vid=2d26828d-d90f-4409-8e3f-2bdaa5ca0cb2","ios":"levelo://app?vid=2d26828d-d90f-4409-8e3f-2bdaa5ca0cb2"},"vehicle_type_id":"4","last_reported":1729246260,"current_range_meters":33200,"station_id":"ce4bhn12rcd13ifvqgqg","pricing_plan_id":"cebpf4jnsgd1na2vs0mg"},{"bike_id":"6ef7cd72-4b51-4f78-881f-47bbe66d4705","system_id":"levelo_inurba_marseille","lat":43.29589,"lon":5.38109,"is_reserved":false,"is_disabled":false,"rental_uris":{"android":"levelo://app?vid=6ef7cd72-4b51-4f78-881f-47bbe66d4705","ios":"levelo://app?vid=6ef7cd72-4b51-4f78-881f-47bbe66d4705"},"vehicle_type_id":"4","last_reported":1729246260,"current_range_meters":38800,"station_id":"ce4bgl12rcd13ifvqbo0","pricing_plan_id":"cebpf4jnsgd1na2vs0mg"},{"bike_id":"97c4c9ee-f754-494d-8f98-2247ad2949d7","system_id":"levelo_inurba_marseille","lat":43.25089,"lon":5.39521,"is_reserved":false,"is_disabled":false,"rental_uris":{"android":"levelo://app?vid=97c4c9ee-f754-494d-8f98-2247ad2949d7","ios":"levelo://app?vid=97c4c9ee-f754-494d-8f98-2247ad2949d7"},"vehicle_type_id":"4","last_reported":1729246260,"current_range_meters":21600,"station_id":"ce4bhm12rcd13ifvqgkg","pricing_plan_id":"cebpf4jnsgd1na2vs0mg"},{"bike_id":"409b1cfc-6b98-4063-8591-394d4a058781","system_id":"levelo_inurba_marseille","lat":43.27205,"lon":5.39182,"is_reserved":false,"is_disabled":false,"rental_uris":{"android":"levelo://app?vid=409b1cfc-6b98-4063-8591-394d4a058781","ios":"levelo://app?vid=409b1cfc-6b98-4063-8591-394d4a058781"},"vehicle_type_id":"4","last_reported":1729246260,"current_range_meters":36400,"station_id":"ce4bhhp2rcd13ifvqfm0","pricing_plan_id":"cebpf4jnsgd1na2vs0mg"},{"bike_id":"38e27b30-a6f6-4a8d-84d6-515994ecd10e","system_id":"levelo_inurba_marseille","lat":43.27068,"lon":5.42281,"is_reserved":false,"is_disabled":false,"rental_uris":{"android":"levelo://app?vid=38e27b30-a6f6-4a8d-84d6-515994ecd10e","ios":"levelo://app?vid=38e27b30-a6f6-4a8d-84d6-515994ecd10e"},"vehicle_type_id":"4","last_reported":1729246260,"current_range_meters":11200,"station_id":"ce4bhk92rcd13ifvqgb0","pricing_plan_id":"cebpf4jnsgd1na2vs0mg"},{"bike_id":"73571360-6624-497e-ae84-61a3fbd766b0","system_id":"levelo_inurba_marseille","lat":43.255,"lon":5.37653,"is_reserved":false,"is_disabled":false,"rental_uris":{"android":"levelo://app?vid=73571360-6624-497e-ae84-61a3fbd766b0","ios":"levelo://app?vid=73571360-6624-497e-ae84-61a3fbd766b0"},"vehicle_type_id":"4","last_reported":1729246260,"current_range_meters":39200,"station_id":"ce4bhh12rcd13ifvqff0","pricing_plan_id":"cebpf4jnsgd1na2vs0mg"},{"bike_id":"fa9433b4-083f-47af-bd7b-c30153b643c4","system_id":"levelo_inurba_marseille","lat":43.2707,"lon":5.42276,"is_reserved":false,"is_disabled":false,"rental_uris":{"android":"levelo://app?vid=fa9433b4-083f-47af-bd7b-c30153b643c4","ios":"levelo://app?vid=fa9433b4-083f-47af-bd7b-c30153b643c4"},"vehicle_type_id":"4","last_reported":1729246260,"current_range_meters":24400,"station_id":"ce4bhk92rcd13ifvqgb0","pricing_plan_id":"cebpf4jnsgd1na2vs0mg"},{"bike_id":"79d99cb6-9f4a-4985-add3-9e0d30e8cab2","system_id":"levelo_inurba_marseille","lat":43.30597,"lon":5.37221,"is_reserved":false,"is_disabled":false,"rental_uris":{"android":"levelo://app?vid=79d99cb6-9f4a-4985-add3-9e0d30e8cab2","ios":"levelo://app?vid=79d99cb6-9f4a-4985-add3-9e0d30e8cab2"},"vehicle_type_id":"4","last_reported":1729246260,"current_range_meters":33200,"station_id":"ce4bgqh2rcd13ifvqc4g","pricing_plan_id":"cebpf4jnsgd1na2vs0mg"},{"bike_id":"175755d7-0c67-48b4-8af6-3d11fd590c37","system_id":"levelo_inurba_marseille","lat":43.23961,"lon":5.36629,"is_reserved":false,"is_disabled":false,"rental_uris":{"android":"levelo://app?vid=175755d7-0c67-48b4-8af6-3d11fd590c37","ios":"levelo://app?vid=175755d7-0c67-48b4-8af6-3d11fd590c37"},"vehicle_type_id":"4","last_reported":1729246260,"current_range_meters":33600,"station_id":"ce4bhi12rcd13ifvqfp0","pricing_plan_id":"cebpf4jnsgd1na2vs0mg"},{"bike_id":"7772d39f-5e28-445c-af91-069b0cf63793","system_id":"levelo_inurba_marseille","lat":43.33765,"lon":5.37438,"is_reserved":false,"is_disabled":false,"rental_uris":{"android":"levelo://app?vid=7772d39f-5e28-445c-af91-069b0cf63793","ios":"levelo://app?vid=7772d39f-5e28-445c-af91-069b0cf63793"},"vehicle_type_id":"4","last_reported":1729246260,"current_range_meters":14000,"station_id":"","pricing_plan_id":"cebpf4jnsgd1na2vs0mg"},{"bike_id":"36f68dd6-3f5f-4769-a925-3cf70124219e","system_id":"levelo_inurba_marseille","lat":43.26202,"lon":5.37924,"is_reserved":false,"is_disabled":false,"rental_uris":{"android":"levelo://app?vid=36f68dd6-3f5f-4769-a925-3cf70124219e","ios":"levelo://app?vid=36f68dd6-3f5f-4769-a925-3cf70124219e"},"vehicle_type_id":"4","last_reported":1729246260,"current_range_meters":12000,"station_id":"ce4bhjp2rcd13ifvqg90","pricing_plan_id":"cebpf4jnsgd1na2vs0mg"},{"bike_id":"e0ab6bb6-c6b9-4385-b41c-27bea5d9c0cb","system_id":"levelo_inurba_marseille","lat":43.33028,"lon":5.39036,"is_reserved":false,"is_disabled":false,"rental_uris":{"android":"levelo://app?vid=e0ab6bb6-c6b9-4385-b41c-27bea5d9c0cb","ios":"levelo://app?vid=e0ab6bb6-c6b9-4385-b41c-27bea5d9c0cb"},"vehicle_type_id":"4","last_reported":1729246260,"current_range_meters":24400,"station_id":"ce4bhr92rcd13ifvqhrg","pricing_plan_id":"cebpf4jnsgd1na2vs0mg"},{"bike_id":"4ef6f5b0-7cd1-44d6-be09-65327a7c29ac","system_id":"levelo_inurba_marseille","lat":43.34144,"lon":5.40898,"is_reserved":false,"is_disabled":false,"rental_uris":{"android":"levelo://app?vid=4ef6f5b0-7cd1-44d6-be09-65327a7c29ac","ios":"levelo://app?vid=4ef6f5b0-7cd1-44d6-be09-65327a7c29ac"},"vehicle_type_id":"4","last_reported":1729246260,"current_range_meters":36800,"station_id":"ce4bhqh2rcd13ifvqhlg","pricing_plan_id":"cebpf4jnsgd1na2vs0mg"},{"bike_id":"3213665e-989c-4d22-9f5a-31c8522597dd","system_id":"levelo_inurba_marseille","lat":43.296,"lon":5.36142,"is_reserved":false,"is_disabled":false,"rental_uris":{"android":"levelo://app?vid=3213665e-989c-4d22-9f5a-31c8522597dd","ios":"levelo://app?vid=3213665e-989c-4d22-9f5a-31c8522597dd"},"vehicle_type_id":"4","last_reported":1729246260,"current_range_meters":24400,"station_id":"","pricing_plan_id":"cebpf4jnsgd1na2vs0mg"},{"bike_id":"5ebeafe0-1648-4c19-848b-db4c94e2765b","system_id":"levelo_inurba_marseille","lat":43.29229,"lon":5.36067,"is_reserved":false,"is_disabled":false,"rental_uris":{"android":"levelo://app?vid=5ebeafe0-1648-4c19-848b-db4c94e2765b","ios":"levelo://app?vid=5ebeafe0-1648-4c19-848b-db4c94e2765b"},"vehicle_type_id":"4","last_reported":1729246260,"current_range_meters":36800,"station_id":"ce4bhbh2rcd13ifvqeqg","pricing_plan_id":"cebpf4jnsgd1na2vs0mg"},{"bike_id":"cddb2538-acdb-46a5-bc95-6e0a8d74ef0c","system_id":"levelo_inurba_marseille","lat":43.30798,"lon":5.43526,"is_reserved":false,"is_disabled":false,"rental_uris":{"android":"levelo://app?vid=cddb2538-acdb-46a5-bc95-6e0a8d74ef0c","ios":"levelo://app?vid=cddb2538-acdb-46a5-bc95-6e0a8d74ef0c"},"vehicle_type_id":"4","last_reported":1729246260,"current_range_meters":32000,"station_id":"ce4bhph2rcd13ifvqheg","pricing_plan_id":"cebpf4jnsgd1na2vs0mg"},{"bike_id":"8f431045-551e-4ac4-a635-d10b10d8159d","system_id":"levelo_inurba_marseille","lat":43.30531,"lon":5.36526,"is_reserved":false,"is_disabled":false,"rental_uris":{"android":"levelo://app?vid=8f431045-551e-4ac4-a635-d10b10d8159d","ios":"levelo://app?vid=8f431045-551e-4ac4-a635-d10b10d8159d"},"vehicle_type_id":"4","last_reported":1729246260,"current_range_meters":38800,"station_id":"ce4bgs12rcd13ifvqcag","pricing_plan_id":"cebpf4jnsgd1na2vs0mg"},{"bike_id":"5f50933a-822a-4388-8612-62a3f233b7b7","system_id":"levelo_inurba_marseille","lat":43.23155,"lon":5.43718,"is_reserved":false,"is_disabled":false,"rental_uris":{"android":"levelo://app?vid=5f50933a-822a-4388-8612-62a3f233b7b7","ios":"levelo://app?vid=5f50933a-822a-4388-8612-62a3f233b7b7"},"vehicle_type_id":"4","last_reported":1729246260,"current_range_meters":28000,"station_id":"ce4bhmp2rcd13ifvqgog","pricing_plan_id":"cebpf4jnsgd1na2vs0mg"},{"bike_id":"8f95a266-11aa-478e-82a1-83102654e976","system_id":"levelo_inurba_marseille","lat":43.2742,"lon":5.3941,"is_reserved":false,"is_disabled":false,"rental_uris":{"android":"levelo://app?vid=8f95a266-11aa-478e-82a1-83102654e976","ios":"levelo://app?vid=8f95a266-11aa-478e-82a1-83102654e976"},"vehicle_type_id":"4","last_reported":1729246260,"current_range_meters":38800,"station_id":"ce4bhdp2rcd13ifvqf20","pricing_plan_id":"cebpf4jnsgd1na2vs0mg"},{"bike_id":"1641b826-604a-4181-8231-dca386f637a6","system_id":"levelo_inurba_marseille","lat":43.23194,"lon":5.35549,"is_reserved":false,"is_disabled":false,"rental_uris":{"android":"levelo://app?vid=1641b826-604a-4181-8231-dca386f637a6","ios":"levelo://app?vid=1641b826-604a-4181-8231-dca386f637a6"},"vehicle_type_id":"4","last_reported":1729246260,"current_range_meters":30000,"station_id":"ce4bhu92rcd13ifvqi70","pricing_plan_id":"cebpf4jnsgd1na2vs0mg"},{"bike_id":"89211ee2-076f-4df3-92bd-cd8885f2e76d","system_id":"levelo_inurba_marseille","lat":43.23194,"lon":5.35556,"is_reserved":false,"is_disabled":false,"rental_uris":{"android":"levelo://app?vid=89211ee2-076f-4df3-92bd-cd8885f2e76d","ios":"levelo://app?vid=89211ee2-076f-4df3-92bd-cd8885f2e76d"},"vehicle_type_id":"4","last_reported":1729246260,"current_range_meters":28800,"station_id":"ce4bhu92rcd13ifvqi70","pricing_plan_id":"cebpf4jnsgd1na2vs0mg"},{"bike_id":"ad7b4d6b-0664-4d0e-891e-2962f31c57b3","system_id":"levelo_inurba_marseille","lat":43.23149,"lon":5.43706,"is_reserved":false,"is_disabled":false,"rental_uris":{"android":"levelo://app?vid=ad7b4d6b-0664-4d0e-891e-2962f31c57b3","ios":"levelo://app?vid=ad7b4d6b-0664-4d0e-891e-2962f31c57b3"},"vehicle_type_id":"4","last_reported":1729246260,"current_range_meters":24400,"station_id":"ce4bhmp2rcd13ifvqgog","pricing_plan_id":"cebpf4jnsgd1na2vs0mg"},{"bike_id":"683320c4-c590-4f1f-8bf7-2f8c0c48d102","system_id":"levelo_inurba_marseille","lat":43.289441,"lon":5.366411,"is_reserved":false,"is_disabled":false,"rental_uris":{"android":"levelo://app?vid=683320c4-c590-4f1f-8bf7-2f8c0c48d102","ios":"levelo://app?vid=683320c4-c590-4f1f-8bf7-2f8c0c48d102"},"vehicle_type_id":"4","last_reported":1729246260,"current_range_meters":9200,"station_id":"ce4bhap2rcd13ifvqek0","pricing_plan_id":"cebpf4jnsgd1na2vs0mg"},{"bike_id":"ccfec720-c275-4826-9f2d-93370aebcdbf","system_id":"levelo_inurba_marseille","lat":43.29718,"lon":5.37693,"is_reserved":false,"is_disabled":false,"rental_uris":{"android":"levelo://app?vid=ccfec720-c275-4826-9f2d-93370aebcdbf","ios":"levelo://app?vid=ccfec720-c275-4826-9f2d-93370aebcdbf"},"vehicle_type_id":"4","last_reported":1729246260,"current_range_meters":3200,"station_id":"ce4bgkh2rcd13ifvqbl0","pricing_plan_id":"cebpf4jnsgd1na2vs0mg"},{"bike_id":"5e71651e-3f89-45a8-aa11-bf64ca86ed10","system_id":"levelo_inurba_marseille","lat":43.243885,"lon":5.370674,"is_reserved":false,"is_disabled":false,"rental_uris":{"android":"levelo://app?vid=5e71651e-3f89-45a8-aa11-bf64ca86ed10","ios":"levelo://app?vid=5e71651e-3f89-45a8-aa11-bf64ca86ed10"},"vehicle_type_id":"4","last_reported":1729246260,"current_range_meters":12400,"station_id":"ce4bhhh2rcd13ifvqfk0","pricing_plan_id":"cebpf4jnsgd1na2vs0mg"},{"bike_id":"03908e1d-2d54-49b0-9164-626417a1a516","system_id":"levelo_inurba_marseille","lat":43.29928,"lon":5.36534,"is_reserved":false,"is_disabled":false,"rental_uris":{"android":"levelo://app?vid=03908e1d-2d54-49b0-9164-626417a1a516","ios":"levelo://app?vid=03908e1d-2d54-49b0-9164-626417a1a516"},"vehicle_type_id":"4","last_reported":1729246260,"current_range_meters":39200,"station_id":"ce4bgm92rcd13ifvqbr0","pricing_plan_id":"cebpf4jnsgd1na2vs0mg"},{"bike_id":"422d485a-ee3c-4fc3-b2c4-fc8dab31d119","system_id":"levelo_inurba_marseille","lat":43.23964,"lon":5.36625,"is_reserved":false,"is_disabled":false,"rental_uris":{"android":"levelo://app?vid=422d485a-ee3c-4fc3-b2c4-fc8dab31d119","ios":"levelo://app?vid=422d485a-ee3c-4fc3-b2c4-fc8dab31d119"},"vehicle_type_id":"4","last_reported":1729246260,"current_range_meters":16000,"station_id":"ce4bhi12rcd13ifvqfp0","pricing_plan_id":"cebpf4jnsgd1na2vs0mg"},{"bike_id":"a50e2869-4c31-4174-8528-6206e4c46a23","system_id":"levelo_inurba_marseille","lat":43.258178,"lon":5.394368,"is_reserved":false,"is_disabled":false,"rental_uris":{"android":"levelo://app?vid=a50e2869-4c31-4174-8528-6206e4c46a23","ios":"levelo://app?vid=a50e2869-4c31-4174-8528-6206e4c46a23"},"vehicle_type_id":"4","last_reported":1729246260,"current_range_meters":32400,"station_id":"ce4bhip2rcd13ifvqft0","pricing_plan_id":"cebpf4jnsgd1na2vs0mg"},{"bike_id":"87440bd7-4730-412f-b52f-03b263c3d6ba","system_id":"levelo_inurba_marseille","lat":43.23191,"lon":5.35551,"is_reserved":false,"is_disabled":false,"rental_uris":{"android":"levelo://app?vid=87440bd7-4730-412f-b52f-03b263c3d6ba","ios":"levelo://app?vid=87440bd7-4730-412f-b52f-03b263c3d6ba"},"vehicle_type_id":"4","last_reported":1729246260,"current_range_meters":13600,"station_id":"ce4bhu92rcd13ifvqi70","pricing_plan_id":"cebpf4jnsgd1na2vs0mg"},{"bike_id":"96890f70-9461-47c6-a040-c5dd5d450a59","system_id":"levelo_inurba_marseille","lat":43.29002,"lon":5.35605,"is_reserved":false,"is_disabled":false,"rental_uris":{"android":"levelo://app?vid=96890f70-9461-47c6-a040-c5dd5d450a59","ios":"levelo://app?vid=96890f70-9461-47c6-a040-c5dd5d450a59"},"vehicle_type_id":"4","last_reported":1729246260,"current_range_meters":7200,"station_id":"ce4bhb92rcd13ifvqen0","pricing_plan_id":"cebpf4jnsgd1na2vs0mg"},{"bike_id":"ef4dd203-fcc5-4759-ae60-6c03f2e0543e","system_id":"levelo_inurba_marseille","lat":43.30902,"lon":5.36855,"is_reserved":false,"is_disabled":false,"rental_uris":{"android":"levelo://app?vid=ef4dd203-fcc5-4759-ae60-6c03f2e0543e","ios":"levelo://app?vid=ef4dd203-fcc5-4759-ae60-6c03f2e0543e"},"vehicle_type_id":"4","last_reported":1729246260,"current_range_meters":38800,"station_id":"ce4bgn92rcd13ifvqbvg","pricing_plan_id":"cebpf4jnsgd1na2vs0mg"},{"bike_id":"4d426bda-63ef-450b-91a6-09e720615ceb","system_id":"levelo_inurba_marseille","lat":43.24077,"lon":5.37751,"is_reserved":false,"is_disabled":false,"rental_uris":{"android":"levelo://app?vid=4d426bda-63ef-450b-91a6-09e720615ceb","ios":"levelo://app?vid=4d426bda-63ef-450b-91a6-09e720615ceb"},"vehicle_type_id":"4","last_reported":1729246260,"current_range_meters":32000,"station_id":"ce4bhnp2rcd13ifvqgvg","pricing_plan_id":"cebpf4jnsgd1na2vs0mg"},{"bike_id":"f2e0eb79-06d2-4284-9540-1e16fe68288c","system_id":"levelo_inurba_marseille","lat":43.27494,"lon":5.42445,"is_reserved":false,"is_disabled":false,"rental_uris":{"android":"levelo://app?vid=f2e0eb79-06d2-4284-9540-1e16fe68288c","ios":"levelo://app?vid=f2e0eb79-06d2-4284-9540-1e16fe68288c"},"vehicle_type_id":"4","last_reported":1729246260,"current_range_meters":33200,"station_id":"","pricing_plan_id":"cebpf4jnsgd1na2vs0mg"},{"bike_id":"14d9a7b4-873f-4860-ac59-8d7043ffa3b6","system_id":"levelo_inurba_marseille","lat":43.27998,"lon":5.41656,"is_reserved":false,"is_disabled":false,"rental_uris":{"android":"levelo://app?vid=14d9a7b4-873f-4860-ac59-8d7043ffa3b6","ios":"levelo://app?vid=14d9a7b4-873f-4860-ac59-8d7043ffa3b6"},"vehicle_type_id":"4","last_reported":1729246260,"current_range_meters":27200,"station_id":"ce4bho12rcd13ifvqh1g","pricing_plan_id":"cebpf4jnsgd1na2vs0mg"},{"bike_id":"5360fe1a-8871-40cb-9d2d-a3453266be18","system_id":"levelo_inurba_marseille","lat":43.24995,"lon":5.38932,"is_reserved":false,"is_disabled":false,"rental_uris":{"android":"levelo://app?vid=5360fe1a-8871-40cb-9d2d-a3453266be18","ios":"levelo://app?vid=5360fe1a-8871-40cb-9d2d-a3453266be18"},"vehicle_type_id":"4","last_reported":1729246260,"current_range_meters":24400,"station_id":"ce4bhgp2rcd13ifvqfd0","pricing_plan_id":"cebpf4jnsgd1na2vs0mg"},{"bike_id":"bb35788a-1134-49f1-8fcf-1b6d76edd5c2","system_id":"levelo_inurba_marseille","lat":43.29165,"lon":5.37165,"is_reserved":false,"is_disabled":false,"rental_uris":{"android":"levelo://app?vid=bb35788a-1134-49f1-8fcf-1b6d76edd5c2","ios":"levelo://app?vid=bb35788a-1134-49f1-8fcf-1b6d76edd5c2"},"vehicle_type_id":"4","last_reported":1729246260,"current_range_meters":24400,"station_id":"ce4bha92rcd13ifvqeh0","pricing_plan_id":"cebpf4jnsgd1na2vs0mg"},{"bike_id":"ac8724a5-4ef8-43ee-8355-6920094b3c5d","system_id":"levelo_inurba_marseille","lat":43.33759,"lon":5.37436,"is_reserved":false,"is_disabled":false,"rental_uris":{"android":"levelo://app?vid=ac8724a5-4ef8-43ee-8355-6920094b3c5d","ios":"levelo://app?vid=ac8724a5-4ef8-43ee-8355-6920094b3c5d"},"vehicle_type_id":"4","last_reported":1729246260,"current_range_meters":38000,"station_id":"","pricing_plan_id":"cebpf4jnsgd1na2vs0mg"},{"bike_id":"5dea50a4-1d92-4427-a32b-1890395130ff","system_id":"levelo_inurba_marseille","lat":43.27369,"lon":5.3626,"is_reserved":false,"is_disabled":false,"rental_uris":{"android":"levelo://app?vid=5dea50a4-1d92-4427-a32b-1890395130ff","ios":"levelo://app?vid=5dea50a4-1d92-4427-a32b-1890395130ff"},"vehicle_type_id":"4","last_reported":1729246260,"current_range_meters":37600,"station_id":"ce4bhbh2rcd13ifvqeo0","pricing_plan_id":"cebpf4jnsgd1na2vs0mg"},{"bike_id":"b8d0654d-64b6-449f-b607-a39045e006fd","system_id":"levelo_inurba_marseille","lat":43.27423,"lon":5.39413,"is_reserved":false,"is_disabled":false,"rental_uris":{"android":"levelo://app?vid=b8d0654d-64b6-449f-b607-a39045e006fd","ios":"levelo://app?vid=b8d0654d-64b6-449f-b607-a39045e006fd"},"vehicle_type_id":"4","last_reported":1729246260,"current_range_meters":37600,"station_id":"ce4bhdp2rcd13ifvqf20","pricing_plan_id":"cebpf4jnsgd1na2vs0mg"},{"bike_id":"823c4ccf-78cb-48e5-82e3-1b0b41fd0c6b","system_id":"levelo_inurba_marseille","lat":43.29898,"lon":5.38151,"is_reserved":false,"is_disabled":false,"rental_uris":{"android":"levelo://app?vid=823c4ccf-78cb-48e5-82e3-1b0b41fd0c6b","ios":"levelo://app?vid=823c4ccf-78cb-48e5-82e3-1b0b41fd0c6b"},"vehicle_type_id":"4","last_reported":1729246260,"current_range_meters":38400,"station_id":"ce4bgj12rcd13ifvqbc0","pricing_plan_id":"cebpf4jnsgd1na2vs0mg"},{"bike_id":"a7a6847f-5fae-42c4-ada7-a3c41d5525a4","system_id":"levelo_inurba_marseille","lat":43.272112,"lon":5.391791,"is_reserved":false,"is_disabled":false,"rental_uris":{"android":"levelo://app?vid=a7a6847f-5fae-42c4-ada7-a3c41d5525a4","ios":"levelo://app?vid=a7a6847f-5fae-42c4-ada7-a3c41d5525a4"},"vehicle_type_id":"4","last_reported":1729246260,"current_range_meters":33600,"station_id":"ce4bhhp2rcd13ifvqfm0","pricing_plan_id":"cebpf4jnsgd1na2vs0mg"},{"bike_id":"4894e6ed-29b3-4382-b507-576941d29e8b","system_id":"levelo_inurba_marseille","lat":43.3017,"lon":5.38085,"is_reserved":false,"is_disabled":false,"rental_uris":{"android":"levelo://app?vid=4894e6ed-29b3-4382-b507-576941d29e8b","ios":"levelo://app?vid=4894e6ed-29b3-4382-b507-576941d29e8b"},"vehicle_type_id":"4","last_reported":1729246260,"current_range_meters":38800,"station_id":"ce4bgjp2rcd13ifvqbh0","pricing_plan_id":"cebpf4jnsgd1na2vs0mg"},{"bike_id":"5e1fb0a4-2cb9-4342-b3bb-7c3009186682","system_id":"levelo_inurba_marseille","lat":43.30932,"lon":5.40141,"is_reserved":false,"is_disabled":false,"rental_uris":{"android":"levelo://app?vid=5e1fb0a4-2cb9-4342-b3bb-7c3009186682","ios":"levelo://app?vid=5e1fb0a4-2cb9-4342-b3bb-7c3009186682"},"vehicle_type_id":"4","last_reported":1729246260,"current_range_meters":26000,"station_id":"ce4bgvp2rcd13ifvqct0","pricing_plan_id":"cebpf4jnsgd1na2vs0mg"},{"bike_id":"a0d1f48f-4d8d-4385-8400-04795ef1f250","system_id":"levelo_inurba_marseille","lat":43.26559,"lon":5.37285,"is_reserved":false,"is_disabled":false,"rental_uris":{"android":"levelo://app?vid=a0d1f48f-4d8d-4385-8400-04795ef1f250","ios":"levelo://app?vid=a0d1f48f-4d8d-4385-8400-04795ef1f250"},"vehicle_type_id":"4","last_reported":1729246260,"current_range_meters":38800,"station_id":"ce4bhg12rcd13ifvqf70","pricing_plan_id":"cebpf4jnsgd1na2vs0mg"},{"bike_id":"09ee574a-9282-47f1-a884-5bb7d48c0840","system_id":"levelo_inurba_marseille","lat":43.25,"lon":5.38928,"is_reserved":false,"is_disabled":false,"rental_uris":{"android":"levelo://app?vid=09ee574a-9282-47f1-a884-5bb7d48c0840","ios":"levelo://app?vid=09ee574a-9282-47f1-a884-5bb7d48c0840"},"vehicle_type_id":"4","last_reported":1729246260,"current_range_meters":39200,"station_id":"ce4bhgp2rcd13ifvqfd0","pricing_plan_id":"cebpf4jnsgd1na2vs0mg"},{"bike_id":"915d8fda-eaef-4a60-9d36-992c88c1e042","system_id":"levelo_inurba_marseille","lat":43.25004,"lon":5.38926,"is_reserved":false,"is_disabled":false,"rental_uris":{"android":"levelo://app?vid=915d8fda-eaef-4a60-9d36-992c88c1e042","ios":"levelo://app?vid=915d8fda-eaef-4a60-9d36-992c88c1e042"},"vehicle_type_id":"4","last_reported":1729246260,"current_range_meters":39200,"station_id":"ce4bhgp2rcd13ifvqfd0","pricing_plan_id":"cebpf4jnsgd1na2vs0mg"},{"bike_id":"a4b88a8f-d604-4f6f-b1a1-e74abc504ac6","system_id":"levelo_inurba_marseille","lat":43.30551,"lon":5.3653,"is_reserved":false,"is_disabled":false,"rental_uris":{"android":"levelo://app?vid=a4b88a8f-d604-4f6f-b1a1-e74abc504ac6","ios":"levelo://app?vid=a4b88a8f-d604-4f6f-b1a1-e74abc504ac6"},"vehicle_type_id":"4","last_reported":1729246260,"current_range_meters":37600,"station_id":"ce4bgs12rcd13ifvqcag","pricing_plan_id":"cebpf4jnsgd1na2vs0mg"},{"bike_id":"a9295dde-ceb4-4ca6-940b-7dd28fc752be","system_id":"levelo_inurba_marseille","lat":43.32482,"lon":5.36558,"is_reserved":false,"is_disabled":false,"rental_uris":{"android":"levelo://app?vid=a9295dde-ceb4-4ca6-940b-7dd28fc752be","ios":"levelo://app?vid=a9295dde-ceb4-4ca6-940b-7dd28fc752be"},"vehicle_type_id":"4","last_reported":1729246260,"current_range_meters":24000,"station_id":"ce4bhs12rcd13ifvqhvg","pricing_plan_id":"cebpf4jnsgd1na2vs0mg"},{"bike_id":"9217c477-c508-4527-8d8d-f4b42982126a","system_id":"levelo_inurba_marseille","lat":43.2315,"lon":5.43701,"is_reserved":false,"is_disabled":false,"rental_uris":{"android":"levelo://app?vid=9217c477-c508-4527-8d8d-f4b42982126a","ios":"levelo://app?vid=9217c477-c508-4527-8d8d-f4b42982126a"},"vehicle_type_id":"4","last_reported":1729246260,"current_range_meters":8400,"station_id":"ce4bhmp2rcd13ifvqgog","pricing_plan_id":"cebpf4jnsgd1na2vs0mg"},{"bike_id":"6805634c-6374-41b6-b2d6-4225901e051c","system_id":"levelo_inurba_marseille","lat":43.25494,"lon":5.37648,"is_reserved":false,"is_disabled":false,"rental_uris":{"android":"levelo://app?vid=6805634c-6374-41b6-b2d6-4225901e051c","ios":"levelo://app?vid=6805634c-6374-41b6-b2d6-4225901e051c"},"vehicle_type_id":"4","last_reported":1729246260,"current_range_meters":19600,"station_id":"ce4bhh12rcd13ifvqff0","pricing_plan_id":"cebpf4jnsgd1na2vs0mg"},{"bike_id":"292b9425-1372-40d4-bf0a-fe57aa779a41","system_id":"levelo_inurba_marseille","lat":43.23058,"lon":5.35496,"is_reserved":false,"is_disabled":false,"rental_uris":{"android":"levelo://app?vid=292b9425-1372-40d4-bf0a-fe57aa779a41","ios":"levelo://app?vid=292b9425-1372-40d4-bf0a-fe57aa779a41"},"vehicle_type_id":"4","last_reported":1729246260,"current_range_meters":18800,"station_id":"cpo3342slgdg3j2ifvpg","pricing_plan_id":"cebpf4jnsgd1na2vs0mg"},{"bike_id":"2a5a501f-f647-467b-8667-933bcb0b6e1c","system_id":"levelo_inurba_marseille","lat":43.2594,"lon":5.40903,"is_reserved":false,"is_disabled":false,"rental_uris":{"android":"levelo://app?vid=2a5a501f-f647-467b-8667-933bcb0b6e1c","ios":"levelo://app?vid=2a5a501f-f647-467b-8667-933bcb0b6e1c"},"vehicle_type_id":"4","last_reported":1729246260,"current_range_meters":21600,"station_id":"ce4bhm92rcd13ifvqglg","pricing_plan_id":"cebpf4jnsgd1na2vs0mg"},{"bike_id":"3ed38786-470d-411a-80d4-a7d4d45bb2a0","system_id":"levelo_inurba_marseille","lat":43.26555,"lon":5.37285,"is_reserved":false,"is_disabled":false,"rental_uris":{"android":"levelo://app?vid=3ed38786-470d-411a-80d4-a7d4d45bb2a0","ios":"levelo://app?vid=3ed38786-470d-411a-80d4-a7d4d45bb2a0"},"vehicle_type_id":"4","last_reported":1729246260,"current_range_meters":34800,"station_id":"ce4bhg12rcd13ifvqf70","pricing_plan_id":"cebpf4jnsgd1na2vs0mg"},{"bike_id":"a5c9600e-0f0c-45f8-9425-80e04d71cbec","system_id":"levelo_inurba_marseille","lat":43.23145,"lon":5.43699,"is_reserved":false,"is_disabled":false,"rental_uris":{"android":"levelo://app?vid=a5c9600e-0f0c-45f8-9425-80e04d71cbec","ios":"levelo://app?vid=a5c9600e-0f0c-45f8-9425-80e04d71cbec"},"vehicle_type_id":"4","last_reported":1729246260,"current_range_meters":37600,"station_id":"ce4bhmp2rcd13ifvqgog","pricing_plan_id":"cebpf4jnsgd1na2vs0mg"},{"bike_id":"6a0c3d48-aa3b-4c9a-b420-ffd4b9f8b717","system_id":"levelo_inurba_marseille","lat":43.27812,"lon":5.40705,"is_reserved":false,"is_disabled":false,"rental_uris":{"android":"levelo://app?vid=6a0c3d48-aa3b-4c9a-b420-ffd4b9f8b717","ios":"levelo://app?vid=6a0c3d48-aa3b-4c9a-b420-ffd4b9f8b717"},"vehicle_type_id":"4","last_reported":1729246260,"current_range_meters":30400,"station_id":"ce4bhnh2rcd13ifvqgtg","pricing_plan_id":"cebpf4jnsgd1na2vs0mg"},{"bike_id":"3242b4ae-497d-41b4-9e53-f8b502151aa9","system_id":"levelo_inurba_marseille","lat":43.30143,"lon":5.37427,"is_reserved":false,"is_disabled":false,"rental_uris":{"android":"levelo://app?vid=3242b4ae-497d-41b4-9e53-f8b502151aa9","ios":"levelo://app?vid=3242b4ae-497d-41b4-9e53-f8b502151aa9"},"vehicle_type_id":"4","last_reported":1729246260,"current_range_meters":38800,"station_id":"ce4bgs92rcd13ifvqcc0","pricing_plan_id":"cebpf4jnsgd1na2vs0mg"},{"bike_id":"9f579b93-9579-4e74-ab28-c3e5da661f1d","system_id":"levelo_inurba_marseille","lat":43.29221,"lon":5.36072,"is_reserved":false,"is_disabled":false,"rental_uris":{"android":"levelo://app?vid=9f579b93-9579-4e74-ab28-c3e5da661f1d","ios":"levelo://app?vid=9f579b93-9579-4e74-ab28-c3e5da661f1d"},"vehicle_type_id":"4","last_reported":1729246260,"current_range_meters":38800,"station_id":"ce4bhbh2rcd13ifvqeqg","pricing_plan_id":"cebpf4jnsgd1na2vs0mg"},{"bike_id":"7293706f-6b68-42b8-ae89-d035226b83ea","system_id":"levelo_inurba_marseille","lat":43.29711,"lon":5.37686,"is_reserved":false,"is_disabled":false,"rental_uris":{"android":"levelo://app?vid=7293706f-6b68-42b8-ae89-d035226b83ea","ios":"levelo://app?vid=7293706f-6b68-42b8-ae89-d035226b83ea"},"vehicle_type_id":"4","last_reported":1729246260,"current_range_meters":38000,"station_id":"ce4bgkh2rcd13ifvqbl0","pricing_plan_id":"cebpf4jnsgd1na2vs0mg"},{"bike_id":"b930c546-2181-4082-b616-72daa0962436","system_id":"levelo_inurba_marseille","lat":43.23153,"lon":5.43706,"is_reserved":false,"is_disabled":false,"rental_uris":{"android":"levelo://app?vid=b930c546-2181-4082-b616-72daa0962436","ios":"levelo://app?vid=b930c546-2181-4082-b616-72daa0962436"},"vehicle_type_id":"4","last_reported":1729246260,"current_range_meters":8800,"station_id":"ce4bhmp2rcd13ifvqgog","pricing_plan_id":"cebpf4jnsgd1na2vs0mg"},{"bike_id":"6eb3af17-788a-4719-9ebe-11ea55af9ba2","system_id":"levelo_inurba_marseille","lat":43.29271,"lon":5.36838,"is_reserved":false,"is_disabled":false,"rental_uris":{"android":"levelo://app?vid=6eb3af17-788a-4719-9ebe-11ea55af9ba2","ios":"levelo://app?vid=6eb3af17-788a-4719-9ebe-11ea55af9ba2"},"vehicle_type_id":"4","last_reported":1729246260,"current_range_meters":8400,"station_id":"ce4bhbp2rcd13ifvqesg","pricing_plan_id":"cebpf4jnsgd1na2vs0mg"},{"bike_id":"0a3c574b-02a8-435c-ae46-4df1079e2785","system_id":"levelo_inurba_marseille","lat":43.2781,"lon":5.40703,"is_reserved":false,"is_disabled":false,"rental_uris":{"android":"levelo://app?vid=0a3c574b-02a8-435c-ae46-4df1079e2785","ios":"levelo://app?vid=0a3c574b-02a8-435c-ae46-4df1079e2785"},"vehicle_type_id":"4","last_reported":1729246260,"current_range_meters":26800,"station_id":"ce4bhnh2rcd13ifvqgtg","pricing_plan_id":"cebpf4jnsgd1na2vs0mg"},{"bike_id":"e3ca7803-aaa7-4ddf-8937-86afb5d1cee8","system_id":"levelo_inurba_marseille","lat":43.3171,"lon":5.437,"is_reserved":false,"is_disabled":false,"rental_uris":{"android":"levelo://app?vid=e3ca7803-aaa7-4ddf-8937-86afb5d1cee8","ios":"levelo://app?vid=e3ca7803-aaa7-4ddf-8937-86afb5d1cee8"},"vehicle_type_id":"4","last_reported":1729246260,"current_range_meters":38000,"station_id":"ce4bhp92rcd13ifvqhcg","pricing_plan_id":"cebpf4jnsgd1na2vs0mg"},{"bike_id":"c3d341cb-b075-4a76-8ce6-a19c6a141e8c","system_id":"levelo_inurba_marseille","lat":43.23149,"lon":5.43719,"is_reserved":false,"is_disabled":false,"rental_uris":{"android":"levelo://app?vid=c3d341cb-b075-4a76-8ce6-a19c6a141e8c","ios":"levelo://app?vid=c3d341cb-b075-4a76-8ce6-a19c6a141e8c"},"vehicle_type_id":"4","last_reported":1729246260,"current_range_meters":38800,"station_id":"ce4bhmp2rcd13ifvqgog","pricing_plan_id":"cebpf4jnsgd1na2vs0mg"},{"bike_id":"c5c18c45-95f0-42f9-8b38-c9ca0d015c98","system_id":"levelo_inurba_marseille","lat":43.3043,"lon":5.39739,"is_reserved":false,"is_disabled":false,"rental_uris":{"android":"levelo://app?vid=c5c18c45-95f0-42f9-8b38-c9ca0d015c98","ios":"levelo://app?vid=c5c18c45-95f0-42f9-8b38-c9ca0d015c98"},"vehicle_type_id":"4","last_reported":1729246260,"current_range_meters":31200,"station_id":"ce4bh092rcd13ifvqd20","pricing_plan_id":"cebpf4jnsgd1na2vs0mg"},{"bike_id":"19389fe6-838b-410a-886d-e2d15f6134b7","system_id":"levelo_inurba_marseille","lat":43.27371,"lon":5.36261,"is_reserved":false,"is_disabled":false,"rental_uris":{"android":"levelo://app?vid=19389fe6-838b-410a-886d-e2d15f6134b7","ios":"levelo://app?vid=19389fe6-838b-410a-886d-e2d15f6134b7"},"vehicle_type_id":"4","last_reported":1729246260,"current_range_meters":11600,"station_id":"","pricing_plan_id":"cebpf4jnsgd1na2vs0mg"},{"bike_id":"3664398f-378f-46f2-bd12-30042ad8db9d","system_id":"levelo_inurba_marseille","lat":43.23185,"lon":5.39975,"is_reserved":false,"is_disabled":false,"rental_uris":{"android":"levelo://app?vid=3664398f-378f-46f2-bd12-30042ad8db9d","ios":"levelo://app?vid=3664398f-378f-46f2-bd12-30042ad8db9d"},"vehicle_type_id":"4","last_reported":1729246260,"current_range_meters":30000,"station_id":"ce4bhn12rcd13ifvqgqg","pricing_plan_id":"cebpf4jnsgd1na2vs0mg"},{"bike_id":"b149e82b-afb3-4de8-adff-774d74fb2117","system_id":"levelo_inurba_marseille","lat":43.27066,"lon":5.42272,"is_reserved":false,"is_disabled":false,"rental_uris":{"android":"levelo://app?vid=b149e82b-afb3-4de8-adff-774d74fb2117","ios":"levelo://app?vid=b149e82b-afb3-4de8-adff-774d74fb2117"},"vehicle_type_id":"4","last_reported":1729246260,"current_range_meters":25600,"station_id":"ce4bhk92rcd13ifvqgb0","pricing_plan_id":"cebpf4jnsgd1na2vs0mg"},{"bike_id":"3c0b4095-688f-4a0f-88cc-dfe9db2b3c79","system_id":"levelo_inurba_marseille","lat":43.29845,"lon":5.36276,"is_reserved":false,"is_disabled":false,"rental_uris":{"android":"levelo://app?vid=3c0b4095-688f-4a0f-88cc-dfe9db2b3c79","ios":"levelo://app?vid=3c0b4095-688f-4a0f-88cc-dfe9db2b3c79"},"vehicle_type_id":"4","last_reported":1729246260,"current_range_meters":39200,"station_id":"ce4bgpp2rcd13ifvqc3g","pricing_plan_id":"cebpf4jnsgd1na2vs0mg"},{"bike_id":"a9d80141-cb04-4f88-bcc5-9763572e3517","system_id":"levelo_inurba_marseille","lat":43.23194,"lon":5.35546,"is_reserved":false,"is_disabled":false,"rental_uris":{"android":"levelo://app?vid=a9d80141-cb04-4f88-bcc5-9763572e3517","ios":"levelo://app?vid=a9d80141-cb04-4f88-bcc5-9763572e3517"},"vehicle_type_id":"4","last_reported":1729246260,"current_range_meters":28800,"station_id":"ce4bhu92rcd13ifvqi70","pricing_plan_id":"cebpf4jnsgd1na2vs0mg"},{"bike_id":"34a79df1-e4ae-4596-8fef-c1c9dcb95991","system_id":"levelo_inurba_marseille","lat":43.30605,"lon":5.37218,"is_reserved":false,"is_disabled":false,"rental_uris":{"android":"levelo://app?vid=34a79df1-e4ae-4596-8fef-c1c9dcb95991","ios":"levelo://app?vid=34a79df1-e4ae-4596-8fef-c1c9dcb95991"},"vehicle_type_id":"4","last_reported":1729246260,"current_range_meters":34800,"station_id":"ce4bgqh2rcd13ifvqc4g","pricing_plan_id":"cebpf4jnsgd1na2vs0mg"},{"bike_id":"3ab31a18-af13-40ac-ae62-308000937349","system_id":"levelo_inurba_marseille","lat":43.25493,"lon":5.37643,"is_reserved":false,"is_disabled":false,"rental_uris":{"android":"levelo://app?vid=3ab31a18-af13-40ac-ae62-308000937349","ios":"levelo://app?vid=3ab31a18-af13-40ac-ae62-308000937349"},"vehicle_type_id":"4","last_reported":1729246260,"current_range_meters":32800,"station_id":"ce4bhh12rcd13ifvqff0","pricing_plan_id":"cebpf4jnsgd1na2vs0mg"},{"bike_id":"16180aaa-f1d1-4f0c-9dc0-fc09c3421a5a","system_id":"levelo_inurba_marseille","lat":43.3046,"lon":5.37898,"is_reserved":false,"is_disabled":false,"rental_uris":{"android":"levelo://app?vid=16180aaa-f1d1-4f0c-9dc0-fc09c3421a5a","ios":"levelo://app?vid=16180aaa-f1d1-4f0c-9dc0-fc09c3421a5a"},"vehicle_type_id":"4","last_reported":1729246260,"current_range_meters":38800,"station_id":"ce4bgup2rcd13ifvqcn0","pricing_plan_id":"cebpf4jnsgd1na2vs0mg"},{"bike_id":"e7d4a84b-36d1-492d-bc47-195b826f5ed2","system_id":"levelo_inurba_marseille","lat":43.31328,"lon":5.39689,"is_reserved":false,"is_disabled":false,"rental_uris":{"android":"levelo://app?vid=e7d4a84b-36d1-492d-bc47-195b826f5ed2","ios":"levelo://app?vid=e7d4a84b-36d1-492d-bc47-195b826f5ed2"},"vehicle_type_id":"4","last_reported":1729246260,"current_range_meters":8400,"station_id":"ce4bgvp2rcd13ifvqcu0","pricing_plan_id":"cebpf4jnsgd1na2vs0mg"},{"bike_id":"af52aa78-d0b5-4bff-b51e-229383967bb3","system_id":"levelo_inurba_marseille","lat":43.23151,"lon":5.43715,"is_reserved":false,"is_disabled":false,"rental_uris":{"android":"levelo://app?vid=af52aa78-d0b5-4bff-b51e-229383967bb3","ios":"levelo://app?vid=af52aa78-d0b5-4bff-b51e-229383967bb3"},"vehicle_type_id":"4","last_reported":1729246260,"current_range_meters":20400,"station_id":"ce4bhmp2rcd13ifvqgog","pricing_plan_id":"cebpf4jnsgd1na2vs0mg"},{"bike_id":"778e7354-c56d-4be0-a8ab-89b969d5863e","system_id":"levelo_inurba_marseille","lat":43.27071,"lon":5.42278,"is_reserved":false,"is_disabled":false,"rental_uris":{"android":"levelo://app?vid=778e7354-c56d-4be0-a8ab-89b969d5863e","ios":"levelo://app?vid=778e7354-c56d-4be0-a8ab-89b969d5863e"},"vehicle_type_id":"4","last_reported":1729246260,"current_range_meters":19200,"station_id":"ce4bhk92rcd13ifvqgb0","pricing_plan_id":"cebpf4jnsgd1na2vs0mg"},{"bike_id":"fd495570-0604-40fb-9f36-3e2dfe8010cf","system_id":"levelo_inurba_marseille","lat":43.25498,"lon":5.3765,"is_reserved":false,"is_disabled":false,"rental_uris":{"android":"levelo://app?vid=fd495570-0604-40fb-9f36-3e2dfe8010cf","ios":"levelo://app?vid=fd495570-0604-40fb-9f36-3e2dfe8010cf"},"vehicle_type_id":"4","last_reported":1729246260,"current_range_meters":38800,"station_id":"ce4bhh12rcd13ifvqff0","pricing_plan_id":"cebpf4jnsgd1na2vs0mg"},{"bike_id":"c9bf4f2f-c395-4348-a61a-af22ef7e335a","system_id":"levelo_inurba_marseille","lat":43.28618,"lon":5.35097,"is_reserved":false,"is_disabled":false,"rental_uris":{"android":"levelo://app?vid=c9bf4f2f-c395-4348-a61a-af22ef7e335a","ios":"levelo://app?vid=c9bf4f2f-c395-4348-a61a-af22ef7e335a"},"vehicle_type_id":"4","last_reported":1729246260,"current_range_meters":20400,"station_id":"ce4bhch2rcd13ifvqeug","pricing_plan_id":"cebpf4jnsgd1na2vs0mg"},{"bike_id":"6e4e333b-836c-482b-82e6-9d51a678996a","system_id":"levelo_inurba_marseille","lat":43.3361,"lon":5.41027,"is_reserved":false,"is_disabled":false,"rental_uris":{"android":"levelo://app?vid=6e4e333b-836c-482b-82e6-9d51a678996a","ios":"levelo://app?vid=6e4e333b-836c-482b-82e6-9d51a678996a"},"vehicle_type_id":"4","last_reported":1729246260,"current_range_meters":6800,"station_id":"ce4bhqh2rcd13ifvqhmg","pricing_plan_id":"cebpf4jnsgd1na2vs0mg"},{"bike_id":"523f5479-17f3-48a4-8189-b61670ebbe86","system_id":"levelo_inurba_marseille","lat":43.32656,"lon":5.40993,"is_reserved":false,"is_disabled":false,"rental_uris":{"android":"levelo://app?vid=523f5479-17f3-48a4-8189-b61670ebbe86","ios":"levelo://app?vid=523f5479-17f3-48a4-8189-b61670ebbe86"},"vehicle_type_id":"4","last_reported":1729246260,"current_range_meters":15200,"station_id":"ce4bhpp2rcd13ifvqhgg","pricing_plan_id":"cebpf4jnsgd1na2vs0mg"},{"bike_id":"d41309ab-1a1f-4395-acaa-455483c3f8e1","system_id":"levelo_inurba_marseille","lat":43.2319,"lon":5.35553,"is_reserved":false,"is_disabled":false,"rental_uris":{"android":"levelo://app?vid=d41309ab-1a1f-4395-acaa-455483c3f8e1","ios":"levelo://app?vid=d41309ab-1a1f-4395-acaa-455483c3f8e1"},"vehicle_type_id":"4","last_reported":1729246260,"current_range_meters":32000,"station_id":"ce4bhu92rcd13ifvqi70","pricing_plan_id":"cebpf4jnsgd1na2vs0mg"},{"bike_id":"1d581705-0cae-4f83-9663-a88f9c85eaf4","system_id":"levelo_inurba_marseille","lat":43.29222,"lon":5.36062,"is_reserved":false,"is_disabled":false,"rental_uris":{"android":"levelo://app?vid=1d581705-0cae-4f83-9663-a88f9c85eaf4","ios":"levelo://app?vid=1d581705-0cae-4f83-9663-a88f9c85eaf4"},"vehicle_type_id":"4","last_reported":1729246260,"current_range_meters":36800,"station_id":"ce4bhbh2rcd13ifvqeqg","pricing_plan_id":"cebpf4jnsgd1na2vs0mg"},{"bike_id":"6ebd8618-a16a-4e3c-84c5-c30c6c0f3f2e","system_id":"levelo_inurba_marseille","lat":43.31732,"lon":5.4047,"is_reserved":false,"is_disabled":false,"rental_uris":{"android":"levelo://app?vid=6ebd8618-a16a-4e3c-84c5-c30c6c0f3f2e","ios":"levelo://app?vid=6ebd8618-a16a-4e3c-84c5-c30c6c0f3f2e"},"vehicle_type_id":"4","last_reported":1729246260,"current_range_meters":36800,"station_id":"ce4bh012rcd13ifvqd00","pricing_plan_id":"cebpf4jnsgd1na2vs0mg"},{"bike_id":"f953e4c9-0ee0-4602-b712-970c5519159e","system_id":"levelo_inurba_marseille","lat":43.27331,"lon":5.39089,"is_reserved":false,"is_disabled":false,"rental_uris":{"android":"levelo://app?vid=f953e4c9-0ee0-4602-b712-970c5519159e","ios":"levelo://app?vid=f953e4c9-0ee0-4602-b712-970c5519159e"},"vehicle_type_id":"4","last_reported":1729246260,"current_range_meters":27200,"station_id":"ce4bhgp2rcd13ifvqfe0","pricing_plan_id":"cebpf4jnsgd1na2vs0mg"},{"bike_id":"9d2d4ebf-0998-4fe3-860d-ac23374d749c","system_id":"levelo_inurba_marseille","lat":43.29567,"lon":5.37534,"is_reserved":false,"is_disabled":false,"rental_uris":{"android":"levelo://app?vid=9d2d4ebf-0998-4fe3-860d-ac23374d749c","ios":"levelo://app?vid=9d2d4ebf-0998-4fe3-860d-ac23374d749c"},"vehicle_type_id":"4","last_reported":1729246260,"current_range_meters":38000,"station_id":"ce4bgh92rcd13ifvqb50","pricing_plan_id":"cebpf4jnsgd1na2vs0mg"},{"bike_id":"40c8fa2c-d6e9-40dd-a8db-147daeadb16c","system_id":"levelo_inurba_marseille","lat":43.29625,"lon":5.37166,"is_reserved":false,"is_disabled":false,"rental_uris":{"android":"levelo://app?vid=40c8fa2c-d6e9-40dd-a8db-147daeadb16c","ios":"levelo://app?vid=40c8fa2c-d6e9-40dd-a8db-147daeadb16c"},"vehicle_type_id":"4","last_reported":1729246260,"current_range_meters":36000,"station_id":"ce4bgnh2rcd13ifvqc0g","pricing_plan_id":"cebpf4jnsgd1na2vs0mg"},{"bike_id":"faa8d681-5116-4673-bb1c-d76173fa6ccc","system_id":"levelo_inurba_marseille","lat":43.32476,"lon":5.36578,"is_reserved":false,"is_disabled":false,"rental_uris":{"android":"levelo://app?vid=faa8d681-5116-4673-bb1c-d76173fa6ccc","ios":"levelo://app?vid=faa8d681-5116-4673-bb1c-d76173fa6ccc"},"vehicle_type_id":"4","last_reported":1729246260,"current_range_meters":20800,"station_id":"ce4bhs12rcd13ifvqhvg","pricing_plan_id":"cebpf4jnsgd1na2vs0mg"},{"bike_id":"b0a3ba2e-0340-4197-9f07-f1dfc745f1c5","system_id":"levelo_inurba_marseille","lat":43.23969,"lon":5.36635,"is_reserved":false,"is_disabled":false,"rental_uris":{"android":"levelo://app?vid=b0a3ba2e-0340-4197-9f07-f1dfc745f1c5","ios":"levelo://app?vid=b0a3ba2e-0340-4197-9f07-f1dfc745f1c5"},"vehicle_type_id":"4","last_reported":1729246260,"current_range_meters":23200,"station_id":"ce4bhi12rcd13ifvqfp0","pricing_plan_id":"cebpf4jnsgd1na2vs0mg"},{"bike_id":"ab04e18d-5247-4595-9131-f53b670a8411","system_id":"levelo_inurba_marseille","lat":43.29883,"lon":5.38896,"is_reserved":false,"is_disabled":false,"rental_uris":{"android":"levelo://app?vid=ab04e18d-5247-4595-9131-f53b670a8411","ios":"levelo://app?vid=ab04e18d-5247-4595-9131-f53b670a8411"},"vehicle_type_id":"4","last_reported":1729246260,"current_range_meters":35200,"station_id":"ce4bh392rcd13ifvqdl0","pricing_plan_id":"cebpf4jnsgd1na2vs0mg"},{"bike_id":"a08e0b6c-2b85-4d6b-b0f5-a948fa4286de","system_id":"levelo_inurba_marseille","lat":43.23153,"lon":5.43704,"is_reserved":false,"is_disabled":false,"rental_uris":{"android":"levelo://app?vid=a08e0b6c-2b85-4d6b-b0f5-a948fa4286de","ios":"levelo://app?vid=a08e0b6c-2b85-4d6b-b0f5-a948fa4286de"},"vehicle_type_id":"4","last_reported":1729246260,"current_range_meters":7200,"station_id":"ce4bhmp2rcd13ifvqgog","pricing_plan_id":"cebpf4jnsgd1na2vs0mg"},{"bike_id":"f93454e1-a669-4c63-a4ca-b572042c7971","system_id":"levelo_inurba_marseille","lat":43.23194,"lon":5.35554,"is_reserved":false,"is_disabled":false,"rental_uris":{"android":"levelo://app?vid=f93454e1-a669-4c63-a4ca-b572042c7971","ios":"levelo://app?vid=f93454e1-a669-4c63-a4ca-b572042c7971"},"vehicle_type_id":"4","last_reported":1729246260,"current_range_meters":9200,"station_id":"ce4bhu92rcd13ifvqi70","pricing_plan_id":"cebpf4jnsgd1na2vs0mg"},{"bike_id":"9feebf6a-cf06-4283-9475-cface9a88761","system_id":"levelo_inurba_marseille","lat":43.30803,"lon":5.43521,"is_reserved":false,"is_disabled":false,"rental_uris":{"android":"levelo://app?vid=9feebf6a-cf06-4283-9475-cface9a88761","ios":"levelo://app?vid=9feebf6a-cf06-4283-9475-cface9a88761"},"vehicle_type_id":"4","last_reported":1729246260,"current_range_meters":34000,"station_id":"ce4bhph2rcd13ifvqheg","pricing_plan_id":"cebpf4jnsgd1na2vs0mg"},{"bike_id":"b1e38fa3-bc04-46dc-9334-d58520cc8bec","system_id":"levelo_inurba_marseille","lat":43.25493,"lon":5.37639,"is_reserved":false,"is_disabled":false,"rental_uris":{"android":"levelo://app?vid=b1e38fa3-bc04-46dc-9334-d58520cc8bec","ios":"levelo://app?vid=b1e38fa3-bc04-46dc-9334-d58520cc8bec"},"vehicle_type_id":"4","last_reported":1729246260,"current_range_meters":32800,"station_id":"","pricing_plan_id":"cebpf4jnsgd1na2vs0mg"},{"bike_id":"3eeeef3b-8b00-4478-99db-cddf3c85856e","system_id":"levelo_inurba_marseille","lat":43.29631,"lon":5.40599,"is_reserved":false,"is_disabled":false,"rental_uris":{"android":"levelo://app?vid=3eeeef3b-8b00-4478-99db-cddf3c85856e","ios":"levelo://app?vid=3eeeef3b-8b00-4478-99db-cddf3c85856e"},"vehicle_type_id":"4","last_reported":1729246260,"current_range_meters":6000,"station_id":"ce4bh0h2rcd13ifvqd60","pricing_plan_id":"cebpf4jnsgd1na2vs0mg"},{"bike_id":"2db48341-acc6-406b-a268-a95f44186dc6","system_id":"levelo_inurba_marseille","lat":43.31357,"lon":5.36727,"is_reserved":false,"is_disabled":false,"rental_uris":{"android":"levelo://app?vid=2db48341-acc6-406b-a268-a95f44186dc6","ios":"levelo://app?vid=2db48341-acc6-406b-a268-a95f44186dc6"},"vehicle_type_id":"4","last_reported":1729246260,"current_range_meters":38800,"station_id":"ce4bgr92rcd13ifvqc6g","pricing_plan_id":"cebpf4jnsgd1na2vs0mg"},{"bike_id":"22b37876-70ac-4ba0-9001-79de88a5c4f9","system_id":"levelo_inurba_marseille","lat":43.33778,"lon":5.37436,"is_reserved":false,"is_disabled":false,"rental_uris":{"android":"levelo://app?vid=22b37876-70ac-4ba0-9001-79de88a5c4f9","ios":"levelo://app?vid=22b37876-70ac-4ba0-9001-79de88a5c4f9"},"vehicle_type_id":"4","last_reported":1729246260,"current_range_meters":36400,"station_id":"","pricing_plan_id":"cebpf4jnsgd1na2vs0mg"},{"bike_id":"6d5fbda5-dd8a-49d7-8a44-0c07b2fc8fc4","system_id":"levelo_inurba_marseille","lat":43.29843,"lon":5.36254,"is_reserved":false,"is_disabled":false,"rental_uris":{"android":"levelo://app?vid=6d5fbda5-dd8a-49d7-8a44-0c07b2fc8fc4","ios":"levelo://app?vid=6d5fbda5-dd8a-49d7-8a44-0c07b2fc8fc4"},"vehicle_type_id":"4","last_reported":1729246260,"current_range_meters":35600,"station_id":"ce4bgpp2rcd13ifvqc3g","pricing_plan_id":"cebpf4jnsgd1na2vs0mg"},{"bike_id":"c82f1406-66fd-40ba-a2e8-f1e3248b7095","system_id":"levelo_inurba_marseille","lat":43.28711,"lon":5.39995,"is_reserved":false,"is_disabled":false,"rental_uris":{"android":"levelo://app?vid=c82f1406-66fd-40ba-a2e8-f1e3248b7095","ios":"levelo://app?vid=c82f1406-66fd-40ba-a2e8-f1e3248b7095"},"vehicle_type_id":"4","last_reported":1729246260,"current_range_meters":35600,"station_id":"ce4bho92rcd13ifvqh3g","pricing_plan_id":"cebpf4jnsgd1na2vs0mg"},{"bike_id":"35b32bfb-994b-4212-8249-2404bad833aa","system_id":"levelo_inurba_marseille","lat":43.31351,"lon":5.36723,"is_reserved":false,"is_disabled":false,"rental_uris":{"android":"levelo://app?vid=35b32bfb-994b-4212-8249-2404bad833aa","ios":"levelo://app?vid=35b32bfb-994b-4212-8249-2404bad833aa"},"vehicle_type_id":"4","last_reported":1729246260,"current_range_meters":38800,"station_id":"ce4bgr92rcd13ifvqc6g","pricing_plan_id":"cebpf4jnsgd1na2vs0mg"},{"bike_id":"b167c486-4085-464d-a9c4-1758e0a104ec","system_id":"levelo_inurba_marseille","lat":43.30946,"lon":5.39017,"is_reserved":false,"is_disabled":false,"rental_uris":{"android":"levelo://app?vid=b167c486-4085-464d-a9c4-1758e0a104ec","ios":"levelo://app?vid=b167c486-4085-464d-a9c4-1758e0a104ec"},"vehicle_type_id":"4","last_reported":1729246260,"current_range_meters":7200,"station_id":"ce4bhqp2rcd13ifvqhng","pricing_plan_id":"cebpf4jnsgd1na2vs0mg"},{"bike_id":"ac14cfa9-17a3-4490-8b14-29871e4e988a","system_id":"levelo_inurba_marseille","lat":43.31712,"lon":5.42385,"is_reserved":false,"is_disabled":false,"rental_uris":{"android":"levelo://app?vid=ac14cfa9-17a3-4490-8b14-29871e4e988a","ios":"levelo://app?vid=ac14cfa9-17a3-4490-8b14-29871e4e988a"},"vehicle_type_id":"4","last_reported":1729246260,"current_range_meters":34000,"station_id":"ce4bhp92rcd13ifvqhbg","pricing_plan_id":"cebpf4jnsgd1na2vs0mg"},{"bike_id":"0efb87e6-e6db-4887-8631-8d7539cd2cd9","system_id":"levelo_inurba_marseille","lat":43.26553,"lon":5.37285,"is_reserved":false,"is_disabled":false,"rental_uris":{"android":"levelo://app?vid=0efb87e6-e6db-4887-8631-8d7539cd2cd9","ios":"levelo://app?vid=0efb87e6-e6db-4887-8631-8d7539cd2cd9"},"vehicle_type_id":"4","last_reported":1729246260,"current_range_meters":33200,"station_id":"ce4bhg12rcd13ifvqf70","pricing_plan_id":"cebpf4jnsgd1na2vs0mg"},{"bike_id":"2ea47c1d-c698-475c-8555-8346e72d4fbf","system_id":"levelo_inurba_marseille","lat":43.2558,"lon":5.38237,"is_reserved":false,"is_disabled":false,"rental_uris":{"android":"levelo://app?vid=2ea47c1d-c698-475c-8555-8346e72d4fbf","ios":"levelo://app?vid=2ea47c1d-c698-475c-8555-8346e72d4fbf"},"vehicle_type_id":"4","last_reported":1729246260,"current_range_meters":38800,"station_id":"ce4bhih2rcd13ifvqfs0","pricing_plan_id":"cebpf4jnsgd1na2vs0mg"},{"bike_id":"ff6be656-7cbd-467b-86bc-bc0b8b568d21","system_id":"levelo_inurba_marseille","lat":43.29688,"lon":5.37301,"is_reserved":false,"is_disabled":false,"rental_uris":{"android":"levelo://app?vid=ff6be656-7cbd-467b-86bc-bc0b8b568d21","ios":"levelo://app?vid=ff6be656-7cbd-467b-86bc-bc0b8b568d21"},"vehicle_type_id":"4","last_reported":1729246260,"current_range_meters":32800,"station_id":"ce4bgk12rcd13ifvqbj0","pricing_plan_id":"cebpf4jnsgd1na2vs0mg"},{"bike_id":"c360d92a-80aa-459c-ab84-0e0d3fedf267","system_id":"levelo_inurba_marseille","lat":43.33609,"lon":5.41026,"is_reserved":false,"is_disabled":false,"rental_uris":{"android":"levelo://app?vid=c360d92a-80aa-459c-ab84-0e0d3fedf267","ios":"levelo://app?vid=c360d92a-80aa-459c-ab84-0e0d3fedf267"},"vehicle_type_id":"4","last_reported":1729246260,"current_range_meters":3200,"station_id":"ce4bhqh2rcd13ifvqhmg","pricing_plan_id":"cebpf4jnsgd1na2vs0mg"},{"bike_id":"af994f1c-0084-44af-bd74-a440ee598866","system_id":"levelo_inurba_marseille","lat":43.27307,"lon":5.39082,"is_reserved":false,"is_disabled":false,"rental_uris":{"android":"levelo://app?vid=af994f1c-0084-44af-bd74-a440ee598866","ios":"levelo://app?vid=af994f1c-0084-44af-bd74-a440ee598866"},"vehicle_type_id":"4","last_reported":1729246260,"current_range_meters":20400,"station_id":"ce4bhgp2rcd13ifvqfe0","pricing_plan_id":"cebpf4jnsgd1na2vs0mg"},{"bike_id":"00a275aa-c769-401f-a273-fe660807cd2a","system_id":"levelo_inurba_marseille","lat":43.25002,"lon":5.38935,"is_reserved":false,"is_disabled":false,"rental_uris":{"android":"levelo://app?vid=00a275aa-c769-401f-a273-fe660807cd2a","ios":"levelo://app?vid=00a275aa-c769-401f-a273-fe660807cd2a"},"vehicle_type_id":"4","last_reported":1729246260,"current_range_meters":32400,"station_id":"ce4bhgp2rcd13ifvqfd0","pricing_plan_id":"cebpf4jnsgd1na2vs0mg"},{"bike_id":"a17e3104-4e57-4e40-86cd-79721bd1a20a","system_id":"levelo_inurba_marseille","lat":43.30797,"lon":5.38139,"is_reserved":false,"is_disabled":false,"rental_uris":{"android":"levelo://app?vid=a17e3104-4e57-4e40-86cd-79721bd1a20a","ios":"levelo://app?vid=a17e3104-4e57-4e40-86cd-79721bd1a20a"},"vehicle_type_id":"4","last_reported":1729246260,"current_range_meters":19200,"station_id":"ce4bgt12rcd13ifvqce0","pricing_plan_id":"cebpf4jnsgd1na2vs0mg"},{"bike_id":"4448c56f-74ed-4400-b2f2-d58a6127f2b9","system_id":"levelo_inurba_marseille","lat":43.29713,"lon":5.3661,"is_reserved":false,"is_disabled":false,"rental_uris":{"android":"levelo://app?vid=4448c56f-74ed-4400-b2f2-d58a6127f2b9","ios":"levelo://app?vid=4448c56f-74ed-4400-b2f2-d58a6127f2b9"},"vehicle_type_id":"4","last_reported":1729246260,"current_range_meters":13600,"station_id":"ce4bgn12rcd13ifvqbt0","pricing_plan_id":"cebpf4jnsgd1na2vs0mg"},{"bike_id":"dbf0e76d-5826-434a-9b1a-98c74058b42b","system_id":"levelo_inurba_marseille","lat":43.334836,"lon":5.409827,"is_reserved":false,"is_disabled":false,"rental_uris":{"android":"levelo://app?vid=dbf0e76d-5826-434a-9b1a-98c74058b42b","ios":"levelo://app?vid=dbf0e76d-5826-434a-9b1a-98c74058b42b"},"vehicle_type_id":"4","last_reported":1729246260,"current_range_meters":3200,"station_id":"ce4bhqh2rcd13ifvqhmg","pricing_plan_id":"cebpf4jnsgd1na2vs0mg"},{"bike_id":"ecf2130e-8bec-42da-bad8-70f2e3b37938","system_id":"levelo_inurba_marseille","lat":43.298714,"lon":5.398629,"is_reserved":false,"is_disabled":false,"rental_uris":{"android":"levelo://app?vid=ecf2130e-8bec-42da-bad8-70f2e3b37938","ios":"levelo://app?vid=ecf2130e-8bec-42da-bad8-70f2e3b37938"},"vehicle_type_id":"4","last_reported":1729246260,"current_range_meters":27200,"station_id":"","pricing_plan_id":"cebpf4jnsgd1na2vs0mg"},