{"last_updated":1761347359,"ttl":60,"version":"2.2","data":{"bikes":[{"bike_id":"ab451abc-88c7-4576-a77c-6789969e9dae","system_id":"levelo_inurba_marseille","lat":43.22937,"lon":5.35363,"is_reserved":false,"is_disabled":false,"rental_uris":{"android":"levelo://app?vid=ab451abc-88c7-4576-a77c-6789969e9dae","ios":"levelo://app?vid=ab451abc-88c7-4576-a77c-6789969e9dae"},"vehicle_type_id":"4","last_reported":1761347359,"current_range_meters":2800,"station_id":"","pricing_plan_id":"cebpf4jnsgd1na2vs0mg"},{"bike_id":"0449e844-3e15-4487-8ef3-523d49ba8fc3","system_id":"levelo_inurba_marseille","lat":43.27949,"lon":5.41049,"is_reserved":false,"is_disabled":false,"rental_uris":{"android":"levelo://app?vid=0449e844-3e15-4487-8ef3-523d49ba8fc3","ios":"levelo://app?vid=0449e844-3e15-4487-8ef3-523d49ba8fc3"},"vehicle_type_id":"4","last_reported":1761347359,"current_range_meters":2800,"station_id":"ce4bhnp2rcd13ifvqh0g","pricing_plan_id":"cebpf4jnsgd1na2vs0mg"},{"bike_id":"912122b6-a82b-4a98-8135-dbe47ba3d4a7","system_id":"levelo_inurba_marseille","lat":43.30424,"lon":5.41278,"is_reserved":false,"is_disabled":false,"rental_uris":{"android":"levelo://app?vid=912122b6-a82b-4a98-8135-dbe47ba3d4a7","ios":"levelo://app?vid=912122b6-a82b-4a98-8135-dbe47ba3d4a7"},"vehicle_type_id":"4","last_reported":1761347359,"current_range_meters":2800,"station_id":"ce4bhop2rcd13ifvqh8g","pricing_plan_id":"cebpf4jnsgd1na2vs0mg"},{"bike_id":"c2f6d99c-6741-4f97-adbe-292efb7eff82","system_id":"levelo_inurba_marseille","lat":43.211935,"lon":5.350728,"is_reserved":false,"is_disabled":false,"rental_uris":{"android":"levelo://app?vid=c2f6d99c-6741-4f97-adbe-292efb7eff82","ios":"levelo://app?vid=c2f6d99c-6741-4f97-adbe-292efb7eff82"},"vehicle_type_id":"4","last_reported":1761347359,"current_range_meters":3200,"station_id":"st_cvj6sg6p6f1abm77japg","pricing_plan_id":"cebpf4jnsgd1na2vs0mg"},{"bike_id":"51ea134d-df94-4f50-84a6-099716824d0c","system_id":"levelo_inurba_marseille","lat":43.33718,"lon":5.36267,"is_reserved":false,"is_disabled":false,"rental_uris":{"android":"levelo://app?vid=51ea134d-df94-4f50-84a6-099716824d0c","ios":"levelo://app?vid=51ea134d-df94-4f50-84a6-099716824d0c"},"vehicle_type_id":"4","last_reported":1761347359,"current_range_meters":3200,"station_id":"","pricing_plan_id":"cebpf4jnsgd1na2vs0mg"},{"bike_id":"ad5f8e18-c473-475e-a3d9-6c42feb77324","system_id":"levelo_inurba_marseille","lat":43.28849,"lon":5.39303,"is_reserved":false,"is_disabled":false,"rental_uris":{"android":"levelo://app?vid=ad5f8e18-c473-475e-a3d9-6c42feb77324","ios":"levelo://app?vid=ad5f8e18-c473-475e-a3d9-6c42feb77324"},"vehicle_type_id":"4","last_reported":1761347359,"current_range_meters":3600,"station_id":"ce4bh2p2rcd13ifvqdi0","pricing_plan_id":"cebpf4jnsgd1na2vs0mg"},{"bike_id":"c21b3611-9c87-4ee4-82e8-ce01f8e21e69","system_id":"levelo_inurba_marseille","lat":43.301866,"lon":5.401662,"is_reserved":false,"is_disabled":false,"rental_uris":{"android":"levelo://app?vid=c21b3611-9c87-4ee4-82e8-ce01f8e21e69","ios":"levelo://app?vid=c21b3611-9c87-4ee4-82e8-ce01f8e21e69"},"vehicle_type_id":"4","last_reported":1761347359,"current_range_meters":4000,"station_id":"","pricing_plan_id":"cebpf4jnsgd1na2vs0mg"},{"bike_id":"bcb9535b-8cb1-4509-9e0f-7418a5f6c155","system_id":"levelo_inurba_marseille","lat":43.283625,"lon":5.386267,"is_reserved":false,"is_disabled":false,"rental_uris":{"android":"levelo://app?vid=bcb9535b-8cb1-4509-9e0f-7418a5f6c155","ios":"levelo://app?vid=bcb9535b-8cb1-4509-9e0f-7418a5f6c155"},"vehicle_type_id":"4","last_reported":1761347359,"current_range_meters":4000,"station_id":"ce4bh492rcd13ifvqdvg","pricing_plan_id":"cebpf4jnsgd1na2vs0mg"},{"bike_id":"084800a8-47cb-4e11-8fae-eb6b5ed7577d","system_id":"levelo_inurba_marseille","lat":43.283779,"lon":5.38642,"is_reserved":false,"is_disabled":false,"rental_uris":{"android":"levelo://app?vid=084800a8-47cb-4e11-8fae-eb6b5ed7577d","ios":"levelo://app?vid=084800a8-47cb-4e11-8fae-eb6b5ed7577d"},"vehicle_type_id":"4","last_reported":1761347359,"current_range_meters":4400,"station_id":"ce4bh492rcd13ifvqdvg","pricing_plan_id":"cebpf4jnsgd1na2vs0mg"},{"bike_id":"ef94b4d4-3759-433e-8552-f80ad483807f","system_id":"levelo_inurba_marseille","lat":43.25819,"lon":5.39428,"is_reserved":false,"is_disabled":false,"rental_uris":{"android":"levelo://app?vid=ef94b4d4-3759-433e-8552-f80ad483807f","ios":"levelo://app?vid=ef94b4d4-3759-433e-8552-f80ad483807f"},"vehicle_type_id":"4","last_reported":1761347359,"current_range_meters":4400,"station_id":"ce4bhip2rcd13ifvqft0","pricing_plan_id":"cebpf4jnsgd1na2vs0mg"},{"bike_id":"7546f470-e2c9-46ad-b638-733b3092a9dc","system_id":"levelo_inurba_marseille","lat":43.22521,"lon":5.34819,"is_reserved":false,"is_disabled":false,"rental_uris":{"android":"levelo://app?vid=7546f470-e2c9-46ad-b638-733b3092a9dc","ios":"levelo://app?vid=7546f470-e2c9-46ad-b638-733b3092a9dc"},"vehicle_type_id":"4","last_reported":1761347359,"current_range_meters":4400,"station_id":"st_cvj5dfep6f1abm77gieg","pricing_plan_id":"cebpf4jnsgd1na2vs0mg"},{"bike_id":"c9c09511-95d4-4e12-8c2d-e05fcc9fe6b1","system_id":"levelo_inurba_marseille","lat":43.22938,"lon":5.35376,"is_reserved":false,"is_disabled":false,"rental_uris":{"android":"levelo://app?vid=c9c09511-95d4-4e12-8c2d-e05fcc9fe6b1","ios":"levelo://app?vid=c9c09511-95d4-4e12-8c2d-e05fcc9fe6b1"},"vehicle_type_id":"4","last_reported":1761347359,"current_range_meters":4800,"station_id":"cpo3532slgdg3j2ikp40","pricing_plan_id":"cebpf4jnsgd1na2vs0mg"},{"bike_id":"81d72776-afa0-4b49-b509-96dc91a51f15","system_id":"levelo_inurba_marseille","lat":43.24167,"lon":5.36394,"is_reserved":false,"is_disabled":false,"rental_uris":{"android":"levelo://app?vid=81d72776-afa0-4b49-b509-96dc91a51f15","ios":"levelo://app?vid=81d72776-afa0-4b49-b509-96dc91a51f15"},"vehicle_type_id":"4","last_reported":1761347359,"current_range_meters":4800,"station_id":"cpo36qri1sfpv3e86is0","pricing_plan_id":"cebpf4jnsgd1na2vs0mg"},{"bike_id":"745f6288-008d-4216-bf8c-29141dd33c38","system_id":"levelo_inurba_marseille","lat":43.3022,"lon":5.39458,"is_reserved":false,"is_disabled":false,"rental_uris":{"android":"levelo://app?vid=745f6288-008d-4216-bf8c-29141dd33c38","ios":"levelo://app?vid=745f6288-008d-4216-bf8c-29141dd33c38"},"vehicle_type_id":"4","last_reported":1761347359,"current_range_meters":4800,"station_id":"ce4bh0p2rcd13ifvqd70","pricing_plan_id":"cebpf4jnsgd1na2vs0mg"},{"bike_id":"1cf570c7-1724-4b95-9963-1b39dfb32ee3","system_id":"levelo_inurba_marseille","lat":43.26416,"lon":5.38748,"is_reserved":false,"is_disabled":false,"rental_uris":{"android":"levelo://app?vid=1cf570c7-1724-4b95-9963-1b39dfb32ee3","ios":"levelo://app?vid=1cf570c7-1724-4b95-9963-1b39dfb32ee3"},"vehicle_type_id":"4","last_reported":1761347359,"current_range_meters":5600,"station_id":"","pricing_plan_id":"cebpf4jnsgd1na2vs0mg"},{"bike_id":"17ff3f52-ae5c-4c05-a279-d8199d1e4614","system_id":"levelo_inurba_marseille","lat":43.27242,"lon":5.41008,"is_reserved":false,"is_disabled":false,"rental_uris":{"android":"levelo://app?vid=17ff3f52-ae5c-4c05-a279-d8199d1e4614","ios":"levelo://app?vid=17ff3f52-ae5c-4c05-a279-d8199d1e4614"},"vehicle_type_id":"4","last_reported":1761347359,"current_range_meters":6000,"station_id":"ce4bhl12rcd13ifvqgf0","pricing_plan_id":"cebpf4jnsgd1na2vs0mg"},{"bike_id":"32e7919e-26d8-4f7d-b229-086147816fa4","system_id":"levelo_inurba_marseille","lat":43.301286,"lon":5.38775,"is_reserved":false,"is_disabled":false,"rental_uris":{"android":"levelo://app?vid=32e7919e-26d8-4f7d-b229-086147816fa4","ios":"levelo://app?vid=32e7919e-26d8-4f7d-b229-086147816fa4"},"vehicle_type_id":"4","last_reported":1761347359,"current_range_meters":6000,"station_id":"","pricing_plan_id":"cebpf4jnsgd1na2vs0mg"},{"bike_id":"4b39174c-5820-4cb8-8ed4-e74eb97f33a6","system_id":"levelo_inurba_marseille","lat":43.21759,"lon":5.34607,"is_reserved":false,"is_disabled":false,"rental_uris":{"android":"levelo://app?vid=4b39174c-5820-4cb8-8ed4-e74eb97f33a6","ios":"levelo://app?vid=4b39174c-5820-4cb8-8ed4-e74eb97f33a6"},"vehicle_type_id":"4","last_reported":1761347359,"current_range_meters":6400,"station_id":"st_cvj6r9ubvosntc0bgbag","pricing_plan_id":"cebpf4jnsgd1na2vs0mg"},{"bike_id":"76ada65a-7f26-4a3f-a2fe-10cf913e6d03","system_id":"levelo_inurba_marseille","lat":43.260652,"lon":5.394027,"is_reserved":false,"is_disabled":false,"rental_uris":{"android":"levelo://app?vid=76ada65a-7f26-4a3f-a2fe-10cf913e6d03","ios":"levelo://app?vid=76ada65a-7f26-4a3f-a2fe-10cf913e6d03"},"vehicle_type_id":"4","last_reported":1761347359,"current_range_meters":6400,"station_id":"ce4bhh92rcd13ifvqfj0","pricing_plan_id":"cebpf4jnsgd1na2vs0mg"},{"bike_id":"ed5592f6-738f-424e-b1c7-4090ab91b445","system_id":"levelo_inurba_marseille","lat":43.21192,"lon":5.35073,"is_reserved":false,"is_disabled":false,"rental_uris":{"android":"levelo://app?vid=ed5592f6-738f-424e-b1c7-4090ab91b445","ios":"levelo://app?vid=ed5592f6-738f-424e-b1c7-4090ab91b445"},"vehicle_type_id":"4","last_reported":1761347359,"current_range_meters":6800,"station_id":"st_cvj6sg6p6f1abm77japg","pricing_plan_id":"cebpf4jnsgd1na2vs0mg"},{"bike_id":"ec9665a2-32ab-42b2-9bdf-cf94d158a9c2","system_id":"levelo_inurba_marseille","lat":43.30136,"lon":5.37098,"is_reserved":false,"is_disabled":false,"rental_uris":{"android":"levelo://app?vid=ec9665a2-32ab-42b2-9bdf-cf94d158a9c2","ios":"levelo://app?vid=ec9665a2-32ab-42b2-9bdf-cf94d158a9c2"},"vehicle_type_id":"4","last_reported":1761347359,"current_range_meters":6800,"station_id":"","pricing_plan_id":"cebpf4jnsgd1na2vs0mg"},{"bike_id":"25513248-35db-4665-9920-4d045dd29c1c","system_id":"levelo_inurba_marseille","lat":43.28105,"lon":5.3784,"is_reserved":false,"is_disabled":false,"rental_uris":{"android":"levelo://app?vid=25513248-35db-4665-9920-4d045dd29c1c","ios":"levelo://app?vid=25513248-35db-4665-9920-4d045dd29c1c"},"vehicle_type_id":"4","last_reported":1761347359,"current_range_meters":6800,"station_id":"ce4bha12rcd13ifvqee0","pricing_plan_id":"cebpf4jnsgd1na2vs0mg"},{"bike_id":"775dccad-261d-474c-a693-df999f60a284","system_id":"levelo_inurba_marseille","lat":43.29258,"lon":5.40915,"is_reserved":false,"is_disabled":false,"rental_uris":{"android":"levelo://app?vid=775dccad-261d-474c-a693-df999f60a284","ios":"levelo://app?vid=775dccad-261d-474c-a693-df999f60a284"},"vehicle_type_id":"4","last_reported":1761347359,"current_range_meters":6800,"station_id":"ce4bh192rcd13ifvqdc0","pricing_plan_id":"cebpf4jnsgd1na2vs0mg"},{"bike_id":"00fd3c6a-780c-49dc-9993-d4de69c9b57a","system_id":"levelo_inurba_marseille","lat":43.31083,"lon":5.37461,"is_reserved":false,"is_disabled":false,"rental_uris":{"android":"levelo://app?vid=00fd3c6a-780c-49dc-9993-d4de69c9b57a","ios":"levelo://app?vid=00fd3c6a-780c-49dc-9993-d4de69c9b57a"},"vehicle_type_id":"4","last_reported":1761347359,"current_range_meters":6800,"station_id":"","pricing_plan_id":"cebpf4jnsgd1na2vs0mg"},{"bike_id":"c1042221-8483-4576-b68f-9502a84b1583","system_id":"levelo_inurba_marseille","lat":43.30782,"lon":5.37638,"is_reserved":false,"is_disabled":false,"rental_uris":{"android":"levelo://app?vid=c1042221-8483-4576-b68f-9502a84b1583","ios":"levelo://app?vid=c1042221-8483-4576-b68f-9502a84b1583"},"vehicle_type_id":"4","last_reported":1761347359,"current_range_meters":6800,"station_id":"ce4bgv92rcd13ifvqcq0","pricing_plan_id":"cebpf4jnsgd1na2vs0mg"},{"bike_id":"60ee768e-a80f-4185-bb91-1d0a89831466","system_id":"levelo_inurba_marseille","lat":43.270595,"lon":5.382977,"is_reserved":false,"is_disabled":false,"rental_uris":{"android":"levelo://app?vid=60ee768e-a80f-4185-bb91-1d0a89831466","ios":"levelo://app?vid=60ee768e-a80f-4185-bb91-1d0a89831466"},"vehicle_type_id":"4","last_reported":1761347359,"current_range_meters":6800,"station_id":"st_d3n2fo6cfp8s73cte1j0","pricing_plan_id":"cebpf4jnsgd1na2vs0mg"},{"bike_id":"3e4783b6-28d8-4737-a4ef-6a1b0da02476","system_id":"levelo_inurba_marseille","lat":43.29441,"lon":5.40687,"is_reserved":false,"is_disabled":false,"rental_uris":{"android":"levelo://app?vid=3e4783b6-28d8-4737-a4ef-6a1b0da02476","ios":"levelo://app?vid=3e4783b6-28d8-4737-a4ef-6a1b0da02476"},"vehicle_type_id":"4","last_reported":1761347359,"current_range_meters":7200,"station_id":"","pricing_plan_id":"cebpf4jnsgd1na2vs0mg"},{"bike_id":"da2c67e0-b8a1-4f4d-993d-b59a460da1f3","system_id":"levelo_inurba_marseille","lat":43.29198,"lon":5.39316,"is_reserved":false,"is_disabled":false,"rental_uris":{"android":"levelo://app?vid=da2c67e0-b8a1-4f4d-993d-b59a460da1f3","ios":"levelo://app?vid=da2c67e0-b8a1-4f4d-993d-b59a460da1f3"},"vehicle_type_id":"4","last_reported":1761347359,"current_range_meters":7200,"station_id":"ce4bh192rcd13ifvqdd0","pricing_plan_id":"cebpf4jnsgd1na2vs0mg"},{"bike_id":"323bf2de-3bb4-4b4c-b330-b19ea807dbf5","system_id":"levelo_inurba_marseille","lat":43.33041,"lon":5.42962,"is_reserved":false,"is_disabled":false,"rental_uris":{"android":"levelo://app?vid=323bf2de-3bb4-4b4c-b330-b19ea807dbf5","ios":"levelo://app?vid=323bf2de-3bb4-4b4c-b330-b19ea807dbf5"},"vehicle_type_id":"4","last_reported":1761347359,"current_range_meters":8000,"station_id":"","pricing_plan_id":"cebpf4jnsgd1na2vs0mg"},{"bike_id":"17bd9fff-f8a7-45af-8120-cab272292f42","system_id":"levelo_inurba_marseille","lat":43.28486,"lon":5.48387,"is_reserved":false,"is_disabled":false,"rental_uris":{"android":"levelo://app?vid=17bd9fff-f8a7-45af-8120-cab272292f42","ios":"levelo://app?vid=17bd9fff-f8a7-45af-8120-cab272292f42"},"vehicle_type_id":"4","last_reported":1761347359,"current_range_meters":8000,"station_id":"st_d3svhcjqgbts73a3dn0g","pricing_plan_id":"cebpf4jnsgd1na2vs0mg"},{"bike_id":"bf52d227-e2e6-4e46-bfde-44cbb96d7d45","system_id":"levelo_inurba_marseille","lat":43.21191,"lon":5.35076,"is_reserved":false,"is_disabled":false,"rental_uris":{"android":"levelo://app?vid=bf52d227-e2e6-4e46-bfde-44cbb96d7d45","ios":"levelo://app?vid=bf52d227-e2e6-4e46-bfde-44cbb96d7d45"},"vehicle_type_id":"4","last_reported":1761347359,"current_range_meters":8400,"station_id":"st_cvj6sg6p6f1abm77japg","pricing_plan_id":"cebpf4jnsgd1na2vs0mg"},{"bike_id":"9bfed83c-4a67-448a-b6b2-0cdeb6d04c62","system_id":"levelo_inurba_marseille","lat":43.21183,"lon":5.35089,"is_reserved":false,"is_disabled":false,"rental_uris":{"android":"levelo://app?vid=9bfed83c-4a67-448a-b6b2-0cdeb6d04c62","ios":"levelo://app?vid=9bfed83c-4a67-448a-b6b2-0cdeb6d04c62"},"vehicle_type_id":"4","last_reported":1761347359,"current_range_meters":8400,"station_id":"st_cvj6sg6p6f1abm77japg","pricing_plan_id":"cebpf4jnsgd1na2vs0mg"},{"bike_id":"a6f47d00-8573-4282-ba81-f620949ceaae","system_id":"levelo_inurba_marseille","lat":43.25511,"lon":5.37655,"is_reserved":false,"is_disabled":false,"rental_uris":{"android":"levelo://app?vid=a6f47d00-8573-4282-ba81-f620949ceaae","ios":"levelo://app?vid=a6f47d00-8573-4282-ba81-f620949ceaae"},"vehicle_type_id":"4","last_reported":1761347359,"current_range_meters":8400,"station_id":"ce4bhh12rcd13ifvqff0","pricing_plan_id":"cebpf4jnsgd1na2vs0mg"},{"bike_id":"18df7d7e-5c22-4e8f-8de7-2f9e21f3521d","system_id":"levelo_inurba_marseille","lat":43.29596,"lon":5.39621,"is_reserved":false,"is_disabled":false,"rental_uris":{"android":"levelo://app?vid=18df7d7e-5c22-4e8f-8de7-2f9e21f3521d","ios":"levelo://app?vid=18df7d7e-5c22-4e8f-8de7-2f9e21f3521d"},"vehicle_type_id":"4","last_reported":1761347359,"current_range_meters":8400,"station_id":"","pricing_plan_id":"cebpf4jnsgd1na2vs0mg"},{"bike_id":"47074234-eebe-49aa-be84-cc94f1a86611","system_id":"levelo_inurba_marseille","lat":43.28939,"lon":5.39632,"is_reserved":false,"is_disabled":false,"rental_uris":{"android":"levelo://app?vid=47074234-eebe-49aa-be84-cc94f1a86611","ios":"levelo://app?vid=47074234-eebe-49aa-be84-cc94f1a86611"},"vehicle_type_id":"4","last_reported":1761347359,"current_range_meters":8400,"station_id":"ce4bh3h2rcd13ifvqdn0","pricing_plan_id":"cebpf4jnsgd1na2vs0mg"},{"bike_id":"d0096128-a041-442f-aa3f-a26b588c1646","system_id":"levelo_inurba_marseille","lat":43.31684,"lon":5.40489,"is_reserved":false,"is_disabled":false,"rental_uris":{"android":"levelo://app?vid=d0096128-a041-442f-aa3f-a26b588c1646","ios":"levelo://app?vid=d0096128-a041-442f-aa3f-a26b588c1646"},"vehicle_type_id":"4","last_reported":1761347359,"current_range_meters":8400,"station_id":"ce4bh012rcd13ifvqd00","pricing_plan_id":"cebpf4jnsgd1na2vs0mg"},{"bike_id":"b4714d59-ffa0-441d-a810-25727278831e","system_id":"levelo_inurba_marseille","lat":43.30138,"lon":5.39858,"is_reserved":false,"is_disabled":false,"rental_uris":{"android":"levelo://app?vid=b4714d59-ffa0-441d-a810-25727278831e","ios":"levelo://app?vid=b4714d59-ffa0-441d-a810-25727278831e"},"vehicle_type_id":"4","last_reported":1761347359,"current_range_meters":8800,"station_id":"ce4bh0h2rcd13ifvqd40","pricing_plan_id":"cebpf4jnsgd1na2vs0mg"},{"bike_id":"3e157150-5517-47f9-9b64-cb7c4a44cd9d","system_id":"levelo_inurba_marseille","lat":43.31811,"lon":5.402,"is_reserved":false,"is_disabled":false,"rental_uris":{"android":"levelo://app?vid=3e157150-5517-47f9-9b64-cb7c4a44cd9d","ios":"levelo://app?vid=3e157150-5517-47f9-9b64-cb7c4a44cd9d"},"vehicle_type_id":"4","last_reported":1761347359,"current_range_meters":8800,"station_id":"","pricing_plan_id":"cebpf4jnsgd1na2vs0mg"},{"bike_id":"97d4a7c1-4145-4002-8060-9929b1b4d88e","system_id":"levelo_inurba_marseille","lat":43.30135,"lon":5.39869,"is_reserved":false,"is_disabled":false,"rental_uris":{"android":"levelo://app?vid=97d4a7c1-4145-4002-8060-9929b1b4d88e","ios":"levelo://app?vid=97d4a7c1-4145-4002-8060-9929b1b4d88e"},"vehicle_type_id":"4","last_reported":1761347359,"current_range_meters":8800,"station_id":"ce4bh0h2rcd13ifvqd40","pricing_plan_id":"cebpf4jnsgd1na2vs0mg"},{"bike_id":"926901ad-e050-44d3-a0a8-07f00a8cb216","system_id":"levelo_inurba_marseille","lat":43.2757,"lon":5.38422,"is_reserved":false,"is_disabled":false,"rental_uris":{"android":"levelo://app?vid=926901ad-e050-44d3-a0a8-07f00a8cb216","ios":"levelo://app?vid=926901ad-e050-44d3-a0a8-07f00a8cb216"},"vehicle_type_id":"4","last_reported":1761347359,"current_range_meters":8800,"station_id":"ce4bhh92rcd13ifvqfi0","pricing_plan_id":"cebpf4jnsgd1na2vs0mg"},{"bike_id":"b9764ed2-f91a-421e-b54e-d7527bd8af22","system_id":"levelo_inurba_marseille","lat":43.29811,"lon":5.36588,"is_reserved":false,"is_disabled":false,"rental_uris":{"android":"levelo://app?vid=b9764ed2-f91a-421e-b54e-d7527bd8af22","ios":"levelo://app?vid=b9764ed2-f91a-421e-b54e-d7527bd8af22"},"vehicle_type_id":"4","last_reported":1761347359,"current_range_meters":9200,"station_id":"","pricing_plan_id":"cebpf4jnsgd1na2vs0mg"},{"bike_id":"8bcacd78-80de-4026-af75-b37ebe3030fe","system_id":"levelo_inurba_marseille","lat":43.334756,"lon":5.404255,"is_reserved":false,"is_disabled":false,"rental_uris":{"android":"levelo://app?vid=8bcacd78-80de-4026-af75-b37ebe3030fe","ios":"levelo://app?vid=8bcacd78-80de-4026-af75-b37ebe3030fe"},"vehicle_type_id":"4","last_reported":1761347359,"current_range_meters":9200,"station_id":"","pricing_plan_id":"cebpf4jnsgd1na2vs0mg"},{"bike_id":"9881c788-42a8-46f5-8ccc-580a73583155","system_id":"levelo_inurba_marseille","lat":43.320832,"lon":5.40928,"is_reserved":false,"is_disabled":true,"rental_uris":{"android":"levelo://app?vid=9881c788-42a8-46f5-8ccc-580a73583155","ios":"levelo://app?vid=9881c788-42a8-46f5-8ccc-580a73583155"},"vehicle_type_id":"4","last_reported":1761347359,"current_range_meters":9200,"station_id":"","pricing_plan_id":"cebpf4jnsgd1na2vs0mg"},{"bike_id":"2e33dde9-48cd-4567-8ebd-e4702c7536db","system_id":"levelo_inurba_marseille","lat":43.292595,"lon":5.384459,"is_reserved":false,"is_disabled":false,"rental_uris":{"android":"levelo://app?vid=2e33dde9-48cd-4567-8ebd-e4702c7536db","ios":"levelo://app?vid=2e33dde9-48cd-4567-8ebd-e4702c7536db"},"vehicle_type_id":"4","last_reported":1761347359,"current_range_meters":9200,"station_id":"ce4bh692rcd13ifvqea0","pricing_plan_id":"cebpf4jnsgd1na2vs0mg"},{"bike_id":"8a5621c4-fbf0-4491-b89e-2fb47c80440d","system_id":"levelo_inurba_marseille","lat":43.26566,"lon":5.37336,"is_reserved":false,"is_disabled":false,"rental_uris":{"android":"levelo://app?vid=8a5621c4-fbf0-4491-b89e-2fb47c80440d","ios":"levelo://app?vid=8a5621c4-fbf0-4491-b89e-2fb47c80440d"},"vehicle_type_id":"4","last_reported":1761347359,"current_range_meters":9600,"station_id":"ce4bhg12rcd13ifvqf70","pricing_plan_id":"cebpf4jnsgd1na2vs0mg"},{"bike_id":"2842f5fd-7b05-4b47-909c-5ee54d7d3bc5","system_id":"levelo_inurba_marseille","lat":43.3244,"lon":5.4279,"is_reserved":false,"is_disabled":false,"rental_uris":{"android":"levelo://app?vid=2842f5fd-7b05-4b47-909c-5ee54d7d3bc5","ios":"levelo://app?vid=2842f5fd-7b05-4b47-909c-5ee54d7d3bc5"},"vehicle_type_id":"4","last_reported":1761347359,"current_range_meters":9600,"station_id":"","pricing_plan_id":"cebpf4jnsgd1na2vs0mg"},{"bike_id":"2c8b694d-95ce-42a5-9ce3-5f63dd39a580","system_id":"levelo_inurba_marseille","lat":43.30233,"lon":5.40033,"is_reserved":false,"is_disabled":false,"rental_uris":{"android":"levelo://app?vid=2c8b694d-95ce-42a5-9ce3-5f63dd39a580","ios":"levelo://app?vid=2c8b694d-95ce-42a5-9ce3-5f63dd39a580"},"vehicle_type_id":"4","last_reported":1761347359,"current_range_meters":9600,"station_id":"","pricing_plan_id":"cebpf4jnsgd1na2vs0mg"},{"bike_id":"3ea860b0-bcc7-4174-8003-dcebcf1c1d38","system_id":"levelo_inurba_marseille","lat":43.2812,"lon":5.43221,"is_reserved":false,"is_disabled":false,"rental_uris":{"android":"levelo://app?vid=3ea860b0-bcc7-4174-8003-dcebcf1c1d38","ios":"levelo://app?vid=3ea860b0-bcc7-4174-8003-dcebcf1c1d38"},"vehicle_type_id":"4","last_reported":1761347359,"current_range_meters":10000,"station_id":"","pricing_plan_id":"cebpf4jnsgd1na2vs0mg"},{"bike_id":"ca1f638f-31ee-4988-b094-5e7802fc2669","system_id":"levelo_inurba_marseille","lat":43.26202,"lon":5.37928,"is_reserved":false,"is_disabled":false,"rental_uris":{"android":"levelo://app?vid=ca1f638f-31ee-4988-b094-5e7802fc2669","ios":"levelo://app?vid=ca1f638f-31ee-4988-b094-5e7802fc2669"},"vehicle_type_id":"4","last_reported":1761347359,"current_range_meters":10000,"station_id":"ce4bhjp2rcd13ifvqg90","pricing_plan_id":"cebpf4jnsgd1na2vs0mg"},{"bike_id":"550b7d5a-b27d-4c85-b441-366f68630cc0","system_id":"levelo_inurba_marseille","lat":43.30541,"lon":5.3844,"is_reserved":false,"is_disabled":false,"rental_uris":{"android":"levelo://app?vid=550b7d5a-b27d-4c85-b441-366f68630cc0","ios":"levelo://app?vid=550b7d5a-b27d-4c85-b441-366f68630cc0"},"vehicle_type_id":"4","last_reported":1761347359,"current_range_meters":10000,"station_id":"ce4bgg92rcd13ifvqb30","pricing_plan_id":"cebpf4jnsgd1na2vs0mg"},{"bike_id":"fd056f45-cb13-4448-88a4-8b75b326a45e","system_id":"levelo_inurba_marseille","lat":43.28701,"lon":5.37395,"is_reserved":false,"is_disabled":false,"rental_uris":{"android":"levelo://app?vid=fd056f45-cb13-4448-88a4-8b75b326a45e","ios":"levelo://app?vid=fd056f45-cb13-4448-88a4-8b75b326a45e"},"vehicle_type_id":"4","last_reported":1761347359,"current_range_meters":10000,"station_id":"ce4bh3p2rcd13ifvqdq0","pricing_plan_id":"cebpf4jnsgd1na2vs0mg"},{"bike_id":"a2666ccb-a48d-4bb6-9479-2612685cac3b","system_id":"levelo_inurba_marseille","lat":43.244,"lon":5.37064,"is_reserved":false,"is_disabled":false,"rental_uris":{"android":"levelo://app?vid=a2666ccb-a48d-4bb6-9479-2612685cac3b","ios":"levelo://app?vid=a2666ccb-a48d-4bb6-9479-2612685cac3b"},"vehicle_type_id":"4","last_reported":1761347359,"current_range_meters":10800,"station_id":"ce4bhhh2rcd13ifvqfk0","pricing_plan_id":"cebpf4jnsgd1na2vs0mg"},{"bike_id":"db94d1e3-d6ad-4bc0-b456-0d49f128a641","system_id":"levelo_inurba_marseille","lat":43.30211,"lon":5.37103,"is_reserved":false,"is_disabled":false,"rental_uris":{"android":"levelo://app?vid=db94d1e3-d6ad-4bc0-b456-0d49f128a641","ios":"levelo://app?vid=db94d1e3-d6ad-4bc0-b456-0d49f128a641"},"vehicle_type_id":"4","last_reported":1761347359,"current_range_meters":10800,"station_id":"","pricing_plan_id":"cebpf4jnsgd1na2vs0mg"},{"bike_id":"e35e1247-2ec0-4206-a360-6aaa534a130f","system_id":"levelo_inurba_marseille","lat":43.28481,"lon":5.48392,"is_reserved":false,"is_disabled":false,"rental_uris":{"android":"levelo://app?vid=e35e1247-2ec0-4206-a360-6aaa534a130f","ios":"levelo://app?vid=e35e1247-2ec0-4206-a360-6aaa534a130f"},"vehicle_type_id":"4","last_reported":1761347359,"current_range_meters":10800,"station_id":"st_d3svhcjqgbts73a3dn0g","pricing_plan_id":"cebpf4jnsgd1na2vs0mg"},{"bike_id":"ccb140cc-61af-460c-9c74-9b118e13b00f","system_id":"levelo_inurba_marseille","lat":43.25335,"lon":5.4216,"is_reserved":false,"is_disabled":false,"rental_uris":{"android":"levelo://app?vid=ccb140cc-61af-460c-9c74-9b118e13b00f","ios":"levelo://app?vid=ccb140cc-61af-460c-9c74-9b118e13b00f"},"vehicle_type_id":"4","last_reported":1761347359,"current_range_meters":11200,"station_id":"st_d2m65c5bi1j21697t3ng","pricing_plan_id":"cebpf4jnsgd1na2vs0mg"},{"bike_id":"cb0d1ca2-50fa-4e0c-8a36-443c5a3930bb","system_id":"levelo_inurba_marseille","lat":43.287185,"lon":5.379273,"is_reserved":false,"is_disabled":true,"rental_uris":{"android":"levelo://app?vid=cb0d1ca2-50fa-4e0c-8a36-443c5a3930bb","ios":"levelo://app?vid=cb0d1ca2-50fa-4e0c-8a36-443c5a3930bb"},"vehicle_type_id":"4","last_reported":1761347359,"current_range_meters":11200,"station_id":"ce4bh9p2rcd13ifvqec0","pricing_plan_id":"cebpf4jnsgd1na2vs0mg"},{"bike_id":"f4202009-5c2f-4100-8fe1-431b5236d140","system_id":"levelo_inurba_marseille","lat":43.30248,"lon":5.40057,"is_reserved":false,"is_disabled":false,"rental_uris":{"android":"levelo://app?vid=f4202009-5c2f-4100-8fe1-431b5236d140","ios":"levelo://app?vid=f4202009-5c2f-4100-8fe1-431b5236d140"},"vehicle_type_id":"4","last_reported":1761347359,"current_range_meters":11200,"station_id":"ce4bgvh2rcd13ifvqcs0","pricing_plan_id":"cebpf4jnsgd1na2vs0mg"},{"bike_id":"dc32c902-0e78-43e9-86e5-99ce7ac82a0d","system_id":"levelo_inurba_marseille","lat":43.27948,"lon":5.39591,"is_reserved":false,"is_disabled":false,"rental_uris":{"android":"levelo://app?vid=dc32c902-0e78-43e9-86e5-99ce7ac82a0d","ios":"levelo://app?vid=dc32c902-0e78-43e9-86e5-99ce7ac82a0d"},"vehicle_type_id":"4","last_reported":1761347359,"current_range_meters":11200,"station_id":"ce4bhf92rcd13ifvqf40","pricing_plan_id":"cebpf4jnsgd1na2vs0mg"},{"bike_id":"3ce143eb-b285-40ae-a41f-1a7d6206d959","system_id":"levelo_inurba_marseille","lat":43.29545,"lon":5.38546,"is_reserved":false,"is_disabled":false,"rental_uris":{"android":"levelo://app?vid=3ce143eb-b285-40ae-a41f-1a7d6206d959","ios":"levelo://app?vid=3ce143eb-b285-40ae-a41f-1a7d6206d959"},"vehicle_type_id":"4","last_reported":1761347359,"current_range_meters":11600,"station_id":"ce4bgih2rcd13ifvqba0","pricing_plan_id":"cebpf4jnsgd1na2vs0mg"},{"bike_id":"a0c751a0-8d12-43e0-bc2f-098d6809e305","system_id":"levelo_inurba_marseille","lat":43.3054,"lon":5.36721,"is_reserved":false,"is_disabled":false,"rental_uris":{"android":"levelo://app?vid=a0c751a0-8d12-43e0-bc2f-098d6809e305","ios":"levelo://app?vid=a0c751a0-8d12-43e0-bc2f-098d6809e305"},"vehicle_type_id":"4","last_reported":1761347359,"current_range_meters":11600,"station_id":"ce4bgrp2rcd13ifvqc9g","pricing_plan_id":"cebpf4jnsgd1na2vs0mg"},{"bike_id":"de4b8ab5-285e-474a-b521-72ccb626a9fe","system_id":"levelo_inurba_marseille","lat":43.32246,"lon":5.38357,"is_reserved":false,"is_disabled":false,"rental_uris":{"android":"levelo://app?vid=de4b8ab5-285e-474a-b521-72ccb626a9fe","ios":"levelo://app?vid=de4b8ab5-285e-474a-b521-72ccb626a9fe"},"vehicle_type_id":"4","last_reported":1761347359,"current_range_meters":11600,"station_id":"ce4bhr12rcd13ifvqhqg","pricing_plan_id":"cebpf4jnsgd1na2vs0mg"},{"bike_id":"20ed8898-129d-47a9-8640-6e442dec20cd","system_id":"levelo_inurba_marseille","lat":43.284071,"lon":5.375007,"is_reserved":false,"is_disabled":false,"rental_uris":{"android":"levelo://app?vid=20ed8898-129d-47a9-8640-6e442dec20cd","ios":"levelo://app?vid=20ed8898-129d-47a9-8640-6e442dec20cd"},"vehicle_type_id":"4","last_reported":1761347359,"current_range_meters":11600,"station_id":"ce4bh412rcd13ifvqds0","pricing_plan_id":"cebpf4jnsgd1na2vs0mg"},{"bike_id":"6a3a0a14-04db-4f52-8630-b4637ea6f878","system_id":"levelo_inurba_marseille","lat":43.29938,"lon":5.36557,"is_reserved":false,"is_disabled":false,"rental_uris":{"android":"levelo://app?vid=6a3a0a14-04db-4f52-8630-b4637ea6f878","ios":"levelo://app?vid=6a3a0a14-04db-4f52-8630-b4637ea6f878"},"vehicle_type_id":"4","last_reported":1761347359,"current_range_meters":11600,"station_id":"ce4bgm92rcd13ifvqbr0","pricing_plan_id":"cebpf4jnsgd1na2vs0mg"},{"bike_id":"5a753e64-b9ab-4258-baac-3e5dbb098814","system_id":"levelo_inurba_marseille","lat":43.26948,"lon":5.38613,"is_reserved":false,"is_disabled":false,"rental_uris":{"android":"levelo://app?vid=5a753e64-b9ab-4258-baac-3e5dbb098814","ios":"levelo://app?vid=5a753e64-b9ab-4258-baac-3e5dbb098814"},"vehicle_type_id":"4","last_reported":1761347359,"current_range_meters":11600,"station_id":"ce4bhh92rcd13ifvqfh0","pricing_plan_id":"cebpf4jnsgd1na2vs0mg"},{"bike_id":"6b307c52-f33b-4885-85a6-9bac6592bb3d","system_id":"levelo_inurba_marseille","lat":43.212002,"lon":5.350652,"is_reserved":false,"is_disabled":false,"rental_uris":{"android":"levelo://app?vid=6b307c52-f33b-4885-85a6-9bac6592bb3d","ios":"levelo://app?vid=6b307c52-f33b-4885-85a6-9bac6592bb3d"},"vehicle_type_id":"4","last_reported":1761347359,"current_range_meters":11600,"station_id":"st_cvj6sg6p6f1abm77japg","pricing_plan_id":"cebpf4jnsgd1na2vs0mg"},{"bike_id":"03ddb7dc-787d-466b-abef-c96bf0c805a2","system_id":"levelo_inurba_marseille","lat":43.267516,"lon":5.39417,"is_reserved":false,"is_disabled":false,"rental_uris":{"android":"levelo://app?vid=03ddb7dc-787d-466b-abef-c96bf0c805a2","ios":"levelo://app?vid=03ddb7dc-787d-466b-abef-c96bf0c805a2"},"vehicle_type_id":"4","last_reported":1761347359,"current_range_meters":11600,"station_id":"ce4bhh12rcd13ifvqfg0","pricing_plan_id":"cebpf4jnsgd1na2vs0mg"},{"bike_id":"9bf57bfe-a46b-4493-b0c7-9d7b3b495b1c","system_id":"levelo_inurba_marseille","lat":43.306477,"lon":5.40091,"is_reserved":false,"is_disabled":false,"rental_uris":{"android":"levelo://app?vid=9bf57bfe-a46b-4493-b0c7-9d7b3b495b1c","ios":"levelo://app?vid=9bf57bfe-a46b-4493-b0c7-9d7b3b495b1c"},"vehicle_type_id":"4","last_reported":1761347359,"current_range_meters":11600,"station_id":"ce4bh112rcd13ifvqda0","pricing_plan_id":"cebpf4jnsgd1na2vs0mg"},{"bike_id":"a28b6a76-dcce-4c6b-b202-44f168b38072","system_id":"levelo_inurba_marseille","lat":43.29667,"lon":5.38637,"is_reserved":false,"is_disabled":false,"rental_uris":{"android":"levelo://app?vid=a28b6a76-dcce-4c6b-b202-44f168b38072","ios":"levelo://app?vid=a28b6a76-dcce-4c6b-b202-44f168b38072"},"vehicle_type_id":"4","last_reported":1761347359,"current_range_meters":12000,"station_id":"","pricing_plan_id":"cebpf4jnsgd1na2vs0mg"},{"bike_id":"25b77d4a-c657-4f7c-be8c-daf6c7bed861","system_id":"levelo_inurba_marseille","lat":43.28704,"lon":5.37386,"is_reserved":false,"is_disabled":false,"rental_uris":{"android":"levelo://app?vid=25b77d4a-c657-4f7c-be8c-daf6c7bed861","ios":"levelo://app?vid=25b77d4a-c657-4f7c-be8c-daf6c7bed861"},"vehicle_type_id":"4","last_reported":1761347359,"current_range_meters":12000,"station_id":"ce4bh3p2rcd13ifvqdq0","pricing_plan_id":"cebpf4jnsgd1na2vs0mg"},{"bike_id":"11ab3454-2ba7-4e88-bedd-84e5c3465e52","system_id":"levelo_inurba_marseille","lat":43.24392,"lon":5.37052,"is_reserved":false,"is_disabled":false,"rental_uris":{"android":"levelo://app?vid=11ab3454-2ba7-4e88-bedd-84e5c3465e52","ios":"levelo://app?vid=11ab3454-2ba7-4e88-bedd-84e5c3465e52"},"vehicle_type_id":"4","last_reported":1761347359,"current_range_meters":12000,"station_id":"ce4bhhh2rcd13ifvqfk0","pricing_plan_id":"cebpf4jnsgd1na2vs0mg"},{"bike_id":"73019415-679c-46df-bd2d-1b42534d9724","system_id":"levelo_inurba_marseille","lat":43.26431,"lon":5.37362,"is_reserved":false,"is_disabled":false,"rental_uris":{"android":"levelo://app?vid=73019415-679c-46df-bd2d-1b42534d9724","ios":"levelo://app?vid=73019415-679c-46df-bd2d-1b42534d9724"},"vehicle_type_id":"4","last_reported":1761347359,"current_range_meters":12000,"station_id":"","pricing_plan_id":"cebpf4jnsgd1na2vs0mg"},{"bike_id":"32ce9492-4637-4d6e-a292-cd351db28377","system_id":"levelo_inurba_marseille","lat":43.31155,"lon":5.37036,"is_reserved":false,"is_disabled":false,"rental_uris":{"android":"levelo://app?vid=32ce9492-4637-4d6e-a292-cd351db28377","ios":"levelo://app?vid=32ce9492-4637-4d6e-a292-cd351db28377"},"vehicle_type_id":"4","last_reported":1761347359,"current_range_meters":12400,"station_id":"","pricing_plan_id":"cebpf4jnsgd1na2vs0mg"},{"bike_id":"6398fd05-47e5-41f8-95bf-116d17d1d757","system_id":"levelo_inurba_marseille","lat":43.292603,"lon":5.384447,"is_reserved":false,"is_disabled":false,"rental_uris":{"android":"levelo://app?vid=6398fd05-47e5-41f8-95bf-116d17d1d757","ios":"levelo://app?vid=6398fd05-47e5-41f8-95bf-116d17d1d757"},"vehicle_type_id":"4","last_reported":1761347359,"current_range_meters":12400,"station_id":"","pricing_plan_id":"cebpf4jnsgd1na2vs0mg"},{"bike_id":"262c117f-c081-4bb4-be5a-bba94bad546d","system_id":"levelo_inurba_marseille","lat":43.26203,"lon":5.37934,"is_reserved":false,"is_disabled":false,"rental_uris":{"android":"levelo://app?vid=262c117f-c081-4bb4-be5a-bba94bad546d","ios":"levelo://app?vid=262c117f-c081-4bb4-be5a-bba94bad546d"},"vehicle_type_id":"4","last_reported":1761347359,"current_range_meters":12400,"station_id":"ce4bhjp2rcd13ifvqg90","pricing_plan_id":"cebpf4jnsgd1na2vs0mg"},{"bike_id":"5ed040cd-a83b-4624-aa09-8c66d4769469","system_id":"levelo_inurba_marseille","lat":43.237839,"lon":5.366356,"is_reserved":false,"is_disabled":false,"rental_uris":{"android":"levelo://app?vid=5ed040cd-a83b-4624-aa09-8c66d4769469","ios":"levelo://app?vid=5ed040cd-a83b-4624-aa09-8c66d4769469"},"vehicle_type_id":"4","last_reported":1761347359,"current_range_meters":12400,"station_id":"st_d3nk18o9ro0c73en2l3g","pricing_plan_id":"cebpf4jnsgd1na2vs0mg"},{"bike_id":"c5f9f638-b9dd-4b41-94d7-8e3dd79873d5","system_id":"levelo_inurba_marseille","lat":43.27938,"lon":5.4104,"is_reserved":false,"is_disabled":false,"rental_uris":{"android":"levelo://app?vid=c5f9f638-b9dd-4b41-94d7-8e3dd79873d5","ios":"levelo://app?vid=c5f9f638-b9dd-4b41-94d7-8e3dd79873d5"},"vehicle_type_id":"4","last_reported":1761347359,"current_range_meters":12400,"station_id":"ce4bhnp2rcd13ifvqh0g","pricing_plan_id":"cebpf4jnsgd1na2vs0mg"},{"bike_id":"c3aedac6-21ff-4c42-9b0e-bddfa8924b3a","system_id":"levelo_inurba_marseille","lat":43.2679,"lon":5.39408,"is_reserved":false,"is_disabled":false,"rental_uris":{"android":"levelo://app?vid=c3aedac6-21ff-4c42-9b0e-bddfa8924b3a","ios":"levelo://app?vid=c3aedac6-21ff-4c42-9b0e-bddfa8924b3a"},"vehicle_type_id":"4","last_reported":1761347359,"current_range_meters":12400,"station_id":"ce4bhh12rcd13ifvqfg0","pricing_plan_id":"cebpf4jnsgd1na2vs0mg"},{"bike_id":"55e2ef02-344e-48b6-8e3a-b74ca1a37aea","system_id":"levelo_inurba_marseille","lat":43.289409,"lon":5.396219,"is_reserved":false,"is_disabled":false,"rental_uris":{"android":"levelo://app?vid=55e2ef02-344e-48b6-8e3a-b74ca1a37aea","ios":"levelo://app?vid=55e2ef02-344e-48b6-8e3a-b74ca1a37aea"},"vehicle_type_id":"4","last_reported":1761347359,"current_range_meters":12400,"station_id":"ce4bh3h2rcd13ifvqdn0","pricing_plan_id":"cebpf4jnsgd1na2vs0mg"},{"bike_id":"05d5a1e1-643b-4c28-b320-38e9d16d3095","system_id":"levelo_inurba_marseille","lat":43.27946,"lon":5.41037,"is_reserved":false,"is_disabled":false,"rental_uris":{"android":"levelo://app?vid=05d5a1e1-643b-4c28-b320-38e9d16d3095","ios":"levelo://app?vid=05d5a1e1-643b-4c28-b320-38e9d16d3095"},"vehicle_type_id":"4","last_reported":1761347359,"current_range_meters":12800,"station_id":"ce4bhnp2rcd13ifvqh0g","pricing_plan_id":"cebpf4jnsgd1na2vs0mg"},{"bike_id":"249615da-bae2-4bb3-9506-b338b9fb85b7","system_id":"levelo_inurba_marseille","lat":43.29697,"lon":5.37685,"is_reserved":false,"is_disabled":true,"rental_uris":{"android":"levelo://app?vid=249615da-bae2-4bb3-9506-b338b9fb85b7","ios":"levelo://app?vid=249615da-bae2-4bb3-9506-b338b9fb85b7"},"vehicle_type_id":"4","last_reported":1761347359,"current_range_meters":12800,"station_id":"ce4bgkh2rcd13ifvqbl0","pricing_plan_id":"cebpf4jnsgd1na2vs0mg"},{"bike_id":"faa9e64a-426c-4d0c-8cdb-396ea27458d0","system_id":"levelo_inurba_marseille","lat":43.28076,"lon":5.39646,"is_reserved":false,"is_disabled":false,"rental_uris":{"android":"levelo://app?vid=faa9e64a-426c-4d0c-8cdb-396ea27458d0","ios":"levelo://app?vid=faa9e64a-426c-4d0c-8cdb-396ea27458d0"},"vehicle_type_id":"4","last_reported":1761347359,"current_range_meters":12800,"station_id":"ce4bho12rcd13ifvqh2g","pricing_plan_id":"cebpf4jnsgd1na2vs0mg"},{"bike_id":"e94f57f2-601c-4cad-a187-6e953770aa25","system_id":"levelo_inurba_marseille","lat":43.31225,"lon":5.37893,"is_reserved":false,"is_disabled":false,"rental_uris":{"android":"levelo://app?vid=e94f57f2-601c-4cad-a187-6e953770aa25","ios":"levelo://app?vid=e94f57f2-601c-4cad-a187-6e953770aa25"},"vehicle_type_id":"4","last_reported":1761347359,"current_range_meters":12800,"station_id":"","pricing_plan_id":"cebpf4jnsgd1na2vs0mg"},{"bike_id":"ad50cdc6-14ac-4ee0-8fca-5cde66c278a9","system_id":"levelo_inurba_marseille","lat":43.24075,"lon":5.37753,"is_reserved":false,"is_disabled":false,"rental_uris":{"android":"levelo://app?vid=ad50cdc6-14ac-4ee0-8fca-5cde66c278a9","ios":"levelo://app?vid=ad50cdc6-14ac-4ee0-8fca-5cde66c278a9"},"vehicle_type_id":"4","last_reported":1761347359,"current_range_meters":12800,"station_id":"ce4bhnp2rcd13ifvqgvg","pricing_plan_id":"cebpf4jnsgd1na2vs0mg"},{"bike_id":"d7e7d97d-83fa-498a-ab76-bb06d7459e0c","system_id":"levelo_inurba_marseille","lat":43.29008,"lon":5.40034,"is_reserved":false,"is_disabled":false,"rental_uris":{"android":"levelo://app?vid=d7e7d97d-83fa-498a-ab76-bb06d7459e0c","ios":"levelo://app?vid=d7e7d97d-83fa-498a-ab76-bb06d7459e0c"},"vehicle_type_id":"4","last_reported":1761347359,"current_range_meters":13600,"station_id":"","pricing_plan_id":"cebpf4jnsgd1na2vs0mg"},{"bike_id":"b27d77c7-cb64-4204-9ade-986c14c57cb9","system_id":"levelo_inurba_marseille","lat":43.2863,"lon":5.3509,"is_reserved":false,"is_disabled":false,"rental_uris":{"android":"levelo://app?vid=b27d77c7-cb64-4204-9ade-986c14c57cb9","ios":"levelo://app?vid=b27d77c7-cb64-4204-9ade-986c14c57cb9"},"vehicle_type_id":"4","last_reported":1761347359,"current_range_meters":13600,"station_id":"ce4bhch2rcd13ifvqeug","pricing_plan_id":"cebpf4jnsgd1na2vs0mg"},{"bike_id":"9f5c956e-6fb9-4327-b965-b9c59c52aef2","system_id":"levelo_inurba_marseille","lat":43.30252,"lon":5.4006,"is_reserved":false,"is_disabled":false,"rental_uris":{"android":"levelo://app?vid=9f5c956e-6fb9-4327-b965-b9c59c52aef2","ios":"levelo://app?vid=9f5c956e-6fb9-4327-b965-b9c59c52aef2"},"vehicle_type_id":"4","last_reported":1761347359,"current_range_meters":13600,"station_id":"ce4bgvh2rcd13ifvqcs0","pricing_plan_id":"cebpf4jnsgd1na2vs0mg"},{"bike_id":"6327b9e4-b2d2-4a13-89be-11ffd776b74c","system_id":"levelo_inurba_marseille","lat":43.27919,"lon":5.39575,"is_reserved":false,"is_disabled":false,"rental_uris":{"android":"levelo://app?vid=6327b9e4-b2d2-4a13-89be-11ffd776b74c","ios":"levelo://app?vid=6327b9e4-b2d2-4a13-89be-11ffd776b74c"},"vehicle_type_id":"4","last_reported":1761347359,"current_range_meters":13600,"station_id":"ce4bhf92rcd13ifvqf40","pricing_plan_id":"cebpf4jnsgd1na2vs0mg"},{"bike_id":"408e1aa4-ba69-4988-8857-9cb927f6b99f","system_id":"levelo_inurba_marseille","lat":43.24179,"lon":5.39736,"is_reserved":false,"is_disabled":false,"rental_uris":{"android":"levelo://app?vid=408e1aa4-ba69-4988-8857-9cb927f6b99f","ios":"levelo://app?vid=408e1aa4-ba69-4988-8857-9cb927f6b99f"},"vehicle_type_id":"4","last_reported":1761347359,"current_range_meters":13600,"station_id":"ce4bhn12rcd13ifvqgpg","pricing_plan_id":"cebpf4jnsgd1na2vs0mg"},{"bike_id":"4f5c5045-2f2c-4ab7-ad8b-eeba1d52fe66","system_id":"levelo_inurba_marseille","lat":43.31094,"lon":5.37498,"is_reserved":false,"is_disabled":false,"rental_uris":{"android":"levelo://app?vid=4f5c5045-2f2c-4ab7-ad8b-eeba1d52fe66","ios":"levelo://app?vid=4f5c5045-2f2c-4ab7-ad8b-eeba1d52fe66"},"vehicle_type_id":"4","last_reported":1761347359,"current_range_meters":13600,"station_id":"","pricing_plan_id":"cebpf4jnsgd1na2vs0mg"},{"bike_id":"f0ffa1bc-bf87-4b06-922e-4886ace67ef7","system_id":"levelo_inurba_marseille","lat":43.27946,"lon":5.4105,"is_reserved":false,"is_disabled":false,"rental_uris":{"android":"levelo://app?vid=f0ffa1bc-bf87-4b06-922e-4886ace67ef7","ios":"levelo://app?vid=f0ffa1bc-bf87-4b06-922e-4886ace67ef7"},"vehicle_type_id":"4","last_reported":1761347359,"current_range_meters":13600,"station_id":"ce4bhnp2rcd13ifvqh0g","pricing_plan_id":"cebpf4jnsgd1na2vs0mg"},{"bike_id":"b4a58be7-078f-4a20-a7d5-be89215205b6","system_id":"levelo_inurba_marseille","lat":43.31273,"lon":5.40167,"is_reserved":false,"is_disabled":false,"rental_uris":{"android":"levelo://app?vid=b4a58be7-078f-4a20-a7d5-be89215205b6","ios":"levelo://app?vid=b4a58be7-078f-4a20-a7d5-be89215205b6"},"vehicle_type_id":"4","last_reported":1761347359,"current_range_meters":13600,"station_id":"ce4bh092rcd13ifvqd30","pricing_plan_id":"cebpf4jnsgd1na2vs0mg"},{"bike_id":"fb7b5adf-91f4-4a05-ace2-e594ea9c65a7","system_id":"levelo_inurba_marseille","lat":43.28711,"lon":5.37398,"is_reserved":false,"is_disabled":false,"rental_uris":{"android":"levelo://app?vid=fb7b5adf-91f4-4a05-ace2-e594ea9c65a7","ios":"levelo://app?vid=fb7b5adf-91f4-4a05-ace2-e594ea9c65a7"},"vehicle_type_id":"4","last_reported":1761347359,"current_range_meters":13600,"station_id":"ce4bh3p2rcd13ifvqdq0","pricing_plan_id":"cebpf4jnsgd1na2vs0mg"},{"bike_id":"818d4b8e-c1c8-4d80-a20d-edc608358371","system_id":"levelo_inurba_marseille","lat":43.27176,"lon":5.40985,"is_reserved":false,"is_disabled":false,"rental_uris":{"android":"levelo://app?vid=818d4b8e-c1c8-4d80-a20d-edc608358371","ios":"levelo://app?vid=818d4b8e-c1c8-4d80-a20d-edc608358371"},"vehicle_type_id":"4","last_reported":1761347359,"current_range_meters":13600,"station_id":"ce4bhl12rcd13ifvqgf0","pricing_plan_id":"cebpf4jnsgd1na2vs0mg"},{"bike_id":"69599b97-b573-4868-ae16-9bda40c9248f","system_id":"levelo_inurba_marseille","lat":43.21192,"lon":5.35069,"is_reserved":false,"is_disabled":false,"rental_uris":{"android":"levelo://app?vid=69599b97-b573-4868-ae16-9bda40c9248f","ios":"levelo://app?vid=69599b97-b573-4868-ae16-9bda40c9248f"},"vehicle_type_id":"4","last_reported":1761347359,"current_range_meters":14000,"station_id":"st_cvj6sg6p6f1abm77japg","pricing_plan_id":"cebpf4jnsgd1na2vs0mg"},{"bike_id":"db538fcf-3842-41b6-a98e-d8b4a6da20a0","system_id":"levelo_inurba_marseille","lat":43.28039,"lon":5.36945,"is_reserved":false,"is_disabled":false,"rental_uris":{"android":"levelo://app?vid=db538fcf-3842-41b6-a98e-d8b4a6da20a0","ios":"levelo://app?vid=db538fcf-3842-41b6-a98e-d8b4a6da20a0"},"vehicle_type_id":"4","last_reported":1761347359,"current_range_meters":14000,"station_id":"ce4bha12rcd13ifvqef0","pricing_plan_id":"cebpf4jnsgd1na2vs0mg"},{"bike_id":"de667289-c2cc-4568-a8d4-b1bbe911aa3a","system_id":"levelo_inurba_marseille","lat":43.2927,"lon":5.36843,"is_reserved":false,"is_disabled":false,"rental_uris":{"android":"levelo://app?vid=de667289-c2cc-4568-a8d4-b1bbe911aa3a","ios":"levelo://app?vid=de667289-c2cc-4568-a8d4-b1bbe911aa3a"},"vehicle_type_id":"4","last_reported":1761347359,"current_range_meters":14000,"station_id":"ce4bhbp2rcd13ifvqesg","pricing_plan_id":"cebpf4jnsgd1na2vs0mg"},{"bike_id":"05f559a3-5da7-4e74-8bce-f659c1346206","system_id":"levelo_inurba_marseille","lat":43.30198,"lon":5.3944,"is_reserved":false,"is_disabled":false,"rental_uris":{"android":"levelo://app?vid=05f559a3-5da7-4e74-8bce-f659c1346206","ios":"levelo://app?vid=05f559a3-5da7-4e74-8bce-f659c1346206"},"vehicle_type_id":"4","last_reported":1761347359,"current_range_meters":14000,"station_id":"ce4bh0p2rcd13ifvqd70","pricing_plan_id":"cebpf4jnsgd1na2vs0mg"},{"bike_id":"b3a2666e-fc1c-40b5-b985-91453d146c86","system_id":"levelo_inurba_marseille","lat":43.24643,"lon":5.43134,"is_reserved":false,"is_disabled":false,"rental_uris":{"android":"levelo://app?vid=b3a2666e-fc1c-40b5-b985-91453d146c86","ios":"levelo://app?vid=b3a2666e-fc1c-40b5-b985-91453d146c86"},"vehicle_type_id":"4","last_reported":1761347359,"current_range_meters":14000,"station_id":"st_d2m6c4gdas8pm72e190g","pricing_plan_id":"cebpf4jnsgd1na2vs0mg"},{"bike_id":"353c32f0-715d-400e-9949-bcac114e53d9","system_id":"levelo_inurba_marseille","lat":43.23199,"lon":5.35552,"is_reserved":false,"is_disabled":false,"rental_uris":{"android":"levelo://app?vid=353c32f0-715d-400e-9949-bcac114e53d9","ios":"levelo://app?vid=353c32f0-715d-400e-9949-bcac114e53d9"},"vehicle_type_id":"4","last_reported":1761347359,"current_range_meters":14400,"station_id":"ce4bhu92rcd13ifvqi70","pricing_plan_id":"cebpf4jnsgd1na2vs0mg"},{"bike_id":"cc09efaf-6d9a-4e2f-ab52-4a0b03afc821","system_id":"levelo_inurba_marseille","lat":43.25107,"lon":5.40339,"is_reserved":false,"is_disabled":false,"rental_uris":{"android":"levelo://app?vid=cc09efaf-6d9a-4e2f-ab52-4a0b03afc821","ios":"levelo://app?vid=cc09efaf-6d9a-4e2f-ab52-4a0b03afc821"},"vehicle_type_id":"4","last_reported":1761347359,"current_range_meters":14400,"station_id":"ce4bhlh2rcd13ifvqgig","pricing_plan_id":"cebpf4jnsgd1na2vs0mg"},{"bike_id":"b9c8ced1-4ad2-4529-8b78-c6503294316b","system_id":"levelo_inurba_marseille","lat":43.302179,"lon":5.394717,"is_reserved":false,"is_disabled":false,"rental_uris":{"android":"levelo://app?vid=b9c8ced1-4ad2-4529-8b78-c6503294316b","ios":"levelo://app?vid=b9c8ced1-4ad2-4529-8b78-c6503294316b"},"vehicle_type_id":"4","last_reported":1761347359,"current_range_meters":14400,"station_id":"","pricing_plan_id":"cebpf4jnsgd1na2vs0mg"},{"bike_id":"c71d0c63-1743-4e41-9d50-9079e630c201","system_id":"levelo_inurba_marseille","lat":43.26497,"lon":5.39544,"is_reserved":false,"is_disabled":false,"rental_uris":{"android":"levelo://app?vid=c71d0c63-1743-4e41-9d50-9079e630c201","ios":"levelo://app?vid=c71d0c63-1743-4e41-9d50-9079e630c201"},"vehicle_type_id":"4","last_reported":1761347359,"current_range_meters":14400,"station_id":"ce4bhi12rcd13ifvqfq0","pricing_plan_id":"cebpf4jnsgd1na2vs0mg"},{"bike_id":"37582d72-aa02-4a39-876d-5aae4e5ecb88","system_id":"levelo_inurba_marseille","lat":43.264872,"lon":5.395373,"is_reserved":false,"is_disabled":false,"rental_uris":{"android":"levelo://app?vid=37582d72-aa02-4a39-876d-5aae4e5ecb88","ios":"levelo://app?vid=37582d72-aa02-4a39-876d-5aae4e5ecb88"},"vehicle_type_id":"4","last_reported":1761347359,"current_range_meters":14400,"station_id":"ce4bhi12rcd13ifvqfq0","pricing_plan_id":"cebpf4jnsgd1na2vs0mg"},{"bike_id":"6eef6943-f1d3-4151-938c-eef1c559881d","system_id":"levelo_inurba_marseille","lat":43.27423,"lon":5.39416,"is_reserved":false,"is_disabled":false,"rental_uris":{"android":"levelo://app?vid=6eef6943-f1d3-4151-938c-eef1c559881d","ios":"levelo://app?vid=6eef6943-f1d3-4151-938c-eef1c559881d"},"vehicle_type_id":"4","last_reported":1761347359,"current_range_meters":14400,"station_id":"ce4bhdp2rcd13ifvqf20","pricing_plan_id":"cebpf4jnsgd1na2vs0mg"},{"bike_id":"a7f11d08-358d-4175-ae4c-11718eec7509","system_id":"levelo_inurba_marseille","lat":43.244,"lon":5.37054,"is_reserved":false,"is_disabled":false,"rental_uris":{"android":"levelo://app?vid=a7f11d08-358d-4175-ae4c-11718eec7509","ios":"levelo://app?vid=a7f11d08-358d-4175-ae4c-11718eec7509"},"vehicle_type_id":"4","last_reported":1761347359,"current_range_meters":14800,"station_id":"ce4bhhh2rcd13ifvqfk0","pricing_plan_id":"cebpf4jnsgd1na2vs0mg"},{"bike_id":"301d2b25-cc39-40bd-8ab2-f142afcdba70","system_id":"levelo_inurba_marseille","lat":43.28407,"lon":5.37516,"is_reserved":false,"is_disabled":false,"rental_uris":{"android":"levelo://app?vid=301d2b25-cc39-40bd-8ab2-f142afcdba70","ios":"levelo://app?vid=301d2b25-cc39-40bd-8ab2-f142afcdba70"},"vehicle_type_id":"4","last_reported":1761347359,"current_range_meters":14800,"station_id":"ce4bh412rcd13ifvqds0","pricing_plan_id":"cebpf4jnsgd1na2vs0mg"},{"bike_id":"5c0e1fad-1092-45f4-930f-73335d46d836","system_id":"levelo_inurba_marseille","lat":43.29781,"lon":5.38123,"is_reserved":false,"is_disabled":true,"rental_uris":{"android":"levelo://app?vid=5c0e1fad-1092-45f4-930f-73335d46d836","ios":"levelo://app?vid=5c0e1fad-1092-45f4-930f-73335d46d836"},"vehicle_type_id":"4","last_reported":1761347359,"current_range_meters":14800,"station_id":"ce4bgip2rcd13ifvqbb0","pricing_plan_id":"cebpf4jnsgd1na2vs0mg"},{"bike_id":"4b85c1e4-dca2-4165-bced-2e12570a4888","system_id":"levelo_inurba_marseille","lat":43.28712,"lon":5.3739,"is_reserved":false,"is_disabled":false,"rental_uris":{"android":"levelo://app?vid=4b85c1e4-dca2-4165-bced-2e12570a4888","ios":"levelo://app?vid=4b85c1e4-dca2-4165-bced-2e12570a4888"},"vehicle_type_id":"4","last_reported":1761347359,"current_range_meters":14800,"station_id":"ce4bh3p2rcd13ifvqdq0","pricing_plan_id":"cebpf4jnsgd1na2vs0mg"},{"bike_id":"4a2047d2-d10b-4687-aeb9-416f71689c62","system_id":"levelo_inurba_marseille","lat":43.29537,"lon":5.38541,"is_reserved":false,"is_disabled":false,"rental_uris":{"android":"levelo://app?vid=4a2047d2-d10b-4687-aeb9-416f71689c62","ios":"levelo://app?vid=4a2047d2-d10b-4687-aeb9-416f71689c62"},"vehicle_type_id":"4","last_reported":1761347359,"current_range_meters":14800,"station_id":"ce4bgih2rcd13ifvqba0","pricing_plan_id":"cebpf4jnsgd1na2vs0mg"},{"bike_id":"75eebb0f-2447-4bf8-b846-45b5b359059b","system_id":"levelo_inurba_marseille","lat":43.33769,"lon":5.37496,"is_reserved":false,"is_disabled":false,"rental_uris":{"android":"levelo://app?vid=75eebb0f-2447-4bf8-b846-45b5b359059b","ios":"levelo://app?vid=75eebb0f-2447-4bf8-b846-45b5b359059b"},"vehicle_type_id":"4","last_reported":1761347359,"current_range_meters":14800,"station_id":"","pricing_plan_id":"cebpf4jnsgd1na2vs0mg"},{"bike_id":"c0039860-4a72-4b6d-b0a4-83f31b73a40a","system_id":"levelo_inurba_marseille","lat":43.29019,"lon":5.38125,"is_reserved":false,"is_disabled":false,"rental_uris":{"android":"levelo://app?vid=c0039860-4a72-4b6d-b0a4-83f31b73a40a","ios":"levelo://app?vid=c0039860-4a72-4b6d-b0a4-83f31b73a40a"},"vehicle_type_id":"4","last_reported":1761347359,"current_range_meters":14800,"station_id":"ce4bh4p2rcd13ifvqe1g","pricing_plan_id":"cebpf4jnsgd1na2vs0mg"},{"bike_id":"911c4208-6c76-481b-8cfe-045bbf01bcf1","system_id":"levelo_inurba_marseille","lat":43.28352,"lon":5.3811,"is_reserved":false,"is_disabled":false,"rental_uris":{"android":"levelo://app?vid=911c4208-6c76-481b-8cfe-045bbf01bcf1","ios":"levelo://app?vid=911c4208-6c76-481b-8cfe-045bbf01bcf1"},"vehicle_type_id":"4","last_reported":1761347359,"current_range_meters":14800,"station_id":"ce4bh412rcd13ifvqdr0","pricing_plan_id":"cebpf4jnsgd1na2vs0mg"},{"bike_id":"85831b0c-ac03-4a31-ad4b-6acd383c62ca","system_id":"levelo_inurba_marseille","lat":43.27731,"lon":5.38843,"is_reserved":false,"is_disabled":false,"rental_uris":{"android":"levelo://app?vid=85831b0c-ac03-4a31-ad4b-6acd383c62ca","ios":"levelo://app?vid=85831b0c-ac03-4a31-ad4b-6acd383c62ca"},"vehicle_type_id":"4","last_reported":1761347359,"current_range_meters":15200,"station_id":"","pricing_plan_id":"cebpf4jnsgd1na2vs0mg"},{"bike_id":"8be6a47c-9542-4fed-8109-f6d91a0f2b3f","system_id":"levelo_inurba_marseille","lat":43.29174,"lon":5.37161,"is_reserved":false,"is_disabled":false,"rental_uris":{"android":"levelo://app?vid=8be6a47c-9542-4fed-8109-f6d91a0f2b3f","ios":"levelo://app?vid=8be6a47c-9542-4fed-8109-f6d91a0f2b3f"},"vehicle_type_id":"4","last_reported":1761347359,"current_range_meters":15200,"station_id":"ce4bha92rcd13ifvqeh0","pricing_plan_id":"cebpf4jnsgd1na2vs0mg"},{"bike_id":"0bf6a5a8-1027-46d7-a594-e3721bbd0847","system_id":"levelo_inurba_marseille","lat":43.25108,"lon":5.40331,"is_reserved":false,"is_disabled":false,"rental_uris":{"android":"levelo://app?vid=0bf6a5a8-1027-46d7-a594-e3721bbd0847","ios":"levelo://app?vid=0bf6a5a8-1027-46d7-a594-e3721bbd0847"},"vehicle_type_id":"4","last_reported":1761347359,"current_range_meters":15200,"station_id":"ce4bhlh2rcd13ifvqgig","pricing_plan_id":"cebpf4jnsgd1na2vs0mg"},{"bike_id":"9d964ec4-c537-4f1d-b21c-451d3f46b1bf","system_id":"levelo_inurba_marseille","lat":43.29925,"lon":5.37865,"is_reserved":false,"is_disabled":false,"rental_uris":{"android":"levelo://app?vid=9d964ec4-c537-4f1d-b21c-451d3f46b1bf","ios":"levelo://app?vid=9d964ec4-c537-4f1d-b21c-451d3f46b1bf"},"vehicle_type_id":"4","last_reported":1761347359,"current_range_meters":15200,"station_id":"","pricing_plan_id":"cebpf4jnsgd1na2vs0mg"},{"bike_id":"a2b7b42c-99ef-4248-b343-c83b4ee2ce18","system_id":"levelo_inurba_marseille","lat":43.32475,"lon":5.36569,"is_reserved":false,"is_disabled":false,"rental_uris":{"android":"levelo://app?vid=a2b7b42c-99ef-4248-b343-c83b4ee2ce18","ios":"levelo://app?vid=a2b7b42c-99ef-4248-b343-c83b4ee2ce18"},"vehicle_type_id":"4","last_reported":1761347359,"current_range_meters":15200,"station_id":"ce4bhs12rcd13ifvqhvg","pricing_plan_id":"cebpf4jnsgd1na2vs0mg"},{"bike_id":"dd093d24-400e-4e07-b66d-15e013aaf57e","system_id":"levelo_inurba_marseille","lat":43.2837,"lon":5.3862,"is_reserved":false,"is_disabled":false,"rental_uris":{"android":"levelo://app?vid=dd093d24-400e-4e07-b66d-15e013aaf57e","ios":"levelo://app?vid=dd093d24-400e-4e07-b66d-15e013aaf57e"},"vehicle_type_id":"4","last_reported":1761347359,"current_range_meters":15200,"station_id":"ce4bh492rcd13ifvqdvg","pricing_plan_id":"cebpf4jnsgd1na2vs0mg"},{"bike_id":"57e342c2-9365-4cb5-8838-9c0116719fd7","system_id":"levelo_inurba_marseille","lat":43.25823,"lon":5.3943,"is_reserved":false,"is_disabled":false,"rental_uris":{"android":"levelo://app?vid=57e342c2-9365-4cb5-8838-9c0116719fd7","ios":"levelo://app?vid=57e342c2-9365-4cb5-8838-9c0116719fd7"},"vehicle_type_id":"4","last_reported":1761347359,"current_range_meters":16000,"station_id":"ce4bhip2rcd13ifvqft0","pricing_plan_id":"cebpf4jnsgd1na2vs0mg"},{"bike_id":"6861ce85-77a9-4d2e-a905-a525940c7a22","system_id":"levelo_inurba_marseille","lat":43.24668,"lon":5.38165,"is_reserved":false,"is_disabled":false,"rental_uris":{"android":"levelo://app?vid=6861ce85-77a9-4d2e-a905-a525940c7a22","ios":"levelo://app?vid=6861ce85-77a9-4d2e-a905-a525940c7a22"},"vehicle_type_id":"4","last_reported":1761347359,"current_range_meters":16000,"station_id":"ce4bhih2rcd13ifvqfr0","pricing_plan_id":"cebpf4jnsgd1na2vs0mg"},{"bike_id":"72595d14-8f84-4de5-a9ab-f8151c131960","system_id":"levelo_inurba_marseille","lat":43.22941,"lon":5.35376,"is_reserved":false,"is_disabled":false,"rental_uris":{"android":"levelo://app?vid=72595d14-8f84-4de5-a9ab-f8151c131960","ios":"levelo://app?vid=72595d14-8f84-4de5-a9ab-f8151c131960"},"vehicle_type_id":"4","last_reported":1761347359,"current_range_meters":16000,"station_id":"cpo3532slgdg3j2ikp40","pricing_plan_id":"cebpf4jnsgd1na2vs0mg"},{"bike_id":"bae7abd8-21b5-4459-be78-740f057d60ff","system_id":"levelo_inurba_marseille","lat":43.28719,"lon":5.36097,"is_reserved":false,"is_disabled":false,"rental_uris":{"android":"levelo://app?vid=bae7abd8-21b5-4459-be78-740f057d60ff","ios":"levelo://app?vid=bae7abd8-21b5-4459-be78-740f057d60ff"},"vehicle_type_id":"4","last_reported":1761347359,"current_range_meters":16000,"station_id":"cki0cbj6b192h4jlfktg","pricing_plan_id":"cebpf4jnsgd1na2vs0mg"},{"bike_id":"50efd437-bab1-4b68-a6a9-8b871fbca9d7","system_id":"levelo_inurba_marseille","lat":43.26237,"lon":5.40451,"is_reserved":false,"is_disabled":false,"rental_uris":{"android":"levelo://app?vid=50efd437-bab1-4b68-a6a9-8b871fbca9d7","ios":"levelo://app?vid=50efd437-bab1-4b68-a6a9-8b871fbca9d7"},"vehicle_type_id":"4","last_reported":1761347359,"current_range_meters":16000,"station_id":"ce4bhmh2rcd13ifvqgmg","pricing_plan_id":"cebpf4jnsgd1na2vs0mg"},{"bike_id":"fef40594-8de0-44aa-a3c1-2116955da244","system_id":"levelo_inurba_marseille","lat":43.26189,"lon":5.41707,"is_reserved":false,"is_disabled":false,"rental_uris":{"android":"levelo://app?vid=fef40594-8de0-44aa-a3c1-2116955da244","ios":"levelo://app?vid=fef40594-8de0-44aa-a3c1-2116955da244"},"vehicle_type_id":"4","last_reported":1761347359,"current_range_meters":16000,"station_id":"","pricing_plan_id":"cebpf4jnsgd1na2vs0mg"},{"bike_id":"458107a7-53d2-4726-8b93-21f76aa76884","system_id":"levelo_inurba_marseille","lat":43.27807,"lon":5.39575,"is_reserved":false,"is_disabled":false,"rental_uris":{"android":"levelo://app?vid=458107a7-53d2-4726-8b93-21f76aa76884","ios":"levelo://app?vid=458107a7-53d2-4726-8b93-21f76aa76884"},"vehicle_type_id":"4","last_reported":1761347359,"current_range_meters":16000,"station_id":"","pricing_plan_id":"cebpf4jnsgd1na2vs0mg"},{"bike_id":"8bb9b9b2-ef61-4380-9454-94dba01fa5e4","system_id":"levelo_inurba_marseille","lat":43.30133,"lon":5.38802,"is_reserved":false,"is_disabled":true,"rental_uris":{"android":"levelo://app?vid=8bb9b9b2-ef61-4380-9454-94dba01fa5e4","ios":"levelo://app?vid=8bb9b9b2-ef61-4380-9454-94dba01fa5e4"},"vehicle_type_id":"4","last_reported":1761347359,"current_range_meters":16400,"station_id":"ce4bghh2rcd13ifvqb60","pricing_plan_id":"cebpf4jnsgd1na2vs0mg"},{"bike_id":"c91491a6-50b3-4a5f-8e6b-63afb7874f1f","system_id":"levelo_inurba_marseille","lat":43.28033,"lon":5.36937,"is_reserved":false,"is_disabled":false,"rental_uris":{"android":"levelo://app?vid=c91491a6-50b3-4a5f-8e6b-63afb7874f1f","ios":"levelo://app?vid=c91491a6-50b3-4a5f-8e6b-63afb7874f1f"},"vehicle_type_id":"4","last_reported":1761347359,"current_range_meters":16400,"station_id":"ce4bha12rcd13ifvqef0","pricing_plan_id":"cebpf4jnsgd1na2vs0mg"},{"bike_id":"aab4034a-0d23-4cb3-95b2-dd300fd58a15","system_id":"levelo_inurba_marseille","lat":43.28718,"lon":5.37951,"is_reserved":false,"is_disabled":false,"rental_uris":{"android":"levelo://app?vid=aab4034a-0d23-4cb3-95b2-dd300fd58a15","ios":"levelo://app?vid=aab4034a-0d23-4cb3-95b2-dd300fd58a15"},"vehicle_type_id":"4","last_reported":1761347359,"current_range_meters":16400,"station_id":"ce4bh9p2rcd13ifvqec0","pricing_plan_id":"cebpf4jnsgd1na2vs0mg"},{"bike_id":"9a8863dc-9661-4b1b-a54c-df3ea878c924","system_id":"levelo_inurba_marseille","lat":43.29792,"lon":5.378968,"is_reserved":false,"is_disabled":false,"rental_uris":{"android":"levelo://app?vid=9a8863dc-9661-4b1b-a54c-df3ea878c924","ios":"levelo://app?vid=9a8863dc-9661-4b1b-a54c-df3ea878c924"},"vehicle_type_id":"4","last_reported":1761347359,"current_range_meters":16400,"station_id":"","pricing_plan_id":"cebpf4jnsgd1na2vs0mg"},{"bike_id":"cbb53ea8-ecc6-4601-9225-bfb82ba8b303","system_id":"levelo_inurba_marseille","lat":43.29549,"lon":5.38554,"is_reserved":false,"is_disabled":false,"rental_uris":{"android":"levelo://app?vid=cbb53ea8-ecc6-4601-9225-bfb82ba8b303","ios":"levelo://app?vid=cbb53ea8-ecc6-4601-9225-bfb82ba8b303"},"vehicle_type_id":"4","last_reported":1761347359,"current_range_meters":16400,"station_id":"ce4bgih2rcd13ifvqba0","pricing_plan_id":"cebpf4jnsgd1na2vs0mg"},{"bike_id":"81b94419-83df-4ae7-90f3-9dcb9f3cf82e","system_id":"levelo_inurba_marseille","lat":43.28849,"lon":5.35865,"is_reserved":false,"is_disabled":false,"rental_uris":{"android":"levelo://app?vid=81b94419-83df-4ae7-90f3-9dcb9f3cf82e","ios":"levelo://app?vid=81b94419-83df-4ae7-90f3-9dcb9f3cf82e"},"vehicle_type_id":"4","last_reported":1761347359,"current_range_meters":16400,"station_id":"ce4bhb12rcd13ifvqem0","pricing_plan_id":"cebpf4jnsgd1na2vs0mg"},{"bike_id":"b6559af0-e31e-415b-92a3-0988f7fc43ef","system_id":"levelo_inurba_marseille","lat":43.284141,"lon":5.375172,"is_reserved":false,"is_disabled":true,"rental_uris":{"android":"levelo://app?vid=b6559af0-e31e-415b-92a3-0988f7fc43ef","ios":"levelo://app?vid=b6559af0-e31e-415b-92a3-0988f7fc43ef"},"vehicle_type_id":"4","last_reported":1761347359,"current_range_meters":16400,"station_id":"","pricing_plan_id":"cebpf4jnsgd1na2vs0mg"},{"bike_id":"cd510e37-9078-40a8-91e5-9a2c8d62ac8a","system_id":"levelo_inurba_marseille","lat":43.29013,"lon":5.38632,"is_reserved":false,"is_disabled":true,"rental_uris":{"android":"levelo://app?vid=cd510e37-9078-40a8-91e5-9a2c8d62ac8a","ios":"levelo://app?vid=cd510e37-9078-40a8-91e5-9a2c8d62ac8a"},"vehicle_type_id":"4","last_reported":1761347359,"current_range_meters":16400,"station_id":"ce4bh4p2rcd13ifvqe0g","pricing_plan_id":"cebpf4jnsgd1na2vs0mg"},{"bike_id":"7e2c3a19-2127-4466-94e9-9228ea14e465","system_id":"levelo_inurba_marseille","lat":43.26499,"lon":5.39543,"is_reserved":false,"is_disabled":false,"rental_uris":{"android":"levelo://app?vid=7e2c3a19-2127-4466-94e9-9228ea14e465","ios":"levelo://app?vid=7e2c3a19-2127-4466-94e9-9228ea14e465"},"vehicle_type_id":"4","last_reported":1761347359,"current_range_meters":16400,"station_id":"ce4bhi12rcd13ifvqfq0","pricing_plan_id":"cebpf4jnsgd1na2vs0mg"},{"bike_id":"386a9c87-6707-4c56-9410-3952ef242f20","system_id":"levelo_inurba_marseille","lat":43.24077,"lon":5.37756,"is_reserved":false,"is_disabled":false,"rental_uris":{"android":"levelo://app?vid=386a9c87-6707-4c56-9410-3952ef242f20","ios":"levelo://app?vid=386a9c87-6707-4c56-9410-3952ef242f20"},"vehicle_type_id":"4","last_reported":1761347359,"current_range_meters":16800,"station_id":"ce4bhnp2rcd13ifvqgvg","pricing_plan_id":"cebpf4jnsgd1na2vs0mg"},{"bike_id":"4b9ea996-45d6-4c99-b9ff-af19c6118599","system_id":"levelo_inurba_marseille","lat":43.30528,"lon":5.36467,"is_reserved":false,"is_disabled":true,"rental_uris":{"android":"levelo://app?vid=4b9ea996-45d6-4c99-b9ff-af19c6118599","ios":"levelo://app?vid=4b9ea996-45d6-4c99-b9ff-af19c6118599"},"vehicle_type_id":"4","last_reported":1761347359,"current_range_meters":16800,"station_id":"","pricing_plan_id":"cebpf4jnsgd1na2vs0mg"},{"bike_id":"2b6b383d-bca3-4faa-a011-49d77fe50e80","system_id":"levelo_inurba_marseille","lat":43.28694,"lon":5.39986,"is_reserved":false,"is_disabled":false,"rental_uris":{"android":"levelo://app?vid=2b6b383d-bca3-4faa-a011-49d77fe50e80","ios":"levelo://app?vid=2b6b383d-bca3-4faa-a011-49d77fe50e80"},"vehicle_type_id":"4","last_reported":1761347359,"current_range_meters":16800,"station_id":"ce4bho92rcd13ifvqh3g","pricing_plan_id":"cebpf4jnsgd1na2vs0mg"},{"bike_id":"d4f34596-cd96-4004-af96-068144e0795b","system_id":"levelo_inurba_marseille","lat":43.306851,"lon":5.422344,"is_reserved":false,"is_disabled":false,"rental_uris":{"android":"levelo://app?vid=d4f34596-cd96-4004-af96-068144e0795b","ios":"levelo://app?vid=d4f34596-cd96-4004-af96-068144e0795b"},"vehicle_type_id":"4","last_reported":1761347359,"current_range_meters":16800,"station_id":"","pricing_plan_id":"cebpf4jnsgd1na2vs0mg"},{"bike_id":"8e92164c-deff-4fbd-9f4e-43ff81933572","system_id":"levelo_inurba_marseille","lat":43.29836,"lon":5.42013,"is_reserved":false,"is_disabled":false,"rental_uris":{"android":"levelo://app?vid=8e92164c-deff-4fbd-9f4e-43ff81933572","ios":"levelo://app?vid=8e92164c-deff-4fbd-9f4e-43ff81933572"},"vehicle_type_id":"4","last_reported":1761347359,"current_range_meters":16800,"station_id":"","pricing_plan_id":"cebpf4jnsgd1na2vs0mg"},{"bike_id":"86ccf30d-b0d9-4b12-9a3f-af50a6dfc731","system_id":"levelo_inurba_marseille","lat":43.31578,"lon":5.38831,"is_reserved":false,"is_disabled":false,"rental_uris":{"android":"levelo://app?vid=86ccf30d-b0d9-4b12-9a3f-af50a6dfc731","ios":"levelo://app?vid=86ccf30d-b0d9-4b12-9a3f-af50a6dfc731"},"vehicle_type_id":"4","last_reported":1761347359,"current_range_meters":16800,"station_id":"","pricing_plan_id":"cebpf4jnsgd1na2vs0mg"},{"bike_id":"939d2a7d-787e-4d9f-9435-6c2fa9dc0c8e","system_id":"levelo_inurba_marseille","lat":43.29541,"lon":5.39053,"is_reserved":false,"is_disabled":true,"rental_uris":{"android":"levelo://app?vid=939d2a7d-787e-4d9f-9435-6c2fa9dc0c8e","ios":"levelo://app?vid=939d2a7d-787e-4d9f-9435-6c2fa9dc0c8e"},"vehicle_type_id":"4","last_reported":1761347359,"current_range_meters":17200,"station_id":"ce4bh3p2rcd13ifvqdp0","pricing_plan_id":"cebpf4jnsgd1na2vs0mg"},{"bike_id":"2c93ef70-ebd0-439a-a269-4fa1a8ffd7de","system_id":"levelo_inurba_marseille","lat":43.28972,"lon":5.37837,"is_reserved":false,"is_disabled":false,"rental_uris":{"android":"levelo://app?vid=2c93ef70-ebd0-439a-a269-4fa1a8ffd7de","ios":"levelo://app?vid=2c93ef70-ebd0-439a-a269-4fa1a8ffd7de"},"vehicle_type_id":"4","last_reported":1761347359,"current_range_meters":17200,"station_id":"ce4bh9p2rcd13ifvqed0","pricing_plan_id":"cebpf4jnsgd1na2vs0mg"},{"bike_id":"43117888-69d1-4bc6-a73a-697554e4a08e","system_id":"levelo_inurba_marseille","lat":43.25263,"lon":5.37808,"is_reserved":false,"is_disabled":false,"rental_uris":{"android":"levelo://app?vid=43117888-69d1-4bc6-a73a-697554e4a08e","ios":"levelo://app?vid=43117888-69d1-4bc6-a73a-697554e4a08e"},"vehicle_type_id":"4","last_reported":1761347359,"current_range_meters":17200,"station_id":"","pricing_plan_id":"cebpf4jnsgd1na2vs0mg"},{"bike_id":"bfaea6f8-ccc6-44a7-83a6-9d7d9a7e60cc","system_id":"levelo_inurba_marseille","lat":43.26384,"lon":5.39774,"is_reserved":false,"is_disabled":false,"rental_uris":{"android":"levelo://app?vid=bfaea6f8-ccc6-44a7-83a6-9d7d9a7e60cc","ios":"levelo://app?vid=bfaea6f8-ccc6-44a7-83a6-9d7d9a7e60cc"},"vehicle_type_id":"4","last_reported":1761347359,"current_range_meters":17200,"station_id":"","pricing_plan_id":"cebpf4jnsgd1na2vs0mg"},{"bike_id":"c6bf17a2-1cba-4131-b0bf-7246c45f1814","system_id":"levelo_inurba_marseille","lat":43.295289,"lon":5.385413,"is_reserved":false,"is_disabled":false,"rental_uris":{"android":"levelo://app?vid=c6bf17a2-1cba-4131-b0bf-7246c45f1814","ios":"levelo://app?vid=c6bf17a2-1cba-4131-b0bf-7246c45f1814"},"vehicle_type_id":"4","last_reported":1761347359,"current_range_meters":17200,"station_id":"ce4bgih2rcd13ifvqba0","pricing_plan_id":"cebpf4jnsgd1na2vs0mg"},{"bike_id":"5e51b837-4cd9-49b3-b363-642e818f61a9","system_id":"levelo_inurba_marseille","lat":43.29973,"lon":5.38504,"is_reserved":false,"is_disabled":true,"rental_uris":{"android":"levelo://app?vid=5e51b837-4cd9-49b3-b363-642e818f61a9","ios":"levelo://app?vid=5e51b837-4cd9-49b3-b363-642e818f61a9"},"vehicle_type_id":"4","last_reported":1761347359,"current_range_meters":17200,"station_id":"ce4bgj92rcd13ifvqbd0","pricing_plan_id":"cebpf4jnsgd1na2vs0mg"},{"bike_id":"bbc036a8-1afd-4079-a10f-2c8b4df91781","system_id":"levelo_inurba_marseille","lat":43.286177,"lon":5.351031,"is_reserved":false,"is_disabled":false,"rental_uris":{"android":"levelo://app?vid=bbc036a8-1afd-4079-a10f-2c8b4df91781","ios":"levelo://app?vid=bbc036a8-1afd-4079-a10f-2c8b4df91781"},"vehicle_type_id":"4","last_reported":1761347359,"current_range_meters":17200,"station_id":"ce4bhch2rcd13ifvqeug","pricing_plan_id":"cebpf4jnsgd1na2vs0mg"},{"bike_id":"effc4a6a-9a91-4958-ad6b-7be55c02b098","system_id":"levelo_inurba_marseille","lat":43.278,"lon":5.37655,"is_reserved":false,"is_disabled":false,"rental_uris":{"android":"levelo://app?vid=effc4a6a-9a91-4958-ad6b-7be55c02b098","ios":"levelo://app?vid=effc4a6a-9a91-4958-ad6b-7be55c02b098"},"vehicle_type_id":"4","last_reported":1761347359,"current_range_meters":17200,"station_id":"","pricing_plan_id":"cebpf4jnsgd1na2vs0mg"},{"bike_id":"4a6de441-8f9b-4688-b114-a3e786dd1355","system_id":"levelo_inurba_marseille","lat":43.30217,"lon":5.38805,"is_reserved":false,"is_disabled":false,"rental_uris":{"android":"levelo://app?vid=4a6de441-8f9b-4688-b114-a3e786dd1355","ios":"levelo://app?vid=4a6de441-8f9b-4688-b114-a3e786dd1355"},"vehicle_type_id":"4","last_reported":1761347359,"current_range_meters":17200,"station_id":"","pricing_plan_id":"cebpf4jnsgd1na2vs0mg"},{"bike_id":"865ad4a2-11e8-481e-bcab-fdc1248184cd","system_id":"levelo_inurba_marseille","lat":43.309293,"lon":5.401354,"is_reserved":false,"is_disabled":false,"rental_uris":{"android":"levelo://app?vid=865ad4a2-11e8-481e-bcab-fdc1248184cd","ios":"levelo://app?vid=865ad4a2-11e8-481e-bcab-fdc1248184cd"},"vehicle_type_id":"4","last_reported":1761347359,"current_range_meters":17600,"station_id":"ce4bgvp2rcd13ifvqct0","pricing_plan_id":"cebpf4jnsgd1na2vs0mg"},{"bike_id":"03a694af-c9e5-475f-a774-72c36e1e8160","system_id":"levelo_inurba_marseille","lat":43.28695,"lon":5.39993,"is_reserved":false,"is_disabled":false,"rental_uris":{"android":"levelo://app?vid=03a694af-c9e5-475f-a774-72c36e1e8160","ios":"levelo://app?vid=03a694af-c9e5-475f-a774-72c36e1e8160"},"vehicle_type_id":"4","last_reported":1761347359,"current_range_meters":17600,"station_id":"ce4bho92rcd13ifvqh3g","pricing_plan_id":"cebpf4jnsgd1na2vs0mg"},{"bike_id":"859e7d53-5215-4d8b-8212-359a3e45c75e","system_id":"levelo_inurba_marseille","lat":43.30305,"lon":5.39223,"is_reserved":false,"is_disabled":false,"rental_uris":{"android":"levelo://app?vid=859e7d53-5215-4d8b-8212-359a3e45c75e","ios":"levelo://app?vid=859e7d53-5215-4d8b-8212-359a3e45c75e"},"vehicle_type_id":"4","last_reported":1761347359,"current_range_meters":17600,"station_id":"ce4bgkh2rcd13ifvqbk0","pricing_plan_id":"cebpf4jnsgd1na2vs0mg"},{"bike_id":"de4560c0-6f43-49b3-9b02-2b7ef171787b","system_id":"levelo_inurba_marseille","lat":43.27836,"lon":5.39206,"is_reserved":false,"is_disabled":false,"rental_uris":{"android":"levelo://app?vid=de4560c0-6f43-49b3-9b02-2b7ef171787b","ios":"levelo://app?vid=de4560c0-6f43-49b3-9b02-2b7ef171787b"},"vehicle_type_id":"4","last_reported":1761347359,"current_range_meters":17600,"station_id":"ce4bhjp2rcd13ifvqga0","pricing_plan_id":"cebpf4jnsgd1na2vs0mg"},{"bike_id":"fbe50a91-8778-42f9-a045-27c2c88ac2e7","system_id":"levelo_inurba_marseille","lat":43.29757,"lon":5.42779,"is_reserved":false,"is_disabled":false,"rental_uris":{"android":"levelo://app?vid=fbe50a91-8778-42f9-a045-27c2c88ac2e7","ios":"levelo://app?vid=fbe50a91-8778-42f9-a045-27c2c88ac2e7"},"vehicle_type_id":"4","last_reported":1761347359,"current_range_meters":17600,"station_id":"st_d3md5207bmas73dh9klg","pricing_plan_id":"cebpf4jnsgd1na2vs0mg"},{"bike_id":"0a11bdb7-ef17-4efe-b0b8-1d35b1ec0996","system_id":"levelo_inurba_marseille","lat":43.30637,"lon":5.40077,"is_reserved":false,"is_disabled":false,"rental_uris":{"android":"levelo://app?vid=0a11bdb7-ef17-4efe-b0b8-1d35b1ec0996","ios":"levelo://app?vid=0a11bdb7-ef17-4efe-b0b8-1d35b1ec0996"},"vehicle_type_id":"4","last_reported":1761347359,"current_range_meters":17600,"station_id":"ce4bh112rcd13ifvqda0","pricing_plan_id":"cebpf4jnsgd1na2vs0mg"},{"bike_id":"3cfa595b-cff3-48e4-9ef0-78ef1b9568f9","system_id":"levelo_inurba_marseille","lat":43.29024,"lon":5.38138,"is_reserved":false,"is_disabled":true,"rental_uris":{"android":"levelo://app?vid=3cfa595b-cff3-48e4-9ef0-78ef1b9568f9","ios":"levelo://app?vid=3cfa595b-cff3-48e4-9ef0-78ef1b9568f9"},"vehicle_type_id":"4","last_reported":1761347359,"current_range_meters":17600,"station_id":"ce4bh4p2rcd13ifvqe1g","pricing_plan_id":"cebpf4jnsgd1na2vs0mg"},{"bike_id":"d03f3636-16e3-4275-8b6e-75e5a75cfef1","system_id":"levelo_inurba_marseille","lat":43.26553,"lon":5.373,"is_reserved":false,"is_disabled":false,"rental_uris":{"android":"levelo://app?vid=d03f3636-16e3-4275-8b6e-75e5a75cfef1","ios":"levelo://app?vid=d03f3636-16e3-4275-8b6e-75e5a75cfef1"},"vehicle_type_id":"4","last_reported":1761347359,"current_range_meters":17600,"station_id":"ce4bhg12rcd13ifvqf70","pricing_plan_id":"cebpf4jnsgd1na2vs0mg"},{"bike_id":"c1f2d734-0300-4882-8e38-4a554b73176f","system_id":"levelo_inurba_marseille","lat":43.31166,"lon":5.38724,"is_reserved":false,"is_disabled":false,"rental_uris":{"android":"levelo://app?vid=c1f2d734-0300-4882-8e38-4a554b73176f","ios":"levelo://app?vid=c1f2d734-0300-4882-8e38-4a554b73176f"},"vehicle_type_id":"4","last_reported":1761347359,"current_range_meters":17600,"station_id":"ce4bgv12rcd13ifvqcp0","pricing_plan_id":"cebpf4jnsgd1na2vs0mg"},{"bike_id":"bd999717-e3a2-40c3-a4f6-326c409ac458","system_id":"levelo_inurba_marseille","lat":43.28709,"lon":5.39993,"is_reserved":false,"is_disabled":false,"rental_uris":{"android":"levelo://app?vid=bd999717-e3a2-40c3-a4f6-326c409ac458","ios":"levelo://app?vid=bd999717-e3a2-40c3-a4f6-326c409ac458"},"vehicle_type_id":"4","last_reported":1761347359,"current_range_meters":17600,"station_id":"ce4bho92rcd13ifvqh3g","pricing_plan_id":"cebpf4jnsgd1na2vs0mg"},{"bike_id":"fbc51a66-9f5b-4793-bf47-376ff7c8c289","system_id":"levelo_inurba_marseille","lat":43.21185,"lon":5.35067,"is_reserved":false,"is_disabled":false,"rental_uris":{"android":"levelo://app?vid=fbc51a66-9f5b-4793-bf47-376ff7c8c289","ios":"levelo://app?vid=fbc51a66-9f5b-4793-bf47-376ff7c8c289"},"vehicle_type_id":"4","last_reported":1761347359,"current_range_meters":17600,"station_id":"st_cvj6sg6p6f1abm77japg","pricing_plan_id":"cebpf4jnsgd1na2vs0mg"},{"bike_id":"8c35a7e4-8378-4fdf-b42f-02e88b6199ca","system_id":"levelo_inurba_marseille","lat":43.32113,"lon":5.36771,"is_reserved":false,"is_disabled":false,"rental_uris":{"android":"levelo://app?vid=8c35a7e4-8378-4fdf-b42f-02e88b6199ca","ios":"levelo://app?vid=8c35a7e4-8378-4fdf-b42f-02e88b6199ca"},"vehicle_type_id":"4","last_reported":1761347359,"current_range_meters":17600,"station_id":"ce4bhrh2rcd13ifvqhug","pricing_plan_id":"cebpf4jnsgd1na2vs0mg"},{"bike_id":"1d5c5072-8e34-45fe-bb03-36f2abeddfda","system_id":"levelo_inurba_marseille","lat":43.31077,"lon":5.38356,"is_reserved":false,"is_disabled":false,"rental_uris":{"android":"levelo://app?vid=1d5c5072-8e34-45fe-bb03-36f2abeddfda","ios":"levelo://app?vid=1d5c5072-8e34-45fe-bb03-36f2abeddfda"},"vehicle_type_id":"4","last_reported":1761347359,"current_range_meters":17600,"station_id":"ce4bgv92rcd13ifvqcr0","pricing_plan_id":"cebpf4jnsgd1na2vs0mg"},{"bike_id":"7d241f67-998d-4bea-bf2e-da3fc48c2d55","system_id":"levelo_inurba_marseille","lat":43.30881,"lon":5.39643,"is_reserved":false,"is_disabled":false,"rental_uris":{"android":"levelo://app?vid=7d241f67-998d-4bea-bf2e-da3fc48c2d55","ios":"levelo://app?vid=7d241f67-998d-4bea-bf2e-da3fc48c2d55"},"vehicle_type_id":"4","last_reported":1761347359,"current_range_meters":17600,"station_id":"ce4bh012rcd13ifvqcv0","pricing_plan_id":"cebpf4jnsgd1na2vs0mg"},{"bike_id":"dab36927-4328-48fa-bffb-145a737de07e","system_id":"levelo_inurba_marseille","lat":43.308,"lon":5.43521,"is_reserved":false,"is_disabled":true,"rental_uris":{"android":"levelo://app?vid=dab36927-4328-48fa-bffb-145a737de07e","ios":"levelo://app?vid=dab36927-4328-48fa-bffb-145a737de07e"},"vehicle_type_id":"4","last_reported":1761347359,"current_range_meters":18000,"station_id":"ce4bhph2rcd13ifvqheg","pricing_plan_id":"cebpf4jnsgd1na2vs0mg"},{"bike_id":"36ef565d-595c-4fe5-832e-9069968fcd08","system_id":"levelo_inurba_marseille","lat":43.32538,"lon":5.41441,"is_reserved":false,"is_disabled":true,"rental_uris":{"android":"levelo://app?vid=36ef565d-595c-4fe5-832e-9069968fcd08","ios":"levelo://app?vid=36ef565d-595c-4fe5-832e-9069968fcd08"},"vehicle_type_id":"4","last_reported":1761347359,"current_range_meters":18000,"station_id":"ce4bhq12rcd13ifvqhhg","pricing_plan_id":"cebpf4jnsgd1na2vs0mg"},{"bike_id":"71787e4e-d3cf-499c-936d-7a403f4f2fac","system_id":"levelo_inurba_marseille","lat":43.28401,"lon":5.37508,"is_reserved":false,"is_disabled":false,"rental_uris":{"android":"levelo://app?vid=71787e4e-d3cf-499c-936d-7a403f4f2fac","ios":"levelo://app?vid=71787e4e-d3cf-499c-936d-7a403f4f2fac"},"vehicle_type_id":"4","last_reported":1761347359,"current_range_meters":18000,"station_id":"ce4bh412rcd13ifvqds0","pricing_plan_id":"cebpf4jnsgd1na2vs0mg"},{"bike_id":"c293cc0e-0d60-4918-b1f9-ab60d0fcafde","system_id":"levelo_inurba_marseille","lat":43.28343,"lon":5.38113,"is_reserved":false,"is_disabled":true,"rental_uris":{"android":"levelo://app?vid=c293cc0e-0d60-4918-b1f9-ab60d0fcafde","ios":"levelo://app?vid=c293cc0e-0d60-4918-b1f9-ab60d0fcafde"},"vehicle_type_id":"4","last_reported":1761347359,"current_range_meters":18000,"station_id":"ce4bh412rcd13ifvqdr0","pricing_plan_id":"cebpf4jnsgd1na2vs0mg"},{"bike_id":"b7e0da08-0003-4a76-a27b-f9733471363d","system_id":"levelo_inurba_marseille","lat":43.30145,"lon":5.37389,"is_reserved":false,"is_disabled":false,"rental_uris":{"android":"levelo://app?vid=b7e0da08-0003-4a76-a27b-f9733471363d","ios":"levelo://app?vid=b7e0da08-0003-4a76-a27b-f9733471363d"},"vehicle_type_id":"4","last_reported":1761347359,"current_range_meters":18000,"station_id":"ce4bgs92rcd13ifvqcc0","pricing_plan_id":"cebpf4jnsgd1na2vs0mg"},{"bike_id":"edd2c541-eaf2-4a50-a0de-142f364b01dc","system_id":"levelo_inurba_marseille","lat":43.31265,"lon":5.37756,"is_reserved":false,"is_disabled":false,"rental_uris":{"android":"levelo://app?vid=edd2c541-eaf2-4a50-a0de-142f364b01dc","ios":"levelo://app?vid=edd2c541-eaf2-4a50-a0de-142f364b01dc"},"vehicle_type_id":"4","last_reported":1761347359,"current_range_meters":18800,"station_id":"","pricing_plan_id":"cebpf4jnsgd1na2vs0mg"},{"bike_id":"2d5419ca-8955-4cc2-bf16-13223323293b","system_id":"levelo_inurba_marseille","lat":43.26217,"lon":5.37448,"is_reserved":false,"is_disabled":true,"rental_uris":{"android":"levelo://app?vid=2d5419ca-8955-4cc2-bf16-13223323293b","ios":"levelo://app?vid=2d5419ca-8955-4cc2-bf16-13223323293b"},"vehicle_type_id":"4","last_reported":1761347359,"current_range_meters":18800,"station_id":"ce4bhgp2rcd13ifvqfc0","pricing_plan_id":"cebpf4jnsgd1na2vs0mg"},{"bike_id":"bc805b80-3097-410f-b503-9e60f016e0de","system_id":"levelo_inurba_marseille","lat":43.27213,"lon":5.39191,"is_reserved":false,"is_disabled":true,"rental_uris":{"android":"levelo://app?vid=bc805b80-3097-410f-b503-9e60f016e0de","ios":"levelo://app?vid=bc805b80-3097-410f-b503-9e60f016e0de"},"vehicle_type_id":"4","last_reported":1761347359,"current_range_meters":18800,"station_id":"ce4bhhp2rcd13ifvqfm0","pricing_plan_id":"cebpf4jnsgd1na2vs0mg"},{"bike_id":"eea83aba-5f2f-40d4-9307-fa632a8482f7","system_id":"levelo_inurba_marseille","lat":43.27518,"lon":5.42447,"is_reserved":false,"is_disabled":false,"rental_uris":{"android":"levelo://app?vid=eea83aba-5f2f-40d4-9307-fa632a8482f7","ios":"levelo://app?vid=eea83aba-5f2f-40d4-9307-fa632a8482f7"},"vehicle_type_id":"4","last_reported":1761347359,"current_range_meters":18800,"station_id":"ce4bhn92rcd13ifvqgrg","pricing_plan_id":"cebpf4jnsgd1na2vs0mg"},{"bike_id":"8c4ade53-28b6-421a-8b0a-4b851571fed4","system_id":"levelo_inurba_marseille","lat":43.25349,"lon":5.42165,"is_reserved":false,"is_disabled":false,"rental_uris":{"android":"levelo://app?vid=8c4ade53-28b6-421a-8b0a-4b851571fed4","ios":"levelo://app?vid=8c4ade53-28b6-421a-8b0a-4b851571fed4"},"vehicle_type_id":"4","last_reported":1761347359,"current_range_meters":18800,"station_id":"st_d2m65c5bi1j21697t3ng","pricing_plan_id":"cebpf4jnsgd1na2vs0mg"},{"bike_id":"da1b358e-8ece-40a3-90a6-bfffbb49811a","system_id":"levelo_inurba_marseille","lat":43.29283,"lon":5.4012,"is_reserved":false,"is_disabled":false,"rental_uris":{"android":"levelo://app?vid=da1b358e-8ece-40a3-90a6-bfffbb49811a","ios":"levelo://app?vid=da1b358e-8ece-40a3-90a6-bfffbb49811a"},"vehicle_type_id":"4","last_reported":1761347359,"current_range_meters":19200,"station_id":"ce4bh312rcd13ifvqdk0","pricing_plan_id":"cebpf4jnsgd1na2vs0mg"},{"bike_id":"9fbad914-2013-4a9b-a401-5dee56191cdb","system_id":"levelo_inurba_marseille","lat":43.25112,"lon":5.40323,"is_reserved":false,"is_disabled":false,"rental_uris":{"android":"levelo://app?vid=9fbad914-2013-4a9b-a401-5dee56191cdb","ios":"levelo://app?vid=9fbad914-2013-4a9b-a401-5dee56191cdb"},"vehicle_type_id":"4","last_reported":1761347359,"current_range_meters":19200,"station_id":"ce4bhlh2rcd13ifvqgig","pricing_plan_id":"cebpf4jnsgd1na2vs0mg"},{"bike_id":"51f6b392-8d0d-41b5-9bf6-76a949608beb","system_id":"levelo_inurba_marseille","lat":43.253468,"lon":5.421671,"is_reserved":false,"is_disabled":false,"rental_uris":{"android":"levelo://app?vid=51f6b392-8d0d-41b5-9bf6-76a949608beb","ios":"levelo://app?vid=51f6b392-8d0d-41b5-9bf6-76a949608beb"},"vehicle_type_id":"4","last_reported":1761347359,"current_range_meters":19200,"station_id":"st_d2m65c5bi1j21697t3ng","pricing_plan_id":"cebpf4jnsgd1na2vs0mg"},{"bike_id":"9ab0b80a-34a3-4f23-afd7-89cb19c8e0af","system_id":"levelo_inurba_marseille","lat":43.29536,"lon":5.38536,"is_reserved":false,"is_disabled":false,"rental_uris":{"android":"levelo://app?vid=9ab0b80a-34a3-4f23-afd7-89cb19c8e0af","ios":"levelo://app?vid=9ab0b80a-34a3-4f23-afd7-89cb19c8e0af"},"vehicle_type_id":"4","last_reported":1761347359,"current_range_meters":19200,"station_id":"ce4bgih2rcd13ifvqba0","pricing_plan_id":"cebpf4jnsgd1na2vs0mg"},{"bike_id":"db19020b-f4c5-4a0b-8bd4-423971868d20","system_id":"levelo_inurba_marseille","lat":43.28683,"lon":5.39998,"is_reserved":false,"is_disabled":false,"rental_uris":{"android":"levelo://app?vid=db19020b-f4c5-4a0b-8bd4-423971868d20","ios":"levelo://app?vid=db19020b-f4c5-4a0b-8bd4-423971868d20"},"vehicle_type_id":"4","last_reported":1761347359,"current_range_meters":19200,"station_id":"ce4bho92rcd13ifvqh3g","pricing_plan_id":"cebpf4jnsgd1na2vs0mg"},{"bike_id":"1c67937c-475a-4e4e-a691-b63d91404557","system_id":"levelo_inurba_marseille","lat":43.28717,"lon":5.39995,"is_reserved":false,"is_disabled":false,"rental_uris":{"android":"levelo://app?vid=1c67937c-475a-4e4e-a691-b63d91404557","ios":"levelo://app?vid=1c67937c-475a-4e4e-a691-b63d91404557"},"vehicle_type_id":"4","last_reported":1761347359,"current_range_meters":19200,"station_id":"ce4bho92rcd13ifvqh3g","pricing_plan_id":"cebpf4jnsgd1na2vs0mg"},{"bike_id":"6cf2b315-d1ee-4e24-a665-250fae4ab05f","system_id":"levelo_inurba_marseille","lat":43.31327,"lon":5.3751,"is_reserved":false,"is_disabled":true,"rental_uris":{"android":"levelo://app?vid=6cf2b315-d1ee-4e24-a665-250fae4ab05f","ios":"levelo://app?vid=6cf2b315-d1ee-4e24-a665-250fae4ab05f"},"vehicle_type_id":"4","last_reported":1761347359,"current_range_meters":19200,"station_id":"","pricing_plan_id":"cebpf4jnsgd1na2vs0mg"},{"bike_id":"fd2620cc-f678-423d-a616-0128c9b0e6dd","system_id":"levelo_inurba_marseille","lat":43.301824,"lon":5.366036,"is_reserved":false,"is_disabled":false,"rental_uris":{"android":"levelo://app?vid=fd2620cc-f678-423d-a616-0128c9b0e6dd","ios":"levelo://app?vid=fd2620cc-f678-423d-a616-0128c9b0e6dd"},"vehicle_type_id":"4","last_reported":1761347359,"current_range_meters":19200,"station_id":"ce4bgrh2rcd13ifvqc8g","pricing_plan_id":"cebpf4jnsgd1na2vs0mg"},{"bike_id":"6de5134c-03eb-49f9-8763-a1ead916803c","system_id":"levelo_inurba_marseille","lat":43.29524,"lon":5.39045,"is_reserved":false,"is_disabled":false,"rental_uris":{"android":"levelo://app?vid=6de5134c-03eb-49f9-8763-a1ead916803c","ios":"levelo://app?vid=6de5134c-03eb-49f9-8763-a1ead916803c"},"vehicle_type_id":"4","last_reported":1761347359,"current_range_meters":19200,"station_id":"ce4bh3p2rcd13ifvqdp0","pricing_plan_id":"cebpf4jnsgd1na2vs0mg"},{"bike_id":"dd65a463-a31b-485b-8670-75393dab59b2","system_id":"levelo_inurba_marseille","lat":43.2657,"lon":5.39013,"is_reserved":false,"is_disabled":false,"rental_uris":{"android":"levelo://app?vid=dd65a463-a31b-485b-8670-75393dab59b2","ios":"levelo://app?vid=dd65a463-a31b-485b-8670-75393dab59b2"},"vehicle_type_id":"4","last_reported":1761347359,"current_range_meters":19200,"station_id":"ce4bhe12rcd13ifvqf30","pricing_plan_id":"cebpf4jnsgd1na2vs0mg"},{"bike_id":"62f0a2f8-d352-4580-a096-e8ce56ffccdb","system_id":"levelo_inurba_marseille","lat":43.32111,"lon":5.36746,"is_reserved":false,"is_disabled":false,"rental_uris":{"android":"levelo://app?vid=62f0a2f8-d352-4580-a096-e8ce56ffccdb","ios":"levelo://app?vid=62f0a2f8-d352-4580-a096-e8ce56ffccdb"},"vehicle_type_id":"4","last_reported":1761347359,"current_range_meters":19600,"station_id":"ce4bhrh2rcd13ifvqhug","pricing_plan_id":"cebpf4jnsgd1na2vs0mg"},{"bike_id":"0144bdf2-84a6-45ad-976a-ea6fd3101d41","system_id":"levelo_inurba_marseille","lat":43.32111,"lon":5.36775,"is_reserved":false,"is_disabled":false,"rental_uris":{"android":"levelo://app?vid=0144bdf2-84a6-45ad-976a-ea6fd3101d41","ios":"levelo://app?vid=0144bdf2-84a6-45ad-976a-ea6fd3101d41"},"vehicle_type_id":"4","last_reported":1761347359,"current_range_meters":19600,"station_id":"ce4bhrh2rcd13ifvqhug","pricing_plan_id":"cebpf4jnsgd1na2vs0mg"},{"bike_id":"294a3f34-361b-4c46-9333-ce2708bba8b2","system_id":"levelo_inurba_marseille","lat":43.31699,"lon":5.36929,"is_reserved":false,"is_disabled":false,"rental_uris":{"android":"levelo://app?vid=294a3f34-361b-4c46-9333-ce2708bba8b2","ios":"levelo://app?vid=294a3f34-361b-4c46-9333-ce2708bba8b2"},"vehicle_type_id":"4","last_reported":1761347359,"current_range_meters":19600,"station_id":"","pricing_plan_id":"cebpf4jnsgd1na2vs0mg"},{"bike_id":"de4c9d67-aa03-439a-a821-c7b9a613d790","system_id":"levelo_inurba_marseille","lat":43.21198,"lon":5.35069,"is_reserved":false,"is_disabled":false,"rental_uris":{"android":"levelo://app?vid=de4c9d67-aa03-439a-a821-c7b9a613d790","ios":"levelo://app?vid=de4c9d67-aa03-439a-a821-c7b9a613d790"},"vehicle_type_id":"4","last_reported":1761347359,"current_range_meters":19600,"station_id":"st_cvj6sg6p6f1abm77japg","pricing_plan_id":"cebpf4jnsgd1na2vs0mg"},{"bike_id":"3bb193f6-1cc0-4d09-a3cf-71a5062a4571","system_id":"levelo_inurba_marseille","lat":43.33776,"lon":5.37475,"is_reserved":false,"is_disabled":false,"rental_uris":{"android":"levelo://app?vid=3bb193f6-1cc0-4d09-a3cf-71a5062a4571","ios":"levelo://app?vid=3bb193f6-1cc0-4d09-a3cf-71a5062a4571"},"vehicle_type_id":"4","last_reported":1761347359,"current_range_meters":19600,"station_id":"","pricing_plan_id":"cebpf4jnsgd1na2vs0mg"},{"bike_id":"8207f370-b4d5-41d3-a079-fb648f14104c","system_id":"levelo_inurba_marseille","lat":43.30595,"lon":5.37208,"is_reserved":false,"is_disabled":false,"rental_uris":{"android":"levelo://app?vid=8207f370-b4d5-41d3-a079-fb648f14104c","ios":"levelo://app?vid=8207f370-b4d5-41d3-a079-fb648f14104c"},"vehicle_type_id":"4","last_reported":1761347359,"current_range_meters":19600,"station_id":"ce4bgqh2rcd13ifvqc4g","pricing_plan_id":"cebpf4jnsgd1na2vs0mg"},{"bike_id":"feba9ba2-2f19-4501-98f3-8aa71875c80e","system_id":"levelo_inurba_marseille","lat":43.33723,"lon":5.39189,"is_reserved":false,"is_disabled":false,"rental_uris":{"android":"levelo://app?vid=feba9ba2-2f19-4501-98f3-8aa71875c80e","ios":"levelo://app?vid=feba9ba2-2f19-4501-98f3-8aa71875c80e"},"vehicle_type_id":"4","last_reported":1761347359,"current_range_meters":19600,"station_id":"ce4bhr92rcd13ifvqhsg","pricing_plan_id":"cebpf4jnsgd1na2vs0mg"},{"bike_id":"151681fe-d6da-478a-be81-1ca5e6442b9c","system_id":"levelo_inurba_marseille","lat":43.27043,"lon":5.40261,"is_reserved":false,"is_disabled":true,"rental_uris":{"android":"levelo://app?vid=151681fe-d6da-478a-be81-1ca5e6442b9c","ios":"levelo://app?vid=151681fe-d6da-478a-be81-1ca5e6442b9c"},"vehicle_type_id":"4","last_reported":1761347359,"current_range_meters":19600,"station_id":"ce4bhk92rcd13ifvqgc0","pricing_plan_id":"cebpf4jnsgd1na2vs0mg"},{"bike_id":"c39bd341-0af9-4be8-9bc6-ac9a57f7566f","system_id":"levelo_inurba_marseille","lat":43.29789,"lon":5.37919,"is_reserved":false,"is_disabled":false,"rental_uris":{"android":"levelo://app?vid=c39bd341-0af9-4be8-9bc6-ac9a57f7566f","ios":"levelo://app?vid=c39bd341-0af9-4be8-9bc6-ac9a57f7566f"},"vehicle_type_id":"4","last_reported":1761347359,"current_range_meters":19600,"station_id":"","pricing_plan_id":"cebpf4jnsgd1na2vs0mg"},{"bike_id":"29b38a45-3e07-40c1-b8b1-5f85b487711f","system_id":"levelo_inurba_marseille","lat":43.31236,"lon":5.40397,"is_reserved":false,"is_disabled":false,"rental_uris":{"android":"levelo://app?vid=29b38a45-3e07-40c1-b8b1-5f85b487711f","ios":"levelo://app?vid=29b38a45-3e07-40c1-b8b1-5f85b487711f"},"vehicle_type_id":"4","last_reported":1761347359,"current_range_meters":20000,"station_id":"","pricing_plan_id":"cebpf4jnsgd1na2vs0mg"},{"bike_id":"ed4ba838-cde1-4942-88b8-455470fe528f","system_id":"levelo_inurba_marseille","lat":43.23976,"lon":5.36624,"is_reserved":false,"is_disabled":false,"rental_uris":{"android":"levelo://app?vid=ed4ba838-cde1-4942-88b8-455470fe528f","ios":"levelo://app?vid=ed4ba838-cde1-4942-88b8-455470fe528f"},"vehicle_type_id":"4","last_reported":1761347359,"current_range_meters":20000,"station_id":"ce4bhi12rcd13ifvqfp0","pricing_plan_id":"cebpf4jnsgd1na2vs0mg"},{"bike_id":"96355da0-b94f-4c40-9a2a-71fb60bf76b8","system_id":"levelo_inurba_marseille","lat":43.295043,"lon":5.3939,"is_reserved":false,"is_disabled":true,"rental_uris":{"android":"levelo://app?vid=96355da0-b94f-4c40-9a2a-71fb60bf76b8","ios":"levelo://app?vid=96355da0-b94f-4c40-9a2a-71fb60bf76b8"},"vehicle_type_id":"4","last_reported":1761347359,"current_range_meters":20000,"station_id":"ce4bh292rcd13ifvqdf0","pricing_plan_id":"cebpf4jnsgd1na2vs0mg"},{"bike_id":"6c90b2f1-9213-405a-aea2-8588ef71a581","system_id":"levelo_inurba_marseille","lat":43.29885,"lon":5.38909,"is_reserved":false,"is_disabled":false,"rental_uris":{"android":"levelo://app?vid=6c90b2f1-9213-405a-aea2-8588ef71a581","ios":"levelo://app?vid=6c90b2f1-9213-405a-aea2-8588ef71a581"},"vehicle_type_id":"4","last_reported":1761347359,"current_range_meters":20000,"station_id":"ce4bh392rcd13ifvqdl0","pricing_plan_id":"cebpf4jnsgd1na2vs0mg"},{"bike_id":"ba8e9b2d-4e18-4155-a9d3-745421a76586","system_id":"levelo_inurba_marseille","lat":43.28011,"lon":5.41244,"is_reserved":false,"is_disabled":false,"rental_uris":{"android":"levelo://app?vid=ba8e9b2d-4e18-4155-a9d3-745421a76586","ios":"levelo://app?vid=ba8e9b2d-4e18-4155-a9d3-745421a76586"},"vehicle_type_id":"4","last_reported":1761347359,"current_range_meters":20000,"station_id":"","pricing_plan_id":"cebpf4jnsgd1na2vs0mg"},{"bike_id":"6775d557-4f3e-44bd-9cde-fbd8a3143346","system_id":"levelo_inurba_marseille","lat":43.30146,"lon":5.38072,"is_reserved":false,"is_disabled":false,"rental_uris":{"android":"levelo://app?vid=6775d557-4f3e-44bd-9cde-fbd8a3143346","ios":"levelo://app?vid=6775d557-4f3e-44bd-9cde-fbd8a3143346"},"vehicle_type_id":"4","last_reported":1761347359,"current_range_meters":20000,"station_id":"ce4bgjp2rcd13ifvqbh0","pricing_plan_id":"cebpf4jnsgd1na2vs0mg"},{"bike_id":"455d4c6c-ab0c-4318-9601-3abfeb41c28c","system_id":"levelo_inurba_marseille","lat":43.30255,"lon":5.40071,"is_reserved":false,"is_disabled":false,"rental_uris":{"android":"levelo://app?vid=455d4c6c-ab0c-4318-9601-3abfeb41c28c","ios":"levelo://app?vid=455d4c6c-ab0c-4318-9601-3abfeb41c28c"},"vehicle_type_id":"4","last_reported":1761347359,"current_range_meters":20000,"station_id":"ce4bgvh2rcd13ifvqcs0","pricing_plan_id":"cebpf4jnsgd1na2vs0mg"},{"bike_id":"845f9b38-4786-4141-a0b4-e7b09e1c0bd5","system_id":"levelo_inurba_marseille","lat":43.30145,"lon":5.38075,"is_reserved":false,"is_disabled":false,"rental_uris":{"android":"levelo://app?vid=845f9b38-4786-4141-a0b4-e7b09e1c0bd5","ios":"levelo://app?vid=845f9b38-4786-4141-a0b4-e7b09e1c0bd5"},"vehicle_type_id":"4","last_reported":1761347359,"current_range_meters":20000,"station_id":"ce4bgjp2rcd13ifvqbh0","pricing_plan_id":"cebpf4jnsgd1na2vs0mg"},{"bike_id":"c0b81f28-bbba-4247-a74b-c55a34b31846","system_id":"levelo_inurba_marseille","lat":43.33258,"lon":5.41086,"is_reserved":false,"is_disabled":false,"rental_uris":{"android":"levelo://app?vid=c0b81f28-bbba-4247-a74b-c55a34b31846","ios":"levelo://app?vid=c0b81f28-bbba-4247-a74b-c55a34b31846"},"vehicle_type_id":"4","last_reported":1761347359,"current_range_meters":20400,"station_id":"","pricing_plan_id":"cebpf4jnsgd1na2vs0mg"},{"bike_id":"1a1f55de-f536-43d2-a5ec-8faa427890f0","system_id":"levelo_inurba_marseille","lat":43.24074,"lon":5.37753,"is_reserved":false,"is_disabled":false,"rental_uris":{"android":"levelo://app?vid=1a1f55de-f536-43d2-a5ec-8faa427890f0","ios":"levelo://app?vid=1a1f55de-f536-43d2-a5ec-8faa427890f0"},"vehicle_type_id":"4","last_reported":1761347359,"current_range_meters":20400,"station_id":"ce4bhnp2rcd13ifvqgvg","pricing_plan_id":"cebpf4jnsgd1na2vs0mg"},{"bike_id":"55c9663e-4e1e-46f2-9483-90cad71761ad","system_id":"levelo_inurba_marseille","lat":43.29988,"lon":5.37157,"is_reserved":false,"is_disabled":true,"rental_uris":{"android":"levelo://app?vid=55c9663e-4e1e-46f2-9483-90cad71761ad","ios":"levelo://app?vid=55c9663e-4e1e-46f2-9483-90cad71761ad"},"vehicle_type_id":"4","last_reported":1761347359,"current_range_meters":20400,"station_id":"ce4bgr92rcd13ifvqc7g","pricing_plan_id":"cebpf4jnsgd1na2vs0mg"},{"bike_id":"5a3d1d5d-719c-4342-973b-645a504376ee","system_id":"levelo_inurba_marseille","lat":43.298044,"lon":5.381097,"is_reserved":false,"is_disabled":false,"rental_uris":{"android":"levelo://app?vid=5a3d1d5d-719c-4342-973b-645a504376ee","ios":"levelo://app?vid=5a3d1d5d-719c-4342-973b-645a504376ee"},"vehicle_type_id":"4","last_reported":1761347359,"current_range_meters":20400,"station_id":"ce4bh412rcd13ifvqds0","pricing_plan_id":"cebpf4jnsgd1na2vs0mg"},{"bike_id":"a420fe42-d929-4f02-8db6-f1518becc2c4","system_id":"levelo_inurba_marseille","lat":43.23198,"lon":5.35529,"is_reserved":false,"is_disabled":false,"rental_uris":{"android":"levelo://app?vid=a420fe42-d929-4f02-8db6-f1518becc2c4","ios":"levelo://app?vid=a420fe42-d929-4f02-8db6-f1518becc2c4"},"vehicle_type_id":"4","last_reported":1761347359,"current_range_meters":20400,"station_id":"ce4bhu92rcd13ifvqi70","pricing_plan_id":"cebpf4jnsgd1na2vs0mg"},{"bike_id":"de701f65-36fd-4b1a-9710-314bfd464589","system_id":"levelo_inurba_marseille","lat":43.2718,"lon":5.40991,"is_reserved":false,"is_disabled":false,"rental_uris":{"android":"levelo://app?vid=de701f65-36fd-4b1a-9710-314bfd464589","ios":"levelo://app?vid=de701f65-36fd-4b1a-9710-314bfd464589"},"vehicle_type_id":"4","last_reported":1761347359,"current_range_meters":20400,"station_id":"ce4bhl12rcd13ifvqgf0","pricing_plan_id":"cebpf4jnsgd1na2vs0mg"},{"bike_id":"2e9e6af8-fc58-4300-bf0a-4bfe1206db5f","system_id":"levelo_inurba_marseille","lat":43.282303,"lon":5.390811,"is_reserved":false,"is_disabled":false,"rental_uris":{"android":"levelo://app?vid=2e9e6af8-fc58-4300-bf0a-4bfe1206db5f","ios":"levelo://app?vid=2e9e6af8-fc58-4300-bf0a-4bfe1206db5f"},"vehicle_type_id":"4","last_reported":1761347359,"current_range_meters":20400,"station_id":"","pricing_plan_id":"cebpf4jnsgd1na2vs0mg"},{"bike_id":"74546168-aafc-4fc6-824e-fd7787db6ac1","system_id":"levelo_inurba_marseille","lat":43.22934,"lon":5.35376,"is_reserved":false,"is_disabled":false,"rental_uris":{"android":"levelo://app?vid=74546168-aafc-4fc6-824e-fd7787db6ac1","ios":"levelo://app?vid=74546168-aafc-4fc6-824e-fd7787db6ac1"},"vehicle_type_id":"4","last_reported":1761347359,"current_range_meters":20400,"station_id":"cpo3532slgdg3j2ikp40","pricing_plan_id":"cebpf4jnsgd1na2vs0mg"},{"bike_id":"5d69f09f-f23a-4cc9-9b0e-7badeab810a8","system_id":"levelo_inurba_marseille","lat":43.298745,"lon":5.389079,"is_reserved":false,"is_disabled":true,"rental_uris":{"android":"levelo://app?vid=5d69f09f-f23a-4cc9-9b0e-7badeab810a8","ios":"levelo://app?vid=5d69f09f-f23a-4cc9-9b0e-7badeab810a8"},"vehicle_type_id":"4","last_reported":1761347359,"current_range_meters":20400,"station_id":"ce4bh392rcd13ifvqdl0","pricing_plan_id":"cebpf4jnsgd1na2vs0mg"},{"bike_id":"8ca5417b-bb16-4f82-8def-e0d8d3f55b22","system_id":"levelo_inurba_marseille","lat":43.27568,"lon":5.38428,"is_reserved":false,"is_disabled":false,"rental_uris":{"android":"levelo://app?vid=8ca5417b-bb16-4f82-8def-e0d8d3f55b22","ios":"levelo://app?vid=8ca5417b-bb16-4f82-8def-e0d8d3f55b22"},"vehicle_type_id":"4","last_reported":1761347359,"current_range_meters":20400,"station_id":"ce4bhh92rcd13ifvqfi0","pricing_plan_id":"cebpf4jnsgd1na2vs0mg"},{"bike_id":"e4746a2d-9cd3-46c8-bf0e-3a10fdb16ced","system_id":"levelo_inurba_marseille","lat":43.32352,"lon":5.36754,"is_reserved":false,"is_disabled":false,"rental_uris":{"android":"levelo://app?vid=e4746a2d-9cd3-46c8-bf0e-3a10fdb16ced","ios":"levelo://app?vid=e4746a2d-9cd3-46c8-bf0e-3a10fdb16ced"},"vehicle_type_id":"4","last_reported":1761347359,"current_range_meters":20400,"station_id":"ce4bhsh2rcd13ifvqi2g","pricing_plan_id":"cebpf4jnsgd1na2vs0mg"},{"bike_id":"7fb3971e-84b0-4ac6-82fb-b4ca6cdec2ab","system_id":"levelo_inurba_marseille","lat":43.29496,"lon":5.43281,"is_reserved":false,"is_disabled":false,"rental_uris":{"android":"levelo://app?vid=7fb3971e-84b0-4ac6-82fb-b4ca6cdec2ab","ios":"levelo://app?vid=7fb3971e-84b0-4ac6-82fb-b4ca6cdec2ab"},"vehicle_type_id":"4","last_reported":1761347359,"current_range_meters":20400,"station_id":"st_d3j5ugp08ojc73fj9d10","pricing_plan_id":"cebpf4jnsgd1na2vs0mg"},{"bike_id":"38a064e1-0c23-4c21-963f-8d817112a18f","system_id":"levelo_inurba_marseille","lat":43.28402,"lon":5.39894,"is_reserved":false,"is_disabled":false,"rental_uris":{"android":"levelo://app?vid=38a064e1-0c23-4c21-963f-8d817112a18f","ios":"levelo://app?vid=38a064e1-0c23-4c21-963f-8d817112a18f"},"vehicle_type_id":"4","last_reported":1761347359,"current_range_meters":20400,"station_id":"","pricing_plan_id":"cebpf4jnsgd1na2vs0mg"},{"bike_id":"1c85a0c9-f4f7-4876-84a6-e52ca7b1688c","system_id":"levelo_inurba_marseille","lat":43.279021,"lon":5.395857,"is_reserved":false,"is_disabled":false,"rental_uris":{"android":"levelo://app?vid=1c85a0c9-f4f7-4876-84a6-e52ca7b1688c","ios":"levelo://app?vid=1c85a0c9-f4f7-4876-84a6-e52ca7b1688c"},"vehicle_type_id":"4","last_reported":1761347359,"current_range_meters":20400,"station_id":"ce4bhf92rcd13ifvqf40","pricing_plan_id":"cebpf4jnsgd1na2vs0mg"},{"bike_id":"e4ccce50-4824-4895-aa8c-033835526f23","system_id":"levelo_inurba_marseille","lat":43.318783,"lon":5.399931,"is_reserved":false,"is_disabled":false,"rental_uris":{"android":"levelo://app?vid=e4ccce50-4824-4895-aa8c-033835526f23","ios":"levelo://app?vid=e4ccce50-4824-4895-aa8c-033835526f23"},"vehicle_type_id":"4","last_reported":1761347359,"current_range_meters":20400,"station_id":"","pricing_plan_id":"cebpf4jnsgd1na2vs0mg"},{"bike_id":"896f2a82-1098-47c0-affd-3d2fa4d77465","system_id":"levelo_inurba_marseille","lat":43.26206,"lon":5.40388,"is_reserved":false,"is_disabled":false,"rental_uris":{"android":"levelo://app?vid=896f2a82-1098-47c0-affd-3d2fa4d77465","ios":"levelo://app?vid=896f2a82-1098-47c0-affd-3d2fa4d77465"},"vehicle_type_id":"4","last_reported":1761347359,"current_range_meters":20400,"station_id":"ce4bhmh2rcd13ifvqgmg","pricing_plan_id":"cebpf4jnsgd1na2vs0mg"},{"bike_id":"c566dbb9-1e2d-44b2-9bf5-691aa6a206a2","system_id":"levelo_inurba_marseille","lat":43.287014,"lon":5.37386,"is_reserved":false,"is_disabled":false,"rental_uris":{"android":"levelo://app?vid=c566dbb9-1e2d-44b2-9bf5-691aa6a206a2","ios":"levelo://app?vid=c566dbb9-1e2d-44b2-9bf5-691aa6a206a2"},"vehicle_type_id":"4","last_reported":1761347359,"current_range_meters":20400,"station_id":"ce4bh3p2rcd13ifvqdq0","pricing_plan_id":"cebpf4jnsgd1na2vs0mg"},{"bike_id":"9ccf3ccc-5b0d-4b15-ac82-42c15d36ae0e","system_id":"levelo_inurba_marseille","lat":43.3047,"lon":5.37906,"is_reserved":false,"is_disabled":false,"rental_uris":{"android":"levelo://app?vid=9ccf3ccc-5b0d-4b15-ac82-42c15d36ae0e","ios":"levelo://app?vid=9ccf3ccc-5b0d-4b15-ac82-42c15d36ae0e"},"vehicle_type_id":"4","last_reported":1761347359,"current_range_meters":20400,"station_id":"ce4bgup2rcd13ifvqcn0","pricing_plan_id":"cebpf4jnsgd1na2vs0mg"},{"bike_id":"fc74c03f-6810-4b94-8149-477bae3888a5","system_id":"levelo_inurba_marseille","lat":43.29821,"lon":5.44074,"is_reserved":false,"is_disabled":false,"rental_uris":{"android":"levelo://app?vid=fc74c03f-6810-4b94-8149-477bae3888a5","ios":"levelo://app?vid=fc74c03f-6810-4b94-8149-477bae3888a5"},"vehicle_type_id":"4","last_reported":1761347359,"current_range_meters":20800,"station_id":"st_d3jp68qikq2c7381ktn0","pricing_plan_id":"cebpf4jnsgd1na2vs0mg"},{"bike_id":"6c3a1c74-72d3-45fa-800d-995e13916b91","system_id":"levelo_inurba_marseille","lat":43.28945,"lon":5.36386,"is_reserved":false,"is_disabled":false,"rental_uris":{"android":"levelo://app?vid=6c3a1c74-72d3-45fa-800d-995e13916b91","ios":"levelo://app?vid=6c3a1c74-72d3-45fa-800d-995e13916b91"},"vehicle_type_id":"4","last_reported":1761347359,"current_range_meters":20800,"station_id":"ce4bhc92rcd13ifvqetg","pricing_plan_id":"cebpf4jnsgd1na2vs0mg"},{"bike_id":"66676914-43b1-410a-bdb0-037adbd6b428","system_id":"levelo_inurba_marseille","lat":43.289959,"lon":5.366368,"is_reserved":false,"is_disabled":false,"rental_uris":{"android":"levelo://app?vid=66676914-43b1-410a-bdb0-037adbd6b428","ios":"levelo://app?vid=66676914-43b1-410a-bdb0-037adbd6b428"},