{"last_updated":1747498257,"ttl":60,"version":"2.2","data":{"bikes":[{"bike_id":"c0b9fd4f-e181-46ce-b0bf-f5119973334f","system_id":"levelo_inurba_marseille","lat":43.33771,"lon":5.37424,"is_reserved":false,"is_disabled":false,"rental_uris":{"android":"levelo://app?vid=c0b9fd4f-e181-46ce-b0bf-f5119973334f","ios":"levelo://app?vid=c0b9fd4f-e181-46ce-b0bf-f5119973334f"},"vehicle_type_id":"4","last_reported":1747498257,"current_range_meters":4800,"station_id":"","pricing_plan_id":"cebpf4jnsgd1na2vs0mg"},{"bike_id":"fc2577e7-1497-425b-9d4f-ab8d7dc843c6","system_id":"levelo_inurba_marseille","lat":43.33771,"lon":5.37485,"is_reserved":false,"is_disabled":true,"rental_uris":{"android":"levelo://app?vid=fc2577e7-1497-425b-9d4f-ab8d7dc843c6","ios":"levelo://app?vid=fc2577e7-1497-425b-9d4f-ab8d7dc843c6"},"vehicle_type_id":"4","last_reported":1747498257,"current_range_meters":0,"station_id":"","pricing_plan_id":"cebpf4jnsgd1na2vs0mg"},{"bike_id":"80d0d83f-909d-4568-b4e7-8a3ef4eed2de","system_id":"levelo_inurba_marseille","lat":43.253849,"lon":5.418994,"is_reserved":false,"is_disabled":true,"rental_uris":{"android":"levelo://app?vid=80d0d83f-909d-4568-b4e7-8a3ef4eed2de","ios":"levelo://app?vid=80d0d83f-909d-4568-b4e7-8a3ef4eed2de"},"vehicle_type_id":"4","last_reported":1747498257,"current_range_meters":0,"station_id":"","pricing_plan_id":"cebpf4jnsgd1na2vs0mg"},{"bike_id":"0b7b8d9e-a565-4a78-b09b-a8c868649f48","system_id":"levelo_inurba_marseille","lat":43.337444,"lon":5.374475,"is_reserved":false,"is_disabled":true,"rental_uris":{"android":"levelo://app?vid=0b7b8d9e-a565-4a78-b09b-a8c868649f48","ios":"levelo://app?vid=0b7b8d9e-a565-4a78-b09b-a8c868649f48"},"vehicle_type_id":"4","last_reported":1747498257,"current_range_meters":0,"station_id":"","pricing_plan_id":"cebpf4jnsgd1na2vs0mg"},{"bike_id":"d8911881-e82e-4c7b-963e-42a565f0cadb","system_id":"levelo_inurba_marseille","lat":43.27034,"lon":5.40691,"is_reserved":false,"is_disabled":true,"rental_uris":{"android":"levelo://app?vid=d8911881-e82e-4c7b-963e-42a565f0cadb","ios":"levelo://app?vid=d8911881-e82e-4c7b-963e-42a565f0cadb"},"vehicle_type_id":"4","last_reported":1747498257,"current_range_meters":0,"station_id":"","pricing_plan_id":"cebpf4jnsgd1na2vs0mg"},{"bike_id":"ce4325af-2448-4172-bdec-81d552ee0b62","system_id":"levelo_inurba_marseille","lat":43.26166,"lon":5.42011,"is_reserved":false,"is_disabled":true,"rental_uris":{"android":"levelo://app?vid=ce4325af-2448-4172-bdec-81d552ee0b62","ios":"levelo://app?vid=ce4325af-2448-4172-bdec-81d552ee0b62"},"vehicle_type_id":"4","last_reported":1747498257,"current_range_meters":0,"station_id":"","pricing_plan_id":"cebpf4jnsgd1na2vs0mg"},{"bike_id":"23939faf-d206-4b93-ade4-199417584041","system_id":"levelo_inurba_marseille","lat":43.24955,"lon":5.3754,"is_reserved":false,"is_disabled":true,"rental_uris":{"android":"levelo://app?vid=23939faf-d206-4b93-ade4-199417584041","ios":"levelo://app?vid=23939faf-d206-4b93-ade4-199417584041"},"vehicle_type_id":"4","last_reported":1747498257,"current_range_meters":0,"station_id":"","pricing_plan_id":"cebpf4jnsgd1na2vs0mg"},{"bike_id":"77531a78-702c-4d5b-89bb-6587de1a6d9f","system_id":"levelo_inurba_marseille","lat":43.27676,"lon":5.38944,"is_reserved":false,"is_disabled":true,"rental_uris":{"android":"levelo://app?vid=77531a78-702c-4d5b-89bb-6587de1a6d9f","ios":"levelo://app?vid=77531a78-702c-4d5b-89bb-6587de1a6d9f"},"vehicle_type_id":"4","last_reported":1747498257,"current_range_meters":0,"station_id":"","pricing_plan_id":"cebpf4jnsgd1na2vs0mg"},{"bike_id":"e33ba0c3-f91f-46f6-bdae-2cf40ed6ca3f","system_id":"levelo_inurba_marseille","lat":43.286165,"lon":5.351086,"is_reserved":false,"is_disabled":true,"rental_uris":{"android":"levelo://app?vid=e33ba0c3-f91f-46f6-bdae-2cf40ed6ca3f","ios":"levelo://app?vid=e33ba0c3-f91f-46f6-bdae-2cf40ed6ca3f"},"vehicle_type_id":"4","last_reported":1747498257,"current_range_meters":0,"station_id":"","pricing_plan_id":"cebpf4jnsgd1na2vs0mg"},{"bike_id":"792567c6-0442-4011-aff0-9c05e25deb48","system_id":"levelo_inurba_marseille","lat":43.337444,"lon":5.374475,"is_reserved":false,"is_disabled":true,"rental_uris":{"android":"levelo://app?vid=792567c6-0442-4011-aff0-9c05e25deb48","ios":"levelo://app?vid=792567c6-0442-4011-aff0-9c05e25deb48"},"vehicle_type_id":"4","last_reported":1747498257,"current_range_meters":0,"station_id":"","pricing_plan_id":"cebpf4jnsgd1na2vs0mg"},{"bike_id":"bb0baa39-1e01-43e0-a77c-5ba8d631e8a2","system_id":"levelo_inurba_marseille","lat":43.27268,"lon":5.38582,"is_reserved":false,"is_disabled":true,"rental_uris":{"android":"levelo://app?vid=bb0baa39-1e01-43e0-a77c-5ba8d631e8a2","ios":"levelo://app?vid=bb0baa39-1e01-43e0-a77c-5ba8d631e8a2"},"vehicle_type_id":"4","last_reported":1747498257,"current_range_meters":0,"station_id":"","pricing_plan_id":"cebpf4jnsgd1na2vs0mg"},{"bike_id":"5307a06c-11e6-4b56-9e01-569e6bfd3d2d","system_id":"levelo_inurba_marseille","lat":43.29597,"lon":5.36782,"is_reserved":false,"is_disabled":true,"rental_uris":{"android":"levelo://app?vid=5307a06c-11e6-4b56-9e01-569e6bfd3d2d","ios":"levelo://app?vid=5307a06c-11e6-4b56-9e01-569e6bfd3d2d"},"vehicle_type_id":"4","last_reported":1747498257,"current_range_meters":0,"station_id":"ce4bgph2rcd13ifvqc2g","pricing_plan_id":"cebpf4jnsgd1na2vs0mg"},{"bike_id":"27249a6c-9c71-41de-b048-c7184e3f520a","system_id":"levelo_inurba_marseille","lat":43.31488,"lon":5.37318,"is_reserved":false,"is_disabled":true,"rental_uris":{"android":"levelo://app?vid=27249a6c-9c71-41de-b048-c7184e3f520a","ios":"levelo://app?vid=27249a6c-9c71-41de-b048-c7184e3f520a"},"vehicle_type_id":"4","last_reported":1747498257,"current_range_meters":0,"station_id":"ce4bgt12rcd13ifvqcd0","pricing_plan_id":"cebpf4jnsgd1na2vs0mg"},{"bike_id":"808e2dfc-e9ba-4816-833f-25206f298cef","system_id":"levelo_inurba_marseille","lat":43.30888,"lon":5.37196,"is_reserved":false,"is_disabled":true,"rental_uris":{"android":"levelo://app?vid=808e2dfc-e9ba-4816-833f-25206f298cef","ios":"levelo://app?vid=808e2dfc-e9ba-4816-833f-25206f298cef"},"vehicle_type_id":"4","last_reported":1747498257,"current_range_meters":0,"station_id":"ce4bguh2rcd13ifvqckg","pricing_plan_id":"cebpf4jnsgd1na2vs0mg"},{"bike_id":"178fa387-c15e-4c32-b6bd-7db313760e99","system_id":"levelo_inurba_marseille","lat":43.31085,"lon":5.38372,"is_reserved":false,"is_disabled":true,"rental_uris":{"android":"levelo://app?vid=178fa387-c15e-4c32-b6bd-7db313760e99","ios":"levelo://app?vid=178fa387-c15e-4c32-b6bd-7db313760e99"},"vehicle_type_id":"4","last_reported":1747498257,"current_range_meters":0,"station_id":"ce4bgv92rcd13ifvqcr0","pricing_plan_id":"cebpf4jnsgd1na2vs0mg"},{"bike_id":"2e0168a9-2021-4634-ab09-46c0b5a30b46","system_id":"levelo_inurba_marseille","lat":43.31074,"lon":5.38351,"is_reserved":false,"is_disabled":true,"rental_uris":{"android":"levelo://app?vid=2e0168a9-2021-4634-ab09-46c0b5a30b46","ios":"levelo://app?vid=2e0168a9-2021-4634-ab09-46c0b5a30b46"},"vehicle_type_id":"4","last_reported":1747498257,"current_range_meters":0,"station_id":"ce4bgv92rcd13ifvqcr0","pricing_plan_id":"cebpf4jnsgd1na2vs0mg"},{"bike_id":"20a7a6d2-719a-4721-ad65-2aec11530f3e","system_id":"levelo_inurba_marseille","lat":43.306487,"lon":5.401066,"is_reserved":false,"is_disabled":true,"rental_uris":{"android":"levelo://app?vid=20a7a6d2-719a-4721-ad65-2aec11530f3e","ios":"levelo://app?vid=20a7a6d2-719a-4721-ad65-2aec11530f3e"},"vehicle_type_id":"4","last_reported":1747498257,"current_range_meters":0,"station_id":"ce4bh112rcd13ifvqda0","pricing_plan_id":"cebpf4jnsgd1na2vs0mg"},{"bike_id":"78501c07-bfa9-43bd-beb2-33d91ba33b0d","system_id":"levelo_inurba_marseille","lat":43.28714,"lon":5.37399,"is_reserved":false,"is_disabled":true,"rental_uris":{"android":"levelo://app?vid=78501c07-bfa9-43bd-beb2-33d91ba33b0d","ios":"levelo://app?vid=78501c07-bfa9-43bd-beb2-33d91ba33b0d"},"vehicle_type_id":"4","last_reported":1747498257,"current_range_meters":0,"station_id":"ce4bh3p2rcd13ifvqdq0","pricing_plan_id":"cebpf4jnsgd1na2vs0mg"},{"bike_id":"d65818de-3b58-405a-8468-d6369b27bd53","system_id":"levelo_inurba_marseille","lat":43.28713,"lon":5.37412,"is_reserved":false,"is_disabled":true,"rental_uris":{"android":"levelo://app?vid=d65818de-3b58-405a-8468-d6369b27bd53","ios":"levelo://app?vid=d65818de-3b58-405a-8468-d6369b27bd53"},"vehicle_type_id":"4","last_reported":1747498257,"current_range_meters":0,"station_id":"ce4bh3p2rcd13ifvqdq0","pricing_plan_id":"cebpf4jnsgd1na2vs0mg"},{"bike_id":"452f98e1-9947-4c95-a951-aa08e8dc92ca","system_id":"levelo_inurba_marseille","lat":43.29103,"lon":5.38143,"is_reserved":false,"is_disabled":true,"rental_uris":{"android":"levelo://app?vid=452f98e1-9947-4c95-a951-aa08e8dc92ca","ios":"levelo://app?vid=452f98e1-9947-4c95-a951-aa08e8dc92ca"},"vehicle_type_id":"4","last_reported":1747498257,"current_range_meters":0,"station_id":"ce4bh512rcd13ifvqe2g","pricing_plan_id":"cebpf4jnsgd1na2vs0mg"},{"bike_id":"34397810-4b59-4320-98a5-36aa6ea22eca","system_id":"levelo_inurba_marseille","lat":43.28465,"lon":5.38417,"is_reserved":false,"is_disabled":true,"rental_uris":{"android":"levelo://app?vid=34397810-4b59-4320-98a5-36aa6ea22eca","ios":"levelo://app?vid=34397810-4b59-4320-98a5-36aa6ea22eca"},"vehicle_type_id":"4","last_reported":1747498257,"current_range_meters":0,"station_id":"ce4bh512rcd13ifvqe3g","pricing_plan_id":"cebpf4jnsgd1na2vs0mg"},{"bike_id":"0b472263-5ccb-4d96-94db-26c7105ac723","system_id":"levelo_inurba_marseille","lat":43.28485,"lon":5.38419,"is_reserved":false,"is_disabled":true,"rental_uris":{"android":"levelo://app?vid=0b472263-5ccb-4d96-94db-26c7105ac723","ios":"levelo://app?vid=0b472263-5ccb-4d96-94db-26c7105ac723"},"vehicle_type_id":"4","last_reported":1747498257,"current_range_meters":0,"station_id":"ce4bh512rcd13ifvqe3g","pricing_plan_id":"cebpf4jnsgd1na2vs0mg"},{"bike_id":"e742235a-b5a9-4ef5-a050-91b1ac8b05c8","system_id":"levelo_inurba_marseille","lat":43.28485,"lon":5.3855,"is_reserved":false,"is_disabled":true,"rental_uris":{"android":"levelo://app?vid=e742235a-b5a9-4ef5-a050-91b1ac8b05c8","ios":"levelo://app?vid=e742235a-b5a9-4ef5-a050-91b1ac8b05c8"},"vehicle_type_id":"4","last_reported":1747498257,"current_range_meters":0,"station_id":"ce4bh8p2rcd13ifvqeb0","pricing_plan_id":"cebpf4jnsgd1na2vs0mg"},{"bike_id":"12f2608e-e75e-4463-8387-e9de6529c49c","system_id":"levelo_inurba_marseille","lat":43.28265,"lon":5.35059,"is_reserved":false,"is_disabled":true,"rental_uris":{"android":"levelo://app?vid=12f2608e-e75e-4463-8387-e9de6529c49c","ios":"levelo://app?vid=12f2608e-e75e-4463-8387-e9de6529c49c"},"vehicle_type_id":"4","last_reported":1747498257,"current_range_meters":0,"station_id":"ce4bhbp2rcd13ifvqerg","pricing_plan_id":"cebpf4jnsgd1na2vs0mg"},{"bike_id":"ee348855-9768-4386-a65e-71990f551203","system_id":"levelo_inurba_marseille","lat":43.2862,"lon":5.35102,"is_reserved":false,"is_disabled":true,"rental_uris":{"android":"levelo://app?vid=ee348855-9768-4386-a65e-71990f551203","ios":"levelo://app?vid=ee348855-9768-4386-a65e-71990f551203"},"vehicle_type_id":"4","last_reported":1747498257,"current_range_meters":0,"station_id":"ce4bhch2rcd13ifvqeug","pricing_plan_id":"cebpf4jnsgd1na2vs0mg"},{"bike_id":"8482df3a-3524-4220-9209-f3694b2563af","system_id":"levelo_inurba_marseille","lat":43.255,"lon":5.37651,"is_reserved":false,"is_disabled":true,"rental_uris":{"android":"levelo://app?vid=8482df3a-3524-4220-9209-f3694b2563af","ios":"levelo://app?vid=8482df3a-3524-4220-9209-f3694b2563af"},"vehicle_type_id":"4","last_reported":1747498257,"current_range_meters":0,"station_id":"ce4bhh12rcd13ifvqff0","pricing_plan_id":"cebpf4jnsgd1na2vs0mg"},{"bike_id":"51d520ae-8311-4b22-a402-3e0432c110f1","system_id":"levelo_inurba_marseille","lat":43.2693,"lon":5.38911,"is_reserved":false,"is_disabled":true,"rental_uris":{"android":"levelo://app?vid=51d520ae-8311-4b22-a402-3e0432c110f1","ios":"levelo://app?vid=51d520ae-8311-4b22-a402-3e0432c110f1"},"vehicle_type_id":"4","last_reported":1747498257,"current_range_meters":0,"station_id":"ce4bhhh2rcd13ifvqfl0","pricing_plan_id":"cebpf4jnsgd1na2vs0mg"},{"bike_id":"76c2efb3-7cd2-4963-b521-cb09465d33c0","system_id":"levelo_inurba_marseille","lat":43.25096,"lon":5.40329,"is_reserved":false,"is_disabled":true,"rental_uris":{"android":"levelo://app?vid=76c2efb3-7cd2-4963-b521-cb09465d33c0","ios":"levelo://app?vid=76c2efb3-7cd2-4963-b521-cb09465d33c0"},"vehicle_type_id":"4","last_reported":1747498257,"current_range_meters":0,"station_id":"ce4bhlh2rcd13ifvqgig","pricing_plan_id":"cebpf4jnsgd1na2vs0mg"},{"bike_id":"3bcfd179-a60e-483b-b473-b58f9b8f0dc5","system_id":"levelo_inurba_marseille","lat":43.262307,"lon":5.404531,"is_reserved":false,"is_disabled":false,"rental_uris":{"android":"levelo://app?vid=3bcfd179-a60e-483b-b473-b58f9b8f0dc5","ios":"levelo://app?vid=3bcfd179-a60e-483b-b473-b58f9b8f0dc5"},"vehicle_type_id":"4","last_reported":1747498257,"current_range_meters":0,"station_id":"ce4bhmh2rcd13ifvqgmg","pricing_plan_id":"cebpf4jnsgd1na2vs0mg"},{"bike_id":"98b8c9da-77e0-4213-bef2-e59272dfbed2","system_id":"levelo_inurba_marseille","lat":43.23156,"lon":5.43713,"is_reserved":false,"is_disabled":true,"rental_uris":{"android":"levelo://app?vid=98b8c9da-77e0-4213-bef2-e59272dfbed2","ios":"levelo://app?vid=98b8c9da-77e0-4213-bef2-e59272dfbed2"},"vehicle_type_id":"4","last_reported":1747498257,"current_range_meters":0,"station_id":"ce4bhmp2rcd13ifvqgog","pricing_plan_id":"cebpf4jnsgd1na2vs0mg"},{"bike_id":"0d5ec5dc-1184-4e2f-b2c9-ab60a3457c0f","system_id":"levelo_inurba_marseille","lat":43.231549,"lon":5.437022,"is_reserved":false,"is_disabled":true,"rental_uris":{"android":"levelo://app?vid=0d5ec5dc-1184-4e2f-b2c9-ab60a3457c0f","ios":"levelo://app?vid=0d5ec5dc-1184-4e2f-b2c9-ab60a3457c0f"},"vehicle_type_id":"4","last_reported":1747498257,"current_range_meters":0,"station_id":"ce4bhmp2rcd13ifvqgog","pricing_plan_id":"cebpf4jnsgd1na2vs0mg"},{"bike_id":"a1c9066c-592b-4af5-9d41-868c49186776","system_id":"levelo_inurba_marseille","lat":43.27816,"lon":5.40702,"is_reserved":false,"is_disabled":true,"rental_uris":{"android":"levelo://app?vid=a1c9066c-592b-4af5-9d41-868c49186776","ios":"levelo://app?vid=a1c9066c-592b-4af5-9d41-868c49186776"},"vehicle_type_id":"4","last_reported":1747498257,"current_range_meters":0,"station_id":"ce4bhnh2rcd13ifvqgtg","pricing_plan_id":"cebpf4jnsgd1na2vs0mg"},{"bike_id":"4e5cfbec-6aac-4ee7-ac9c-110bf218aee5","system_id":"levelo_inurba_marseille","lat":43.28168,"lon":5.42668,"is_reserved":false,"is_disabled":true,"rental_uris":{"android":"levelo://app?vid=4e5cfbec-6aac-4ee7-ac9c-110bf218aee5","ios":"levelo://app?vid=4e5cfbec-6aac-4ee7-ac9c-110bf218aee5"},"vehicle_type_id":"4","last_reported":1747498257,"current_range_meters":0,"station_id":"ce4bhnh2rcd13ifvqgug","pricing_plan_id":"cebpf4jnsgd1na2vs0mg"},{"bike_id":"1c2c1f79-5518-408a-85aa-5b97582c295d","system_id":"levelo_inurba_marseille","lat":43.240786,"lon":5.377665,"is_reserved":false,"is_disabled":true,"rental_uris":{"android":"levelo://app?vid=1c2c1f79-5518-408a-85aa-5b97582c295d","ios":"levelo://app?vid=1c2c1f79-5518-408a-85aa-5b97582c295d"},"vehicle_type_id":"4","last_reported":1747498257,"current_range_meters":0,"station_id":"ce4bhnp2rcd13ifvqgvg","pricing_plan_id":"cebpf4jnsgd1na2vs0mg"},{"bike_id":"2157e5f1-d7c6-4bc3-9f22-02a74b6daaaf","system_id":"levelo_inurba_marseille","lat":43.27978,"lon":5.41034,"is_reserved":false,"is_disabled":true,"rental_uris":{"android":"levelo://app?vid=2157e5f1-d7c6-4bc3-9f22-02a74b6daaaf","ios":"levelo://app?vid=2157e5f1-d7c6-4bc3-9f22-02a74b6daaaf"},"vehicle_type_id":"4","last_reported":1747498257,"current_range_meters":0,"station_id":"ce4bhnp2rcd13ifvqh0g","pricing_plan_id":"cebpf4jnsgd1na2vs0mg"},{"bike_id":"f3643df7-ea3d-41eb-8e92-b31dc64a90e6","system_id":"levelo_inurba_marseille","lat":43.279614,"lon":5.410444,"is_reserved":false,"is_disabled":true,"rental_uris":{"android":"levelo://app?vid=f3643df7-ea3d-41eb-8e92-b31dc64a90e6","ios":"levelo://app?vid=f3643df7-ea3d-41eb-8e92-b31dc64a90e6"},"vehicle_type_id":"4","last_reported":1747498257,"current_range_meters":0,"station_id":"ce4bhnp2rcd13ifvqh0g","pricing_plan_id":"cebpf4jnsgd1na2vs0mg"},{"bike_id":"d55315b6-7f96-4c08-92d0-976ca6f43b61","system_id":"levelo_inurba_marseille","lat":43.26938,"lon":5.40259,"is_reserved":false,"is_disabled":true,"rental_uris":{"android":"levelo://app?vid=d55315b6-7f96-4c08-92d0-976ca6f43b61","ios":"levelo://app?vid=d55315b6-7f96-4c08-92d0-976ca6f43b61"},"vehicle_type_id":"4","last_reported":1747498257,"current_range_meters":0,"station_id":"cjm6bp8fraef2m0cb0m0","pricing_plan_id":"cebpf4jnsgd1na2vs0mg"},{"bike_id":"761f97ef-3d44-49e1-a980-dbcf9a00e013","system_id":"levelo_inurba_marseille","lat":43.225002,"lon":5.347792,"is_reserved":false,"is_disabled":true,"rental_uris":{"android":"levelo://app?vid=761f97ef-3d44-49e1-a980-dbcf9a00e013","ios":"levelo://app?vid=761f97ef-3d44-49e1-a980-dbcf9a00e013"},"vehicle_type_id":"4","last_reported":1747498257,"current_range_meters":0,"station_id":"st_cvj5dfep6f1abm77gieg","pricing_plan_id":"cebpf4jnsgd1na2vs0mg"},{"bike_id":"59e33bab-443b-4b82-946a-94b602858b07","system_id":"levelo_inurba_marseille","lat":43.28178,"lon":5.38481,"is_reserved":false,"is_disabled":true,"rental_uris":{"android":"levelo://app?vid=59e33bab-443b-4b82-946a-94b602858b07","ios":"levelo://app?vid=59e33bab-443b-4b82-946a-94b602858b07"},"vehicle_type_id":"4","last_reported":1747498257,"current_range_meters":400,"station_id":"","pricing_plan_id":"cebpf4jnsgd1na2vs0mg"},{"bike_id":"85f51629-9bea-46cb-9e6a-75d7c8da06e8","system_id":"levelo_inurba_marseille","lat":43.31218,"lon":5.36841,"is_reserved":false,"is_disabled":true,"rental_uris":{"android":"levelo://app?vid=85f51629-9bea-46cb-9e6a-75d7c8da06e8","ios":"levelo://app?vid=85f51629-9bea-46cb-9e6a-75d7c8da06e8"},"vehicle_type_id":"4","last_reported":1747498257,"current_range_meters":400,"station_id":"ce4bgl92rcd13ifvqbq0","pricing_plan_id":"cebpf4jnsgd1na2vs0mg"},{"bike_id":"d80fa007-53ba-43a9-ae5c-cc39006e87f0","system_id":"levelo_inurba_marseille","lat":43.2827,"lon":5.35066,"is_reserved":false,"is_disabled":true,"rental_uris":{"android":"levelo://app?vid=d80fa007-53ba-43a9-ae5c-cc39006e87f0","ios":"levelo://app?vid=d80fa007-53ba-43a9-ae5c-cc39006e87f0"},"vehicle_type_id":"4","last_reported":1747498257,"current_range_meters":400,"station_id":"ce4bhbp2rcd13ifvqerg","pricing_plan_id":"cebpf4jnsgd1na2vs0mg"},{"bike_id":"bd5ceeb0-edf2-41fb-9e30-cf6350b763fe","system_id":"levelo_inurba_marseille","lat":43.2721,"lon":5.39186,"is_reserved":false,"is_disabled":true,"rental_uris":{"android":"levelo://app?vid=bd5ceeb0-edf2-41fb-9e30-cf6350b763fe","ios":"levelo://app?vid=bd5ceeb0-edf2-41fb-9e30-cf6350b763fe"},"vehicle_type_id":"4","last_reported":1747498257,"current_range_meters":400,"station_id":"ce4bhhp2rcd13ifvqfm0","pricing_plan_id":"cebpf4jnsgd1na2vs0mg"},{"bike_id":"d2668d31-0443-49ab-92db-2767c84a4c4f","system_id":"levelo_inurba_marseille","lat":43.29973,"lon":5.38484,"is_reserved":false,"is_disabled":true,"rental_uris":{"android":"levelo://app?vid=d2668d31-0443-49ab-92db-2767c84a4c4f","ios":"levelo://app?vid=d2668d31-0443-49ab-92db-2767c84a4c4f"},"vehicle_type_id":"4","last_reported":1747498257,"current_range_meters":800,"station_id":"ce4bgj92rcd13ifvqbd0","pricing_plan_id":"cebpf4jnsgd1na2vs0mg"},{"bike_id":"4bd15de2-5711-4d7f-9c8f-5e4fed5e06c7","system_id":"levelo_inurba_marseille","lat":43.293267,"lon":5.379596,"is_reserved":false,"is_disabled":true,"rental_uris":{"android":"levelo://app?vid=4bd15de2-5711-4d7f-9c8f-5e4fed5e06c7","ios":"levelo://app?vid=4bd15de2-5711-4d7f-9c8f-5e4fed5e06c7"},"vehicle_type_id":"4","last_reported":1747498257,"current_range_meters":800,"station_id":"ce4bgjh2rcd13ifvqbf0","pricing_plan_id":"cebpf4jnsgd1na2vs0mg"},{"bike_id":"157f2aa3-18c3-44e8-a3a0-54163f7fbde6","system_id":"levelo_inurba_marseille","lat":43.30165,"lon":5.38085,"is_reserved":false,"is_disabled":true,"rental_uris":{"android":"levelo://app?vid=157f2aa3-18c3-44e8-a3a0-54163f7fbde6","ios":"levelo://app?vid=157f2aa3-18c3-44e8-a3a0-54163f7fbde6"},"vehicle_type_id":"4","last_reported":1747498257,"current_range_meters":800,"station_id":"ce4bgjp2rcd13ifvqbh0","pricing_plan_id":"cebpf4jnsgd1na2vs0mg"},{"bike_id":"e2e1c6da-e413-40bf-a526-6c2fb0166d0e","system_id":"levelo_inurba_marseille","lat":43.30887,"lon":5.37203,"is_reserved":false,"is_disabled":true,"rental_uris":{"android":"levelo://app?vid=e2e1c6da-e413-40bf-a526-6c2fb0166d0e","ios":"levelo://app?vid=e2e1c6da-e413-40bf-a526-6c2fb0166d0e"},"vehicle_type_id":"4","last_reported":1747498257,"current_range_meters":800,"station_id":"ce4bguh2rcd13ifvqckg","pricing_plan_id":"cebpf4jnsgd1na2vs0mg"},{"bike_id":"eb0fa2d7-5882-4676-bbc6-0b8e449c23a1","system_id":"levelo_inurba_marseille","lat":43.3047,"lon":5.379073,"is_reserved":false,"is_disabled":true,"rental_uris":{"android":"levelo://app?vid=eb0fa2d7-5882-4676-bbc6-0b8e449c23a1","ios":"levelo://app?vid=eb0fa2d7-5882-4676-bbc6-0b8e449c23a1"},"vehicle_type_id":"4","last_reported":1747498257,"current_range_meters":800,"station_id":"ce4bgup2rcd13ifvqcn0","pricing_plan_id":"cebpf4jnsgd1na2vs0mg"},{"bike_id":"f7c6ec2c-e6d1-437e-8a32-2091560b598e","system_id":"levelo_inurba_marseille","lat":43.28856,"lon":5.35861,"is_reserved":false,"is_disabled":true,"rental_uris":{"android":"levelo://app?vid=f7c6ec2c-e6d1-437e-8a32-2091560b598e","ios":"levelo://app?vid=f7c6ec2c-e6d1-437e-8a32-2091560b598e"},"vehicle_type_id":"4","last_reported":1747498257,"current_range_meters":800,"station_id":"ce4bhb12rcd13ifvqem0","pricing_plan_id":"cebpf4jnsgd1na2vs0mg"},{"bike_id":"97e547a6-c267-46d9-b61f-c703897e796e","system_id":"levelo_inurba_marseille","lat":43.27219,"lon":5.39178,"is_reserved":false,"is_disabled":true,"rental_uris":{"android":"levelo://app?vid=97e547a6-c267-46d9-b61f-c703897e796e","ios":"levelo://app?vid=97e547a6-c267-46d9-b61f-c703897e796e"},"vehicle_type_id":"4","last_reported":1747498257,"current_range_meters":800,"station_id":"ce4bhhp2rcd13ifvqfm0","pricing_plan_id":"cebpf4jnsgd1na2vs0mg"},{"bike_id":"11d8b526-e023-48d9-a3ea-633986f64483","system_id":"levelo_inurba_marseille","lat":43.25723,"lon":5.41113,"is_reserved":false,"is_disabled":true,"rental_uris":{"android":"levelo://app?vid=11d8b526-e023-48d9-a3ea-633986f64483","ios":"levelo://app?vid=11d8b526-e023-48d9-a3ea-633986f64483"},"vehicle_type_id":"4","last_reported":1747498257,"current_range_meters":800,"station_id":"ce4bhkp2rcd13ifvqgd0","pricing_plan_id":"cebpf4jnsgd1na2vs0mg"},{"bike_id":"4cb9f1cb-f781-43d3-86f3-91c7ee282fee","system_id":"levelo_inurba_marseille","lat":43.25121,"lon":5.40367,"is_reserved":false,"is_disabled":true,"rental_uris":{"android":"levelo://app?vid=4cb9f1cb-f781-43d3-86f3-91c7ee282fee","ios":"levelo://app?vid=4cb9f1cb-f781-43d3-86f3-91c7ee282fee"},"vehicle_type_id":"4","last_reported":1747498257,"current_range_meters":800,"station_id":"ce4bhlh2rcd13ifvqgig","pricing_plan_id":"cebpf4jnsgd1na2vs0mg"},{"bike_id":"d5518660-fe6a-439e-9623-44fc8fcddfea","system_id":"levelo_inurba_marseille","lat":43.28156,"lon":5.4264,"is_reserved":false,"is_disabled":true,"rental_uris":{"android":"levelo://app?vid=d5518660-fe6a-439e-9623-44fc8fcddfea","ios":"levelo://app?vid=d5518660-fe6a-439e-9623-44fc8fcddfea"},"vehicle_type_id":"4","last_reported":1747498257,"current_range_meters":800,"station_id":"ce4bhnh2rcd13ifvqgug","pricing_plan_id":"cebpf4jnsgd1na2vs0mg"},{"bike_id":"c1423339-d45e-44ee-95ab-7c4ee53d203c","system_id":"levelo_inurba_marseille","lat":43.32484,"lon":5.36571,"is_reserved":false,"is_disabled":true,"rental_uris":{"android":"levelo://app?vid=c1423339-d45e-44ee-95ab-7c4ee53d203c","ios":"levelo://app?vid=c1423339-d45e-44ee-95ab-7c4ee53d203c"},"vehicle_type_id":"4","last_reported":1747498257,"current_range_meters":800,"station_id":"ce4bhs12rcd13ifvqhvg","pricing_plan_id":"cebpf4jnsgd1na2vs0mg"},{"bike_id":"6baa7cc1-afe0-4998-95a9-221e61f6e6e4","system_id":"levelo_inurba_marseille","lat":43.29266,"lon":5.38437,"is_reserved":false,"is_disabled":true,"rental_uris":{"android":"levelo://app?vid=6baa7cc1-afe0-4998-95a9-221e61f6e6e4","ios":"levelo://app?vid=6baa7cc1-afe0-4998-95a9-221e61f6e6e4"},"vehicle_type_id":"4","last_reported":1747498257,"current_range_meters":1200,"station_id":"ce4bh692rcd13ifvqea0","pricing_plan_id":"cebpf4jnsgd1na2vs0mg"},{"bike_id":"d7496e60-57f4-427a-907d-df1d8187b3ad","system_id":"levelo_inurba_marseille","lat":43.28098,"lon":5.37835,"is_reserved":false,"is_disabled":true,"rental_uris":{"android":"levelo://app?vid=d7496e60-57f4-427a-907d-df1d8187b3ad","ios":"levelo://app?vid=d7496e60-57f4-427a-907d-df1d8187b3ad"},"vehicle_type_id":"4","last_reported":1747498257,"current_range_meters":1200,"station_id":"ce4bha12rcd13ifvqee0","pricing_plan_id":"cebpf4jnsgd1na2vs0mg"},{"bike_id":"013b517d-ec1d-41bb-892a-6294fd43bf74","system_id":"levelo_inurba_marseille","lat":43.26554,"lon":5.37289,"is_reserved":false,"is_disabled":true,"rental_uris":{"android":"levelo://app?vid=013b517d-ec1d-41bb-892a-6294fd43bf74","ios":"levelo://app?vid=013b517d-ec1d-41bb-892a-6294fd43bf74"},"vehicle_type_id":"4","last_reported":1747498257,"current_range_meters":1200,"station_id":"ce4bhg12rcd13ifvqf70","pricing_plan_id":"cebpf4jnsgd1na2vs0mg"},{"bike_id":"4aa00fdc-7ef6-4226-bece-6f014282fff9","system_id":"levelo_inurba_marseille","lat":43.27973,"lon":5.38744,"is_reserved":false,"is_disabled":true,"rental_uris":{"android":"levelo://app?vid=4aa00fdc-7ef6-4226-bece-6f014282fff9","ios":"levelo://app?vid=4aa00fdc-7ef6-4226-bece-6f014282fff9"},"vehicle_type_id":"4","last_reported":1747498257,"current_range_meters":1200,"station_id":"ce4bhg12rcd13ifvqf80","pricing_plan_id":"cebpf4jnsgd1na2vs0mg"},{"bike_id":"5bf8a215-8345-4b8b-b2f0-85c47311ac9f","system_id":"levelo_inurba_marseille","lat":43.261993,"lon":5.379308,"is_reserved":false,"is_disabled":true,"rental_uris":{"android":"levelo://app?vid=5bf8a215-8345-4b8b-b2f0-85c47311ac9f","ios":"levelo://app?vid=5bf8a215-8345-4b8b-b2f0-85c47311ac9f"},"vehicle_type_id":"4","last_reported":1747498257,"current_range_meters":1200,"station_id":"ce4bhjp2rcd13ifvqg90","pricing_plan_id":"cebpf4jnsgd1na2vs0mg"},{"bike_id":"6015fb1d-d2c3-4b00-8729-b530bcc7c023","system_id":"levelo_inurba_marseille","lat":43.27942,"lon":5.41039,"is_reserved":false,"is_disabled":true,"rental_uris":{"android":"levelo://app?vid=6015fb1d-d2c3-4b00-8729-b530bcc7c023","ios":"levelo://app?vid=6015fb1d-d2c3-4b00-8729-b530bcc7c023"},"vehicle_type_id":"4","last_reported":1747498257,"current_range_meters":1200,"station_id":"ce4bhnp2rcd13ifvqh0g","pricing_plan_id":"cebpf4jnsgd1na2vs0mg"},{"bike_id":"37f9717c-2181-40f7-af0e-df225dcc98ed","system_id":"levelo_inurba_marseille","lat":43.29535,"lon":5.38536,"is_reserved":false,"is_disabled":true,"rental_uris":{"android":"levelo://app?vid=37f9717c-2181-40f7-af0e-df225dcc98ed","ios":"levelo://app?vid=37f9717c-2181-40f7-af0e-df225dcc98ed"},"vehicle_type_id":"4","last_reported":1747498257,"current_range_meters":1600,"station_id":"ce4bgih2rcd13ifvqba0","pricing_plan_id":"cebpf4jnsgd1na2vs0mg"},{"bike_id":"1aed2c26-5dec-475f-8857-f8a50380d5ef","system_id":"levelo_inurba_marseille","lat":43.293772,"lon":5.378418,"is_reserved":false,"is_disabled":true,"rental_uris":{"android":"levelo://app?vid=1aed2c26-5dec-475f-8857-f8a50380d5ef","ios":"levelo://app?vid=1aed2c26-5dec-475f-8857-f8a50380d5ef"},"vehicle_type_id":"4","last_reported":1747498257,"current_range_meters":1600,"station_id":"ce4bgjh2rcd13ifvqbf0","pricing_plan_id":"cebpf4jnsgd1na2vs0mg"},{"bike_id":"3a20c63d-56b5-43ae-b842-eb3505db16b7","system_id":"levelo_inurba_marseille","lat":43.30191,"lon":5.36617,"is_reserved":false,"is_disabled":true,"rental_uris":{"android":"levelo://app?vid=3a20c63d-56b5-43ae-b842-eb3505db16b7","ios":"levelo://app?vid=3a20c63d-56b5-43ae-b842-eb3505db16b7"},"vehicle_type_id":"4","last_reported":1747498257,"current_range_meters":1600,"station_id":"ce4bgrh2rcd13ifvqc8g","pricing_plan_id":"cebpf4jnsgd1na2vs0mg"},{"bike_id":"169c67f6-ef97-4fb0-be43-eed8e250e400","system_id":"levelo_inurba_marseille","lat":43.28405,"lon":5.37509,"is_reserved":false,"is_disabled":true,"rental_uris":{"android":"levelo://app?vid=169c67f6-ef97-4fb0-be43-eed8e250e400","ios":"levelo://app?vid=169c67f6-ef97-4fb0-be43-eed8e250e400"},"vehicle_type_id":"4","last_reported":1747498257,"current_range_meters":1600,"station_id":"ce4bh412rcd13ifvqds0","pricing_plan_id":"cebpf4jnsgd1na2vs0mg"},{"bike_id":"15bdb2cb-60a0-4c42-8c18-0e6826a8f67b","system_id":"levelo_inurba_marseille","lat":43.27385,"lon":5.39426,"is_reserved":false,"is_disabled":true,"rental_uris":{"android":"levelo://app?vid=15bdb2cb-60a0-4c42-8c18-0e6826a8f67b","ios":"levelo://app?vid=15bdb2cb-60a0-4c42-8c18-0e6826a8f67b"},"vehicle_type_id":"4","last_reported":1747498257,"current_range_meters":1600,"station_id":"ce4bhdp2rcd13ifvqf20","pricing_plan_id":"cebpf4jnsgd1na2vs0mg"},{"bike_id":"f03cbb86-1380-4293-8567-f7212ddf3dc6","system_id":"levelo_inurba_marseille","lat":43.23168,"lon":5.43692,"is_reserved":false,"is_disabled":true,"rental_uris":{"android":"levelo://app?vid=f03cbb86-1380-4293-8567-f7212ddf3dc6","ios":"levelo://app?vid=f03cbb86-1380-4293-8567-f7212ddf3dc6"},"vehicle_type_id":"4","last_reported":1747498257,"current_range_meters":1600,"station_id":"ce4bhmp2rcd13ifvqgog","pricing_plan_id":"cebpf4jnsgd1na2vs0mg"},{"bike_id":"59f9598d-e110-4192-bc18-7a255f754535","system_id":"levelo_inurba_marseille","lat":43.21751,"lon":5.34607,"is_reserved":false,"is_disabled":true,"rental_uris":{"android":"levelo://app?vid=59f9598d-e110-4192-bc18-7a255f754535","ios":"levelo://app?vid=59f9598d-e110-4192-bc18-7a255f754535"},"vehicle_type_id":"4","last_reported":1747498257,"current_range_meters":1600,"station_id":"st_cvj6r9ubvosntc0bgbag","pricing_plan_id":"cebpf4jnsgd1na2vs0mg"},{"bike_id":"6ba37885-742c-4c5b-897b-a7ffadb0bff3","system_id":"levelo_inurba_marseille","lat":43.337444,"lon":5.374475,"is_reserved":false,"is_disabled":true,"rental_uris":{"android":"levelo://app?vid=6ba37885-742c-4c5b-897b-a7ffadb0bff3","ios":"levelo://app?vid=6ba37885-742c-4c5b-897b-a7ffadb0bff3"},"vehicle_type_id":"4","last_reported":1747498257,"current_range_meters":2000,"station_id":"","pricing_plan_id":"cebpf4jnsgd1na2vs0mg"},{"bike_id":"b977a0b3-dfbe-4843-9717-1f3ccd00ce0f","system_id":"levelo_inurba_marseille","lat":43.29968,"lon":5.38489,"is_reserved":false,"is_disabled":true,"rental_uris":{"android":"levelo://app?vid=b977a0b3-dfbe-4843-9717-1f3ccd00ce0f","ios":"levelo://app?vid=b977a0b3-dfbe-4843-9717-1f3ccd00ce0f"},"vehicle_type_id":"4","last_reported":1747498257,"current_range_meters":2000,"station_id":"ce4bgj92rcd13ifvqbd0","pricing_plan_id":"cebpf4jnsgd1na2vs0mg"},{"bike_id":"8370c799-72ad-4b72-894f-9d63c19687da","system_id":"levelo_inurba_marseille","lat":43.3095,"lon":5.3905,"is_reserved":false,"is_disabled":true,"rental_uris":{"android":"levelo://app?vid=8370c799-72ad-4b72-894f-9d63c19687da","ios":"levelo://app?vid=8370c799-72ad-4b72-894f-9d63c19687da"},"vehicle_type_id":"4","last_reported":1747498257,"current_range_meters":2000,"station_id":"ce4bgup2rcd13ifvqco0","pricing_plan_id":"cebpf4jnsgd1na2vs0mg"},{"bike_id":"0977b736-728c-4c53-b1a6-4f22b3ce3211","system_id":"levelo_inurba_marseille","lat":43.28677,"lon":5.38662,"is_reserved":false,"is_disabled":true,"rental_uris":{"android":"levelo://app?vid=0977b736-728c-4c53-b1a6-4f22b3ce3211","ios":"levelo://app?vid=0977b736-728c-4c53-b1a6-4f22b3ce3211"},"vehicle_type_id":"4","last_reported":1747498257,"current_range_meters":2000,"station_id":"ce4bh492rcd13ifvqdug","pricing_plan_id":"cebpf4jnsgd1na2vs0mg"},{"bike_id":"90bf68b7-e059-4efb-882c-d8ea9fe99a76","system_id":"levelo_inurba_marseille","lat":43.28669,"lon":5.38685,"is_reserved":false,"is_disabled":true,"rental_uris":{"android":"levelo://app?vid=90bf68b7-e059-4efb-882c-d8ea9fe99a76","ios":"levelo://app?vid=90bf68b7-e059-4efb-882c-d8ea9fe99a76"},"vehicle_type_id":"4","last_reported":1747498257,"current_range_meters":2000,"station_id":"ce4bh492rcd13ifvqdug","pricing_plan_id":"cebpf4jnsgd1na2vs0mg"},{"bike_id":"2a958d67-2215-4845-b69c-067f1fd6e2cd","system_id":"levelo_inurba_marseille","lat":43.2902,"lon":5.38142,"is_reserved":false,"is_disabled":true,"rental_uris":{"android":"levelo://app?vid=2a958d67-2215-4845-b69c-067f1fd6e2cd","ios":"levelo://app?vid=2a958d67-2215-4845-b69c-067f1fd6e2cd"},"vehicle_type_id":"4","last_reported":1747498257,"current_range_meters":2000,"station_id":"ce4bh4p2rcd13ifvqe1g","pricing_plan_id":"cebpf4jnsgd1na2vs0mg"},{"bike_id":"9d77f100-3653-49ce-ab23-1257eae17e11","system_id":"levelo_inurba_marseille","lat":43.26574,"lon":5.37299,"is_reserved":false,"is_disabled":true,"rental_uris":{"android":"levelo://app?vid=9d77f100-3653-49ce-ab23-1257eae17e11","ios":"levelo://app?vid=9d77f100-3653-49ce-ab23-1257eae17e11"},"vehicle_type_id":"4","last_reported":1747498257,"current_range_meters":2000,"station_id":"ce4bhg12rcd13ifvqf70","pricing_plan_id":"cebpf4jnsgd1na2vs0mg"},{"bike_id":"39f663ba-1318-4d5f-ba97-0055c8c56cae","system_id":"levelo_inurba_marseille","lat":43.27676,"lon":5.38933,"is_reserved":false,"is_disabled":true,"rental_uris":{"android":"levelo://app?vid=39f663ba-1318-4d5f-ba97-0055c8c56cae","ios":"levelo://app?vid=39f663ba-1318-4d5f-ba97-0055c8c56cae"},"vehicle_type_id":"4","last_reported":1747498257,"current_range_meters":2000,"station_id":"ce4bhi12rcd13ifvqfo0","pricing_plan_id":"cebpf4jnsgd1na2vs0mg"},{"bike_id":"3a13e63e-9a54-4119-97c7-372d0440abb2","system_id":"levelo_inurba_marseille","lat":43.2784,"lon":5.3921,"is_reserved":false,"is_disabled":true,"rental_uris":{"android":"levelo://app?vid=3a13e63e-9a54-4119-97c7-372d0440abb2","ios":"levelo://app?vid=3a13e63e-9a54-4119-97c7-372d0440abb2"},"vehicle_type_id":"4","last_reported":1747498257,"current_range_meters":2000,"station_id":"ce4bhjp2rcd13ifvqga0","pricing_plan_id":"cebpf4jnsgd1na2vs0mg"},{"bike_id":"79dcb8f2-beca-4cd9-b7ad-1d67eb623263","system_id":"levelo_inurba_marseille","lat":43.23194,"lon":5.35547,"is_reserved":false,"is_disabled":true,"rental_uris":{"android":"levelo://app?vid=79dcb8f2-beca-4cd9-b7ad-1d67eb623263","ios":"levelo://app?vid=79dcb8f2-beca-4cd9-b7ad-1d67eb623263"},"vehicle_type_id":"4","last_reported":1747498257,"current_range_meters":2000,"station_id":"ce4bhu92rcd13ifvqi70","pricing_plan_id":"cebpf4jnsgd1na2vs0mg"},{"bike_id":"5c9df852-dfb8-4a0b-a2a0-b18c41d325d0","system_id":"levelo_inurba_marseille","lat":43.27678,"lon":5.38885,"is_reserved":false,"is_disabled":false,"rental_uris":{"android":"levelo://app?vid=5c9df852-dfb8-4a0b-a2a0-b18c41d325d0","ios":"levelo://app?vid=5c9df852-dfb8-4a0b-a2a0-b18c41d325d0"},"vehicle_type_id":"4","last_reported":1747498257,"current_range_meters":2800,"station_id":"ce4bhi12rcd13ifvqfo0","pricing_plan_id":"cebpf4jnsgd1na2vs0mg"},{"bike_id":"0436a281-c3fb-4a37-a3bb-dc005370faa6","system_id":"levelo_inurba_marseille","lat":43.276705,"lon":5.38942,"is_reserved":false,"is_disabled":false,"rental_uris":{"android":"levelo://app?vid=0436a281-c3fb-4a37-a3bb-dc005370faa6","ios":"levelo://app?vid=0436a281-c3fb-4a37-a3bb-dc005370faa6"},"vehicle_type_id":"4","last_reported":1747498257,"current_range_meters":2800,"station_id":"ce4bhi12rcd13ifvqfo0","pricing_plan_id":"cebpf4jnsgd1na2vs0mg"},{"bike_id":"2788d2d4-f7f7-4036-8bc7-8a599ce1f7d8","system_id":"levelo_inurba_marseille","lat":43.30148,"lon":5.38082,"is_reserved":false,"is_disabled":false,"rental_uris":{"android":"levelo://app?vid=2788d2d4-f7f7-4036-8bc7-8a599ce1f7d8","ios":"levelo://app?vid=2788d2d4-f7f7-4036-8bc7-8a599ce1f7d8"},"vehicle_type_id":"4","last_reported":1747498257,"current_range_meters":3200,"station_id":"ce4bgjp2rcd13ifvqbh0","pricing_plan_id":"cebpf4jnsgd1na2vs0mg"},{"bike_id":"c25ce229-9bbc-4be0-990e-caf8eef79436","system_id":"levelo_inurba_marseille","lat":43.30216,"lon":5.394639,"is_reserved":false,"is_disabled":false,"rental_uris":{"android":"levelo://app?vid=c25ce229-9bbc-4be0-990e-caf8eef79436","ios":"levelo://app?vid=c25ce229-9bbc-4be0-990e-caf8eef79436"},"vehicle_type_id":"4","last_reported":1747498257,"current_range_meters":3200,"station_id":"ce4bh0h2rcd13ifvqd40","pricing_plan_id":"cebpf4jnsgd1na2vs0mg"},{"bike_id":"807dc87d-4db2-466f-8270-4e78969d2109","system_id":"levelo_inurba_marseille","lat":43.30128,"lon":5.39873,"is_reserved":false,"is_disabled":false,"rental_uris":{"android":"levelo://app?vid=807dc87d-4db2-466f-8270-4e78969d2109","ios":"levelo://app?vid=807dc87d-4db2-466f-8270-4e78969d2109"},"vehicle_type_id":"4","last_reported":1747498257,"current_range_meters":3200,"station_id":"ce4bh0h2rcd13ifvqd40","pricing_plan_id":"cebpf4jnsgd1na2vs0mg"},{"bike_id":"b5188ae8-bedb-4e0f-913d-5733454992f7","system_id":"levelo_inurba_marseille","lat":43.28476,"lon":5.38417,"is_reserved":false,"is_disabled":false,"rental_uris":{"android":"levelo://app?vid=b5188ae8-bedb-4e0f-913d-5733454992f7","ios":"levelo://app?vid=b5188ae8-bedb-4e0f-913d-5733454992f7"},"vehicle_type_id":"4","last_reported":1747498257,"current_range_meters":3200,"station_id":"ce4bh512rcd13ifvqe3g","pricing_plan_id":"cebpf4jnsgd1na2vs0mg"},{"bike_id":"d06a81f7-6bbe-4687-bfbe-932949dc466c","system_id":"levelo_inurba_marseille","lat":43.26122,"lon":5.38715,"is_reserved":false,"is_disabled":false,"rental_uris":{"android":"levelo://app?vid=d06a81f7-6bbe-4687-bfbe-932949dc466c","ios":"levelo://app?vid=d06a81f7-6bbe-4687-bfbe-932949dc466c"},"vehicle_type_id":"4","last_reported":1747498257,"current_range_meters":3600,"station_id":"","pricing_plan_id":"cebpf4jnsgd1na2vs0mg"},{"bike_id":"59934285-0787-4cd4-88d1-3f935f1d5a3b","system_id":"levelo_inurba_marseille","lat":43.25478,"lon":5.40471,"is_reserved":false,"is_disabled":false,"rental_uris":{"android":"levelo://app?vid=59934285-0787-4cd4-88d1-3f935f1d5a3b","ios":"levelo://app?vid=59934285-0787-4cd4-88d1-3f935f1d5a3b"},"vehicle_type_id":"4","last_reported":1747498257,"current_range_meters":3600,"station_id":"","pricing_plan_id":"cebpf4jnsgd1na2vs0mg"},{"bike_id":"754484a1-7ccb-4961-b445-ac486eea35c8","system_id":"levelo_inurba_marseille","lat":43.23194,"lon":5.35597,"is_reserved":false,"is_disabled":false,"rental_uris":{"android":"levelo://app?vid=754484a1-7ccb-4961-b445-ac486eea35c8","ios":"levelo://app?vid=754484a1-7ccb-4961-b445-ac486eea35c8"},"vehicle_type_id":"4","last_reported":1747498257,"current_range_meters":3600,"station_id":"ce4bhu92rcd13ifvqi70","pricing_plan_id":"cebpf4jnsgd1na2vs0mg"},{"bike_id":"3f5d3576-75a1-4644-a4bb-d1c48565c2d2","system_id":"levelo_inurba_marseille","lat":43.28727,"lon":5.36093,"is_reserved":false,"is_disabled":false,"rental_uris":{"android":"levelo://app?vid=3f5d3576-75a1-4644-a4bb-d1c48565c2d2","ios":"levelo://app?vid=3f5d3576-75a1-4644-a4bb-d1c48565c2d2"},"vehicle_type_id":"4","last_reported":1747498257,"current_range_meters":3600,"station_id":"cki0cbj6b192h4jlfktg","pricing_plan_id":"cebpf4jnsgd1na2vs0mg"},{"bike_id":"79014c20-9fb3-4bde-888f-87cd4445595a","system_id":"levelo_inurba_marseille","lat":43.31768,"lon":5.42702,"is_reserved":false,"is_disabled":false,"rental_uris":{"android":"levelo://app?vid=79014c20-9fb3-4bde-888f-87cd4445595a","ios":"levelo://app?vid=79014c20-9fb3-4bde-888f-87cd4445595a"},"vehicle_type_id":"4","last_reported":1747498257,"current_range_meters":4000,"station_id":"","pricing_plan_id":"cebpf4jnsgd1na2vs0mg"},{"bike_id":"dc88277c-d683-4713-ac15-4cc2c52f52b6","system_id":"levelo_inurba_marseille","lat":43.31488,"lon":5.37309,"is_reserved":false,"is_disabled":false,"rental_uris":{"android":"levelo://app?vid=dc88277c-d683-4713-ac15-4cc2c52f52b6","ios":"levelo://app?vid=dc88277c-d683-4713-ac15-4cc2c52f52b6"},"vehicle_type_id":"4","last_reported":1747498257,"current_range_meters":4000,"station_id":"ce4bgt12rcd13ifvqcd0","pricing_plan_id":"cebpf4jnsgd1na2vs0mg"},{"bike_id":"71492fb0-89eb-46c9-9c93-172cbfe16c36","system_id":"levelo_inurba_marseille","lat":43.29796,"lon":5.40402,"is_reserved":false,"is_disabled":true,"rental_uris":{"android":"levelo://app?vid=71492fb0-89eb-46c9-9c93-172cbfe16c36","ios":"levelo://app?vid=71492fb0-89eb-46c9-9c93-172cbfe16c36"},"vehicle_type_id":"4","last_reported":1747498257,"current_range_meters":4000,"station_id":"ce4bh112rcd13ifvqd90","pricing_plan_id":"cebpf4jnsgd1na2vs0mg"},{"bike_id":"98a043e8-7e18-4326-8c85-ed079032683f","system_id":"levelo_inurba_marseille","lat":43.29033,"lon":5.39967,"is_reserved":false,"is_disabled":false,"rental_uris":{"android":"levelo://app?vid=98a043e8-7e18-4326-8c85-ed079032683f","ios":"levelo://app?vid=98a043e8-7e18-4326-8c85-ed079032683f"},"vehicle_type_id":"4","last_reported":1747498257,"current_range_meters":4000,"station_id":"ce4bh392rcd13ifvqdm0","pricing_plan_id":"cebpf4jnsgd1na2vs0mg"},{"bike_id":"5d995314-1000-418e-b3c0-d343ad152605","system_id":"levelo_inurba_marseille","lat":43.28485,"lon":5.38426,"is_reserved":false,"is_disabled":false,"rental_uris":{"android":"levelo://app?vid=5d995314-1000-418e-b3c0-d343ad152605","ios":"levelo://app?vid=5d995314-1000-418e-b3c0-d343ad152605"},"vehicle_type_id":"4","last_reported":1747498257,"current_range_meters":4000,"station_id":"ce4bh512rcd13ifvqe3g","pricing_plan_id":"cebpf4jnsgd1na2vs0mg"},{"bike_id":"a8254a85-ce7f-450e-838a-87d02721207d","system_id":"levelo_inurba_marseille","lat":43.24181,"lon":5.39735,"is_reserved":false,"is_disabled":false,"rental_uris":{"android":"levelo://app?vid=a8254a85-ce7f-450e-838a-87d02721207d","ios":"levelo://app?vid=a8254a85-ce7f-450e-838a-87d02721207d"},"vehicle_type_id":"4","last_reported":1747498257,"current_range_meters":4000,"station_id":"ce4bhn12rcd13ifvqgpg","pricing_plan_id":"cebpf4jnsgd1na2vs0mg"},{"bike_id":"10f0e90f-30fd-43a9-9eda-d70b32e51d4a","system_id":"levelo_inurba_marseille","lat":43.31157,"lon":5.38725,"is_reserved":false,"is_disabled":false,"rental_uris":{"android":"levelo://app?vid=10f0e90f-30fd-43a9-9eda-d70b32e51d4a","ios":"levelo://app?vid=10f0e90f-30fd-43a9-9eda-d70b32e51d4a"},"vehicle_type_id":"4","last_reported":1747498257,"current_range_meters":4400,"station_id":"ce4bgv12rcd13ifvqcp0","pricing_plan_id":"cebpf4jnsgd1na2vs0mg"},{"bike_id":"50bbddd4-3f16-4440-8cd7-cd6374368314","system_id":"levelo_inurba_marseille","lat":43.26033,"lon":5.37553,"is_reserved":false,"is_disabled":false,"rental_uris":{"android":"levelo://app?vid=50bbddd4-3f16-4440-8cd7-cd6374368314","ios":"levelo://app?vid=50bbddd4-3f16-4440-8cd7-cd6374368314"},"vehicle_type_id":"4","last_reported":1747498257,"current_range_meters":4400,"station_id":"ce4bhgh2rcd13ifvqfa0","pricing_plan_id":"cebpf4jnsgd1na2vs0mg"},{"bike_id":"73b6045e-3707-4d5d-b7cd-dbc04a81fa45","system_id":"levelo_inurba_marseille","lat":43.2558,"lon":5.38233,"is_reserved":false,"is_disabled":false,"rental_uris":{"android":"levelo://app?vid=73b6045e-3707-4d5d-b7cd-dbc04a81fa45","ios":"levelo://app?vid=73b6045e-3707-4d5d-b7cd-dbc04a81fa45"},"vehicle_type_id":"4","last_reported":1747498257,"current_range_meters":4400,"station_id":"ce4bhih2rcd13ifvqfs0","pricing_plan_id":"cebpf4jnsgd1na2vs0mg"},{"bike_id":"713c4e39-40af-4efe-b1f0-eb89c480ee2b","system_id":"levelo_inurba_marseille","lat":43.26934,"lon":5.40255,"is_reserved":false,"is_disabled":false,"rental_uris":{"android":"levelo://app?vid=713c4e39-40af-4efe-b1f0-eb89c480ee2b","ios":"levelo://app?vid=713c4e39-40af-4efe-b1f0-eb89c480ee2b"},"vehicle_type_id":"4","last_reported":1747498257,"current_range_meters":4400,"station_id":"cjm6bp8fraef2m0cb0m0","pricing_plan_id":"cebpf4jnsgd1na2vs0mg"},{"bike_id":"c6737081-d569-4c89-bf40-57c1803c9810","system_id":"levelo_inurba_marseille","lat":43.28856,"lon":5.39313,"is_reserved":false,"is_disabled":false,"rental_uris":{"android":"levelo://app?vid=c6737081-d569-4c89-bf40-57c1803c9810","ios":"levelo://app?vid=c6737081-d569-4c89-bf40-57c1803c9810"},"vehicle_type_id":"4","last_reported":1747498257,"current_range_meters":4800,"station_id":"ce4bh2p2rcd13ifvqdi0","pricing_plan_id":"cebpf4jnsgd1na2vs0mg"},{"bike_id":"2c53b24a-7e31-4f7a-83a4-b659ced9b050","system_id":"levelo_inurba_marseille","lat":43.29286,"lon":5.36848,"is_reserved":false,"is_disabled":false,"rental_uris":{"android":"levelo://app?vid=2c53b24a-7e31-4f7a-83a4-b659ced9b050","ios":"levelo://app?vid=2c53b24a-7e31-4f7a-83a4-b659ced9b050"},"vehicle_type_id":"4","last_reported":1747498257,"current_range_meters":4800,"station_id":"ce4bhbp2rcd13ifvqesg","pricing_plan_id":"cebpf4jnsgd1na2vs0mg"},{"bike_id":"bb46d1ad-b308-47a0-a469-361e5bb9ecc0","system_id":"levelo_inurba_marseille","lat":43.26031,"lon":5.37551,"is_reserved":false,"is_disabled":false,"rental_uris":{"android":"levelo://app?vid=bb46d1ad-b308-47a0-a469-361e5bb9ecc0","ios":"levelo://app?vid=bb46d1ad-b308-47a0-a469-361e5bb9ecc0"},"vehicle_type_id":"4","last_reported":1747498257,"current_range_meters":4800,"station_id":"ce4bhgh2rcd13ifvqfa0","pricing_plan_id":"cebpf4jnsgd1na2vs0mg"},{"bike_id":"bb71bc22-1b49-412e-ab7b-9785f5125406","system_id":"levelo_inurba_marseille","lat":43.25587,"lon":5.38245,"is_reserved":false,"is_disabled":false,"rental_uris":{"android":"levelo://app?vid=bb71bc22-1b49-412e-ab7b-9785f5125406","ios":"levelo://app?vid=bb71bc22-1b49-412e-ab7b-9785f5125406"},"vehicle_type_id":"4","last_reported":1747498257,"current_range_meters":4800,"station_id":"ce4bhih2rcd13ifvqfs0","pricing_plan_id":"cebpf4jnsgd1na2vs0mg"},{"bike_id":"aa1ae139-2149-478d-a6a3-d27055457080","system_id":"levelo_inurba_marseille","lat":43.30943,"lon":5.39031,"is_reserved":false,"is_disabled":false,"rental_uris":{"android":"levelo://app?vid=aa1ae139-2149-478d-a6a3-d27055457080","ios":"levelo://app?vid=aa1ae139-2149-478d-a6a3-d27055457080"},"vehicle_type_id":"4","last_reported":1747498257,"current_range_meters":5600,"station_id":"ce4bgup2rcd13ifvqco0","pricing_plan_id":"cebpf4jnsgd1na2vs0mg"},{"bike_id":"3ed8d51b-989e-4c22-a0bb-dbb971c76a08","system_id":"levelo_inurba_marseille","lat":43.27362,"lon":5.36251,"is_reserved":false,"is_disabled":false,"rental_uris":{"android":"levelo://app?vid=3ed8d51b-989e-4c22-a0bb-dbb971c76a08","ios":"levelo://app?vid=3ed8d51b-989e-4c22-a0bb-dbb971c76a08"},"vehicle_type_id":"4","last_reported":1747498257,"current_range_meters":5600,"station_id":"ce4bhbh2rcd13ifvqeo0","pricing_plan_id":"cebpf4jnsgd1na2vs0mg"},{"bike_id":"cf4d1263-2a6a-4084-9849-089573941fe4","system_id":"levelo_inurba_marseille","lat":43.28419,"lon":5.34985,"is_reserved":false,"is_disabled":false,"rental_uris":{"android":"levelo://app?vid=cf4d1263-2a6a-4084-9849-089573941fe4","ios":"levelo://app?vid=cf4d1263-2a6a-4084-9849-089573941fe4"},"vehicle_type_id":"4","last_reported":1747498257,"current_range_meters":5600,"station_id":"ce4bhbh2rcd13ifvqepg","pricing_plan_id":"cebpf4jnsgd1na2vs0mg"},{"bike_id":"55fb771a-6e76-45c4-a9b7-cda97a0011d0","system_id":"levelo_inurba_marseille","lat":43.28685,"lon":5.38318,"is_reserved":false,"is_disabled":false,"rental_uris":{"android":"levelo://app?vid=55fb771a-6e76-45c4-a9b7-cda97a0011d0","ios":"levelo://app?vid=55fb771a-6e76-45c4-a9b7-cda97a0011d0"},"vehicle_type_id":"4","last_reported":1747498257,"current_range_meters":6000,"station_id":"","pricing_plan_id":"cebpf4jnsgd1na2vs0mg"},{"bike_id":"76b5604e-45c5-4fc6-ad03-667eaf3a0cbb","system_id":"levelo_inurba_marseille","lat":43.27609,"lon":5.36143,"is_reserved":false,"is_disabled":false,"rental_uris":{"android":"levelo://app?vid=76b5604e-45c5-4fc6-ad03-667eaf3a0cbb","ios":"levelo://app?vid=76b5604e-45c5-4fc6-ad03-667eaf3a0cbb"},"vehicle_type_id":"4","last_reported":1747498257,"current_range_meters":6000,"station_id":"ce4bgj92rcd13ifvqbe0","pricing_plan_id":"cebpf4jnsgd1na2vs0mg"},{"bike_id":"d6711568-67cf-4a50-8e73-33e42e76fcfd","system_id":"levelo_inurba_marseille","lat":43.29723,"lon":5.37695,"is_reserved":false,"is_disabled":false,"rental_uris":{"android":"levelo://app?vid=d6711568-67cf-4a50-8e73-33e42e76fcfd","ios":"levelo://app?vid=d6711568-67cf-4a50-8e73-33e42e76fcfd"},"vehicle_type_id":"4","last_reported":1747498257,"current_range_meters":6000,"station_id":"ce4bgkh2rcd13ifvqbl0","pricing_plan_id":"cebpf4jnsgd1na2vs0mg"},{"bike_id":"85133ebe-62bc-419d-920c-070b49000b97","system_id":"levelo_inurba_marseille","lat":43.29841,"lon":5.3627,"is_reserved":false,"is_disabled":false,"rental_uris":{"android":"levelo://app?vid=85133ebe-62bc-419d-920c-070b49000b97","ios":"levelo://app?vid=85133ebe-62bc-419d-920c-070b49000b97"},"vehicle_type_id":"4","last_reported":1747498257,"current_range_meters":6000,"station_id":"ce4bgpp2rcd13ifvqc3g","pricing_plan_id":"cebpf4jnsgd1na2vs0mg"},{"bike_id":"92732c59-31dc-42a1-b608-e48d054c5114","system_id":"levelo_inurba_marseille","lat":43.31077,"lon":5.38354,"is_reserved":false,"is_disabled":false,"rental_uris":{"android":"levelo://app?vid=92732c59-31dc-42a1-b608-e48d054c5114","ios":"levelo://app?vid=92732c59-31dc-42a1-b608-e48d054c5114"},"vehicle_type_id":"4","last_reported":1747498257,"current_range_meters":6000,"station_id":"ce4bgv92rcd13ifvqcr0","pricing_plan_id":"cebpf4jnsgd1na2vs0mg"},{"bike_id":"7ee3ad68-28ad-428f-8999-4b73cbc1cd52","system_id":"levelo_inurba_marseille","lat":43.29259,"lon":5.40902,"is_reserved":false,"is_disabled":false,"rental_uris":{"android":"levelo://app?vid=7ee3ad68-28ad-428f-8999-4b73cbc1cd52","ios":"levelo://app?vid=7ee3ad68-28ad-428f-8999-4b73cbc1cd52"},"vehicle_type_id":"4","last_reported":1747498257,"current_range_meters":6000,"station_id":"ce4bh192rcd13ifvqdc0","pricing_plan_id":"cebpf4jnsgd1na2vs0mg"},{"bike_id":"0a312e86-30fb-41c7-bc98-99122e66a78a","system_id":"levelo_inurba_marseille","lat":43.26032,"lon":5.37551,"is_reserved":false,"is_disabled":false,"rental_uris":{"android":"levelo://app?vid=0a312e86-30fb-41c7-bc98-99122e66a78a","ios":"levelo://app?vid=0a312e86-30fb-41c7-bc98-99122e66a78a"},"vehicle_type_id":"4","last_reported":1747498257,"current_range_meters":6000,"station_id":"ce4bhgh2rcd13ifvqfa0","pricing_plan_id":"cebpf4jnsgd1na2vs0mg"},{"bike_id":"0149a113-1782-4966-a3f2-f87938473b26","system_id":"levelo_inurba_marseille","lat":43.298,"lon":5.39342,"is_reserved":false,"is_disabled":false,"rental_uris":{"android":"levelo://app?vid=0149a113-1782-4966-a3f2-f87938473b26","ios":"levelo://app?vid=0149a113-1782-4966-a3f2-f87938473b26"},"vehicle_type_id":"4","last_reported":1747498257,"current_range_meters":6000,"station_id":"chh1huq6cuj3fo74tm60","pricing_plan_id":"cebpf4jnsgd1na2vs0mg"},{"bike_id":"8dd21c04-44cf-4579-aa5a-ad6e565e97fd","system_id":"levelo_inurba_marseille","lat":43.29851,"lon":5.36285,"is_reserved":false,"is_disabled":false,"rental_uris":{"android":"levelo://app?vid=8dd21c04-44cf-4579-aa5a-ad6e565e97fd","ios":"levelo://app?vid=8dd21c04-44cf-4579-aa5a-ad6e565e97fd"},"vehicle_type_id":"4","last_reported":1747498257,"current_range_meters":6400,"station_id":"ce4bgpp2rcd13ifvqc3g","pricing_plan_id":"cebpf4jnsgd1na2vs0mg"},{"bike_id":"9e169e66-d54b-4d50-9550-9c0ab45aece4","system_id":"levelo_inurba_marseille","lat":43.28358,"lon":5.3811,"is_reserved":false,"is_disabled":false,"rental_uris":{"android":"levelo://app?vid=9e169e66-d54b-4d50-9550-9c0ab45aece4","ios":"levelo://app?vid=9e169e66-d54b-4d50-9550-9c0ab45aece4"},"vehicle_type_id":"4","last_reported":1747498257,"current_range_meters":6400,"station_id":"ce4bh412rcd13ifvqdr0","pricing_plan_id":"cebpf4jnsgd1na2vs0mg"},{"bike_id":"38e02481-61bb-40fa-b7cd-02594c5f9659","system_id":"levelo_inurba_marseille","lat":43.26568,"lon":5.39009,"is_reserved":false,"is_disabled":false,"rental_uris":{"android":"levelo://app?vid=38e02481-61bb-40fa-b7cd-02594c5f9659","ios":"levelo://app?vid=38e02481-61bb-40fa-b7cd-02594c5f9659"},"vehicle_type_id":"4","last_reported":1747498257,"current_range_meters":6400,"station_id":"ce4bhe12rcd13ifvqf30","pricing_plan_id":"cebpf4jnsgd1na2vs0mg"},{"bike_id":"6461b8b4-1fbc-4aac-89a0-fa8b8318b197","system_id":"levelo_inurba_marseille","lat":43.26196,"lon":5.37446,"is_reserved":false,"is_disabled":false,"rental_uris":{"android":"levelo://app?vid=6461b8b4-1fbc-4aac-89a0-fa8b8318b197","ios":"levelo://app?vid=6461b8b4-1fbc-4aac-89a0-fa8b8318b197"},"vehicle_type_id":"4","last_reported":1747498257,"current_range_meters":6400,"station_id":"ce4bhgp2rcd13ifvqfc0","pricing_plan_id":"cebpf4jnsgd1na2vs0mg"},{"bike_id":"82bf978c-de9c-4473-904d-a27e5d635bb4","system_id":"levelo_inurba_marseille","lat":43.23206,"lon":5.35543,"is_reserved":false,"is_disabled":false,"rental_uris":{"android":"levelo://app?vid=82bf978c-de9c-4473-904d-a27e5d635bb4","ios":"levelo://app?vid=82bf978c-de9c-4473-904d-a27e5d635bb4"},"vehicle_type_id":"4","last_reported":1747498257,"current_range_meters":6400,"station_id":"ce4bhu92rcd13ifvqi70","pricing_plan_id":"cebpf4jnsgd1na2vs0mg"},{"bike_id":"fc21894f-cf00-4fb7-89b3-490da9657dda","system_id":"levelo_inurba_marseille","lat":43.23199,"lon":5.35569,"is_reserved":false,"is_disabled":false,"rental_uris":{"android":"levelo://app?vid=fc21894f-cf00-4fb7-89b3-490da9657dda","ios":"levelo://app?vid=fc21894f-cf00-4fb7-89b3-490da9657dda"},"vehicle_type_id":"4","last_reported":1747498257,"current_range_meters":6400,"station_id":"ce4bhu92rcd13ifvqi70","pricing_plan_id":"cebpf4jnsgd1na2vs0mg"},{"bike_id":"a81c4f06-f5c8-4285-bdfd-db1e7f91a004","system_id":"levelo_inurba_marseille","lat":43.2957,"lon":5.37535,"is_reserved":false,"is_disabled":false,"rental_uris":{"android":"levelo://app?vid=a81c4f06-f5c8-4285-bdfd-db1e7f91a004","ios":"levelo://app?vid=a81c4f06-f5c8-4285-bdfd-db1e7f91a004"},"vehicle_type_id":"4","last_reported":1747498257,"current_range_meters":6800,"station_id":"ce4bgh92rcd13ifvqb50","pricing_plan_id":"cebpf4jnsgd1na2vs0mg"},{"bike_id":"89320011-f78b-49dc-a785-2d3b8d73a35f","system_id":"levelo_inurba_marseille","lat":43.30604,"lon":5.37229,"is_reserved":false,"is_disabled":false,"rental_uris":{"android":"levelo://app?vid=89320011-f78b-49dc-a785-2d3b8d73a35f","ios":"levelo://app?vid=89320011-f78b-49dc-a785-2d3b8d73a35f"},"vehicle_type_id":"4","last_reported":1747498257,"current_range_meters":6800,"station_id":"ce4bgqh2rcd13ifvqc4g","pricing_plan_id":"cebpf4jnsgd1na2vs0mg"},{"bike_id":"a1405b61-dfa4-4ca3-b3b0-504fd6eb2514","system_id":"levelo_inurba_marseille","lat":43.31707,"lon":5.37736,"is_reserved":false,"is_disabled":false,"rental_uris":{"android":"levelo://app?vid=a1405b61-dfa4-4ca3-b3b0-504fd6eb2514","ios":"levelo://app?vid=a1405b61-dfa4-4ca3-b3b0-504fd6eb2514"},"vehicle_type_id":"4","last_reported":1747498257,"current_range_meters":6800,"station_id":"ce4bgth2rcd13ifvqch0","pricing_plan_id":"cebpf4jnsgd1na2vs0mg"},{"bike_id":"4e48d323-f51b-4488-a491-ac3e9c17b2b3","system_id":"levelo_inurba_marseille","lat":43.29531,"lon":5.39048,"is_reserved":false,"is_disabled":false,"rental_uris":{"android":"levelo://app?vid=4e48d323-f51b-4488-a491-ac3e9c17b2b3","ios":"levelo://app?vid=4e48d323-f51b-4488-a491-ac3e9c17b2b3"},"vehicle_type_id":"4","last_reported":1747498257,"current_range_meters":6800,"station_id":"ce4bh3p2rcd13ifvqdp0","pricing_plan_id":"cebpf4jnsgd1na2vs0mg"},{"bike_id":"7444d669-62f7-4625-9807-feef13fd76c5","system_id":"levelo_inurba_marseille","lat":43.27069,"lon":5.42281,"is_reserved":false,"is_disabled":false,"rental_uris":{"android":"levelo://app?vid=7444d669-62f7-4625-9807-feef13fd76c5","ios":"levelo://app?vid=7444d669-62f7-4625-9807-feef13fd76c5"},"vehicle_type_id":"4","last_reported":1747498257,"current_range_meters":6800,"station_id":"ce4bhk92rcd13ifvqgb0","pricing_plan_id":"cebpf4jnsgd1na2vs0mg"},{"bike_id":"482cba80-d5cb-4850-8e9f-c4dcad902434","system_id":"levelo_inurba_marseille","lat":43.27814,"lon":5.40717,"is_reserved":false,"is_disabled":false,"rental_uris":{"android":"levelo://app?vid=482cba80-d5cb-4850-8e9f-c4dcad902434","ios":"levelo://app?vid=482cba80-d5cb-4850-8e9f-c4dcad902434"},"vehicle_type_id":"4","last_reported":1747498257,"current_range_meters":6800,"station_id":"ce4bhnh2rcd13ifvqgtg","pricing_plan_id":"cebpf4jnsgd1na2vs0mg"},{"bike_id":"6e612e7b-28be-478c-9618-97651a5de57b","system_id":"levelo_inurba_marseille","lat":43.24679,"lon":5.39564,"is_reserved":false,"is_disabled":false,"rental_uris":{"android":"levelo://app?vid=6e612e7b-28be-478c-9618-97651a5de57b","ios":"levelo://app?vid=6e612e7b-28be-478c-9618-97651a5de57b"},"vehicle_type_id":"4","last_reported":1747498257,"current_range_meters":7200,"station_id":"","pricing_plan_id":"cebpf4jnsgd1na2vs0mg"},{"bike_id":"29976084-e4f3-4497-8d6b-249c4b244a89","system_id":"levelo_inurba_marseille","lat":43.30316,"lon":5.36896,"is_reserved":false,"is_disabled":false,"rental_uris":{"android":"levelo://app?vid=29976084-e4f3-4497-8d6b-249c4b244a89","ios":"levelo://app?vid=29976084-e4f3-4497-8d6b-249c4b244a89"},"vehicle_type_id":"4","last_reported":1747498257,"current_range_meters":7200,"station_id":"ce4bgqh2rcd13ifvqc5g","pricing_plan_id":"cebpf4jnsgd1na2vs0mg"},{"bike_id":"b189c23c-c3a7-43a7-8baa-4841fa282fa7","system_id":"levelo_inurba_marseille","lat":43.29041,"lon":5.37586,"is_reserved":false,"is_disabled":false,"rental_uris":{"android":"levelo://app?vid=b189c23c-c3a7-43a7-8baa-4841fa282fa7","ios":"levelo://app?vid=b189c23c-c3a7-43a7-8baa-4841fa282fa7"},"vehicle_type_id":"4","last_reported":1747498257,"current_range_meters":7200,"station_id":"ce4bh692rcd13ifvqe90","pricing_plan_id":"cebpf4jnsgd1na2vs0mg"},{"bike_id":"b9b2a1e8-dc7d-4b82-80b7-5d071bfa1c86","system_id":"levelo_inurba_marseille","lat":43.27397,"lon":5.36264,"is_reserved":false,"is_disabled":false,"rental_uris":{"android":"levelo://app?vid=b9b2a1e8-dc7d-4b82-80b7-5d071bfa1c86","ios":"levelo://app?vid=b9b2a1e8-dc7d-4b82-80b7-5d071bfa1c86"},"vehicle_type_id":"4","last_reported":1747498257,"current_range_meters":7200,"station_id":"ce4bhbh2rcd13ifvqeo0","pricing_plan_id":"cebpf4jnsgd1na2vs0mg"},{"bike_id":"9bc2d67b-f0e7-4171-be6a-2e6109861513","system_id":"levelo_inurba_marseille","lat":43.262523,"lon":5.374625,"is_reserved":false,"is_disabled":false,"rental_uris":{"android":"levelo://app?vid=9bc2d67b-f0e7-4171-be6a-2e6109861513","ios":"levelo://app?vid=9bc2d67b-f0e7-4171-be6a-2e6109861513"},"vehicle_type_id":"4","last_reported":1747498257,"current_range_meters":7200,"station_id":"ce4bhgp2rcd13ifvqfc0","pricing_plan_id":"cebpf4jnsgd1na2vs0mg"},{"bike_id":"01d96416-aa1a-47f4-83a3-67fedd83ce0f","system_id":"levelo_inurba_marseille","lat":43.24071,"lon":5.37766,"is_reserved":false,"is_disabled":false,"rental_uris":{"android":"levelo://app?vid=01d96416-aa1a-47f4-83a3-67fedd83ce0f","ios":"levelo://app?vid=01d96416-aa1a-47f4-83a3-67fedd83ce0f"},"vehicle_type_id":"4","last_reported":1747498257,"current_range_meters":7200,"station_id":"ce4bhnp2rcd13ifvqgvg","pricing_plan_id":"cebpf4jnsgd1na2vs0mg"},{"bike_id":"82cfb297-ce56-4027-9d75-0b9068de2ecb","system_id":"levelo_inurba_marseille","lat":43.30416,"lon":5.41284,"is_reserved":false,"is_disabled":false,"rental_uris":{"android":"levelo://app?vid=82cfb297-ce56-4027-9d75-0b9068de2ecb","ios":"levelo://app?vid=82cfb297-ce56-4027-9d75-0b9068de2ecb"},"vehicle_type_id":"4","last_reported":1747498257,"current_range_meters":7200,"station_id":"ce4bhop2rcd13ifvqh8g","pricing_plan_id":"cebpf4jnsgd1na2vs0mg"},{"bike_id":"6f0eb859-c354-4ec9-9ed0-fc59fdc99960","system_id":"levelo_inurba_marseille","lat":43.317215,"lon":5.423998,"is_reserved":false,"is_disabled":false,"rental_uris":{"android":"levelo://app?vid=6f0eb859-c354-4ec9-9ed0-fc59fdc99960","ios":"levelo://app?vid=6f0eb859-c354-4ec9-9ed0-fc59fdc99960"},"vehicle_type_id":"4","last_reported":1747498257,"current_range_meters":7200,"station_id":"ce4bhp92rcd13ifvqhbg","pricing_plan_id":"cebpf4jnsgd1na2vs0mg"},{"bike_id":"eaaad56b-637b-49e0-8df3-68228f0a5881","system_id":"levelo_inurba_marseille","lat":43.315413,"lon":5.380457,"is_reserved":false,"is_disabled":false,"rental_uris":{"android":"levelo://app?vid=eaaad56b-637b-49e0-8df3-68228f0a5881","ios":"levelo://app?vid=eaaad56b-637b-49e0-8df3-68228f0a5881"},"vehicle_type_id":"4","last_reported":1747498257,"current_range_meters":7200,"station_id":"ce4bhsp2rcd13ifvqi50","pricing_plan_id":"cebpf4jnsgd1na2vs0mg"},{"bike_id":"c47d2aa1-083a-48d7-9c55-4c8d59ef8514","system_id":"levelo_inurba_marseille","lat":43.26942,"lon":5.40248,"is_reserved":false,"is_disabled":false,"rental_uris":{"android":"levelo://app?vid=c47d2aa1-083a-48d7-9c55-4c8d59ef8514","ios":"levelo://app?vid=c47d2aa1-083a-48d7-9c55-4c8d59ef8514"},"vehicle_type_id":"4","last_reported":1747498257,"current_range_meters":7200,"station_id":"cjm6bp8fraef2m0cb0m0","pricing_plan_id":"cebpf4jnsgd1na2vs0mg"},{"bike_id":"6cd5c425-f8ac-4068-b8ea-a8bfbef29ee5","system_id":"levelo_inurba_marseille","lat":43.24994,"lon":5.37962,"is_reserved":false,"is_disabled":false,"rental_uris":{"android":"levelo://app?vid=6cd5c425-f8ac-4068-b8ea-a8bfbef29ee5","ios":"levelo://app?vid=6cd5c425-f8ac-4068-b8ea-a8bfbef29ee5"},"vehicle_type_id":"4","last_reported":1747498257,"current_range_meters":8000,"station_id":"","pricing_plan_id":"cebpf4jnsgd1na2vs0mg"},{"bike_id":"85a029a5-793a-4105-b33c-335c678d4b63","system_id":"levelo_inurba_marseille","lat":43.29859,"lon":5.36329,"is_reserved":false,"is_disabled":false,"rental_uris":{"android":"levelo://app?vid=85a029a5-793a-4105-b33c-335c678d4b63","ios":"levelo://app?vid=85a029a5-793a-4105-b33c-335c678d4b63"},"vehicle_type_id":"4","last_reported":1747498257,"current_range_meters":8000,"station_id":"ce4bgpp2rcd13ifvqc3g","pricing_plan_id":"cebpf4jnsgd1na2vs0mg"},{"bike_id":"91657780-c29b-488a-a15d-e0f5a59e6280","system_id":"levelo_inurba_marseille","lat":43.311658,"lon":5.387186,"is_reserved":false,"is_disabled":false,"rental_uris":{"android":"levelo://app?vid=91657780-c29b-488a-a15d-e0f5a59e6280","ios":"levelo://app?vid=91657780-c29b-488a-a15d-e0f5a59e6280"},"vehicle_type_id":"4","last_reported":1747498257,"current_range_meters":8000,"station_id":"ce4bgv12rcd13ifvqcp0","pricing_plan_id":"cebpf4jnsgd1na2vs0mg"},{"bike_id":"5098123d-b36f-482a-a74d-7b81fd65e534","system_id":"levelo_inurba_marseille","lat":43.23962,"lon":5.3664,"is_reserved":false,"is_disabled":false,"rental_uris":{"android":"levelo://app?vid=5098123d-b36f-482a-a74d-7b81fd65e534","ios":"levelo://app?vid=5098123d-b36f-482a-a74d-7b81fd65e534"},"vehicle_type_id":"4","last_reported":1747498257,"current_range_meters":8000,"station_id":"ce4bhi12rcd13ifvqfp0","pricing_plan_id":"cebpf4jnsgd1na2vs0mg"},{"bike_id":"fbe2ceb4-f8a0-4766-80a8-92562be901c1","system_id":"levelo_inurba_marseille","lat":43.23965,"lon":5.36675,"is_reserved":false,"is_disabled":false,"rental_uris":{"android":"levelo://app?vid=fbe2ceb4-f8a0-4766-80a8-92562be901c1","ios":"levelo://app?vid=fbe2ceb4-f8a0-4766-80a8-92562be901c1"},"vehicle_type_id":"4","last_reported":1747498257,"current_range_meters":8000,"station_id":"ce4bhi12rcd13ifvqfp0","pricing_plan_id":"cebpf4jnsgd1na2vs0mg"},{"bike_id":"84c831f8-112f-4229-ab44-ed57b3d5f071","system_id":"levelo_inurba_marseille","lat":43.23178,"lon":5.39982,"is_reserved":false,"is_disabled":false,"rental_uris":{"android":"levelo://app?vid=84c831f8-112f-4229-ab44-ed57b3d5f071","ios":"levelo://app?vid=84c831f8-112f-4229-ab44-ed57b3d5f071"},"vehicle_type_id":"4","last_reported":1747498257,"current_range_meters":8000,"station_id":"ce4bhn12rcd13ifvqgqg","pricing_plan_id":"cebpf4jnsgd1na2vs0mg"},{"bike_id":"2c836f86-3046-4186-8756-b38a29a44d43","system_id":"levelo_inurba_marseille","lat":43.29551,"lon":5.42281,"is_reserved":false,"is_disabled":false,"rental_uris":{"android":"levelo://app?vid=2c836f86-3046-4186-8756-b38a29a44d43","ios":"levelo://app?vid=2c836f86-3046-4186-8756-b38a29a44d43"},"vehicle_type_id":"4","last_reported":1747498257,"current_range_meters":8000,"station_id":"ce4bhph2rcd13ifvqhdg","pricing_plan_id":"cebpf4jnsgd1na2vs0mg"},{"bike_id":"ae1decf1-ec66-4d4b-8d53-6eab440f376d","system_id":"levelo_inurba_marseille","lat":43.33746,"lon":5.39197,"is_reserved":false,"is_disabled":false,"rental_uris":{"android":"levelo://app?vid=ae1decf1-ec66-4d4b-8d53-6eab440f376d","ios":"levelo://app?vid=ae1decf1-ec66-4d4b-8d53-6eab440f376d"},"vehicle_type_id":"4","last_reported":1747498257,"current_range_meters":8000,"station_id":"ce4bhr92rcd13ifvqhsg","pricing_plan_id":"cebpf4jnsgd1na2vs0mg"},{"bike_id":"bbd82c95-01a7-4785-92ed-ebfbcf1fab88","system_id":"levelo_inurba_marseille","lat":43.2322,"lon":5.35559,"is_reserved":false,"is_disabled":false,"rental_uris":{"android":"levelo://app?vid=bbd82c95-01a7-4785-92ed-ebfbcf1fab88","ios":"levelo://app?vid=bbd82c95-01a7-4785-92ed-ebfbcf1fab88"},"vehicle_type_id":"4","last_reported":1747498257,"current_range_meters":8000,"station_id":"ce4bhu92rcd13ifvqi70","pricing_plan_id":"cebpf4jnsgd1na2vs0mg"},{"bike_id":"54e8dc58-db86-4ef9-8d1c-e40c2dbadbf6","system_id":"levelo_inurba_marseille","lat":43.28229,"lon":5.39064,"is_reserved":false,"is_disabled":false,"rental_uris":{"android":"levelo://app?vid=54e8dc58-db86-4ef9-8d1c-e40c2dbadbf6","ios":"levelo://app?vid=54e8dc58-db86-4ef9-8d1c-e40c2dbadbf6"},"vehicle_type_id":"4","last_reported":1747498257,"current_range_meters":8400,"station_id":"","pricing_plan_id":"cebpf4jnsgd1na2vs0mg"},{"bike_id":"0a1799be-2951-4738-87e0-3f9b86697b17","system_id":"levelo_inurba_marseille","lat":43.28748,"lon":5.37374,"is_reserved":false,"is_disabled":false,"rental_uris":{"android":"levelo://app?vid=0a1799be-2951-4738-87e0-3f9b86697b17","ios":"levelo://app?vid=0a1799be-2951-4738-87e0-3f9b86697b17"},"vehicle_type_id":"4","last_reported":1747498257,"current_range_meters":8400,"station_id":"ce4bha92rcd13ifvqeh0","pricing_plan_id":"cebpf4jnsgd1na2vs0mg"},{"bike_id":"646b30bc-dbcb-4ee1-bb4c-b4d5cc486b7c","system_id":"levelo_inurba_marseille","lat":43.2606,"lon":5.39401,"is_reserved":false,"is_disabled":false,"rental_uris":{"android":"levelo://app?vid=646b30bc-dbcb-4ee1-bb4c-b4d5cc486b7c","ios":"levelo://app?vid=646b30bc-dbcb-4ee1-bb4c-b4d5cc486b7c"},"vehicle_type_id":"4","last_reported":1747498257,"current_range_meters":8400,"station_id":"ce4bhh92rcd13ifvqfj0","pricing_plan_id":"cebpf4jnsgd1na2vs0mg"},{"bike_id":"7e23614d-d319-4f7c-b083-4ba359d892ac","system_id":"levelo_inurba_marseille","lat":43.26936,"lon":5.392924,"is_reserved":false,"is_disabled":false,"rental_uris":{"android":"levelo://app?vid=7e23614d-d319-4f7c-b083-4ba359d892ac","ios":"levelo://app?vid=7e23614d-d319-4f7c-b083-4ba359d892ac"},"vehicle_type_id":"4","last_reported":1747498257,"current_range_meters":8400,"station_id":"ce4bhi12rcd13ifvqfq0","pricing_plan_id":"cebpf4jnsgd1na2vs0mg"},{"bike_id":"595095fc-a6f6-483d-ab57-b9c7d07b7608","system_id":"levelo_inurba_marseille","lat":43.271729,"lon":5.409962,"is_reserved":false,"is_disabled":false,"rental_uris":{"android":"levelo://app?vid=595095fc-a6f6-483d-ab57-b9c7d07b7608","ios":"levelo://app?vid=595095fc-a6f6-483d-ab57-b9c7d07b7608"},"vehicle_type_id":"4","last_reported":1747498257,"current_range_meters":8400,"station_id":"ce4bhl12rcd13ifvqgf0","pricing_plan_id":"cebpf4jnsgd1na2vs0mg"},{"bike_id":"132c6877-ca1f-49a4-a3e5-4de9335aea5a","system_id":"levelo_inurba_marseille","lat":43.268005,"lon":5.402755,"is_reserved":false,"is_disabled":false,"rental_uris":{"android":"levelo://app?vid=132c6877-ca1f-49a4-a3e5-4de9335aea5a","ios":"levelo://app?vid=132c6877-ca1f-49a4-a3e5-4de9335aea5a"},"vehicle_type_id":"4","last_reported":1747498257,"current_range_meters":8400,"station_id":"ce501612rcd8frsf0b60","pricing_plan_id":"cebpf4jnsgd1na2vs0mg"},{"bike_id":"875770c0-0b50-4781-ad89-b0bbe5458cba","system_id":"levelo_inurba_marseille","lat":43.24659,"lon":5.38159,"is_reserved":false,"is_disabled":false,"rental_uris":{"android":"levelo://app?vid=875770c0-0b50-4781-ad89-b0bbe5458cba","ios":"levelo://app?vid=875770c0-0b50-4781-ad89-b0bbe5458cba"},"vehicle_type_id":"4","last_reported":1747498257,"current_range_meters":8800,"station_id":"ce4bhih2rcd13ifvqfr0","pricing_plan_id":"cebpf4jnsgd1na2vs0mg"},{"bike_id":"763c90b3-b82c-42c9-9017-0e60ae497ac2","system_id":"levelo_inurba_marseille","lat":43.29788,"lon":5.39355,"is_reserved":false,"is_disabled":false,"rental_uris":{"android":"levelo://app?vid=763c90b3-b82c-42c9-9017-0e60ae497ac2","ios":"levelo://app?vid=763c90b3-b82c-42c9-9017-0e60ae497ac2"},"vehicle_type_id":"4","last_reported":1747498257,"current_range_meters":8800,"station_id":"chh1huq6cuj3fo74tm60","pricing_plan_id":"cebpf4jnsgd1na2vs0mg"},{"bike_id":"a1ebb40c-08ca-44aa-8190-f0bfa9cf2bb4","system_id":"levelo_inurba_marseille","lat":43.22504,"lon":5.34786,"is_reserved":false,"is_disabled":false,"rental_uris":{"android":"levelo://app?vid=a1ebb40c-08ca-44aa-8190-f0bfa9cf2bb4","ios":"levelo://app?vid=a1ebb40c-08ca-44aa-8190-f0bfa9cf2bb4"},"vehicle_type_id":"4","last_reported":1747498257,"current_range_meters":8800,"station_id":"st_cvj5dfep6f1abm77gieg","pricing_plan_id":"cebpf4jnsgd1na2vs0mg"},{"bike_id":"cd5716cc-f478-4f43-a0b1-0cfc996a74ec","system_id":"levelo_inurba_marseille","lat":43.211907,"lon":5.350755,"is_reserved":false,"is_disabled":false,"rental_uris":{"android":"levelo://app?vid=cd5716cc-f478-4f43-a0b1-0cfc996a74ec","ios":"levelo://app?vid=cd5716cc-f478-4f43-a0b1-0cfc996a74ec"},"vehicle_type_id":"4","last_reported":1747498257,"current_range_meters":8800,"station_id":"st_cvj6sg6p6f1abm77japg","pricing_plan_id":"cebpf4jnsgd1na2vs0mg"},{"bike_id":"a063b40b-df40-49a7-9f2d-1f2ba19974f2","system_id":"levelo_inurba_marseille","lat":43.29846,"lon":5.36286,"is_reserved":false,"is_disabled":false,"rental_uris":{"android":"levelo://app?vid=a063b40b-df40-49a7-9f2d-1f2ba19974f2","ios":"levelo://app?vid=a063b40b-df40-49a7-9f2d-1f2ba19974f2"},"vehicle_type_id":"4","last_reported":1747498257,"current_range_meters":9200,"station_id":"ce4bgpp2rcd13ifvqc3g","pricing_plan_id":"cebpf4jnsgd1na2vs0mg"},{"bike_id":"2dec80d9-a68d-4dd3-a087-3f3bcd3db7cb","system_id":"levelo_inurba_marseille","lat":43.27621,"lon":5.36116,"is_reserved":false,"is_disabled":false,"rental_uris":{"android":"levelo://app?vid=2dec80d9-a68d-4dd3-a087-3f3bcd3db7cb","ios":"levelo://app?vid=2dec80d9-a68d-4dd3-a087-3f3bcd3db7cb"},"vehicle_type_id":"4","last_reported":1747498257,"current_range_meters":9600,"station_id":"ce4bgj92rcd13ifvqbe0","pricing_plan_id":"cebpf4jnsgd1na2vs0mg"},{"bike_id":"0f6b054f-4519-48a5-8eae-d8053a4e4e3a","system_id":"levelo_inurba_marseille","lat":43.276184,"lon":5.361048,"is_reserved":false,"is_disabled":false,"rental_uris":{"android":"levelo://app?vid=0f6b054f-4519-48a5-8eae-d8053a4e4e3a","ios":"levelo://app?vid=0f6b054f-4519-48a5-8eae-d8053a4e4e3a"},"vehicle_type_id":"4","last_reported":1747498257,"current_range_meters":9600,"station_id":"ce4bgj92rcd13ifvqbe0","pricing_plan_id":"cebpf4jnsgd1na2vs0mg"},{"bike_id":"9b012e8b-b014-4675-8ee0-f589f696987a","system_id":"levelo_inurba_marseille","lat":43.3095,"lon":5.39036,"is_reserved":false,"is_disabled":false,"rental_uris":{"android":"levelo://app?vid=9b012e8b-b014-4675-8ee0-f589f696987a","ios":"levelo://app?vid=9b012e8b-b014-4675-8ee0-f589f696987a"},"vehicle_type_id":"4","last_reported":1747498257,"current_range_meters":9600,"station_id":"ce4bgup2rcd13ifvqco0","pricing_plan_id":"cebpf4jnsgd1na2vs0mg"},{"bike_id":"e8475795-85a9-4ed0-9018-ce3bea692f4e","system_id":"levelo_inurba_marseille","lat":43.31694,"lon":5.40476,"is_reserved":false,"is_disabled":false,"rental_uris":{"android":"levelo://app?vid=e8475795-85a9-4ed0-9018-ce3bea692f4e","ios":"levelo://app?vid=e8475795-85a9-4ed0-9018-ce3bea692f4e"},"vehicle_type_id":"4","last_reported":1747498257,"current_range_meters":9600,"station_id":"ce4bh012rcd13ifvqd00","pricing_plan_id":"cebpf4jnsgd1na2vs0mg"},{"bike_id":"ebfc200b-3670-46c1-a4e4-6612528ac9e7","system_id":"levelo_inurba_marseille","lat":43.26564,"lon":5.39013,"is_reserved":false,"is_disabled":false,"rental_uris":{"android":"levelo://app?vid=ebfc200b-3670-46c1-a4e4-6612528ac9e7","ios":"levelo://app?vid=ebfc200b-3670-46c1-a4e4-6612528ac9e7"},"vehicle_type_id":"4","last_reported":1747498257,"current_range_meters":9600,"station_id":"ce4bhe12rcd13ifvqf30","pricing_plan_id":"cebpf4jnsgd1na2vs0mg"},{"bike_id":"7bc4e5db-25be-4b71-969d-dafba1816f05","system_id":"levelo_inurba_marseille","lat":43.26943,"lon":5.38921,"is_reserved":false,"is_disabled":false,"rental_uris":{"android":"levelo://app?vid=7bc4e5db-25be-4b71-969d-dafba1816f05","ios":"levelo://app?vid=7bc4e5db-25be-4b71-969d-dafba1816f05"},"vehicle_type_id":"4","last_reported":1747498257,"current_range_meters":9600,"station_id":"ce4bhhh2rcd13ifvqfl0","pricing_plan_id":"cebpf4jnsgd1na2vs0mg"},{"bike_id":"1661566b-ccd8-4e62-a385-eb008586373c","system_id":"levelo_inurba_marseille","lat":43.24179,"lon":5.39738,"is_reserved":false,"is_disabled":false,"rental_uris":{"android":"levelo://app?vid=1661566b-ccd8-4e62-a385-eb008586373c","ios":"levelo://app?vid=1661566b-ccd8-4e62-a385-eb008586373c"},"vehicle_type_id":"4","last_reported":1747498257,"current_range_meters":9600,"station_id":"ce4bhn12rcd13ifvqgpg","pricing_plan_id":"cebpf4jnsgd1na2vs0mg"},{"bike_id":"13eba903-84e5-4db7-ac7e-4ab9087c3a49","system_id":"levelo_inurba_marseille","lat":43.23193,"lon":5.35585,"is_reserved":false,"is_disabled":false,"rental_uris":{"android":"levelo://app?vid=13eba903-84e5-4db7-ac7e-4ab9087c3a49","ios":"levelo://app?vid=13eba903-84e5-4db7-ac7e-4ab9087c3a49"},"vehicle_type_id":"4","last_reported":1747498257,"current_range_meters":9600,"station_id":"ce4bhu92rcd13ifvqi70","pricing_plan_id":"cebpf4jnsgd1na2vs0mg"},{"bike_id":"6f7da022-e381-4617-9c99-86adc761a953","system_id":"levelo_inurba_marseille","lat":43.231552,"lon":5.437918,"is_reserved":false,"is_disabled":false,"rental_uris":{"android":"levelo://app?vid=6f7da022-e381-4617-9c99-86adc761a953","ios":"levelo://app?vid=6f7da022-e381-4617-9c99-86adc761a953"},"vehicle_type_id":"4","last_reported":1747498257,"current_range_meters":10000,"station_id":"","pricing_plan_id":"cebpf4jnsgd1na2vs0mg"},{"bike_id":"8107bf72-a0c2-4de4-beb8-23120ee2c229","system_id":"levelo_inurba_marseille","lat":43.31071,"lon":5.38356,"is_reserved":false,"is_disabled":false,"rental_uris":{"android":"levelo://app?vid=8107bf72-a0c2-4de4-beb8-23120ee2c229","ios":"levelo://app?vid=8107bf72-a0c2-4de4-beb8-23120ee2c229"},"vehicle_type_id":"4","last_reported":1747498257,"current_range_meters":10000,"station_id":"ce4bgv92rcd13ifvqcr0","pricing_plan_id":"cebpf4jnsgd1na2vs0mg"},{"bike_id":"888816ba-6897-4ef8-aac8-f82885ab5251","system_id":"levelo_inurba_marseille","lat":43.30929,"lon":5.40142,"is_reserved":false,"is_disabled":false,"rental_uris":{"android":"levelo://app?vid=888816ba-6897-4ef8-aac8-f82885ab5251","ios":"levelo://app?vid=888816ba-6897-4ef8-aac8-f82885ab5251"},"vehicle_type_id":"4","last_reported":1747498257,"current_range_meters":10000,"station_id":"ce4bgvp2rcd13ifvqct0","pricing_plan_id":"cebpf4jnsgd1na2vs0mg"},{"bike_id":"6349685b-cbca-4353-a954-7723b6b629de","system_id":"levelo_inurba_marseille","lat":43.31688,"lon":5.40471,"is_reserved":false,"is_disabled":false,"rental_uris":{"android":"levelo://app?vid=6349685b-cbca-4353-a954-7723b6b629de","ios":"levelo://app?vid=6349685b-cbca-4353-a954-7723b6b629de"},"vehicle_type_id":"4","last_reported":1747498257,"current_range_meters":10000,"station_id":"ce4bh012rcd13ifvqd00","pricing_plan_id":"cebpf4jnsgd1na2vs0mg"},{"bike_id":"f5c3d704-6dd9-430b-be6d-d13ed0323d6f","system_id":"levelo_inurba_marseille","lat":43.250053,"lon":5.38925,"is_reserved":false,"is_disabled":false,"rental_uris":{"android":"levelo://app?vid=f5c3d704-6dd9-430b-be6d-d13ed0323d6f","ios":"levelo://app?vid=f5c3d704-6dd9-430b-be6d-d13ed0323d6f"},"vehicle_type_id":"4","last_reported":1747498257,"current_range_meters":10000,"station_id":"ce4bhgp2rcd13ifvqfd0","pricing_plan_id":"cebpf4jnsgd1na2vs0mg"},{"bike_id":"3b68d28a-36f7-41e1-86a4-5d590311a1b6","system_id":"levelo_inurba_marseille","lat":43.32476,"lon":5.36563,"is_reserved":false,"is_disabled":false,"rental_uris":{"android":"levelo://app?vid=3b68d28a-36f7-41e1-86a4-5d590311a1b6","ios":"levelo://app?vid=3b68d28a-36f7-41e1-86a4-5d590311a1b6"},"vehicle_type_id":"4","last_reported":1747498257,"current_range_meters":10000,"station_id":"ce4bhs12rcd13ifvqhvg","pricing_plan_id":"cebpf4jnsgd1na2vs0mg"},{"bike_id":"d16d4eae-8c5f-49f2-8564-4e7550f3f10b","system_id":"levelo_inurba_marseille","lat":43.291792,"lon":5.379444,"is_reserved":false,"is_disabled":false,"rental_uris":{"android":"levelo://app?vid=d16d4eae-8c5f-49f2-8564-4e7550f3f10b","ios":"levelo://app?vid=d16d4eae-8c5f-49f2-8564-4e7550f3f10b"},"vehicle_type_id":"4","last_reported":1747498257,"current_range_meters":10800,"station_id":"","pricing_plan_id":"cebpf4jnsgd1na2vs0mg"},{"bike_id":"b8e6468b-87db-4ff6-8122-ef13bf5b7c8c","system_id":"levelo_inurba_marseille","lat":43.31379,"lon":5.37916,"is_reserved":false,"is_disabled":false,"rental_uris":{"android":"levelo://app?vid=b8e6468b-87db-4ff6-8122-ef13bf5b7c8c","ios":"levelo://app?vid=b8e6468b-87db-4ff6-8122-ef13bf5b7c8c"},"vehicle_type_id":"4","last_reported":1747498257,"current_range_meters":10800,"station_id":"","pricing_plan_id":"cebpf4jnsgd1na2vs0mg"},{"bike_id":"476423c3-aafd-47a0-8422-215904691436","system_id":"levelo_inurba_marseille","lat":43.28224,"lon":5.39073,"is_reserved":false,"is_disabled":false,"rental_uris":{"android":"levelo://app?vid=476423c3-aafd-47a0-8422-215904691436","ios":"levelo://app?vid=476423c3-aafd-47a0-8422-215904691436"},"vehicle_type_id":"4","last_reported":1747498257,"current_range_meters":10800,"station_id":"","pricing_plan_id":"cebpf4jnsgd1na2vs0mg"},{"bike_id":"9e0d4371-15cf-411e-86d5-35f817bb1e69","system_id":"levelo_inurba_marseille","lat":43.29533,"lon":5.38546,"is_reserved":false,"is_disabled":false,"rental_uris":{"android":"levelo://app?vid=9e0d4371-15cf-411e-86d5-35f817bb1e69","ios":"levelo://app?vid=9e0d4371-15cf-411e-86d5-35f817bb1e69"},"vehicle_type_id":"4","last_reported":1747498257,"current_range_meters":10800,"station_id":"ce4bgih2rcd13ifvqba0","pricing_plan_id":"cebpf4jnsgd1na2vs0mg"},{"bike_id":"38bf9325-2f57-411c-8db0-8d5c595eb014","system_id":"levelo_inurba_marseille","lat":43.27615,"lon":5.36114,"is_reserved":false,"is_disabled":false,"rental_uris":{"android":"levelo://app?vid=38bf9325-2f57-411c-8db0-8d5c595eb014","ios":"levelo://app?vid=38bf9325-2f57-411c-8db0-8d5c595eb014"},"vehicle_type_id":"4","last_reported":1747498257,"current_range_meters":10800,"station_id":"ce4bgj92rcd13ifvqbe0","pricing_plan_id":"cebpf4jnsgd1na2vs0mg"},{"bike_id":"dddc0073-20d3-4339-a21f-751a21e1f13e","system_id":"levelo_inurba_marseille","lat":43.30567,"lon":5.36549,"is_reserved":false,"is_disabled":false,"rental_uris":{"android":"levelo://app?vid=dddc0073-20d3-4339-a21f-751a21e1f13e","ios":"levelo://app?vid=dddc0073-20d3-4339-a21f-751a21e1f13e"},"vehicle_type_id":"4","last_reported":1747498257,"current_range_meters":10800,"station_id":"ce4bgs12rcd13ifvqcag","pricing_plan_id":"cebpf4jnsgd1na2vs0mg"},{"bike_id":"3e630e9a-3c06-4dcc-97d5-ae78a4ea1500","system_id":"levelo_inurba_marseille","lat":43.29912,"lon":5.43653,"is_reserved":false,"is_disabled":false,"rental_uris":{"android":"levelo://app?vid=3e630e9a-3c06-4dcc-97d5-ae78a4ea1500","ios":"levelo://app?vid=3e630e9a-3c06-4dcc-97d5-ae78a4ea1500"},"vehicle_type_id":"4","last_reported":1747498257,"current_range_meters":10800,"station_id":"ce4bhpp2rcd13ifvqhfg","pricing_plan_id":"cebpf4jnsgd1na2vs0mg"},{"bike_id":"c32ada5d-eb56-46fc-89e1-22b0bc32805d","system_id":"levelo_inurba_marseille","lat":43.27622,"lon":5.36103,"is_reserved":false,"is_disabled":false,"rental_uris":{"android":"levelo://app?vid=c32ada5d-eb56-46fc-89e1-22b0bc32805d","ios":"levelo://app?vid=c32ada5d-eb56-46fc-89e1-22b0bc32805d"},"vehicle_type_id":"4","last_reported":1747498257,"current_range_meters":11200,"station_id":"ce4bgj92rcd13ifvqbe0","pricing_plan_id":"cebpf4jnsgd1na2vs0mg"},{"bike_id":"497cc2cf-fcc5-463f-8221-b4f7c50802f4","system_id":"levelo_inurba_marseille","lat":43.26203,"lon":5.37481,"is_reserved":false,"is_disabled":false,"rental_uris":{"android":"levelo://app?vid=497cc2cf-fcc5-463f-8221-b4f7c50802f4","ios":"levelo://app?vid=497cc2cf-fcc5-463f-8221-b4f7c50802f4"},"vehicle_type_id":"4","last_reported":1747498257,"current_range_meters":11200,"station_id":"ce4bhgp2rcd13ifvqfc0","pricing_plan_id":"cebpf4jnsgd1na2vs0mg"},{"bike_id":"b11c7576-365a-4f69-b678-abc338fe6b03","system_id":"levelo_inurba_marseille","lat":43.2439,"lon":5.37055,"is_reserved":false,"is_disabled":false,"rental_uris":{"android":"levelo://app?vid=b11c7576-365a-4f69-b678-abc338fe6b03","ios":"levelo://app?vid=b11c7576-365a-4f69-b678-abc338fe6b03"},"vehicle_type_id":"4","last_reported":1747498257,"current_range_meters":11200,"station_id":"ce4bhhh2rcd13ifvqfk0","pricing_plan_id":"cebpf4jnsgd1na2vs0mg"},{"bike_id":"9187c104-9b06-48af-9f58-758fc1dd1410","system_id":"levelo_inurba_marseille","lat":43.23202,"lon":5.35553,"is_reserved":false,"is_disabled":false,"rental_uris":{"android":"levelo://app?vid=9187c104-9b06-48af-9f58-758fc1dd1410","ios":"levelo://app?vid=9187c104-9b06-48af-9f58-758fc1dd1410"},"vehicle_type_id":"4","last_reported":1747498257,"current_range_meters":11200,"station_id":"ce4bhu92rcd13ifvqi70","pricing_plan_id":"cebpf4jnsgd1na2vs0mg"},{"bike_id":"bfee2e7b-fcd6-4e7a-8177-7bd041434065","system_id":"levelo_inurba_marseille","lat":43.250155,"lon":5.38978,"is_reserved":false,"is_disabled":false,"rental_uris":{"android":"levelo://app?vid=bfee2e7b-fcd6-4e7a-8177-7bd041434065","ios":"levelo://app?vid=bfee2e7b-fcd6-4e7a-8177-7bd041434065"},"vehicle_type_id":"4","last_reported":1747498257,"current_range_meters":11600,"station_id":"","pricing_plan_id":"cebpf4jnsgd1na2vs0mg"},{"bike_id":"55b1a85a-b86b-49fb-aee8-2639c8904a43","system_id":"levelo_inurba_marseille","lat":43.30568,"lon":5.36717,"is_reserved":false,"is_disabled":false,"rental_uris":{"android":"levelo://app?vid=55b1a85a-b86b-49fb-aee8-2639c8904a43","ios":"levelo://app?vid=55b1a85a-b86b-49fb-aee8-2639c8904a43"},"vehicle_type_id":"4","last_reported":1747498257,"current_range_meters":11600,"station_id":"ce4bgrp2rcd13ifvqc9g","pricing_plan_id":"cebpf4jnsgd1na2vs0mg"},{"bike_id":"4a4cadb4-2b5f-48eb-8379-69dfad96db86","system_id":"levelo_inurba_marseille","lat":43.30956,"lon":5.39056,"is_reserved":false,"is_disabled":false,"rental_uris":{"android":"levelo://app?vid=4a4cadb4-2b5f-48eb-8379-69dfad96db86","ios":"levelo://app?vid=4a4cadb4-2b5f-48eb-8379-69dfad96db86"},"vehicle_type_id":"4","last_reported":1747498257,"current_range_meters":11600,"station_id":"ce4bgup2rcd13ifvqco0","pricing_plan_id":"cebpf4jnsgd1na2vs0mg"},{"bike_id":"be563011-9716-4153-9be2-5718a4746692","system_id":"levelo_inurba_marseille","lat":43.28354,"lon":5.38107,"is_reserved":false,"is_disabled":false,"rental_uris":{"android":"levelo://app?vid=be563011-9716-4153-9be2-5718a4746692","ios":"levelo://app?vid=be563011-9716-4153-9be2-5718a4746692"},"vehicle_type_id":"4","last_reported":1747498257,"current_range_meters":11600,"station_id":"ce4bh412rcd13ifvqdr0","pricing_plan_id":"cebpf4jnsgd1na2vs0mg"},{"bike_id":"0639139f-ff95-4f18-85bf-83e790f0d5fd","system_id":"levelo_inurba_marseille","lat":43.27391,"lon":5.3624,"is_reserved":false,"is_disabled":false,"rental_uris":{"android":"levelo://app?vid=0639139f-ff95-4f18-85bf-83e790f0d5fd","ios":"levelo://app?vid=0639139f-ff95-4f18-85bf-83e790f0d5fd"},"vehicle_type_id":"4","last_reported":1747498257,"current_range_meters":11600,"station_id":"ce4bhbh2rcd13ifvqeo0","pricing_plan_id":"cebpf4jnsgd1na2vs0mg"},{"bike_id":"6b18a89f-bffc-4378-be8c-df0fb08f1764","system_id":"levelo_inurba_marseille","lat":43.26213,"lon":5.37444,"is_reserved":false,"is_disabled":false,"rental_uris":{"android":"levelo://app?vid=6b18a89f-bffc-4378-be8c-df0fb08f1764","ios":"levelo://app?vid=6b18a89f-bffc-4378-be8c-df0fb08f1764"},"vehicle_type_id":"4","last_reported":1747498257,"current_range_meters":11600,"station_id":"ce4bhgp2rcd13ifvqfc0","pricing_plan_id":"cebpf4jnsgd1na2vs0mg"},{"bike_id":"81a9455a-3e2a-4c4a-be15-7a450dcad848","system_id":"levelo_inurba_marseille","lat":43.23965,"lon":5.36644,"is_reserved":false,"is_disabled":false,"rental_uris":{"android":"levelo://app?vid=81a9455a-3e2a-4c4a-be15-7a450dcad848","ios":"levelo://app?vid=81a9455a-3e2a-4c4a-be15-7a450dcad848"},"vehicle_type_id":"4","last_reported":1747498257,"current_range_meters":11600,"station_id":"ce4bhi12rcd13ifvqfp0","pricing_plan_id":"cebpf4jnsgd1na2vs0mg"},{"bike_id":"b5582ee1-127f-4d5a-ac3e-3e631bf1a129","system_id":"levelo_inurba_marseille","lat":43.24661,"lon":5.38167,"is_reserved":false,"is_disabled":false,"rental_uris":{"android":"levelo://app?vid=b5582ee1-127f-4d5a-ac3e-3e631bf1a129","ios":"levelo://app?vid=b5582ee1-127f-4d5a-ac3e-3e631bf1a129"},"vehicle_type_id":"4","last_reported":1747498257,"current_range_meters":11600,"station_id":"ce4bhih2rcd13ifvqfr0","pricing_plan_id":"cebpf4jnsgd1na2vs0mg"},{"bike_id":"a4d7457e-a382-4ab7-9876-e9ba20692ec9","system_id":"levelo_inurba_marseille","lat":43.31978,"lon":5.38157,"is_reserved":false,"is_disabled":false,"rental_uris":{"android":"levelo://app?vid=a4d7457e-a382-4ab7-9876-e9ba20692ec9","ios":"levelo://app?vid=a4d7457e-a382-4ab7-9876-e9ba20692ec9"},"vehicle_type_id":"4","last_reported":1747498257,"current_range_meters":11600,"station_id":"ce4bhr12rcd13ifvqhpg","pricing_plan_id":"cebpf4jnsgd1na2vs0mg"},{"bike_id":"7f198fbd-e0e0-425b-9796-9a2feab13d1b","system_id":"levelo_inurba_marseille","lat":43.21239,"lon":5.3509,"is_reserved":false,"is_disabled":false,"rental_uris":{"android":"levelo://app?vid=7f198fbd-e0e0-425b-9796-9a2feab13d1b","ios":"levelo://app?vid=7f198fbd-e0e0-425b-9796-9a2feab13d1b"},"vehicle_type_id":"4","last_reported":1747498257,"current_range_meters":12000,"station_id":"","pricing_plan_id":"cebpf4jnsgd1na2vs0mg"},{"bike_id":"6bad99d6-c400-4729-a6f1-dd5f2da6c3f2","system_id":"levelo_inurba_marseille","lat":43.31991,"lon":5.43295,"is_reserved":false,"is_disabled":false,"rental_uris":{"android":"levelo://app?vid=6bad99d6-c400-4729-a6f1-dd5f2da6c3f2","ios":"levelo://app?vid=6bad99d6-c400-4729-a6f1-dd5f2da6c3f2"},"vehicle_type_id":"4","last_reported":1747498257,"current_range_meters":12000,"station_id":"","pricing_plan_id":"cebpf4jnsgd1na2vs0mg"},{"bike_id":"6e1bd625-3ec1-43df-9657-36d71ae09f8d","system_id":"levelo_inurba_marseille","lat":43.33771,"lon":5.37471,"is_reserved":false,"is_disabled":false,"rental_uris":{"android":"levelo://app?vid=6e1bd625-3ec1-43df-9657-36d71ae09f8d","ios":"levelo://app?vid=6e1bd625-3ec1-43df-9657-36d71ae09f8d"},"vehicle_type_id":"4","last_reported":1747498257,"current_range_meters":12000,"station_id":"","pricing_plan_id":"cebpf4jnsgd1na2vs0mg"},{"bike_id":"f63203cc-3db4-4da9-b727-3ca3702bb76a","system_id":"levelo_inurba_marseille","lat":43.26033,"lon":5.37552,"is_reserved":false,"is_disabled":false,"rental_uris":{"android":"levelo://app?vid=f63203cc-3db4-4da9-b727-3ca3702bb76a","ios":"levelo://app?vid=f63203cc-3db4-4da9-b727-3ca3702bb76a"},"vehicle_type_id":"4","last_reported":1747498257,"current_range_meters":12000,"station_id":"ce4bhgh2rcd13ifvqfa0","pricing_plan_id":"cebpf4jnsgd1na2vs0mg"},{"bike_id":"70dff6fd-b4f3-4044-a26c-3bf7f9fff0db","system_id":"levelo_inurba_marseille","lat":43.27681,"lon":5.3888,"is_reserved":false,"is_disabled":false,"rental_uris":{"android":"levelo://app?vid=70dff6fd-b4f3-4044-a26c-3bf7f9fff0db","ios":"levelo://app?vid=70dff6fd-b4f3-4044-a26c-3bf7f9fff0db"},"vehicle_type_id":"4","last_reported":1747498257,"current_range_meters":12000,"station_id":"ce4bhi12rcd13ifvqfo0","pricing_plan_id":"cebpf4jnsgd1na2vs0mg"},{"bike_id":"85691cd0-0534-47a1-a0e8-79c81a18ab78","system_id":"levelo_inurba_marseille","lat":43.212,"lon":5.35104,"is_reserved":false,"is_disabled":false,"rental_uris":{"android":"levelo://app?vid=85691cd0-0534-47a1-a0e8-79c81a18ab78","ios":"levelo://app?vid=85691cd0-0534-47a1-a0e8-79c81a18ab78"},"vehicle_type_id":"4","last_reported":1747498257,"current_range_meters":12000,"station_id":"st_cvj6sg6p6f1abm77japg","pricing_plan_id":"cebpf4jnsgd1na2vs0mg"},{"bike_id":"a22e5774-054c-4ef5-8760-0fea5f887764","system_id":"levelo_inurba_marseille","lat":43.2406,"lon":5.37758,"is_reserved":false,"is_disabled":false,"rental_uris":{"android":"levelo://app?vid=a22e5774-054c-4ef5-8760-0fea5f887764","ios":"levelo://app?vid=a22e5774-054c-4ef5-8760-0fea5f887764"},"vehicle_type_id":"4","last_reported":1747498257,"current_range_meters":12400,"station_id":"ce4bhnp2rcd13ifvqgvg","pricing_plan_id":"cebpf4jnsgd1na2vs0mg"},{"bike_id":"c493ef29-ab8b-4b63-acad-33b362301146","system_id":"levelo_inurba_marseille","lat":43.23197,"lon":5.35555,"is_reserved":false,"is_disabled":false,"rental_uris":{"android":"levelo://app?vid=c493ef29-ab8b-4b63-acad-33b362301146","ios":"levelo://app?vid=c493ef29-ab8b-4b63-acad-33b362301146"},"vehicle_type_id":"4","last_reported":1747498257,"current_range_meters":12400,"station_id":"ce4bhu92rcd13ifvqi70","pricing_plan_id":"cebpf4jnsgd1na2vs0mg"},{"bike_id":"14603e41-b2dd-4757-a53c-2e366aa4f983","system_id":"levelo_inurba_marseille","lat":43.26994,"lon":5.42821,"is_reserved":false,"is_disabled":false,"rental_uris":{"android":"levelo://app?vid=14603e41-b2dd-4757-a53c-2e366aa4f983","ios":"levelo://app?vid=14603e41-b2dd-4757-a53c-2e366aa4f983"},"vehicle_type_id":"4","last_reported":1747498257,"current_range_meters":12800,"station_id":"","pricing_plan_id":"cebpf4jnsgd1na2vs0mg"},{"bike_id":"bba67333-7a43-456d-9134-5575e1f6d56e","system_id":"levelo_inurba_marseille","lat":43.26016,"lon":5.37581,"is_reserved":false,"is_disabled":false,"rental_uris":{"android":"levelo://app?vid=bba67333-7a43-456d-9134-5575e1f6d56e","ios":"levelo://app?vid=bba67333-7a43-456d-9134-5575e1f6d56e"},"vehicle_type_id":"4","last_reported":1747498257,"current_range_meters":12800,"station_id":"ce4bhgh2rcd13ifvqfa0","pricing_plan_id":"cebpf4jnsgd1na2vs0mg"},{"bike_id":"3980d76b-e904-45ba-9bbd-4ee10919b44c","system_id":"levelo_inurba_marseille","lat":43.31061,"lon":5.38201,"is_reserved":false,"is_disabled":false,"rental_uris":{"android":"levelo://app?vid=3980d76b-e904-45ba-9bbd-4ee10919b44c","ios":"levelo://app?vid=3980d76b-e904-45ba-9bbd-4ee10919b44c"},"vehicle_type_id":"4","last_reported":1747498257,"current_range_meters":13600,"station_id":"","pricing_plan_id":"cebpf4jnsgd1na2vs0mg"},{"bike_id":"542d5c33-0bb9-4a26-a113-b9b01cb63a22","system_id":"levelo_inurba_marseille","lat":43.31216,"lon":5.36849,"is_reserved":false,"is_disabled":false,"rental_uris":{"android":"levelo://app?vid=542d5c33-0bb9-4a26-a113-b9b01cb63a22","ios":"levelo://app?vid=542d5c33-0bb9-4a26-a113-b9b01cb63a22"},"vehicle_type_id":"4","last_reported":1747498257,"current_range_meters":13600,"station_id":"ce4bgl92rcd13ifvqbq0","pricing_plan_id":"cebpf4jnsgd1na2vs0mg"},{"bike_id":"5f2521c9-62fb-4141-b1d6-cd2fc15ce46c","system_id":"levelo_inurba_marseille","lat":43.25581,"lon":5.38226,"is_reserved":false,"is_disabled":false,"rental_uris":{"android":"levelo://app?vid=5f2521c9-62fb-4141-b1d6-cd2fc15ce46c","ios":"levelo://app?vid=5f2521c9-62fb-4141-b1d6-cd2fc15ce46c"},"vehicle_type_id":"4","last_reported":1747498257,"current_range_meters":13600,"station_id":"ce4bhih2rcd13ifvqfs0","pricing_plan_id":"cebpf4jnsgd1na2vs0mg"},{"bike_id":"cf3afe85-3c25-48e8-a1ef-9b601c9fd595","system_id":"levelo_inurba_marseille","lat":43.2582,"lon":5.39437,"is_reserved":false,"is_disabled":false,"rental_uris":{"android":"levelo://app?vid=cf3afe85-3c25-48e8-a1ef-9b601c9fd595","ios":"levelo://app?vid=cf3afe85-3c25-48e8-a1ef-9b601c9fd595"},"vehicle_type_id":"4","last_reported":1747498257,"current_range_meters":13600,"station_id":"ce4bhip2rcd13ifvqft0","pricing_plan_id":"cebpf4jnsgd1na2vs0mg"},{"bike_id":"b35af4b7-ddb0-420c-8ae1-86f05bafeae7","system_id":"levelo_inurba_marseille","lat":43.23191,"lon":5.35566,"is_reserved":false,"is_disabled":false,"rental_uris":{"android":"levelo://app?vid=b35af4b7-ddb0-420c-8ae1-86f05bafeae7","ios":"levelo://app?vid=b35af4b7-ddb0-420c-8ae1-86f05bafeae7"},"vehicle_type_id":"4","last_reported":1747498257,"current_range_meters":13600,"station_id":"ce4bhu92rcd13ifvqi70","pricing_plan_id":"cebpf4jnsgd1na2vs0mg"},{"bike_id":"2337ca10-86c9-4128-a2b8-96c13d130e13","system_id":"levelo_inurba_marseille","lat":43.30929,"lon":5.40134,"is_reserved":false,"is_disabled":false,"rental_uris":{"android":"levelo://app?vid=2337ca10-86c9-4128-a2b8-96c13d130e13","ios":"levelo://app?vid=2337ca10-86c9-4128-a2b8-96c13d130e13"},"vehicle_type_id":"4","last_reported":1747498257,"current_range_meters":14000,"station_id":"ce4bgvp2rcd13ifvqct0","pricing_plan_id":"cebpf4jnsgd1na2vs0mg"},{"bike_id":"9dae537b-c626-4786-b51d-7997f867546f","system_id":"levelo_inurba_marseille","lat":43.26562,"lon":5.37287,"is_reserved":false,"is_disabled":false,"rental_uris":{"android":"levelo://app?vid=9dae537b-c626-4786-b51d-7997f867546f","ios":"levelo://app?vid=9dae537b-c626-4786-b51d-7997f867546f"},"vehicle_type_id":"4","last_reported":1747498257,"current_range_meters":14000,"station_id":"ce4bhg12rcd13ifvqf70","pricing_plan_id":"cebpf4jnsgd1na2vs0mg"},{"bike_id":"0e6db18d-ccf0-4f27-aef7-dab29b7a2f61","system_id":"levelo_inurba_marseille","lat":43.262027,"lon":5.374493,"is_reserved":false,"is_disabled":false,"rental_uris":{"android":"levelo://app?vid=0e6db18d-ccf0-4f27-aef7-dab29b7a2f61","ios":"levelo://app?vid=0e6db18d-ccf0-4f27-aef7-dab29b7a2f61"},"vehicle_type_id":"4","last_reported":1747498257,"current_range_meters":14000,"station_id":"ce4bhgp2rcd13ifvqfc0","pricing_plan_id":"cebpf4jnsgd1na2vs0mg"},{"bike_id":"b0a9b1d7-46e1-4424-aa10-b3b81752712f","system_id":"levelo_inurba_marseille","lat":43.275,"lon":5.4245,"is_reserved":false,"is_disabled":false,"rental_uris":{"android":"levelo://app?vid=b0a9b1d7-46e1-4424-aa10-b3b81752712f","ios":"levelo://app?vid=b0a9b1d7-46e1-4424-aa10-b3b81752712f"},"vehicle_type_id":"4","last_reported":1747498257,"current_range_meters":14000,"station_id":"ce4bhn92rcd13ifvqgrg","pricing_plan_id":"cebpf4jnsgd1na2vs0mg"},{"bike_id":"bf84cbc8-47e5-41ba-9334-3e6727b3ebc1","system_id":"levelo_inurba_marseille","lat":43.23193,"lon":5.35571,"is_reserved":false,"is_disabled":false,"rental_uris":{"android":"levelo://app?vid=bf84cbc8-47e5-41ba-9334-3e6727b3ebc1","ios":"levelo://app?vid=bf84cbc8-47e5-41ba-9334-3e6727b3ebc1"},"vehicle_type_id":"4","last_reported":1747498257,"current_range_meters":14000,"station_id":"ce4bhu92rcd13ifvqi70","pricing_plan_id":"cebpf4jnsgd1na2vs0mg"},{"bike_id":"8d00e820-0717-4366-b3db-a4c30c5ad6c9","system_id":"levelo_inurba_marseille","lat":43.29792,"lon":5.39351,"is_reserved":false,"is_disabled":false,"rental_uris":{"android":"levelo://app?vid=8d00e820-0717-4366-b3db-a4c30c5ad6c9","ios":"levelo://app?vid=8d00e820-0717-4366-b3db-a4c30c5ad6c9"},"vehicle_type_id":"4","last_reported":1747498257,"current_range_meters":14000,"station_id":"chh1huq6cuj3fo74tm60","pricing_plan_id":"cebpf4jnsgd1na2vs0mg"},{"bike_id":"f948109f-a829-41ed-aa38-29e765ca5245","system_id":"levelo_inurba_marseille","lat":43.21191,"lon":5.35075,"is_reserved":false,"is_disabled":false,"rental_uris":{"android":"levelo://app?vid=f948109f-a829-41ed-aa38-29e765ca5245","ios":"levelo://app?vid=f948109f-a829-41ed-aa38-29e765ca5245"},"vehicle_type_id":"4","last_reported":1747498257,"current_range_meters":14000,"station_id":"st_cvj6sg6p6f1abm77japg","pricing_plan_id":"cebpf4jnsgd1na2vs0mg"},{"bike_id":"efe128ff-43e0-476f-a37c-12fed6ff00c6","system_id":"levelo_inurba_marseille","lat":43.27612,"lon":5.36101,"is_reserved":false,"is_disabled":false,"rental_uris":{"android":"levelo://app?vid=efe128ff-43e0-476f-a37c-12fed6ff00c6","ios":"levelo://app?vid=efe128ff-43e0-476f-a37c-12fed6ff00c6"},"vehicle_type_id":"4","last_reported":1747498257,"current_range_meters":14400,"station_id":"ce4bgj92rcd13ifvqbe0","pricing_plan_id":"cebpf4jnsgd1na2vs0mg"},{"bike_id":"a5867d90-1563-40c9-8cb1-c471779b9255","system_id":"levelo_inurba_marseille","lat":43.30318,"lon":5.36911,"is_reserved":false,"is_disabled":false,"rental_uris":{"android":"levelo://app?vid=a5867d90-1563-40c9-8cb1-c471779b9255","ios":"levelo://app?vid=a5867d90-1563-40c9-8cb1-c471779b9255"},"vehicle_type_id":"4","last_reported":1747498257,"current_range_meters":14400,"station_id":"ce4bgqh2rcd13ifvqc5g","pricing_plan_id":"cebpf4jnsgd1na2vs0mg"},{"bike_id":"302bdc14-c2eb-407e-9ad7-81a539d6b196","system_id":"levelo_inurba_marseille","lat":43.26784,"lon":5.39412,"is_reserved":false,"is_disabled":false,"rental_uris":{"android":"levelo://app?vid=302bdc14-c2eb-407e-9ad7-81a539d6b196","ios":"levelo://app?vid=302bdc14-c2eb-407e-9ad7-81a539d6b196"},"vehicle_type_id":"4","last_reported":1747498257,"current_range_meters":14400,"station_id":"ce4bhh12rcd13ifvqfg0","pricing_plan_id":"cebpf4jnsgd1na2vs0mg"},{"bike_id":"266c6bb7-22d2-4813-9294-91bf8277a930","system_id":"levelo_inurba_marseille","lat":43.21189,"lon":5.35082,"is_reserved":false,"is_disabled":false,"rental_uris":{"android":"levelo://app?vid=266c6bb7-22d2-4813-9294-91bf8277a930","ios":"levelo://app?vid=266c6bb7-22d2-4813-9294-91bf8277a930"},"vehicle_type_id":"4","last_reported":1747498257,"current_range_meters":14400,"station_id":"st_cvj6sg6p6f1abm77japg","pricing_plan_id":"cebpf4jnsgd1na2vs0mg"},{"bike_id":"09b3eb29-a917-4cfd-803f-f199cab89b4d","system_id":"levelo_inurba_marseille","lat":43.25553,"lon":5.3766,"is_reserved":false,"is_disabled":false,"rental_uris":{"android":"levelo://app?vid=09b3eb29-a917-4cfd-803f-f199cab89b4d","ios":"levelo://app?vid=09b3eb29-a917-4cfd-803f-f199cab89b4d"},"vehicle_type_id":"4","last_reported":1747498257,"current_range_meters":14800,"station_id":"","pricing_plan_id":"cebpf4jnsgd1na2vs0mg"},{"bike_id":"ad0f3fd1-6586-4c39-a7bd-e132fc4e19b4","system_id":"levelo_inurba_marseille","lat":43.30443,"lon":5.39743,"is_reserved":false,"is_disabled":false,"rental_uris":{"android":"levelo://app?vid=ad0f3fd1-6586-4c39-a7bd-e132fc4e19b4","ios":"levelo://app?vid=ad0f3fd1-6586-4c39-a7bd-e132fc4e19b4"},"vehicle_type_id":"4","last_reported":1747498257,"current_range_meters":14800,"station_id":"ce4bh092rcd13ifvqd20","pricing_plan_id":"cebpf4jnsgd1na2vs0mg"},{"bike_id":"a858ac59-43f3-4941-802b-c3314cdb2dae","system_id":"levelo_inurba_marseille","lat":43.289398,"lon":5.396462,"is_reserved":false,"is_disabled":false,"rental_uris":{"android":"levelo://app?vid=a858ac59-43f3-4941-802b-c3314cdb2dae","ios":"levelo://app?vid=a858ac59-43f3-4941-802b-c3314cdb2dae"},"vehicle_type_id":"4","last_reported":1747498257,"current_range_meters":14800,"station_id":"ce4bh3h2rcd13ifvqdn0","pricing_plan_id":"cebpf4jnsgd1na2vs0mg"},{"bike_id":"0f816855-acd6-4564-b2a6-a1259b809b9d","system_id":"levelo_inurba_marseille","lat":43.27208,"lon":5.39183,"is_reserved":false,"is_disabled":false,"rental_uris":{"android":"levelo://app?vid=0f816855-acd6-4564-b2a6-a1259b809b9d","ios":"levelo://app?vid=0f816855-acd6-4564-b2a6-a1259b809b9d"},"vehicle_type_id":"4","last_reported":1747498257,"current_range_meters":14800,"station_id":"ce4bhhp2rcd13ifvqfm0","pricing_plan_id":"cebpf4jnsgd1na2vs0mg"},{"bike_id":"88de6b1d-aed1-4f1e-8a95-f4ad2364e003","system_id":"levelo_inurba_marseille","lat":43.23175,"lon":5.35557,"is_reserved":false,"is_disabled":false,"rental_uris":{"android":"levelo://app?vid=88de6b1d-aed1-4f1e-8a95-f4ad2364e003","ios":"levelo://app?vid=88de6b1d-aed1-4f1e-8a95-f4ad2364e003"},"vehicle_type_id":"4","last_reported":1747498257,"current_range_meters":14800,"station_id":"ce4bhu92rcd13ifvqi70","pricing_plan_id":"cebpf4jnsgd1na2vs0mg"},{"bike_id":"1cb13a59-cf26-426e-814a-8c24150875c1","system_id":"levelo_inurba_marseille","lat":43.22503,"lon":5.3481,"is_reserved":false,"is_disabled":false,"rental_uris":{"android":"levelo://app?vid=1cb13a59-cf26-426e-814a-8c24150875c1","ios":"levelo://app?vid=1cb13a59-cf26-426e-814a-8c24150875c1"},"vehicle_type_id":"4","last_reported":1747498257,"current_range_meters":14800,"station_id":"st_cvj5dfep6f1abm77gieg","pricing_plan_id":"cebpf4jnsgd1na2vs0mg"},{"bike_id":"2e1cfd76-6cfa-4282-afbf-1c791c02b84a","system_id":"levelo_inurba_marseille","lat":43.299405,"lon":5.36555,"is_reserved":false,"is_disabled":false,"rental_uris":{"android":"levelo://app?vid=2e1cfd76-6cfa-4282-afbf-1c791c02b84a","ios":"levelo://app?vid=2e1cfd76-6cfa-4282-afbf-1c791c02b84a"},"vehicle_type_id":"4","last_reported":1747498257,"current_range_meters":15200,"station_id":"ce4bgm92rcd13ifvqbr0","pricing_plan_id":"cebpf4jnsgd1na2vs0mg"},{"bike_id":"9bad95d6-01f7-4015-bbd0-134d73776d8f","system_id":"levelo_inurba_marseille","lat":43.29978,"lon":5.37184,"is_reserved":false,"is_disabled":false,"rental_uris":{"android":"levelo://app?vid=9bad95d6-01f7-4015-bbd0-134d73776d8f","ios":"levelo://app?vid=9bad95d6-01f7-4015-bbd0-134d73776d8f"},