{"last_updated":1690218360,"ttl":30,"version":"2.2","data":{"bikes":[{"bike_id":"0b44d062-305a-400d-a4d4-b08bb3fc68cf","system_id":"levelo_inurba_marseille","lat":43.313391,"lon":5.36706,"is_reserved":false,"is_disabled":false,"rental_uris":{"android":"levelo://app?vid=0b44d062-305a-400d-a4d4-b08bb3fc68cf","ios":"levelo://app?vid=0b44d062-305a-400d-a4d4-b08bb3fc68cf"},"vehicle_type_id":"4","last_reported":1690218363,"current_range_meters":21200,"station_id":"ce4bgr92rcd13ifvqc6g","pricing_plan_id":"free"},{"bike_id":"cc8c60f0-aa84-42b5-a961-0c6e5412b9c4","system_id":"levelo_inurba_marseille","lat":43.31238,"lon":5.36875,"is_reserved":false,"is_disabled":false,"rental_uris":{"android":"levelo://app?vid=cc8c60f0-aa84-42b5-a961-0c6e5412b9c4","ios":"levelo://app?vid=cc8c60f0-aa84-42b5-a961-0c6e5412b9c4"},"vehicle_type_id":"4","last_reported":1690218363,"current_range_meters":31600,"station_id":"ce4bgl92rcd13ifvqbq0","pricing_plan_id":"free"},{"bike_id":"994cb260-ad3d-482b-900e-95dc25585811","system_id":"levelo_inurba_marseille","lat":43.30907,"lon":5.36846,"is_reserved":false,"is_disabled":false,"rental_uris":{"android":"levelo://app?vid=994cb260-ad3d-482b-900e-95dc25585811","ios":"levelo://app?vid=994cb260-ad3d-482b-900e-95dc25585811"},"vehicle_type_id":"4","last_reported":1690218363,"current_range_meters":22000,"station_id":"ce4bgn92rcd13ifvqbvg","pricing_plan_id":"free"},{"bike_id":"2cc1183b-6748-487b-95f6-5085456108a3","system_id":"levelo_inurba_marseille","lat":43.314811,"lon":5.373103,"is_reserved":false,"is_disabled":false,"rental_uris":{"android":"levelo://app?vid=2cc1183b-6748-487b-95f6-5085456108a3","ios":"levelo://app?vid=2cc1183b-6748-487b-95f6-5085456108a3"},"vehicle_type_id":"4","last_reported":1690218363,"current_range_meters":28800,"station_id":"ce4bgt12rcd13ifvqcd0","pricing_plan_id":"free"},{"bike_id":"aa51a155-c10a-455a-9d5a-13915b7d8d24","system_id":"levelo_inurba_marseille","lat":43.30886,"lon":5.37188,"is_reserved":false,"is_disabled":false,"rental_uris":{"android":"levelo://app?vid=aa51a155-c10a-455a-9d5a-13915b7d8d24","ios":"levelo://app?vid=aa51a155-c10a-455a-9d5a-13915b7d8d24"},"vehicle_type_id":"4","last_reported":1690218363,"current_range_meters":31200,"station_id":"ce4bguh2rcd13ifvqckg","pricing_plan_id":"free"},{"bike_id":"efdca0a1-9dab-477b-a13c-9c9922643128","system_id":"levelo_inurba_marseille","lat":43.30542,"lon":5.36559,"is_reserved":false,"is_disabled":false,"rental_uris":{"android":"levelo://app?vid=efdca0a1-9dab-477b-a13c-9c9922643128","ios":"levelo://app?vid=efdca0a1-9dab-477b-a13c-9c9922643128"},"vehicle_type_id":"4","last_reported":1690218363,"current_range_meters":19600,"station_id":"ce4bgs12rcd13ifvqcag","pricing_plan_id":"free"},{"bike_id":"ab8cb21c-4f34-4dfe-b5fb-0219e70ae64e","system_id":"levelo_inurba_marseille","lat":43.30351,"lon":5.36789,"is_reserved":false,"is_disabled":false,"rental_uris":{"android":"levelo://app?vid=ab8cb21c-4f34-4dfe-b5fb-0219e70ae64e","ios":"levelo://app?vid=ab8cb21c-4f34-4dfe-b5fb-0219e70ae64e"},"vehicle_type_id":"4","last_reported":1690218363,"current_range_meters":12800,"station_id":"","pricing_plan_id":"free"},{"bike_id":"a2e136f1-c728-4018-88c2-a46aa30aa3c2","system_id":"levelo_inurba_marseille","lat":43.303046,"lon":5.368981,"is_reserved":false,"is_disabled":false,"rental_uris":{"android":"levelo://app?vid=a2e136f1-c728-4018-88c2-a46aa30aa3c2","ios":"levelo://app?vid=a2e136f1-c728-4018-88c2-a46aa30aa3c2"},"vehicle_type_id":"4","last_reported":1690218363,"current_range_meters":9600,"station_id":"ce4bgqh2rcd13ifvqc5g","pricing_plan_id":"free"},{"bike_id":"3c9e6545-ca15-4905-8aed-fe004acb57be","system_id":"levelo_inurba_marseille","lat":43.303046,"lon":5.368981,"is_reserved":false,"is_disabled":false,"rental_uris":{"android":"levelo://app?vid=3c9e6545-ca15-4905-8aed-fe004acb57be","ios":"levelo://app?vid=3c9e6545-ca15-4905-8aed-fe004acb57be"},"vehicle_type_id":"4","last_reported":1690218363,"current_range_meters":27200,"station_id":"ce4bgqh2rcd13ifvqc5g","pricing_plan_id":"free"},{"bike_id":"67812fa7-dd51-4255-b7ce-a113fdefbbf5","system_id":"levelo_inurba_marseille","lat":43.315293,"lon":5.380349,"is_reserved":false,"is_disabled":false,"rental_uris":{"android":"levelo://app?vid=67812fa7-dd51-4255-b7ce-a113fdefbbf5","ios":"levelo://app?vid=67812fa7-dd51-4255-b7ce-a113fdefbbf5"},"vehicle_type_id":"4","last_reported":1690218363,"current_range_meters":18800,"station_id":"ce4bhsp2rcd13ifvqi50","pricing_plan_id":"free"},{"bike_id":"bc0975ec-47b6-4482-9b2e-f128c4baf931","system_id":"levelo_inurba_marseille","lat":43.304606,"lon":5.379026,"is_reserved":false,"is_disabled":false,"rental_uris":{"android":"levelo://app?vid=bc0975ec-47b6-4482-9b2e-f128c4baf931","ios":"levelo://app?vid=bc0975ec-47b6-4482-9b2e-f128c4baf931"},"vehicle_type_id":"4","last_reported":1690218363,"current_range_meters":18000,"station_id":"ce4bgup2rcd13ifvqcn0","pricing_plan_id":"free"},{"bike_id":"d8bcb3de-211d-430b-894c-02e054f73620","system_id":"levelo_inurba_marseille","lat":43.30807,"lon":5.38149,"is_reserved":false,"is_disabled":false,"rental_uris":{"android":"levelo://app?vid=d8bcb3de-211d-430b-894c-02e054f73620","ios":"levelo://app?vid=d8bcb3de-211d-430b-894c-02e054f73620"},"vehicle_type_id":"4","last_reported":1690218363,"current_range_meters":4400,"station_id":"ce4bgt12rcd13ifvqce0","pricing_plan_id":"free"},{"bike_id":"df3f1e61-9400-419b-bc3a-137f4e56c06e","system_id":"levelo_inurba_marseille","lat":43.30804,"lon":5.38149,"is_reserved":false,"is_disabled":false,"rental_uris":{"android":"levelo://app?vid=df3f1e61-9400-419b-bc3a-137f4e56c06e","ios":"levelo://app?vid=df3f1e61-9400-419b-bc3a-137f4e56c06e"},"vehicle_type_id":"4","last_reported":1690218363,"current_range_meters":4400,"station_id":"ce4bgt12rcd13ifvqce0","pricing_plan_id":"free"},{"bike_id":"c7cf3f73-dd5f-4bff-86e8-882948c44956","system_id":"levelo_inurba_marseille","lat":43.30799,"lon":5.38157,"is_reserved":false,"is_disabled":false,"rental_uris":{"android":"levelo://app?vid=c7cf3f73-dd5f-4bff-86e8-882948c44956","ios":"levelo://app?vid=c7cf3f73-dd5f-4bff-86e8-882948c44956"},"vehicle_type_id":"4","last_reported":1690218363,"current_range_meters":21200,"station_id":"ce4bgt12rcd13ifvqce0","pricing_plan_id":"free"},{"bike_id":"8acbc690-7321-41da-9e7e-bdebda73eb84","system_id":"levelo_inurba_marseille","lat":43.308012,"lon":5.381511,"is_reserved":false,"is_disabled":false,"rental_uris":{"android":"levelo://app?vid=8acbc690-7321-41da-9e7e-bdebda73eb84","ios":"levelo://app?vid=8acbc690-7321-41da-9e7e-bdebda73eb84"},"vehicle_type_id":"4","last_reported":1690218363,"current_range_meters":22400,"station_id":"ce4bgt12rcd13ifvqce0","pricing_plan_id":"free"},{"bike_id":"53ad0f4f-b549-4116-8bcc-6bbe1d2858c3","system_id":"levelo_inurba_marseille","lat":43.30469,"lon":5.37909,"is_reserved":false,"is_disabled":false,"rental_uris":{"android":"levelo://app?vid=53ad0f4f-b549-4116-8bcc-6bbe1d2858c3","ios":"levelo://app?vid=53ad0f4f-b549-4116-8bcc-6bbe1d2858c3"},"vehicle_type_id":"4","last_reported":1690218363,"current_range_meters":30000,"station_id":"ce4bgup2rcd13ifvqcn0","pricing_plan_id":"free"},{"bike_id":"b72d318d-00d5-430d-b6fc-a0a5847ed272","system_id":"levelo_inurba_marseille","lat":43.30469,"lon":5.37909,"is_reserved":false,"is_disabled":false,"rental_uris":{"android":"levelo://app?vid=b72d318d-00d5-430d-b6fc-a0a5847ed272","ios":"levelo://app?vid=b72d318d-00d5-430d-b6fc-a0a5847ed272"},"vehicle_type_id":"4","last_reported":1690218363,"current_range_meters":29200,"station_id":"ce4bgup2rcd13ifvqcn0","pricing_plan_id":"free"},{"bike_id":"faec1a6f-cdf9-4a47-bd44-9176ccf7b187","system_id":"levelo_inurba_marseille","lat":43.304606,"lon":5.379026,"is_reserved":false,"is_disabled":false,"rental_uris":{"android":"levelo://app?vid=faec1a6f-cdf9-4a47-bd44-9176ccf7b187","ios":"levelo://app?vid=faec1a6f-cdf9-4a47-bd44-9176ccf7b187"},"vehicle_type_id":"4","last_reported":1690218363,"current_range_meters":31200,"station_id":"ce4bgup2rcd13ifvqcn0","pricing_plan_id":"free"},{"bike_id":"c7fa3ea8-3916-467b-ae86-08d7bb788578","system_id":"levelo_inurba_marseille","lat":43.304606,"lon":5.379026,"is_reserved":false,"is_disabled":false,"rental_uris":{"android":"levelo://app?vid=c7fa3ea8-3916-467b-ae86-08d7bb788578","ios":"levelo://app?vid=c7fa3ea8-3916-467b-ae86-08d7bb788578"},"vehicle_type_id":"4","last_reported":1690218363,"current_range_meters":30000,"station_id":"ce4bgup2rcd13ifvqcn0","pricing_plan_id":"free"},{"bike_id":"7de626ab-4ee1-445d-8454-8bcd6d63cc20","system_id":"levelo_inurba_marseille","lat":43.30461,"lon":5.37905,"is_reserved":false,"is_disabled":false,"rental_uris":{"android":"levelo://app?vid=7de626ab-4ee1-445d-8454-8bcd6d63cc20","ios":"levelo://app?vid=7de626ab-4ee1-445d-8454-8bcd6d63cc20"},"vehicle_type_id":"4","last_reported":1690218363,"current_range_meters":6400,"station_id":"ce4bgup2rcd13ifvqcn0","pricing_plan_id":"free"},{"bike_id":"29811c1a-c52a-43f7-984a-1a9f3190852a","system_id":"levelo_inurba_marseille","lat":43.30467,"lon":5.37913,"is_reserved":false,"is_disabled":false,"rental_uris":{"android":"levelo://app?vid=29811c1a-c52a-43f7-984a-1a9f3190852a","ios":"levelo://app?vid=29811c1a-c52a-43f7-984a-1a9f3190852a"},"vehicle_type_id":"4","last_reported":1690218363,"current_range_meters":30400,"station_id":"ce4bgup2rcd13ifvqcn0","pricing_plan_id":"free"},{"bike_id":"f04f4988-aa19-4432-a516-899196d5e806","system_id":"levelo_inurba_marseille","lat":43.30462,"lon":5.37911,"is_reserved":false,"is_disabled":false,"rental_uris":{"android":"levelo://app?vid=f04f4988-aa19-4432-a516-899196d5e806","ios":"levelo://app?vid=f04f4988-aa19-4432-a516-899196d5e806"},"vehicle_type_id":"4","last_reported":1690218363,"current_range_meters":30800,"station_id":"ce4bgup2rcd13ifvqcn0","pricing_plan_id":"free"},{"bike_id":"22585715-6645-4e0f-88a9-44b5195deac9","system_id":"levelo_inurba_marseille","lat":43.30465,"lon":5.37922,"is_reserved":false,"is_disabled":false,"rental_uris":{"android":"levelo://app?vid=22585715-6645-4e0f-88a9-44b5195deac9","ios":"levelo://app?vid=22585715-6645-4e0f-88a9-44b5195deac9"},"vehicle_type_id":"4","last_reported":1690218363,"current_range_meters":13600,"station_id":"ce4bgup2rcd13ifvqcn0","pricing_plan_id":"free"},{"bike_id":"655f24cf-5072-4d58-a4de-e6156ccf5b21","system_id":"levelo_inurba_marseille","lat":43.302784,"lon":5.377158,"is_reserved":false,"is_disabled":false,"rental_uris":{"android":"levelo://app?vid=655f24cf-5072-4d58-a4de-e6156ccf5b21","ios":"levelo://app?vid=655f24cf-5072-4d58-a4de-e6156ccf5b21"},"vehicle_type_id":"4","last_reported":1690218363,"current_range_meters":15200,"station_id":"ce4bguh2rcd13ifvqcj0","pricing_plan_id":"free"},{"bike_id":"942855d1-0f2d-4ef5-9516-239a2c31ed60","system_id":"levelo_inurba_marseille","lat":43.30141,"lon":5.37414,"is_reserved":false,"is_disabled":false,"rental_uris":{"android":"levelo://app?vid=942855d1-0f2d-4ef5-9516-239a2c31ed60","ios":"levelo://app?vid=942855d1-0f2d-4ef5-9516-239a2c31ed60"},"vehicle_type_id":"4","last_reported":1690218363,"current_range_meters":16400,"station_id":"ce4bgs92rcd13ifvqcc0","pricing_plan_id":"free"},{"bike_id":"cd869b22-f92c-4191-87bd-4dfaa0de93ed","system_id":"levelo_inurba_marseille","lat":43.302784,"lon":5.377158,"is_reserved":false,"is_disabled":false,"rental_uris":{"android":"levelo://app?vid=cd869b22-f92c-4191-87bd-4dfaa0de93ed","ios":"levelo://app?vid=cd869b22-f92c-4191-87bd-4dfaa0de93ed"},"vehicle_type_id":"4","last_reported":1690218363,"current_range_meters":24800,"station_id":"ce4bguh2rcd13ifvqcj0","pricing_plan_id":"free"},{"bike_id":"f169656e-2de5-45f9-8682-e98af676f24e","system_id":"levelo_inurba_marseille","lat":43.29977,"lon":5.36535,"is_reserved":false,"is_disabled":false,"rental_uris":{"android":"levelo://app?vid=f169656e-2de5-45f9-8682-e98af676f24e","ios":"levelo://app?vid=f169656e-2de5-45f9-8682-e98af676f24e"},"vehicle_type_id":"4","last_reported":1690218363,"current_range_meters":31200,"station_id":"","pricing_plan_id":"free"},{"bike_id":"f6031895-51c9-4fad-bd98-e373a6e26d8d","system_id":"levelo_inurba_marseille","lat":43.3137,"lon":5.38485,"is_reserved":false,"is_disabled":false,"rental_uris":{"android":"levelo://app?vid=f6031895-51c9-4fad-bd98-e373a6e26d8d","ios":"levelo://app?vid=f6031895-51c9-4fad-bd98-e373a6e26d8d"},"vehicle_type_id":"4","last_reported":1690218363,"current_range_meters":24400,"station_id":"ce4bgt92rcd13ifvqcf0","pricing_plan_id":"free"},{"bike_id":"b454643e-8985-48ae-b4d1-8467034fac5e","system_id":"levelo_inurba_marseille","lat":43.31362,"lon":5.38494,"is_reserved":false,"is_disabled":false,"rental_uris":{"android":"levelo://app?vid=b454643e-8985-48ae-b4d1-8467034fac5e","ios":"levelo://app?vid=b454643e-8985-48ae-b4d1-8467034fac5e"},"vehicle_type_id":"4","last_reported":1690218363,"current_range_meters":15200,"station_id":"ce4bgt92rcd13ifvqcf0","pricing_plan_id":"free"},{"bike_id":"ce4d1873-51e7-4657-b0c3-af841c38ca36","system_id":"levelo_inurba_marseille","lat":43.29934,"lon":5.36548,"is_reserved":false,"is_disabled":false,"rental_uris":{"android":"levelo://app?vid=ce4d1873-51e7-4657-b0c3-af841c38ca36","ios":"levelo://app?vid=ce4d1873-51e7-4657-b0c3-af841c38ca36"},"vehicle_type_id":"4","last_reported":1690218363,"current_range_meters":14800,"station_id":"ce4bgm92rcd13ifvqbr0","pricing_plan_id":"free"},{"bike_id":"58aca7e0-2f7f-4e49-a9f5-01b83054d0b5","system_id":"levelo_inurba_marseille","lat":43.29933,"lon":5.36551,"is_reserved":false,"is_disabled":false,"rental_uris":{"android":"levelo://app?vid=58aca7e0-2f7f-4e49-a9f5-01b83054d0b5","ios":"levelo://app?vid=58aca7e0-2f7f-4e49-a9f5-01b83054d0b5"},"vehicle_type_id":"4","last_reported":1690218363,"current_range_meters":4000,"station_id":"ce4bgm92rcd13ifvqbr0","pricing_plan_id":"free"},{"bike_id":"9e7c8797-48a8-42fb-8bb6-ab610b966482","system_id":"levelo_inurba_marseille","lat":43.298433,"lon":5.362774,"is_reserved":false,"is_disabled":false,"rental_uris":{"android":"levelo://app?vid=9e7c8797-48a8-42fb-8bb6-ab610b966482","ios":"levelo://app?vid=9e7c8797-48a8-42fb-8bb6-ab610b966482"},"vehicle_type_id":"4","last_reported":1690218363,"current_range_meters":22000,"station_id":"ce4bgpp2rcd13ifvqc3g","pricing_plan_id":"free"},{"bike_id":"a4ebc3d9-df11-4290-85fa-c4c076551a69","system_id":"levelo_inurba_marseille","lat":43.305364,"lon":5.384119,"is_reserved":false,"is_disabled":false,"rental_uris":{"android":"levelo://app?vid=a4ebc3d9-df11-4290-85fa-c4c076551a69","ios":"levelo://app?vid=a4ebc3d9-df11-4290-85fa-c4c076551a69"},"vehicle_type_id":"4","last_reported":1690218363,"current_range_meters":21600,"station_id":"ce4bgg92rcd13ifvqb30","pricing_plan_id":"free"},{"bike_id":"fb1a5dbe-2159-46ec-a2e6-4aa0eb8f359d","system_id":"levelo_inurba_marseille","lat":43.29922,"lon":5.37472,"is_reserved":false,"is_disabled":false,"rental_uris":{"android":"levelo://app?vid=fb1a5dbe-2159-46ec-a2e6-4aa0eb8f359d","ios":"levelo://app?vid=fb1a5dbe-2159-46ec-a2e6-4aa0eb8f359d"},"vehicle_type_id":"4","last_reported":1690218363,"current_range_meters":21600,"station_id":"ce4bgjh2rcd13ifvqbg0","pricing_plan_id":"free"},{"bike_id":"4cb7c853-48e1-42c2-beaf-5462c615bd3e","system_id":"levelo_inurba_marseille","lat":43.299243,"lon":5.374807,"is_reserved":false,"is_disabled":false,"rental_uris":{"android":"levelo://app?vid=4cb7c853-48e1-42c2-beaf-5462c615bd3e","ios":"levelo://app?vid=4cb7c853-48e1-42c2-beaf-5462c615bd3e"},"vehicle_type_id":"4","last_reported":1690218363,"current_range_meters":0,"station_id":"ce4bgjh2rcd13ifvqbg0","pricing_plan_id":"free"},{"bike_id":"1d4b81e0-78ce-45b8-b2b6-9332fde5a21c","system_id":"levelo_inurba_marseille","lat":43.311722,"lon":5.387247,"is_reserved":false,"is_disabled":false,"rental_uris":{"android":"levelo://app?vid=1d4b81e0-78ce-45b8-b2b6-9332fde5a21c","ios":"levelo://app?vid=1d4b81e0-78ce-45b8-b2b6-9332fde5a21c"},"vehicle_type_id":"4","last_reported":1690218363,"current_range_meters":10800,"station_id":"ce4bgv12rcd13ifvqcp0","pricing_plan_id":"free"},{"bike_id":"7904a96c-6144-4a77-a70a-1a54e1fce686","system_id":"levelo_inurba_marseille","lat":43.297794,"lon":5.370888,"is_reserved":false,"is_disabled":false,"rental_uris":{"android":"levelo://app?vid=7904a96c-6144-4a77-a70a-1a54e1fce686","ios":"levelo://app?vid=7904a96c-6144-4a77-a70a-1a54e1fce686"},"vehicle_type_id":"4","last_reported":1690218363,"current_range_meters":0,"station_id":"ce4bgop2rcd13ifvqc1g","pricing_plan_id":"free"},{"bike_id":"a6e535d2-4edd-4ea4-a81f-3999fab24549","system_id":"levelo_inurba_marseille","lat":43.32285,"lon":5.38266,"is_reserved":false,"is_disabled":false,"rental_uris":{"android":"levelo://app?vid=a6e535d2-4edd-4ea4-a81f-3999fab24549","ios":"levelo://app?vid=a6e535d2-4edd-4ea4-a81f-3999fab24549"},"vehicle_type_id":"4","last_reported":1690218363,"current_range_meters":29200,"station_id":"ce4bhr12rcd13ifvqhqg","pricing_plan_id":"free"},{"bike_id":"7cf8300b-ea34-4969-9e25-33bf8acdaea0","system_id":"levelo_inurba_marseille","lat":43.322924,"lon":5.382581,"is_reserved":false,"is_disabled":false,"rental_uris":{"android":"levelo://app?vid=7cf8300b-ea34-4969-9e25-33bf8acdaea0","ios":"levelo://app?vid=7cf8300b-ea34-4969-9e25-33bf8acdaea0"},"vehicle_type_id":"4","last_reported":1690218363,"current_range_meters":400,"station_id":"","pricing_plan_id":"free"},{"bike_id":"21f797af-f51b-4ce0-aa86-b150f8c8a2c3","system_id":"levelo_inurba_marseille","lat":43.32296,"lon":5.38267,"is_reserved":false,"is_disabled":false,"rental_uris":{"android":"levelo://app?vid=21f797af-f51b-4ce0-aa86-b150f8c8a2c3","ios":"levelo://app?vid=21f797af-f51b-4ce0-aa86-b150f8c8a2c3"},"vehicle_type_id":"4","last_reported":1690218363,"current_range_meters":22000,"station_id":"ce4bhr12rcd13ifvqhqg","pricing_plan_id":"free"},{"bike_id":"be50c5b9-e20a-4c98-9db7-cc160cffd554","system_id":"levelo_inurba_marseille","lat":43.322872,"lon":5.382756,"is_reserved":false,"is_disabled":false,"rental_uris":{"android":"levelo://app?vid=be50c5b9-e20a-4c98-9db7-cc160cffd554","ios":"levelo://app?vid=be50c5b9-e20a-4c98-9db7-cc160cffd554"},"vehicle_type_id":"4","last_reported":1690218363,"current_range_meters":29200,"station_id":"ce4bhr12rcd13ifvqhqg","pricing_plan_id":"free"},{"bike_id":"e6a7744c-aa6e-49ff-80d0-86e22de9ab1d","system_id":"levelo_inurba_marseille","lat":43.328371,"lon":5.366909,"is_reserved":false,"is_disabled":false,"rental_uris":{"android":"levelo://app?vid=e6a7744c-aa6e-49ff-80d0-86e22de9ab1d","ios":"levelo://app?vid=e6a7744c-aa6e-49ff-80d0-86e22de9ab1d"},"vehicle_type_id":"4","last_reported":1690218363,"current_range_meters":31200,"station_id":"ce4bhs92rcd13ifvqi0g","pricing_plan_id":"free"},{"bike_id":"3916e407-8c11-4a2b-8e00-1d25f7bfdca8","system_id":"levelo_inurba_marseille","lat":43.29716,"lon":5.3661,"is_reserved":false,"is_disabled":false,"rental_uris":{"android":"levelo://app?vid=3916e407-8c11-4a2b-8e00-1d25f7bfdca8","ios":"levelo://app?vid=3916e407-8c11-4a2b-8e00-1d25f7bfdca8"},"vehicle_type_id":"4","last_reported":1690218363,"current_range_meters":31200,"station_id":"ce4bgn12rcd13ifvqbt0","pricing_plan_id":"free"},{"bike_id":"d22240a9-994e-44f3-b15e-5bf42ab5dc9d","system_id":"levelo_inurba_marseille","lat":43.29573,"lon":5.367355,"is_reserved":false,"is_disabled":false,"rental_uris":{"android":"levelo://app?vid=d22240a9-994e-44f3-b15e-5bf42ab5dc9d","ios":"levelo://app?vid=d22240a9-994e-44f3-b15e-5bf42ab5dc9d"},"vehicle_type_id":"4","last_reported":1690218363,"current_range_meters":30400,"station_id":"ce4bgph2rcd13ifvqc2g","pricing_plan_id":"free"},{"bike_id":"d17361a7-cd5c-450e-8ba0-fc130a93f50d","system_id":"levelo_inurba_marseille","lat":43.29573,"lon":5.367355,"is_reserved":false,"is_disabled":false,"rental_uris":{"android":"levelo://app?vid=d17361a7-cd5c-450e-8ba0-fc130a93f50d","ios":"levelo://app?vid=d17361a7-cd5c-450e-8ba0-fc130a93f50d"},"vehicle_type_id":"4","last_reported":1690218363,"current_range_meters":22800,"station_id":"ce4bgph2rcd13ifvqc2g","pricing_plan_id":"free"},{"bike_id":"ee65b0d6-19ec-4247-8bf1-7b5020e49d7e","system_id":"levelo_inurba_marseille","lat":43.29573,"lon":5.367355,"is_reserved":false,"is_disabled":false,"rental_uris":{"android":"levelo://app?vid=ee65b0d6-19ec-4247-8bf1-7b5020e49d7e","ios":"levelo://app?vid=ee65b0d6-19ec-4247-8bf1-7b5020e49d7e"},"vehicle_type_id":"4","last_reported":1690218363,"current_range_meters":23600,"station_id":"ce4bgph2rcd13ifvqc2g","pricing_plan_id":"free"},{"bike_id":"6bfa5310-3d5f-432b-a4bc-dfe2afad9cdf","system_id":"levelo_inurba_marseille","lat":43.29573,"lon":5.367355,"is_reserved":false,"is_disabled":false,"rental_uris":{"android":"levelo://app?vid=6bfa5310-3d5f-432b-a4bc-dfe2afad9cdf","ios":"levelo://app?vid=6bfa5310-3d5f-432b-a4bc-dfe2afad9cdf"},"vehicle_type_id":"4","last_reported":1690218363,"current_range_meters":21200,"station_id":"ce4bgph2rcd13ifvqc2g","pricing_plan_id":"free"},{"bike_id":"2d42a3b3-35f1-40a1-86ea-01e4bbe190e3","system_id":"levelo_inurba_marseille","lat":43.29573,"lon":5.367355,"is_reserved":false,"is_disabled":false,"rental_uris":{"android":"levelo://app?vid=2d42a3b3-35f1-40a1-86ea-01e4bbe190e3","ios":"levelo://app?vid=2d42a3b3-35f1-40a1-86ea-01e4bbe190e3"},"vehicle_type_id":"4","last_reported":1690218363,"current_range_meters":26000,"station_id":"ce4bgph2rcd13ifvqc2g","pricing_plan_id":"free"},{"bike_id":"373c3bb6-ff2f-4e8a-aac7-372654c35f6f","system_id":"levelo_inurba_marseille","lat":43.29573,"lon":5.367355,"is_reserved":false,"is_disabled":false,"rental_uris":{"android":"levelo://app?vid=373c3bb6-ff2f-4e8a-aac7-372654c35f6f","ios":"levelo://app?vid=373c3bb6-ff2f-4e8a-aac7-372654c35f6f"},"vehicle_type_id":"4","last_reported":1690218363,"current_range_meters":11600,"station_id":"ce4bgph2rcd13ifvqc2g","pricing_plan_id":"free"},{"bike_id":"ad13d508-2b6a-4275-bac4-490d137e4cfc","system_id":"levelo_inurba_marseille","lat":43.29581,"lon":5.36743,"is_reserved":false,"is_disabled":false,"rental_uris":{"android":"levelo://app?vid=ad13d508-2b6a-4275-bac4-490d137e4cfc","ios":"levelo://app?vid=ad13d508-2b6a-4275-bac4-490d137e4cfc"},"vehicle_type_id":"4","last_reported":1690218363,"current_range_meters":16800,"station_id":"ce4bgph2rcd13ifvqc2g","pricing_plan_id":"free"},{"bike_id":"af51419a-d604-4159-86c0-131ce935923c","system_id":"levelo_inurba_marseille","lat":43.29573,"lon":5.367355,"is_reserved":false,"is_disabled":false,"rental_uris":{"android":"levelo://app?vid=af51419a-d604-4159-86c0-131ce935923c","ios":"levelo://app?vid=af51419a-d604-4159-86c0-131ce935923c"},"vehicle_type_id":"4","last_reported":1690218363,"current_range_meters":16800,"station_id":"ce4bgph2rcd13ifvqc2g","pricing_plan_id":"free"},{"bike_id":"84627732-a3d5-4254-b63c-777bc2758f19","system_id":"levelo_inurba_marseille","lat":43.29573,"lon":5.367355,"is_reserved":false,"is_disabled":false,"rental_uris":{"android":"levelo://app?vid=84627732-a3d5-4254-b63c-777bc2758f19","ios":"levelo://app?vid=84627732-a3d5-4254-b63c-777bc2758f19"},"vehicle_type_id":"4","last_reported":1690218363,"current_range_meters":14800,"station_id":"ce4bgph2rcd13ifvqc2g","pricing_plan_id":"free"},{"bike_id":"cb9b48ed-5195-41d9-8c33-639ed9534535","system_id":"levelo_inurba_marseille","lat":43.295773,"lon":5.367354,"is_reserved":false,"is_disabled":false,"rental_uris":{"android":"levelo://app?vid=cb9b48ed-5195-41d9-8c33-639ed9534535","ios":"levelo://app?vid=cb9b48ed-5195-41d9-8c33-639ed9534535"},"vehicle_type_id":"4","last_reported":1690218363,"current_range_meters":28800,"station_id":"","pricing_plan_id":"free"},{"bike_id":"6415607d-2a36-4efa-9aea-345a26f619c4","system_id":"levelo_inurba_marseille","lat":43.29577,"lon":5.36743,"is_reserved":false,"is_disabled":false,"rental_uris":{"android":"levelo://app?vid=6415607d-2a36-4efa-9aea-345a26f619c4","ios":"levelo://app?vid=6415607d-2a36-4efa-9aea-345a26f619c4"},"vehicle_type_id":"4","last_reported":1690218363,"current_range_meters":4800,"station_id":"ce4bgph2rcd13ifvqc2g","pricing_plan_id":"free"},{"bike_id":"17fee334-23c1-4950-93ad-568a374b360e","system_id":"levelo_inurba_marseille","lat":43.30949,"lon":5.39026,"is_reserved":false,"is_disabled":false,"rental_uris":{"android":"levelo://app?vid=17fee334-23c1-4950-93ad-568a374b360e","ios":"levelo://app?vid=17fee334-23c1-4950-93ad-568a374b360e"},"vehicle_type_id":"4","last_reported":1690218363,"current_range_meters":10400,"station_id":"ce4bgup2rcd13ifvqco0","pricing_plan_id":"free"},{"bike_id":"ae89ade8-7405-4cea-8b4a-29e2843bfd81","system_id":"levelo_inurba_marseille","lat":43.317557,"lon":5.390173,"is_reserved":false,"is_disabled":false,"rental_uris":{"android":"levelo://app?vid=ae89ade8-7405-4cea-8b4a-29e2843bfd81","ios":"levelo://app?vid=ae89ade8-7405-4cea-8b4a-29e2843bfd81"},"vehicle_type_id":"4","last_reported":1690218363,"current_range_meters":28800,"station_id":"ce4bhqp2rcd13ifvqhng","pricing_plan_id":"free"},{"bike_id":"c49a7f68-723c-4368-b62c-572283447993","system_id":"levelo_inurba_marseille","lat":43.31752,"lon":5.39012,"is_reserved":false,"is_disabled":false,"rental_uris":{"android":"levelo://app?vid=c49a7f68-723c-4368-b62c-572283447993","ios":"levelo://app?vid=c49a7f68-723c-4368-b62c-572283447993"},"vehicle_type_id":"4","last_reported":1690218363,"current_range_meters":18800,"station_id":"ce4bhqp2rcd13ifvqhng","pricing_plan_id":"free"},{"bike_id":"c7b46059-e23a-486e-9f31-7c0c8a534a13","system_id":"levelo_inurba_marseille","lat":43.31759,"lon":5.39012,"is_reserved":false,"is_disabled":false,"rental_uris":{"android":"levelo://app?vid=c7b46059-e23a-486e-9f31-7c0c8a534a13","ios":"levelo://app?vid=c7b46059-e23a-486e-9f31-7c0c8a534a13"},"vehicle_type_id":"4","last_reported":1690218363,"current_range_meters":31200,"station_id":"ce4bhqp2rcd13ifvqhng","pricing_plan_id":"free"},{"bike_id":"f8fd4912-1670-4677-9484-71213228e8d5","system_id":"levelo_inurba_marseille","lat":43.29588,"lon":5.37499,"is_reserved":false,"is_disabled":false,"rental_uris":{"android":"levelo://app?vid=f8fd4912-1670-4677-9484-71213228e8d5","ios":"levelo://app?vid=f8fd4912-1670-4677-9484-71213228e8d5"},"vehicle_type_id":"4","last_reported":1690218363,"current_range_meters":15600,"station_id":"ce4bgh92rcd13ifvqb50","pricing_plan_id":"free"},{"bike_id":"c4137e75-d9e4-4893-908d-35b431444ec1","system_id":"levelo_inurba_marseille","lat":43.304274,"lon":5.388873,"is_reserved":false,"is_disabled":false,"rental_uris":{"android":"levelo://app?vid=c4137e75-d9e4-4893-908d-35b431444ec1","ios":"levelo://app?vid=c4137e75-d9e4-4893-908d-35b431444ec1"},"vehicle_type_id":"4","last_reported":1690218363,"current_range_meters":17200,"station_id":"ce4bgk12rcd13ifvqbi0","pricing_plan_id":"free"},{"bike_id":"21466dd5-1de3-4731-8e83-4cf082633d38","system_id":"levelo_inurba_marseille","lat":43.304274,"lon":5.388873,"is_reserved":false,"is_disabled":false,"rental_uris":{"android":"levelo://app?vid=21466dd5-1de3-4731-8e83-4cf082633d38","ios":"levelo://app?vid=21466dd5-1de3-4731-8e83-4cf082633d38"},"vehicle_type_id":"4","last_reported":1690218363,"current_range_meters":21600,"station_id":"ce4bgk12rcd13ifvqbi0","pricing_plan_id":"free"},{"bike_id":"bd5eaf56-4b34-4b60-861b-38cfb1b07e29","system_id":"levelo_inurba_marseille","lat":43.290104,"lon":5.356111,"is_reserved":false,"is_disabled":false,"rental_uris":{"android":"levelo://app?vid=bd5eaf56-4b34-4b60-861b-38cfb1b07e29","ios":"levelo://app?vid=bd5eaf56-4b34-4b60-861b-38cfb1b07e29"},"vehicle_type_id":"4","last_reported":1690218363,"current_range_meters":4000,"station_id":"ce4bhb92rcd13ifvqen0","pricing_plan_id":"free"},{"bike_id":"5aa00cca-de5f-4550-a458-c8b28db0fcff","system_id":"levelo_inurba_marseille","lat":43.29971,"lon":5.38492,"is_reserved":false,"is_disabled":false,"rental_uris":{"android":"levelo://app?vid=5aa00cca-de5f-4550-a458-c8b28db0fcff","ios":"levelo://app?vid=5aa00cca-de5f-4550-a458-c8b28db0fcff"},"vehicle_type_id":"4","last_reported":1690218363,"current_range_meters":7200,"station_id":"ce4bgj92rcd13ifvqbd0","pricing_plan_id":"free"},{"bike_id":"106ec43e-1031-4ae0-a7ba-043680f3c542","system_id":"levelo_inurba_marseille","lat":43.299717,"lon":5.384845,"is_reserved":false,"is_disabled":false,"rental_uris":{"android":"levelo://app?vid=106ec43e-1031-4ae0-a7ba-043680f3c542","ios":"levelo://app?vid=106ec43e-1031-4ae0-a7ba-043680f3c542"},"vehicle_type_id":"4","last_reported":1690218363,"current_range_meters":12400,"station_id":"ce4bgj92rcd13ifvqbd0","pricing_plan_id":"free"},{"bike_id":"404fdd21-e55e-4101-b07c-2a3b5dbd8caa","system_id":"levelo_inurba_marseille","lat":43.32363,"lon":5.38874,"is_reserved":false,"is_disabled":false,"rental_uris":{"android":"levelo://app?vid=404fdd21-e55e-4101-b07c-2a3b5dbd8caa","ios":"levelo://app?vid=404fdd21-e55e-4101-b07c-2a3b5dbd8caa"},"vehicle_type_id":"4","last_reported":1690218363,"current_range_meters":13600,"station_id":"ce4bhqp2rcd13ifvqhog","pricing_plan_id":"free"},{"bike_id":"09014823-2f55-479e-89a3-b9ea92d911c6","system_id":"levelo_inurba_marseille","lat":43.32364,"lon":5.38878,"is_reserved":false,"is_disabled":false,"rental_uris":{"android":"levelo://app?vid=09014823-2f55-479e-89a3-b9ea92d911c6","ios":"levelo://app?vid=09014823-2f55-479e-89a3-b9ea92d911c6"},"vehicle_type_id":"4","last_reported":1690218363,"current_range_meters":31200,"station_id":"ce4bhqp2rcd13ifvqhog","pricing_plan_id":"free"},{"bike_id":"28b80635-5710-4a8b-9bc7-52106782f5ef","system_id":"levelo_inurba_marseille","lat":43.32366,"lon":5.38881,"is_reserved":false,"is_disabled":false,"rental_uris":{"android":"levelo://app?vid=28b80635-5710-4a8b-9bc7-52106782f5ef","ios":"levelo://app?vid=28b80635-5710-4a8b-9bc7-52106782f5ef"},"vehicle_type_id":"4","last_reported":1690218363,"current_range_meters":21600,"station_id":"ce4bhqp2rcd13ifvqhog","pricing_plan_id":"free"},{"bike_id":"c69d656e-c28c-4a19-938d-5ee3be2a5249","system_id":"levelo_inurba_marseille","lat":43.32366,"lon":5.38884,"is_reserved":false,"is_disabled":false,"rental_uris":{"android":"levelo://app?vid=c69d656e-c28c-4a19-938d-5ee3be2a5249","ios":"levelo://app?vid=c69d656e-c28c-4a19-938d-5ee3be2a5249"},"vehicle_type_id":"4","last_reported":1690218363,"current_range_meters":21200,"station_id":"ce4bhqp2rcd13ifvqhog","pricing_plan_id":"free"},{"bike_id":"a9e97385-5407-43e5-a923-f3337ede2580","system_id":"levelo_inurba_marseille","lat":43.32367,"lon":5.388836,"is_reserved":false,"is_disabled":false,"rental_uris":{"android":"levelo://app?vid=a9e97385-5407-43e5-a923-f3337ede2580","ios":"levelo://app?vid=a9e97385-5407-43e5-a923-f3337ede2580"},"vehicle_type_id":"4","last_reported":1690218363,"current_range_meters":16000,"station_id":"ce4bhqp2rcd13ifvqhog","pricing_plan_id":"free"},{"bike_id":"ba255296-b012-440c-a4ac-a04d7dedcd78","system_id":"levelo_inurba_marseille","lat":43.3237,"lon":5.3889,"is_reserved":false,"is_disabled":false,"rental_uris":{"android":"levelo://app?vid=ba255296-b012-440c-a4ac-a04d7dedcd78","ios":"levelo://app?vid=ba255296-b012-440c-a4ac-a04d7dedcd78"},"vehicle_type_id":"4","last_reported":1690218363,"current_range_meters":29200,"station_id":"ce4bhqp2rcd13ifvqhog","pricing_plan_id":"free"},{"bike_id":"0fe12f2b-9b17-4353-8a4f-d46a0653eadc","system_id":"levelo_inurba_marseille","lat":43.29605,"lon":5.38093,"is_reserved":false,"is_disabled":false,"rental_uris":{"android":"levelo://app?vid=0fe12f2b-9b17-4353-8a4f-d46a0653eadc","ios":"levelo://app?vid=0fe12f2b-9b17-4353-8a4f-d46a0653eadc"},"vehicle_type_id":"4","last_reported":1690218363,"current_range_meters":22400,"station_id":"ce4bgl12rcd13ifvqbo0","pricing_plan_id":"free"},{"bike_id":"f0484b2b-8f8b-4e21-9451-5ddeeb2944e0","system_id":"levelo_inurba_marseille","lat":43.29602,"lon":5.38106,"is_reserved":false,"is_disabled":false,"rental_uris":{"android":"levelo://app?vid=f0484b2b-8f8b-4e21-9451-5ddeeb2944e0","ios":"levelo://app?vid=f0484b2b-8f8b-4e21-9451-5ddeeb2944e0"},"vehicle_type_id":"4","last_reported":1690218363,"current_range_meters":10800,"station_id":"ce4bgl12rcd13ifvqbo0","pricing_plan_id":"free"},{"bike_id":"793b190e-6c3a-44f3-b48c-5426880c7037","system_id":"levelo_inurba_marseille","lat":43.293249,"lon":5.371578,"is_reserved":false,"is_disabled":false,"rental_uris":{"android":"levelo://app?vid=793b190e-6c3a-44f3-b48c-5426880c7037","ios":"levelo://app?vid=793b190e-6c3a-44f3-b48c-5426880c7037"},"vehicle_type_id":"4","last_reported":1690218363,"current_range_meters":27600,"station_id":"ce4bgh92rcd13ifvqb40","pricing_plan_id":"free"},{"bike_id":"237bcbbb-92e6-4145-9f1f-5550606d21c0","system_id":"levelo_inurba_marseille","lat":43.29277,"lon":5.36848,"is_reserved":false,"is_disabled":false,"rental_uris":{"android":"levelo://app?vid=237bcbbb-92e6-4145-9f1f-5550606d21c0","ios":"levelo://app?vid=237bcbbb-92e6-4145-9f1f-5550606d21c0"},"vehicle_type_id":"4","last_reported":1690218363,"current_range_meters":20400,"station_id":"ce4bhbp2rcd13ifvqesg","pricing_plan_id":"free"},{"bike_id":"281cc1e2-f9d8-4217-9a9f-8eb8d182c6d2","system_id":"levelo_inurba_marseille","lat":43.292749,"lon":5.368402,"is_reserved":false,"is_disabled":false,"rental_uris":{"android":"levelo://app?vid=281cc1e2-f9d8-4217-9a9f-8eb8d182c6d2","ios":"levelo://app?vid=281cc1e2-f9d8-4217-9a9f-8eb8d182c6d2"},"vehicle_type_id":"4","last_reported":1690218363,"current_range_meters":13600,"station_id":"ce4bhbp2rcd13ifvqesg","pricing_plan_id":"free"},{"bike_id":"73c3dd07-2ba7-4672-b904-ba1263266805","system_id":"levelo_inurba_marseille","lat":43.293009,"lon":5.374584,"is_reserved":false,"is_disabled":false,"rental_uris":{"android":"levelo://app?vid=73c3dd07-2ba7-4672-b904-ba1263266805","ios":"levelo://app?vid=73c3dd07-2ba7-4672-b904-ba1263266805"},"vehicle_type_id":"4","last_reported":1690218363,"current_range_meters":11600,"station_id":"ce4bgi12rcd13ifvqb70","pricing_plan_id":"free"},{"bike_id":"a4b29549-e1c4-4a22-a239-34fb596b1717","system_id":"levelo_inurba_marseille","lat":43.30607,"lon":5.39352,"is_reserved":false,"is_disabled":false,"rental_uris":{"android":"levelo://app?vid=a4b29549-e1c4-4a22-a239-34fb596b1717","ios":"levelo://app?vid=a4b29549-e1c4-4a22-a239-34fb596b1717"},"vehicle_type_id":"4","last_reported":1690218363,"current_range_meters":28000,"station_id":"ce4bh0p2rcd13ifvqd80","pricing_plan_id":"free"},{"bike_id":"41ee1398-50a9-4a1c-b764-351cd12c8110","system_id":"levelo_inurba_marseille","lat":43.29305,"lon":5.37461,"is_reserved":false,"is_disabled":false,"rental_uris":{"android":"levelo://app?vid=41ee1398-50a9-4a1c-b764-351cd12c8110","ios":"levelo://app?vid=41ee1398-50a9-4a1c-b764-351cd12c8110"},"vehicle_type_id":"4","last_reported":1690218363,"current_range_meters":30400,"station_id":"ce4bgi12rcd13ifvqb70","pricing_plan_id":"free"},{"bike_id":"351a1d84-3cb8-46a9-800f-b1ed6acf8386","system_id":"levelo_inurba_marseille","lat":43.3059,"lon":5.39358,"is_reserved":false,"is_disabled":false,"rental_uris":{"android":"levelo://app?vid=351a1d84-3cb8-46a9-800f-b1ed6acf8386","ios":"levelo://app?vid=351a1d84-3cb8-46a9-800f-b1ed6acf8386"},"vehicle_type_id":"4","last_reported":1690218363,"current_range_meters":0,"station_id":"ce4bh0p2rcd13ifvqd80","pricing_plan_id":"free"},{"bike_id":"dd6ea4a6-f0ae-4a8c-bdd5-262137734aa6","system_id":"levelo_inurba_marseille","lat":43.2936,"lon":5.37835,"is_reserved":false,"is_disabled":false,"rental_uris":{"android":"levelo://app?vid=dd6ea4a6-f0ae-4a8c-bdd5-262137734aa6","ios":"levelo://app?vid=dd6ea4a6-f0ae-4a8c-bdd5-262137734aa6"},"vehicle_type_id":"4","last_reported":1690218363,"current_range_meters":22000,"station_id":"ce4bgjh2rcd13ifvqbf0","pricing_plan_id":"free"},{"bike_id":"9fe4f699-e558-4653-8ae4-7d54ece16c72","system_id":"levelo_inurba_marseille","lat":43.31324,"lon":5.39678,"is_reserved":false,"is_disabled":false,"rental_uris":{"android":"levelo://app?vid=9fe4f699-e558-4653-8ae4-7d54ece16c72","ios":"levelo://app?vid=9fe4f699-e558-4653-8ae4-7d54ece16c72"},"vehicle_type_id":"4","last_reported":1690218363,"current_range_meters":28400,"station_id":"ce4bgvp2rcd13ifvqcu0","pricing_plan_id":"free"},{"bike_id":"9b56b76c-0668-411f-9210-b87d444933ff","system_id":"levelo_inurba_marseille","lat":43.29194,"lon":5.35808,"is_reserved":false,"is_disabled":false,"rental_uris":{"android":"levelo://app?vid=9b56b76c-0668-411f-9210-b87d444933ff","ios":"levelo://app?vid=9b56b76c-0668-411f-9210-b87d444933ff"},"vehicle_type_id":"4","last_reported":1690218363,"current_range_meters":22800,"station_id":"ce4bhb12rcd13ifvqel0","pricing_plan_id":"free"},{"bike_id":"68826e53-f6f6-4ff2-9a33-1099cd9c0571","system_id":"levelo_inurba_marseille","lat":43.31321,"lon":5.39686,"is_reserved":false,"is_disabled":false,"rental_uris":{"android":"levelo://app?vid=68826e53-f6f6-4ff2-9a33-1099cd9c0571","ios":"levelo://app?vid=68826e53-f6f6-4ff2-9a33-1099cd9c0571"},"vehicle_type_id":"4","last_reported":1690218363,"current_range_meters":24000,"station_id":"ce4bgvp2rcd13ifvqcu0","pricing_plan_id":"free"},{"bike_id":"7ee4e250-6d48-40f7-b837-ba47a4977c57","system_id":"levelo_inurba_marseille","lat":43.313291,"lon":5.396838,"is_reserved":false,"is_disabled":false,"rental_uris":{"android":"levelo://app?vid=7ee4e250-6d48-40f7-b837-ba47a4977c57","ios":"levelo://app?vid=7ee4e250-6d48-40f7-b837-ba47a4977c57"},"vehicle_type_id":"4","last_reported":1690218363,"current_range_meters":16000,"station_id":"ce4bgvp2rcd13ifvqcu0","pricing_plan_id":"free"},{"bike_id":"0ae6d500-9a1e-41de-b1a2-731c6ad463b9","system_id":"levelo_inurba_marseille","lat":43.313291,"lon":5.396838,"is_reserved":false,"is_disabled":false,"rental_uris":{"android":"levelo://app?vid=0ae6d500-9a1e-41de-b1a2-731c6ad463b9","ios":"levelo://app?vid=0ae6d500-9a1e-41de-b1a2-731c6ad463b9"},"vehicle_type_id":"4","last_reported":1690218363,"current_range_meters":7200,"station_id":"ce4bgvp2rcd13ifvqcu0","pricing_plan_id":"free"},{"bike_id":"33801ecf-e842-40b8-8e90-3cdbcaceed24","system_id":"levelo_inurba_marseille","lat":43.31327,"lon":5.39698,"is_reserved":false,"is_disabled":false,"rental_uris":{"android":"levelo://app?vid=33801ecf-e842-40b8-8e90-3cdbcaceed24","ios":"levelo://app?vid=33801ecf-e842-40b8-8e90-3cdbcaceed24"},"vehicle_type_id":"4","last_reported":1690218363,"current_range_meters":7600,"station_id":"ce4bgvp2rcd13ifvqcu0","pricing_plan_id":"free"},{"bike_id":"bb93f240-1da7-4a76-a7e3-5b89ee3518c7","system_id":"levelo_inurba_marseille","lat":43.31317,"lon":5.39701,"is_reserved":false,"is_disabled":false,"rental_uris":{"android":"levelo://app?vid=bb93f240-1da7-4a76-a7e3-5b89ee3518c7","ios":"levelo://app?vid=bb93f240-1da7-4a76-a7e3-5b89ee3518c7"},"vehicle_type_id":"4","last_reported":1690218363,"current_range_meters":14800,"station_id":"ce4bgvp2rcd13ifvqcu0","pricing_plan_id":"free"},{"bike_id":"6a8fa07c-201f-4093-995d-e63b0d485dcc","system_id":"levelo_inurba_marseille","lat":43.30884,"lon":5.39654,"is_reserved":false,"is_disabled":false,"rental_uris":{"android":"levelo://app?vid=6a8fa07c-201f-4093-995d-e63b0d485dcc","ios":"levelo://app?vid=6a8fa07c-201f-4093-995d-e63b0d485dcc"},"vehicle_type_id":"4","last_reported":1690218363,"current_range_meters":10000,"station_id":"ce4bh012rcd13ifvqcv0","pricing_plan_id":"free"},{"bike_id":"a16a05c8-3c73-49ef-819e-b2fc823c771f","system_id":"levelo_inurba_marseille","lat":43.29526,"lon":5.3855,"is_reserved":false,"is_disabled":false,"rental_uris":{"android":"levelo://app?vid=a16a05c8-3c73-49ef-819e-b2fc823c771f","ios":"levelo://app?vid=a16a05c8-3c73-49ef-819e-b2fc823c771f"},"vehicle_type_id":"4","last_reported":1690218363,"current_range_meters":4000,"station_id":"ce4bgih2rcd13ifvqba0","pricing_plan_id":"free"},{"bike_id":"f61aad24-c24f-4524-ae52-6998d0bb6cb9","system_id":"levelo_inurba_marseille","lat":43.290624,"lon":5.359245,"is_reserved":false,"is_disabled":false,"rental_uris":{"android":"levelo://app?vid=f61aad24-c24f-4524-ae52-6998d0bb6cb9","ios":"levelo://app?vid=f61aad24-c24f-4524-ae52-6998d0bb6cb9"},"vehicle_type_id":"4","last_reported":1690218363,"current_range_meters":15600,"station_id":"ce4bha92rcd13ifvqeg0","pricing_plan_id":"free"},{"bike_id":"88824589-4661-4085-89f5-3e3c7cc6c139","system_id":"levelo_inurba_marseille","lat":43.290631,"lon":5.359244,"is_reserved":false,"is_disabled":false,"rental_uris":{"android":"levelo://app?vid=88824589-4661-4085-89f5-3e3c7cc6c139","ios":"levelo://app?vid=88824589-4661-4085-89f5-3e3c7cc6c139"},"vehicle_type_id":"4","last_reported":1690218363,"current_range_meters":30000,"station_id":"ce4bha92rcd13ifvqeg0","pricing_plan_id":"free"},{"bike_id":"b9ab43b7-2c37-49cc-8f4a-9fec1a6eccab","system_id":"levelo_inurba_marseille","lat":43.29424,"lon":5.38616,"is_reserved":false,"is_disabled":false,"rental_uris":{"android":"levelo://app?vid=b9ab43b7-2c37-49cc-8f4a-9fec1a6eccab","ios":"levelo://app?vid=b9ab43b7-2c37-49cc-8f4a-9fec1a6eccab"},"vehicle_type_id":"4","last_reported":1690218363,"current_range_meters":24800,"station_id":"ce4bh2h2rcd13ifvqdh0","pricing_plan_id":"free"},{"bike_id":"8b78cb0d-89dc-4fc9-b7b0-a19cd15796aa","system_id":"levelo_inurba_marseille","lat":43.294153,"lon":5.386305,"is_reserved":false,"is_disabled":false,"rental_uris":{"android":"levelo://app?vid=8b78cb0d-89dc-4fc9-b7b0-a19cd15796aa","ios":"levelo://app?vid=8b78cb0d-89dc-4fc9-b7b0-a19cd15796aa"},"vehicle_type_id":"4","last_reported":1690218363,"current_range_meters":29200,"station_id":"ce4bh2h2rcd13ifvqdh0","pricing_plan_id":"free"},{"bike_id":"28b9807b-d44e-4600-ae6b-013e3d3660f3","system_id":"levelo_inurba_marseille","lat":43.28943,"lon":5.36643,"is_reserved":false,"is_disabled":false,"rental_uris":{"android":"levelo://app?vid=28b9807b-d44e-4600-ae6b-013e3d3660f3","ios":"levelo://app?vid=28b9807b-d44e-4600-ae6b-013e3d3660f3"},"vehicle_type_id":"4","last_reported":1690218363,"current_range_meters":14000,"station_id":"ce4bhap2rcd13ifvqek0","pricing_plan_id":"free"},{"bike_id":"ee22d760-3e32-4ce7-aec9-8a14c901a2c5","system_id":"levelo_inurba_marseille","lat":43.289184,"lon":5.366408,"is_reserved":false,"is_disabled":false,"rental_uris":{"android":"levelo://app?vid=ee22d760-3e32-4ce7-aec9-8a14c901a2c5","ios":"levelo://app?vid=ee22d760-3e32-4ce7-aec9-8a14c901a2c5"},"vehicle_type_id":"4","last_reported":1690218363,"current_range_meters":31200,"station_id":"ce4bhap2rcd13ifvqek0","pricing_plan_id":"free"},{"bike_id":"a43c8fe9-8ad3-4238-9775-546578e6afcf","system_id":"levelo_inurba_marseille","lat":43.28938,"lon":5.36389,"is_reserved":false,"is_disabled":false,"rental_uris":{"android":"levelo://app?vid=a43c8fe9-8ad3-4238-9775-546578e6afcf","ios":"levelo://app?vid=a43c8fe9-8ad3-4238-9775-546578e6afcf"},"vehicle_type_id":"4","last_reported":1690218363,"current_range_meters":19200,"station_id":"ce4bhc92rcd13ifvqetg","pricing_plan_id":"free"},{"bike_id":"14a6f5c9-20e0-4cfa-946d-1f0acd7cd9d1","system_id":"levelo_inurba_marseille","lat":43.29394,"lon":5.38678,"is_reserved":false,"is_disabled":false,"rental_uris":{"android":"levelo://app?vid=14a6f5c9-20e0-4cfa-946d-1f0acd7cd9d1","ios":"levelo://app?vid=14a6f5c9-20e0-4cfa-946d-1f0acd7cd9d1"},"vehicle_type_id":"4","last_reported":1690218363,"current_range_meters":14000,"station_id":"ce4bh2h2rcd13ifvqdh0","pricing_plan_id":"free"},{"bike_id":"c99a92fe-4ed1-463c-a7fc-8fac686b7c34","system_id":"levelo_inurba_marseille","lat":43.29232,"lon":5.38353,"is_reserved":false,"is_disabled":false,"rental_uris":{"android":"levelo://app?vid=c99a92fe-4ed1-463c-a7fc-8fac686b7c34","ios":"levelo://app?vid=c99a92fe-4ed1-463c-a7fc-8fac686b7c34"},"vehicle_type_id":"4","last_reported":1690218363,"current_range_meters":20400,"station_id":"","pricing_plan_id":"free"},{"bike_id":"144d3e9c-9150-48bf-b8de-8fbaec906016","system_id":"levelo_inurba_marseille","lat":43.292644,"lon":5.384257,"is_reserved":false,"is_disabled":false,"rental_uris":{"android":"levelo://app?vid=144d3e9c-9150-48bf-b8de-8fbaec906016","ios":"levelo://app?vid=144d3e9c-9150-48bf-b8de-8fbaec906016"},"vehicle_type_id":"4","last_reported":1690218363,"current_range_meters":16400,"station_id":"ce4bh692rcd13ifvqea0","pricing_plan_id":"free"},{"bike_id":"c8162e77-b7b3-4bb2-8724-612cccc4cab4","system_id":"levelo_inurba_marseille","lat":43.29012,"lon":5.35614,"is_reserved":false,"is_disabled":false,"rental_uris":{"android":"levelo://app?vid=c8162e77-b7b3-4bb2-8724-612cccc4cab4","ios":"levelo://app?vid=c8162e77-b7b3-4bb2-8724-612cccc4cab4"},"vehicle_type_id":"4","last_reported":1690218363,"current_range_meters":14800,"station_id":"ce4bhb92rcd13ifvqen0","pricing_plan_id":"free"},{"bike_id":"9a04fc29-cc5d-494d-9e95-f37dfeccce1e","system_id":"levelo_inurba_marseille","lat":43.29011,"lon":5.35612,"is_reserved":false,"is_disabled":false,"rental_uris":{"android":"levelo://app?vid=9a04fc29-cc5d-494d-9e95-f37dfeccce1e","ios":"levelo://app?vid=9a04fc29-cc5d-494d-9e95-f37dfeccce1e"},"vehicle_type_id":"4","last_reported":1690218363,"current_range_meters":3600,"station_id":"ce4bhb92rcd13ifvqen0","pricing_plan_id":"free"},{"bike_id":"71422977-ced2-4213-87e0-23830614fc7d","system_id":"levelo_inurba_marseille","lat":43.33042,"lon":5.38916,"is_reserved":false,"is_disabled":false,"rental_uris":{"android":"levelo://app?vid=71422977-ced2-4213-87e0-23830614fc7d","ios":"levelo://app?vid=71422977-ced2-4213-87e0-23830614fc7d"},"vehicle_type_id":"4","last_reported":1690218363,"current_range_meters":17200,"station_id":"ce4bhr92rcd13ifvqhrg","pricing_plan_id":"free"},{"bike_id":"9b7a4a8a-7add-49b0-b4b8-f745fd45f2dc","system_id":"levelo_inurba_marseille","lat":43.33044,"lon":5.38914,"is_reserved":false,"is_disabled":false,"rental_uris":{"android":"levelo://app?vid=9b7a4a8a-7add-49b0-b4b8-f745fd45f2dc","ios":"levelo://app?vid=9b7a4a8a-7add-49b0-b4b8-f745fd45f2dc"},"vehicle_type_id":"4","last_reported":1690218363,"current_range_meters":28400,"station_id":"ce4bhr92rcd13ifvqhrg","pricing_plan_id":"free"},{"bike_id":"6b6200e2-0a64-4f7f-b550-a4ef2ea6c933","system_id":"levelo_inurba_marseille","lat":43.29009,"lon":5.35615,"is_reserved":false,"is_disabled":false,"rental_uris":{"android":"levelo://app?vid=6b6200e2-0a64-4f7f-b550-a4ef2ea6c933","ios":"levelo://app?vid=6b6200e2-0a64-4f7f-b550-a4ef2ea6c933"},"vehicle_type_id":"4","last_reported":1690218363,"current_range_meters":20800,"station_id":"ce4bhb92rcd13ifvqen0","pricing_plan_id":"free"},{"bike_id":"2a939711-d6db-45a1-bd4f-682a0ce4e905","system_id":"levelo_inurba_marseille","lat":43.33045,"lon":5.38914,"is_reserved":false,"is_disabled":false,"rental_uris":{"android":"levelo://app?vid=2a939711-d6db-45a1-bd4f-682a0ce4e905","ios":"levelo://app?vid=2a939711-d6db-45a1-bd4f-682a0ce4e905"},"vehicle_type_id":"4","last_reported":1690218363,"current_range_meters":31200,"station_id":"ce4bhr92rcd13ifvqhrg","pricing_plan_id":"free"},{"bike_id":"29058308-74fc-4110-9ab5-900d6c04d566","system_id":"levelo_inurba_marseille","lat":43.290104,"lon":5.356111,"is_reserved":false,"is_disabled":false,"rental_uris":{"android":"levelo://app?vid=29058308-74fc-4110-9ab5-900d6c04d566","ios":"levelo://app?vid=29058308-74fc-4110-9ab5-900d6c04d566"},"vehicle_type_id":"4","last_reported":1690218363,"current_range_meters":9200,"station_id":"ce4bhb92rcd13ifvqen0","pricing_plan_id":"free"},{"bike_id":"bf0d8409-e185-4184-be5b-bee96b2570d1","system_id":"levelo_inurba_marseille","lat":43.290104,"lon":5.356111,"is_reserved":false,"is_disabled":false,"rental_uris":{"android":"levelo://app?vid=bf0d8409-e185-4184-be5b-bee96b2570d1","ios":"levelo://app?vid=bf0d8409-e185-4184-be5b-bee96b2570d1"},"vehicle_type_id":"4","last_reported":1690218363,"current_range_meters":26400,"station_id":"ce4bhb92rcd13ifvqen0","pricing_plan_id":"free"},{"bike_id":"9201cf71-93fd-440f-8323-f34fe91baefb","system_id":"levelo_inurba_marseille","lat":43.29008,"lon":5.35613,"is_reserved":false,"is_disabled":false,"rental_uris":{"android":"levelo://app?vid=9201cf71-93fd-440f-8323-f34fe91baefb","ios":"levelo://app?vid=9201cf71-93fd-440f-8323-f34fe91baefb"},"vehicle_type_id":"4","last_reported":1690218363,"current_range_meters":17600,"station_id":"ce4bhb92rcd13ifvqen0","pricing_plan_id":"free"},{"bike_id":"e94fa759-8b8b-4817-9e96-9440399817e9","system_id":"levelo_inurba_marseille","lat":43.290103,"lon":5.356114,"is_reserved":false,"is_disabled":false,"rental_uris":{"android":"levelo://app?vid=e94fa759-8b8b-4817-9e96-9440399817e9","ios":"levelo://app?vid=e94fa759-8b8b-4817-9e96-9440399817e9"},"vehicle_type_id":"4","last_reported":1690218363,"current_range_meters":31200,"station_id":"ce4bhb92rcd13ifvqen0","pricing_plan_id":"free"},{"bike_id":"f9a6b5f6-c306-4144-8d30-a31060377720","system_id":"levelo_inurba_marseille","lat":43.290066,"lon":5.356175,"is_reserved":false,"is_disabled":false,"rental_uris":{"android":"levelo://app?vid=f9a6b5f6-c306-4144-8d30-a31060377720","ios":"levelo://app?vid=f9a6b5f6-c306-4144-8d30-a31060377720"},"vehicle_type_id":"4","last_reported":1690218363,"current_range_meters":31600,"station_id":"ce4bhb92rcd13ifvqen0","pricing_plan_id":"free"},{"bike_id":"5eecfebc-b670-495e-91fd-72fc440a1bf0","system_id":"levelo_inurba_marseille","lat":43.29006,"lon":5.35611,"is_reserved":false,"is_disabled":false,"rental_uris":{"android":"levelo://app?vid=5eecfebc-b670-495e-91fd-72fc440a1bf0","ios":"levelo://app?vid=5eecfebc-b670-495e-91fd-72fc440a1bf0"},"vehicle_type_id":"4","last_reported":1690218363,"current_range_meters":31600,"station_id":"ce4bhb92rcd13ifvqen0","pricing_plan_id":"free"},{"bike_id":"8578e704-dbe6-47c6-8672-4d394b62f525","system_id":"levelo_inurba_marseille","lat":43.29005,"lon":5.35613,"is_reserved":false,"is_disabled":false,"rental_uris":{"android":"levelo://app?vid=8578e704-dbe6-47c6-8672-4d394b62f525","ios":"levelo://app?vid=8578e704-dbe6-47c6-8672-4d394b62f525"},"vehicle_type_id":"4","last_reported":1690218363,"current_range_meters":20800,"station_id":"ce4bhb92rcd13ifvqen0","pricing_plan_id":"free"},{"bike_id":"69ee07cb-57ea-4dc2-99e9-894e3d463a7f","system_id":"levelo_inurba_marseille","lat":43.29001,"lon":5.35629,"is_reserved":false,"is_disabled":false,"rental_uris":{"android":"levelo://app?vid=69ee07cb-57ea-4dc2-99e9-894e3d463a7f","ios":"levelo://app?vid=69ee07cb-57ea-4dc2-99e9-894e3d463a7f"},"vehicle_type_id":"4","last_reported":1690218363,"current_range_meters":31200,"station_id":"ce4bhb92rcd13ifvqen0","pricing_plan_id":"free"},{"bike_id":"cf0ea7b0-7eef-4280-950c-c6f677eda9f7","system_id":"levelo_inurba_marseille","lat":43.290104,"lon":5.356111,"is_reserved":false,"is_disabled":false,"rental_uris":{"android":"levelo://app?vid=cf0ea7b0-7eef-4280-950c-c6f677eda9f7","ios":"levelo://app?vid=cf0ea7b0-7eef-4280-950c-c6f677eda9f7"},"vehicle_type_id":"4","last_reported":1690218363,"current_range_meters":25600,"station_id":"ce4bhb92rcd13ifvqen0","pricing_plan_id":"free"},{"bike_id":"1b225993-6f34-4467-8dcc-c3e4ddbeba7d","system_id":"levelo_inurba_marseille","lat":43.290104,"lon":5.356111,"is_reserved":false,"is_disabled":false,"rental_uris":{"android":"levelo://app?vid=1b225993-6f34-4467-8dcc-c3e4ddbeba7d","ios":"levelo://app?vid=1b225993-6f34-4467-8dcc-c3e4ddbeba7d"},"vehicle_type_id":"4","last_reported":1690218363,"current_range_meters":2800,"station_id":"ce4bhb92rcd13ifvqen0","pricing_plan_id":"free"},{"bike_id":"44f20f57-7226-469c-9872-88a16c6ed9df","system_id":"levelo_inurba_marseille","lat":43.290104,"lon":5.356111,"is_reserved":false,"is_disabled":false,"rental_uris":{"android":"levelo://app?vid=44f20f57-7226-469c-9872-88a16c6ed9df","ios":"levelo://app?vid=44f20f57-7226-469c-9872-88a16c6ed9df"},"vehicle_type_id":"4","last_reported":1690218363,"current_range_meters":31600,"station_id":"ce4bhb92rcd13ifvqen0","pricing_plan_id":"free"},{"bike_id":"88595f1c-9d4f-4aa1-9a28-af2425b54179","system_id":"levelo_inurba_marseille","lat":43.290103,"lon":5.356114,"is_reserved":false,"is_disabled":false,"rental_uris":{"android":"levelo://app?vid=88595f1c-9d4f-4aa1-9a28-af2425b54179","ios":"levelo://app?vid=88595f1c-9d4f-4aa1-9a28-af2425b54179"},"vehicle_type_id":"4","last_reported":1690218363,"current_range_meters":31600,"station_id":"ce4bhb92rcd13ifvqen0","pricing_plan_id":"free"},{"bike_id":"7ac7f7b0-a3f4-4060-b2bf-cf428c563185","system_id":"levelo_inurba_marseille","lat":43.29006,"lon":5.35603,"is_reserved":false,"is_disabled":false,"rental_uris":{"android":"levelo://app?vid=7ac7f7b0-a3f4-4060-b2bf-cf428c563185","ios":"levelo://app?vid=7ac7f7b0-a3f4-4060-b2bf-cf428c563185"},"vehicle_type_id":"4","last_reported":1690218363,"current_range_meters":13600,"station_id":"ce4bhb92rcd13ifvqen0","pricing_plan_id":"free"},{"bike_id":"910edae7-7b9b-486a-adc6-a5f87f49ab70","system_id":"levelo_inurba_marseille","lat":43.290103,"lon":5.356114,"is_reserved":false,"is_disabled":false,"rental_uris":{"android":"levelo://app?vid=910edae7-7b9b-486a-adc6-a5f87f49ab70","ios":"levelo://app?vid=910edae7-7b9b-486a-adc6-a5f87f49ab70"},"vehicle_type_id":"4","last_reported":1690218363,"current_range_meters":31600,"station_id":"ce4bhb92rcd13ifvqen0","pricing_plan_id":"free"},{"bike_id":"282217d3-b0d0-4a59-814c-11d49874b47d","system_id":"levelo_inurba_marseille","lat":43.290104,"lon":5.356111,"is_reserved":false,"is_disabled":false,"rental_uris":{"android":"levelo://app?vid=282217d3-b0d0-4a59-814c-11d49874b47d","ios":"levelo://app?vid=282217d3-b0d0-4a59-814c-11d49874b47d"},"vehicle_type_id":"4","last_reported":1690218363,"current_range_meters":17200,"station_id":"ce4bhb92rcd13ifvqen0","pricing_plan_id":"free"},{"bike_id":"45e70339-5d48-4934-acf1-66f666007db9","system_id":"levelo_inurba_marseille","lat":43.28989,"lon":5.37831,"is_reserved":false,"is_disabled":false,"rental_uris":{"android":"levelo://app?vid=45e70339-5d48-4934-acf1-66f666007db9","ios":"levelo://app?vid=45e70339-5d48-4934-acf1-66f666007db9"},"vehicle_type_id":"4","last_reported":1690218363,"current_range_meters":22400,"station_id":"ce4bh9p2rcd13ifvqed0","pricing_plan_id":"free"},{"bike_id":"60c9df66-1834-4f5e-aacd-f9b3be784cc1","system_id":"levelo_inurba_marseille","lat":43.295169,"lon":5.390426,"is_reserved":false,"is_disabled":false,"rental_uris":{"android":"levelo://app?vid=60c9df66-1834-4f5e-aacd-f9b3be784cc1","ios":"levelo://app?vid=60c9df66-1834-4f5e-aacd-f9b3be784cc1"},"vehicle_type_id":"4","last_reported":1690218363,"current_range_meters":24000,"station_id":"ce4bh3p2rcd13ifvqdp0","pricing_plan_id":"free"},{"bike_id":"71b39a17-179d-4916-828a-c18620d8f127","system_id":"levelo_inurba_marseille","lat":43.29522,"lon":5.39039,"is_reserved":false,"is_disabled":false,"rental_uris":{"android":"levelo://app?vid=71b39a17-179d-4916-828a-c18620d8f127","ios":"levelo://app?vid=71b39a17-179d-4916-828a-c18620d8f127"},"vehicle_type_id":"4","last_reported":1690218363,"current_range_meters":18000,"station_id":"ce4bh3p2rcd13ifvqdp0","pricing_plan_id":"free"},{"bike_id":"221afcb4-2eb3-40a5-a564-f03de957bd49","system_id":"levelo_inurba_marseille","lat":43.28966,"lon":5.37841,"is_reserved":false,"is_disabled":false,"rental_uris":{"android":"levelo://app?vid=221afcb4-2eb3-40a5-a564-f03de957bd49","ios":"levelo://app?vid=221afcb4-2eb3-40a5-a564-f03de957bd49"},"vehicle_type_id":"4","last_reported":1690218363,"current_range_meters":8400,"station_id":"ce4bh9p2rcd13ifvqed0","pricing_plan_id":"free"},{"bike_id":"c8b43fa2-23cb-4208-9cce-afe977c467d4","system_id":"levelo_inurba_marseille","lat":43.288593,"lon":5.358736,"is_reserved":false,"is_disabled":false,"rental_uris":{"android":"levelo://app?vid=c8b43fa2-23cb-4208-9cce-afe977c467d4","ios":"levelo://app?vid=c8b43fa2-23cb-4208-9cce-afe977c467d4"},"vehicle_type_id":"4","last_reported":1690218363,"current_range_meters":30000,"station_id":"ce4bhb12rcd13ifvqem0","pricing_plan_id":"free"},{"bike_id":"2d5202af-bf6b-40c3-9dfb-7b668683934b","system_id":"levelo_inurba_marseille","lat":43.29015,"lon":5.38135,"is_reserved":false,"is_disabled":false,"rental_uris":{"android":"levelo://app?vid=2d5202af-bf6b-40c3-9dfb-7b668683934b","ios":"levelo://app?vid=2d5202af-bf6b-40c3-9dfb-7b668683934b"},"vehicle_type_id":"4","last_reported":1690218363,"current_range_meters":15600,"station_id":"ce4bh4p2rcd13ifvqe1g","pricing_plan_id":"free"},{"bike_id":"545b9307-4cb9-4662-8f51-e42833fb5b92","system_id":"levelo_inurba_marseille","lat":43.28855,"lon":5.35863,"is_reserved":false,"is_disabled":false,"rental_uris":{"android":"levelo://app?vid=545b9307-4cb9-4662-8f51-e42833fb5b92","ios":"levelo://app?vid=545b9307-4cb9-4662-8f51-e42833fb5b92"},"vehicle_type_id":"4","last_reported":1690218363,"current_range_meters":26800,"station_id":"ce4bhb12rcd13ifvqem0","pricing_plan_id":"free"},{"bike_id":"f9948afd-840b-4b78-a82f-f063748af6cd","system_id":"levelo_inurba_marseille","lat":43.288563,"lon":5.35852,"is_reserved":false,"is_disabled":false,"rental_uris":{"android":"levelo://app?vid=f9948afd-840b-4b78-a82f-f063748af6cd","ios":"levelo://app?vid=f9948afd-840b-4b78-a82f-f063748af6cd"},"vehicle_type_id":"4","last_reported":1690218363,"current_range_meters":14800,"station_id":"ce4bhb12rcd13ifvqem0","pricing_plan_id":"free"},{"bike_id":"c7aa8a52-7b64-4b60-8b0a-6c19106db824","system_id":"levelo_inurba_marseille","lat":43.28855,"lon":5.3584,"is_reserved":false,"is_disabled":false,"rental_uris":{"android":"levelo://app?vid=c7aa8a52-7b64-4b60-8b0a-6c19106db824","ios":"levelo://app?vid=c7aa8a52-7b64-4b60-8b0a-6c19106db824"},"vehicle_type_id":"4","last_reported":1690218363,"current_range_meters":21200,"station_id":"ce4bhb12rcd13ifvqem0","pricing_plan_id":"free"},{"bike_id":"845dd20b-065a-443b-858f-12973a4a75d3","system_id":"levelo_inurba_marseille","lat":43.28852,"lon":5.35847,"is_reserved":false,"is_disabled":false,"rental_uris":{"android":"levelo://app?vid=845dd20b-065a-443b-858f-12973a4a75d3","ios":"levelo://app?vid=845dd20b-065a-443b-858f-12973a4a75d3"},"vehicle_type_id":"4","last_reported":1690218363,"current_range_meters":16800,"station_id":"ce4bhb12rcd13ifvqem0","pricing_plan_id":"free"},{"bike_id":"04511194-9ebd-4353-8595-5c1e84a0d8bc","system_id":"levelo_inurba_marseille","lat":43.28852,"lon":5.35843,"is_reserved":false,"is_disabled":false,"rental_uris":{"android":"levelo://app?vid=04511194-9ebd-4353-8595-5c1e84a0d8bc","ios":"levelo://app?vid=04511194-9ebd-4353-8595-5c1e84a0d8bc"},"vehicle_type_id":"4","last_reported":1690218363,"current_range_meters":31200,"station_id":"ce4bhb12rcd13ifvqem0","pricing_plan_id":"free"},{"bike_id":"53967218-382a-44c2-a491-e6fcbd2f0c3f","system_id":"levelo_inurba_marseille","lat":43.2885,"lon":5.35849,"is_reserved":false,"is_disabled":false,"rental_uris":{"android":"levelo://app?vid=53967218-382a-44c2-a491-e6fcbd2f0c3f","ios":"levelo://app?vid=53967218-382a-44c2-a491-e6fcbd2f0c3f"},"vehicle_type_id":"4","last_reported":1690218363,"current_range_meters":14800,"station_id":"ce4bhb12rcd13ifvqem0","pricing_plan_id":"free"},{"bike_id":"f7b527ea-e92b-4f65-8dd9-8a022355846e","system_id":"levelo_inurba_marseille","lat":43.28849,"lon":5.3585,"is_reserved":false,"is_disabled":false,"rental_uris":{"android":"levelo://app?vid=f7b527ea-e92b-4f65-8dd9-8a022355846e","ios":"levelo://app?vid=f7b527ea-e92b-4f65-8dd9-8a022355846e"},"vehicle_type_id":"4","last_reported":1690218363,"current_range_meters":11600,"station_id":"ce4bhb12rcd13ifvqem0","pricing_plan_id":"free"},{"bike_id":"08fc5a37-544c-4a95-af25-1966233ee81b","system_id":"levelo_inurba_marseille","lat":43.28856,"lon":5.358371,"is_reserved":false,"is_disabled":false,"rental_uris":{"android":"levelo://app?vid=08fc5a37-544c-4a95-af25-1966233ee81b","ios":"levelo://app?vid=08fc5a37-544c-4a95-af25-1966233ee81b"},"vehicle_type_id":"4","last_reported":1690218363,"current_range_meters":18800,"station_id":"ce4bhb12rcd13ifvqem0","pricing_plan_id":"free"},{"bike_id":"aa98800c-21d2-4884-af0e-39093a6e73aa","system_id":"levelo_inurba_marseille","lat":43.28847,"lon":5.35852,"is_reserved":false,"is_disabled":false,"rental_uris":{"android":"levelo://app?vid=aa98800c-21d2-4884-af0e-39093a6e73aa","ios":"levelo://app?vid=aa98800c-21d2-4884-af0e-39093a6e73aa"},"vehicle_type_id":"4","last_reported":1690218363,"current_range_meters":20800,"station_id":"ce4bhb12rcd13ifvqem0","pricing_plan_id":"free"},{"bike_id":"8bd352a4-98f5-4582-a066-8dd97a71a70c","system_id":"levelo_inurba_marseille","lat":43.28848,"lon":5.35846,"is_reserved":false,"is_disabled":false,"rental_uris":{"android":"levelo://app?vid=8bd352a4-98f5-4582-a066-8dd97a71a70c","ios":"levelo://app?vid=8bd352a4-98f5-4582-a066-8dd97a71a70c"},"vehicle_type_id":"4","last_reported":1690218363,"current_range_meters":30400,"station_id":"ce4bhb12rcd13ifvqem0","pricing_plan_id":"free"},{"bike_id":"5261cc94-671b-4539-b0dc-ab070169bf8f","system_id":"levelo_inurba_marseille","lat":43.28856,"lon":5.358371,"is_reserved":false,"is_disabled":false,"rental_uris":{"android":"levelo://app?vid=5261cc94-671b-4539-b0dc-ab070169bf8f","ios":"levelo://app?vid=5261cc94-671b-4539-b0dc-ab070169bf8f"},"vehicle_type_id":"4","last_reported":1690218363,"current_range_meters":24800,"station_id":"ce4bhb12rcd13ifvqem0","pricing_plan_id":"free"},{"bike_id":"8427d3d3-e7b2-4fb0-b00c-d4d8e5502410","system_id":"levelo_inurba_marseille","lat":43.28844,"lon":5.35859,"is_reserved":false,"is_disabled":false,"rental_uris":{"android":"levelo://app?vid=8427d3d3-e7b2-4fb0-b00c-d4d8e5502410","ios":"levelo://app?vid=8427d3d3-e7b2-4fb0-b00c-d4d8e5502410"},"vehicle_type_id":"4","last_reported":1690218363,"current_range_meters":14000,"station_id":"ce4bhb12rcd13ifvqem0","pricing_plan_id":"free"},{"bike_id":"c93901ba-9c1d-4bd2-9d85-b14cf2a5c01b","system_id":"levelo_inurba_marseille","lat":43.29143,"lon":5.38504,"is_reserved":false,"is_disabled":false,"rental_uris":{"android":"levelo://app?vid=c93901ba-9c1d-4bd2-9d85-b14cf2a5c01b","ios":"levelo://app?vid=c93901ba-9c1d-4bd2-9d85-b14cf2a5c01b"},"vehicle_type_id":"4","last_reported":1690218363,"current_range_meters":14400,"station_id":"ce4bh4p2rcd13ifvqe0g","pricing_plan_id":"free"},{"bike_id":"8856aa6d-712c-4424-8932-b4d5b2117503","system_id":"levelo_inurba_marseille","lat":43.28843,"lon":5.35849,"is_reserved":false,"is_disabled":false,"rental_uris":{"android":"levelo://app?vid=8856aa6d-712c-4424-8932-b4d5b2117503","ios":"levelo://app?vid=8856aa6d-712c-4424-8932-b4d5b2117503"},"vehicle_type_id":"4","last_reported":1690218363,"current_range_meters":19200,"station_id":"ce4bhb12rcd13ifvqem0","pricing_plan_id":"free"},{"bike_id":"14214634-e03e-4009-acf1-1b6acf10a784","system_id":"levelo_inurba_marseille","lat":43.28918,"lon":5.3546,"is_reserved":false,"is_disabled":false,"rental_uris":{"android":"levelo://app?vid=14214634-e03e-4009-acf1-1b6acf10a784","ios":"levelo://app?vid=14214634-e03e-4009-acf1-1b6acf10a784"},"vehicle_type_id":"4","last_reported":1690218363,"current_range_meters":24000,"station_id":"ce4bhbh2rcd13ifvqeo0","pricing_plan_id":"free"},{"bike_id":"c308073a-3364-42a0-b537-5752ac447d94","system_id":"levelo_inurba_marseille","lat":43.31271,"lon":5.40161,"is_reserved":false,"is_disabled":false,"rental_uris":{"android":"levelo://app?vid=c308073a-3364-42a0-b537-5752ac447d94","ios":"levelo://app?vid=c308073a-3364-42a0-b537-5752ac447d94"},"vehicle_type_id":"4","last_reported":1690218363,"current_range_meters":21200,"station_id":"ce4bh092rcd13ifvqd30","pricing_plan_id":"free"},{"bike_id":"7bde5f81-df05-4a24-9703-4a95e667242f","system_id":"levelo_inurba_marseille","lat":43.31269,"lon":5.40162,"is_reserved":false,"is_disabled":false,"rental_uris":{"android":"levelo://app?vid=7bde5f81-df05-4a24-9703-4a95e667242f","ios":"levelo://app?vid=7bde5f81-df05-4a24-9703-4a95e667242f"},"vehicle_type_id":"4","last_reported":1690218363,"current_range_meters":4400,"station_id":"ce4bh092rcd13ifvqd30","pricing_plan_id":"free"},{"bike_id":"aa6ced0e-20ac-483e-88ff-fc53257231c9","system_id":"levelo_inurba_marseille","lat":43.31275,"lon":5.40165,"is_reserved":false,"is_disabled":false,"rental_uris":{"android":"levelo://app?vid=aa6ced0e-20ac-483e-88ff-fc53257231c9","ios":"levelo://app?vid=aa6ced0e-20ac-483e-88ff-fc53257231c9"},"vehicle_type_id":"4","last_reported":1690218363,"current_range_meters":28800,"station_id":"ce4bh092rcd13ifvqd30","pricing_plan_id":"free"},{"bike_id":"faece398-6ce0-446d-bb18-97f09b158401","system_id":"levelo_inurba_marseille","lat":43.31272,"lon":5.40165,"is_reserved":false,"is_disabled":false,"rental_uris":{"android":"levelo://app?vid=faece398-6ce0-446d-bb18-97f09b158401","ios":"levelo://app?vid=faece398-6ce0-446d-bb18-97f09b158401"},"vehicle_type_id":"4","last_reported":1690218363,"current_range_meters":21200,"station_id":"ce4bh092rcd13ifvqd30","pricing_plan_id":"free"},{"bike_id":"ef3ab09e-c804-454c-83f4-1584bc135ec7","system_id":"levelo_inurba_marseille","lat":43.3374,"lon":5.37463,"is_reserved":false,"is_disabled":false,"rental_uris":{"android":"levelo://app?vid=ef3ab09e-c804-454c-83f4-1584bc135ec7","ios":"levelo://app?vid=ef3ab09e-c804-454c-83f4-1584bc135ec7"},"vehicle_type_id":"4","last_reported":1690218363,"current_range_meters":3200,"station_id":"","pricing_plan_id":"free"},{"bike_id":"08adb059-f54c-48d5-adc3-d71fa9b8081f","system_id":"levelo_inurba_marseille","lat":43.3127,"lon":5.40175,"is_reserved":false,"is_disabled":false,"rental_uris":{"android":"levelo://app?vid=08adb059-f54c-48d5-adc3-d71fa9b8081f","ios":"levelo://app?vid=08adb059-f54c-48d5-adc3-d71fa9b8081f"},"vehicle_type_id":"4","last_reported":1690218363,"current_range_meters":10800,"station_id":"ce4bh092rcd13ifvqd30","pricing_plan_id":"free"},{"bike_id":"5bddec52-679a-480c-be7f-f287e3bbb37d","system_id":"levelo_inurba_marseille","lat":43.31272,"lon":5.40178,"is_reserved":false,"is_disabled":false,"rental_uris":{"android":"levelo://app?vid=5bddec52-679a-480c-be7f-f287e3bbb37d","ios":"levelo://app?vid=5bddec52-679a-480c-be7f-f287e3bbb37d"},"vehicle_type_id":"4","last_reported":1690218363,"current_range_meters":11600,"station_id":"ce4bh092rcd13ifvqd30","pricing_plan_id":"free"},{"bike_id":"3d445a09-3912-4315-841f-398f96ed3ef9","system_id":"levelo_inurba_marseille","lat":43.30648,"lon":5.40071,"is_reserved":false,"is_disabled":false,"rental_uris":{"android":"levelo://app?vid=3d445a09-3912-4315-841f-398f96ed3ef9","ios":"levelo://app?vid=3d445a09-3912-4315-841f-398f96ed3ef9"},"vehicle_type_id":"4","last_reported":1690218363,"current_range_meters":8800,"station_id":"ce4bh112rcd13ifvqda0","pricing_plan_id":"free"},{"bike_id":"8458abfa-04f9-468a-8130-d8a3ee06255a","system_id":"levelo_inurba_marseille","lat":43.33745,"lon":5.37483,"is_reserved":false,"is_disabled":false,"rental_uris":{"android":"levelo://app?vid=8458abfa-04f9-468a-8130-d8a3ee06255a","ios":"levelo://app?vid=8458abfa-04f9-468a-8130-d8a3ee06255a"},"vehicle_type_id":"4","last_reported":1690218363,"current_range_meters":20000,"station_id":"","pricing_plan_id":"free"},{"bike_id":"8a2269c9-e6ed-4566-b8ef-70338d11839d","system_id":"levelo_inurba_marseille","lat":43.30642,"lon":5.401031,"is_reserved":false,"is_disabled":false,"rental_uris":{"android":"levelo://app?vid=8a2269c9-e6ed-4566-b8ef-70338d11839d","ios":"levelo://app?vid=8a2269c9-e6ed-4566-b8ef-70338d11839d"},"vehicle_type_id":"4","last_reported":1690218363,"current_range_meters":0,"station_id":"ce4bh112rcd13ifvqda0","pricing_plan_id":"free"},{"bike_id":"6cb9c75c-1abb-4bdf-8711-812e28e7285a","system_id":"levelo_inurba_marseille","lat":43.33748,"lon":5.37479,"is_reserved":false,"is_disabled":false,"rental_uris":{"android":"levelo://app?vid=6cb9c75c-1abb-4bdf-8711-812e28e7285a","ios":"levelo://app?vid=6cb9c75c-1abb-4bdf-8711-812e28e7285a"},"vehicle_type_id":"4","last_reported":1690218363,"current_range_meters":22400,"station_id":"","pricing_plan_id":"free"},{"bike_id":"b8de4044-9f6a-4a37-a1b9-0edd89b18e7e","system_id":"levelo_inurba_marseille","lat":43.31273,"lon":5.40183,"is_reserved":false,"is_disabled":false,"rental_uris":{"android":"levelo://app?vid=b8de4044-9f6a-4a37-a1b9-0edd89b18e7e","ios":"levelo://app?vid=b8de4044-9f6a-4a37-a1b9-0edd89b18e7e"},"vehicle_type_id":"4","last_reported":1690218363,"current_range_meters":13600,"station_id":"ce4bh092rcd13ifvqd30","pricing_plan_id":"free"},{"bike_id":"75291762-56e3-4b2b-a54d-cfaab2a3f704","system_id":"levelo_inurba_marseille","lat":43.337474,"lon":5.374932,"is_reserved":false,"is_disabled":false,"rental_uris":{"android":"levelo://app?vid=75291762-56e3-4b2b-a54d-cfaab2a3f704","ios":"levelo://app?vid=75291762-56e3-4b2b-a54d-cfaab2a3f704"},"vehicle_type_id":"4","last_reported":1690218363,"current_range_meters":2800,"station_id":"","pricing_plan_id":"free"},{"bike_id":"4d6202e5-4326-4578-a77a-bc92defc670f","system_id":"levelo_inurba_marseille","lat":43.30652,"lon":5.40081,"is_reserved":false,"is_disabled":false,"rental_uris":{"android":"levelo://app?vid=4d6202e5-4326-4578-a77a-bc92defc670f","ios":"levelo://app?vid=4d6202e5-4326-4578-a77a-bc92defc670f"},"vehicle_type_id":"4","last_reported":1690218363,"current_range_meters":9600,"station_id":"ce4bh112rcd13ifvqda0","pricing_plan_id":"free"},{"bike_id":"a063d9cd-6be9-421f-b1a0-d8b0d211b3fd","system_id":"levelo_inurba_marseille","lat":43.30646,"lon":5.40079,"is_reserved":false,"is_disabled":false,"rental_uris":{"android":"levelo://app?vid=a063d9cd-6be9-421f-b1a0-d8b0d211b3fd","ios":"levelo://app?vid=a063d9cd-6be9-421f-b1a0-d8b0d211b3fd"},"vehicle_type_id":"4","last_reported":1690218363,"current_range_meters":12400,"station_id":"ce4bh112rcd13ifvqda0","pricing_plan_id":"free"},{"bike_id":"bad69a5b-2f39-42cc-bb10-cf19ffec9ef6","system_id":"levelo_inurba_marseille","lat":43.30647,"lon":5.40083,"is_reserved":false,"is_disabled":false,"rental_uris":{"android":"levelo://app?vid=bad69a5b-2f39-42cc-bb10-cf19ffec9ef6","ios":"levelo://app?vid=bad69a5b-2f39-42cc-bb10-cf19ffec9ef6"},"vehicle_type_id":"4","last_reported":1690218363,"current_range_meters":18800,"station_id":"ce4bh112rcd13ifvqda0","pricing_plan_id":"free"},{"bike_id":"912fcd6e-25e8-44f0-b921-c1e8ec71bd0f","system_id":"levelo_inurba_marseille","lat":43.33755,"lon":5.3748,"is_reserved":false,"is_disabled":false,"rental_uris":{"android":"levelo://app?vid=912fcd6e-25e8-44f0-b921-c1e8ec71bd0f","ios":"levelo://app?vid=912fcd6e-25e8-44f0-b921-c1e8ec71bd0f"},"vehicle_type_id":"4","last_reported":1690218363,"current_range_meters":28400,"station_id":"","pricing_plan_id":"free"},{"bike_id":"c2522701-e6b7-4cf3-9788-36e3b48bd4af","system_id":"levelo_inurba_marseille","lat":43.30642,"lon":5.401031,"is_reserved":false,"is_disabled":false,"rental_uris":{"android":"levelo://app?vid=c2522701-e6b7-4cf3-9788-36e3b48bd4af","ios":"levelo://app?vid=c2522701-e6b7-4cf3-9788-36e3b48bd4af"},"vehicle_type_id":"4","last_reported":1690218363,"current_range_meters":4400,"station_id":"ce4bh112rcd13ifvqda0","pricing_plan_id":"free"},{"bike_id":"9efaf868-356e-43db-9d0b-73cae01d7d11","system_id":"levelo_inurba_marseille","lat":43.33757,"lon":5.37475,"is_reserved":false,"is_disabled":false,"rental_uris":{"android":"levelo://app?vid=9efaf868-356e-43db-9d0b-73cae01d7d11","ios":"levelo://app?vid=9efaf868-356e-43db-9d0b-73cae01d7d11"},"vehicle_type_id":"4","last_reported":1690218363,"current_range_meters":28400,"station_id":"","pricing_plan_id":"free"},{"bike_id":"6f628464-a32e-4e4a-85ca-b2349907f02c","system_id":"levelo_inurba_marseille","lat":43.33759,"lon":5.3748,"is_reserved":false,"is_disabled":false,"rental_uris":{"android":"levelo://app?vid=6f628464-a32e-4e4a-85ca-b2349907f02c","ios":"levelo://app?vid=6f628464-a32e-4e4a-85ca-b2349907f02c"},"vehicle_type_id":"4","last_reported":1690218363,"current_range_meters":30000,"station_id":"","pricing_plan_id":"free"},{"bike_id":"0ca429df-7d5d-47a0-b350-13b523c72210","system_id":"levelo_inurba_marseille","lat":43.33761,"lon":5.37479,"is_reserved":false,"is_disabled":false,"rental_uris":{"android":"levelo://app?vid=0ca429df-7d5d-47a0-b350-13b523c72210","ios":"levelo://app?vid=0ca429df-7d5d-47a0-b350-13b523c72210"},"vehicle_type_id":"4","last_reported":1690218363,"current_range_meters":13200,"station_id":"","pricing_plan_id":"free"},{"bike_id":"7b87b23d-af82-4544-a2da-752d89c25ef3","system_id":"levelo_inurba_marseille","lat":43.33765,"lon":5.37473,"is_reserved":false,"is_disabled":false,"rental_uris":{"android":"levelo://app?vid=7b87b23d-af82-4544-a2da-752d89c25ef3","ios":"levelo://app?vid=7b87b23d-af82-4544-a2da-752d89c25ef3"},"vehicle_type_id":"4","last_reported":1690218363,"current_range_meters":28400,"station_id":"","pricing_plan_id":"free"},{"bike_id":"ec0002c6-ccd7-44c0-b2ca-0cb1a15fc191","system_id":"levelo_inurba_marseille","lat":43.33765,"lon":5.3748,"is_reserved":false,"is_disabled":false,"rental_uris":{"android":"levelo://app?vid=ec0002c6-ccd7-44c0-b2ca-0cb1a15fc191","ios":"levelo://app?vid=ec0002c6-ccd7-44c0-b2ca-0cb1a15fc191"},"vehicle_type_id":"4","last_reported":1690218363,"current_range_meters":0,"station_id":"","pricing_plan_id":"free"},{"bike_id":"828f20da-326c-405b-9752-d8e185b6f7aa","system_id":"levelo_inurba_marseille","lat":43.33765,"lon":5.37485,"is_reserved":false,"is_disabled":false,"rental_uris":{"android":"levelo://app?vid=828f20da-326c-405b-9752-d8e185b6f7aa","ios":"levelo://app?vid=828f20da-326c-405b-9752-d8e185b6f7aa"},"vehicle_type_id":"4","last_reported":1690218363,"current_range_meters":31200,"station_id":"","pricing_plan_id":"free"},{"bike_id":"c642e034-5e07-459b-8f1e-4ce61beabaf5","system_id":"levelo_inurba_marseille","lat":43.30642,"lon":5.401031,"is_reserved":false,"is_disabled":false,"rental_uris":{"android":"levelo://app?vid=c642e034-5e07-459b-8f1e-4ce61beabaf5","ios":"levelo://app?vid=c642e034-5e07-459b-8f1e-4ce61beabaf5"},"vehicle_type_id":"4","last_reported":1690218363,"current_range_meters":15600,"station_id":"ce4bh112rcd13ifvqda0","pricing_plan_id":"free"},{"bike_id":"bc7949c6-9979-4db2-8f28-306f85150b0e","system_id":"levelo_inurba_marseille","lat":43.3377,"lon":5.3747,"is_reserved":false,"is_disabled":false,"rental_uris":{"android":"levelo://app?vid=bc7949c6-9979-4db2-8f28-306f85150b0e","ios":"levelo://app?vid=bc7949c6-9979-4db2-8f28-306f85150b0e"},"vehicle_type_id":"4","last_reported":1690218363,"current_range_meters":30000,"station_id":"","pricing_plan_id":"free"},{"bike_id":"389a8281-e8f0-4d41-af9b-0b458ba96fde","system_id":"levelo_inurba_marseille","lat":43.3377,"lon":5.37473,"is_reserved":false,"is_disabled":false,"rental_uris":{"android":"levelo://app?vid=389a8281-e8f0-4d41-af9b-0b458ba96fde","ios":"levelo://app?vid=389a8281-e8f0-4d41-af9b-0b458ba96fde"},"vehicle_type_id":"4","last_reported":1690218363,"current_range_meters":30400,"station_id":"","pricing_plan_id":"free"},{"bike_id":"641218c5-ee59-47c7-949e-aa9bb9ce5408","system_id":"levelo_inurba_marseille","lat":43.33767,"lon":5.37492,"is_reserved":false,"is_disabled":false,"rental_uris":{"android":"levelo://app?vid=641218c5-ee59-47c7-949e-aa9bb9ce5408","ios":"levelo://app?vid=641218c5-ee59-47c7-949e-aa9bb9ce5408"},"vehicle_type_id":"4","last_reported":1690218363,"current_range_meters":18000,"station_id":"","pricing_plan_id":"free"},{"bike_id":"2228bd0f-669d-4602-bab2-ad0af6715109","system_id":"levelo_inurba_marseille","lat":43.3065,"lon":5.40105,"is_reserved":false,"is_disabled":false,"rental_uris":{"android":"levelo://app?vid=2228bd0f-669d-4602-bab2-ad0af6715109","ios":"levelo://app?vid=2228bd0f-669d-4602-bab2-ad0af6715109"},"vehicle_type_id":"4","last_reported":1690218363,"current_range_meters":14000,"station_id":"ce4bh112rcd13ifvqda0","pricing_plan_id":"free"},{"bike_id":"53a1f332-a31c-4b59-9c58-6fd012dac7f9","system_id":"levelo_inurba_marseille","lat":43.30642,"lon":5.401031,"is_reserved":false,"is_disabled":false,"rental_uris":{"android":"levelo://app?vid=53a1f332-a31c-4b59-9c58-6fd012dac7f9","ios":"levelo://app?vid=53a1f332-a31c-4b59-9c58-6fd012dac7f9"},"vehicle_type_id":"4","last_reported":1690218363,"current_range_meters":27600,"station_id":"ce4bh112rcd13ifvqda0","pricing_plan_id":"free"},{"bike_id":"758fa145-d872-43dc-b701-209895d027a0","system_id":"levelo_inurba_marseille","lat":43.30139,"lon":5.39858,"is_reserved":false,"is_disabled":false,"rental_uris":{"android":"levelo://app?vid=758fa145-d872-43dc-b701-209895d027a0","ios":"levelo://app?vid=758fa145-d872-43dc-b701-209895d027a0"},"vehicle_type_id":"4","last_reported":1690218363,"current_range_meters":23600,"station_id":"ce4bh0h2rcd13ifvqd40","pricing_plan_id":"free"},{"bike_id":"c6a56482-419b-4534-b728-1affd148ad36","system_id":"levelo_inurba_marseille","lat":43.2867,"lon":5.36353,"is_reserved":false,"is_disabled":false,"rental_uris":{"android":"levelo://app?vid=c6a56482-419b-4534-b728-1affd148ad36","ios":"levelo://app?vid=c6a56482-419b-4534-b728-1affd148ad36"},"vehicle_type_id":"4","last_reported":1690218363,"current_range_meters":5200,"station_id":"ce4bhah2rcd13ifvqej0","pricing_plan_id":"free"},{"bike_id":"f77cf793-3bf0-4915-a232-f18f022df8c0","system_id":"levelo_inurba_marseille","lat":43.286961,"lon":5.373785,"is_reserved":false,"is_disabled":false,"rental_uris":{"android":"levelo://app?vid=f77cf793-3bf0-4915-a232-f18f022df8c0","ios":"levelo://app?vid=f77cf793-3bf0-4915-a232-f18f022df8c0"},"vehicle_type_id":"4","last_reported":1690218363,"current_range_meters":16400,"station_id":"ce4bh3p2rcd13ifvqdq0","pricing_plan_id":"free"},{"bike_id":"352cc8c5-2134-4c4e-bdf6-8b4275ff910d","system_id":"levelo_inurba_marseille","lat":43.298681,"lon":5.397225,"is_reserved":false,"is_disabled":false,"rental_uris":{"android":"levelo://app?vid=352cc8c5-2134-4c4e-bdf6-8b4275ff910d","ios":"levelo://app?vid=352cc8c5-2134-4c4e-bdf6-8b4275ff910d"},"vehicle_type_id":"4","last_reported":1690218363,"current_range_meters":24400,"station_id":"ce4bh0h2rcd13ifvqd50","pricing_plan_id":"free"},{"bike_id":"c071d89c-012e-4a3f-a7b8-e2a913a4dfa9","system_id":"levelo_inurba_marseille","lat":43.298681,"lon":5.397225,"is_reserved":false,"is_disabled":false,"rental_uris":{"android":"levelo://app?vid=c071d89c-012e-4a3f-a7b8-e2a913a4dfa9","ios":"levelo://app?vid=c071d89c-012e-4a3f-a7b8-e2a913a4dfa9"},"vehicle_type_id":"4","last_reported":1690218363,"current_range_meters":16800,"station_id":"ce4bh0h2rcd13ifvqd50","pricing_plan_id":"free"},{"bike_id":"e5c85a30-4421-4612-a1d3-29ceaab47437","system_id":"levelo_inurba_marseille","lat":43.28665,"lon":5.36361,"is_reserved":false,"is_disabled":false,"rental_uris":{"android":"levelo://app?vid=e5c85a30-4421-4612-a1d3-29ceaab47437","ios":"levelo://app?vid=e5c85a30-4421-4612-a1d3-29ceaab47437"},"vehicle_type_id":"4","last_reported":1690218363,"current_range_meters":24400,"station_id":"ce4bhah2rcd13ifvqej0","pricing_plan_id":"free"},{"bike_id":"455e251d-01e0-417b-85ac-8d2abab39faa","system_id":"levelo_inurba_marseille","lat":43.298681,"lon":5.397225,"is_reserved":false,"is_disabled":false,"rental_uris":{"android":"levelo://app?vid=455e251d-01e0-417b-85ac-8d2abab39faa","ios":"levelo://app?vid=455e251d-01e0-417b-85ac-8d2abab39faa"},"vehicle_type_id":"4","last_reported":1690218363,"current_range_meters":13600,"station_id":"ce4bh0h2rcd13ifvqd50","pricing_plan_id":"free"},{"bike_id":"1b530486-e98f-403d-9a4d-d3e26240f5d2","system_id":"levelo_inurba_marseille","lat":43.295196,"lon":5.39397,"is_reserved":false,"is_disabled":false,"rental_uris":{"android":"levelo://app?vid=1b530486-e98f-403d-9a4d-d3e26240f5d2","ios":"levelo://app?vid=1b530486-e98f-403d-9a4d-d3e26240f5d2"},"vehicle_type_id":"4","last_reported":1690218363,"current_range_meters":22400,"station_id":"ce4bh292rcd13ifvqdf0","pricing_plan_id":"free"},{"bike_id":"3f3105e1-02a7-44fe-bed7-585e4a93abd5","system_id":"levelo_inurba_marseille","lat":43.295196,"lon":5.39397,"is_reserved":false,"is_disabled":false,"rental_uris":{"android":"levelo://app?vid=3f3105e1-02a7-44fe-bed7-585e4a93abd5","ios":"levelo://app?vid=3f3105e1-02a7-44fe-bed7-585e4a93abd5"},"vehicle_type_id":"4","last_reported":1690218363,"current_range_meters":4000,"station_id":"ce4bh292rcd13ifvqdf0","pricing_plan_id":"free"},{"bike_id":"a853e449-ca3a-4e7f-a86d-d9b82a136894","system_id":"levelo_inurba_marseille","lat":43.295194,"lon":5.39397,"is_reserved":false,"is_disabled":false,"rental_uris":{"android":"levelo://app?vid=a853e449-ca3a-4e7f-a86d-d9b82a136894","ios":"levelo://app?vid=a853e449-ca3a-4e7f-a86d-d9b82a136894"},"vehicle_type_id":"4","last_reported":1690218363,"current_range_meters":4800,"station_id":"ce4bh292rcd13ifvqdf0","pricing_plan_id":"free"},{"bike_id":"35a229f7-a455-4066-8150-885019850dc0","system_id":"levelo_inurba_marseille","lat":43.295196,"lon":5.39397,"is_reserved":false,"is_disabled":false,"rental_uris":{"android":"levelo://app?vid=35a229f7-a455-4066-8150-885019850dc0","ios":"levelo://app?vid=35a229f7-a455-4066-8150-885019850dc0"},"vehicle_type_id":"4","last_reported":1690218363,"current_range_meters":31200,"station_id":"ce4bh292rcd13ifvqdf0","pricing_plan_id":"free"},{"bike_id":"e1f20891-775d-48ca-bed4-9b02400ae243","system_id":"levelo_inurba_marseille","lat":43.302759,"lon":5.400793,"is_reserved":false,"is_disabled":false,"rental_uris":{"android":"levelo://app?vid=e1f20891-775d-48ca-bed4-9b02400ae243","ios":"levelo://app?vid=e1f20891-775d-48ca-bed4-9b02400ae243"},"vehicle_type_id":"4","last_reported":1690218363,"current_range_meters":31200,"station_id":"ce4bgvh2rcd13ifvqcs0","pricing_plan_id":"free"},{"bike_id":"bd75f0c5-e9fc-4ea0-b678-321e4b7a53db","system_id":"levelo_inurba_marseille","lat":43.290246,"lon":5.386328,"is_reserved":false,"is_disabled":false,"rental_uris":{"android":"levelo://app?vid=bd75f0c5-e9fc-4ea0-b678-321e4b7a53db","ios":"levelo://app?vid=bd75f0c5-e9fc-4ea0-b678-321e4b7a53db"},"vehicle_type_id":"4","last_reported":1690218363,"current_range_meters":15600,"station_id":"ce4bh4p2rcd13ifvqe0g","pricing_plan_id":"free"},{"bike_id":"052dda1f-8616-49a5-bfa6-19831a47eda0","system_id":"levelo_inurba_marseille","lat":43.30244,"lon":5.40058,"is_reserved":false,"is_disabled":false,"rental_uris":{"android":"levelo://app?vid=052dda1f-8616-49a5-bfa6-19831a47eda0","ios":"levelo://app?vid=052dda1f-8616-49a5-bfa6-19831a47eda0"},"vehicle_type_id":"4","last_reported":1690218363,"current_range_meters":30800,"station_id":"ce4bgvh2rcd13ifvqcs0","pricing_plan_id":"free"},{"bike_id":"fb632e51-f892-4b48-a9c4-93a61c8e7f24","system_id":"levelo_inurba_marseille","lat":43.294314,"lon":5.397498,"is_reserved":false,"is_disabled":false,"rental_uris":{"android":"levelo://app?vid=fb632e51-f892-4b48-a9c4-93a61c8e7f24","ios":"levelo://app?vid=fb632e51-f892-4b48-a9c4-93a61c8e7f24"},"vehicle_type_id":"4","last_reported":1690218363,"current_range_meters":12400,"station_id":"ce4bh3h2rcd13ifvqdo0","pricing_plan_id":"free"},{"bike_id":"ea8fea83-09d1-4e27-84e5-f2e22dc78749","system_id":"levelo_inurba_marseille","lat":43.290336,"lon":5.386425,"is_reserved":false,"is_disabled":false,"rental_uris":{"android":"levelo://app?vid=ea8fea83-09d1-4e27-84e5-f2e22dc78749","ios":"levelo://app?vid=ea8fea83-09d1-4e27-84e5-f2e22dc78749"},"vehicle_type_id":"4","last_reported":1690218363,"current_range_meters":20000,"station_id":"ce4bh4p2rcd13ifvqe0g","pricing_plan_id":"free"},{"bike_id":"8faa2944-467c-4555-bcf8-cff1012e15b8","system_id":"levelo_inurba_marseille","lat":43.302759,"lon":5.400793,"is_reserved":false,"is_disabled":false,"rental_uris":{"android":"levelo://app?vid=8faa2944-467c-4555-bcf8-cff1012e15b8","ios":"levelo://app?vid=8faa2944-467c-4555-bcf8-cff1012e15b8"},"vehicle_type_id":"4","last_reported":1690218363,"current_range_meters":29600,"station_id":"ce4bgvh2rcd13ifvqcs0","pricing_plan_id":"free"},{"bike_id":"fd37bdb4-5a5a-4b94-8113-7788205d71d6","system_id":"levelo_inurba_marseille","lat":43.30258,"lon":5.40077,"is_reserved":false,"is_disabled":false,"rental_uris":{"android":"levelo://app?vid=fd37bdb4-5a5a-4b94-8113-7788205d71d6","ios":"levelo://app?vid=fd37bdb4-5a5a-4b94-8113-7788205d71d6"},"vehicle_type_id":"4","last_reported":1690218363,"current_range_meters":31200,"station_id":"ce4bgvh2rcd13ifvqcs0","pricing_plan_id":"free"},{"bike_id":"39f0a54e-a834-4bd8-bcb6-bdd35f8757ab","system_id":"levelo_inurba_marseille","lat":43.30259,"lon":5.40079,"is_reserved":false,"is_disabled":false,"rental_uris":{"android":"levelo://app?vid=39f0a54e-a834-4bd8-bcb6-bdd35f8757ab","ios":"levelo://app?vid=39f0a54e-a834-4bd8-bcb6-bdd35f8757ab"},"vehicle_type_id":"4","last_reported":1690218363,"current_range_meters":21200,"station_id":"ce4bgvh2rcd13ifvqcs0","pricing_plan_id":"free"},{"bike_id":"1cac03b2-6784-4d64-83d0-73a0167a4eb5","system_id":"levelo_inurba_marseille","lat":43.302759,"lon":5.400793,"is_reserved":false,"is_disabled":false,"rental_uris":{"android":"levelo://app?vid=1cac03b2-6784-4d64-83d0-73a0167a4eb5","ios":"levelo://app?vid=1cac03b2-6784-4d64-83d0-73a0167a4eb5"},"vehicle_type_id":"4","last_reported":1690218363,"current_range_meters":19200,"station_id":"ce4bgvh2rcd13ifvqcs0","pricing_plan_id":"free"},{"bike_id":"7ba7726b-eada-47b4-9ea9-216dcf118b73","system_id":"levelo_inurba_marseille","lat":43.28612,"lon":5.37059,"is_reserved":false,"is_disabled":false,"rental_uris":{"android":"levelo://app?vid=7ba7726b-eada-47b4-9ea9-216dcf118b73","ios":"levelo://app?vid=7ba7726b-eada-47b4-9ea9-216dcf118b73"},"vehicle_type_id":"4","last_reported":1690218363,"current_range_meters":30400,"station_id":"ce4bht12rcd13ifvqi60","pricing_plan_id":"free"},{"bike_id":"483c419c-491c-4e72-9be7-ef49dba88d9e","system_id":"levelo_inurba_marseille","lat":43.287185,"lon":5.379373,"is_reserved":false,"is_disabled":false,"rental_uris":{"android":"levelo://app?vid=483c419c-491c-4e72-9be7-ef49dba88d9e","ios":"levelo://app?vid=483c419c-491c-4e72-9be7-ef49dba88d9e"},"vehicle_type_id":"4","last_reported":1690218363,"current_range_meters":24000,"station_id":"ce4bh9p2rcd13ifvqec0","pricing_plan_id":"free"},{"bike_id":"21ccb0ed-339b-4ba0-8e31-024968a5a9b5","system_id":"levelo_inurba_marseille","lat":43.29003,"lon":5.38919,"is_reserved":false,"is_disabled":false,"rental_uris":{"android":"levelo://app?vid=21ccb0ed-339b-4ba0-8e31-024968a5a9b5","ios":"levelo://app?vid=21ccb0ed-339b-4ba0-8e31-024968a5a9b5"},"vehicle_type_id":"4","last_reported":1690218363,"current_range_meters":10800,"station_id":"","pricing_plan_id":"free"},{"bike_id":"314559c9-d880-4bc9-9b81-0ff4a8ae6190","system_id":"levelo_inurba_marseille","lat":43.29198,"lon":5.39314,"is_reserved":false,"is_disabled":false,"rental_uris":{"android":"levelo://app?vid=314559c9-d880-4bc9-9b81-0ff4a8ae6190","ios":"levelo://app?vid=314559c9-d880-4bc9-9b81-0ff4a8ae6190"},"vehicle_type_id":"4","last_reported":1690218363,"current_range_meters":22000,"station_id":"ce4bh192rcd13ifvqdd0","pricing_plan_id":"free"},{"bike_id":"25b04f05-9aab-4448-bd6a-97cad20bdc86","system_id":"levelo_inurba_marseille","lat":43.291994,"lon":5.392907,"is_reserved":false,"is_disabled":false,"rental_uris":{"android":"levelo://app?vid=25b04f05-9aab-4448-bd6a-97cad20bdc86","ios":"levelo://app?vid=25b04f05-9aab-4448-bd6a-97cad20bdc86"},"vehicle_type_id":"4","last_reported":1690218363,"current_range_meters":2000,"station_id":"ce4bh192rcd13ifvqdd0","pricing_plan_id":"free"},{"bike_id":"2cd1b92d-0506-47e6-9182-0e9c5b35466d","system_id":"levelo_inurba_marseille","lat":43.291994,"lon":5.392907,"is_reserved":false,"is_disabled":false,"rental_uris":{"android":"levelo://app?vid=2cd1b92d-0506-47e6-9182-0e9c5b35466d","ios":"levelo://app?vid=2cd1b92d-0506-47e6-9182-0e9c5b35466d"},"vehicle_type_id":"4","last_reported":1690218363,"current_range_meters":30800,"station_id":"ce4bh192rcd13ifvqdd0","pricing_plan_id":"free"},{"bike_id":"9a0e4a0b-8f71-42c1-81e4-08c0c41c6dd7","system_id":"levelo_inurba_marseille","lat":43.291994,"lon":5.392907,"is_reserved":false,"is_disabled":false,"rental_uris":{"android":"levelo://app?vid=9a0e4a0b-8f71-42c1-81e4-08c0c41c6dd7","ios":"levelo://app?vid=9a0e4a0b-8f71-42c1-81e4-08c0c41c6dd7"},"vehicle_type_id":"4","last_reported":1690218363,"current_range_meters":27200,"station_id":"ce4bh192rcd13ifvqdd0","pricing_plan_id":"free"},{"bike_id":"c5a915b7-e86b-4547-866b-b57fc35a5d2f","system_id":"levelo_inurba_marseille","lat":43.29187,"lon":5.39323,"is_reserved":false,"is_disabled":false,"rental_uris":{"android":"levelo://app?vid=c5a915b7-e86b-4547-866b-b57fc35a5d2f","ios":"levelo://app?vid=c5a915b7-e86b-4547-866b-b57fc35a5d2f"},"vehicle_type_id":"4","last_reported":1690218363,"current_range_meters":14800,"station_id":"ce4bh192rcd13ifvqdd0","pricing_plan_id":"free"},{"bike_id":"3f9ff790-314e-48d4-97e6-08ebf07c27f0","system_id":"levelo_inurba_marseille","lat":43.31625,"lon":5.40608,"is_reserved":false,"is_disabled":false,"rental_uris":{"android":"levelo://app?vid=3f9ff790-314e-48d4-97e6-08ebf07c27f0","ios":"levelo://app?vid=3f9ff790-314e-48d4-97e6-08ebf07c27f0"},"vehicle_type_id":"4","last_reported":1690218363,"current_range_meters":22000,"station_id":"","pricing_plan_id":"free"},{"bike_id":"c4f9212e-321f-4e80-a89c-a2abab93eda2","system_id":"levelo_inurba_marseille","lat":43.28461,"lon":5.35894,"is_reserved":false,"is_disabled":false,"rental_uris":{"android":"levelo://app?vid=c4f9212e-321f-4e80-a89c-a2abab93eda2","ios":"levelo://app?vid=c4f9212e-321f-4e80-a89c-a2abab93eda2"},"vehicle_type_id":"4","last_reported":1690218363,"current_range_meters":31200,"station_id":"ce4bhah2rcd13ifvqei0","pricing_plan_id":"free"},{"bike_id":"5f059bb4-4354-40c5-95cc-ffed7bf98919","system_id":"levelo_inurba_marseille","lat":43.284538,"lon":5.358657,"is_reserved":false,"is_disabled":false,"rental_uris":{"android":"levelo://app?vid=5f059bb4-4354-40c5-95cc-ffed7bf98919","ios":"levelo://app?vid=5f059bb4-4354-40c5-95cc-ffed7bf98919"},"vehicle_type_id":"4","last_reported":1690218363,"current_range_meters":31200,"station_id":"ce4bhah2rcd13ifvqei0","pricing_plan_id":"free"},{"bike_id":"4f8751c2-ad8a-45e6-98f6-60f01b992ad8","system_id":"levelo_inurba_marseille","lat":43.2846,"lon":5.35896,"is_reserved":false,"is_disabled":false,"rental_uris":{"android":"levelo://app?vid=4f8751c2-ad8a-45e6-98f6-60f01b992ad8","ios":"levelo://app?vid=4f8751c2-ad8a-45e6-98f6-60f01b992ad8"},"vehicle_type_id":"4","last_reported":1690218363,"current_range_meters":28400,"station_id":"ce4bhah2rcd13ifvqei0","pricing_plan_id":"free"},{"bike_id":"58dcccb7-08b2-4eac-8714-980615a7991e","system_id":"levelo_inurba_marseille","lat":43.28458,"lon":5.35909,"is_reserved":false,"is_disabled":false,"rental_uris":{"android":"levelo://app?vid=58dcccb7-08b2-4eac-8714-980615a7991e","ios":"levelo://app?vid=58dcccb7-08b2-4eac-8714-980615a7991e"},"vehicle_type_id":"4","last_reported":1690218363,"current_range_meters":26400,"station_id":"ce4bhah2rcd13ifvqei0","pricing_plan_id":"free"},{"bike_id":"f852fb2f-1094-4fd5-8242-5242da6108c6","system_id":"levelo_inurba_marseille","lat":43.2846,"lon":5.35892,"is_reserved":false,"is_disabled":false,"rental_uris":{"android":"levelo://app?vid=f852fb2f-1094-4fd5-8242-5242da6108c6","ios":"levelo://app?vid=f852fb2f-1094-4fd5-8242-5242da6108c6"},"vehicle_type_id":"4","last_reported":1690218363,"current_range_meters":31200,"station_id":"ce4bhah2rcd13ifvqei0","pricing_plan_id":"free"},{"bike_id":"991e052b-5579-4dab-ab07-4e6523c95ca5","system_id":"levelo_inurba_marseille","lat":43.28459,"lon":5.35893,"is_reserved":false,"is_disabled":false,"rental_uris":{"android":"levelo://app?vid=991e052b-5579-4dab-ab07-4e6523c95ca5","ios":"levelo://app?vid=991e052b-5579-4dab-ab07-4e6523c95ca5"},"vehicle_type_id":"4","last_reported":1690218363,"current_range_meters":31600,"station_id":"ce4bhah2rcd13ifvqei0","pricing_plan_id":"free"},{"bike_id":"c365644e-bfb8-40a1-b56f-2f3facd6926a","system_id":"levelo_inurba_marseille","lat":43.284538,"lon":5.358657,"is_reserved":false,"is_disabled":false,"rental_uris":{"android":"levelo://app?vid=c365644e-bfb8-40a1-b56f-2f3facd6926a","ios":"levelo://app?vid=c365644e-bfb8-40a1-b56f-2f3facd6926a"},"vehicle_type_id":"4","last_reported":1690218363,"current_range_meters":22800,"station_id":"ce4bhah2rcd13ifvqei0","pricing_plan_id":"free"},{"bike_id":"04f6af26-83eb-4372-9a79-3afb1fa1f1d4","system_id":"levelo_inurba_marseille","lat":43.28458,"lon":5.35893,"is_reserved":false,"is_disabled":false,"rental_uris":{"android":"levelo://app?vid=04f6af26-83eb-4372-9a79-3afb1fa1f1d4","ios":"levelo://app?vid=04f6af26-83eb-4372-9a79-3afb1fa1f1d4"},"vehicle_type_id":"4","last_reported":1690218363,"current_range_meters":19200,"station_id":"ce4bhah2rcd13ifvqei0","pricing_plan_id":"free"},{"bike_id":"78d8a218-97b5-4bf8-bac0-07a431178d43","system_id":"levelo_inurba_marseille","lat":43.28457,"lon":5.35892,"is_reserved":false,"is_disabled":false,"rental_uris":{"android":"levelo://app?vid=78d8a218-97b5-4bf8-bac0-07a431178d43","ios":"levelo://app?vid=78d8a218-97b5-4bf8-bac0-07a431178d43"},"vehicle_type_id":"4","last_reported":1690218363,"current_range_meters":15600,"station_id":"ce4bhah2rcd13ifvqei0","pricing_plan_id":"free"},{"bike_id":"a735b300-102f-4cc2-a8ea-2c9d4f79b118","system_id":"levelo_inurba_marseille","lat":43.294314,"lon":5.397498,"is_reserved":false,"is_disabled":false,"rental_uris":{"android":"levelo://app?vid=a735b300-102f-4cc2-a8ea-2c9d4f79b118","ios":"levelo://app?vid=a735b300-102f-4cc2-a8ea-2c9d4f79b118"},"vehicle_type_id":"4","last_reported":1690218363,"current_range_meters":31200,"station_id":"ce4bh3h2rcd13ifvqdo0","pricing_plan_id":"free"},{"bike_id":"a5c49410-cc33-4318-a74e-b75175bed279","system_id":"levelo_inurba_marseille","lat":43.284534,"lon":5.358662,"is_reserved":false,"is_disabled":false,"rental_uris":{"android":"levelo://app?vid=a5c49410-cc33-4318-a74e-b75175bed279","ios":"levelo://app?vid=a5c49410-cc33-4318-a74e-b75175bed279"},"vehicle_type_id":"4","last_reported":1690218363,"current_range_meters":29600,"station_id":"ce4bhah2rcd13ifvqei0","pricing_plan_id":"free"},{"bike_id":"47ec99c5-a3de-4cf6-bebc-74ae0262d2e6","system_id":"levelo_inurba_marseille","lat":43.28454,"lon":5.35898,"is_reserved":false,"is_disabled":false,"rental_uris":{"android":"levelo://app?vid=47ec99c5-a3de-4cf6-bebc-74ae0262d2e6","ios":"levelo://app?vid=47ec99c5-a3de-4cf6-bebc-74ae0262d2e6"},"vehicle_type_id":"4","last_reported":1690218363,"current_range_meters":24800,"station_id":"ce4bhah2rcd13ifvqei0","pricing_plan_id":"free"},{"bike_id":"4c50b617-a7ab-46f3-a683-e2496ca7c9d4","system_id":"levelo_inurba_marseille","lat":43.28453,"lon":5.35889,"is_reserved":false,"is_disabled":false,"rental_uris":{"android":"levelo://app?vid=4c50b617-a7ab-46f3-a683-e2496ca7c9d4","ios":"levelo://app?vid=4c50b617-a7ab-46f3-a683-e2496ca7c9d4"},"vehicle_type_id":"4","last_reported":1690218363,"current_range_meters":22400,"station_id":"ce4bhah2rcd13ifvqei0","pricing_plan_id":"free"},{"bike_id":"30bcd49a-e1b5-42d4-93bf-6b57ba0acd6c","system_id":"levelo_inurba_marseille","lat":43.294314,"lon":5.397498,"is_reserved":false,"is_disabled":false,"rental_uris":{"android":"levelo://app?vid=30bcd49a-e1b5-42d4-93bf-6b57ba0acd6c","ios":"levelo://app?vid=30bcd49a-e1b5-42d4-93bf-6b57ba0acd6c"},"vehicle_type_id":"4","last_reported":1690218363,"current_range_meters":11600,"station_id":"ce4bh3h2rcd13ifvqdo0","pricing_plan_id":"free"},{"bike_id":"1bc9f39d-6411-4ef8-a73d-8d9d4e6b5ea8","system_id":"levelo_inurba_marseille","lat":43.28453,"lon":5.35883,"is_reserved":false,"is_disabled":false,"rental_uris":{"android":"levelo://app?vid=1bc9f39d-6411-4ef8-a73d-8d9d4e6b5ea8","ios":"levelo://app?vid=1bc9f39d-6411-4ef8-a73d-8d9d4e6b5ea8"},"vehicle_type_id":"4","last_reported":1690218363,"current_range_meters":23600,"station_id":"ce4bhah2rcd13ifvqei0","pricing_plan_id":"free"},{"bike_id":"33fe6c1a-9d33-4392-903e-790d65a003b9","system_id":"levelo_inurba_marseille","lat":43.284534,"lon":5.358662,"is_reserved":false,"is_disabled":false,"rental_uris":{"android":"levelo://app?vid=33fe6c1a-9d33-4392-903e-790d65a003b9","ios":"levelo://app?vid=33fe6c1a-9d33-4392-903e-790d65a003b9"},"vehicle_type_id":"4","last_reported":1690218363,"current_range_meters":31600,"station_id":"ce4bhah2rcd13ifvqei0","pricing_plan_id":"free"},{"bike_id":"8ec406f4-a80b-4378-a9bb-72789087bef7","system_id":"levelo_inurba_marseille","lat":43.28451,"lon":5.35893,"is_reserved":false,"is_disabled":false,"rental_uris":{"android":"levelo://app?vid=8ec406f4-a80b-4378-a9bb-72789087bef7","ios":"levelo://app?vid=8ec406f4-a80b-4378-a9bb-72789087bef7"},"vehicle_type_id":"4","last_reported":1690218363,"current_range_meters":31600,"station_id":"ce4bhah2rcd13ifvqei0","pricing_plan_id":"free"},{"bike_id":"a2f4dc5e-d506-46fc-b3d0-0b72dc233a31","system_id":"levelo_inurba_marseille","lat":43.28452,"lon":5.35879,"is_reserved":false,"is_disabled":false,"rental_uris":{"android":"levelo://app?vid=a2f4dc5e-d506-46fc-b3d0-0b72dc233a31","ios":"levelo://app?vid=a2f4dc5e-d506-46fc-b3d0-0b72dc233a31"},"vehicle_type_id":"4","last_reported":1690218363,"current_range_meters":21600,"station_id":"ce4bhah2rcd13ifvqei0","pricing_plan_id":"free"},{"bike_id":"ba0fc676-c1f2-4f3d-bd5d-1d82624cbad4","system_id":"levelo_inurba_marseille","lat":43.28451,"lon":5.35884,"is_reserved":false,"is_disabled":false,"rental_uris":{"android":"levelo://app?vid=ba0fc676-c1f2-4f3d-bd5d-1d82624cbad4","ios":"levelo://app?vid=ba0fc676-c1f2-4f3d-bd5d-1d82624cbad4"},"vehicle_type_id":"4","last_reported":1690218363,"current_range_meters":27200,"station_id":"ce4bhah2rcd13ifvqei0","pricing_plan_id":"free"},{"bike_id":"427cde32-1bf9-46f6-ba5f-7f37de9c8447","system_id":"levelo_inurba_marseille","lat":43.28451,"lon":5.35883,"is_reserved":false,"is_disabled":false,"rental_uris":{"android":"levelo://app?vid=427cde32-1bf9-46f6-ba5f-7f37de9c8447","ios":"levelo://app?vid=427cde32-1bf9-46f6-ba5f-7f37de9c8447"},"vehicle_type_id":"4","last_reported":1690218363,"current_range_meters":31600,"station_id":"ce4bhah2rcd13ifvqei0","pricing_plan_id":"free"},{"bike_id":"696dc526-fa1f-419e-af2e-4cb06e76253d","system_id":"levelo_inurba_marseille","lat":43.28449,"lon":5.35886,"is_reserved":false,"is_disabled":false,"rental_uris":{"android":"levelo://app?vid=696dc526-fa1f-419e-af2e-4cb06e76253d","ios":"levelo://app?vid=696dc526-fa1f-419e-af2e-4cb06e76253d"},"vehicle_type_id":"4","last_reported":1690218363,"current_range_meters":19200,"station_id":"ce4bhah2rcd13ifvqei0","pricing_plan_id":"free"},{"bike_id":"b74d04c0-b98d-4aa2-bf55-349066517c8a","system_id":"levelo_inurba_marseille","lat":43.294314,"lon":5.397498,"is_reserved":false,"is_disabled":false,"rental_uris":{"android":"levelo://app?vid=b74d04c0-b98d-4aa2-bf55-349066517c8a","ios":"levelo://app?vid=b74d04c0-b98d-4aa2-bf55-349066517c8a"},"vehicle_type_id":"4","last_reported":1690218363,"current_range_meters":17600,"station_id":"ce4bh3h2rcd13ifvqdo0","pricing_plan_id":"free"},{"bike_id":"019eb357-915f-4052-8b8c-ad3da019f2e4","system_id":"levelo_inurba_marseille","lat":43.294314,"lon":5.397498,"is_reserved":false,"is_disabled":false,"rental_uris":{"android":"levelo://app?vid=019eb357-915f-4052-8b8c-ad3da019f2e4","ios":"levelo://app?vid=019eb357-915f-4052-8b8c-ad3da019f2e4"},"vehicle_type_id":"4","last_reported":1690218363,"current_range_meters":30000,"station_id":"ce4bh3h2rcd13ifvqdo0","pricing_plan_id":"free"},{"bike_id":"fd807fad-d9b0-4150-95b9-529ca1c9bc9e","system_id":"levelo_inurba_marseille","lat":43.294314,"lon":5.397498,"is_reserved":false,"is_disabled":false,"rental_uris":{"android":"levelo://app?vid=fd807fad-d9b0-4150-95b9-529ca1c9bc9e","ios":"levelo://app?vid=fd807fad-d9b0-4150-95b9-529ca1c9bc9e"},"vehicle_type_id":"4","last_reported":1690218363,"current_range_meters":10400,"station_id":"ce4bh3h2rcd13ifvqdo0","pricing_plan_id":"free"},{"bike_id":"9fbc7a5f-56f5-4757-8c75-0ada2715356e","system_id":"levelo_inurba_marseille","lat":43.2862,"lon":5.35103,"is_reserved":false,"is_disabled":false,"rental_uris":{"android":"levelo://app?vid=9fbc7a5f-56f5-4757-8c75-0ada2715356e","ios":"levelo://app?vid=9fbc7a5f-56f5-4757-8c75-0ada2715356e"},"vehicle_type_id":"4","last_reported":1690218363,"current_range_meters":1600,"station_id":"ce4bhch2rcd13ifvqeug","pricing_plan_id":"free"},{"bike_id":"04300619-e2f9-4ca7-8824-111f07023cfd","system_id":"levelo_inurba_marseille","lat":43.28619,"lon":5.35106,"is_reserved":false,"is_disabled":false,"rental_uris":{"android":"levelo://app?vid=04300619-e2f9-4ca7-8824-111f07023cfd","ios":"levelo://app?vid=04300619-e2f9-4ca7-8824-111f07023cfd"},"vehicle_type_id":"4","last_reported":1690218363,"current_range_meters":20000,"station_id":"ce4bhch2rcd13ifvqeug","pricing_plan_id":"free"},{"bike_id":"bb3ce1b6-42a8-4ffe-aaef-324bcf0ae824","system_id":"levelo_inurba_marseille","lat":43.28616,"lon":5.35113,"is_reserved":false,"is_disabled":false,"rental_uris":{"android":"levelo://app?vid=bb3ce1b6-42a8-4ffe-aaef-324bcf0ae824","ios":"levelo://app?vid=bb3ce1b6-42a8-4ffe-aaef-324bcf0ae824"},"vehicle_type_id":"4","last_reported":1690218363,"current_range_meters":1200,"station_id":"ce4bhch2rcd13ifvqeug","pricing_plan_id":"free"},