{"last_updated":1686514000,"ttl":30,"version":"2.2","data":{"bikes":[{"bike_id":"e215e44b-264e-4626-ae88-2d3a12aefe09","system_id":"levelo_inurba_marseille","lat":43.309076,"lon":5.368465,"is_reserved":false,"is_disabled":false,"rental_uris":{"android":"levelo://app?vid=e215e44b-264e-4626-ae88-2d3a12aefe09","ios":"levelo://app?vid=e215e44b-264e-4626-ae88-2d3a12aefe09"},"vehicle_type_id":"4","last_reported":1686514000,"current_range_meters":8400,"station_id":"ce4bgn92rcd13ifvqbvg","pricing_plan_id":"free"},{"bike_id":"ea2d65eb-cd3f-42c8-9c08-173c95026eb4","system_id":"levelo_inurba_marseille","lat":43.31494,"lon":5.373,"is_reserved":false,"is_disabled":false,"rental_uris":{"android":"levelo://app?vid=ea2d65eb-cd3f-42c8-9c08-173c95026eb4","ios":"levelo://app?vid=ea2d65eb-cd3f-42c8-9c08-173c95026eb4"},"vehicle_type_id":"4","last_reported":1686514000,"current_range_meters":4000,"station_id":"ce4bgt12rcd13ifvqcd0","pricing_plan_id":"free"},{"bike_id":"0528bcd1-0a0f-45f5-8ae7-6ae22fabecc3","system_id":"levelo_inurba_marseille","lat":43.31488,"lon":5.37308,"is_reserved":false,"is_disabled":false,"rental_uris":{"android":"levelo://app?vid=0528bcd1-0a0f-45f5-8ae7-6ae22fabecc3","ios":"levelo://app?vid=0528bcd1-0a0f-45f5-8ae7-6ae22fabecc3"},"vehicle_type_id":"4","last_reported":1686514000,"current_range_meters":5600,"station_id":"ce4bgt12rcd13ifvqcd0","pricing_plan_id":"free"},{"bike_id":"726e69fe-0789-44cc-8872-aafade0684ce","system_id":"levelo_inurba_marseille","lat":43.306,"lon":5.36574,"is_reserved":false,"is_disabled":false,"rental_uris":{"android":"levelo://app?vid=726e69fe-0789-44cc-8872-aafade0684ce","ios":"levelo://app?vid=726e69fe-0789-44cc-8872-aafade0684ce"},"vehicle_type_id":"4","last_reported":1686514000,"current_range_meters":3200,"station_id":"","pricing_plan_id":"free"},{"bike_id":"f52172c3-5f18-45ad-ab6c-57a557fa0657","system_id":"levelo_inurba_marseille","lat":43.305368,"lon":5.367343,"is_reserved":false,"is_disabled":false,"rental_uris":{"android":"levelo://app?vid=f52172c3-5f18-45ad-ab6c-57a557fa0657","ios":"levelo://app?vid=f52172c3-5f18-45ad-ab6c-57a557fa0657"},"vehicle_type_id":"4","last_reported":1686514000,"current_range_meters":20000,"station_id":"ce4bgrp2rcd13ifvqc9g","pricing_plan_id":"free"},{"bike_id":"3b927f62-09f1-4390-87ee-7017de9a0e82","system_id":"levelo_inurba_marseille","lat":43.30537,"lon":5.36534,"is_reserved":false,"is_disabled":false,"rental_uris":{"android":"levelo://app?vid=3b927f62-09f1-4390-87ee-7017de9a0e82","ios":"levelo://app?vid=3b927f62-09f1-4390-87ee-7017de9a0e82"},"vehicle_type_id":"4","last_reported":1686514000,"current_range_meters":29200,"station_id":"ce4bgs12rcd13ifvqcag","pricing_plan_id":"free"},{"bike_id":"7f21b4cf-0e1b-4264-9415-95acf6ab2fd3","system_id":"levelo_inurba_marseille","lat":43.30603,"lon":5.37214,"is_reserved":false,"is_disabled":false,"rental_uris":{"android":"levelo://app?vid=7f21b4cf-0e1b-4264-9415-95acf6ab2fd3","ios":"levelo://app?vid=7f21b4cf-0e1b-4264-9415-95acf6ab2fd3"},"vehicle_type_id":"4","last_reported":1686514000,"current_range_meters":5600,"station_id":"ce4bgqh2rcd13ifvqc4g","pricing_plan_id":"free"},{"bike_id":"610adce3-8f8f-4760-a2f2-f58be5eada92","system_id":"levelo_inurba_marseille","lat":43.305989,"lon":5.37225,"is_reserved":false,"is_disabled":false,"rental_uris":{"android":"levelo://app?vid=610adce3-8f8f-4760-a2f2-f58be5eada92","ios":"levelo://app?vid=610adce3-8f8f-4760-a2f2-f58be5eada92"},"vehicle_type_id":"4","last_reported":1686514000,"current_range_meters":24400,"station_id":"ce4bgqh2rcd13ifvqc4g","pricing_plan_id":"free"},{"bike_id":"db56fcab-46c5-4217-ae8f-fb3d20c4f2a3","system_id":"levelo_inurba_marseille","lat":43.311131,"lon":5.377651,"is_reserved":false,"is_disabled":false,"rental_uris":{"android":"levelo://app?vid=db56fcab-46c5-4217-ae8f-fb3d20c4f2a3","ios":"levelo://app?vid=db56fcab-46c5-4217-ae8f-fb3d20c4f2a3"},"vehicle_type_id":"4","last_reported":1686514000,"current_range_meters":11600,"station_id":"ce4bgt92rcd13ifvqcg0","pricing_plan_id":"free"},{"bike_id":"360af056-f16c-4663-b2c7-62364f9737af","system_id":"levelo_inurba_marseille","lat":43.311125,"lon":5.377624,"is_reserved":false,"is_disabled":false,"rental_uris":{"android":"levelo://app?vid=360af056-f16c-4663-b2c7-62364f9737af","ios":"levelo://app?vid=360af056-f16c-4663-b2c7-62364f9737af"},"vehicle_type_id":"4","last_reported":1686514000,"current_range_meters":15200,"station_id":"ce4bgt92rcd13ifvqcg0","pricing_plan_id":"free"},{"bike_id":"e639347b-071c-411e-aff9-0316671ad651","system_id":"levelo_inurba_marseille","lat":43.303046,"lon":5.368981,"is_reserved":false,"is_disabled":false,"rental_uris":{"android":"levelo://app?vid=e639347b-071c-411e-aff9-0316671ad651","ios":"levelo://app?vid=e639347b-071c-411e-aff9-0316671ad651"},"vehicle_type_id":"4","last_reported":1686514000,"current_range_meters":31200,"station_id":"ce4bgqh2rcd13ifvqc5g","pricing_plan_id":"free"},{"bike_id":"3ac9f72f-fa09-45d3-a333-e0d472536659","system_id":"levelo_inurba_marseille","lat":43.303046,"lon":5.368981,"is_reserved":false,"is_disabled":false,"rental_uris":{"android":"levelo://app?vid=3ac9f72f-fa09-45d3-a333-e0d472536659","ios":"levelo://app?vid=3ac9f72f-fa09-45d3-a333-e0d472536659"},"vehicle_type_id":"4","last_reported":1686514000,"current_range_meters":31200,"station_id":"ce4bgqh2rcd13ifvqc5g","pricing_plan_id":"free"},{"bike_id":"491967b5-23e1-4d2a-99da-803dafb3fad7","system_id":"levelo_inurba_marseille","lat":43.30305,"lon":5.36905,"is_reserved":false,"is_disabled":false,"rental_uris":{"android":"levelo://app?vid=491967b5-23e1-4d2a-99da-803dafb3fad7","ios":"levelo://app?vid=491967b5-23e1-4d2a-99da-803dafb3fad7"},"vehicle_type_id":"4","last_reported":1686514000,"current_range_meters":31200,"station_id":"ce4bgqh2rcd13ifvqc5g","pricing_plan_id":"free"},{"bike_id":"cd18ccbf-25e0-4270-90e3-3ed6654d38d0","system_id":"levelo_inurba_marseille","lat":43.31567,"lon":5.3801,"is_reserved":false,"is_disabled":false,"rental_uris":{"android":"levelo://app?vid=cd18ccbf-25e0-4270-90e3-3ed6654d38d0","ios":"levelo://app?vid=cd18ccbf-25e0-4270-90e3-3ed6654d38d0"},"vehicle_type_id":"4","last_reported":1686514000,"current_range_meters":0,"station_id":"","pricing_plan_id":"free"},{"bike_id":"eda70577-090c-47f9-a92a-f04569631d1d","system_id":"levelo_inurba_marseille","lat":43.315293,"lon":5.380349,"is_reserved":false,"is_disabled":false,"rental_uris":{"android":"levelo://app?vid=eda70577-090c-47f9-a92a-f04569631d1d","ios":"levelo://app?vid=eda70577-090c-47f9-a92a-f04569631d1d"},"vehicle_type_id":"4","last_reported":1686514000,"current_range_meters":24400,"station_id":"ce4bhsp2rcd13ifvqi50","pricing_plan_id":"free"},{"bike_id":"855e7607-7af2-45eb-98c0-e31481d7d8fa","system_id":"levelo_inurba_marseille","lat":43.301939,"lon":5.366286,"is_reserved":false,"is_disabled":false,"rental_uris":{"android":"levelo://app?vid=855e7607-7af2-45eb-98c0-e31481d7d8fa","ios":"levelo://app?vid=855e7607-7af2-45eb-98c0-e31481d7d8fa"},"vehicle_type_id":"4","last_reported":1686514000,"current_range_meters":23200,"station_id":"ce4bgrh2rcd13ifvqc8g","pricing_plan_id":"free"},{"bike_id":"c5f3c12a-ff07-474b-8462-59dd5f817081","system_id":"levelo_inurba_marseille","lat":43.30189,"lon":5.36623,"is_reserved":false,"is_disabled":false,"rental_uris":{"android":"levelo://app?vid=c5f3c12a-ff07-474b-8462-59dd5f817081","ios":"levelo://app?vid=c5f3c12a-ff07-474b-8462-59dd5f817081"},"vehicle_type_id":"4","last_reported":1686514000,"current_range_meters":29600,"station_id":"ce4bgrh2rcd13ifvqc8g","pricing_plan_id":"free"},{"bike_id":"2060ba37-b2fd-4f16-ac2d-076646dbbe99","system_id":"levelo_inurba_marseille","lat":43.302784,"lon":5.377158,"is_reserved":false,"is_disabled":false,"rental_uris":{"android":"levelo://app?vid=2060ba37-b2fd-4f16-ac2d-076646dbbe99","ios":"levelo://app?vid=2060ba37-b2fd-4f16-ac2d-076646dbbe99"},"vehicle_type_id":"4","last_reported":1686514000,"current_range_meters":8000,"station_id":"ce4bguh2rcd13ifvqcj0","pricing_plan_id":"free"},{"bike_id":"5168a86d-cb7b-4891-9c87-2d4d17a6d6df","system_id":"levelo_inurba_marseille","lat":43.319935,"lon":5.381699,"is_reserved":false,"is_disabled":false,"rental_uris":{"android":"levelo://app?vid=5168a86d-cb7b-4891-9c87-2d4d17a6d6df","ios":"levelo://app?vid=5168a86d-cb7b-4891-9c87-2d4d17a6d6df"},"vehicle_type_id":"4","last_reported":1686514000,"current_range_meters":16400,"station_id":"ce4bhr12rcd13ifvqhpg","pricing_plan_id":"free"},{"bike_id":"4d029df3-8b8a-4106-8c7d-b4dc86062849","system_id":"levelo_inurba_marseille","lat":43.31996,"lon":5.38164,"is_reserved":false,"is_disabled":false,"rental_uris":{"android":"levelo://app?vid=4d029df3-8b8a-4106-8c7d-b4dc86062849","ios":"levelo://app?vid=4d029df3-8b8a-4106-8c7d-b4dc86062849"},"vehicle_type_id":"4","last_reported":1686514000,"current_range_meters":17600,"station_id":"","pricing_plan_id":"free"},{"bike_id":"8bfc4f83-0eb1-499a-97e0-9c15c4a9de22","system_id":"levelo_inurba_marseille","lat":43.319935,"lon":5.381699,"is_reserved":false,"is_disabled":false,"rental_uris":{"android":"levelo://app?vid=8bfc4f83-0eb1-499a-97e0-9c15c4a9de22","ios":"levelo://app?vid=8bfc4f83-0eb1-499a-97e0-9c15c4a9de22"},"vehicle_type_id":"4","last_reported":1686514000,"current_range_meters":2000,"station_id":"ce4bhr12rcd13ifvqhpg","pricing_plan_id":"free"},{"bike_id":"aba2d0df-609b-4f03-b512-147287a6bb6a","system_id":"levelo_inurba_marseille","lat":43.319935,"lon":5.381699,"is_reserved":false,"is_disabled":false,"rental_uris":{"android":"levelo://app?vid=aba2d0df-609b-4f03-b512-147287a6bb6a","ios":"levelo://app?vid=aba2d0df-609b-4f03-b512-147287a6bb6a"},"vehicle_type_id":"4","last_reported":1686514000,"current_range_meters":17200,"station_id":"ce4bhr12rcd13ifvqhpg","pricing_plan_id":"free"},{"bike_id":"e53edf61-2c97-47eb-8b5f-251197a038c0","system_id":"levelo_inurba_marseille","lat":43.319935,"lon":5.381699,"is_reserved":false,"is_disabled":false,"rental_uris":{"android":"levelo://app?vid=e53edf61-2c97-47eb-8b5f-251197a038c0","ios":"levelo://app?vid=e53edf61-2c97-47eb-8b5f-251197a038c0"},"vehicle_type_id":"4","last_reported":1686514000,"current_range_meters":2800,"station_id":"ce4bhr12rcd13ifvqhpg","pricing_plan_id":"free"},{"bike_id":"0a7e2abe-c4fc-44a9-ac07-899f9a130755","system_id":"levelo_inurba_marseille","lat":43.32114,"lon":5.38052,"is_reserved":false,"is_disabled":false,"rental_uris":{"android":"levelo://app?vid=0a7e2abe-c4fc-44a9-ac07-899f9a130755","ios":"levelo://app?vid=0a7e2abe-c4fc-44a9-ac07-899f9a130755"},"vehicle_type_id":"4","last_reported":1686514000,"current_range_meters":8800,"station_id":"","pricing_plan_id":"free"},{"bike_id":"2ac9b1a0-73f6-40e1-bca6-b1d0aa2adf9d","system_id":"levelo_inurba_marseille","lat":43.313571,"lon":5.384829,"is_reserved":false,"is_disabled":false,"rental_uris":{"android":"levelo://app?vid=2ac9b1a0-73f6-40e1-bca6-b1d0aa2adf9d","ios":"levelo://app?vid=2ac9b1a0-73f6-40e1-bca6-b1d0aa2adf9d"},"vehicle_type_id":"4","last_reported":1686514000,"current_range_meters":13200,"station_id":"ce4bgt92rcd13ifvqcf0","pricing_plan_id":"free"},{"bike_id":"05230bd6-ba15-49ef-8b2a-3ccfdde5fb29","system_id":"levelo_inurba_marseille","lat":43.29936,"lon":5.3656,"is_reserved":false,"is_disabled":false,"rental_uris":{"android":"levelo://app?vid=05230bd6-ba15-49ef-8b2a-3ccfdde5fb29","ios":"levelo://app?vid=05230bd6-ba15-49ef-8b2a-3ccfdde5fb29"},"vehicle_type_id":"4","last_reported":1686514000,"current_range_meters":4000,"station_id":"ce4bgm92rcd13ifvqbr0","pricing_plan_id":"free"},{"bike_id":"7f41184e-0acb-46c6-86cd-ad565ffb4d23","system_id":"levelo_inurba_marseille","lat":43.2993,"lon":5.36529,"is_reserved":false,"is_disabled":false,"rental_uris":{"android":"levelo://app?vid=7f41184e-0acb-46c6-86cd-ad565ffb4d23","ios":"levelo://app?vid=7f41184e-0acb-46c6-86cd-ad565ffb4d23"},"vehicle_type_id":"4","last_reported":1686514000,"current_range_meters":12400,"station_id":"ce4bgm92rcd13ifvqbr0","pricing_plan_id":"free"},{"bike_id":"8f330355-fbfd-4bba-8759-193d8536753a","system_id":"levelo_inurba_marseille","lat":43.29924,"lon":5.36548,"is_reserved":false,"is_disabled":false,"rental_uris":{"android":"levelo://app?vid=8f330355-fbfd-4bba-8759-193d8536753a","ios":"levelo://app?vid=8f330355-fbfd-4bba-8759-193d8536753a"},"vehicle_type_id":"4","last_reported":1686514000,"current_range_meters":0,"station_id":"","pricing_plan_id":"free"},{"bike_id":"fc620d87-94f9-4815-8782-78d7a4c67136","system_id":"levelo_inurba_marseille","lat":43.298433,"lon":5.362774,"is_reserved":false,"is_disabled":false,"rental_uris":{"android":"levelo://app?vid=fc620d87-94f9-4815-8782-78d7a4c67136","ios":"levelo://app?vid=fc620d87-94f9-4815-8782-78d7a4c67136"},"vehicle_type_id":"4","last_reported":1686514000,"current_range_meters":24800,"station_id":"ce4bgpp2rcd13ifvqc3g","pricing_plan_id":"free"},{"bike_id":"77fe41c5-607b-4e19-8889-0971e6701e2b","system_id":"levelo_inurba_marseille","lat":43.298433,"lon":5.362774,"is_reserved":false,"is_disabled":false,"rental_uris":{"android":"levelo://app?vid=77fe41c5-607b-4e19-8889-0971e6701e2b","ios":"levelo://app?vid=77fe41c5-607b-4e19-8889-0971e6701e2b"},"vehicle_type_id":"4","last_reported":1686514000,"current_range_meters":22000,"station_id":"ce4bgpp2rcd13ifvqc3g","pricing_plan_id":"free"},{"bike_id":"dbb0db85-2323-489b-ac82-d500d795922b","system_id":"levelo_inurba_marseille","lat":43.30541,"lon":5.38436,"is_reserved":false,"is_disabled":false,"rental_uris":{"android":"levelo://app?vid=dbb0db85-2323-489b-ac82-d500d795922b","ios":"levelo://app?vid=dbb0db85-2323-489b-ac82-d500d795922b"},"vehicle_type_id":"4","last_reported":1686514000,"current_range_meters":12000,"station_id":"ce4bgg92rcd13ifvqb30","pricing_plan_id":"free"},{"bike_id":"9961754f-7c7e-44e9-bc01-671554fa392f","system_id":"levelo_inurba_marseille","lat":43.299243,"lon":5.374807,"is_reserved":false,"is_disabled":false,"rental_uris":{"android":"levelo://app?vid=9961754f-7c7e-44e9-bc01-671554fa392f","ios":"levelo://app?vid=9961754f-7c7e-44e9-bc01-671554fa392f"},"vehicle_type_id":"4","last_reported":1686514000,"current_range_meters":10000,"station_id":"ce4bgjh2rcd13ifvqbg0","pricing_plan_id":"free"},{"bike_id":"f2da6891-8918-4145-8328-40729c43277e","system_id":"levelo_inurba_marseille","lat":43.29919,"lon":5.37472,"is_reserved":false,"is_disabled":false,"rental_uris":{"android":"levelo://app?vid=f2da6891-8918-4145-8328-40729c43277e","ios":"levelo://app?vid=f2da6891-8918-4145-8328-40729c43277e"},"vehicle_type_id":"4","last_reported":1686514000,"current_range_meters":5600,"station_id":"ce4bgjh2rcd13ifvqbg0","pricing_plan_id":"free"},{"bike_id":"526e44b1-5035-4b93-bbf3-b9f6278b9dad","system_id":"levelo_inurba_marseille","lat":43.299243,"lon":5.37481,"is_reserved":false,"is_disabled":false,"rental_uris":{"android":"levelo://app?vid=526e44b1-5035-4b93-bbf3-b9f6278b9dad","ios":"levelo://app?vid=526e44b1-5035-4b93-bbf3-b9f6278b9dad"},"vehicle_type_id":"4","last_reported":1686514000,"current_range_meters":28400,"station_id":"ce4bgjh2rcd13ifvqbg0","pricing_plan_id":"free"},{"bike_id":"a22bab1e-1bed-4859-9a19-2e007f296cb8","system_id":"levelo_inurba_marseille","lat":43.297774,"lon":5.370875,"is_reserved":false,"is_disabled":false,"rental_uris":{"android":"levelo://app?vid=a22bab1e-1bed-4859-9a19-2e007f296cb8","ios":"levelo://app?vid=a22bab1e-1bed-4859-9a19-2e007f296cb8"},"vehicle_type_id":"4","last_reported":1686514000,"current_range_meters":26400,"station_id":"ce4bgop2rcd13ifvqc1g","pricing_plan_id":"free"},{"bike_id":"af434387-c696-4711-bbb6-68d793cd7c40","system_id":"levelo_inurba_marseille","lat":43.328371,"lon":5.366912,"is_reserved":false,"is_disabled":false,"rental_uris":{"android":"levelo://app?vid=af434387-c696-4711-bbb6-68d793cd7c40","ios":"levelo://app?vid=af434387-c696-4711-bbb6-68d793cd7c40"},"vehicle_type_id":"4","last_reported":1686514000,"current_range_meters":18000,"station_id":"ce4bhs92rcd13ifvqi0g","pricing_plan_id":"free"},{"bike_id":"6e030adf-b716-4354-8b83-08c9110b5b95","system_id":"levelo_inurba_marseille","lat":43.29706,"lon":5.36594,"is_reserved":false,"is_disabled":false,"rental_uris":{"android":"levelo://app?vid=6e030adf-b716-4354-8b83-08c9110b5b95","ios":"levelo://app?vid=6e030adf-b716-4354-8b83-08c9110b5b95"},"vehicle_type_id":"4","last_reported":1686514000,"current_range_meters":4000,"station_id":"","pricing_plan_id":"free"},{"bike_id":"8f556ece-4338-4f83-a4f0-7b3576ab5732","system_id":"levelo_inurba_marseille","lat":43.296171,"lon":5.371506,"is_reserved":false,"is_disabled":false,"rental_uris":{"android":"levelo://app?vid=8f556ece-4338-4f83-a4f0-7b3576ab5732","ios":"levelo://app?vid=8f556ece-4338-4f83-a4f0-7b3576ab5732"},"vehicle_type_id":"4","last_reported":1686514000,"current_range_meters":14000,"station_id":"","pricing_plan_id":"free"},{"bike_id":"24114741-1cdc-4ef8-b434-a6cdca09eaac","system_id":"levelo_inurba_marseille","lat":43.299028,"lon":5.381509,"is_reserved":false,"is_disabled":false,"rental_uris":{"android":"levelo://app?vid=24114741-1cdc-4ef8-b434-a6cdca09eaac","ios":"levelo://app?vid=24114741-1cdc-4ef8-b434-a6cdca09eaac"},"vehicle_type_id":"4","last_reported":1686514000,"current_range_meters":24000,"station_id":"ce4bgj12rcd13ifvqbc0","pricing_plan_id":"free"},{"bike_id":"a5b1438c-a8fa-4b64-82f0-cc465f815c91","system_id":"levelo_inurba_marseille","lat":43.317557,"lon":5.390173,"is_reserved":false,"is_disabled":false,"rental_uris":{"android":"levelo://app?vid=a5b1438c-a8fa-4b64-82f0-cc465f815c91","ios":"levelo://app?vid=a5b1438c-a8fa-4b64-82f0-cc465f815c91"},"vehicle_type_id":"4","last_reported":1686514000,"current_range_meters":800,"station_id":"ce4bhqp2rcd13ifvqhng","pricing_plan_id":"free"},{"bike_id":"253c1817-982e-4bc7-9c13-1fc0208cb6dc","system_id":"levelo_inurba_marseille","lat":43.304274,"lon":5.388873,"is_reserved":false,"is_disabled":false,"rental_uris":{"android":"levelo://app?vid=253c1817-982e-4bc7-9c13-1fc0208cb6dc","ios":"levelo://app?vid=253c1817-982e-4bc7-9c13-1fc0208cb6dc"},"vehicle_type_id":"4","last_reported":1686514000,"current_range_meters":27200,"station_id":"ce4bgk12rcd13ifvqbi0","pricing_plan_id":"free"},{"bike_id":"a478c219-e724-4c77-802d-9720823988b1","system_id":"levelo_inurba_marseille","lat":43.29618,"lon":5.37726,"is_reserved":false,"is_disabled":false,"rental_uris":{"android":"levelo://app?vid=a478c219-e724-4c77-802d-9720823988b1","ios":"levelo://app?vid=a478c219-e724-4c77-802d-9720823988b1"},"vehicle_type_id":"4","last_reported":1686514000,"current_range_meters":26400,"station_id":"ce4bgi92rcd13ifvqb90","pricing_plan_id":"free"},{"bike_id":"de1fff56-d02e-4d09-92e1-c24e735f08a9","system_id":"levelo_inurba_marseille","lat":43.296277,"lon":5.377108,"is_reserved":false,"is_disabled":false,"rental_uris":{"android":"levelo://app?vid=de1fff56-d02e-4d09-92e1-c24e735f08a9","ios":"levelo://app?vid=de1fff56-d02e-4d09-92e1-c24e735f08a9"},"vehicle_type_id":"4","last_reported":1686514000,"current_range_meters":15600,"station_id":"ce4bgi92rcd13ifvqb90","pricing_plan_id":"free"},{"bike_id":"4a6df6c8-6cd7-429f-b644-fa130ac0f49a","system_id":"levelo_inurba_marseille","lat":43.29969,"lon":5.38496,"is_reserved":false,"is_disabled":false,"rental_uris":{"android":"levelo://app?vid=4a6df6c8-6cd7-429f-b644-fa130ac0f49a","ios":"levelo://app?vid=4a6df6c8-6cd7-429f-b644-fa130ac0f49a"},"vehicle_type_id":"4","last_reported":1686514000,"current_range_meters":31200,"station_id":"ce4bgj92rcd13ifvqbd0","pricing_plan_id":"free"},{"bike_id":"faa15729-da89-451e-982f-b9709b5295f7","system_id":"levelo_inurba_marseille","lat":43.299717,"lon":5.384845,"is_reserved":false,"is_disabled":false,"rental_uris":{"android":"levelo://app?vid=faa15729-da89-451e-982f-b9709b5295f7","ios":"levelo://app?vid=faa15729-da89-451e-982f-b9709b5295f7"},"vehicle_type_id":"4","last_reported":1686514000,"current_range_meters":25200,"station_id":"ce4bgj92rcd13ifvqbd0","pricing_plan_id":"free"},{"bike_id":"18fa49ff-a54f-4178-a9e6-dbfdfcb02ef2","system_id":"levelo_inurba_marseille","lat":43.29968,"lon":5.38495,"is_reserved":false,"is_disabled":false,"rental_uris":{"android":"levelo://app?vid=18fa49ff-a54f-4178-a9e6-dbfdfcb02ef2","ios":"levelo://app?vid=18fa49ff-a54f-4178-a9e6-dbfdfcb02ef2"},"vehicle_type_id":"4","last_reported":1686514000,"current_range_meters":0,"station_id":"ce4bgj92rcd13ifvqbd0","pricing_plan_id":"free"},{"bike_id":"cbfaec4a-0445-4e3c-94db-01e7839753f0","system_id":"levelo_inurba_marseille","lat":43.299717,"lon":5.384845,"is_reserved":false,"is_disabled":false,"rental_uris":{"android":"levelo://app?vid=cbfaec4a-0445-4e3c-94db-01e7839753f0","ios":"levelo://app?vid=cbfaec4a-0445-4e3c-94db-01e7839753f0"},"vehicle_type_id":"4","last_reported":1686514000,"current_range_meters":29200,"station_id":"ce4bgj92rcd13ifvqbd0","pricing_plan_id":"free"},{"bike_id":"1a10afdd-816f-4230-96ad-e07afc80891a","system_id":"levelo_inurba_marseille","lat":43.29425,"lon":5.37401,"is_reserved":false,"is_disabled":false,"rental_uris":{"android":"levelo://app?vid=1a10afdd-816f-4230-96ad-e07afc80891a","ios":"levelo://app?vid=1a10afdd-816f-4230-96ad-e07afc80891a"},"vehicle_type_id":"4","last_reported":1686514000,"current_range_meters":14800,"station_id":"","pricing_plan_id":"free"},{"bike_id":"148976dd-ee39-48ff-b28f-cd1ba32427ce","system_id":"levelo_inurba_marseille","lat":43.32367,"lon":5.38883,"is_reserved":false,"is_disabled":false,"rental_uris":{"android":"levelo://app?vid=148976dd-ee39-48ff-b28f-cd1ba32427ce","ios":"levelo://app?vid=148976dd-ee39-48ff-b28f-cd1ba32427ce"},"vehicle_type_id":"4","last_reported":1686514000,"current_range_meters":8400,"station_id":"ce4bhr12rcd13ifvqhpg","pricing_plan_id":"free"},{"bike_id":"424b1910-887e-47c5-b69b-4b7b4eea4aaf","system_id":"levelo_inurba_marseille","lat":43.323667,"lon":5.388847,"is_reserved":false,"is_disabled":false,"rental_uris":{"android":"levelo://app?vid=424b1910-887e-47c5-b69b-4b7b4eea4aaf","ios":"levelo://app?vid=424b1910-887e-47c5-b69b-4b7b4eea4aaf"},"vehicle_type_id":"4","last_reported":1686514000,"current_range_meters":10800,"station_id":"ce4bhqp2rcd13ifvqhog","pricing_plan_id":"free"},{"bike_id":"4bba3b90-26c4-49e3-8039-ff4e49179e14","system_id":"levelo_inurba_marseille","lat":43.29601,"lon":5.381084,"is_reserved":false,"is_disabled":false,"rental_uris":{"android":"levelo://app?vid=4bba3b90-26c4-49e3-8039-ff4e49179e14","ios":"levelo://app?vid=4bba3b90-26c4-49e3-8039-ff4e49179e14"},"vehicle_type_id":"4","last_reported":1686514000,"current_range_meters":22400,"station_id":"ce4bgl12rcd13ifvqbo0","pricing_plan_id":"free"},{"bike_id":"f00cd5b8-1068-4f48-889a-6822a3c407c6","system_id":"levelo_inurba_marseille","lat":43.29844,"lon":5.38564,"is_reserved":false,"is_disabled":false,"rental_uris":{"android":"levelo://app?vid=f00cd5b8-1068-4f48-889a-6822a3c407c6","ios":"levelo://app?vid=f00cd5b8-1068-4f48-889a-6822a3c407c6"},"vehicle_type_id":"4","last_reported":1686514000,"current_range_meters":0,"station_id":"","pricing_plan_id":"free"},{"bike_id":"50cd1987-1ec5-4574-bfe6-e28c06840370","system_id":"levelo_inurba_marseille","lat":43.292749,"lon":5.368402,"is_reserved":false,"is_disabled":false,"rental_uris":{"android":"levelo://app?vid=50cd1987-1ec5-4574-bfe6-e28c06840370","ios":"levelo://app?vid=50cd1987-1ec5-4574-bfe6-e28c06840370"},"vehicle_type_id":"4","last_reported":1686514000,"current_range_meters":7600,"station_id":"ce4bhbp2rcd13ifvqesg","pricing_plan_id":"free"},{"bike_id":"5be06b82-f670-49e6-908e-3b57a892864b","system_id":"levelo_inurba_marseille","lat":43.293009,"lon":5.374584,"is_reserved":false,"is_disabled":false,"rental_uris":{"android":"levelo://app?vid=5be06b82-f670-49e6-908e-3b57a892864b","ios":"levelo://app?vid=5be06b82-f670-49e6-908e-3b57a892864b"},"vehicle_type_id":"4","last_reported":1686514000,"current_range_meters":6800,"station_id":"ce4bgi12rcd13ifvqb70","pricing_plan_id":"free"},{"bike_id":"0e3e954d-4c2a-425f-95f7-797b67348734","system_id":"levelo_inurba_marseille","lat":43.305994,"lon":5.393687,"is_reserved":false,"is_disabled":false,"rental_uris":{"android":"levelo://app?vid=0e3e954d-4c2a-425f-95f7-797b67348734","ios":"levelo://app?vid=0e3e954d-4c2a-425f-95f7-797b67348734"},"vehicle_type_id":"4","last_reported":1686514000,"current_range_meters":20800,"station_id":"ce4bh0p2rcd13ifvqd80","pricing_plan_id":"free"},{"bike_id":"7d658a7e-496f-4f88-8dbd-c494f53f928b","system_id":"levelo_inurba_marseille","lat":43.2936,"lon":5.37835,"is_reserved":false,"is_disabled":false,"rental_uris":{"android":"levelo://app?vid=7d658a7e-496f-4f88-8dbd-c494f53f928b","ios":"levelo://app?vid=7d658a7e-496f-4f88-8dbd-c494f53f928b"},"vehicle_type_id":"4","last_reported":1686514000,"current_range_meters":1600,"station_id":"ce4bgjh2rcd13ifvqbf0","pricing_plan_id":"free"},{"bike_id":"f90cbaf6-0b1d-4e0b-b94f-ec7fb5f5aeb7","system_id":"levelo_inurba_marseille","lat":43.2936,"lon":5.37835,"is_reserved":false,"is_disabled":false,"rental_uris":{"android":"levelo://app?vid=f90cbaf6-0b1d-4e0b-b94f-ec7fb5f5aeb7","ios":"levelo://app?vid=f90cbaf6-0b1d-4e0b-b94f-ec7fb5f5aeb7"},"vehicle_type_id":"4","last_reported":1686514000,"current_range_meters":31200,"station_id":"ce4bgjh2rcd13ifvqbf0","pricing_plan_id":"free"},{"bike_id":"61e4ccfd-dc98-4837-8123-2dfa5e087f42","system_id":"levelo_inurba_marseille","lat":43.293723,"lon":5.378443,"is_reserved":false,"is_disabled":false,"rental_uris":{"android":"levelo://app?vid=61e4ccfd-dc98-4837-8123-2dfa5e087f42","ios":"levelo://app?vid=61e4ccfd-dc98-4837-8123-2dfa5e087f42"},"vehicle_type_id":"4","last_reported":1686514000,"current_range_meters":0,"station_id":"","pricing_plan_id":"free"},{"bike_id":"d0fa48b7-8f58-4d36-8a5a-7f18d67ae075","system_id":"levelo_inurba_marseille","lat":43.2936,"lon":5.37835,"is_reserved":false,"is_disabled":false,"rental_uris":{"android":"levelo://app?vid=d0fa48b7-8f58-4d36-8a5a-7f18d67ae075","ios":"levelo://app?vid=d0fa48b7-8f58-4d36-8a5a-7f18d67ae075"},"vehicle_type_id":"4","last_reported":1686514000,"current_range_meters":31200,"station_id":"ce4bgjh2rcd13ifvqbf0","pricing_plan_id":"free"},{"bike_id":"93493c95-1736-498a-8d23-5401ed16f0aa","system_id":"levelo_inurba_marseille","lat":43.2936,"lon":5.37835,"is_reserved":false,"is_disabled":false,"rental_uris":{"android":"levelo://app?vid=93493c95-1736-498a-8d23-5401ed16f0aa","ios":"levelo://app?vid=93493c95-1736-498a-8d23-5401ed16f0aa"},"vehicle_type_id":"4","last_reported":1686514000,"current_range_meters":31200,"station_id":"ce4bgjh2rcd13ifvqbf0","pricing_plan_id":"free"},{"bike_id":"fbe24de5-0dc6-401e-a294-f1d65f7b843d","system_id":"levelo_inurba_marseille","lat":43.2936,"lon":5.37835,"is_reserved":false,"is_disabled":false,"rental_uris":{"android":"levelo://app?vid=fbe24de5-0dc6-401e-a294-f1d65f7b843d","ios":"levelo://app?vid=fbe24de5-0dc6-401e-a294-f1d65f7b843d"},"vehicle_type_id":"4","last_reported":1686514000,"current_range_meters":8800,"station_id":"ce4bgjh2rcd13ifvqbf0","pricing_plan_id":"free"},{"bike_id":"03deddea-5cec-4974-bd97-9eb44d4621c7","system_id":"levelo_inurba_marseille","lat":43.2936,"lon":5.37835,"is_reserved":false,"is_disabled":false,"rental_uris":{"android":"levelo://app?vid=03deddea-5cec-4974-bd97-9eb44d4621c7","ios":"levelo://app?vid=03deddea-5cec-4974-bd97-9eb44d4621c7"},"vehicle_type_id":"4","last_reported":1686514000,"current_range_meters":23600,"station_id":"ce4bgjh2rcd13ifvqbf0","pricing_plan_id":"free"},{"bike_id":"4506532e-f1cb-4c04-8bb6-7e098405695d","system_id":"levelo_inurba_marseille","lat":43.29373,"lon":5.37862,"is_reserved":false,"is_disabled":false,"rental_uris":{"android":"levelo://app?vid=4506532e-f1cb-4c04-8bb6-7e098405695d","ios":"levelo://app?vid=4506532e-f1cb-4c04-8bb6-7e098405695d"},"vehicle_type_id":"4","last_reported":1686514000,"current_range_meters":31200,"station_id":"ce4bgjh2rcd13ifvqbf0","pricing_plan_id":"free"},{"bike_id":"8643c785-db52-4667-8ecc-2ef40672994a","system_id":"levelo_inurba_marseille","lat":43.30085,"lon":5.390856,"is_reserved":false,"is_disabled":false,"rental_uris":{"android":"levelo://app?vid=8643c785-db52-4667-8ecc-2ef40672994a","ios":"levelo://app?vid=8643c785-db52-4667-8ecc-2ef40672994a"},"vehicle_type_id":"4","last_reported":1686514000,"current_range_meters":28400,"station_id":"ce4bh192rcd13ifvqdb0","pricing_plan_id":"free"},{"bike_id":"27fbeb5b-2c08-4e38-a89e-5bbd23764f20","system_id":"levelo_inurba_marseille","lat":43.300852,"lon":5.390859,"is_reserved":false,"is_disabled":false,"rental_uris":{"android":"levelo://app?vid=27fbeb5b-2c08-4e38-a89e-5bbd23764f20","ios":"levelo://app?vid=27fbeb5b-2c08-4e38-a89e-5bbd23764f20"},"vehicle_type_id":"4","last_reported":1686514000,"current_range_meters":17200,"station_id":"ce4bh192rcd13ifvqdb0","pricing_plan_id":"free"},{"bike_id":"2593fbd6-3ab1-4744-be7a-082c441c2f79","system_id":"levelo_inurba_marseille","lat":43.29225,"lon":5.3739,"is_reserved":false,"is_disabled":false,"rental_uris":{"android":"levelo://app?vid=2593fbd6-3ab1-4744-be7a-082c441c2f79","ios":"levelo://app?vid=2593fbd6-3ab1-4744-be7a-082c441c2f79"},"vehicle_type_id":"4","last_reported":1686514000,"current_range_meters":31200,"station_id":"","pricing_plan_id":"free"},{"bike_id":"be8983e5-db1a-4efc-aaca-05194dda7e8b","system_id":"levelo_inurba_marseille","lat":43.292663,"lon":5.376389,"is_reserved":false,"is_disabled":false,"rental_uris":{"android":"levelo://app?vid=be8983e5-db1a-4efc-aaca-05194dda7e8b","ios":"levelo://app?vid=be8983e5-db1a-4efc-aaca-05194dda7e8b"},"vehicle_type_id":"4","last_reported":1686514000,"current_range_meters":10400,"station_id":"ce4bgi12rcd13ifvqb80","pricing_plan_id":"free"},{"bike_id":"cc4c2383-1592-4452-b0ef-b818ce8e961f","system_id":"levelo_inurba_marseille","lat":43.291675,"lon":5.371583,"is_reserved":false,"is_disabled":false,"rental_uris":{"android":"levelo://app?vid=cc4c2383-1592-4452-b0ef-b818ce8e961f","ios":"levelo://app?vid=cc4c2383-1592-4452-b0ef-b818ce8e961f"},"vehicle_type_id":"4","last_reported":1686514000,"current_range_meters":24400,"station_id":"ce4bha92rcd13ifvqeh0","pricing_plan_id":"free"},{"bike_id":"16cb1dce-1b4c-451c-9dda-d8cc2c59bf75","system_id":"levelo_inurba_marseille","lat":43.298764,"lon":5.388973,"is_reserved":false,"is_disabled":false,"rental_uris":{"android":"levelo://app?vid=16cb1dce-1b4c-451c-9dda-d8cc2c59bf75","ios":"levelo://app?vid=16cb1dce-1b4c-451c-9dda-d8cc2c59bf75"},"vehicle_type_id":"4","last_reported":1686514000,"current_range_meters":7600,"station_id":"ce4bh392rcd13ifvqdl0","pricing_plan_id":"free"},{"bike_id":"8624ef43-f8b9-4a47-b4aa-462550cd9414","system_id":"levelo_inurba_marseille","lat":43.30885,"lon":5.39628,"is_reserved":false,"is_disabled":false,"rental_uris":{"android":"levelo://app?vid=8624ef43-f8b9-4a47-b4aa-462550cd9414","ios":"levelo://app?vid=8624ef43-f8b9-4a47-b4aa-462550cd9414"},"vehicle_type_id":"4","last_reported":1686514000,"current_range_meters":31200,"station_id":"","pricing_plan_id":"free"},{"bike_id":"fa2ce13e-66f2-48ba-85a6-744a8e26c5dd","system_id":"levelo_inurba_marseille","lat":43.309038,"lon":5.396546,"is_reserved":false,"is_disabled":false,"rental_uris":{"android":"levelo://app?vid=fa2ce13e-66f2-48ba-85a6-744a8e26c5dd","ios":"levelo://app?vid=fa2ce13e-66f2-48ba-85a6-744a8e26c5dd"},"vehicle_type_id":"4","last_reported":1686514000,"current_range_meters":20000,"station_id":"ce4bh012rcd13ifvqcv0","pricing_plan_id":"free"},{"bike_id":"b14e3891-28df-48ea-9de6-9837b86e70f0","system_id":"levelo_inurba_marseille","lat":43.30886,"lon":5.39635,"is_reserved":false,"is_disabled":false,"rental_uris":{"android":"levelo://app?vid=b14e3891-28df-48ea-9de6-9837b86e70f0","ios":"levelo://app?vid=b14e3891-28df-48ea-9de6-9837b86e70f0"},"vehicle_type_id":"4","last_reported":1686514000,"current_range_meters":6800,"station_id":"ce4bh012rcd13ifvqcv0","pricing_plan_id":"free"},{"bike_id":"5b74b0f3-7c36-4caa-b1c6-dcee6558d44a","system_id":"levelo_inurba_marseille","lat":43.313291,"lon":5.396838,"is_reserved":false,"is_disabled":false,"rental_uris":{"android":"levelo://app?vid=5b74b0f3-7c36-4caa-b1c6-dcee6558d44a","ios":"levelo://app?vid=5b74b0f3-7c36-4caa-b1c6-dcee6558d44a"},"vehicle_type_id":"4","last_reported":1686514000,"current_range_meters":0,"station_id":"ce4bgvp2rcd13ifvqcu0","pricing_plan_id":"free"},{"bike_id":"a2426796-ea4c-4707-9539-220d9b86d451","system_id":"levelo_inurba_marseille","lat":43.309038,"lon":5.396546,"is_reserved":false,"is_disabled":false,"rental_uris":{"android":"levelo://app?vid=a2426796-ea4c-4707-9539-220d9b86d451","ios":"levelo://app?vid=a2426796-ea4c-4707-9539-220d9b86d451"},"vehicle_type_id":"4","last_reported":1686514000,"current_range_meters":23600,"station_id":"ce4bh012rcd13ifvqcv0","pricing_plan_id":"free"},{"bike_id":"5fe1ece1-1420-4a55-aa3d-2761ffcfd2ef","system_id":"levelo_inurba_marseille","lat":43.313291,"lon":5.396838,"is_reserved":false,"is_disabled":false,"rental_uris":{"android":"levelo://app?vid=5fe1ece1-1420-4a55-aa3d-2761ffcfd2ef","ios":"levelo://app?vid=5fe1ece1-1420-4a55-aa3d-2761ffcfd2ef"},"vehicle_type_id":"4","last_reported":1686514000,"current_range_meters":31200,"station_id":"ce4bgvp2rcd13ifvqcu0","pricing_plan_id":"free"},{"bike_id":"e36d85df-fb7d-4e57-a82a-30058d87dca1","system_id":"levelo_inurba_marseille","lat":43.309038,"lon":5.396546,"is_reserved":false,"is_disabled":false,"rental_uris":{"android":"levelo://app?vid=e36d85df-fb7d-4e57-a82a-30058d87dca1","ios":"levelo://app?vid=e36d85df-fb7d-4e57-a82a-30058d87dca1"},"vehicle_type_id":"4","last_reported":1686514000,"current_range_meters":22800,"station_id":"ce4bh012rcd13ifvqcv0","pricing_plan_id":"free"},{"bike_id":"aa52c86e-6645-40b2-af70-6908e800a7f2","system_id":"levelo_inurba_marseille","lat":43.29187,"lon":5.35793,"is_reserved":false,"is_disabled":false,"rental_uris":{"android":"levelo://app?vid=aa52c86e-6645-40b2-af70-6908e800a7f2","ios":"levelo://app?vid=aa52c86e-6645-40b2-af70-6908e800a7f2"},"vehicle_type_id":"4","last_reported":1686514000,"current_range_meters":31200,"station_id":"ce4bhb12rcd13ifvqel0","pricing_plan_id":"free"},{"bike_id":"c0c2bfca-88b0-4526-94c5-1e6fd750741b","system_id":"levelo_inurba_marseille","lat":43.309038,"lon":5.396546,"is_reserved":false,"is_disabled":false,"rental_uris":{"android":"levelo://app?vid=c0c2bfca-88b0-4526-94c5-1e6fd750741b","ios":"levelo://app?vid=c0c2bfca-88b0-4526-94c5-1e6fd750741b"},"vehicle_type_id":"4","last_reported":1686514000,"current_range_meters":9200,"station_id":"ce4bh012rcd13ifvqcv0","pricing_plan_id":"free"},{"bike_id":"1c395332-c165-46ed-80a7-244a2b5be450","system_id":"levelo_inurba_marseille","lat":43.309038,"lon":5.396546,"is_reserved":false,"is_disabled":false,"rental_uris":{"android":"levelo://app?vid=1c395332-c165-46ed-80a7-244a2b5be450","ios":"levelo://app?vid=1c395332-c165-46ed-80a7-244a2b5be450"},"vehicle_type_id":"4","last_reported":1686514000,"current_range_meters":28000,"station_id":"ce4bh012rcd13ifvqcv0","pricing_plan_id":"free"},{"bike_id":"10ec84f8-c98b-4f87-a352-730fc11c38c4","system_id":"levelo_inurba_marseille","lat":43.29529,"lon":5.385581,"is_reserved":false,"is_disabled":false,"rental_uris":{"android":"levelo://app?vid=10ec84f8-c98b-4f87-a352-730fc11c38c4","ios":"levelo://app?vid=10ec84f8-c98b-4f87-a352-730fc11c38c4"},"vehicle_type_id":"4","last_reported":1686514000,"current_range_meters":2800,"station_id":"ce4bgih2rcd13ifvqba0","pricing_plan_id":"free"},{"bike_id":"ef859cf3-2794-4c44-be17-4237887aa951","system_id":"levelo_inurba_marseille","lat":43.29529,"lon":5.385581,"is_reserved":false,"is_disabled":false,"rental_uris":{"android":"levelo://app?vid=ef859cf3-2794-4c44-be17-4237887aa951","ios":"levelo://app?vid=ef859cf3-2794-4c44-be17-4237887aa951"},"vehicle_type_id":"4","last_reported":1686514000,"current_range_meters":14400,"station_id":"ce4bgih2rcd13ifvqba0","pricing_plan_id":"free"},{"bike_id":"323d0045-4222-4646-8b26-eac85da90d80","system_id":"levelo_inurba_marseille","lat":43.29529,"lon":5.385581,"is_reserved":false,"is_disabled":false,"rental_uris":{"android":"levelo://app?vid=323d0045-4222-4646-8b26-eac85da90d80","ios":"levelo://app?vid=323d0045-4222-4646-8b26-eac85da90d80"},"vehicle_type_id":"4","last_reported":1686514000,"current_range_meters":22400,"station_id":"ce4bgih2rcd13ifvqba0","pricing_plan_id":"free"},{"bike_id":"9fbaadd8-19c3-4444-8562-d909dcc56c96","system_id":"levelo_inurba_marseille","lat":43.29529,"lon":5.385581,"is_reserved":false,"is_disabled":false,"rental_uris":{"android":"levelo://app?vid=9fbaadd8-19c3-4444-8562-d909dcc56c96","ios":"levelo://app?vid=9fbaadd8-19c3-4444-8562-d909dcc56c96"},"vehicle_type_id":"4","last_reported":1686514000,"current_range_meters":22800,"station_id":"ce4bgih2rcd13ifvqba0","pricing_plan_id":"free"},{"bike_id":"577b3288-d887-411b-b39a-6b60541ef189","system_id":"levelo_inurba_marseille","lat":43.29073,"lon":5.37176,"is_reserved":false,"is_disabled":false,"rental_uris":{"android":"levelo://app?vid=577b3288-d887-411b-b39a-6b60541ef189","ios":"levelo://app?vid=577b3288-d887-411b-b39a-6b60541ef189"},"vehicle_type_id":"4","last_reported":1686514000,"current_range_meters":16000,"station_id":"ce4bh5p2rcd13ifvqe4g","pricing_plan_id":"free"},{"bike_id":"fb82899c-96bc-4a29-a1bf-a31db199bf40","system_id":"levelo_inurba_marseille","lat":43.29351,"lon":5.38384,"is_reserved":false,"is_disabled":false,"rental_uris":{"android":"levelo://app?vid=fb82899c-96bc-4a29-a1bf-a31db199bf40","ios":"levelo://app?vid=fb82899c-96bc-4a29-a1bf-a31db199bf40"},"vehicle_type_id":"4","last_reported":1686514000,"current_range_meters":23600,"station_id":"","pricing_plan_id":"free"},{"bike_id":"67d029a0-c6fb-4ce8-9e50-2f187cfc6918","system_id":"levelo_inurba_marseille","lat":43.29044,"lon":5.37573,"is_reserved":false,"is_disabled":false,"rental_uris":{"android":"levelo://app?vid=67d029a0-c6fb-4ce8-9e50-2f187cfc6918","ios":"levelo://app?vid=67d029a0-c6fb-4ce8-9e50-2f187cfc6918"},"vehicle_type_id":"4","last_reported":1686514000,"current_range_meters":14400,"station_id":"ce4bh692rcd13ifvqe90","pricing_plan_id":"free"},{"bike_id":"44eed7ae-ec32-4264-8375-1f59908fd208","system_id":"levelo_inurba_marseille","lat":43.294162,"lon":5.386292,"is_reserved":false,"is_disabled":false,"rental_uris":{"android":"levelo://app?vid=44eed7ae-ec32-4264-8375-1f59908fd208","ios":"levelo://app?vid=44eed7ae-ec32-4264-8375-1f59908fd208"},"vehicle_type_id":"4","last_reported":1686514000,"current_range_meters":21600,"station_id":"ce4bh2h2rcd13ifvqdh0","pricing_plan_id":"free"},{"bike_id":"3d731dfd-65f8-435f-b42b-6102c1801efc","system_id":"levelo_inurba_marseille","lat":43.29037,"lon":5.37563,"is_reserved":false,"is_disabled":false,"rental_uris":{"android":"levelo://app?vid=3d731dfd-65f8-435f-b42b-6102c1801efc","ios":"levelo://app?vid=3d731dfd-65f8-435f-b42b-6102c1801efc"},"vehicle_type_id":"4","last_reported":1686514000,"current_range_meters":21600,"station_id":"ce4bh692rcd13ifvqe90","pricing_plan_id":"free"},{"bike_id":"f0eeb637-cbe8-438c-95a5-550e2ea3da45","system_id":"levelo_inurba_marseille","lat":43.290327,"lon":5.375711,"is_reserved":false,"is_disabled":false,"rental_uris":{"android":"levelo://app?vid=f0eeb637-cbe8-438c-95a5-550e2ea3da45","ios":"levelo://app?vid=f0eeb637-cbe8-438c-95a5-550e2ea3da45"},"vehicle_type_id":"4","last_reported":1686514000,"current_range_meters":27200,"station_id":"ce4bh692rcd13ifvqe90","pricing_plan_id":"free"},{"bike_id":"16776a6a-29df-47c9-b413-5659d21b218c","system_id":"levelo_inurba_marseille","lat":43.289184,"lon":5.366408,"is_reserved":false,"is_disabled":false,"rental_uris":{"android":"levelo://app?vid=16776a6a-29df-47c9-b413-5659d21b218c","ios":"levelo://app?vid=16776a6a-29df-47c9-b413-5659d21b218c"},"vehicle_type_id":"4","last_reported":1686514000,"current_range_meters":4800,"station_id":"ce4bhap2rcd13ifvqek0","pricing_plan_id":"free"},{"bike_id":"367ece98-df8a-4227-927a-98a6d6e85b78","system_id":"levelo_inurba_marseille","lat":43.289468,"lon":5.363719,"is_reserved":false,"is_disabled":false,"rental_uris":{"android":"levelo://app?vid=367ece98-df8a-4227-927a-98a6d6e85b78","ios":"levelo://app?vid=367ece98-df8a-4227-927a-98a6d6e85b78"},"vehicle_type_id":"4","last_reported":1686514000,"current_range_meters":22000,"station_id":"ce4bhc92rcd13ifvqetg","pricing_plan_id":"free"},{"bike_id":"c9ed2382-d98c-4db1-a85f-1e095076b8a6","system_id":"levelo_inurba_marseille","lat":43.294032,"lon":5.386342,"is_reserved":false,"is_disabled":false,"rental_uris":{"android":"levelo://app?vid=c9ed2382-d98c-4db1-a85f-1e095076b8a6","ios":"levelo://app?vid=c9ed2382-d98c-4db1-a85f-1e095076b8a6"},"vehicle_type_id":"4","last_reported":1686514000,"current_range_meters":18800,"station_id":"","pricing_plan_id":"free"},{"bike_id":"ad9d3352-0c6c-4226-9b70-4a125984b60b","system_id":"levelo_inurba_marseille","lat":43.289468,"lon":5.363719,"is_reserved":false,"is_disabled":false,"rental_uris":{"android":"levelo://app?vid=ad9d3352-0c6c-4226-9b70-4a125984b60b","ios":"levelo://app?vid=ad9d3352-0c6c-4226-9b70-4a125984b60b"},"vehicle_type_id":"4","last_reported":1686514000,"current_range_meters":2400,"station_id":"ce4bhc92rcd13ifvqetg","pricing_plan_id":"free"},{"bike_id":"3af4b7c0-51cc-420e-8634-94e259c13841","system_id":"levelo_inurba_marseille","lat":43.297814,"lon":5.393513,"is_reserved":false,"is_disabled":false,"rental_uris":{"android":"levelo://app?vid=3af4b7c0-51cc-420e-8634-94e259c13841","ios":"levelo://app?vid=3af4b7c0-51cc-420e-8634-94e259c13841"},"vehicle_type_id":"4","last_reported":1686514000,"current_range_meters":30000,"station_id":"chh1huq6cuj3fo74tm60","pricing_plan_id":"free"},{"bike_id":"d77fbbb4-e939-47e4-a2af-1ab9b58cd302","system_id":"levelo_inurba_marseille","lat":43.295169,"lon":5.390426,"is_reserved":false,"is_disabled":false,"rental_uris":{"android":"levelo://app?vid=d77fbbb4-e939-47e4-a2af-1ab9b58cd302","ios":"levelo://app?vid=d77fbbb4-e939-47e4-a2af-1ab9b58cd302"},"vehicle_type_id":"4","last_reported":1686514000,"current_range_meters":0,"station_id":"ce4bh3p2rcd13ifvqdp0","pricing_plan_id":"free"},{"bike_id":"fe0c88b7-bfe1-4697-a167-f339ad9cc33e","system_id":"levelo_inurba_marseille","lat":43.295169,"lon":5.390426,"is_reserved":false,"is_disabled":false,"rental_uris":{"android":"levelo://app?vid=fe0c88b7-bfe1-4697-a167-f339ad9cc33e","ios":"levelo://app?vid=fe0c88b7-bfe1-4697-a167-f339ad9cc33e"},"vehicle_type_id":"4","last_reported":1686514000,"current_range_meters":31200,"station_id":"ce4bh3p2rcd13ifvqdp0","pricing_plan_id":"free"},{"bike_id":"ff4bc481-a7e4-4b0d-a7b3-f4df358c54b7","system_id":"levelo_inurba_marseille","lat":43.295169,"lon":5.390426,"is_reserved":false,"is_disabled":false,"rental_uris":{"android":"levelo://app?vid=ff4bc481-a7e4-4b0d-a7b3-f4df358c54b7","ios":"levelo://app?vid=ff4bc481-a7e4-4b0d-a7b3-f4df358c54b7"},"vehicle_type_id":"4","last_reported":1686514000,"current_range_meters":24400,"station_id":"ce4bh3p2rcd13ifvqdp0","pricing_plan_id":"free"},{"bike_id":"454a9eaf-4027-4825-adbd-05307201266f","system_id":"levelo_inurba_marseille","lat":43.28856,"lon":5.358371,"is_reserved":false,"is_disabled":false,"rental_uris":{"android":"levelo://app?vid=454a9eaf-4027-4825-adbd-05307201266f","ios":"levelo://app?vid=454a9eaf-4027-4825-adbd-05307201266f"},"vehicle_type_id":"4","last_reported":1686514000,"current_range_meters":30400,"station_id":"ce4bhb12rcd13ifvqem0","pricing_plan_id":"free"},{"bike_id":"0d49ffd4-0bd0-413d-8586-074fbbd77aa4","system_id":"levelo_inurba_marseille","lat":43.309371,"lon":5.401449,"is_reserved":false,"is_disabled":false,"rental_uris":{"android":"levelo://app?vid=0d49ffd4-0bd0-413d-8586-074fbbd77aa4","ios":"levelo://app?vid=0d49ffd4-0bd0-413d-8586-074fbbd77aa4"},"vehicle_type_id":"4","last_reported":1686514000,"current_range_meters":22000,"station_id":"ce4bgvp2rcd13ifvqct0","pricing_plan_id":"free"},{"bike_id":"265c0905-166c-408b-8d33-95a8e86424e1","system_id":"levelo_inurba_marseille","lat":43.337582,"lon":5.374483,"is_reserved":false,"is_disabled":false,"rental_uris":{"android":"levelo://app?vid=265c0905-166c-408b-8d33-95a8e86424e1","ios":"levelo://app?vid=265c0905-166c-408b-8d33-95a8e86424e1"},"vehicle_type_id":"4","last_reported":1686514000,"current_range_meters":11200,"station_id":"","pricing_plan_id":"free"},{"bike_id":"dc03ba51-5d22-4ed9-b3ed-9499a80f6bd0","system_id":"levelo_inurba_marseille","lat":43.3376,"lon":5.37465,"is_reserved":false,"is_disabled":false,"rental_uris":{"android":"levelo://app?vid=dc03ba51-5d22-4ed9-b3ed-9499a80f6bd0","ios":"levelo://app?vid=dc03ba51-5d22-4ed9-b3ed-9499a80f6bd0"},"vehicle_type_id":"4","last_reported":1686514000,"current_range_meters":30000,"station_id":"","pricing_plan_id":"free"},{"bike_id":"fb041ec1-b611-46eb-9d8b-3229cfb3396a","system_id":"levelo_inurba_marseille","lat":43.33768,"lon":5.37459,"is_reserved":false,"is_disabled":false,"rental_uris":{"android":"levelo://app?vid=fb041ec1-b611-46eb-9d8b-3229cfb3396a","ios":"levelo://app?vid=fb041ec1-b611-46eb-9d8b-3229cfb3396a"},"vehicle_type_id":"4","last_reported":1686514000,"current_range_meters":18400,"station_id":"","pricing_plan_id":"free"},{"bike_id":"bb513cf5-2c12-4d01-ab1d-c5ee895bc801","system_id":"levelo_inurba_marseille","lat":43.301117,"lon":5.398795,"is_reserved":false,"is_disabled":false,"rental_uris":{"android":"levelo://app?vid=bb513cf5-2c12-4d01-ab1d-c5ee895bc801","ios":"levelo://app?vid=bb513cf5-2c12-4d01-ab1d-c5ee895bc801"},"vehicle_type_id":"4","last_reported":1686514000,"current_range_meters":14400,"station_id":"ce4bh0h2rcd13ifvqd40","pricing_plan_id":"free"},{"bike_id":"7b92bb4e-c37f-408a-b8c5-8d9651549545","system_id":"levelo_inurba_marseille","lat":43.33798,"lon":5.37434,"is_reserved":false,"is_disabled":false,"rental_uris":{"android":"levelo://app?vid=7b92bb4e-c37f-408a-b8c5-8d9651549545","ios":"levelo://app?vid=7b92bb4e-c37f-408a-b8c5-8d9651549545"},"vehicle_type_id":"4","last_reported":1686514000,"current_range_meters":19200,"station_id":"","pricing_plan_id":"free"},{"bike_id":"f2cd7d37-14f3-417d-8fd3-319ba51a618f","system_id":"levelo_inurba_marseille","lat":43.2987,"lon":5.39725,"is_reserved":false,"is_disabled":false,"rental_uris":{"android":"levelo://app?vid=f2cd7d37-14f3-417d-8fd3-319ba51a618f","ios":"levelo://app?vid=f2cd7d37-14f3-417d-8fd3-319ba51a618f"},"vehicle_type_id":"4","last_reported":1686514000,"current_range_meters":11600,"station_id":"ce4bh0h2rcd13ifvqd50","pricing_plan_id":"free"},{"bike_id":"9a2942c7-809e-4abc-8f2b-edf3ec8273f4","system_id":"levelo_inurba_marseille","lat":43.298681,"lon":5.397225,"is_reserved":false,"is_disabled":false,"rental_uris":{"android":"levelo://app?vid=9a2942c7-809e-4abc-8f2b-edf3ec8273f4","ios":"levelo://app?vid=9a2942c7-809e-4abc-8f2b-edf3ec8273f4"},"vehicle_type_id":"4","last_reported":1686514000,"current_range_meters":4400,"station_id":"ce4bh0h2rcd13ifvqd50","pricing_plan_id":"free"},{"bike_id":"e1bd7675-6035-41a4-858b-46d0140259b5","system_id":"levelo_inurba_marseille","lat":43.298681,"lon":5.397225,"is_reserved":false,"is_disabled":false,"rental_uris":{"android":"levelo://app?vid=e1bd7675-6035-41a4-858b-46d0140259b5","ios":"levelo://app?vid=e1bd7675-6035-41a4-858b-46d0140259b5"},"vehicle_type_id":"4","last_reported":1686514000,"current_range_meters":11600,"station_id":"ce4bh0h2rcd13ifvqd50","pricing_plan_id":"free"},{"bike_id":"beaec097-b72d-453a-9fdf-5554777042c4","system_id":"levelo_inurba_marseille","lat":43.29871,"lon":5.39728,"is_reserved":false,"is_disabled":false,"rental_uris":{"android":"levelo://app?vid=beaec097-b72d-453a-9fdf-5554777042c4","ios":"levelo://app?vid=beaec097-b72d-453a-9fdf-5554777042c4"},"vehicle_type_id":"4","last_reported":1686514000,"current_range_meters":20800,"station_id":"ce4bh0h2rcd13ifvqd50","pricing_plan_id":"free"},{"bike_id":"4abdf431-1e69-4429-9178-6e1817b57e76","system_id":"levelo_inurba_marseille","lat":43.28705,"lon":5.37384,"is_reserved":false,"is_disabled":false,"rental_uris":{"android":"levelo://app?vid=4abdf431-1e69-4429-9178-6e1817b57e76","ios":"levelo://app?vid=4abdf431-1e69-4429-9178-6e1817b57e76"},"vehicle_type_id":"4","last_reported":1686514000,"current_range_meters":13600,"station_id":"","pricing_plan_id":"free"},{"bike_id":"b946f61a-496e-415e-8e50-898e0391452a","system_id":"levelo_inurba_marseille","lat":43.286591,"lon":5.363346,"is_reserved":false,"is_disabled":false,"rental_uris":{"android":"levelo://app?vid=b946f61a-496e-415e-8e50-898e0391452a","ios":"levelo://app?vid=b946f61a-496e-415e-8e50-898e0391452a"},"vehicle_type_id":"4","last_reported":1686514000,"current_range_meters":14000,"station_id":"ce4bhah2rcd13ifvqej0","pricing_plan_id":"free"},{"bike_id":"eaff81ab-ffb6-4885-abee-eb8a54febaef","system_id":"levelo_inurba_marseille","lat":43.287,"lon":5.37383,"is_reserved":false,"is_disabled":false,"rental_uris":{"android":"levelo://app?vid=eaff81ab-ffb6-4885-abee-eb8a54febaef","ios":"levelo://app?vid=eaff81ab-ffb6-4885-abee-eb8a54febaef"},"vehicle_type_id":"4","last_reported":1686514000,"current_range_meters":6000,"station_id":"","pricing_plan_id":"free"},{"bike_id":"57a2849c-f847-4a82-aba5-7b39b1202348","system_id":"levelo_inurba_marseille","lat":43.295196,"lon":5.39397,"is_reserved":false,"is_disabled":false,"rental_uris":{"android":"levelo://app?vid=57a2849c-f847-4a82-aba5-7b39b1202348","ios":"levelo://app?vid=57a2849c-f847-4a82-aba5-7b39b1202348"},"vehicle_type_id":"4","last_reported":1686514000,"current_range_meters":27200,"station_id":"ce4bh292rcd13ifvqdf0","pricing_plan_id":"free"},{"bike_id":"8cbf3ba5-fca2-4799-a69a-212af1120239","system_id":"levelo_inurba_marseille","lat":43.29521,"lon":5.39399,"is_reserved":false,"is_disabled":false,"rental_uris":{"android":"levelo://app?vid=8cbf3ba5-fca2-4799-a69a-212af1120239","ios":"levelo://app?vid=8cbf3ba5-fca2-4799-a69a-212af1120239"},"vehicle_type_id":"4","last_reported":1686514000,"current_range_meters":28800,"station_id":"ce4bh292rcd13ifvqdf0","pricing_plan_id":"free"},{"bike_id":"ba14619a-4444-4984-88fb-41a94bb769d2","system_id":"levelo_inurba_marseille","lat":43.295196,"lon":5.39397,"is_reserved":false,"is_disabled":false,"rental_uris":{"android":"levelo://app?vid=ba14619a-4444-4984-88fb-41a94bb769d2","ios":"levelo://app?vid=ba14619a-4444-4984-88fb-41a94bb769d2"},"vehicle_type_id":"4","last_reported":1686514000,"current_range_meters":30800,"station_id":"ce4bh292rcd13ifvqdf0","pricing_plan_id":"free"},{"bike_id":"866b694d-a473-4419-955d-9f2f29302129","system_id":"levelo_inurba_marseille","lat":43.302759,"lon":5.400793,"is_reserved":false,"is_disabled":false,"rental_uris":{"android":"levelo://app?vid=866b694d-a473-4419-955d-9f2f29302129","ios":"levelo://app?vid=866b694d-a473-4419-955d-9f2f29302129"},"vehicle_type_id":"4","last_reported":1686514000,"current_range_meters":16800,"station_id":"ce4bgvh2rcd13ifvqcs0","pricing_plan_id":"free"},{"bike_id":"e72c255a-3e0d-461b-83ac-3a433a8f846c","system_id":"levelo_inurba_marseille","lat":43.295196,"lon":5.39397,"is_reserved":false,"is_disabled":false,"rental_uris":{"android":"levelo://app?vid=e72c255a-3e0d-461b-83ac-3a433a8f846c","ios":"levelo://app?vid=e72c255a-3e0d-461b-83ac-3a433a8f846c"},"vehicle_type_id":"4","last_reported":1686514000,"current_range_meters":26800,"station_id":"ce4bh292rcd13ifvqdf0","pricing_plan_id":"free"},{"bike_id":"3ba596b4-2cec-4f0d-a559-67798db8aada","system_id":"levelo_inurba_marseille","lat":43.295196,"lon":5.39397,"is_reserved":false,"is_disabled":false,"rental_uris":{"android":"levelo://app?vid=3ba596b4-2cec-4f0d-a559-67798db8aada","ios":"levelo://app?vid=3ba596b4-2cec-4f0d-a559-67798db8aada"},"vehicle_type_id":"4","last_reported":1686514000,"current_range_meters":19200,"station_id":"ce4bh292rcd13ifvqdf0","pricing_plan_id":"free"},{"bike_id":"f05ce419-04a0-459a-8f90-fe65c72fa6b4","system_id":"levelo_inurba_marseille","lat":43.295194,"lon":5.39397,"is_reserved":false,"is_disabled":false,"rental_uris":{"android":"levelo://app?vid=f05ce419-04a0-459a-8f90-fe65c72fa6b4","ios":"levelo://app?vid=f05ce419-04a0-459a-8f90-fe65c72fa6b4"},"vehicle_type_id":"4","last_reported":1686514000,"current_range_meters":30800,"station_id":"ce4bh292rcd13ifvqdf0","pricing_plan_id":"free"},{"bike_id":"04c84d5c-1206-4177-bbfd-6613d95989b1","system_id":"levelo_inurba_marseille","lat":43.295196,"lon":5.39397,"is_reserved":false,"is_disabled":false,"rental_uris":{"android":"levelo://app?vid=04c84d5c-1206-4177-bbfd-6613d95989b1","ios":"levelo://app?vid=04c84d5c-1206-4177-bbfd-6613d95989b1"},"vehicle_type_id":"4","last_reported":1686514000,"current_range_meters":4800,"station_id":"ce4bh292rcd13ifvqdf0","pricing_plan_id":"free"},{"bike_id":"2da90a36-322f-40d6-83df-1e0c1dc97fc1","system_id":"levelo_inurba_marseille","lat":43.302759,"lon":5.400793,"is_reserved":false,"is_disabled":false,"rental_uris":{"android":"levelo://app?vid=2da90a36-322f-40d6-83df-1e0c1dc97fc1","ios":"levelo://app?vid=2da90a36-322f-40d6-83df-1e0c1dc97fc1"},"vehicle_type_id":"4","last_reported":1686514000,"current_range_meters":28400,"station_id":"ce4bgvh2rcd13ifvqcs0","pricing_plan_id":"free"},{"bike_id":"94dabbc2-ef3a-4b4d-b318-1086417d66fe","system_id":"levelo_inurba_marseille","lat":43.30246,"lon":5.40056,"is_reserved":false,"is_disabled":false,"rental_uris":{"android":"levelo://app?vid=94dabbc2-ef3a-4b4d-b318-1086417d66fe","ios":"levelo://app?vid=94dabbc2-ef3a-4b4d-b318-1086417d66fe"},"vehicle_type_id":"4","last_reported":1686514000,"current_range_meters":18800,"station_id":"","pricing_plan_id":"free"},{"bike_id":"ebb9f39e-a894-4764-a1bc-157dff7805ea","system_id":"levelo_inurba_marseille","lat":43.302759,"lon":5.400793,"is_reserved":false,"is_disabled":false,"rental_uris":{"android":"levelo://app?vid=ebb9f39e-a894-4764-a1bc-157dff7805ea","ios":"levelo://app?vid=ebb9f39e-a894-4764-a1bc-157dff7805ea"},"vehicle_type_id":"4","last_reported":1686514000,"current_range_meters":14000,"station_id":"ce4bgvh2rcd13ifvqcs0","pricing_plan_id":"free"},{"bike_id":"a859fe68-8a48-4075-961d-2f0e37ea5bbd","system_id":"levelo_inurba_marseille","lat":43.290345,"lon":5.38646,"is_reserved":false,"is_disabled":false,"rental_uris":{"android":"levelo://app?vid=a859fe68-8a48-4075-961d-2f0e37ea5bbd","ios":"levelo://app?vid=a859fe68-8a48-4075-961d-2f0e37ea5bbd"},"vehicle_type_id":"4","last_reported":1686514000,"current_range_meters":30400,"station_id":"ce4bh4p2rcd13ifvqe0g","pricing_plan_id":"free"},{"bike_id":"50fa6053-f398-451f-975c-22d73bed5dd8","system_id":"levelo_inurba_marseille","lat":43.302759,"lon":5.400793,"is_reserved":false,"is_disabled":false,"rental_uris":{"android":"levelo://app?vid=50fa6053-f398-451f-975c-22d73bed5dd8","ios":"levelo://app?vid=50fa6053-f398-451f-975c-22d73bed5dd8"},"vehicle_type_id":"4","last_reported":1686514000,"current_range_meters":16800,"station_id":"ce4bgvh2rcd13ifvqcs0","pricing_plan_id":"free"},{"bike_id":"5f7ee111-d0d7-4c6b-b1f5-21bd7faefa50","system_id":"levelo_inurba_marseille","lat":43.286039,"lon":5.370681,"is_reserved":false,"is_disabled":false,"rental_uris":{"android":"levelo://app?vid=5f7ee111-d0d7-4c6b-b1f5-21bd7faefa50","ios":"levelo://app?vid=5f7ee111-d0d7-4c6b-b1f5-21bd7faefa50"},"vehicle_type_id":"4","last_reported":1686514000,"current_range_meters":18400,"station_id":"ce4bht12rcd13ifvqi60","pricing_plan_id":"free"},{"bike_id":"3ccd0029-db2d-478b-91f2-e7f666a8cc12","system_id":"levelo_inurba_marseille","lat":43.286039,"lon":5.370679,"is_reserved":false,"is_disabled":false,"rental_uris":{"android":"levelo://app?vid=3ccd0029-db2d-478b-91f2-e7f666a8cc12","ios":"levelo://app?vid=3ccd0029-db2d-478b-91f2-e7f666a8cc12"},"vehicle_type_id":"4","last_reported":1686514000,"current_range_meters":30000,"station_id":"ce4bht12rcd13ifvqi60","pricing_plan_id":"free"},{"bike_id":"7a83d784-099d-42fa-adbd-6ac5a8585b31","system_id":"levelo_inurba_marseille","lat":43.287184,"lon":5.37937,"is_reserved":false,"is_disabled":false,"rental_uris":{"android":"levelo://app?vid=7a83d784-099d-42fa-adbd-6ac5a8585b31","ios":"levelo://app?vid=7a83d784-099d-42fa-adbd-6ac5a8585b31"},"vehicle_type_id":"4","last_reported":1686514000,"current_range_meters":10000,"station_id":"ce4bh9p2rcd13ifvqec0","pricing_plan_id":"free"},{"bike_id":"da29ea43-fe0a-4ba3-bf9b-0ae1ed77235c","system_id":"levelo_inurba_marseille","lat":43.316517,"lon":5.404375,"is_reserved":false,"is_disabled":false,"rental_uris":{"android":"levelo://app?vid=da29ea43-fe0a-4ba3-bf9b-0ae1ed77235c","ios":"levelo://app?vid=da29ea43-fe0a-4ba3-bf9b-0ae1ed77235c"},"vehicle_type_id":"4","last_reported":1686514000,"current_range_meters":16000,"station_id":"ce4bh012rcd13ifvqd00","pricing_plan_id":"free"},{"bike_id":"7adba4a7-558d-4694-87b2-cfc6eb5ff71e","system_id":"levelo_inurba_marseille","lat":43.316517,"lon":5.404375,"is_reserved":false,"is_disabled":false,"rental_uris":{"android":"levelo://app?vid=7adba4a7-558d-4694-87b2-cfc6eb5ff71e","ios":"levelo://app?vid=7adba4a7-558d-4694-87b2-cfc6eb5ff71e"},"vehicle_type_id":"4","last_reported":1686514000,"current_range_meters":6000,"station_id":"ce4bh012rcd13ifvqd00","pricing_plan_id":"free"},{"bike_id":"eff298ea-3fe5-4d73-a93f-7384cf88b79d","system_id":"levelo_inurba_marseille","lat":43.316517,"lon":5.404375,"is_reserved":false,"is_disabled":false,"rental_uris":{"android":"levelo://app?vid=eff298ea-3fe5-4d73-a93f-7384cf88b79d","ios":"levelo://app?vid=eff298ea-3fe5-4d73-a93f-7384cf88b79d"},"vehicle_type_id":"4","last_reported":1686514000,"current_range_meters":28400,"station_id":"ce4bh012rcd13ifvqd00","pricing_plan_id":"free"},{"bike_id":"d3dcc0e1-e53d-45d5-8081-038b013c4a09","system_id":"levelo_inurba_marseille","lat":43.316517,"lon":5.404375,"is_reserved":false,"is_disabled":false,"rental_uris":{"android":"levelo://app?vid=d3dcc0e1-e53d-45d5-8081-038b013c4a09","ios":"levelo://app?vid=d3dcc0e1-e53d-45d5-8081-038b013c4a09"},"vehicle_type_id":"4","last_reported":1686514000,"current_range_meters":18800,"station_id":"ce4bh012rcd13ifvqd00","pricing_plan_id":"free"},{"bike_id":"b9328e5f-7344-4898-a6b0-a97df7c397cc","system_id":"levelo_inurba_marseille","lat":43.31653,"lon":5.40437,"is_reserved":false,"is_disabled":false,"rental_uris":{"android":"levelo://app?vid=b9328e5f-7344-4898-a6b0-a97df7c397cc","ios":"levelo://app?vid=b9328e5f-7344-4898-a6b0-a97df7c397cc"},"vehicle_type_id":"4","last_reported":1686514000,"current_range_meters":2000,"station_id":"ce4bh012rcd13ifvqd00","pricing_plan_id":"free"},{"bike_id":"c9f07ace-c0a6-4e06-8f15-0d012c06f426","system_id":"levelo_inurba_marseille","lat":43.291994,"lon":5.392907,"is_reserved":false,"is_disabled":false,"rental_uris":{"android":"levelo://app?vid=c9f07ace-c0a6-4e06-8f15-0d012c06f426","ios":"levelo://app?vid=c9f07ace-c0a6-4e06-8f15-0d012c06f426"},"vehicle_type_id":"4","last_reported":1686514000,"current_range_meters":1200,"station_id":"ce4bh192rcd13ifvqdd0","pricing_plan_id":"free"},{"bike_id":"71c136a9-23ab-4eb0-a675-8c0ce0a4daf4","system_id":"levelo_inurba_marseille","lat":43.291994,"lon":5.392907,"is_reserved":false,"is_disabled":false,"rental_uris":{"android":"levelo://app?vid=71c136a9-23ab-4eb0-a675-8c0ce0a4daf4","ios":"levelo://app?vid=71c136a9-23ab-4eb0-a675-8c0ce0a4daf4"},"vehicle_type_id":"4","last_reported":1686514000,"current_range_meters":18800,"station_id":"ce4bh192rcd13ifvqdd0","pricing_plan_id":"free"},{"bike_id":"063ecac0-9b1b-481e-9d17-de6dff892e6e","system_id":"levelo_inurba_marseille","lat":43.291994,"lon":5.392907,"is_reserved":false,"is_disabled":false,"rental_uris":{"android":"levelo://app?vid=063ecac0-9b1b-481e-9d17-de6dff892e6e","ios":"levelo://app?vid=063ecac0-9b1b-481e-9d17-de6dff892e6e"},"vehicle_type_id":"4","last_reported":1686514000,"current_range_meters":20000,"station_id":"ce4bh192rcd13ifvqdd0","pricing_plan_id":"free"},{"bike_id":"5fef70ac-fec2-4de4-af00-27344f77db02","system_id":"levelo_inurba_marseille","lat":43.291994,"lon":5.392907,"is_reserved":false,"is_disabled":false,"rental_uris":{"android":"levelo://app?vid=5fef70ac-fec2-4de4-af00-27344f77db02","ios":"levelo://app?vid=5fef70ac-fec2-4de4-af00-27344f77db02"},"vehicle_type_id":"4","last_reported":1686514000,"current_range_meters":12000,"station_id":"ce4bh192rcd13ifvqdd0","pricing_plan_id":"free"},{"bike_id":"1a68c28c-407b-4404-8de1-7f3f883eec7e","system_id":"levelo_inurba_marseille","lat":43.295713,"lon":5.399639,"is_reserved":false,"is_disabled":false,"rental_uris":{"android":"levelo://app?vid=1a68c28c-407b-4404-8de1-7f3f883eec7e","ios":"levelo://app?vid=1a68c28c-407b-4404-8de1-7f3f883eec7e"},"vehicle_type_id":"4","last_reported":1686514000,"current_range_meters":24400,"station_id":"ce4bh312rcd13ifvqdj0","pricing_plan_id":"free"},{"bike_id":"df76a7f0-d50c-446a-92ae-fbd371fa58d8","system_id":"levelo_inurba_marseille","lat":43.295713,"lon":5.399639,"is_reserved":false,"is_disabled":false,"rental_uris":{"android":"levelo://app?vid=df76a7f0-d50c-446a-92ae-fbd371fa58d8","ios":"levelo://app?vid=df76a7f0-d50c-446a-92ae-fbd371fa58d8"},"vehicle_type_id":"4","last_reported":1686514000,"current_range_meters":30400,"station_id":"ce4bh312rcd13ifvqdj0","pricing_plan_id":"free"},{"bike_id":"b95f81e1-5592-4270-b090-6699a81784ec","system_id":"levelo_inurba_marseille","lat":43.2957,"lon":5.39976,"is_reserved":false,"is_disabled":false,"rental_uris":{"android":"levelo://app?vid=b95f81e1-5592-4270-b090-6699a81784ec","ios":"levelo://app?vid=b95f81e1-5592-4270-b090-6699a81784ec"},"vehicle_type_id":"4","last_reported":1686514000,"current_range_meters":14000,"station_id":"ce4bh312rcd13ifvqdj0","pricing_plan_id":"free"},{"bike_id":"0b89d82f-c3cd-41c8-885b-31bdcd9d1d0d","system_id":"levelo_inurba_marseille","lat":43.295713,"lon":5.399639,"is_reserved":false,"is_disabled":false,"rental_uris":{"android":"levelo://app?vid=0b89d82f-c3cd-41c8-885b-31bdcd9d1d0d","ios":"levelo://app?vid=0b89d82f-c3cd-41c8-885b-31bdcd9d1d0d"},"vehicle_type_id":"4","last_reported":1686514000,"current_range_meters":10800,"station_id":"ce4bh312rcd13ifvqdj0","pricing_plan_id":"free"},{"bike_id":"a01757e3-df67-4b12-9ed1-b716c2fa2a4c","system_id":"levelo_inurba_marseille","lat":43.296263,"lon":5.40601,"is_reserved":false,"is_disabled":false,"rental_uris":{"android":"levelo://app?vid=a01757e3-df67-4b12-9ed1-b716c2fa2a4c","ios":"levelo://app?vid=a01757e3-df67-4b12-9ed1-b716c2fa2a4c"},"vehicle_type_id":"4","last_reported":1686514000,"current_range_meters":20000,"station_id":"ce4bh0h2rcd13ifvqd60","pricing_plan_id":"free"},{"bike_id":"94783ff9-d63f-4314-a42f-617e764a1b17","system_id":"levelo_inurba_marseille","lat":43.28544,"lon":5.35034,"is_reserved":false,"is_disabled":false,"rental_uris":{"android":"levelo://app?vid=94783ff9-d63f-4314-a42f-617e764a1b17","ios":"levelo://app?vid=94783ff9-d63f-4314-a42f-617e764a1b17"},"vehicle_type_id":"4","last_reported":1686514000,"current_range_meters":8400,"station_id":"ce4bhbh2rcd13ifvqepg","pricing_plan_id":"free"},{"bike_id":"ecb4f661-aeff-4be3-b786-e94faade97be","system_id":"levelo_inurba_marseille","lat":43.286595,"lon":5.386795,"is_reserved":false,"is_disabled":false,"rental_uris":{"android":"levelo://app?vid=ecb4f661-aeff-4be3-b786-e94faade97be","ios":"levelo://app?vid=ecb4f661-aeff-4be3-b786-e94faade97be"},"vehicle_type_id":"4","last_reported":1686514000,"current_range_meters":0,"station_id":"ce4bh492rcd13ifvqdug","pricing_plan_id":"free"},{"bike_id":"27534a1e-2306-4f0f-ae01-c0f1f95acd1f","system_id":"levelo_inurba_marseille","lat":43.323464,"lon":5.406297,"is_reserved":false,"is_disabled":false,"rental_uris":{"android":"levelo://app?vid=27534a1e-2306-4f0f-ae01-c0f1f95acd1f","ios":"levelo://app?vid=27534a1e-2306-4f0f-ae01-c0f1f95acd1f"},"vehicle_type_id":"4","last_reported":1686514000,"current_range_meters":18400,"station_id":"ce4bhq92rcd13ifvqhjg","pricing_plan_id":"free"},{"bike_id":"ba019977-f266-49f9-b8c0-4ba8e8943bc1","system_id":"levelo_inurba_marseille","lat":43.323464,"lon":5.406297,"is_reserved":false,"is_disabled":false,"rental_uris":{"android":"levelo://app?vid=ba019977-f266-49f9-b8c0-4ba8e8943bc1","ios":"levelo://app?vid=ba019977-f266-49f9-b8c0-4ba8e8943bc1"},"vehicle_type_id":"4","last_reported":1686514000,"current_range_meters":31200,"station_id":"ce4bhq92rcd13ifvqhjg","pricing_plan_id":"free"},{"bike_id":"5d501cb1-669d-44db-8610-1e2383559f92","system_id":"levelo_inurba_marseille","lat":43.323464,"lon":5.406297,"is_reserved":false,"is_disabled":false,"rental_uris":{"android":"levelo://app?vid=5d501cb1-669d-44db-8610-1e2383559f92","ios":"levelo://app?vid=5d501cb1-669d-44db-8610-1e2383559f92"},"vehicle_type_id":"4","last_reported":1686514000,"current_range_meters":31600,"station_id":"ce4bhq92rcd13ifvqhjg","pricing_plan_id":"free"},{"bike_id":"7d89e3b5-958d-47f6-80fa-adc2175a1ff9","system_id":"levelo_inurba_marseille","lat":43.323464,"lon":5.406297,"is_reserved":false,"is_disabled":false,"rental_uris":{"android":"levelo://app?vid=7d89e3b5-958d-47f6-80fa-adc2175a1ff9","ios":"levelo://app?vid=7d89e3b5-958d-47f6-80fa-adc2175a1ff9"},"vehicle_type_id":"4","last_reported":1686514000,"current_range_meters":31200,"station_id":"ce4bhq92rcd13ifvqhjg","pricing_plan_id":"free"},{"bike_id":"447df31a-1c59-4fce-bf41-420b00e84a6f","system_id":"levelo_inurba_marseille","lat":43.28483,"lon":5.38419,"is_reserved":false,"is_disabled":false,"rental_uris":{"android":"levelo://app?vid=447df31a-1c59-4fce-bf41-420b00e84a6f","ios":"levelo://app?vid=447df31a-1c59-4fce-bf41-420b00e84a6f"},"vehicle_type_id":"4","last_reported":1686514000,"current_range_meters":8800,"station_id":"ce4bh512rcd13ifvqe3g","pricing_plan_id":"free"},{"bike_id":"3a12cb92-afb5-445b-8da9-e2f0ba7a8fdd","system_id":"levelo_inurba_marseille","lat":43.284787,"lon":5.384116,"is_reserved":false,"is_disabled":false,"rental_uris":{"android":"levelo://app?vid=3a12cb92-afb5-445b-8da9-e2f0ba7a8fdd","ios":"levelo://app?vid=3a12cb92-afb5-445b-8da9-e2f0ba7a8fdd"},"vehicle_type_id":"4","last_reported":1686514000,"current_range_meters":29600,"station_id":"ce4bh512rcd13ifvqe3g","pricing_plan_id":"free"},{"bike_id":"8cbc6511-9a03-4dc1-ae11-5ccfd1600bc2","system_id":"levelo_inurba_marseille","lat":43.288497,"lon":5.393089,"is_reserved":false,"is_disabled":false,"rental_uris":{"android":"levelo://app?vid=8cbc6511-9a03-4dc1-ae11-5ccfd1600bc2","ios":"levelo://app?vid=8cbc6511-9a03-4dc1-ae11-5ccfd1600bc2"},"vehicle_type_id":"4","last_reported":1686514000,"current_range_meters":4000,"station_id":"ce4bh2p2rcd13ifvqdi0","pricing_plan_id":"free"},{"bike_id":"8a09fd50-a145-47ad-8026-320e7c27815d","system_id":"levelo_inurba_marseille","lat":43.283494,"lon":5.380945,"is_reserved":false,"is_disabled":false,"rental_uris":{"android":"levelo://app?vid=8a09fd50-a145-47ad-8026-320e7c27815d","ios":"levelo://app?vid=8a09fd50-a145-47ad-8026-320e7c27815d"},"vehicle_type_id":"4","last_reported":1686514000,"current_range_meters":12400,"station_id":"ce4bh412rcd13ifvqdr0","pricing_plan_id":"free"},{"bike_id":"425eeefc-6628-4a28-b8d9-12a320729cd7","system_id":"levelo_inurba_marseille","lat":43.283494,"lon":5.380945,"is_reserved":false,"is_disabled":false,"rental_uris":{"android":"levelo://app?vid=425eeefc-6628-4a28-b8d9-12a320729cd7","ios":"levelo://app?vid=425eeefc-6628-4a28-b8d9-12a320729cd7"},"vehicle_type_id":"4","last_reported":1686514000,"current_range_meters":29600,"station_id":"ce4bh412rcd13ifvqdr0","pricing_plan_id":"free"},{"bike_id":"2c858e0d-7c5b-421a-b614-acf886692536","system_id":"levelo_inurba_marseille","lat":43.283498,"lon":5.380948,"is_reserved":false,"is_disabled":false,"rental_uris":{"android":"levelo://app?vid=2c858e0d-7c5b-421a-b614-acf886692536","ios":"levelo://app?vid=2c858e0d-7c5b-421a-b614-acf886692536"},"vehicle_type_id":"4","last_reported":1686514000,"current_range_meters":23600,"station_id":"ce4bh412rcd13ifvqdr0","pricing_plan_id":"free"},{"bike_id":"0b0e1a93-1e3d-4317-9bd4-d3e707dc3034","system_id":"levelo_inurba_marseille","lat":43.281044,"lon":5.378308,"is_reserved":false,"is_disabled":false,"rental_uris":{"android":"levelo://app?vid=0b0e1a93-1e3d-4317-9bd4-d3e707dc3034","ios":"levelo://app?vid=0b0e1a93-1e3d-4317-9bd4-d3e707dc3034"},"vehicle_type_id":"4","last_reported":1686514000,"current_range_meters":0,"station_id":"ce4bha12rcd13ifvqee0","pricing_plan_id":"free"},{"bike_id":"b2a2cb1f-4fa0-414e-b2d3-3c5528d5258d","system_id":"levelo_inurba_marseille","lat":43.289363,"lon":5.396322,"is_reserved":false,"is_disabled":false,"rental_uris":{"android":"levelo://app?vid=b2a2cb1f-4fa0-414e-b2d3-3c5528d5258d","ios":"levelo://app?vid=b2a2cb1f-4fa0-414e-b2d3-3c5528d5258d"},"vehicle_type_id":"4","last_reported":1686514000,"current_range_meters":23600,"station_id":"ce4bh3h2rcd13ifvqdn0","pricing_plan_id":"free"},{"bike_id":"23f1916c-c279-4ac9-8afe-a6aa8ad20518","system_id":"levelo_inurba_marseille","lat":43.29288,"lon":5.40105,"is_reserved":false,"is_disabled":false,"rental_uris":{"android":"levelo://app?vid=23f1916c-c279-4ac9-8afe-a6aa8ad20518","ios":"levelo://app?vid=23f1916c-c279-4ac9-8afe-a6aa8ad20518"},"vehicle_type_id":"4","last_reported":1686514000,"current_range_meters":24800,"station_id":"ce4bh312rcd13ifvqdk0","pricing_plan_id":"free"},{"bike_id":"491124a3-18e6-4d57-baf7-0175e8e1b927","system_id":"levelo_inurba_marseille","lat":43.2929,"lon":5.40113,"is_reserved":false,"is_disabled":false,"rental_uris":{"android":"levelo://app?vid=491124a3-18e6-4d57-baf7-0175e8e1b927","ios":"levelo://app?vid=491124a3-18e6-4d57-baf7-0175e8e1b927"},"vehicle_type_id":"4","last_reported":1686514000,"current_range_meters":5600,"station_id":"ce4bh312rcd13ifvqdk0","pricing_plan_id":"free"},{"bike_id":"beb24a7e-194c-4078-8421-a44b08446f5e","system_id":"levelo_inurba_marseille","lat":43.29284,"lon":5.40115,"is_reserved":false,"is_disabled":false,"rental_uris":{"android":"levelo://app?vid=beb24a7e-194c-4078-8421-a44b08446f5e","ios":"levelo://app?vid=beb24a7e-194c-4078-8421-a44b08446f5e"},"vehicle_type_id":"4","last_reported":1686514000,"current_range_meters":16000,"station_id":"ce4bh312rcd13ifvqdk0","pricing_plan_id":"free"},{"bike_id":"813b405b-5891-4569-b076-43b90bede1db","system_id":"levelo_inurba_marseille","lat":43.29279,"lon":5.40112,"is_reserved":false,"is_disabled":false,"rental_uris":{"android":"levelo://app?vid=813b405b-5891-4569-b076-43b90bede1db","ios":"levelo://app?vid=813b405b-5891-4569-b076-43b90bede1db"},"vehicle_type_id":"4","last_reported":1686514000,"current_range_meters":22400,"station_id":"ce4bh312rcd13ifvqdk0","pricing_plan_id":"free"},{"bike_id":"6090e27a-24b3-4eb4-8db7-96dd7a0cc9a7","system_id":"levelo_inurba_marseille","lat":43.29287,"lon":5.40121,"is_reserved":false,"is_disabled":false,"rental_uris":{"android":"levelo://app?vid=6090e27a-24b3-4eb4-8db7-96dd7a0cc9a7","ios":"levelo://app?vid=6090e27a-24b3-4eb4-8db7-96dd7a0cc9a7"},"vehicle_type_id":"4","last_reported":1686514000,"current_range_meters":4400,"station_id":"ce4bh312rcd13ifvqdk0","pricing_plan_id":"free"},{"bike_id":"b8000c7f-0c63-460f-818e-27d11c2c4bde","system_id":"levelo_inurba_marseille","lat":43.283502,"lon":5.386471,"is_reserved":false,"is_disabled":false,"rental_uris":{"android":"levelo://app?vid=b8000c7f-0c63-460f-818e-27d11c2c4bde","ios":"levelo://app?vid=b8000c7f-0c63-460f-818e-27d11c2c4bde"},"vehicle_type_id":"4","last_reported":1686514000,"current_range_meters":13600,"station_id":"ce4bh492rcd13ifvqdvg","pricing_plan_id":"free"},{"bike_id":"c78c918e-9fc8-457e-b807-315d37880b95","system_id":"levelo_inurba_marseille","lat":43.283502,"lon":5.386471,"is_reserved":false,"is_disabled":false,"rental_uris":{"android":"levelo://app?vid=c78c918e-9fc8-457e-b807-315d37880b95","ios":"levelo://app?vid=c78c918e-9fc8-457e-b807-315d37880b95"},"vehicle_type_id":"4","last_reported":1686514000,"current_range_meters":27200,"station_id":"ce4bh492rcd13ifvqdvg","pricing_plan_id":"free"},{"bike_id":"835b1563-998e-4c0e-b8d2-fbb79f5c2c7e","system_id":"levelo_inurba_marseille","lat":43.28031,"lon":5.36942,"is_reserved":false,"is_disabled":false,"rental_uris":{"android":"levelo://app?vid=835b1563-998e-4c0e-b8d2-fbb79f5c2c7e","ios":"levelo://app?vid=835b1563-998e-4c0e-b8d2-fbb79f5c2c7e"},"vehicle_type_id":"4","last_reported":1686514000,"current_range_meters":12000,"station_id":"ce4bha12rcd13ifvqef0","pricing_plan_id":"free"},{"bike_id":"409ed5cd-8150-4ebf-ba22-38047c1797de","system_id":"levelo_inurba_marseille","lat":43.29033,"lon":5.39968,"is_reserved":false,"is_disabled":false,"rental_uris":{"android":"levelo://app?vid=409ed5cd-8150-4ebf-ba22-38047c1797de","ios":"levelo://app?vid=409ed5cd-8150-4ebf-ba22-38047c1797de"},"vehicle_type_id":"4","last_reported":1686514000,"current_range_meters":12000,"station_id":"ce4bh392rcd13ifvqdm0","pricing_plan_id":"free"},{"bike_id":"f583957c-c41e-4600-88ee-1e4f40b50284","system_id":"levelo_inurba_marseille","lat":43.281044,"lon":5.378308,"is_reserved":false,"is_disabled":false,"rental_uris":{"android":"levelo://app?vid=f583957c-c41e-4600-88ee-1e4f40b50284","ios":"levelo://app?vid=f583957c-c41e-4600-88ee-1e4f40b50284"},"vehicle_type_id":"4","last_reported":1686514000,"current_range_meters":1200,"station_id":"ce4bha12rcd13ifvqee0","pricing_plan_id":"free"},{"bike_id":"ce5cc9d6-f793-47c5-bf72-7d17201fc065","system_id":"levelo_inurba_marseille","lat":43.281044,"lon":5.378308,"is_reserved":false,"is_disabled":false,"rental_uris":{"android":"levelo://app?vid=ce5cc9d6-f793-47c5-bf72-7d17201fc065","ios":"levelo://app?vid=ce5cc9d6-f793-47c5-bf72-7d17201fc065"},"vehicle_type_id":"4","last_reported":1686514000,"current_range_meters":19600,"station_id":"ce4bha12rcd13ifvqee0","pricing_plan_id":"free"},{"bike_id":"e4e56a62-8e80-46e0-a781-9a89b23a7a89","system_id":"levelo_inurba_marseille","lat":43.281044,"lon":5.378308,"is_reserved":false,"is_disabled":false,"rental_uris":{"android":"levelo://app?vid=e4e56a62-8e80-46e0-a781-9a89b23a7a89","ios":"levelo://app?vid=e4e56a62-8e80-46e0-a781-9a89b23a7a89"},"vehicle_type_id":"4","last_reported":1686514000,"current_range_meters":400,"station_id":"ce4bha12rcd13ifvqee0","pricing_plan_id":"free"},{"bike_id":"c89273a7-5744-42b7-a763-c23176f7743c","system_id":"levelo_inurba_marseille","lat":43.281044,"lon":5.378308,"is_reserved":false,"is_disabled":false,"rental_uris":{"android":"levelo://app?vid=c89273a7-5744-42b7-a763-c23176f7743c","ios":"levelo://app?vid=c89273a7-5744-42b7-a763-c23176f7743c"},"vehicle_type_id":"4","last_reported":1686514000,"current_range_meters":2400,"station_id":"ce4bha12rcd13ifvqee0","pricing_plan_id":"free"},{"bike_id":"8d956d6f-e46a-49a5-ae67-ae2ef943bab9","system_id":"levelo_inurba_marseille","lat":43.28103,"lon":5.37846,"is_reserved":false,"is_disabled":false,"rental_uris":{"android":"levelo://app?vid=8d956d6f-e46a-49a5-ae67-ae2ef943bab9","ios":"levelo://app?vid=8d956d6f-e46a-49a5-ae67-ae2ef943bab9"},"vehicle_type_id":"4","last_reported":1686514000,"current_range_meters":31200,"station_id":"ce4bha12rcd13ifvqee0","pricing_plan_id":"free"},{"bike_id":"c87f5522-6881-4b6d-bd69-4e7ead2002dd","system_id":"levelo_inurba_marseille","lat":43.29029,"lon":5.39983,"is_reserved":false,"is_disabled":false,"rental_uris":{"android":"levelo://app?vid=c87f5522-6881-4b6d-bd69-4e7ead2002dd","ios":"levelo://app?vid=c87f5522-6881-4b6d-bd69-4e7ead2002dd"},"vehicle_type_id":"4","last_reported":1686514000,"current_range_meters":8800,"station_id":"ce4bh392rcd13ifvqdm0","pricing_plan_id":"free"},{"bike_id":"795b2a56-a1a0-4ff1-8750-6f763471d865","system_id":"levelo_inurba_marseille","lat":43.28573,"lon":5.394992,"is_reserved":false,"is_disabled":false,"rental_uris":{"android":"levelo://app?vid=795b2a56-a1a0-4ff1-8750-6f763471d865","ios":"levelo://app?vid=795b2a56-a1a0-4ff1-8750-6f763471d865"},"vehicle_type_id":"4","last_reported":1686514000,"current_range_meters":27600,"station_id":"ce4bh292rcd13ifvqdg0","pricing_plan_id":"free"},{"bike_id":"713de1d0-4ad4-44e8-828d-b3f234b356e2","system_id":"levelo_inurba_marseille","lat":43.28573,"lon":5.394992,"is_reserved":false,"is_disabled":false,"rental_uris":{"android":"levelo://app?vid=713de1d0-4ad4-44e8-828d-b3f234b356e2","ios":"levelo://app?vid=713de1d0-4ad4-44e8-828d-b3f234b356e2"},"vehicle_type_id":"4","last_reported":1686514000,"current_range_meters":13200,"station_id":"ce4bh292rcd13ifvqdg0","pricing_plan_id":"free"},{"bike_id":"bdcf492a-57ef-4c5b-8bd3-c41d9e6341cf","system_id":"levelo_inurba_marseille","lat":43.285742,"lon":5.395004,"is_reserved":false,"is_disabled":false,"rental_uris":{"android":"levelo://app?vid=bdcf492a-57ef-4c5b-8bd3-c41d9e6341cf","ios":"levelo://app?vid=bdcf492a-57ef-4c5b-8bd3-c41d9e6341cf"},"vehicle_type_id":"4","last_reported":1686514000,"current_range_meters":8800,"station_id":"ce4bh292rcd13ifvqdg0","pricing_plan_id":"free"},{"bike_id":"535f51cb-1438-4393-8e53-482cae9662ac","system_id":"levelo_inurba_marseille","lat":43.326605,"lon":5.409903,"is_reserved":false,"is_disabled":false,"rental_uris":{"android":"levelo://app?vid=535f51cb-1438-4393-8e53-482cae9662ac","ios":"levelo://app?vid=535f51cb-1438-4393-8e53-482cae9662ac"},"vehicle_type_id":"4","last_reported":1686514000,"current_range_meters":20400,"station_id":"ce4bhpp2rcd13ifvqhgg","pricing_plan_id":"free"},{"bike_id":"b1b93ea4-94ce-48be-baeb-186aad0cb226","system_id":"levelo_inurba_marseille","lat":43.304188,"lon":5.412904,"is_reserved":false,"is_disabled":false,"rental_uris":{"android":"levelo://app?vid=b1b93ea4-94ce-48be-baeb-186aad0cb226","ios":"levelo://app?vid=b1b93ea4-94ce-48be-baeb-186aad0cb226"},"vehicle_type_id":"4","last_reported":1686514000,"current_range_meters":27200,"station_id":"ce4bhop2rcd13ifvqh8g","pricing_plan_id":"free"},{"bike_id":"7cca538d-62ab-4e01-aa18-feb71db7fb91","system_id":"levelo_inurba_marseille","lat":43.287154,"lon":5.399979,"is_reserved":false,"is_disabled":false,"rental_uris":{"android":"levelo://app?vid=7cca538d-62ab-4e01-aa18-feb71db7fb91","ios":"levelo://app?vid=7cca538d-62ab-4e01-aa18-feb71db7fb91"},"vehicle_type_id":"4","last_reported":1686514000,"current_range_meters":30400,"station_id":"ce4bho92rcd13ifvqh3g","pricing_plan_id":"free"},{"bike_id":"3a21c143-a66c-452f-9df9-7929367948ef","system_id":"levelo_inurba_marseille","lat":43.287154,"lon":5.399979,"is_reserved":false,"is_disabled":false,"rental_uris":{"android":"levelo://app?vid=3a21c143-a66c-452f-9df9-7929367948ef","ios":"levelo://app?vid=3a21c143-a66c-452f-9df9-7929367948ef"},"vehicle_type_id":"4","last_reported":1686514000,"current_range_meters":30400,"station_id":"ce4bho92rcd13ifvqh3g","pricing_plan_id":"free"},{"bike_id":"14e5083b-837d-4e4f-9209-c2059921d4b1","system_id":"levelo_inurba_marseille","lat":43.287154,"lon":5.399979,"is_reserved":false,"is_disabled":false,"rental_uris":{"android":"levelo://app?vid=14e5083b-837d-4e4f-9209-c2059921d4b1","ios":"levelo://app?vid=14e5083b-837d-4e4f-9209-c2059921d4b1"},"vehicle_type_id":"4","last_reported":1686514000,"current_range_meters":10800,"station_id":"ce4bho92rcd13ifvqh3g","pricing_plan_id":"free"},{"bike_id":"20b3a847-068d-4121-ac55-768f10667579","system_id":"levelo_inurba_marseille","lat":43.287154,"lon":5.399979,"is_reserved":false,"is_disabled":false,"rental_uris":{"android":"levelo://app?vid=20b3a847-068d-4121-ac55-768f10667579","ios":"levelo://app?vid=20b3a847-068d-4121-ac55-768f10667579"},"vehicle_type_id":"4","last_reported":1686514000,"current_range_meters":12800,"station_id":"ce4bho92rcd13ifvqh3g","pricing_plan_id":"free"},{"bike_id":"cc3fd156-3db7-4fb2-8f50-43760d3513ad","system_id":"levelo_inurba_marseille","lat":43.287154,"lon":5.399979,"is_reserved":false,"is_disabled":false,"rental_uris":{"android":"levelo://app?vid=cc3fd156-3db7-4fb2-8f50-43760d3513ad","ios":"levelo://app?vid=cc3fd156-3db7-4fb2-8f50-43760d3513ad"},"vehicle_type_id":"4","last_reported":1686514000,"current_range_meters":26400,"station_id":"ce4bho92rcd13ifvqh3g","pricing_plan_id":"free"},{"bike_id":"a5c69e38-3ac2-44a1-b299-ce8d4161887a","system_id":"levelo_inurba_marseille","lat":43.287154,"lon":5.399979,"is_reserved":false,"is_disabled":false,"rental_uris":{"android":"levelo://app?vid=a5c69e38-3ac2-44a1-b299-ce8d4161887a","ios":"levelo://app?vid=a5c69e38-3ac2-44a1-b299-ce8d4161887a"},"vehicle_type_id":"4","last_reported":1686514000,"current_range_meters":16800,"station_id":"ce4bho92rcd13ifvqh3g","pricing_plan_id":"free"},{"bike_id":"7e99b455-7402-479b-9c3b-302c6c111303","system_id":"levelo_inurba_marseille","lat":43.299579,"lon":5.413255,"is_reserved":false,"is_disabled":false,"rental_uris":{"android":"levelo://app?vid=7e99b455-7402-479b-9c3b-302c6c111303","ios":"levelo://app?vid=7e99b455-7402-479b-9c3b-302c6c111303"},"vehicle_type_id":"4","last_reported":1686514000,"current_range_meters":12400,"station_id":"ce4bhp12rcd13ifvqh9g","pricing_plan_id":"free"},{"bike_id":"a823ab3a-54ba-418b-969f-60886403b8fa","system_id":"levelo_inurba_marseille","lat":43.320045,"lon":5.415046,"is_reserved":false,"is_disabled":false,"rental_uris":{"android":"levelo://app?vid=a823ab3a-54ba-418b-969f-60886403b8fa","ios":"levelo://app?vid=a823ab3a-54ba-418b-969f-60886403b8fa"},"vehicle_type_id":"4","last_reported":1686514000,"current_range_meters":30400,"station_id":"ce4bhq92rcd13ifvqhkg","pricing_plan_id":"free"},{"bike_id":"16abe0a6-14cb-46b9-bd69-8e2ddb6b668e","system_id":"levelo_inurba_marseille","lat":43.292571,"lon":5.409107,"is_reserved":false,"is_disabled":false,"rental_uris":{"android":"levelo://app?vid=16abe0a6-14cb-46b9-bd69-8e2ddb6b668e","ios":"levelo://app?vid=16abe0a6-14cb-46b9-bd69-8e2ddb6b668e"},"vehicle_type_id":"4","last_reported":1686514000,"current_range_meters":17200,"station_id":"ce4bh192rcd13ifvqdc0","pricing_plan_id":"free"},{"bike_id":"3270e0cc-7287-4a40-9918-5be54c0e03a1","system_id":"levelo_inurba_marseille","lat":43.280784,"lon":5.396622,"is_reserved":false,"is_disabled":false,"rental_uris":{"android":"levelo://app?vid=3270e0cc-7287-4a40-9918-5be54c0e03a1","ios":"levelo://app?vid=3270e0cc-7287-4a40-9918-5be54c0e03a1"},"vehicle_type_id":"4","last_reported":1686514000,"current_range_meters":6800,"station_id":"ce4bho12rcd13ifvqh2g","pricing_plan_id":"free"},{"bike_id":"28b3fb03-12f5-4103-8f5a-2b1bb3987b88","system_id":"levelo_inurba_marseille","lat":43.280784,"lon":5.396622,"is_reserved":false,"is_disabled":false,"rental_uris":{"android":"levelo://app?vid=28b3fb03-12f5-4103-8f5a-2b1bb3987b88","ios":"levelo://app?vid=28b3fb03-12f5-4103-8f5a-2b1bb3987b88"},"vehicle_type_id":"4","last_reported":1686514000,"current_range_meters":400,"station_id":"ce4bho12rcd13ifvqh2g","pricing_plan_id":"free"},{"bike_id":"f4598230-6619-4740-a94e-a35b9ec64ef7","system_id":"levelo_inurba_marseille","lat":43.280784,"lon":5.396622,"is_reserved":false,"is_disabled":false,"rental_uris":{"android":"levelo://app?vid=f4598230-6619-4740-a94e-a35b9ec64ef7","ios":"levelo://app?vid=f4598230-6619-4740-a94e-a35b9ec64ef7"},"vehicle_type_id":"4","last_reported":1686514000,"current_range_meters":23600,"station_id":"ce4bho12rcd13ifvqh2g","pricing_plan_id":"free"},{"bike_id":"97ce5bce-ffc5-4903-adf2-5f6accf2241e","system_id":"levelo_inurba_marseille","lat":43.336134,"lon":5.410341,"is_reserved":false,"is_disabled":false,"rental_uris":{"android":"levelo://app?vid=97ce5bce-ffc5-4903-adf2-5f6accf2241e","ios":"levelo://app?vid=97ce5bce-ffc5-4903-adf2-5f6accf2241e"},"vehicle_type_id":"4","last_reported":1686514000,"current_range_meters":5600,"station_id":"ce4bhqh2rcd13ifvqhmg","pricing_plan_id":"free"},{"bike_id":"81a24d60-6d6e-4369-aa24-a6112490bc22","system_id":"levelo_inurba_marseille","lat":43.27839,"lon":5.39211,"is_reserved":false,"is_disabled":false,"rental_uris":{"android":"levelo://app?vid=81a24d60-6d6e-4369-aa24-a6112490bc22","ios":"levelo://app?vid=81a24d60-6d6e-4369-aa24-a6112490bc22"},"vehicle_type_id":"4","last_reported":1686514000,"current_range_meters":7600,"station_id":"ce4bhjp2rcd13ifvqga0","pricing_plan_id":"free"},{"bike_id":"e8607a84-9876-4bec-97b4-e79db0d15ab4","system_id":"levelo_inurba_marseille","lat":43.278399,"lon":5.392139,"is_reserved":false,"is_disabled":false,"rental_uris":{"android":"levelo://app?vid=e8607a84-9876-4bec-97b4-e79db0d15ab4","ios":"levelo://app?vid=e8607a84-9876-4bec-97b4-e79db0d15ab4"},"vehicle_type_id":"4","last_reported":1686514000,"current_range_meters":16000,"station_id":"ce4bhjp2rcd13ifvqga0","pricing_plan_id":"free"},{"bike_id":"d16170ef-b2cc-4e5f-88bc-ad164d4f15f3","system_id":"levelo_inurba_marseille","lat":43.278399,"lon":5.392139,"is_reserved":false,"is_disabled":false,"rental_uris":{"android":"levelo://app?vid=d16170ef-b2cc-4e5f-88bc-ad164d4f15f3","ios":"levelo://app?vid=d16170ef-b2cc-4e5f-88bc-ad164d4f15f3"},"vehicle_type_id":"4","last_reported":1686514000,"current_range_meters":2400,"station_id":"ce4bhjp2rcd13ifvqga0","pricing_plan_id":"free"},{"bike_id":"19e1df7e-0428-428f-9c0d-d5d504c42f17","system_id":"levelo_inurba_marseille","lat":43.27377,"lon":5.36248,"is_reserved":false,"is_disabled":false,"rental_uris":{"android":"levelo://app?vid=19e1df7e-0428-428f-9c0d-d5d504c42f17","ios":"levelo://app?vid=19e1df7e-0428-428f-9c0d-d5d504c42f17"},"vehicle_type_id":"4","last_reported":1686514000,"current_range_meters":0,"station_id":"ce4bhbh2rcd13ifvqeo0","pricing_plan_id":"free"},{"bike_id":"c32d9a17-b4ba-47a1-b2dc-974b8a4f3c9c","system_id":"levelo_inurba_marseille","lat":43.336134,"lon":5.410341,"is_reserved":false,"is_disabled":false,"rental_uris":{"android":"levelo://app?vid=c32d9a17-b4ba-47a1-b2dc-974b8a4f3c9c","ios":"levelo://app?vid=c32d9a17-b4ba-47a1-b2dc-974b8a4f3c9c"},"vehicle_type_id":"4","last_reported":1686514000,"current_range_meters":16800,"station_id":"ce4bhqh2rcd13ifvqhmg","pricing_plan_id":"free"},{"bike_id":"0041724c-111a-49a2-8a13-2cf8d3f31a33","system_id":"levelo_inurba_marseille","lat":43.336134,"lon":5.410341,"is_reserved":false,"is_disabled":false,"rental_uris":{"android":"levelo://app?vid=0041724c-111a-49a2-8a13-2cf8d3f31a33","ios":"levelo://app?vid=0041724c-111a-49a2-8a13-2cf8d3f31a33"},"vehicle_type_id":"4","last_reported":1686514000,"current_range_meters":8800,"station_id":"ce4bhqh2rcd13ifvqhmg","pricing_plan_id":"free"},{"bike_id":"39612b5b-e1ea-497b-85ad-4772551df064","system_id":"levelo_inurba_marseille","lat":43.336134,"lon":5.410341,"is_reserved":false,"is_disabled":false,"rental_uris":{"android":"levelo://app?vid=39612b5b-e1ea-497b-85ad-4772551df064","ios":"levelo://app?vid=39612b5b-e1ea-497b-85ad-4772551df064"},"vehicle_type_id":"4","last_reported":1686514000,"current_range_meters":30000,"station_id":"ce4bhqh2rcd13ifvqhmg","pricing_plan_id":"free"},{"bike_id":"0d8127f9-d931-4886-ae1d-cc889ece4400","system_id":"levelo_inurba_marseille","lat":43.33603,"lon":5.41035,"is_reserved":false,"is_disabled":false,"rental_uris":{"android":"levelo://app?vid=0d8127f9-d931-4886-ae1d-cc889ece4400","ios":"levelo://app?vid=0d8127f9-d931-4886-ae1d-cc889ece4400"},"vehicle_type_id":"4","last_reported":1686514000,"current_range_meters":22400,"station_id":"ce4bhqh2rcd13ifvqhmg","pricing_plan_id":"free"},{"bike_id":"a3ab487b-562c-4c45-bd3a-3040ffdeefd4","system_id":"levelo_inurba_marseille","lat":43.27794,"lon":5.3943,"is_reserved":false,"is_disabled":false,"rental_uris":{"android":"levelo://app?vid=a3ab487b-562c-4c45-bd3a-3040ffdeefd4","ios":"levelo://app?vid=a3ab487b-562c-4c45-bd3a-3040ffdeefd4"},"vehicle_type_id":"4","last_reported":1686514000,"current_range_meters":0,"station_id":"","pricing_plan_id":"free"},{"bike_id":"20bd9467-8e18-43af-b408-83c5ccc3c1ca","system_id":"levelo_inurba_marseille","lat":43.31082,"lon":5.4243,"is_reserved":false,"is_disabled":false,"rental_uris":{"android":"levelo://app?vid=20bd9467-8e18-43af-b408-83c5ccc3c1ca","ios":"levelo://app?vid=20bd9467-8e18-43af-b408-83c5ccc3c1ca"},"vehicle_type_id":"4","last_reported":1686514000,"current_range_meters":4400,"station_id":"ce4bhp92rcd13ifvqhag","pricing_plan_id":"free"},{"bike_id":"c75ec162-0efe-467a-a98a-50133ea5de05","system_id":"levelo_inurba_marseille","lat":43.27614,"lon":5.39489,"is_reserved":false,"is_disabled":false,"rental_uris":{"android":"levelo://app?vid=c75ec162-0efe-467a-a98a-50133ea5de05","ios":"levelo://app?vid=c75ec162-0efe-467a-a98a-50133ea5de05"},"vehicle_type_id":"4","last_reported":1686514000,"current_range_meters":15600,"station_id":"","pricing_plan_id":"free"},{"bike_id":"0f593172-f356-4edb-8926-9e955f527f49","system_id":"levelo_inurba_marseille","lat":43.295523,"lon":5.422926,"is_reserved":false,"is_disabled":false,"rental_uris":{"android":"levelo://app?vid=0f593172-f356-4edb-8926-9e955f527f49","ios":"levelo://app?vid=0f593172-f356-4edb-8926-9e955f527f49"},"vehicle_type_id":"4","last_reported":1686514000,"current_range_meters":31200,"station_id":"ce4bhph2rcd13ifvqhdg","pricing_plan_id":"free"},{"bike_id":"ea995902-89b5-4024-b3eb-675fd6111cd7","system_id":"levelo_inurba_marseille","lat":43.29555,"lon":5.42286,"is_reserved":false,"is_disabled":false,"rental_uris":{"android":"levelo://app?vid=ea995902-89b5-4024-b3eb-675fd6111cd7","ios":"levelo://app?vid=ea995902-89b5-4024-b3eb-675fd6111cd7"},"vehicle_type_id":"4","last_reported":1686514000,"current_range_meters":10000,"station_id":"ce4bhph2rcd13ifvqhdg","pricing_plan_id":"free"},{"bike_id":"94c2c3dd-e251-4f69-94fb-06352d89fc2a","system_id":"levelo_inurba_marseille","lat":43.295523,"lon":5.422926,"is_reserved":false,"is_disabled":false,"rental_uris":{"android":"levelo://app?vid=94c2c3dd-e251-4f69-94fb-06352d89fc2a","ios":"levelo://app?vid=94c2c3dd-e251-4f69-94fb-06352d89fc2a"},"vehicle_type_id":"4","last_reported":1686514000,"current_range_meters":30800,"station_id":"ce4bhph2rcd13ifvqhdg","pricing_plan_id":"free"},{"bike_id":"c61211a5-5719-4f69-8995-2305b5031c1c","system_id":"levelo_inurba_marseille","lat":43.295523,"lon":5.422926,"is_reserved":false,"is_disabled":false,"rental_uris":{"android":"levelo://app?vid=c61211a5-5719-4f69-8995-2305b5031c1c","ios":"levelo://app?vid=c61211a5-5719-4f69-8995-2305b5031c1c"},"vehicle_type_id":"4","last_reported":1686514000,"current_range_meters":29600,"station_id":"ce4bhph2rcd13ifvqhdg","pricing_plan_id":"free"},{"bike_id":"ee96639b-e394-48d8-ae41-ba904a5102e9","system_id":"levelo_inurba_marseille","lat":43.295523,"lon":5.422926,"is_reserved":false,"is_disabled":false,"rental_uris":{"android":"levelo://app?vid=ee96639b-e394-48d8-ae41-ba904a5102e9","ios":"levelo://app?vid=ee96639b-e394-48d8-ae41-ba904a5102e9"},"vehicle_type_id":"4","last_reported":1686514000,"current_range_meters":29600,"station_id":"ce4bhph2rcd13ifvqhdg","pricing_plan_id":"free"},{"bike_id":"dca69dd8-5f46-4416-aaab-6ce0be751bee","system_id":"levelo_inurba_marseille","lat":43.295563,"lon":5.422919,"is_reserved":false,"is_disabled":false,"rental_uris":{"android":"levelo://app?vid=dca69dd8-5f46-4416-aaab-6ce0be751bee","ios":"levelo://app?vid=dca69dd8-5f46-4416-aaab-6ce0be751bee"},"vehicle_type_id":"4","last_reported":1686514000,"current_range_meters":16400,"station_id":"","pricing_plan_id":"free"},{"bike_id":"981d1d10-ea2a-4dd8-ad94-ab108adc108a","system_id":"levelo_inurba_marseille","lat":43.278128,"lon":5.407195,"is_reserved":false,"is_disabled":false,"rental_uris":{"android":"levelo://app?vid=981d1d10-ea2a-4dd8-ad94-ab108adc108a","ios":"levelo://app?vid=981d1d10-ea2a-4dd8-ad94-ab108adc108a"},"vehicle_type_id":"4","last_reported":1686514000,"current_range_meters":30400,"station_id":"ce4bhnh2rcd13ifvqgtg","pricing_plan_id":"free"},{"bike_id":"6f1b6d41-4855-41c4-b51b-6ad6f01fde71","system_id":"levelo_inurba_marseille","lat":43.278128,"lon":5.407195,"is_reserved":false,"is_disabled":false,"rental_uris":{"android":"levelo://app?vid=6f1b6d41-4855-41c4-b51b-6ad6f01fde71","ios":"levelo://app?vid=6f1b6d41-4855-41c4-b51b-6ad6f01fde71"},"vehicle_type_id":"4","last_reported":1686514000,"current_range_meters":20800,"station_id":"ce4bhnh2rcd13ifvqgtg","pricing_plan_id":"free"},{"bike_id":"e6036ced-0b9d-469e-822d-99fe54ad1c52","system_id":"levelo_inurba_marseille","lat":43.27762,"lon":5.40634,"is_reserved":false,"is_disabled":false,"rental_uris":{"android":"levelo://app?vid=e6036ced-0b9d-469e-822d-99fe54ad1c52","ios":"levelo://app?vid=e6036ced-0b9d-469e-822d-99fe54ad1c52"},"vehicle_type_id":"4","last_reported":1686514000,"current_range_meters":0,"station_id":"","pricing_plan_id":"free"},{"bike_id":"9894d5d3-ef9d-4d32-b26a-b6c7d3993d4f","system_id":"levelo_inurba_marseille","lat":43.26547,"lon":5.37326,"is_reserved":false,"is_disabled":false,"rental_uris":{"android":"levelo://app?vid=9894d5d3-ef9d-4d32-b26a-b6c7d3993d4f","ios":"levelo://app?vid=9894d5d3-ef9d-4d32-b26a-b6c7d3993d4f"},"vehicle_type_id":"4","last_reported":1686514000,"current_range_meters":0,"station_id":"","pricing_plan_id":"free"},{"bike_id":"50fb0fce-9ba2-416f-a3db-385cb60163fd","system_id":"levelo_inurba_marseille","lat":43.28001,"lon":5.41654,"is_reserved":false,"is_disabled":false,"rental_uris":{"android":"levelo://app?vid=50fb0fce-9ba2-416f-a3db-385cb60163fd","ios":"levelo://app?vid=50fb0fce-9ba2-416f-a3db-385cb60163fd"},"vehicle_type_id":"4","last_reported":1686514000,"current_range_meters":4400,"station_id":"ce4bho12rcd13ifvqh1g","pricing_plan_id":"free"},{"bike_id":"48f4366a-e8f1-48a9-a50f-77d7f0dca628","system_id":"levelo_inurba_marseille","lat":43.27998,"lon":5.41659,"is_reserved":false,"is_disabled":false,"rental_uris":{"android":"levelo://app?vid=48f4366a-e8f1-48a9-a50f-77d7f0dca628","ios":"levelo://app?vid=48f4366a-e8f1-48a9-a50f-77d7f0dca628"},"vehicle_type_id":"4","last_reported":1686514000,"current_range_meters":2800,"station_id":"ce4bho12rcd13ifvqh1g","pricing_plan_id":"free"},{"bike_id":"bd05d292-3d14-47e5-83c5-2f47c575bce3","system_id":"levelo_inurba_marseille","lat":43.27993,"lon":5.41655,"is_reserved":false,"is_disabled":false,"rental_uris":{"android":"levelo://app?vid=bd05d292-3d14-47e5-83c5-2f47c575bce3","ios":"levelo://app?vid=bd05d292-3d14-47e5-83c5-2f47c575bce3"},"vehicle_type_id":"4","last_reported":1686514000,"current_range_meters":8400,"station_id":"ce4bho12rcd13ifvqh1g","pricing_plan_id":"free"},{"bike_id":"dcedf30b-318b-429d-8532-bf688a1137e6","system_id":"levelo_inurba_marseille","lat":43.27996,"lon":5.4166,"is_reserved":false,"is_disabled":false,"rental_uris":{"android":"levelo://app?vid=dcedf30b-318b-429d-8532-bf688a1137e6","ios":"levelo://app?vid=dcedf30b-318b-429d-8532-bf688a1137e6"},"vehicle_type_id":"4","last_reported":1686514000,"current_range_meters":2400,"station_id":"ce4bho12rcd13ifvqh1g","pricing_plan_id":"free"},{"bike_id":"14f5cec5-96eb-4aca-8373-08a5e17d1fd3","system_id":"levelo_inurba_marseille","lat":43.27994,"lon":5.41658,"is_reserved":false,"is_disabled":false,"rental_uris":{"android":"levelo://app?vid=14f5cec5-96eb-4aca-8373-08a5e17d1fd3","ios":"levelo://app?vid=14f5cec5-96eb-4aca-8373-08a5e17d1fd3"},"vehicle_type_id":"4","last_reported":1686514000,"current_range_meters":12400,"station_id":"ce4bho12rcd13ifvqh1g","pricing_plan_id":"free"},{"bike_id":"e4649357-2dea-4d63-ab53-077e0ad218cf","system_id":"levelo_inurba_marseille","lat":43.27994,"lon":5.41659,"is_reserved":false,"is_disabled":false,"rental_uris":{"android":"levelo://app?vid=e4649357-2dea-4d63-ab53-077e0ad218cf","ios":"levelo://app?vid=e4649357-2dea-4d63-ab53-077e0ad218cf"},"vehicle_type_id":"4","last_reported":1686514000,"current_range_meters":15200,"station_id":"ce4bho12rcd13ifvqh1g","pricing_plan_id":"free"},{"bike_id":"2cb6bad8-efca-4812-8844-42f1973c875e","system_id":"levelo_inurba_marseille","lat":43.27988,"lon":5.41661,"is_reserved":false,"is_disabled":false,"rental_uris":{"android":"levelo://app?vid=2cb6bad8-efca-4812-8844-42f1973c875e","ios":"levelo://app?vid=2cb6bad8-efca-4812-8844-42f1973c875e"},"vehicle_type_id":"4","last_reported":1686514000,"current_range_meters":16800,"station_id":"ce4bho12rcd13ifvqh1g","pricing_plan_id":"free"},{"bike_id":"44df57a6-707a-4d51-9679-f6a683120cbb","system_id":"levelo_inurba_marseille","lat":43.27987,"lon":5.41661,"is_reserved":false,"is_disabled":false,"rental_uris":{"android":"levelo://app?vid=44df57a6-707a-4d51-9679-f6a683120cbb","ios":"levelo://app?vid=44df57a6-707a-4d51-9679-f6a683120cbb"},"vehicle_type_id":"4","last_reported":1686514000,"current_range_meters":14000,"station_id":"ce4bho12rcd13ifvqh1g","pricing_plan_id":"free"},{"bike_id":"2a843613-41c9-46cd-a008-cadee2d64375","system_id":"levelo_inurba_marseille","lat":43.33229,"lon":5.42969,"is_reserved":false,"is_disabled":false,"rental_uris":{"android":"levelo://app?vid=2a843613-41c9-46cd-a008-cadee2d64375","ios":"levelo://app?vid=2a843613-41c9-46cd-a008-cadee2d64375"},"vehicle_type_id":"4","last_reported":1686514000,"current_range_meters":6800,"station_id":"","pricing_plan_id":"free"},{"bike_id":"78a0e235-0cde-473d-a1c4-1a3d90852a84","system_id":"levelo_inurba_marseille","lat":43.31568,"lon":5.43508,"is_reserved":false,"is_disabled":false,"rental_uris":{"android":"levelo://app?vid=78a0e235-0cde-473d-a1c4-1a3d90852a84","ios":"levelo://app?vid=78a0e235-0cde-473d-a1c4-1a3d90852a84"},"vehicle_type_id":"4","last_reported":1686514000,"current_range_meters":21600,"station_id":"","pricing_plan_id":"free"},{"bike_id":"f9eeff49-f17a-4155-b7fa-411650003821","system_id":"levelo_inurba_marseille","lat":43.308,"lon":5.43521,"is_reserved":false,"is_disabled":false,"rental_uris":{"android":"levelo://app?vid=f9eeff49-f17a-4155-b7fa-411650003821","ios":"levelo://app?vid=f9eeff49-f17a-4155-b7fa-411650003821"},"vehicle_type_id":"4","last_reported":1686514000,"current_range_meters":10000,"station_id":"","pricing_plan_id":"free"},{"bike_id":"acecd038-56ee-410d-881c-ffa02850a176","system_id":"levelo_inurba_marseille","lat":43.2734,"lon":5.40978,"is_reserved":false,"is_disabled":false,"rental_uris":{"android":"levelo://app?vid=acecd038-56ee-410d-881c-ffa02850a176","ios":"levelo://app?vid=acecd038-56ee-410d-881c-ffa02850a176"},"vehicle_type_id":"4","last_reported":1686514000,"current_range_meters":0,"station_id":"","pricing_plan_id":"free"},{"bike_id":"91d94c71-8533-4efc-a134-db40f05119ac","system_id":"levelo_inurba_marseille","lat":43.26234,"lon":5.37046,"is_reserved":false,"is_disabled":false,"rental_uris":{"android":"levelo://app?vid=91d94c71-8533-4efc-a134-db40f05119ac","ios":"levelo://app?vid=91d94c71-8533-4efc-a134-db40f05119ac"},"vehicle_type_id":"4","last_reported":1686514000,"current_range_meters":11600,"station_id":"","pricing_plan_id":"free"},{"bike_id":"470b7407-ed9e-494d-85bb-9442d843b79a","system_id":"levelo_inurba_marseille","lat":43.26191,"lon":5.3744,"is_reserved":false,"is_disabled":false,"rental_uris":{"android":"levelo://app?vid=470b7407-ed9e-494d-85bb-9442d843b79a","ios":"levelo://app?vid=470b7407-ed9e-494d-85bb-9442d843b79a"},"vehicle_type_id":"4","last_reported":1686514000,"current_range_meters":28000,"station_id":"ce4bhgp2rcd13ifvqfc0","pricing_plan_id":"free"},{"bike_id":"296085cf-41a1-4c05-9acc-0fe4e4294feb","system_id":"levelo_inurba_marseille","lat":43.261782,"lon":5.374515,"is_reserved":false,"is_disabled":false,"rental_uris":{"android":"levelo://app?vid=296085cf-41a1-4c05-9acc-0fe4e4294feb","ios":"levelo://app?vid=296085cf-41a1-4c05-9acc-0fe4e4294feb"},"vehicle_type_id":"4","last_reported":1686514000,"current_range_meters":14000,"station_id":"ce4bhgp2rcd13ifvqfc0","pricing_plan_id":"free"},{"bike_id":"2803fa7a-5bbd-46ae-8434-582344ee098f","system_id":"levelo_inurba_marseille","lat":43.261782,"lon":5.374515,"is_reserved":false,"is_disabled":false,"rental_uris":{"android":"levelo://app?vid=2803fa7a-5bbd-46ae-8434-582344ee098f","ios":"levelo://app?vid=2803fa7a-5bbd-46ae-8434-582344ee098f"},"vehicle_type_id":"4","last_reported":1686514000,"current_range_meters":25200,"station_id":"ce4bhgp2rcd13ifvqfc0","pricing_plan_id":"free"},{"bike_id":"025c652d-bbb7-4a53-9f16-ed1a6df4b4a6","system_id":"levelo_inurba_marseille","lat":43.33328,"lon":5.43135,"is_reserved":false,"is_disabled":false,"rental_uris":{"android":"levelo://app?vid=025c652d-bbb7-4a53-9f16-ed1a6df4b4a6","ios":"levelo://app?vid=025c652d-bbb7-4a53-9f16-ed1a6df4b4a6"},"vehicle_type_id":"4","last_reported":1686514000,"current_range_meters":16400,"station_id":"","pricing_plan_id":"free"},{"bike_id":"f1a3b8b2-b912-4596-9a82-f9b191d5ef45","system_id":"levelo_inurba_marseille","lat":43.317104,"lon":5.436818,"is_reserved":false,"is_disabled":false,"rental_uris":{"android":"levelo://app?vid=f1a3b8b2-b912-4596-9a82-f9b191d5ef45","ios":"levelo://app?vid=f1a3b8b2-b912-4596-9a82-f9b191d5ef45"},"vehicle_type_id":"4","last_reported":1686514000,"current_range_meters":29200,"station_id":"ce4bhp92rcd13ifvqhcg","pricing_plan_id":"free"},{"bike_id":"da194df1-8147-4b18-9d6c-99bc922c0acf","system_id":"levelo_inurba_marseille","lat":43.27188,"lon":5.40993,"is_reserved":false,"is_disabled":false,"rental_uris":{"android":"levelo://app?vid=da194df1-8147-4b18-9d6c-99bc922c0acf","ios":"levelo://app?vid=da194df1-8147-4b18-9d6c-99bc922c0acf"},