{"last_updated":1711433423,"ttl":30,"version":"2.2","data":{"bikes":[{"bike_id":"2fa0b8c4-d1cb-4a11-8c0e-4a29cbcede26","system_id":"levelo_inurba_marseille","lat":43.31341,"lon":5.367098,"is_reserved":false,"is_disabled":false,"rental_uris":{"android":"levelo://app?vid=2fa0b8c4-d1cb-4a11-8c0e-4a29cbcede26","ios":"levelo://app?vid=2fa0b8c4-d1cb-4a11-8c0e-4a29cbcede26"},"vehicle_type_id":"4","last_reported":1711433423,"current_range_meters":28000,"station_id":"ce4bgr92rcd13ifvqc6g","pricing_plan_id":"cebpf4jnsgd1na2vs0mg"},{"bike_id":"bdb61bb1-50b0-46c0-beb9-a3a3930ebd0a","system_id":"levelo_inurba_marseille","lat":43.313391,"lon":5.36706,"is_reserved":false,"is_disabled":false,"rental_uris":{"android":"levelo://app?vid=bdb61bb1-50b0-46c0-beb9-a3a3930ebd0a","ios":"levelo://app?vid=bdb61bb1-50b0-46c0-beb9-a3a3930ebd0a"},"vehicle_type_id":"4","last_reported":1711433423,"current_range_meters":21600,"station_id":"ce4bgr92rcd13ifvqc6g","pricing_plan_id":"cebpf4jnsgd1na2vs0mg"},{"bike_id":"c9e426dc-a5dc-4bcf-bcb3-3df94e7e6e52","system_id":"levelo_inurba_marseille","lat":43.31341,"lon":5.367098,"is_reserved":false,"is_disabled":false,"rental_uris":{"android":"levelo://app?vid=c9e426dc-a5dc-4bcf-bcb3-3df94e7e6e52","ios":"levelo://app?vid=c9e426dc-a5dc-4bcf-bcb3-3df94e7e6e52"},"vehicle_type_id":"4","last_reported":1711433423,"current_range_meters":24400,"station_id":"ce4bgr92rcd13ifvqc6g","pricing_plan_id":"cebpf4jnsgd1na2vs0mg"},{"bike_id":"6214468b-7142-491f-87bd-7df55f894ccf","system_id":"levelo_inurba_marseille","lat":43.313391,"lon":5.36706,"is_reserved":false,"is_disabled":false,"rental_uris":{"android":"levelo://app?vid=6214468b-7142-491f-87bd-7df55f894ccf","ios":"levelo://app?vid=6214468b-7142-491f-87bd-7df55f894ccf"},"vehicle_type_id":"4","last_reported":1711433423,"current_range_meters":31600,"station_id":"ce4bgr92rcd13ifvqc6g","pricing_plan_id":"cebpf4jnsgd1na2vs0mg"},{"bike_id":"5bbcdb90-717f-411b-a31f-cb96cceaf783","system_id":"levelo_inurba_marseille","lat":43.313391,"lon":5.36706,"is_reserved":false,"is_disabled":false,"rental_uris":{"android":"levelo://app?vid=5bbcdb90-717f-411b-a31f-cb96cceaf783","ios":"levelo://app?vid=5bbcdb90-717f-411b-a31f-cb96cceaf783"},"vehicle_type_id":"4","last_reported":1711433423,"current_range_meters":17600,"station_id":"ce4bgr92rcd13ifvqc6g","pricing_plan_id":"cebpf4jnsgd1na2vs0mg"},{"bike_id":"11f252c5-de7d-4c7c-952b-5c57ea1931e1","system_id":"levelo_inurba_marseille","lat":43.312239,"lon":5.368562,"is_reserved":false,"is_disabled":false,"rental_uris":{"android":"levelo://app?vid=11f252c5-de7d-4c7c-952b-5c57ea1931e1","ios":"levelo://app?vid=11f252c5-de7d-4c7c-952b-5c57ea1931e1"},"vehicle_type_id":"4","last_reported":1711433423,"current_range_meters":26400,"station_id":"ce4bgl92rcd13ifvqbq0","pricing_plan_id":"cebpf4jnsgd1na2vs0mg"},{"bike_id":"466e3f13-ac6e-44bf-bc1f-63cf360907f5","system_id":"levelo_inurba_marseille","lat":43.312239,"lon":5.368562,"is_reserved":false,"is_disabled":false,"rental_uris":{"android":"levelo://app?vid=466e3f13-ac6e-44bf-bc1f-63cf360907f5","ios":"levelo://app?vid=466e3f13-ac6e-44bf-bc1f-63cf360907f5"},"vehicle_type_id":"4","last_reported":1711433423,"current_range_meters":21200,"station_id":"ce4bgl92rcd13ifvqbq0","pricing_plan_id":"cebpf4jnsgd1na2vs0mg"},{"bike_id":"1cade04e-ff62-40fe-a913-7d253c3c4465","system_id":"levelo_inurba_marseille","lat":43.312239,"lon":5.368562,"is_reserved":false,"is_disabled":false,"rental_uris":{"android":"levelo://app?vid=1cade04e-ff62-40fe-a913-7d253c3c4465","ios":"levelo://app?vid=1cade04e-ff62-40fe-a913-7d253c3c4465"},"vehicle_type_id":"4","last_reported":1711433423,"current_range_meters":17600,"station_id":"ce4bgl92rcd13ifvqbq0","pricing_plan_id":"cebpf4jnsgd1na2vs0mg"},{"bike_id":"b5933ab8-72dd-4095-a115-548aa50410bd","system_id":"levelo_inurba_marseille","lat":43.312239,"lon":5.368562,"is_reserved":false,"is_disabled":false,"rental_uris":{"android":"levelo://app?vid=b5933ab8-72dd-4095-a115-548aa50410bd","ios":"levelo://app?vid=b5933ab8-72dd-4095-a115-548aa50410bd"},"vehicle_type_id":"4","last_reported":1711433423,"current_range_meters":24800,"station_id":"ce4bgl92rcd13ifvqbq0","pricing_plan_id":"cebpf4jnsgd1na2vs0mg"},{"bike_id":"ced9b809-2146-4ed1-8143-f5f31f2299e5","system_id":"levelo_inurba_marseille","lat":43.308939,"lon":5.371879,"is_reserved":false,"is_disabled":false,"rental_uris":{"android":"levelo://app?vid=ced9b809-2146-4ed1-8143-f5f31f2299e5","ios":"levelo://app?vid=ced9b809-2146-4ed1-8143-f5f31f2299e5"},"vehicle_type_id":"4","last_reported":1711433423,"current_range_meters":19600,"station_id":"ce4bguh2rcd13ifvqckg","pricing_plan_id":"cebpf4jnsgd1na2vs0mg"},{"bike_id":"3672d290-b867-417a-9fef-1e6cc79107f7","system_id":"levelo_inurba_marseille","lat":43.308933,"lon":5.371893,"is_reserved":false,"is_disabled":false,"rental_uris":{"android":"levelo://app?vid=3672d290-b867-417a-9fef-1e6cc79107f7","ios":"levelo://app?vid=3672d290-b867-417a-9fef-1e6cc79107f7"},"vehicle_type_id":"4","last_reported":1711433423,"current_range_meters":17600,"station_id":"ce4bguh2rcd13ifvqckg","pricing_plan_id":"cebpf4jnsgd1na2vs0mg"},{"bike_id":"194e6ce4-dfd4-4ef7-a008-4d29d10c490a","system_id":"levelo_inurba_marseille","lat":43.308888,"lon":5.371903,"is_reserved":false,"is_disabled":false,"rental_uris":{"android":"levelo://app?vid=194e6ce4-dfd4-4ef7-a008-4d29d10c490a","ios":"levelo://app?vid=194e6ce4-dfd4-4ef7-a008-4d29d10c490a"},"vehicle_type_id":"4","last_reported":1711433423,"current_range_meters":15200,"station_id":"ce4bguh2rcd13ifvqckg","pricing_plan_id":"cebpf4jnsgd1na2vs0mg"},{"bike_id":"440668d0-5cd8-46d0-9743-9543bc9e2b15","system_id":"levelo_inurba_marseille","lat":43.309039,"lon":5.371797,"is_reserved":false,"is_disabled":false,"rental_uris":{"android":"levelo://app?vid=440668d0-5cd8-46d0-9743-9543bc9e2b15","ios":"levelo://app?vid=440668d0-5cd8-46d0-9743-9543bc9e2b15"},"vehicle_type_id":"4","last_reported":1711433423,"current_range_meters":26800,"station_id":"ce4bguh2rcd13ifvqckg","pricing_plan_id":"cebpf4jnsgd1na2vs0mg"},{"bike_id":"650fa614-f6f6-4937-a414-ec92c04fffd3","system_id":"levelo_inurba_marseille","lat":43.309034,"lon":5.371783,"is_reserved":false,"is_disabled":false,"rental_uris":{"android":"levelo://app?vid=650fa614-f6f6-4937-a414-ec92c04fffd3","ios":"levelo://app?vid=650fa614-f6f6-4937-a414-ec92c04fffd3"},"vehicle_type_id":"4","last_reported":1711433423,"current_range_meters":24800,"station_id":"ce4bguh2rcd13ifvqckg","pricing_plan_id":"cebpf4jnsgd1na2vs0mg"},{"bike_id":"475d6770-dbfc-4fee-ac2d-3dfd245ca69d","system_id":"levelo_inurba_marseille","lat":43.305368,"lon":5.367343,"is_reserved":false,"is_disabled":false,"rental_uris":{"android":"levelo://app?vid=475d6770-dbfc-4fee-ac2d-3dfd245ca69d","ios":"levelo://app?vid=475d6770-dbfc-4fee-ac2d-3dfd245ca69d"},"vehicle_type_id":"4","last_reported":1711433423,"current_range_meters":19200,"station_id":"ce4bgrp2rcd13ifvqc9g","pricing_plan_id":"cebpf4jnsgd1na2vs0mg"},{"bike_id":"74914596-ce2a-43a8-9c5f-0c2756c96ff2","system_id":"levelo_inurba_marseille","lat":43.305368,"lon":5.367343,"is_reserved":false,"is_disabled":false,"rental_uris":{"android":"levelo://app?vid=74914596-ce2a-43a8-9c5f-0c2756c96ff2","ios":"levelo://app?vid=74914596-ce2a-43a8-9c5f-0c2756c96ff2"},"vehicle_type_id":"4","last_reported":1711433423,"current_range_meters":23600,"station_id":"ce4bgrp2rcd13ifvqc9g","pricing_plan_id":"cebpf4jnsgd1na2vs0mg"},{"bike_id":"749542e2-a5ec-4fbf-90e9-ff7ce017480b","system_id":"levelo_inurba_marseille","lat":43.305706,"lon":5.365654,"is_reserved":false,"is_disabled":false,"rental_uris":{"android":"levelo://app?vid=749542e2-a5ec-4fbf-90e9-ff7ce017480b","ios":"levelo://app?vid=749542e2-a5ec-4fbf-90e9-ff7ce017480b"},"vehicle_type_id":"4","last_reported":1711433423,"current_range_meters":30000,"station_id":"ce4bgs12rcd13ifvqcag","pricing_plan_id":"cebpf4jnsgd1na2vs0mg"},{"bike_id":"5e3433b5-d3c4-43f2-8051-3a2d6586b8fb","system_id":"levelo_inurba_marseille","lat":43.30528,"lon":5.36703,"is_reserved":false,"is_disabled":false,"rental_uris":{"android":"levelo://app?vid=5e3433b5-d3c4-43f2-8051-3a2d6586b8fb","ios":"levelo://app?vid=5e3433b5-d3c4-43f2-8051-3a2d6586b8fb"},"vehicle_type_id":"4","last_reported":1711433423,"current_range_meters":800,"station_id":"ce4bgrp2rcd13ifvqc9g","pricing_plan_id":"cebpf4jnsgd1na2vs0mg"},{"bike_id":"62838acc-081e-40dc-8f14-3000695c959b","system_id":"levelo_inurba_marseille","lat":43.305714,"lon":5.365633,"is_reserved":false,"is_disabled":false,"rental_uris":{"android":"levelo://app?vid=62838acc-081e-40dc-8f14-3000695c959b","ios":"levelo://app?vid=62838acc-081e-40dc-8f14-3000695c959b"},"vehicle_type_id":"4","last_reported":1711433423,"current_range_meters":22400,"station_id":"ce4bgs12rcd13ifvqcag","pricing_plan_id":"cebpf4jnsgd1na2vs0mg"},{"bike_id":"d98e9cfd-e809-4553-97ed-34657ff327ba","system_id":"levelo_inurba_marseille","lat":43.305989,"lon":5.37225,"is_reserved":false,"is_disabled":false,"rental_uris":{"android":"levelo://app?vid=d98e9cfd-e809-4553-97ed-34657ff327ba","ios":"levelo://app?vid=d98e9cfd-e809-4553-97ed-34657ff327ba"},"vehicle_type_id":"4","last_reported":1711433423,"current_range_meters":1200,"station_id":"ce4bgqh2rcd13ifvqc4g","pricing_plan_id":"cebpf4jnsgd1na2vs0mg"},{"bike_id":"c0b36778-c8a0-4a22-a2a6-887f798b69dd","system_id":"levelo_inurba_marseille","lat":43.305989,"lon":5.37225,"is_reserved":false,"is_disabled":false,"rental_uris":{"android":"levelo://app?vid=c0b36778-c8a0-4a22-a2a6-887f798b69dd","ios":"levelo://app?vid=c0b36778-c8a0-4a22-a2a6-887f798b69dd"},"vehicle_type_id":"4","last_reported":1711433423,"current_range_meters":30800,"station_id":"ce4bgqh2rcd13ifvqc4g","pricing_plan_id":"cebpf4jnsgd1na2vs0mg"},{"bike_id":"1c579e35-0013-4792-8ca2-52d7bfcc4321","system_id":"levelo_inurba_marseille","lat":43.311125,"lon":5.377624,"is_reserved":false,"is_disabled":false,"rental_uris":{"android":"levelo://app?vid=1c579e35-0013-4792-8ca2-52d7bfcc4321","ios":"levelo://app?vid=1c579e35-0013-4792-8ca2-52d7bfcc4321"},"vehicle_type_id":"4","last_reported":1711433423,"current_range_meters":24800,"station_id":"ce4bgt92rcd13ifvqcg0","pricing_plan_id":"cebpf4jnsgd1na2vs0mg"},{"bike_id":"3d305cf6-ee62-4194-80e7-b323e4b7780c","system_id":"levelo_inurba_marseille","lat":43.311131,"lon":5.377651,"is_reserved":false,"is_disabled":false,"rental_uris":{"android":"levelo://app?vid=3d305cf6-ee62-4194-80e7-b323e4b7780c","ios":"levelo://app?vid=3d305cf6-ee62-4194-80e7-b323e4b7780c"},"vehicle_type_id":"4","last_reported":1711433423,"current_range_meters":15200,"station_id":"ce4bgt92rcd13ifvqcg0","pricing_plan_id":"cebpf4jnsgd1na2vs0mg"},{"bike_id":"e3aef39a-3742-4c3c-9bad-b07400fe47d0","system_id":"levelo_inurba_marseille","lat":43.311125,"lon":5.377624,"is_reserved":false,"is_disabled":false,"rental_uris":{"android":"levelo://app?vid=e3aef39a-3742-4c3c-9bad-b07400fe47d0","ios":"levelo://app?vid=e3aef39a-3742-4c3c-9bad-b07400fe47d0"},"vehicle_type_id":"4","last_reported":1711433423,"current_range_meters":23600,"station_id":"ce4bgt92rcd13ifvqcg0","pricing_plan_id":"cebpf4jnsgd1na2vs0mg"},{"bike_id":"adb09b67-c72b-465f-970a-91f35676e756","system_id":"levelo_inurba_marseille","lat":43.311131,"lon":5.377651,"is_reserved":false,"is_disabled":false,"rental_uris":{"android":"levelo://app?vid=adb09b67-c72b-465f-970a-91f35676e756","ios":"levelo://app?vid=adb09b67-c72b-465f-970a-91f35676e756"},"vehicle_type_id":"4","last_reported":1711433423,"current_range_meters":12800,"station_id":"ce4bgt92rcd13ifvqcg0","pricing_plan_id":"cebpf4jnsgd1na2vs0mg"},{"bike_id":"28ece2a2-88bf-444a-9fb4-3b72716da3fc","system_id":"levelo_inurba_marseille","lat":43.311131,"lon":5.377651,"is_reserved":false,"is_disabled":false,"rental_uris":{"android":"levelo://app?vid=28ece2a2-88bf-444a-9fb4-3b72716da3fc","ios":"levelo://app?vid=28ece2a2-88bf-444a-9fb4-3b72716da3fc"},"vehicle_type_id":"4","last_reported":1711433423,"current_range_meters":6400,"station_id":"ce4bgt92rcd13ifvqcg0","pricing_plan_id":"cebpf4jnsgd1na2vs0mg"},{"bike_id":"3e99fa2a-e806-4f0e-a9b4-b73a6a945a1b","system_id":"levelo_inurba_marseille","lat":43.311131,"lon":5.377651,"is_reserved":false,"is_disabled":false,"rental_uris":{"android":"levelo://app?vid=3e99fa2a-e806-4f0e-a9b4-b73a6a945a1b","ios":"levelo://app?vid=3e99fa2a-e806-4f0e-a9b4-b73a6a945a1b"},"vehicle_type_id":"4","last_reported":1711433423,"current_range_meters":2800,"station_id":"ce4bgt92rcd13ifvqcg0","pricing_plan_id":"cebpf4jnsgd1na2vs0mg"},{"bike_id":"2dcc38a2-fed9-4260-ad30-59d5730321df","system_id":"levelo_inurba_marseille","lat":43.311131,"lon":5.377651,"is_reserved":false,"is_disabled":false,"rental_uris":{"android":"levelo://app?vid=2dcc38a2-fed9-4260-ad30-59d5730321df","ios":"levelo://app?vid=2dcc38a2-fed9-4260-ad30-59d5730321df"},"vehicle_type_id":"4","last_reported":1711433423,"current_range_meters":10400,"station_id":"ce4bgt92rcd13ifvqcg0","pricing_plan_id":"cebpf4jnsgd1na2vs0mg"},{"bike_id":"526a7d9b-1340-47ea-94ab-a632aa411ae9","system_id":"levelo_inurba_marseille","lat":43.311125,"lon":5.377624,"is_reserved":false,"is_disabled":false,"rental_uris":{"android":"levelo://app?vid=526a7d9b-1340-47ea-94ab-a632aa411ae9","ios":"levelo://app?vid=526a7d9b-1340-47ea-94ab-a632aa411ae9"},"vehicle_type_id":"4","last_reported":1711433423,"current_range_meters":22000,"station_id":"ce4bgt92rcd13ifvqcg0","pricing_plan_id":"cebpf4jnsgd1na2vs0mg"},{"bike_id":"b21c1738-deae-483d-a07e-ed8b7ed470aa","system_id":"levelo_inurba_marseille","lat":43.311125,"lon":5.377624,"is_reserved":false,"is_disabled":false,"rental_uris":{"android":"levelo://app?vid=b21c1738-deae-483d-a07e-ed8b7ed470aa","ios":"levelo://app?vid=b21c1738-deae-483d-a07e-ed8b7ed470aa"},"vehicle_type_id":"4","last_reported":1711433423,"current_range_meters":28000,"station_id":"ce4bgt92rcd13ifvqcg0","pricing_plan_id":"cebpf4jnsgd1na2vs0mg"},{"bike_id":"3a72b81f-e7dd-44ff-8375-a22e31862c7a","system_id":"levelo_inurba_marseille","lat":43.307945,"lon":5.376487,"is_reserved":false,"is_disabled":false,"rental_uris":{"android":"levelo://app?vid=3a72b81f-e7dd-44ff-8375-a22e31862c7a","ios":"levelo://app?vid=3a72b81f-e7dd-44ff-8375-a22e31862c7a"},"vehicle_type_id":"4","last_reported":1711433423,"current_range_meters":26800,"station_id":"ce4bgv92rcd13ifvqcq0","pricing_plan_id":"cebpf4jnsgd1na2vs0mg"},{"bike_id":"07998814-84a2-4311-a30b-eb2c4477a0f2","system_id":"levelo_inurba_marseille","lat":43.307945,"lon":5.376487,"is_reserved":false,"is_disabled":false,"rental_uris":{"android":"levelo://app?vid=07998814-84a2-4311-a30b-eb2c4477a0f2","ios":"levelo://app?vid=07998814-84a2-4311-a30b-eb2c4477a0f2"},"vehicle_type_id":"4","last_reported":1711433423,"current_range_meters":26800,"station_id":"ce4bgv92rcd13ifvqcq0","pricing_plan_id":"cebpf4jnsgd1na2vs0mg"},{"bike_id":"77cecf43-d166-41a8-9e77-867046f890b0","system_id":"levelo_inurba_marseille","lat":43.307945,"lon":5.376487,"is_reserved":false,"is_disabled":false,"rental_uris":{"android":"levelo://app?vid=77cecf43-d166-41a8-9e77-867046f890b0","ios":"levelo://app?vid=77cecf43-d166-41a8-9e77-867046f890b0"},"vehicle_type_id":"4","last_reported":1711433423,"current_range_meters":5200,"station_id":"ce4bgv92rcd13ifvqcq0","pricing_plan_id":"cebpf4jnsgd1na2vs0mg"},{"bike_id":"18d57fa9-5db9-46e1-821e-6e91b1354a1a","system_id":"levelo_inurba_marseille","lat":43.307945,"lon":5.376487,"is_reserved":false,"is_disabled":false,"rental_uris":{"android":"levelo://app?vid=18d57fa9-5db9-46e1-821e-6e91b1354a1a","ios":"levelo://app?vid=18d57fa9-5db9-46e1-821e-6e91b1354a1a"},"vehicle_type_id":"4","last_reported":1711433423,"current_range_meters":13600,"station_id":"ce4bgv92rcd13ifvqcq0","pricing_plan_id":"cebpf4jnsgd1na2vs0mg"},{"bike_id":"fa12fedc-c150-4959-8172-462b429a0446","system_id":"levelo_inurba_marseille","lat":43.317075,"lon":5.377367,"is_reserved":false,"is_disabled":false,"rental_uris":{"android":"levelo://app?vid=fa12fedc-c150-4959-8172-462b429a0446","ios":"levelo://app?vid=fa12fedc-c150-4959-8172-462b429a0446"},"vehicle_type_id":"4","last_reported":1711433423,"current_range_meters":11600,"station_id":"ce4bgth2rcd13ifvqch0","pricing_plan_id":"cebpf4jnsgd1na2vs0mg"},{"bike_id":"fb2cc470-409c-4d78-aeb7-3a145b7b2b0b","system_id":"levelo_inurba_marseille","lat":43.317075,"lon":5.377367,"is_reserved":false,"is_disabled":false,"rental_uris":{"android":"levelo://app?vid=fb2cc470-409c-4d78-aeb7-3a145b7b2b0b","ios":"levelo://app?vid=fb2cc470-409c-4d78-aeb7-3a145b7b2b0b"},"vehicle_type_id":"4","last_reported":1711433423,"current_range_meters":7200,"station_id":"ce4bgth2rcd13ifvqch0","pricing_plan_id":"cebpf4jnsgd1na2vs0mg"},{"bike_id":"4a5ff661-a19f-42ad-877d-ad3bfbc28fe9","system_id":"levelo_inurba_marseille","lat":43.317075,"lon":5.377367,"is_reserved":false,"is_disabled":false,"rental_uris":{"android":"levelo://app?vid=4a5ff661-a19f-42ad-877d-ad3bfbc28fe9","ios":"levelo://app?vid=4a5ff661-a19f-42ad-877d-ad3bfbc28fe9"},"vehicle_type_id":"4","last_reported":1711433423,"current_range_meters":6400,"station_id":"ce4bgth2rcd13ifvqch0","pricing_plan_id":"cebpf4jnsgd1na2vs0mg"},{"bike_id":"d786829b-5310-4a29-91e8-f1ec5b58b820","system_id":"levelo_inurba_marseille","lat":43.317075,"lon":5.377367,"is_reserved":false,"is_disabled":false,"rental_uris":{"android":"levelo://app?vid=d786829b-5310-4a29-91e8-f1ec5b58b820","ios":"levelo://app?vid=d786829b-5310-4a29-91e8-f1ec5b58b820"},"vehicle_type_id":"4","last_reported":1711433423,"current_range_meters":31600,"station_id":"ce4bgth2rcd13ifvqch0","pricing_plan_id":"cebpf4jnsgd1na2vs0mg"},{"bike_id":"939b6bf5-1fce-4acd-bd94-4a1c05f12092","system_id":"levelo_inurba_marseille","lat":43.317075,"lon":5.377505,"is_reserved":false,"is_disabled":false,"rental_uris":{"android":"levelo://app?vid=939b6bf5-1fce-4acd-bd94-4a1c05f12092","ios":"levelo://app?vid=939b6bf5-1fce-4acd-bd94-4a1c05f12092"},"vehicle_type_id":"4","last_reported":1711433423,"current_range_meters":5600,"station_id":"ce4bgth2rcd13ifvqch0","pricing_plan_id":"cebpf4jnsgd1na2vs0mg"},{"bike_id":"d2073c47-2589-4717-856d-e95a22e82f22","system_id":"levelo_inurba_marseille","lat":43.30304,"lon":5.368987,"is_reserved":false,"is_disabled":false,"rental_uris":{"android":"levelo://app?vid=d2073c47-2589-4717-856d-e95a22e82f22","ios":"levelo://app?vid=d2073c47-2589-4717-856d-e95a22e82f22"},"vehicle_type_id":"4","last_reported":1711433423,"current_range_meters":22800,"station_id":"ce4bgqh2rcd13ifvqc5g","pricing_plan_id":"cebpf4jnsgd1na2vs0mg"},{"bike_id":"7526b5bd-7103-44e0-91cc-ab5a7745e752","system_id":"levelo_inurba_marseille","lat":43.303046,"lon":5.368981,"is_reserved":false,"is_disabled":false,"rental_uris":{"android":"levelo://app?vid=7526b5bd-7103-44e0-91cc-ab5a7745e752","ios":"levelo://app?vid=7526b5bd-7103-44e0-91cc-ab5a7745e752"},"vehicle_type_id":"4","last_reported":1711433423,"current_range_meters":2400,"station_id":"ce4bgqh2rcd13ifvqc5g","pricing_plan_id":"cebpf4jnsgd1na2vs0mg"},{"bike_id":"90e2b910-b521-40ff-9d18-77d7ab766fae","system_id":"levelo_inurba_marseille","lat":43.30304,"lon":5.368987,"is_reserved":false,"is_disabled":false,"rental_uris":{"android":"levelo://app?vid=90e2b910-b521-40ff-9d18-77d7ab766fae","ios":"levelo://app?vid=90e2b910-b521-40ff-9d18-77d7ab766fae"},"vehicle_type_id":"4","last_reported":1711433423,"current_range_meters":18800,"station_id":"ce4bgqh2rcd13ifvqc5g","pricing_plan_id":"cebpf4jnsgd1na2vs0mg"},{"bike_id":"c65f7ee2-5e3a-491a-896e-a3ba8058f6db","system_id":"levelo_inurba_marseille","lat":43.30304,"lon":5.368987,"is_reserved":false,"is_disabled":false,"rental_uris":{"android":"levelo://app?vid=c65f7ee2-5e3a-491a-896e-a3ba8058f6db","ios":"levelo://app?vid=c65f7ee2-5e3a-491a-896e-a3ba8058f6db"},"vehicle_type_id":"4","last_reported":1711433423,"current_range_meters":4400,"station_id":"ce4bgqh2rcd13ifvqc5g","pricing_plan_id":"cebpf4jnsgd1na2vs0mg"},{"bike_id":"ac99bd84-6c08-4261-80b5-1fd219569640","system_id":"levelo_inurba_marseille","lat":43.303046,"lon":5.368981,"is_reserved":false,"is_disabled":false,"rental_uris":{"android":"levelo://app?vid=ac99bd84-6c08-4261-80b5-1fd219569640","ios":"levelo://app?vid=ac99bd84-6c08-4261-80b5-1fd219569640"},"vehicle_type_id":"4","last_reported":1711433423,"current_range_meters":23600,"station_id":"ce4bgqh2rcd13ifvqc5g","pricing_plan_id":"cebpf4jnsgd1na2vs0mg"},{"bike_id":"fc2b475c-7fdd-4e3d-a5f0-7b06a3e37fd6","system_id":"levelo_inurba_marseille","lat":43.30304,"lon":5.368987,"is_reserved":false,"is_disabled":false,"rental_uris":{"android":"levelo://app?vid=fc2b475c-7fdd-4e3d-a5f0-7b06a3e37fd6","ios":"levelo://app?vid=fc2b475c-7fdd-4e3d-a5f0-7b06a3e37fd6"},"vehicle_type_id":"4","last_reported":1711433423,"current_range_meters":1200,"station_id":"ce4bgqh2rcd13ifvqc5g","pricing_plan_id":"cebpf4jnsgd1na2vs0mg"},{"bike_id":"7d20f22e-21f9-45d5-9611-98f24ba7ec26","system_id":"levelo_inurba_marseille","lat":43.315343,"lon":5.380297,"is_reserved":false,"is_disabled":false,"rental_uris":{"android":"levelo://app?vid=7d20f22e-21f9-45d5-9611-98f24ba7ec26","ios":"levelo://app?vid=7d20f22e-21f9-45d5-9611-98f24ba7ec26"},"vehicle_type_id":"4","last_reported":1711433423,"current_range_meters":27600,"station_id":"ce4bhsp2rcd13ifvqi50","pricing_plan_id":"cebpf4jnsgd1na2vs0mg"},{"bike_id":"1e170cde-a6d8-4bb7-b1b1-5d03db5a4998","system_id":"levelo_inurba_marseille","lat":43.301939,"lon":5.366286,"is_reserved":false,"is_disabled":false,"rental_uris":{"android":"levelo://app?vid=1e170cde-a6d8-4bb7-b1b1-5d03db5a4998","ios":"levelo://app?vid=1e170cde-a6d8-4bb7-b1b1-5d03db5a4998"},"vehicle_type_id":"4","last_reported":1711433423,"current_range_meters":10800,"station_id":"ce4bgrh2rcd13ifvqc8g","pricing_plan_id":"cebpf4jnsgd1na2vs0mg"},{"bike_id":"4cfa80d3-80af-43c0-b968-7355874d8159","system_id":"levelo_inurba_marseille","lat":43.301939,"lon":5.366286,"is_reserved":false,"is_disabled":false,"rental_uris":{"android":"levelo://app?vid=4cfa80d3-80af-43c0-b968-7355874d8159","ios":"levelo://app?vid=4cfa80d3-80af-43c0-b968-7355874d8159"},"vehicle_type_id":"4","last_reported":1711433423,"current_range_meters":23600,"station_id":"ce4bgrh2rcd13ifvqc8g","pricing_plan_id":"cebpf4jnsgd1na2vs0mg"},{"bike_id":"618528e9-9e5f-405c-94ed-b83683a3e3dd","system_id":"levelo_inurba_marseille","lat":43.301939,"lon":5.366286,"is_reserved":false,"is_disabled":false,"rental_uris":{"android":"levelo://app?vid=618528e9-9e5f-405c-94ed-b83683a3e3dd","ios":"levelo://app?vid=618528e9-9e5f-405c-94ed-b83683a3e3dd"},"vehicle_type_id":"4","last_reported":1711433423,"current_range_meters":18000,"station_id":"ce4bgrh2rcd13ifvqc8g","pricing_plan_id":"cebpf4jnsgd1na2vs0mg"},{"bike_id":"a64bfef1-9278-47c4-af81-2fcd4957ecf7","system_id":"levelo_inurba_marseille","lat":43.301939,"lon":5.366286,"is_reserved":false,"is_disabled":false,"rental_uris":{"android":"levelo://app?vid=a64bfef1-9278-47c4-af81-2fcd4957ecf7","ios":"levelo://app?vid=a64bfef1-9278-47c4-af81-2fcd4957ecf7"},"vehicle_type_id":"4","last_reported":1711433423,"current_range_meters":16000,"station_id":"ce4bgrh2rcd13ifvqc8g","pricing_plan_id":"cebpf4jnsgd1na2vs0mg"},{"bike_id":"aa5b0390-5d05-4819-bc6b-6552633e7bed","system_id":"levelo_inurba_marseille","lat":43.308012,"lon":5.381511,"is_reserved":false,"is_disabled":false,"rental_uris":{"android":"levelo://app?vid=aa5b0390-5d05-4819-bc6b-6552633e7bed","ios":"levelo://app?vid=aa5b0390-5d05-4819-bc6b-6552633e7bed"},"vehicle_type_id":"4","last_reported":1711433423,"current_range_meters":21200,"station_id":"ce4bgt12rcd13ifvqce0","pricing_plan_id":"cebpf4jnsgd1na2vs0mg"},{"bike_id":"68bcaff6-c169-448d-82e9-b5405e03ddca","system_id":"levelo_inurba_marseille","lat":43.308012,"lon":5.381511,"is_reserved":false,"is_disabled":false,"rental_uris":{"android":"levelo://app?vid=68bcaff6-c169-448d-82e9-b5405e03ddca","ios":"levelo://app?vid=68bcaff6-c169-448d-82e9-b5405e03ddca"},"vehicle_type_id":"4","last_reported":1711433423,"current_range_meters":22800,"station_id":"ce4bgt12rcd13ifvqce0","pricing_plan_id":"cebpf4jnsgd1na2vs0mg"},{"bike_id":"80c6f191-10d7-4c83-a32d-bad330f836d6","system_id":"levelo_inurba_marseille","lat":43.308012,"lon":5.381511,"is_reserved":false,"is_disabled":false,"rental_uris":{"android":"levelo://app?vid=80c6f191-10d7-4c83-a32d-bad330f836d6","ios":"levelo://app?vid=80c6f191-10d7-4c83-a32d-bad330f836d6"},"vehicle_type_id":"4","last_reported":1711433423,"current_range_meters":15600,"station_id":"ce4bgt12rcd13ifvqce0","pricing_plan_id":"cebpf4jnsgd1na2vs0mg"},{"bike_id":"bb7447ee-9f19-4b84-bc68-c9a31907a312","system_id":"levelo_inurba_marseille","lat":43.308012,"lon":5.381511,"is_reserved":false,"is_disabled":false,"rental_uris":{"android":"levelo://app?vid=bb7447ee-9f19-4b84-bc68-c9a31907a312","ios":"levelo://app?vid=bb7447ee-9f19-4b84-bc68-c9a31907a312"},"vehicle_type_id":"4","last_reported":1711433423,"current_range_meters":7600,"station_id":"ce4bgt12rcd13ifvqce0","pricing_plan_id":"cebpf4jnsgd1na2vs0mg"},{"bike_id":"c80bf600-49eb-412a-9bd3-755835131af1","system_id":"levelo_inurba_marseille","lat":43.308012,"lon":5.381511,"is_reserved":false,"is_disabled":false,"rental_uris":{"android":"levelo://app?vid=c80bf600-49eb-412a-9bd3-755835131af1","ios":"levelo://app?vid=c80bf600-49eb-412a-9bd3-755835131af1"},"vehicle_type_id":"4","last_reported":1711433423,"current_range_meters":16400,"station_id":"ce4bgt12rcd13ifvqce0","pricing_plan_id":"cebpf4jnsgd1na2vs0mg"},{"bike_id":"07b05e7e-b240-49b2-aa30-ec278519be68","system_id":"levelo_inurba_marseille","lat":43.308012,"lon":5.381511,"is_reserved":false,"is_disabled":false,"rental_uris":{"android":"levelo://app?vid=07b05e7e-b240-49b2-aa30-ec278519be68","ios":"levelo://app?vid=07b05e7e-b240-49b2-aa30-ec278519be68"},"vehicle_type_id":"4","last_reported":1711433423,"current_range_meters":30400,"station_id":"ce4bgt12rcd13ifvqce0","pricing_plan_id":"cebpf4jnsgd1na2vs0mg"},{"bike_id":"830e11aa-ede8-44e9-bd32-fe5b0a0dff29","system_id":"levelo_inurba_marseille","lat":43.308012,"lon":5.381511,"is_reserved":false,"is_disabled":false,"rental_uris":{"android":"levelo://app?vid=830e11aa-ede8-44e9-bd32-fe5b0a0dff29","ios":"levelo://app?vid=830e11aa-ede8-44e9-bd32-fe5b0a0dff29"},"vehicle_type_id":"4","last_reported":1711433423,"current_range_meters":24400,"station_id":"ce4bgt12rcd13ifvqce0","pricing_plan_id":"cebpf4jnsgd1na2vs0mg"},{"bike_id":"12be5ff7-81c8-4883-b903-f46e1f342699","system_id":"levelo_inurba_marseille","lat":43.308012,"lon":5.381511,"is_reserved":false,"is_disabled":false,"rental_uris":{"android":"levelo://app?vid=12be5ff7-81c8-4883-b903-f46e1f342699","ios":"levelo://app?vid=12be5ff7-81c8-4883-b903-f46e1f342699"},"vehicle_type_id":"4","last_reported":1711433423,"current_range_meters":20000,"station_id":"ce4bgt12rcd13ifvqce0","pricing_plan_id":"cebpf4jnsgd1na2vs0mg"},{"bike_id":"a9c0c247-b46c-4f0a-8013-b710c17e7785","system_id":"levelo_inurba_marseille","lat":43.308012,"lon":5.381511,"is_reserved":false,"is_disabled":false,"rental_uris":{"android":"levelo://app?vid=a9c0c247-b46c-4f0a-8013-b710c17e7785","ios":"levelo://app?vid=a9c0c247-b46c-4f0a-8013-b710c17e7785"},"vehicle_type_id":"4","last_reported":1711433423,"current_range_meters":30000,"station_id":"ce4bgt12rcd13ifvqce0","pricing_plan_id":"cebpf4jnsgd1na2vs0mg"},{"bike_id":"5e693aa7-d1c0-408e-a6c7-00d944c7d643","system_id":"levelo_inurba_marseille","lat":43.308012,"lon":5.381511,"is_reserved":false,"is_disabled":false,"rental_uris":{"android":"levelo://app?vid=5e693aa7-d1c0-408e-a6c7-00d944c7d643","ios":"levelo://app?vid=5e693aa7-d1c0-408e-a6c7-00d944c7d643"},"vehicle_type_id":"4","last_reported":1711433423,"current_range_meters":11200,"station_id":"ce4bgt12rcd13ifvqce0","pricing_plan_id":"cebpf4jnsgd1na2vs0mg"},{"bike_id":"929e7190-e528-4b05-b5a5-52523813a07e","system_id":"levelo_inurba_marseille","lat":43.317121,"lon":5.423936,"is_reserved":false,"is_disabled":false,"rental_uris":{"android":"levelo://app?vid=929e7190-e528-4b05-b5a5-52523813a07e","ios":"levelo://app?vid=929e7190-e528-4b05-b5a5-52523813a07e"},"vehicle_type_id":"4","last_reported":1711433423,"current_range_meters":27200,"station_id":"ce4bhp92rcd13ifvqhbg","pricing_plan_id":"cebpf4jnsgd1na2vs0mg"},{"bike_id":"0964b34e-6c70-40e8-9aa5-77bb6b27f6b6","system_id":"levelo_inurba_marseille","lat":43.308012,"lon":5.381511,"is_reserved":false,"is_disabled":false,"rental_uris":{"android":"levelo://app?vid=0964b34e-6c70-40e8-9aa5-77bb6b27f6b6","ios":"levelo://app?vid=0964b34e-6c70-40e8-9aa5-77bb6b27f6b6"},"vehicle_type_id":"4","last_reported":1711433423,"current_range_meters":31200,"station_id":"ce4bgt12rcd13ifvqce0","pricing_plan_id":"cebpf4jnsgd1na2vs0mg"},{"bike_id":"e95f7f7c-892f-43f0-875c-813ac82589ff","system_id":"levelo_inurba_marseille","lat":43.308012,"lon":5.381511,"is_reserved":false,"is_disabled":false,"rental_uris":{"android":"levelo://app?vid=e95f7f7c-892f-43f0-875c-813ac82589ff","ios":"levelo://app?vid=e95f7f7c-892f-43f0-875c-813ac82589ff"},"vehicle_type_id":"4","last_reported":1711433423,"current_range_meters":22000,"station_id":"ce4bgt12rcd13ifvqce0","pricing_plan_id":"cebpf4jnsgd1na2vs0mg"},{"bike_id":"912b6ed1-c8fa-4733-a226-f6164912d212","system_id":"levelo_inurba_marseille","lat":43.308012,"lon":5.381511,"is_reserved":false,"is_disabled":false,"rental_uris":{"android":"levelo://app?vid=912b6ed1-c8fa-4733-a226-f6164912d212","ios":"levelo://app?vid=912b6ed1-c8fa-4733-a226-f6164912d212"},"vehicle_type_id":"4","last_reported":1711433423,"current_range_meters":17600,"station_id":"ce4bgt12rcd13ifvqce0","pricing_plan_id":"cebpf4jnsgd1na2vs0mg"},{"bike_id":"395764ca-d958-4280-89e0-d671127fcd0d","system_id":"levelo_inurba_marseille","lat":43.304606,"lon":5.379026,"is_reserved":false,"is_disabled":false,"rental_uris":{"android":"levelo://app?vid=395764ca-d958-4280-89e0-d671127fcd0d","ios":"levelo://app?vid=395764ca-d958-4280-89e0-d671127fcd0d"},"vehicle_type_id":"4","last_reported":1711433423,"current_range_meters":20000,"station_id":"ce4bgup2rcd13ifvqcn0","pricing_plan_id":"cebpf4jnsgd1na2vs0mg"},{"bike_id":"fed9e25a-9608-43f1-92e2-beec3051420a","system_id":"levelo_inurba_marseille","lat":43.304606,"lon":5.379026,"is_reserved":false,"is_disabled":false,"rental_uris":{"android":"levelo://app?vid=fed9e25a-9608-43f1-92e2-beec3051420a","ios":"levelo://app?vid=fed9e25a-9608-43f1-92e2-beec3051420a"},"vehicle_type_id":"4","last_reported":1711433423,"current_range_meters":20000,"station_id":"ce4bgup2rcd13ifvqcn0","pricing_plan_id":"cebpf4jnsgd1na2vs0mg"},{"bike_id":"855dd084-9c42-4052-9dc0-c4669bb3dca6","system_id":"levelo_inurba_marseille","lat":43.304606,"lon":5.379026,"is_reserved":false,"is_disabled":false,"rental_uris":{"android":"levelo://app?vid=855dd084-9c42-4052-9dc0-c4669bb3dca6","ios":"levelo://app?vid=855dd084-9c42-4052-9dc0-c4669bb3dca6"},"vehicle_type_id":"4","last_reported":1711433423,"current_range_meters":22800,"station_id":"ce4bgup2rcd13ifvqcn0","pricing_plan_id":"cebpf4jnsgd1na2vs0mg"},{"bike_id":"5d955555-dbcd-485f-9258-57d92025a95d","system_id":"levelo_inurba_marseille","lat":43.304606,"lon":5.379026,"is_reserved":false,"is_disabled":false,"rental_uris":{"android":"levelo://app?vid=5d955555-dbcd-485f-9258-57d92025a95d","ios":"levelo://app?vid=5d955555-dbcd-485f-9258-57d92025a95d"},"vehicle_type_id":"4","last_reported":1711433423,"current_range_meters":15600,"station_id":"ce4bgup2rcd13ifvqcn0","pricing_plan_id":"cebpf4jnsgd1na2vs0mg"},{"bike_id":"7c2ecc74-0c17-4a35-b9af-5ee5d1992f00","system_id":"levelo_inurba_marseille","lat":43.304606,"lon":5.379026,"is_reserved":false,"is_disabled":false,"rental_uris":{"android":"levelo://app?vid=7c2ecc74-0c17-4a35-b9af-5ee5d1992f00","ios":"levelo://app?vid=7c2ecc74-0c17-4a35-b9af-5ee5d1992f00"},"vehicle_type_id":"4","last_reported":1711433423,"current_range_meters":24400,"station_id":"ce4bgup2rcd13ifvqcn0","pricing_plan_id":"cebpf4jnsgd1na2vs0mg"},{"bike_id":"e34e23be-e0a0-4481-98e5-fe0b078b2b1e","system_id":"levelo_inurba_marseille","lat":43.304606,"lon":5.379026,"is_reserved":false,"is_disabled":false,"rental_uris":{"android":"levelo://app?vid=e34e23be-e0a0-4481-98e5-fe0b078b2b1e","ios":"levelo://app?vid=e34e23be-e0a0-4481-98e5-fe0b078b2b1e"},"vehicle_type_id":"4","last_reported":1711433423,"current_range_meters":26800,"station_id":"ce4bgup2rcd13ifvqcn0","pricing_plan_id":"cebpf4jnsgd1na2vs0mg"},{"bike_id":"2a4f9947-5ae2-42ad-b353-f4b90458ddfe","system_id":"levelo_inurba_marseille","lat":43.304606,"lon":5.379026,"is_reserved":false,"is_disabled":false,"rental_uris":{"android":"levelo://app?vid=2a4f9947-5ae2-42ad-b353-f4b90458ddfe","ios":"levelo://app?vid=2a4f9947-5ae2-42ad-b353-f4b90458ddfe"},"vehicle_type_id":"4","last_reported":1711433423,"current_range_meters":27200,"station_id":"ce4bgup2rcd13ifvqcn0","pricing_plan_id":"cebpf4jnsgd1na2vs0mg"},{"bike_id":"b34c1b28-e164-4b49-a149-0677d659b678","system_id":"levelo_inurba_marseille","lat":43.304606,"lon":5.379026,"is_reserved":false,"is_disabled":false,"rental_uris":{"android":"levelo://app?vid=b34c1b28-e164-4b49-a149-0677d659b678","ios":"levelo://app?vid=b34c1b28-e164-4b49-a149-0677d659b678"},"vehicle_type_id":"4","last_reported":1711433423,"current_range_meters":13600,"station_id":"ce4bgup2rcd13ifvqcn0","pricing_plan_id":"cebpf4jnsgd1na2vs0mg"},{"bike_id":"2a6d6e02-0373-41a5-b601-575ae2c8444d","system_id":"levelo_inurba_marseille","lat":43.304606,"lon":5.379026,"is_reserved":false,"is_disabled":false,"rental_uris":{"android":"levelo://app?vid=2a6d6e02-0373-41a5-b601-575ae2c8444d","ios":"levelo://app?vid=2a6d6e02-0373-41a5-b601-575ae2c8444d"},"vehicle_type_id":"4","last_reported":1711433423,"current_range_meters":14800,"station_id":"ce4bgup2rcd13ifvqcn0","pricing_plan_id":"cebpf4jnsgd1na2vs0mg"},{"bike_id":"929296fe-4d63-43fa-8dc3-ebfa227fe500","system_id":"levelo_inurba_marseille","lat":43.304606,"lon":5.379026,"is_reserved":false,"is_disabled":false,"rental_uris":{"android":"levelo://app?vid=929296fe-4d63-43fa-8dc3-ebfa227fe500","ios":"levelo://app?vid=929296fe-4d63-43fa-8dc3-ebfa227fe500"},"vehicle_type_id":"4","last_reported":1711433423,"current_range_meters":18400,"station_id":"ce4bgup2rcd13ifvqcn0","pricing_plan_id":"cebpf4jnsgd1na2vs0mg"},{"bike_id":"62cb89a4-51d6-44f1-9298-8aa2a9a2ce5e","system_id":"levelo_inurba_marseille","lat":43.304606,"lon":5.379026,"is_reserved":false,"is_disabled":false,"rental_uris":{"android":"levelo://app?vid=62cb89a4-51d6-44f1-9298-8aa2a9a2ce5e","ios":"levelo://app?vid=62cb89a4-51d6-44f1-9298-8aa2a9a2ce5e"},"vehicle_type_id":"4","last_reported":1711433423,"current_range_meters":23200,"station_id":"ce4bgup2rcd13ifvqcn0","pricing_plan_id":"cebpf4jnsgd1na2vs0mg"},{"bike_id":"52a9717e-0cf6-449e-b32f-58a3e7e04942","system_id":"levelo_inurba_marseille","lat":43.304606,"lon":5.379026,"is_reserved":false,"is_disabled":false,"rental_uris":{"android":"levelo://app?vid=52a9717e-0cf6-449e-b32f-58a3e7e04942","ios":"levelo://app?vid=52a9717e-0cf6-449e-b32f-58a3e7e04942"},"vehicle_type_id":"4","last_reported":1711433423,"current_range_meters":24800,"station_id":"ce4bgup2rcd13ifvqcn0","pricing_plan_id":"cebpf4jnsgd1na2vs0mg"},{"bike_id":"f79649b2-5803-4fc9-9189-9713e0f7dbb0","system_id":"levelo_inurba_marseille","lat":43.304606,"lon":5.379026,"is_reserved":false,"is_disabled":false,"rental_uris":{"android":"levelo://app?vid=f79649b2-5803-4fc9-9189-9713e0f7dbb0","ios":"levelo://app?vid=f79649b2-5803-4fc9-9189-9713e0f7dbb0"},"vehicle_type_id":"4","last_reported":1711433423,"current_range_meters":800,"station_id":"ce4bgup2rcd13ifvqcn0","pricing_plan_id":"cebpf4jnsgd1na2vs0mg"},{"bike_id":"dc4e6a2f-616d-418c-9265-1c6d8d4b6277","system_id":"levelo_inurba_marseille","lat":43.304606,"lon":5.379026,"is_reserved":false,"is_disabled":false,"rental_uris":{"android":"levelo://app?vid=dc4e6a2f-616d-418c-9265-1c6d8d4b6277","ios":"levelo://app?vid=dc4e6a2f-616d-418c-9265-1c6d8d4b6277"},"vehicle_type_id":"4","last_reported":1711433423,"current_range_meters":20000,"station_id":"ce4bgup2rcd13ifvqcn0","pricing_plan_id":"cebpf4jnsgd1na2vs0mg"},{"bike_id":"c23e182a-2c05-46b1-a08c-c9768acb18f1","system_id":"levelo_inurba_marseille","lat":43.304606,"lon":5.379026,"is_reserved":false,"is_disabled":false,"rental_uris":{"android":"levelo://app?vid=c23e182a-2c05-46b1-a08c-c9768acb18f1","ios":"levelo://app?vid=c23e182a-2c05-46b1-a08c-c9768acb18f1"},"vehicle_type_id":"4","last_reported":1711433423,"current_range_meters":29600,"station_id":"ce4bgup2rcd13ifvqcn0","pricing_plan_id":"cebpf4jnsgd1na2vs0mg"},{"bike_id":"e0020560-2406-4027-97c8-0d274ca00f8d","system_id":"levelo_inurba_marseille","lat":43.304606,"lon":5.379026,"is_reserved":false,"is_disabled":false,"rental_uris":{"android":"levelo://app?vid=e0020560-2406-4027-97c8-0d274ca00f8d","ios":"levelo://app?vid=e0020560-2406-4027-97c8-0d274ca00f8d"},"vehicle_type_id":"4","last_reported":1711433423,"current_range_meters":6400,"station_id":"ce4bgup2rcd13ifvqcn0","pricing_plan_id":"cebpf4jnsgd1na2vs0mg"},{"bike_id":"8a96c962-fa42-49da-ae33-09b80b0ddcc2","system_id":"levelo_inurba_marseille","lat":43.30461,"lon":5.37906,"is_reserved":false,"is_disabled":false,"rental_uris":{"android":"levelo://app?vid=8a96c962-fa42-49da-ae33-09b80b0ddcc2","ios":"levelo://app?vid=8a96c962-fa42-49da-ae33-09b80b0ddcc2"},"vehicle_type_id":"4","last_reported":1711433423,"current_range_meters":24000,"station_id":"ce4bgup2rcd13ifvqcn0","pricing_plan_id":"cebpf4jnsgd1na2vs0mg"},{"bike_id":"e8b9e40a-331e-4171-9b04-307df82b092c","system_id":"levelo_inurba_marseille","lat":43.30461,"lon":5.37906,"is_reserved":false,"is_disabled":false,"rental_uris":{"android":"levelo://app?vid=e8b9e40a-331e-4171-9b04-307df82b092c","ios":"levelo://app?vid=e8b9e40a-331e-4171-9b04-307df82b092c"},"vehicle_type_id":"4","last_reported":1711433423,"current_range_meters":26400,"station_id":"ce4bgup2rcd13ifvqcn0","pricing_plan_id":"cebpf4jnsgd1na2vs0mg"},{"bike_id":"26e71182-6918-4105-8309-9f52e1f6493a","system_id":"levelo_inurba_marseille","lat":43.30459,"lon":5.37904,"is_reserved":false,"is_disabled":false,"rental_uris":{"android":"levelo://app?vid=26e71182-6918-4105-8309-9f52e1f6493a","ios":"levelo://app?vid=26e71182-6918-4105-8309-9f52e1f6493a"},"vehicle_type_id":"4","last_reported":1711433423,"current_range_meters":24400,"station_id":"ce4bgup2rcd13ifvqcn0","pricing_plan_id":"cebpf4jnsgd1na2vs0mg"},{"bike_id":"0f59b87c-14ed-4390-822b-1efde5ca9789","system_id":"levelo_inurba_marseille","lat":43.304606,"lon":5.379026,"is_reserved":false,"is_disabled":false,"rental_uris":{"android":"levelo://app?vid=0f59b87c-14ed-4390-822b-1efde5ca9789","ios":"levelo://app?vid=0f59b87c-14ed-4390-822b-1efde5ca9789"},"vehicle_type_id":"4","last_reported":1711433423,"current_range_meters":28400,"station_id":"ce4bgup2rcd13ifvqcn0","pricing_plan_id":"cebpf4jnsgd1na2vs0mg"},{"bike_id":"f6b70e30-4202-48f5-84dd-181a65963a6e","system_id":"levelo_inurba_marseille","lat":43.304606,"lon":5.379026,"is_reserved":false,"is_disabled":false,"rental_uris":{"android":"levelo://app?vid=f6b70e30-4202-48f5-84dd-181a65963a6e","ios":"levelo://app?vid=f6b70e30-4202-48f5-84dd-181a65963a6e"},"vehicle_type_id":"4","last_reported":1711433423,"current_range_meters":22800,"station_id":"ce4bgup2rcd13ifvqcn0","pricing_plan_id":"cebpf4jnsgd1na2vs0mg"},{"bike_id":"b218502d-0025-44d3-9838-83d0c3fe01f7","system_id":"levelo_inurba_marseille","lat":43.30462,"lon":5.37911,"is_reserved":false,"is_disabled":false,"rental_uris":{"android":"levelo://app?vid=b218502d-0025-44d3-9838-83d0c3fe01f7","ios":"levelo://app?vid=b218502d-0025-44d3-9838-83d0c3fe01f7"},"vehicle_type_id":"4","last_reported":1711433423,"current_range_meters":17200,"station_id":"ce4bgup2rcd13ifvqcn0","pricing_plan_id":"cebpf4jnsgd1na2vs0mg"},{"bike_id":"927bc6b2-6e02-4897-85bf-6fd4116bea93","system_id":"levelo_inurba_marseille","lat":43.304606,"lon":5.379026,"is_reserved":false,"is_disabled":false,"rental_uris":{"android":"levelo://app?vid=927bc6b2-6e02-4897-85bf-6fd4116bea93","ios":"levelo://app?vid=927bc6b2-6e02-4897-85bf-6fd4116bea93"},"vehicle_type_id":"4","last_reported":1711433423,"current_range_meters":18400,"station_id":"ce4bgup2rcd13ifvqcn0","pricing_plan_id":"cebpf4jnsgd1na2vs0mg"},{"bike_id":"8bb55923-1e30-4785-9dfa-5c669b577689","system_id":"levelo_inurba_marseille","lat":43.324771,"lon":5.36557,"is_reserved":false,"is_disabled":false,"rental_uris":{"android":"levelo://app?vid=8bb55923-1e30-4785-9dfa-5c669b577689","ios":"levelo://app?vid=8bb55923-1e30-4785-9dfa-5c669b577689"},"vehicle_type_id":"4","last_reported":1711433423,"current_range_meters":1600,"station_id":"ce4bhs12rcd13ifvqhvg","pricing_plan_id":"cebpf4jnsgd1na2vs0mg"},{"bike_id":"26aab7eb-0fed-402e-8f7d-f704da75ca7c","system_id":"levelo_inurba_marseille","lat":43.324771,"lon":5.36557,"is_reserved":false,"is_disabled":false,"rental_uris":{"android":"levelo://app?vid=26aab7eb-0fed-402e-8f7d-f704da75ca7c","ios":"levelo://app?vid=26aab7eb-0fed-402e-8f7d-f704da75ca7c"},"vehicle_type_id":"4","last_reported":1711433423,"current_range_meters":4800,"station_id":"ce4bhs12rcd13ifvqhvg","pricing_plan_id":"cebpf4jnsgd1na2vs0mg"},{"bike_id":"4aa023fc-bd6a-49d9-bb66-0067c94f6096","system_id":"levelo_inurba_marseille","lat":43.324791,"lon":5.365717,"is_reserved":false,"is_disabled":false,"rental_uris":{"android":"levelo://app?vid=4aa023fc-bd6a-49d9-bb66-0067c94f6096","ios":"levelo://app?vid=4aa023fc-bd6a-49d9-bb66-0067c94f6096"},"vehicle_type_id":"4","last_reported":1711433423,"current_range_meters":26000,"station_id":"ce4bhs12rcd13ifvqhvg","pricing_plan_id":"cebpf4jnsgd1na2vs0mg"},{"bike_id":"ee315106-341d-4bf1-9af2-6b11388a77d8","system_id":"levelo_inurba_marseille","lat":43.324771,"lon":5.36557,"is_reserved":false,"is_disabled":false,"rental_uris":{"android":"levelo://app?vid=ee315106-341d-4bf1-9af2-6b11388a77d8","ios":"levelo://app?vid=ee315106-341d-4bf1-9af2-6b11388a77d8"},"vehicle_type_id":"4","last_reported":1711433423,"current_range_meters":24800,"station_id":"ce4bhs12rcd13ifvqhvg","pricing_plan_id":"cebpf4jnsgd1na2vs0mg"},{"bike_id":"31b6ff8b-1295-4fd4-91c5-310566a897a8","system_id":"levelo_inurba_marseille","lat":43.324797,"lon":5.36577,"is_reserved":false,"is_disabled":false,"rental_uris":{"android":"levelo://app?vid=31b6ff8b-1295-4fd4-91c5-310566a897a8","ios":"levelo://app?vid=31b6ff8b-1295-4fd4-91c5-310566a897a8"},"vehicle_type_id":"4","last_reported":1711433423,"current_range_meters":26000,"station_id":"ce4bhs12rcd13ifvqhvg","pricing_plan_id":"cebpf4jnsgd1na2vs0mg"},{"bike_id":"a26085b4-c08f-407f-92bc-4fa83dbf1dee","system_id":"levelo_inurba_marseille","lat":43.324771,"lon":5.36557,"is_reserved":false,"is_disabled":false,"rental_uris":{"android":"levelo://app?vid=a26085b4-c08f-407f-92bc-4fa83dbf1dee","ios":"levelo://app?vid=a26085b4-c08f-407f-92bc-4fa83dbf1dee"},"vehicle_type_id":"4","last_reported":1711433423,"current_range_meters":6800,"station_id":"ce4bhs12rcd13ifvqhvg","pricing_plan_id":"cebpf4jnsgd1na2vs0mg"},{"bike_id":"a0d31af7-370b-4f99-8c08-89a40e47803f","system_id":"levelo_inurba_marseille","lat":43.324771,"lon":5.36557,"is_reserved":false,"is_disabled":false,"rental_uris":{"android":"levelo://app?vid=a0d31af7-370b-4f99-8c08-89a40e47803f","ios":"levelo://app?vid=a0d31af7-370b-4f99-8c08-89a40e47803f"},"vehicle_type_id":"4","last_reported":1711433423,"current_range_meters":26400,"station_id":"ce4bhs12rcd13ifvqhvg","pricing_plan_id":"cebpf4jnsgd1na2vs0mg"},{"bike_id":"0b883f3e-74d5-4336-85c9-e464a75870c1","system_id":"levelo_inurba_marseille","lat":43.324771,"lon":5.36557,"is_reserved":false,"is_disabled":false,"rental_uris":{"android":"levelo://app?vid=0b883f3e-74d5-4336-85c9-e464a75870c1","ios":"levelo://app?vid=0b883f3e-74d5-4336-85c9-e464a75870c1"},"vehicle_type_id":"4","last_reported":1711433423,"current_range_meters":22800,"station_id":"ce4bhs12rcd13ifvqhvg","pricing_plan_id":"cebpf4jnsgd1na2vs0mg"},{"bike_id":"7d3c11db-0682-4e95-9e28-2bcca3cee667","system_id":"levelo_inurba_marseille","lat":43.310715,"lon":5.383502,"is_reserved":false,"is_disabled":false,"rental_uris":{"android":"levelo://app?vid=7d3c11db-0682-4e95-9e28-2bcca3cee667","ios":"levelo://app?vid=7d3c11db-0682-4e95-9e28-2bcca3cee667"},"vehicle_type_id":"4","last_reported":1711433423,"current_range_meters":0,"station_id":"ce4bgv92rcd13ifvqcr0","pricing_plan_id":"cebpf4jnsgd1na2vs0mg"},{"bike_id":"ffeba6f5-b6cc-4f8c-b811-c5a7861b20a7","system_id":"levelo_inurba_marseille","lat":43.31078,"lon":5.38352,"is_reserved":false,"is_disabled":false,"rental_uris":{"android":"levelo://app?vid=ffeba6f5-b6cc-4f8c-b811-c5a7861b20a7","ios":"levelo://app?vid=ffeba6f5-b6cc-4f8c-b811-c5a7861b20a7"},"vehicle_type_id":"4","last_reported":1711433423,"current_range_meters":400,"station_id":"ce4bgv92rcd13ifvqcr0","pricing_plan_id":"cebpf4jnsgd1na2vs0mg"},{"bike_id":"8f25d7ac-1706-49ed-8e08-59fe9a4456d9","system_id":"levelo_inurba_marseille","lat":43.310672,"lon":5.383502,"is_reserved":false,"is_disabled":false,"rental_uris":{"android":"levelo://app?vid=8f25d7ac-1706-49ed-8e08-59fe9a4456d9","ios":"levelo://app?vid=8f25d7ac-1706-49ed-8e08-59fe9a4456d9"},"vehicle_type_id":"4","last_reported":1711433423,"current_range_meters":6400,"station_id":"ce4bgv92rcd13ifvqcr0","pricing_plan_id":"cebpf4jnsgd1na2vs0mg"},{"bike_id":"2d914a3a-f8d3-414e-af9c-c1c8de18687c","system_id":"levelo_inurba_marseille","lat":43.310719,"lon":5.383516,"is_reserved":false,"is_disabled":false,"rental_uris":{"android":"levelo://app?vid=2d914a3a-f8d3-414e-af9c-c1c8de18687c","ios":"levelo://app?vid=2d914a3a-f8d3-414e-af9c-c1c8de18687c"},"vehicle_type_id":"4","last_reported":1711433423,"current_range_meters":27200,"station_id":"ce4bgv92rcd13ifvqcr0","pricing_plan_id":"cebpf4jnsgd1na2vs0mg"},{"bike_id":"524e56aa-8437-4ec0-bf57-520df951f83f","system_id":"levelo_inurba_marseille","lat":43.310762,"lon":5.383543,"is_reserved":false,"is_disabled":false,"rental_uris":{"android":"levelo://app?vid=524e56aa-8437-4ec0-bf57-520df951f83f","ios":"levelo://app?vid=524e56aa-8437-4ec0-bf57-520df951f83f"},"vehicle_type_id":"4","last_reported":1711433423,"current_range_meters":24000,"station_id":"ce4bgv92rcd13ifvqcr0","pricing_plan_id":"cebpf4jnsgd1na2vs0mg"},{"bike_id":"86c2095f-66b9-4109-aff6-f9cda9639c22","system_id":"levelo_inurba_marseille","lat":43.310751,"lon":5.383541,"is_reserved":false,"is_disabled":false,"rental_uris":{"android":"levelo://app?vid=86c2095f-66b9-4109-aff6-f9cda9639c22","ios":"levelo://app?vid=86c2095f-66b9-4109-aff6-f9cda9639c22"},"vehicle_type_id":"4","last_reported":1711433423,"current_range_meters":9600,"station_id":"ce4bgv92rcd13ifvqcr0","pricing_plan_id":"cebpf4jnsgd1na2vs0mg"},{"bike_id":"00d970b5-de5a-452f-8d17-927bced8cf49","system_id":"levelo_inurba_marseille","lat":43.31077,"lon":5.38357,"is_reserved":false,"is_disabled":false,"rental_uris":{"android":"levelo://app?vid=00d970b5-de5a-452f-8d17-927bced8cf49","ios":"levelo://app?vid=00d970b5-de5a-452f-8d17-927bced8cf49"},"vehicle_type_id":"4","last_reported":1711433423,"current_range_meters":25600,"station_id":"ce4bgv92rcd13ifvqcr0","pricing_plan_id":"cebpf4jnsgd1na2vs0mg"},{"bike_id":"62be9f93-0bba-4b5a-baaf-305f53ed08f3","system_id":"levelo_inurba_marseille","lat":43.310719,"lon":5.383571,"is_reserved":false,"is_disabled":false,"rental_uris":{"android":"levelo://app?vid=62be9f93-0bba-4b5a-baaf-305f53ed08f3","ios":"levelo://app?vid=62be9f93-0bba-4b5a-baaf-305f53ed08f3"},"vehicle_type_id":"4","last_reported":1711433423,"current_range_meters":13600,"station_id":"ce4bgv92rcd13ifvqcr0","pricing_plan_id":"cebpf4jnsgd1na2vs0mg"},{"bike_id":"fed57d2a-eb5c-4101-9a5f-41aa4f466cf3","system_id":"levelo_inurba_marseille","lat":43.310779,"lon":5.383602,"is_reserved":false,"is_disabled":false,"rental_uris":{"android":"levelo://app?vid=fed57d2a-eb5c-4101-9a5f-41aa4f466cf3","ios":"levelo://app?vid=fed57d2a-eb5c-4101-9a5f-41aa4f466cf3"},"vehicle_type_id":"4","last_reported":1711433423,"current_range_meters":26400,"station_id":"ce4bgv92rcd13ifvqcr0","pricing_plan_id":"cebpf4jnsgd1na2vs0mg"},{"bike_id":"f8957ab0-c552-4670-9577-d3f40295e4f3","system_id":"levelo_inurba_marseille","lat":43.31074,"lon":5.38361,"is_reserved":false,"is_disabled":false,"rental_uris":{"android":"levelo://app?vid=f8957ab0-c552-4670-9577-d3f40295e4f3","ios":"levelo://app?vid=f8957ab0-c552-4670-9577-d3f40295e4f3"},"vehicle_type_id":"4","last_reported":1711433423,"current_range_meters":0,"station_id":"ce4bgv92rcd13ifvqcr0","pricing_plan_id":"cebpf4jnsgd1na2vs0mg"},{"bike_id":"3827812e-6bb5-40be-a7d6-7224aababdd1","system_id":"levelo_inurba_marseille","lat":43.310804,"lon":5.38359,"is_reserved":false,"is_disabled":false,"rental_uris":{"android":"levelo://app?vid=3827812e-6bb5-40be-a7d6-7224aababdd1","ios":"levelo://app?vid=3827812e-6bb5-40be-a7d6-7224aababdd1"},"vehicle_type_id":"4","last_reported":1711433423,"current_range_meters":13600,"station_id":"ce4bgv92rcd13ifvqcr0","pricing_plan_id":"cebpf4jnsgd1na2vs0mg"},{"bike_id":"4a9d832f-8822-42e6-a560-38e093ae7d0f","system_id":"levelo_inurba_marseille","lat":43.302784,"lon":5.377158,"is_reserved":false,"is_disabled":false,"rental_uris":{"android":"levelo://app?vid=4a9d832f-8822-42e6-a560-38e093ae7d0f","ios":"levelo://app?vid=4a9d832f-8822-42e6-a560-38e093ae7d0f"},"vehicle_type_id":"4","last_reported":1711433423,"current_range_meters":28800,"station_id":"ce4bguh2rcd13ifvqcj0","pricing_plan_id":"cebpf4jnsgd1na2vs0mg"},{"bike_id":"87f9df8b-95bf-4775-b270-5799777467cc","system_id":"levelo_inurba_marseille","lat":43.302784,"lon":5.377158,"is_reserved":false,"is_disabled":false,"rental_uris":{"android":"levelo://app?vid=87f9df8b-95bf-4775-b270-5799777467cc","ios":"levelo://app?vid=87f9df8b-95bf-4775-b270-5799777467cc"},"vehicle_type_id":"4","last_reported":1711433423,"current_range_meters":13200,"station_id":"ce4bguh2rcd13ifvqcj0","pricing_plan_id":"cebpf4jnsgd1na2vs0mg"},{"bike_id":"94ab0415-c3b6-4513-bbf0-001e477f89b1","system_id":"levelo_inurba_marseille","lat":43.302784,"lon":5.377158,"is_reserved":false,"is_disabled":false,"rental_uris":{"android":"levelo://app?vid=94ab0415-c3b6-4513-bbf0-001e477f89b1","ios":"levelo://app?vid=94ab0415-c3b6-4513-bbf0-001e477f89b1"},"vehicle_type_id":"4","last_reported":1711433423,"current_range_meters":26000,"station_id":"ce4bguh2rcd13ifvqcj0","pricing_plan_id":"cebpf4jnsgd1na2vs0mg"},{"bike_id":"1c23b47f-ec4d-4542-aad7-9cf3155d9e40","system_id":"levelo_inurba_marseille","lat":43.301429,"lon":5.37413,"is_reserved":false,"is_disabled":false,"rental_uris":{"android":"levelo://app?vid=1c23b47f-ec4d-4542-aad7-9cf3155d9e40","ios":"levelo://app?vid=1c23b47f-ec4d-4542-aad7-9cf3155d9e40"},"vehicle_type_id":"4","last_reported":1711433423,"current_range_meters":16400,"station_id":"ce4bgs92rcd13ifvqcc0","pricing_plan_id":"cebpf4jnsgd1na2vs0mg"},{"bike_id":"edbee111-6ea7-42d3-885b-5e92310796e1","system_id":"levelo_inurba_marseille","lat":43.302784,"lon":5.377158,"is_reserved":false,"is_disabled":false,"rental_uris":{"android":"levelo://app?vid=edbee111-6ea7-42d3-885b-5e92310796e1","ios":"levelo://app?vid=edbee111-6ea7-42d3-885b-5e92310796e1"},"vehicle_type_id":"4","last_reported":1711433423,"current_range_meters":16800,"station_id":"ce4bguh2rcd13ifvqcj0","pricing_plan_id":"cebpf4jnsgd1na2vs0mg"},{"bike_id":"4b754085-f7c5-4b6c-812e-a9f426710d69","system_id":"levelo_inurba_marseille","lat":43.302784,"lon":5.377158,"is_reserved":false,"is_disabled":false,"rental_uris":{"android":"levelo://app?vid=4b754085-f7c5-4b6c-812e-a9f426710d69","ios":"levelo://app?vid=4b754085-f7c5-4b6c-812e-a9f426710d69"},"vehicle_type_id":"4","last_reported":1711433423,"current_range_meters":15600,"station_id":"ce4bguh2rcd13ifvqcj0","pricing_plan_id":"cebpf4jnsgd1na2vs0mg"},{"bike_id":"124084b8-b9e6-4549-bcd9-8fb9f7ba2aaa","system_id":"levelo_inurba_marseille","lat":43.301429,"lon":5.37413,"is_reserved":false,"is_disabled":false,"rental_uris":{"android":"levelo://app?vid=124084b8-b9e6-4549-bcd9-8fb9f7ba2aaa","ios":"levelo://app?vid=124084b8-b9e6-4549-bcd9-8fb9f7ba2aaa"},"vehicle_type_id":"4","last_reported":1711433423,"current_range_meters":23600,"station_id":"ce4bgs92rcd13ifvqcc0","pricing_plan_id":"cebpf4jnsgd1na2vs0mg"},{"bike_id":"013472d7-ab0a-47b8-86c5-cdb685af73af","system_id":"levelo_inurba_marseille","lat":43.319935,"lon":5.381699,"is_reserved":false,"is_disabled":false,"rental_uris":{"android":"levelo://app?vid=013472d7-ab0a-47b8-86c5-cdb685af73af","ios":"levelo://app?vid=013472d7-ab0a-47b8-86c5-cdb685af73af"},"vehicle_type_id":"4","last_reported":1711433423,"current_range_meters":28000,"station_id":"ce4bhr12rcd13ifvqhpg","pricing_plan_id":"cebpf4jnsgd1na2vs0mg"},{"bike_id":"ea959437-bf8b-414f-b285-d8869b036858","system_id":"levelo_inurba_marseille","lat":43.319935,"lon":5.381699,"is_reserved":false,"is_disabled":false,"rental_uris":{"android":"levelo://app?vid=ea959437-bf8b-414f-b285-d8869b036858","ios":"levelo://app?vid=ea959437-bf8b-414f-b285-d8869b036858"},"vehicle_type_id":"4","last_reported":1711433423,"current_range_meters":13600,"station_id":"ce4bhr12rcd13ifvqhpg","pricing_plan_id":"cebpf4jnsgd1na2vs0mg"},{"bike_id":"f2c2e7b3-f649-44fd-bb5b-a9d75f0e4a54","system_id":"levelo_inurba_marseille","lat":43.319935,"lon":5.381699,"is_reserved":false,"is_disabled":false,"rental_uris":{"android":"levelo://app?vid=f2c2e7b3-f649-44fd-bb5b-a9d75f0e4a54","ios":"levelo://app?vid=f2c2e7b3-f649-44fd-bb5b-a9d75f0e4a54"},"vehicle_type_id":"4","last_reported":1711433423,"current_range_meters":15200,"station_id":"ce4bhr12rcd13ifvqhpg","pricing_plan_id":"cebpf4jnsgd1na2vs0mg"},{"bike_id":"d73ccb92-6499-4dff-8dea-7c313fadb133","system_id":"levelo_inurba_marseille","lat":43.319929,"lon":5.381459,"is_reserved":false,"is_disabled":false,"rental_uris":{"android":"levelo://app?vid=d73ccb92-6499-4dff-8dea-7c313fadb133","ios":"levelo://app?vid=d73ccb92-6499-4dff-8dea-7c313fadb133"},"vehicle_type_id":"4","last_reported":1711433423,"current_range_meters":29600,"station_id":"ce4bhr12rcd13ifvqhpg","pricing_plan_id":"cebpf4jnsgd1na2vs0mg"},{"bike_id":"ae1cf9dd-d49e-4607-8a7f-90b9b82bf9ef","system_id":"levelo_inurba_marseille","lat":43.319961,"lon":5.381467,"is_reserved":false,"is_disabled":false,"rental_uris":{"android":"levelo://app?vid=ae1cf9dd-d49e-4607-8a7f-90b9b82bf9ef","ios":"levelo://app?vid=ae1cf9dd-d49e-4607-8a7f-90b9b82bf9ef"},"vehicle_type_id":"4","last_reported":1711433423,"current_range_meters":18000,"station_id":"ce4bhr12rcd13ifvqhpg","pricing_plan_id":"cebpf4jnsgd1na2vs0mg"},{"bike_id":"dcf7f0a5-2019-46e4-b163-588a3ef4c3b7","system_id":"levelo_inurba_marseille","lat":43.319935,"lon":5.381699,"is_reserved":false,"is_disabled":false,"rental_uris":{"android":"levelo://app?vid=dcf7f0a5-2019-46e4-b163-588a3ef4c3b7","ios":"levelo://app?vid=dcf7f0a5-2019-46e4-b163-588a3ef4c3b7"},"vehicle_type_id":"4","last_reported":1711433423,"current_range_meters":19200,"station_id":"ce4bhr12rcd13ifvqhpg","pricing_plan_id":"cebpf4jnsgd1na2vs0mg"},{"bike_id":"a7765369-4add-4cf6-a153-4d4e55db0c32","system_id":"levelo_inurba_marseille","lat":43.313571,"lon":5.384829,"is_reserved":false,"is_disabled":false,"rental_uris":{"android":"levelo://app?vid=a7765369-4add-4cf6-a153-4d4e55db0c32","ios":"levelo://app?vid=a7765369-4add-4cf6-a153-4d4e55db0c32"},"vehicle_type_id":"4","last_reported":1711433423,"current_range_meters":16400,"station_id":"ce4bgt92rcd13ifvqcf0","pricing_plan_id":"cebpf4jnsgd1na2vs0mg"},{"bike_id":"530b3e25-6aaa-499d-bfb2-6323ec5f7863","system_id":"levelo_inurba_marseille","lat":43.313571,"lon":5.384829,"is_reserved":false,"is_disabled":false,"rental_uris":{"android":"levelo://app?vid=530b3e25-6aaa-499d-bfb2-6323ec5f7863","ios":"levelo://app?vid=530b3e25-6aaa-499d-bfb2-6323ec5f7863"},"vehicle_type_id":"4","last_reported":1711433423,"current_range_meters":22000,"station_id":"ce4bgt92rcd13ifvqcf0","pricing_plan_id":"cebpf4jnsgd1na2vs0mg"},{"bike_id":"fbbc438e-26a6-43ae-b943-c58fe36bd374","system_id":"levelo_inurba_marseille","lat":43.313571,"lon":5.384829,"is_reserved":false,"is_disabled":false,"rental_uris":{"android":"levelo://app?vid=fbbc438e-26a6-43ae-b943-c58fe36bd374","ios":"levelo://app?vid=fbbc438e-26a6-43ae-b943-c58fe36bd374"},"vehicle_type_id":"4","last_reported":1711433423,"current_range_meters":19200,"station_id":"ce4bgt92rcd13ifvqcf0","pricing_plan_id":"cebpf4jnsgd1na2vs0mg"},{"bike_id":"818128e2-8217-4fe5-bb26-d2f3044e0344","system_id":"levelo_inurba_marseille","lat":43.313571,"lon":5.384829,"is_reserved":false,"is_disabled":false,"rental_uris":{"android":"levelo://app?vid=818128e2-8217-4fe5-bb26-d2f3044e0344","ios":"levelo://app?vid=818128e2-8217-4fe5-bb26-d2f3044e0344"},"vehicle_type_id":"4","last_reported":1711433423,"current_range_meters":25200,"station_id":"ce4bgt92rcd13ifvqcf0","pricing_plan_id":"cebpf4jnsgd1na2vs0mg"},{"bike_id":"831f98f3-9c71-4f22-95bc-515ec6aa7ee2","system_id":"levelo_inurba_marseille","lat":43.313571,"lon":5.384829,"is_reserved":false,"is_disabled":false,"rental_uris":{"android":"levelo://app?vid=831f98f3-9c71-4f22-95bc-515ec6aa7ee2","ios":"levelo://app?vid=831f98f3-9c71-4f22-95bc-515ec6aa7ee2"},"vehicle_type_id":"4","last_reported":1711433423,"current_range_meters":31200,"station_id":"ce4bgt92rcd13ifvqcf0","pricing_plan_id":"cebpf4jnsgd1na2vs0mg"},{"bike_id":"349ba789-ce29-4b7f-89d4-e54a7c0aa4ef","system_id":"levelo_inurba_marseille","lat":43.313571,"lon":5.384829,"is_reserved":false,"is_disabled":false,"rental_uris":{"android":"levelo://app?vid=349ba789-ce29-4b7f-89d4-e54a7c0aa4ef","ios":"levelo://app?vid=349ba789-ce29-4b7f-89d4-e54a7c0aa4ef"},"vehicle_type_id":"4","last_reported":1711433423,"current_range_meters":0,"station_id":"ce4bgt92rcd13ifvqcf0","pricing_plan_id":"cebpf4jnsgd1na2vs0mg"},{"bike_id":"eccf0a3c-c415-4063-aca0-f0f4fa150fd5","system_id":"levelo_inurba_marseille","lat":43.3136,"lon":5.385003,"is_reserved":false,"is_disabled":false,"rental_uris":{"android":"levelo://app?vid=eccf0a3c-c415-4063-aca0-f0f4fa150fd5","ios":"levelo://app?vid=eccf0a3c-c415-4063-aca0-f0f4fa150fd5"},"vehicle_type_id":"4","last_reported":1711433423,"current_range_meters":0,"station_id":"ce4bgt92rcd13ifvqcf0","pricing_plan_id":"cebpf4jnsgd1na2vs0mg"},{"bike_id":"35f2d54f-8e9c-4f05-8914-5912534a1e95","system_id":"levelo_inurba_marseille","lat":43.313571,"lon":5.384829,"is_reserved":false,"is_disabled":false,"rental_uris":{"android":"levelo://app?vid=35f2d54f-8e9c-4f05-8914-5912534a1e95","ios":"levelo://app?vid=35f2d54f-8e9c-4f05-8914-5912534a1e95"},"vehicle_type_id":"4","last_reported":1711433423,"current_range_meters":27600,"station_id":"ce4bgt92rcd13ifvqcf0","pricing_plan_id":"cebpf4jnsgd1na2vs0mg"},{"bike_id":"66361b21-b675-4436-b304-47c901f925a1","system_id":"levelo_inurba_marseille","lat":43.299222,"lon":5.365554,"is_reserved":false,"is_disabled":false,"rental_uris":{"android":"levelo://app?vid=66361b21-b675-4436-b304-47c901f925a1","ios":"levelo://app?vid=66361b21-b675-4436-b304-47c901f925a1"},"vehicle_type_id":"4","last_reported":1711433423,"current_range_meters":24800,"station_id":"ce4bgm92rcd13ifvqbr0","pricing_plan_id":"cebpf4jnsgd1na2vs0mg"},{"bike_id":"25982a1a-cb37-4277-b768-f38d5437db44","system_id":"levelo_inurba_marseille","lat":43.299222,"lon":5.365554,"is_reserved":false,"is_disabled":false,"rental_uris":{"android":"levelo://app?vid=25982a1a-cb37-4277-b768-f38d5437db44","ios":"levelo://app?vid=25982a1a-cb37-4277-b768-f38d5437db44"},"vehicle_type_id":"4","last_reported":1711433423,"current_range_meters":8400,"station_id":"ce4bgm92rcd13ifvqbr0","pricing_plan_id":"cebpf4jnsgd1na2vs0mg"},{"bike_id":"17f59742-c5d8-4575-84f6-5e6fc6d32802","system_id":"levelo_inurba_marseille","lat":43.299222,"lon":5.365554,"is_reserved":false,"is_disabled":false,"rental_uris":{"android":"levelo://app?vid=17f59742-c5d8-4575-84f6-5e6fc6d32802","ios":"levelo://app?vid=17f59742-c5d8-4575-84f6-5e6fc6d32802"},"vehicle_type_id":"4","last_reported":1711433423,"current_range_meters":22400,"station_id":"ce4bgm92rcd13ifvqbr0","pricing_plan_id":"cebpf4jnsgd1na2vs0mg"},{"bike_id":"4878ea8d-a6c2-433a-a2b0-4df83e369be3","system_id":"levelo_inurba_marseille","lat":43.299222,"lon":5.365554,"is_reserved":false,"is_disabled":false,"rental_uris":{"android":"levelo://app?vid=4878ea8d-a6c2-433a-a2b0-4df83e369be3","ios":"levelo://app?vid=4878ea8d-a6c2-433a-a2b0-4df83e369be3"},"vehicle_type_id":"4","last_reported":1711433423,"current_range_meters":12800,"station_id":"ce4bgm92rcd13ifvqbr0","pricing_plan_id":"cebpf4jnsgd1na2vs0mg"},{"bike_id":"65786b4a-7ec1-4d53-8ab6-b75f9d680443","system_id":"levelo_inurba_marseille","lat":43.30574,"lon":5.38391,"is_reserved":false,"is_disabled":false,"rental_uris":{"android":"levelo://app?vid=65786b4a-7ec1-4d53-8ab6-b75f9d680443","ios":"levelo://app?vid=65786b4a-7ec1-4d53-8ab6-b75f9d680443"},"vehicle_type_id":"4","last_reported":1711433423,"current_range_meters":10000,"station_id":"ce4bgg92rcd13ifvqb30","pricing_plan_id":"cebpf4jnsgd1na2vs0mg"},{"bike_id":"a04dbbab-46ff-4f36-8ec9-fa7ce4832efa","system_id":"levelo_inurba_marseille","lat":43.305364,"lon":5.384119,"is_reserved":false,"is_disabled":false,"rental_uris":{"android":"levelo://app?vid=a04dbbab-46ff-4f36-8ec9-fa7ce4832efa","ios":"levelo://app?vid=a04dbbab-46ff-4f36-8ec9-fa7ce4832efa"},"vehicle_type_id":"4","last_reported":1711433423,"current_range_meters":20400,"station_id":"ce4bgg92rcd13ifvqb30","pricing_plan_id":"cebpf4jnsgd1na2vs0mg"},{"bike_id":"61fc1fc4-e6c7-4fb7-a6d3-22a1523c65e7","system_id":"levelo_inurba_marseille","lat":43.298433,"lon":5.362774,"is_reserved":false,"is_disabled":false,"rental_uris":{"android":"levelo://app?vid=61fc1fc4-e6c7-4fb7-a6d3-22a1523c65e7","ios":"levelo://app?vid=61fc1fc4-e6c7-4fb7-a6d3-22a1523c65e7"},"vehicle_type_id":"4","last_reported":1711433423,"current_range_meters":7200,"station_id":"ce4bgpp2rcd13ifvqc3g","pricing_plan_id":"cebpf4jnsgd1na2vs0mg"},{"bike_id":"51a08a78-1466-41f9-8ba2-e3c91bc992fd","system_id":"levelo_inurba_marseille","lat":43.305364,"lon":5.384119,"is_reserved":false,"is_disabled":false,"rental_uris":{"android":"levelo://app?vid=51a08a78-1466-41f9-8ba2-e3c91bc992fd","ios":"levelo://app?vid=51a08a78-1466-41f9-8ba2-e3c91bc992fd"},"vehicle_type_id":"4","last_reported":1711433423,"current_range_meters":26400,"station_id":"ce4bgg92rcd13ifvqb30","pricing_plan_id":"cebpf4jnsgd1na2vs0mg"},{"bike_id":"e81796bc-9933-48f1-a382-8022c3b30cb8","system_id":"levelo_inurba_marseille","lat":43.298458,"lon":5.36282,"is_reserved":false,"is_disabled":false,"rental_uris":{"android":"levelo://app?vid=e81796bc-9933-48f1-a382-8022c3b30cb8","ios":"levelo://app?vid=e81796bc-9933-48f1-a382-8022c3b30cb8"},"vehicle_type_id":"4","last_reported":1711433423,"current_range_meters":5600,"station_id":"ce4bgpp2rcd13ifvqc3g","pricing_plan_id":"cebpf4jnsgd1na2vs0mg"},{"bike_id":"3a8efc07-3d43-4768-b551-b7e7450ddcb5","system_id":"levelo_inurba_marseille","lat":43.298433,"lon":5.362774,"is_reserved":false,"is_disabled":false,"rental_uris":{"android":"levelo://app?vid=3a8efc07-3d43-4768-b551-b7e7450ddcb5","ios":"levelo://app?vid=3a8efc07-3d43-4768-b551-b7e7450ddcb5"},"vehicle_type_id":"4","last_reported":1711433423,"current_range_meters":30800,"station_id":"ce4bgpp2rcd13ifvqc3g","pricing_plan_id":"cebpf4jnsgd1na2vs0mg"},{"bike_id":"b0693ec3-ff7e-4045-a677-7554d775465a","system_id":"levelo_inurba_marseille","lat":43.305364,"lon":5.384119,"is_reserved":false,"is_disabled":false,"rental_uris":{"android":"levelo://app?vid=b0693ec3-ff7e-4045-a677-7554d775465a","ios":"levelo://app?vid=b0693ec3-ff7e-4045-a677-7554d775465a"},"vehicle_type_id":"4","last_reported":1711433423,"current_range_meters":23200,"station_id":"ce4bgg92rcd13ifvqb30","pricing_plan_id":"cebpf4jnsgd1na2vs0mg"},{"bike_id":"d6d9dfda-4d17-4f3f-b3ee-d082b487bbe7","system_id":"levelo_inurba_marseille","lat":43.298423,"lon":5.362831,"is_reserved":false,"is_disabled":false,"rental_uris":{"android":"levelo://app?vid=d6d9dfda-4d17-4f3f-b3ee-d082b487bbe7","ios":"levelo://app?vid=d6d9dfda-4d17-4f3f-b3ee-d082b487bbe7"},"vehicle_type_id":"4","last_reported":1711433423,"current_range_meters":14000,"station_id":"ce4bgpp2rcd13ifvqc3g","pricing_plan_id":"cebpf4jnsgd1na2vs0mg"},{"bike_id":"6d04aba3-6dc1-436f-baff-c4f2e9efa807","system_id":"levelo_inurba_marseille","lat":43.298433,"lon":5.362774,"is_reserved":false,"is_disabled":false,"rental_uris":{"android":"levelo://app?vid=6d04aba3-6dc1-436f-baff-c4f2e9efa807","ios":"levelo://app?vid=6d04aba3-6dc1-436f-baff-c4f2e9efa807"},"vehicle_type_id":"4","last_reported":1711433423,"current_range_meters":9200,"station_id":"ce4bgpp2rcd13ifvqc3g","pricing_plan_id":"cebpf4jnsgd1na2vs0mg"},{"bike_id":"ccbd6fad-1cb3-4c2a-9511-322e80258b48","system_id":"levelo_inurba_marseille","lat":43.305364,"lon":5.384119,"is_reserved":false,"is_disabled":false,"rental_uris":{"android":"levelo://app?vid=ccbd6fad-1cb3-4c2a-9511-322e80258b48","ios":"levelo://app?vid=ccbd6fad-1cb3-4c2a-9511-322e80258b48"},"vehicle_type_id":"4","last_reported":1711433423,"current_range_meters":28800,"station_id":"ce4bgg92rcd13ifvqb30","pricing_plan_id":"cebpf4jnsgd1na2vs0mg"},{"bike_id":"d6e65acf-9178-416b-8269-4ba8f7899dcf","system_id":"levelo_inurba_marseille","lat":43.305364,"lon":5.384119,"is_reserved":false,"is_disabled":false,"rental_uris":{"android":"levelo://app?vid=d6e65acf-9178-416b-8269-4ba8f7899dcf","ios":"levelo://app?vid=d6e65acf-9178-416b-8269-4ba8f7899dcf"},"vehicle_type_id":"4","last_reported":1711433423,"current_range_meters":10000,"station_id":"ce4bgg92rcd13ifvqb30","pricing_plan_id":"cebpf4jnsgd1na2vs0mg"},{"bike_id":"03bdd137-8450-464f-ab38-bf0a16059ea9","system_id":"levelo_inurba_marseille","lat":43.31167,"lon":5.38707,"is_reserved":false,"is_disabled":false,"rental_uris":{"android":"levelo://app?vid=03bdd137-8450-464f-ab38-bf0a16059ea9","ios":"levelo://app?vid=03bdd137-8450-464f-ab38-bf0a16059ea9"},"vehicle_type_id":"4","last_reported":1711433423,"current_range_meters":5200,"station_id":"ce4bgv12rcd13ifvqcp0","pricing_plan_id":"cebpf4jnsgd1na2vs0mg"},{"bike_id":"8b70d777-510f-4896-a76a-a021fca3bc7f","system_id":"levelo_inurba_marseille","lat":43.311714,"lon":5.387094,"is_reserved":false,"is_disabled":false,"rental_uris":{"android":"levelo://app?vid=8b70d777-510f-4896-a76a-a021fca3bc7f","ios":"levelo://app?vid=8b70d777-510f-4896-a76a-a021fca3bc7f"},"vehicle_type_id":"4","last_reported":1711433423,"current_range_meters":26400,"station_id":"ce4bgv12rcd13ifvqcp0","pricing_plan_id":"cebpf4jnsgd1na2vs0mg"},{"bike_id":"b4d6c002-9b92-4c57-953b-1be084d4749d","system_id":"levelo_inurba_marseille","lat":43.311674,"lon":5.387101,"is_reserved":false,"is_disabled":false,"rental_uris":{"android":"levelo://app?vid=b4d6c002-9b92-4c57-953b-1be084d4749d","ios":"levelo://app?vid=b4d6c002-9b92-4c57-953b-1be084d4749d"},"vehicle_type_id":"4","last_reported":1711433423,"current_range_meters":0,"station_id":"ce4bgv12rcd13ifvqcp0","pricing_plan_id":"cebpf4jnsgd1na2vs0mg"},{"bike_id":"4343e8ef-bf1f-4b68-99cc-8b868172661a","system_id":"levelo_inurba_marseille","lat":43.311714,"lon":5.387106,"is_reserved":false,"is_disabled":false,"rental_uris":{"android":"levelo://app?vid=4343e8ef-bf1f-4b68-99cc-8b868172661a","ios":"levelo://app?vid=4343e8ef-bf1f-4b68-99cc-8b868172661a"},"vehicle_type_id":"4","last_reported":1711433423,"current_range_meters":29600,"station_id":"ce4bgv12rcd13ifvqcp0","pricing_plan_id":"cebpf4jnsgd1na2vs0mg"},{"bike_id":"7436b88e-0991-4d88-a975-fb1163463dd5","system_id":"levelo_inurba_marseille","lat":43.311722,"lon":5.387247,"is_reserved":false,"is_disabled":false,"rental_uris":{"android":"levelo://app?vid=7436b88e-0991-4d88-a975-fb1163463dd5","ios":"levelo://app?vid=7436b88e-0991-4d88-a975-fb1163463dd5"},"vehicle_type_id":"4","last_reported":1711433423,"current_range_meters":31600,"station_id":"ce4bgv12rcd13ifvqcp0","pricing_plan_id":"cebpf4jnsgd1na2vs0mg"},{"bike_id":"25e91c1d-f508-487f-9acd-fad20d4065f6","system_id":"levelo_inurba_marseille","lat":43.31166,"lon":5.387126,"is_reserved":false,"is_disabled":false,"rental_uris":{"android":"levelo://app?vid=25e91c1d-f508-487f-9acd-fad20d4065f6","ios":"levelo://app?vid=25e91c1d-f508-487f-9acd-fad20d4065f6"},"vehicle_type_id":"4","last_reported":1711433423,"current_range_meters":29200,"station_id":"ce4bgv12rcd13ifvqcp0","pricing_plan_id":"cebpf4jnsgd1na2vs0mg"},{"bike_id":"a9215112-b165-45c8-a354-5aad312d9512","system_id":"levelo_inurba_marseille","lat":43.305364,"lon":5.384119,"is_reserved":false,"is_disabled":false,"rental_uris":{"android":"levelo://app?vid=a9215112-b165-45c8-a354-5aad312d9512","ios":"levelo://app?vid=a9215112-b165-45c8-a354-5aad312d9512"},"vehicle_type_id":"4","last_reported":1711433423,"current_range_meters":4000,"station_id":"ce4bgg92rcd13ifvqb30","pricing_plan_id":"cebpf4jnsgd1na2vs0mg"},{"bike_id":"21b297ff-a0fc-46ce-acdb-a3da7e047b26","system_id":"levelo_inurba_marseille","lat":43.286591,"lon":5.363346,"is_reserved":false,"is_disabled":false,"rental_uris":{"android":"levelo://app?vid=21b297ff-a0fc-46ce-acdb-a3da7e047b26","ios":"levelo://app?vid=21b297ff-a0fc-46ce-acdb-a3da7e047b26"},"vehicle_type_id":"4","last_reported":1711433423,"current_range_meters":18800,"station_id":"ce4bhah2rcd13ifvqej0","pricing_plan_id":"cebpf4jnsgd1na2vs0mg"},{"bike_id":"7d0bd386-91c5-4de7-8f8a-9e3eee4b72ce","system_id":"levelo_inurba_marseille","lat":43.31157,"lon":5.38736,"is_reserved":false,"is_disabled":false,"rental_uris":{"android":"levelo://app?vid=7d0bd386-91c5-4de7-8f8a-9e3eee4b72ce","ios":"levelo://app?vid=7d0bd386-91c5-4de7-8f8a-9e3eee4b72ce"},"vehicle_type_id":"4","last_reported":1711433423,"current_range_meters":30000,"station_id":"ce4bgv12rcd13ifvqcp0","pricing_plan_id":"cebpf4jnsgd1na2vs0mg"},{"bike_id":"5af3521e-7e1d-4487-a99c-96bd22091246","system_id":"levelo_inurba_marseille","lat":43.297794,"lon":5.370888,"is_reserved":false,"is_disabled":false,"rental_uris":{"android":"levelo://app?vid=5af3521e-7e1d-4487-a99c-96bd22091246","ios":"levelo://app?vid=5af3521e-7e1d-4487-a99c-96bd22091246"},"vehicle_type_id":"4","last_reported":1711433423,"current_range_meters":25600,"station_id":"ce4bgop2rcd13ifvqc1g","pricing_plan_id":"cebpf4jnsgd1na2vs0mg"},{"bike_id":"2b356d75-4941-483f-963e-6d38f54cee75","system_id":"levelo_inurba_marseille","lat":43.297794,"lon":5.370888,"is_reserved":false,"is_disabled":false,"rental_uris":{"android":"levelo://app?vid=2b356d75-4941-483f-963e-6d38f54cee75","ios":"levelo://app?vid=2b356d75-4941-483f-963e-6d38f54cee75"},"vehicle_type_id":"4","last_reported":1711433423,"current_range_meters":31600,"station_id":"ce4bgop2rcd13ifvqc1g","pricing_plan_id":"cebpf4jnsgd1na2vs0mg"},{"bike_id":"e2dee536-aa58-4f72-8385-a50516ed34b2","system_id":"levelo_inurba_marseille","lat":43.297866,"lon":5.370994,"is_reserved":false,"is_disabled":false,"rental_uris":{"android":"levelo://app?vid=e2dee536-aa58-4f72-8385-a50516ed34b2","ios":"levelo://app?vid=e2dee536-aa58-4f72-8385-a50516ed34b2"},"vehicle_type_id":"4","last_reported":1711433423,"current_range_meters":24000,"station_id":"ce4bgop2rcd13ifvqc1g","pricing_plan_id":"cebpf4jnsgd1na2vs0mg"},{"bike_id":"8024a7e8-c2c9-4d9c-88c3-538f6b5bfd9f","system_id":"levelo_inurba_marseille","lat":43.297774,"lon":5.370875,"is_reserved":false,"is_disabled":false,"rental_uris":{"android":"levelo://app?vid=8024a7e8-c2c9-4d9c-88c3-538f6b5bfd9f","ios":"levelo://app?vid=8024a7e8-c2c9-4d9c-88c3-538f6b5bfd9f"},"vehicle_type_id":"4","last_reported":1711433423,"current_range_meters":20800,"station_id":"ce4bgop2rcd13ifvqc1g","pricing_plan_id":"cebpf4jnsgd1na2vs0mg"},{"bike_id":"ad6a4613-f6ca-4fea-ba5a-48b698f640cd","system_id":"levelo_inurba_marseille","lat":43.29765,"lon":5.371018,"is_reserved":false,"is_disabled":false,"rental_uris":{"android":"levelo://app?vid=ad6a4613-f6ca-4fea-ba5a-48b698f640cd","ios":"levelo://app?vid=ad6a4613-f6ca-4fea-ba5a-48b698f640cd"},"vehicle_type_id":"4","last_reported":1711433423,"current_range_meters":23600,"station_id":"ce4bgop2rcd13ifvqc1g","pricing_plan_id":"cebpf4jnsgd1na2vs0mg"},{"bike_id":"e988db14-95c8-4606-867e-f017794948c6","system_id":"levelo_inurba_marseille","lat":43.295748,"lon":5.37522,"is_reserved":false,"is_disabled":false,"rental_uris":{"android":"levelo://app?vid=e988db14-95c8-4606-867e-f017794948c6","ios":"levelo://app?vid=e988db14-95c8-4606-867e-f017794948c6"},"vehicle_type_id":"4","last_reported":1711433423,"current_range_meters":11200,"station_id":"ce4bgh92rcd13ifvqb50","pricing_plan_id":"cebpf4jnsgd1na2vs0mg"},{"bike_id":"45b53918-0d65-40fa-9688-2d82f11c9a2a","system_id":"levelo_inurba_marseille","lat":43.297163,"lon":5.365866,"is_reserved":false,"is_disabled":false,"rental_uris":{"android":"levelo://app?vid=45b53918-0d65-40fa-9688-2d82f11c9a2a","ios":"levelo://app?vid=45b53918-0d65-40fa-9688-2d82f11c9a2a"},"vehicle_type_id":"4","last_reported":1711433423,"current_range_meters":30000,"station_id":"ce4bgn12rcd13ifvqbt0","pricing_plan_id":"cebpf4jnsgd1na2vs0mg"},{"bike_id":"d1081c21-8fe3-45c1-9163-f6393635e832","system_id":"levelo_inurba_marseille","lat":43.29714,"lon":5.366014,"is_reserved":false,"is_disabled":false,"rental_uris":{"android":"levelo://app?vid=d1081c21-8fe3-45c1-9163-f6393635e832","ios":"levelo://app?vid=d1081c21-8fe3-45c1-9163-f6393635e832"},"vehicle_type_id":"4","last_reported":1711433423,"current_range_meters":31200,"station_id":"ce4bgn12rcd13ifvqbt0","pricing_plan_id":"cebpf4jnsgd1na2vs0mg"},{"bike_id":"97e9c4a2-dd04-48d1-b53b-8bea725f8010","system_id":"levelo_inurba_marseille","lat":43.297163,"lon":5.365866,"is_reserved":false,"is_disabled":false,"rental_uris":{"android":"levelo://app?vid=97e9c4a2-dd04-48d1-b53b-8bea725f8010","ios":"levelo://app?vid=97e9c4a2-dd04-48d1-b53b-8bea725f8010"},"vehicle_type_id":"4","last_reported":1711433423,"current_range_meters":19600,"station_id":"ce4bgn12rcd13ifvqbt0","pricing_plan_id":"cebpf4jnsgd1na2vs0mg"},{"bike_id":"a64c375d-f2f8-4755-b6f7-8743db8cfbc3","system_id":"levelo_inurba_marseille","lat":43.297163,"lon":5.365866,"is_reserved":false,"is_disabled":false,"rental_uris":{"android":"levelo://app?vid=a64c375d-f2f8-4755-b6f7-8743db8cfbc3","ios":"levelo://app?vid=a64c375d-f2f8-4755-b6f7-8743db8cfbc3"},"vehicle_type_id":"4","last_reported":1711433423,"current_range_meters":31200,"station_id":"ce4bgn12rcd13ifvqbt0","pricing_plan_id":"cebpf4jnsgd1na2vs0mg"},{"bike_id":"cc6de53c-688b-482c-aba1-71ea4e3a836b","system_id":"levelo_inurba_marseille","lat":43.297071,"lon":5.366023,"is_reserved":false,"is_disabled":false,"rental_uris":{"android":"levelo://app?vid=cc6de53c-688b-482c-aba1-71ea4e3a836b","ios":"levelo://app?vid=cc6de53c-688b-482c-aba1-71ea4e3a836b"},"vehicle_type_id":"4","last_reported":1711433423,"current_range_meters":4800,"station_id":"ce4bgn12rcd13ifvqbt0","pricing_plan_id":"cebpf4jnsgd1na2vs0mg"},{"bike_id":"85a669f5-2610-4f20-8e1e-b7489f36a6fc","system_id":"levelo_inurba_marseille","lat":43.297163,"lon":5.365866,"is_reserved":false,"is_disabled":false,"rental_uris":{"android":"levelo://app?vid=85a669f5-2610-4f20-8e1e-b7489f36a6fc","ios":"levelo://app?vid=85a669f5-2610-4f20-8e1e-b7489f36a6fc"},"vehicle_type_id":"4","last_reported":1711433423,"current_range_meters":2800,"station_id":"ce4bgn12rcd13ifvqbt0","pricing_plan_id":"cebpf4jnsgd1na2vs0mg"},{"bike_id":"6e17a8b0-cf86-4965-b9e4-db0ed7a190d1","system_id":"levelo_inurba_marseille","lat":43.297163,"lon":5.365866,"is_reserved":false,"is_disabled":false,"rental_uris":{"android":"levelo://app?vid=6e17a8b0-cf86-4965-b9e4-db0ed7a190d1","ios":"levelo://app?vid=6e17a8b0-cf86-4965-b9e4-db0ed7a190d1"},"vehicle_type_id":"4","last_reported":1711433423,"current_range_meters":28400,"station_id":"ce4bgn12rcd13ifvqbt0","pricing_plan_id":"cebpf4jnsgd1na2vs0mg"},{"bike_id":"df1e6ea2-2d2a-4468-bf41-ca2da1e31172","system_id":"levelo_inurba_marseille","lat":43.31556,"lon":5.38842,"is_reserved":false,"is_disabled":false,"rental_uris":{"android":"levelo://app?vid=df1e6ea2-2d2a-4468-bf41-ca2da1e31172","ios":"levelo://app?vid=df1e6ea2-2d2a-4468-bf41-ca2da1e31172"},"vehicle_type_id":"4","last_reported":1711433423,"current_range_meters":8400,"station_id":"","pricing_plan_id":"cebpf4jnsgd1na2vs0mg"},{"bike_id":"e73c0ab6-1a5d-4940-8582-594df13cb563","system_id":"levelo_inurba_marseille","lat":43.296921,"lon":5.376579,"is_reserved":false,"is_disabled":false,"rental_uris":{"android":"levelo://app?vid=e73c0ab6-1a5d-4940-8582-594df13cb563","ios":"levelo://app?vid=e73c0ab6-1a5d-4940-8582-594df13cb563"},"vehicle_type_id":"4","last_reported":1711433423,"current_range_meters":31200,"station_id":"ce4bgkh2rcd13ifvqbl0","pricing_plan_id":"cebpf4jnsgd1na2vs0mg"},{"bike_id":"0280de21-8945-4d8c-9650-a016a909d780","system_id":"levelo_inurba_marseille","lat":43.296935,"lon":5.376544,"is_reserved":false,"is_disabled":false,"rental_uris":{"android":"levelo://app?vid=0280de21-8945-4d8c-9650-a016a909d780","ios":"levelo://app?vid=0280de21-8945-4d8c-9650-a016a909d780"},"vehicle_type_id":"4","last_reported":1711433423,"current_range_meters":24000,"station_id":"ce4bgkh2rcd13ifvqbl0","pricing_plan_id":"cebpf4jnsgd1na2vs0mg"},{"bike_id":"edfca1bd-22ce-42ff-8161-79622ce34bdd","system_id":"levelo_inurba_marseille","lat":43.296935,"lon":5.376544,"is_reserved":false,"is_disabled":false,"rental_uris":{"android":"levelo://app?vid=edfca1bd-22ce-42ff-8161-79622ce34bdd","ios":"levelo://app?vid=edfca1bd-22ce-42ff-8161-79622ce34bdd"},"vehicle_type_id":"4","last_reported":1711433423,"current_range_meters":8400,"station_id":"ce4bgkh2rcd13ifvqbl0","pricing_plan_id":"cebpf4jnsgd1na2vs0mg"},{"bike_id":"ed2c5971-82d2-459f-8218-6c5408d0434a","system_id":"levelo_inurba_marseille","lat":43.299028,"lon":5.381509,"is_reserved":false,"is_disabled":false,"rental_uris":{"android":"levelo://app?vid=ed2c5971-82d2-459f-8218-6c5408d0434a","ios":"levelo://app?vid=ed2c5971-82d2-459f-8218-6c5408d0434a"},"vehicle_type_id":"4","last_reported":1711433423,"current_range_meters":12800,"station_id":"ce4bgj12rcd13ifvqbc0","pricing_plan_id":"cebpf4jnsgd1na2vs0mg"},{"bike_id":"57c9c146-441f-4e45-a500-acb2bb5b9333","system_id":"levelo_inurba_marseille","lat":43.296935,"lon":5.376544,"is_reserved":false,"is_disabled":false,"rental_uris":{"android":"levelo://app?vid=57c9c146-441f-4e45-a500-acb2bb5b9333","ios":"levelo://app?vid=57c9c146-441f-4e45-a500-acb2bb5b9333"},"vehicle_type_id":"4","last_reported":1711433423,"current_range_meters":14400,"station_id":"ce4bgkh2rcd13ifvqbl0","pricing_plan_id":"cebpf4jnsgd1na2vs0mg"},{"bike_id":"f21d8bc2-3601-4ebe-a824-388b16d0d1f7","system_id":"levelo_inurba_marseille","lat":43.299028,"lon":5.381509,"is_reserved":false,"is_disabled":false,"rental_uris":{"android":"levelo://app?vid=f21d8bc2-3601-4ebe-a824-388b16d0d1f7","ios":"levelo://app?vid=f21d8bc2-3601-4ebe-a824-388b16d0d1f7"},"vehicle_type_id":"4","last_reported":1711433423,"current_range_meters":14800,"station_id":"ce4bgj12rcd13ifvqbc0","pricing_plan_id":"cebpf4jnsgd1na2vs0mg"},{"bike_id":"0fcd917e-d899-4955-8e6e-eb9d75c1cc89","system_id":"levelo_inurba_marseille","lat":43.296921,"lon":5.376579,"is_reserved":false,"is_disabled":false,"rental_uris":{"android":"levelo://app?vid=0fcd917e-d899-4955-8e6e-eb9d75c1cc89","ios":"levelo://app?vid=0fcd917e-d899-4955-8e6e-eb9d75c1cc89"},"vehicle_type_id":"4","last_reported":1711433423,"current_range_meters":28000,"station_id":"ce4bgkh2rcd13ifvqbl0","pricing_plan_id":"cebpf4jnsgd1na2vs0mg"},{"bike_id":"dc13b3c3-1208-4a6b-bc83-fd17d273541c","system_id":"levelo_inurba_marseille","lat":43.317557,"lon":5.390173,"is_reserved":false,"is_disabled":false,"rental_uris":{"android":"levelo://app?vid=dc13b3c3-1208-4a6b-bc83-fd17d273541c","ios":"levelo://app?vid=dc13b3c3-1208-4a6b-bc83-fd17d273541c"},"vehicle_type_id":"4","last_reported":1711433423,"current_range_meters":4000,"station_id":"ce4bhqp2rcd13ifvqhng","pricing_plan_id":"cebpf4jnsgd1na2vs0mg"},{"bike_id":"e09b4759-cb9e-40a0-a5fd-a1501b2d03d5","system_id":"levelo_inurba_marseille","lat":43.317557,"lon":5.390173,"is_reserved":false,"is_disabled":false,"rental_uris":{"android":"levelo://app?vid=e09b4759-cb9e-40a0-a5fd-a1501b2d03d5","ios":"levelo://app?vid=e09b4759-cb9e-40a0-a5fd-a1501b2d03d5"},"vehicle_type_id":"4","last_reported":1711433423,"current_range_meters":23200,"station_id":"ce4bhqp2rcd13ifvqhng","pricing_plan_id":"cebpf4jnsgd1na2vs0mg"},{"bike_id":"61811189-75cf-4d15-a6f4-1f7399341d0f","system_id":"levelo_inurba_marseille","lat":43.317536,"lon":5.390153,"is_reserved":false,"is_disabled":false,"rental_uris":{"android":"levelo://app?vid=61811189-75cf-4d15-a6f4-1f7399341d0f","ios":"levelo://app?vid=61811189-75cf-4d15-a6f4-1f7399341d0f"},"vehicle_type_id":"4","last_reported":1711433423,"current_range_meters":12800,"station_id":"ce4bhqp2rcd13ifvqhng","pricing_plan_id":"cebpf4jnsgd1na2vs0mg"},{"bike_id":"a931c455-d728-49e7-b88a-2acee71fb49c","system_id":"levelo_inurba_marseille","lat":43.317557,"lon":5.390173,"is_reserved":false,"is_disabled":false,"rental_uris":{"android":"levelo://app?vid=a931c455-d728-49e7-b88a-2acee71fb49c","ios":"levelo://app?vid=a931c455-d728-49e7-b88a-2acee71fb49c"},"vehicle_type_id":"4","last_reported":1711433423,"current_range_meters":25600,"station_id":"ce4bhqp2rcd13ifvqhng","pricing_plan_id":"cebpf4jnsgd1na2vs0mg"},{"bike_id":"74974c3e-a3ed-4db4-862b-8a3a954f9899","system_id":"levelo_inurba_marseille","lat":43.317557,"lon":5.390173,"is_reserved":false,"is_disabled":false,"rental_uris":{"android":"levelo://app?vid=74974c3e-a3ed-4db4-862b-8a3a954f9899","ios":"levelo://app?vid=74974c3e-a3ed-4db4-862b-8a3a954f9899"},"vehicle_type_id":"4","last_reported":1711433423,"current_range_meters":31200,"station_id":"ce4bhqp2rcd13ifvqhng","pricing_plan_id":"cebpf4jnsgd1na2vs0mg"},{"bike_id":"3cfcb15f-5e0d-4726-a726-880573b2cddf","system_id":"levelo_inurba_marseille","lat":43.317557,"lon":5.390173,"is_reserved":false,"is_disabled":false,"rental_uris":{"android":"levelo://app?vid=3cfcb15f-5e0d-4726-a726-880573b2cddf","ios":"levelo://app?vid=3cfcb15f-5e0d-4726-a726-880573b2cddf"},"vehicle_type_id":"4","last_reported":1711433423,"current_range_meters":30000,"station_id":"ce4bhqp2rcd13ifvqhng","pricing_plan_id":"cebpf4jnsgd1na2vs0mg"},{"bike_id":"96880fb3-9072-474a-b7df-b58771331d89","system_id":"levelo_inurba_marseille","lat":43.317551,"lon":5.390171,"is_reserved":false,"is_disabled":false,"rental_uris":{"android":"levelo://app?vid=96880fb3-9072-474a-b7df-b58771331d89","ios":"levelo://app?vid=96880fb3-9072-474a-b7df-b58771331d89"},"vehicle_type_id":"4","last_reported":1711433423,"current_range_meters":12800,"station_id":"ce4bhqp2rcd13ifvqhng","pricing_plan_id":"cebpf4jnsgd1na2vs0mg"},{"bike_id":"5a0fd1d2-8e65-443e-9fca-b2ba02caa8e8","system_id":"levelo_inurba_marseille","lat":43.317549,"lon":5.390183,"is_reserved":false,"is_disabled":false,"rental_uris":{"android":"levelo://app?vid=5a0fd1d2-8e65-443e-9fca-b2ba02caa8e8","ios":"levelo://app?vid=5a0fd1d2-8e65-443e-9fca-b2ba02caa8e8"},"vehicle_type_id":"4","last_reported":1711433423,"current_range_meters":23600,"station_id":"ce4bhqp2rcd13ifvqhng","pricing_plan_id":"cebpf4jnsgd1na2vs0mg"},{"bike_id":"d642746c-c3b3-4993-8c11-edc5a35ab173","system_id":"levelo_inurba_marseille","lat":43.317554,"lon":5.390195,"is_reserved":false,"is_disabled":false,"rental_uris":{"android":"levelo://app?vid=d642746c-c3b3-4993-8c11-edc5a35ab173","ios":"levelo://app?vid=d642746c-c3b3-4993-8c11-edc5a35ab173"},"vehicle_type_id":"4","last_reported":1711433423,"current_range_meters":24000,"station_id":"ce4bhqp2rcd13ifvqhng","pricing_plan_id":"cebpf4jnsgd1na2vs0mg"},{"bike_id":"12bcc4b1-90b3-4367-a071-3c213cb9835f","system_id":"levelo_inurba_marseille","lat":43.317563,"lon":5.390197,"is_reserved":false,"is_disabled":false,"rental_uris":{"android":"levelo://app?vid=12bcc4b1-90b3-4367-a071-3c213cb9835f","ios":"levelo://app?vid=12bcc4b1-90b3-4367-a071-3c213cb9835f"},"vehicle_type_id":"4","last_reported":1711433423,"current_range_meters":19600,"station_id":"ce4bhqp2rcd13ifvqhng","pricing_plan_id":"cebpf4jnsgd1na2vs0mg"},{"bike_id":"e2543e59-5919-4748-b780-e08e6e8869d4","system_id":"levelo_inurba_marseille","lat":43.31752,"lon":5.39022,"is_reserved":false,"is_disabled":false,"rental_uris":{"android":"levelo://app?vid=e2543e59-5919-4748-b780-e08e6e8869d4","ios":"levelo://app?vid=e2543e59-5919-4748-b780-e08e6e8869d4"},"vehicle_type_id":"4","last_reported":1711433423,"current_range_meters":28400,"station_id":"ce4bhqp2rcd13ifvqhng","pricing_plan_id":"cebpf4jnsgd1na2vs0mg"},{"bike_id":"b0618c2a-5e87-4a42-adfb-8de954a580f3","system_id":"levelo_inurba_marseille","lat":43.3044,"lon":5.38891,"is_reserved":false,"is_disabled":false,"rental_uris":{"android":"levelo://app?vid=b0618c2a-5e87-4a42-adfb-8de954a580f3","ios":"levelo://app?vid=b0618c2a-5e87-4a42-adfb-8de954a580f3"},"vehicle_type_id":"4","last_reported":1711433423,"current_range_meters":21600,"station_id":"ce4bgk12rcd13ifvqbi0","pricing_plan_id":"cebpf4jnsgd1na2vs0mg"},{"bike_id":"cd830c5a-172e-4cb2-999e-5048d2514e49","system_id":"levelo_inurba_marseille","lat":43.304373,"lon":5.388902,"is_reserved":false,"is_disabled":false,"rental_uris":{"android":"levelo://app?vid=cd830c5a-172e-4cb2-999e-5048d2514e49","ios":"levelo://app?vid=cd830c5a-172e-4cb2-999e-5048d2514e49"},"vehicle_type_id":"4","last_reported":1711433423,"current_range_meters":5200,"station_id":"ce4bgk12rcd13ifvqbi0","pricing_plan_id":"cebpf4jnsgd1na2vs0mg"},{"bike_id":"6c3355c1-fb34-49d0-aa64-e2f7b4c037be","system_id":"levelo_inurba_marseille","lat":43.295748,"lon":5.37522,"is_reserved":false,"is_disabled":false,"rental_uris":{"android":"levelo://app?vid=6c3355c1-fb34-49d0-aa64-e2f7b4c037be","ios":"levelo://app?vid=6c3355c1-fb34-49d0-aa64-e2f7b4c037be"},"vehicle_type_id":"4","last_reported":1711433423,"current_range_meters":23200,"station_id":"ce4bgh92rcd13ifvqb50","pricing_plan_id":"cebpf4jnsgd1na2vs0mg"},{"bike_id":"617b0e6f-676e-40f0-bbaf-c9395e5b4dcd","system_id":"levelo_inurba_marseille","lat":43.314779,"lon":5.391627,"is_reserved":false,"is_disabled":false,"rental_uris":{"android":"levelo://app?vid=617b0e6f-676e-40f0-bbaf-c9395e5b4dcd","ios":"levelo://app?vid=617b0e6f-676e-40f0-bbaf-c9395e5b4dcd"},"vehicle_type_id":"4","last_reported":1711433423,"current_range_meters":0,"station_id":"","pricing_plan_id":"cebpf4jnsgd1na2vs0mg"},{"bike_id":"8bc84c95-420f-4b8e-bb9c-97ad822bc20b","system_id":"levelo_inurba_marseille","lat":43.304274,"lon":5.388873,"is_reserved":false,"is_disabled":false,"rental_uris":{"android":"levelo://app?vid=8bc84c95-420f-4b8e-bb9c-97ad822bc20b","ios":"levelo://app?vid=8bc84c95-420f-4b8e-bb9c-97ad822bc20b"},"vehicle_type_id":"4","last_reported":1711433423,"current_range_meters":3200,"station_id":"ce4bgk12rcd13ifvqbi0","pricing_plan_id":"cebpf4jnsgd1na2vs0mg"},{"bike_id":"b0d70539-152b-404a-b2cf-4c997140854b","system_id":"levelo_inurba_marseille","lat":43.304317,"lon":5.388956,"is_reserved":false,"is_disabled":false,"rental_uris":{"android":"levelo://app?vid=b0d70539-152b-404a-b2cf-4c997140854b","ios":"levelo://app?vid=b0d70539-152b-404a-b2cf-4c997140854b"},"vehicle_type_id":"4","last_reported":1711433423,"current_range_meters":21200,"station_id":"ce4bgk12rcd13ifvqbi0","pricing_plan_id":"cebpf4jnsgd1na2vs0mg"},{"bike_id":"f1deb8cc-d349-4644-8331-f1f861d316a4","system_id":"levelo_inurba_marseille","lat":43.295748,"lon":5.37522,"is_reserved":false,"is_disabled":false,"rental_uris":{"android":"levelo://app?vid=f1deb8cc-d349-4644-8331-f1f861d316a4","ios":"levelo://app?vid=f1deb8cc-d349-4644-8331-f1f861d316a4"},"vehicle_type_id":"4","last_reported":1711433423,"current_range_meters":12800,"station_id":"ce4bgh92rcd13ifvqb50","pricing_plan_id":"cebpf4jnsgd1na2vs0mg"},{"bike_id":"bf9bf615-bce6-4b76-a67d-ae2385bcd89c","system_id":"levelo_inurba_marseille","lat":43.314609,"lon":5.392017,"is_reserved":false,"is_disabled":false,"rental_uris":{"android":"levelo://app?vid=bf9bf615-bce6-4b76-a67d-ae2385bcd89c","ios":"levelo://app?vid=bf9bf615-bce6-4b76-a67d-ae2385bcd89c"},"vehicle_type_id":"4","last_reported":1711433423,"current_range_meters":25600,"station_id":"","pricing_plan_id":"cebpf4jnsgd1na2vs0mg"},{"bike_id":"b2089765-245d-4943-8e6d-865b0835862d","system_id":"levelo_inurba_marseille","lat":43.299651,"lon":5.385049,"is_reserved":false,"is_disabled":false,"rental_uris":{"android":"levelo://app?vid=b2089765-245d-4943-8e6d-865b0835862d","ios":"levelo://app?vid=b2089765-245d-4943-8e6d-865b0835862d"},"vehicle_type_id":"4","last_reported":1711433423,"current_range_meters":15600,"station_id":"ce4bgj92rcd13ifvqbd0","pricing_plan_id":"cebpf4jnsgd1na2vs0mg"},{"bike_id":"9f3438b4-4b40-4c12-80e5-e9de4f2806c4","system_id":"levelo_inurba_marseille","lat":43.29849,"lon":5.38385,"is_reserved":false,"is_disabled":false,"rental_uris":{"android":"levelo://app?vid=9f3438b4-4b40-4c12-80e5-e9de4f2806c4","ios":"levelo://app?vid=9f3438b4-4b40-4c12-80e5-e9de4f2806c4"},"vehicle_type_id":"4","last_reported":1711433423,"current_range_meters":12400,"station_id":"","pricing_plan_id":"cebpf4jnsgd1na2vs0mg"},{"bike_id":"c56e3e85-d19c-4dc5-b26c-a5fb7445c568","system_id":"levelo_inurba_marseille","lat":43.323637,"lon":5.388779,"is_reserved":false,"is_disabled":false,"rental_uris":{"android":"levelo://app?vid=c56e3e85-d19c-4dc5-b26c-a5fb7445c568","ios":"levelo://app?vid=c56e3e85-d19c-4dc5-b26c-a5fb7445c568"},"vehicle_type_id":"4","last_reported":1711433423,"current_range_meters":8800,"station_id":"ce4bhqp2rcd13ifvqhog","pricing_plan_id":"cebpf4jnsgd1na2vs0mg"},{"bike_id":"c79d8d04-ba50-4e64-9b6e-b4ac730916f1","system_id":"levelo_inurba_marseille","lat":43.32367,"lon":5.388836,"is_reserved":false,"is_disabled":false,"rental_uris":{"android":"levelo://app?vid=c79d8d04-ba50-4e64-9b6e-b4ac730916f1","ios":"levelo://app?vid=c79d8d04-ba50-4e64-9b6e-b4ac730916f1"},"vehicle_type_id":"4","last_reported":1711433423,"current_range_meters":24400,"station_id":"ce4bhqp2rcd13ifvqhog","pricing_plan_id":"cebpf4jnsgd1na2vs0mg"},{"bike_id":"f080c38a-ccbf-4263-9d83-b5f22dd9c1fa","system_id":"levelo_inurba_marseille","lat":43.32367,"lon":5.388836,"is_reserved":false,"is_disabled":false,"rental_uris":{"android":"levelo://app?vid=f080c38a-ccbf-4263-9d83-b5f22dd9c1fa","ios":"levelo://app?vid=f080c38a-ccbf-4263-9d83-b5f22dd9c1fa"},"vehicle_type_id":"4","last_reported":1711433423,"current_range_meters":23600,"station_id":"ce4bhqp2rcd13ifvqhog","pricing_plan_id":"cebpf4jnsgd1na2vs0mg"},{"bike_id":"77486bf8-10de-4a8b-9257-6bb6d2494649","system_id":"levelo_inurba_marseille","lat":43.32367,"lon":5.388836,"is_reserved":false,"is_disabled":false,"rental_uris":{"android":"levelo://app?vid=77486bf8-10de-4a8b-9257-6bb6d2494649","ios":"levelo://app?vid=77486bf8-10de-4a8b-9257-6bb6d2494649"},"vehicle_type_id":"4","last_reported":1711433423,"current_range_meters":30400,"station_id":"ce4bhqp2rcd13ifvqhog","pricing_plan_id":"cebpf4jnsgd1na2vs0mg"},{"bike_id":"66d1d5b6-d367-4c34-a29a-5ffebfad2831","system_id":"levelo_inurba_marseille","lat":43.32367,"lon":5.388836,"is_reserved":false,"is_disabled":false,"rental_uris":{"android":"levelo://app?vid=66d1d5b6-d367-4c34-a29a-5ffebfad2831","ios":"levelo://app?vid=66d1d5b6-d367-4c34-a29a-5ffebfad2831"},"vehicle_type_id":"4","last_reported":1711433423,"current_range_meters":14400,"station_id":"ce4bhqp2rcd13ifvqhog","pricing_plan_id":"cebpf4jnsgd1na2vs0mg"},{"bike_id":"be81ae6f-31d4-4972-a7fd-8553b4e3336e","system_id":"levelo_inurba_marseille","lat":43.3236,"lon":5.38896,"is_reserved":false,"is_disabled":false,"rental_uris":{"android":"levelo://app?vid=be81ae6f-31d4-4972-a7fd-8553b4e3336e","ios":"levelo://app?vid=be81ae6f-31d4-4972-a7fd-8553b4e3336e"},"vehicle_type_id":"4","last_reported":1711433423,"current_range_meters":27200,"station_id":"ce4bhqp2rcd13ifvqhog","pricing_plan_id":"cebpf4jnsgd1na2vs0mg"},{"bike_id":"4daa494b-93a0-4462-8832-76ddd2a66a5c","system_id":"levelo_inurba_marseille","lat":43.293009,"lon":5.374584,"is_reserved":false,"is_disabled":false,"rental_uris":{"android":"levelo://app?vid=4daa494b-93a0-4462-8832-76ddd2a66a5c","ios":"levelo://app?vid=4daa494b-93a0-4462-8832-76ddd2a66a5c"},"vehicle_type_id":"4","last_reported":1711433423,"current_range_meters":22000,"station_id":"ce4bgi12rcd13ifvqb70","pricing_plan_id":"cebpf4jnsgd1na2vs0mg"},{"bike_id":"745bd632-2d10-41a5-971f-404f4e063f24","system_id":"levelo_inurba_marseille","lat":43.293009,"lon":5.374584,"is_reserved":false,"is_disabled":false,"rental_uris":{"android":"levelo://app?vid=745bd632-2d10-41a5-971f-404f4e063f24","ios":"levelo://app?vid=745bd632-2d10-41a5-971f-404f4e063f24"},"vehicle_type_id":"4","last_reported":1711433423,"current_range_meters":13600,"station_id":"ce4bgi12rcd13ifvqb70","pricing_plan_id":"cebpf4jnsgd1na2vs0mg"},{"bike_id":"d2d5c452-ab64-423c-977f-636480555f94","system_id":"levelo_inurba_marseille","lat":43.303002,"lon":5.392142,"is_reserved":false,"is_disabled":false,"rental_uris":{"android":"levelo://app?vid=d2d5c452-ab64-423c-977f-636480555f94","ios":"levelo://app?vid=d2d5c452-ab64-423c-977f-636480555f94"},"vehicle_type_id":"4","last_reported":1711433423,"current_range_meters":21200,"station_id":"ce4bgkh2rcd13ifvqbk0","pricing_plan_id":"cebpf4jnsgd1na2vs0mg"},{"bike_id":"13f13b1d-f93e-4063-907e-c0cdf6098c7f","system_id":"levelo_inurba_marseille","lat":43.303002,"lon":5.392142,"is_reserved":false,"is_disabled":false,"rental_uris":{"android":"levelo://app?vid=13f13b1d-f93e-4063-907e-c0cdf6098c7f","ios":"levelo://app?vid=13f13b1d-f93e-4063-907e-c0cdf6098c7f"},"vehicle_type_id":"4","last_reported":1711433423,"current_range_meters":27600,"station_id":"ce4bgkh2rcd13ifvqbk0","pricing_plan_id":"cebpf4jnsgd1na2vs0mg"},{"bike_id":"7b085e9b-f9c8-4539-a113-d36d09a69ead","system_id":"levelo_inurba_marseille","lat":43.302992,"lon":5.392136,"is_reserved":false,"is_disabled":false,"rental_uris":{"android":"levelo://app?vid=7b085e9b-f9c8-4539-a113-d36d09a69ead","ios":"levelo://app?vid=7b085e9b-f9c8-4539-a113-d36d09a69ead"},"vehicle_type_id":"4","last_reported":1711433423,"current_range_meters":22400,"station_id":"ce4bgkh2rcd13ifvqbk0","pricing_plan_id":"cebpf4jnsgd1na2vs0mg"},{"bike_id":"ea6c9b74-f05e-40e9-99b7-d61e3dca9f2b","system_id":"levelo_inurba_marseille","lat":43.303002,"lon":5.392142,"is_reserved":false,"is_disabled":false,"rental_uris":{"android":"levelo://app?vid=ea6c9b74-f05e-40e9-99b7-d61e3dca9f2b","ios":"levelo://app?vid=ea6c9b74-f05e-40e9-99b7-d61e3dca9f2b"},"vehicle_type_id":"4","last_reported":1711433423,"current_range_meters":24000,"station_id":"ce4bgkh2rcd13ifvqbk0","pricing_plan_id":"cebpf4jnsgd1na2vs0mg"},{"bike_id":"cac10537-6dfe-422d-9a5b-20dae560a1fe","system_id":"levelo_inurba_marseille","lat":43.302992,"lon":5.392136,"is_reserved":false,"is_disabled":false,"rental_uris":{"android":"levelo://app?vid=cac10537-6dfe-422d-9a5b-20dae560a1fe","ios":"levelo://app?vid=cac10537-6dfe-422d-9a5b-20dae560a1fe"},"vehicle_type_id":"4","last_reported":1711433423,"current_range_meters":31600,"station_id":"ce4bgkh2rcd13ifvqbk0","pricing_plan_id":"cebpf4jnsgd1na2vs0mg"},{"bike_id":"e1ca1aaa-b234-47c2-b89a-bf3dc160bfd3","system_id":"levelo_inurba_marseille","lat":43.302992,"lon":5.392136,"is_reserved":false,"is_disabled":false,"rental_uris":{"android":"levelo://app?vid=e1ca1aaa-b234-47c2-b89a-bf3dc160bfd3","ios":"levelo://app?vid=e1ca1aaa-b234-47c2-b89a-bf3dc160bfd3"},"vehicle_type_id":"4","last_reported":1711433423,"current_range_meters":30800,"station_id":"ce4bgkh2rcd13ifvqbk0","pricing_plan_id":"cebpf4jnsgd1na2vs0mg"},{"bike_id":"cef63863-fd03-427b-8b07-56c3ab0a6bbe","system_id":"levelo_inurba_marseille","lat":43.292311,"lon":5.360731,"is_reserved":false,"is_disabled":false,"rental_uris":{"android":"levelo://app?vid=cef63863-fd03-427b-8b07-56c3ab0a6bbe","ios":"levelo://app?vid=cef63863-fd03-427b-8b07-56c3ab0a6bbe"},"vehicle_type_id":"4","last_reported":1711433423,"current_range_meters":28400,"station_id":"ce4bhbh2rcd13ifvqeqg","pricing_plan_id":"cebpf4jnsgd1na2vs0mg"},{"bike_id":"1a172bd6-b698-4dea-9d3c-f0fb30980105","system_id":"levelo_inurba_marseille","lat":43.292311,"lon":5.360731,"is_reserved":false,"is_disabled":false,"rental_uris":{"android":"levelo://app?vid=1a172bd6-b698-4dea-9d3c-f0fb30980105","ios":"levelo://app?vid=1a172bd6-b698-4dea-9d3c-f0fb30980105"},"vehicle_type_id":"4","last_reported":1711433423,"current_range_meters":29200,"station_id":"ce4bhbh2rcd13ifvqeqg","pricing_plan_id":"cebpf4jnsgd1na2vs0mg"},{"bike_id":"72154de6-756f-4110-acbb-e106b43ac5d1","system_id":"levelo_inurba_marseille","lat":43.300971,"lon":5.390753,"is_reserved":false,"is_disabled":false,"rental_uris":{"android":"levelo://app?vid=72154de6-756f-4110-acbb-e106b43ac5d1","ios":"levelo://app?vid=72154de6-756f-4110-acbb-e106b43ac5d1"},"vehicle_type_id":"4","last_reported":1711433423,"current_range_meters":16400,"station_id":"ce4bh192rcd13ifvqdb0","pricing_plan_id":"cebpf4jnsgd1na2vs0mg"},{"bike_id":"8aea17bc-3d1a-4289-ac2b-16732dc3773d","system_id":"levelo_inurba_marseille","lat":43.292311,"lon":5.360731,"is_reserved":false,"is_disabled":false,"rental_uris":{"android":"levelo://app?vid=8aea17bc-3d1a-4289-ac2b-16732dc3773d","ios":"levelo://app?vid=8aea17bc-3d1a-4289-ac2b-16732dc3773d"},"vehicle_type_id":"4","last_reported":1711433423,"current_range_meters":20000,"station_id":"ce4bhbh2rcd13ifvqeqg","pricing_plan_id":"cebpf4jnsgd1na2vs0mg"},{"bike_id":"bbfa64f3-6f6b-4825-a854-76c3cd11ea4e","system_id":"levelo_inurba_marseille","lat":43.300852,"lon":5.390859,"is_reserved":false,"is_disabled":false,"rental_uris":{"android":"levelo://app?vid=bbfa64f3-6f6b-4825-a854-76c3cd11ea4e","ios":"levelo://app?vid=bbfa64f3-6f6b-4825-a854-76c3cd11ea4e"},"vehicle_type_id":"4","last_reported":1711433423,"current_range_meters":31600,"station_id":"ce4bh192rcd13ifvqdb0","pricing_plan_id":"cebpf4jnsgd1na2vs0mg"},{"bike_id":"7a05dfde-e4fe-4597-ab56-abc7a2dc8a8d","system_id":"levelo_inurba_marseille","lat":43.300954,"lon":5.390771,"is_reserved":false,"is_disabled":false,"rental_uris":{"android":"levelo://app?vid=7a05dfde-e4fe-4597-ab56-abc7a2dc8a8d","ios":"levelo://app?vid=7a05dfde-e4fe-4597-ab56-abc7a2dc8a8d"},"vehicle_type_id":"4","last_reported":1711433423,"current_range_meters":19200,"station_id":"ce4bh192rcd13ifvqdb0","pricing_plan_id":"cebpf4jnsgd1na2vs0mg"},{"bike_id":"a3b355bb-7cb5-49ff-bf31-df5eb4af5425","system_id":"levelo_inurba_marseille","lat":43.292311,"lon":5.360731,"is_reserved":false,"is_disabled":false,"rental_uris":{"android":"levelo://app?vid=a3b355bb-7cb5-49ff-bf31-df5eb4af5425","ios":"levelo://app?vid=a3b355bb-7cb5-49ff-bf31-df5eb4af5425"},"vehicle_type_id":"4","last_reported":1711433423,"current_range_meters":18000,"station_id":"ce4bhbh2rcd13ifvqeqg","pricing_plan_id":"cebpf4jnsgd1na2vs0mg"},{"bike_id":"172bf3dd-3969-4d04-bf51-e7aa16eb319f","system_id":"levelo_inurba_marseille","lat":43.300852,"lon":5.390859,"is_reserved":false,"is_disabled":false,"rental_uris":{"android":"levelo://app?vid=172bf3dd-3969-4d04-bf51-e7aa16eb319f","ios":"levelo://app?vid=172bf3dd-3969-4d04-bf51-e7aa16eb319f"},"vehicle_type_id":"4","last_reported":1711433423,"current_range_meters":22400,"station_id":"ce4bh192rcd13ifvqdb0","pricing_plan_id":"cebpf4jnsgd1na2vs0mg"},{"bike_id":"da782ed3-9ee3-4ea5-afd7-737ed798ab30","system_id":"levelo_inurba_marseille","lat":43.300852,"lon":5.390859,"is_reserved":false,"is_disabled":false,"rental_uris":{"android":"levelo://app?vid=da782ed3-9ee3-4ea5-afd7-737ed798ab30","ios":"levelo://app?vid=da782ed3-9ee3-4ea5-afd7-737ed798ab30"},"vehicle_type_id":"4","last_reported":1711433423,"current_range_meters":23600,"station_id":"ce4bh192rcd13ifvqdb0","pricing_plan_id":"cebpf4jnsgd1na2vs0mg"},{"bike_id":"940c4f71-ee90-408e-ab8d-275e0a673f47","system_id":"levelo_inurba_marseille","lat":43.292311,"lon":5.360731,"is_reserved":false,"is_disabled":false,"rental_uris":{"android":"levelo://app?vid=940c4f71-ee90-408e-ab8d-275e0a673f47","ios":"levelo://app?vid=940c4f71-ee90-408e-ab8d-275e0a673f47"},"vehicle_type_id":"4","last_reported":1711433423,"current_range_meters":22400,"station_id":"ce4bhbh2rcd13ifvqeqg","pricing_plan_id":"cebpf4jnsgd1na2vs0mg"},{"bike_id":"e68a4726-3ff8-40bd-8fa6-c696b91bb442","system_id":"levelo_inurba_marseille","lat":43.300852,"lon":5.390859,"is_reserved":false,"is_disabled":false,"rental_uris":{"android":"levelo://app?vid=e68a4726-3ff8-40bd-8fa6-c696b91bb442","ios":"levelo://app?vid=e68a4726-3ff8-40bd-8fa6-c696b91bb442"},"vehicle_type_id":"4","last_reported":1711433423,"current_range_meters":25200,"station_id":"ce4bh192rcd13ifvqdb0","pricing_plan_id":"cebpf4jnsgd1na2vs0mg"},