{"last_updated":1732115361,"ttl":60,"version":"2.2","data":{"bikes":[{"bike_id":"853d401e-7787-497e-94b0-c97c84db5d1b","system_id":"levelo_inurba_marseille","lat":43.270611,"lon":5.402712,"is_reserved":false,"is_disabled":false,"rental_uris":{"android":"levelo://app?vid=853d401e-7787-497e-94b0-c97c84db5d1b","ios":"levelo://app?vid=853d401e-7787-497e-94b0-c97c84db5d1b"},"vehicle_type_id":"4","last_reported":1732115361,"current_range_meters":8000,"station_id":"ce4bhk92rcd13ifvqgc0","pricing_plan_id":"cebpf4jnsgd1na2vs0mg"},{"bike_id":"eb120ebd-7084-48cd-a344-3a07b185bbe1","system_id":"levelo_inurba_marseille","lat":43.29725,"lon":5.37686,"is_reserved":false,"is_disabled":false,"rental_uris":{"android":"levelo://app?vid=eb120ebd-7084-48cd-a344-3a07b185bbe1","ios":"levelo://app?vid=eb120ebd-7084-48cd-a344-3a07b185bbe1"},"vehicle_type_id":"4","last_reported":1732115361,"current_range_meters":39200,"station_id":"ce4bgkh2rcd13ifvqbl0","pricing_plan_id":"cebpf4jnsgd1na2vs0mg"},{"bike_id":"57ed1151-4727-48fa-ba4f-862bfe0f24cc","system_id":"levelo_inurba_marseille","lat":43.25008,"lon":5.38934,"is_reserved":false,"is_disabled":false,"rental_uris":{"android":"levelo://app?vid=57ed1151-4727-48fa-ba4f-862bfe0f24cc","ios":"levelo://app?vid=57ed1151-4727-48fa-ba4f-862bfe0f24cc"},"vehicle_type_id":"4","last_reported":1732115361,"current_range_meters":31200,"station_id":"ce4bhgp2rcd13ifvqfd0","pricing_plan_id":"cebpf4jnsgd1na2vs0mg"},{"bike_id":"ad065e1b-a695-4ca7-9c8e-fe7c98272c45","system_id":"levelo_inurba_marseille","lat":43.28032,"lon":5.36936,"is_reserved":false,"is_disabled":false,"rental_uris":{"android":"levelo://app?vid=ad065e1b-a695-4ca7-9c8e-fe7c98272c45","ios":"levelo://app?vid=ad065e1b-a695-4ca7-9c8e-fe7c98272c45"},"vehicle_type_id":"4","last_reported":1732115361,"current_range_meters":39200,"station_id":"ce4bha12rcd13ifvqef0","pricing_plan_id":"cebpf4jnsgd1na2vs0mg"},{"bike_id":"81d34042-a037-42c7-9436-1187b5706698","system_id":"levelo_inurba_marseille","lat":43.31018,"lon":5.40309,"is_reserved":false,"is_disabled":false,"rental_uris":{"android":"levelo://app?vid=81d34042-a037-42c7-9436-1187b5706698","ios":"levelo://app?vid=81d34042-a037-42c7-9436-1187b5706698"},"vehicle_type_id":"4","last_reported":1732115361,"current_range_meters":16800,"station_id":"","pricing_plan_id":"cebpf4jnsgd1na2vs0mg"},{"bike_id":"a29be751-0577-482b-b167-9e96e4dbacd4","system_id":"levelo_inurba_marseille","lat":43.28576,"lon":5.39521,"is_reserved":false,"is_disabled":false,"rental_uris":{"android":"levelo://app?vid=a29be751-0577-482b-b167-9e96e4dbacd4","ios":"levelo://app?vid=a29be751-0577-482b-b167-9e96e4dbacd4"},"vehicle_type_id":"4","last_reported":1732115361,"current_range_meters":29600,"station_id":"ce4bh292rcd13ifvqdg0","pricing_plan_id":"cebpf4jnsgd1na2vs0mg"},{"bike_id":"57c8a187-61e5-47e3-ab84-0d2b63b271ea","system_id":"levelo_inurba_marseille","lat":43.255,"lon":5.37656,"is_reserved":false,"is_disabled":false,"rental_uris":{"android":"levelo://app?vid=57c8a187-61e5-47e3-ab84-0d2b63b271ea","ios":"levelo://app?vid=57c8a187-61e5-47e3-ab84-0d2b63b271ea"},"vehicle_type_id":"4","last_reported":1732115361,"current_range_meters":16000,"station_id":"ce4bhh12rcd13ifvqff0","pricing_plan_id":"cebpf4jnsgd1na2vs0mg"},{"bike_id":"049f6bf5-8afc-4471-84cc-030f166fd238","system_id":"levelo_inurba_marseille","lat":43.30886,"lon":5.39654,"is_reserved":false,"is_disabled":false,"rental_uris":{"android":"levelo://app?vid=049f6bf5-8afc-4471-84cc-030f166fd238","ios":"levelo://app?vid=049f6bf5-8afc-4471-84cc-030f166fd238"},"vehicle_type_id":"4","last_reported":1732115361,"current_range_meters":12000,"station_id":"ce4bh012rcd13ifvqcv0","pricing_plan_id":"cebpf4jnsgd1na2vs0mg"},{"bike_id":"faaa07fe-d059-4c7c-8d3a-4406c48468a3","system_id":"levelo_inurba_marseille","lat":43.25107,"lon":5.4033,"is_reserved":false,"is_disabled":true,"rental_uris":{"android":"levelo://app?vid=faaa07fe-d059-4c7c-8d3a-4406c48468a3","ios":"levelo://app?vid=faaa07fe-d059-4c7c-8d3a-4406c48468a3"},"vehicle_type_id":"4","last_reported":1732115361,"current_range_meters":400,"station_id":"ce4bhlh2rcd13ifvqgig","pricing_plan_id":"cebpf4jnsgd1na2vs0mg"},{"bike_id":"35205f62-6f4f-4cf5-8717-e2fd02e49339","system_id":"levelo_inurba_marseille","lat":43.26556,"lon":5.39034,"is_reserved":false,"is_disabled":false,"rental_uris":{"android":"levelo://app?vid=35205f62-6f4f-4cf5-8717-e2fd02e49339","ios":"levelo://app?vid=35205f62-6f4f-4cf5-8717-e2fd02e49339"},"vehicle_type_id":"4","last_reported":1732115361,"current_range_meters":30800,"station_id":"ce4bhe12rcd13ifvqf30","pricing_plan_id":"cebpf4jnsgd1na2vs0mg"},{"bike_id":"598200ff-ceae-4021-98d5-973a94627be8","system_id":"levelo_inurba_marseille","lat":43.3014,"lon":5.3741,"is_reserved":false,"is_disabled":false,"rental_uris":{"android":"levelo://app?vid=598200ff-ceae-4021-98d5-973a94627be8","ios":"levelo://app?vid=598200ff-ceae-4021-98d5-973a94627be8"},"vehicle_type_id":"4","last_reported":1732115361,"current_range_meters":14800,"station_id":"ce4bgs92rcd13ifvqcc0","pricing_plan_id":"cebpf4jnsgd1na2vs0mg"},{"bike_id":"0b307a74-72b6-4d2b-9bce-e8a817a3fabb","system_id":"levelo_inurba_marseille","lat":43.27661,"lon":5.38892,"is_reserved":false,"is_disabled":false,"rental_uris":{"android":"levelo://app?vid=0b307a74-72b6-4d2b-9bce-e8a817a3fabb","ios":"levelo://app?vid=0b307a74-72b6-4d2b-9bce-e8a817a3fabb"},"vehicle_type_id":"4","last_reported":1732115361,"current_range_meters":38000,"station_id":"ce4bhi12rcd13ifvqfo0","pricing_plan_id":"cebpf4jnsgd1na2vs0mg"},{"bike_id":"2f43f49b-5fcb-49b4-8581-46d427c121c8","system_id":"levelo_inurba_marseille","lat":43.30473,"lon":5.37906,"is_reserved":false,"is_disabled":false,"rental_uris":{"android":"levelo://app?vid=2f43f49b-5fcb-49b4-8581-46d427c121c8","ios":"levelo://app?vid=2f43f49b-5fcb-49b4-8581-46d427c121c8"},"vehicle_type_id":"4","last_reported":1732115361,"current_range_meters":23200,"station_id":"ce4bgup2rcd13ifvqcn0","pricing_plan_id":"cebpf4jnsgd1na2vs0mg"},{"bike_id":"6686a329-719d-4d7f-8d96-538c319ae80c","system_id":"levelo_inurba_marseille","lat":43.26577,"lon":5.39013,"is_reserved":false,"is_disabled":false,"rental_uris":{"android":"levelo://app?vid=6686a329-719d-4d7f-8d96-538c319ae80c","ios":"levelo://app?vid=6686a329-719d-4d7f-8d96-538c319ae80c"},"vehicle_type_id":"4","last_reported":1732115361,"current_range_meters":11600,"station_id":"ce4bhe12rcd13ifvqf30","pricing_plan_id":"cebpf4jnsgd1na2vs0mg"},{"bike_id":"730321d2-de66-475f-920a-cd577dc02cf8","system_id":"levelo_inurba_marseille","lat":43.31762,"lon":5.39023,"is_reserved":false,"is_disabled":false,"rental_uris":{"android":"levelo://app?vid=730321d2-de66-475f-920a-cd577dc02cf8","ios":"levelo://app?vid=730321d2-de66-475f-920a-cd577dc02cf8"},"vehicle_type_id":"4","last_reported":1732115361,"current_range_meters":32800,"station_id":"ce4bhqp2rcd13ifvqhng","pricing_plan_id":"cebpf4jnsgd1na2vs0mg"},{"bike_id":"f886d6a8-2e84-4840-8c77-49012563a660","system_id":"levelo_inurba_marseille","lat":43.26781,"lon":5.39419,"is_reserved":false,"is_disabled":false,"rental_uris":{"android":"levelo://app?vid=f886d6a8-2e84-4840-8c77-49012563a660","ios":"levelo://app?vid=f886d6a8-2e84-4840-8c77-49012563a660"},"vehicle_type_id":"4","last_reported":1732115361,"current_range_meters":37600,"station_id":"ce4bhh12rcd13ifvqfg0","pricing_plan_id":"cebpf4jnsgd1na2vs0mg"},{"bike_id":"8233eec3-306e-4fb8-bb57-4a10a1798702","system_id":"levelo_inurba_marseille","lat":43.29051,"lon":5.35915,"is_reserved":false,"is_disabled":false,"rental_uris":{"android":"levelo://app?vid=8233eec3-306e-4fb8-bb57-4a10a1798702","ios":"levelo://app?vid=8233eec3-306e-4fb8-bb57-4a10a1798702"},"vehicle_type_id":"4","last_reported":1732115361,"current_range_meters":30400,"station_id":"ce4bha92rcd13ifvqeg0","pricing_plan_id":"cebpf4jnsgd1na2vs0mg"},{"bike_id":"aaa68104-60d6-454b-9438-4e38b46ffb6c","system_id":"levelo_inurba_marseille","lat":43.30819,"lon":5.37065,"is_reserved":false,"is_disabled":false,"rental_uris":{"android":"levelo://app?vid=aaa68104-60d6-454b-9438-4e38b46ffb6c","ios":"levelo://app?vid=aaa68104-60d6-454b-9438-4e38b46ffb6c"},"vehicle_type_id":"4","last_reported":1732115361,"current_range_meters":23200,"station_id":"","pricing_plan_id":"cebpf4jnsgd1na2vs0mg"},{"bike_id":"bdb222b3-aa0b-4d6f-9d30-1ad99ce98210","system_id":"levelo_inurba_marseille","lat":43.31363,"lon":5.38495,"is_reserved":false,"is_disabled":false,"rental_uris":{"android":"levelo://app?vid=bdb222b3-aa0b-4d6f-9d30-1ad99ce98210","ios":"levelo://app?vid=bdb222b3-aa0b-4d6f-9d30-1ad99ce98210"},"vehicle_type_id":"4","last_reported":1732115361,"current_range_meters":15200,"station_id":"ce4bgt92rcd13ifvqcf0","pricing_plan_id":"cebpf4jnsgd1na2vs0mg"},{"bike_id":"837d9479-5470-46d1-8a03-bdf27063ea4e","system_id":"levelo_inurba_marseille","lat":43.30554,"lon":5.36535,"is_reserved":false,"is_disabled":false,"rental_uris":{"android":"levelo://app?vid=837d9479-5470-46d1-8a03-bdf27063ea4e","ios":"levelo://app?vid=837d9479-5470-46d1-8a03-bdf27063ea4e"},"vehicle_type_id":"4","last_reported":1732115361,"current_range_meters":30800,"station_id":"ce4bgs12rcd13ifvqcag","pricing_plan_id":"cebpf4jnsgd1na2vs0mg"},{"bike_id":"cf3d1588-7684-4337-b452-19dd645253f7","system_id":"levelo_inurba_marseille","lat":43.29897,"lon":5.43673,"is_reserved":false,"is_disabled":false,"rental_uris":{"android":"levelo://app?vid=cf3d1588-7684-4337-b452-19dd645253f7","ios":"levelo://app?vid=cf3d1588-7684-4337-b452-19dd645253f7"},"vehicle_type_id":"4","last_reported":1732115361,"current_range_meters":36400,"station_id":"ce4bhpp2rcd13ifvqhfg","pricing_plan_id":"cebpf4jnsgd1na2vs0mg"},{"bike_id":"e4624f32-fae1-428f-a986-44f323453b9a","system_id":"levelo_inurba_marseille","lat":43.2958,"lon":5.42246,"is_reserved":false,"is_disabled":false,"rental_uris":{"android":"levelo://app?vid=e4624f32-fae1-428f-a986-44f323453b9a","ios":"levelo://app?vid=e4624f32-fae1-428f-a986-44f323453b9a"},"vehicle_type_id":"4","last_reported":1732115361,"current_range_meters":38800,"station_id":"ce4bhph2rcd13ifvqhdg","pricing_plan_id":"cebpf4jnsgd1na2vs0mg"},{"bike_id":"1a2b45b6-17d7-4592-8140-142385f04b6a","system_id":"levelo_inurba_marseille","lat":43.25088,"lon":5.39518,"is_reserved":false,"is_disabled":false,"rental_uris":{"android":"levelo://app?vid=1a2b45b6-17d7-4592-8140-142385f04b6a","ios":"levelo://app?vid=1a2b45b6-17d7-4592-8140-142385f04b6a"},"vehicle_type_id":"4","last_reported":1732115361,"current_range_meters":11200,"station_id":"ce4bhm12rcd13ifvqgkg","pricing_plan_id":"cebpf4jnsgd1na2vs0mg"},{"bike_id":"bf43ac58-8acd-4105-9a16-98709ba9f047","system_id":"levelo_inurba_marseille","lat":43.30633,"lon":5.40088,"is_reserved":false,"is_disabled":false,"rental_uris":{"android":"levelo://app?vid=bf43ac58-8acd-4105-9a16-98709ba9f047","ios":"levelo://app?vid=bf43ac58-8acd-4105-9a16-98709ba9f047"},"vehicle_type_id":"4","last_reported":1732115361,"current_range_meters":24400,"station_id":"ce4bh112rcd13ifvqda0","pricing_plan_id":"cebpf4jnsgd1na2vs0mg"},{"bike_id":"dfb656ce-a952-4232-be58-58af15a24d97","system_id":"levelo_inurba_marseille","lat":43.23146,"lon":5.43713,"is_reserved":false,"is_disabled":false,"rental_uris":{"android":"levelo://app?vid=dfb656ce-a952-4232-be58-58af15a24d97","ios":"levelo://app?vid=dfb656ce-a952-4232-be58-58af15a24d97"},"vehicle_type_id":"4","last_reported":1732115361,"current_range_meters":19600,"station_id":"ce4bhmp2rcd13ifvqgog","pricing_plan_id":"cebpf4jnsgd1na2vs0mg"},{"bike_id":"5c3000a0-a190-4007-a723-aa2707fd1ce3","system_id":"levelo_inurba_marseille","lat":43.2293,"lon":5.3539,"is_reserved":false,"is_disabled":false,"rental_uris":{"android":"levelo://app?vid=5c3000a0-a190-4007-a723-aa2707fd1ce3","ios":"levelo://app?vid=5c3000a0-a190-4007-a723-aa2707fd1ce3"},"vehicle_type_id":"4","last_reported":1732115361,"current_range_meters":38800,"station_id":"cpo3532slgdg3j2ikp40","pricing_plan_id":"cebpf4jnsgd1na2vs0mg"},{"bike_id":"65da4cfd-7add-4e9a-9311-3de367c26373","system_id":"levelo_inurba_marseille","lat":43.28926,"lon":5.36652,"is_reserved":false,"is_disabled":false,"rental_uris":{"android":"levelo://app?vid=65da4cfd-7add-4e9a-9311-3de367c26373","ios":"levelo://app?vid=65da4cfd-7add-4e9a-9311-3de367c26373"},"vehicle_type_id":"4","last_reported":1732115361,"current_range_meters":28800,"station_id":"ce4bhap2rcd13ifvqek0","pricing_plan_id":"cebpf4jnsgd1na2vs0mg"},{"bike_id":"07dfa307-72b1-4fd3-aaec-cc158bba164b","system_id":"levelo_inurba_marseille","lat":43.31928,"lon":5.37459,"is_reserved":false,"is_disabled":false,"rental_uris":{"android":"levelo://app?vid=07dfa307-72b1-4fd3-aaec-cc158bba164b","ios":"levelo://app?vid=07dfa307-72b1-4fd3-aaec-cc158bba164b"},"vehicle_type_id":"4","last_reported":1732115361,"current_range_meters":38000,"station_id":"","pricing_plan_id":"cebpf4jnsgd1na2vs0mg"},{"bike_id":"616dff2c-175a-4d85-833d-b302d7d54d27","system_id":"levelo_inurba_marseille","lat":43.28001,"lon":5.40019,"is_reserved":false,"is_disabled":false,"rental_uris":{"android":"levelo://app?vid=616dff2c-175a-4d85-833d-b302d7d54d27","ios":"levelo://app?vid=616dff2c-175a-4d85-833d-b302d7d54d27"},"vehicle_type_id":"4","last_reported":1732115361,"current_range_meters":38800,"station_id":"ce4bho92rcd13ifvqh4g","pricing_plan_id":"cebpf4jnsgd1na2vs0mg"},{"bike_id":"80c97958-4d55-4d04-b0ef-a5b1a09d0125","system_id":"levelo_inurba_marseille","lat":43.31368,"lon":5.36691,"is_reserved":false,"is_disabled":false,"rental_uris":{"android":"levelo://app?vid=80c97958-4d55-4d04-b0ef-a5b1a09d0125","ios":"levelo://app?vid=80c97958-4d55-4d04-b0ef-a5b1a09d0125"},"vehicle_type_id":"4","last_reported":1732115361,"current_range_meters":24800,"station_id":"ce4bgr92rcd13ifvqc6g","pricing_plan_id":"cebpf4jnsgd1na2vs0mg"},{"bike_id":"e0b38293-d99b-4430-b64b-73ae136e0cbe","system_id":"levelo_inurba_marseille","lat":43.25935,"lon":5.4091,"is_reserved":false,"is_disabled":true,"rental_uris":{"android":"levelo://app?vid=e0b38293-d99b-4430-b64b-73ae136e0cbe","ios":"levelo://app?vid=e0b38293-d99b-4430-b64b-73ae136e0cbe"},"vehicle_type_id":"4","last_reported":1732115361,"current_range_meters":0,"station_id":"ce4bhm92rcd13ifvqglg","pricing_plan_id":"cebpf4jnsgd1na2vs0mg"},{"bike_id":"de5077d7-852b-4438-98d3-3faa0d410065","system_id":"levelo_inurba_marseille","lat":43.28461,"lon":5.35884,"is_reserved":false,"is_disabled":false,"rental_uris":{"android":"levelo://app?vid=de5077d7-852b-4438-98d3-3faa0d410065","ios":"levelo://app?vid=de5077d7-852b-4438-98d3-3faa0d410065"},"vehicle_type_id":"4","last_reported":1732115361,"current_range_meters":28000,"station_id":"ce4bhah2rcd13ifvqei0","pricing_plan_id":"cebpf4jnsgd1na2vs0mg"},{"bike_id":"5fce23fd-5e1c-49b4-bb11-4b651f94887e","system_id":"levelo_inurba_marseille","lat":43.24547,"lon":5.39527,"is_reserved":false,"is_disabled":false,"rental_uris":{"android":"levelo://app?vid=5fce23fd-5e1c-49b4-bb11-4b651f94887e","ios":"levelo://app?vid=5fce23fd-5e1c-49b4-bb11-4b651f94887e"},"vehicle_type_id":"4","last_reported":1732115361,"current_range_meters":8800,"station_id":"ce4bhlp2rcd13ifvqgjg","pricing_plan_id":"cebpf4jnsgd1na2vs0mg"},{"bike_id":"d1624950-3674-48f4-8978-e1a4dbfee584","system_id":"levelo_inurba_marseille","lat":43.31328,"lon":5.39698,"is_reserved":false,"is_disabled":false,"rental_uris":{"android":"levelo://app?vid=d1624950-3674-48f4-8978-e1a4dbfee584","ios":"levelo://app?vid=d1624950-3674-48f4-8978-e1a4dbfee584"},"vehicle_type_id":"4","last_reported":1732115361,"current_range_meters":38000,"station_id":"ce4bgvp2rcd13ifvqcu0","pricing_plan_id":"cebpf4jnsgd1na2vs0mg"},{"bike_id":"1cd0daee-d68a-4e66-9883-fbe67fd8260f","system_id":"levelo_inurba_marseille","lat":43.30588,"lon":5.37253,"is_reserved":false,"is_disabled":true,"rental_uris":{"android":"levelo://app?vid=1cd0daee-d68a-4e66-9883-fbe67fd8260f","ios":"levelo://app?vid=1cd0daee-d68a-4e66-9883-fbe67fd8260f"},"vehicle_type_id":"4","last_reported":1732115361,"current_range_meters":0,"station_id":"ce4bgqh2rcd13ifvqc4g","pricing_plan_id":"cebpf4jnsgd1na2vs0mg"},{"bike_id":"bc14e463-5825-4071-9c45-e0187e501788","system_id":"levelo_inurba_marseille","lat":43.24797,"lon":5.37462,"is_reserved":false,"is_disabled":true,"rental_uris":{"android":"levelo://app?vid=bc14e463-5825-4071-9c45-e0187e501788","ios":"levelo://app?vid=bc14e463-5825-4071-9c45-e0187e501788"},"vehicle_type_id":"4","last_reported":1732115361,"current_range_meters":1200,"station_id":"ce4bhgh2rcd13ifvqfb0","pricing_plan_id":"cebpf4jnsgd1na2vs0mg"},{"bike_id":"772ce743-8958-4198-b3ba-b6e0d96fa296","system_id":"levelo_inurba_marseille","lat":43.24168,"lon":5.36404,"is_reserved":false,"is_disabled":false,"rental_uris":{"android":"levelo://app?vid=772ce743-8958-4198-b3ba-b6e0d96fa296","ios":"levelo://app?vid=772ce743-8958-4198-b3ba-b6e0d96fa296"},"vehicle_type_id":"4","last_reported":1732115361,"current_range_meters":10000,"station_id":"cpo36qri1sfpv3e86is0","pricing_plan_id":"cebpf4jnsgd1na2vs0mg"},{"bike_id":"435e14da-0a0f-43d9-a3d2-a51bc23ca1bb","system_id":"levelo_inurba_marseille","lat":43.29362,"lon":5.37867,"is_reserved":false,"is_disabled":false,"rental_uris":{"android":"levelo://app?vid=435e14da-0a0f-43d9-a3d2-a51bc23ca1bb","ios":"levelo://app?vid=435e14da-0a0f-43d9-a3d2-a51bc23ca1bb"},"vehicle_type_id":"4","last_reported":1732115361,"current_range_meters":8000,"station_id":"ce4bgjh2rcd13ifvqbf0","pricing_plan_id":"cebpf4jnsgd1na2vs0mg"},{"bike_id":"597cb1c5-c680-49ef-9a1a-84a53b157037","system_id":"levelo_inurba_marseille","lat":43.32363,"lon":5.38886,"is_reserved":false,"is_disabled":false,"rental_uris":{"android":"levelo://app?vid=597cb1c5-c680-49ef-9a1a-84a53b157037","ios":"levelo://app?vid=597cb1c5-c680-49ef-9a1a-84a53b157037"},"vehicle_type_id":"4","last_reported":1732115361,"current_range_meters":22000,"station_id":"ce4bhqp2rcd13ifvqhog","pricing_plan_id":"cebpf4jnsgd1na2vs0mg"},{"bike_id":"271d005b-08e5-449a-9ecc-19dda8997147","system_id":"levelo_inurba_marseille","lat":43.31326,"lon":5.39697,"is_reserved":false,"is_disabled":false,"rental_uris":{"android":"levelo://app?vid=271d005b-08e5-449a-9ecc-19dda8997147","ios":"levelo://app?vid=271d005b-08e5-449a-9ecc-19dda8997147"},"vehicle_type_id":"4","last_reported":1732115361,"current_range_meters":34800,"station_id":"ce4bgvp2rcd13ifvqcu0","pricing_plan_id":"cebpf4jnsgd1na2vs0mg"},{"bike_id":"e4cce421-ce86-4af3-be13-f349c37fa71f","system_id":"levelo_inurba_marseille","lat":43.276044,"lon":5.360895,"is_reserved":false,"is_disabled":false,"rental_uris":{"android":"levelo://app?vid=e4cce421-ce86-4af3-be13-f349c37fa71f","ios":"levelo://app?vid=e4cce421-ce86-4af3-be13-f349c37fa71f"},"vehicle_type_id":"4","last_reported":1732115361,"current_range_meters":17600,"station_id":"ce4bgj92rcd13ifvqbe0","pricing_plan_id":"cebpf4jnsgd1na2vs0mg"},{"bike_id":"634e5b76-aa98-46b1-8f7c-3a23dc3012e2","system_id":"levelo_inurba_marseille","lat":43.30134,"lon":5.37418,"is_reserved":false,"is_disabled":false,"rental_uris":{"android":"levelo://app?vid=634e5b76-aa98-46b1-8f7c-3a23dc3012e2","ios":"levelo://app?vid=634e5b76-aa98-46b1-8f7c-3a23dc3012e2"},"vehicle_type_id":"4","last_reported":1732115361,"current_range_meters":24800,"station_id":"ce4bgs92rcd13ifvqcc0","pricing_plan_id":"cebpf4jnsgd1na2vs0mg"},{"bike_id":"e6bbf27d-d499-49c6-82d0-7585a0fc6654","system_id":"levelo_inurba_marseille","lat":43.29295,"lon":5.37184,"is_reserved":false,"is_disabled":false,"rental_uris":{"android":"levelo://app?vid=e6bbf27d-d499-49c6-82d0-7585a0fc6654","ios":"levelo://app?vid=e6bbf27d-d499-49c6-82d0-7585a0fc6654"},"vehicle_type_id":"4","last_reported":1732115361,"current_range_meters":31200,"station_id":"ce4bgh92rcd13ifvqb40","pricing_plan_id":"cebpf4jnsgd1na2vs0mg"},{"bike_id":"0b638473-1411-434e-9d66-cbfde13ae8a3","system_id":"levelo_inurba_marseille","lat":43.29939,"lon":5.36545,"is_reserved":false,"is_disabled":false,"rental_uris":{"android":"levelo://app?vid=0b638473-1411-434e-9d66-cbfde13ae8a3","ios":"levelo://app?vid=0b638473-1411-434e-9d66-cbfde13ae8a3"},"vehicle_type_id":"4","last_reported":1732115361,"current_range_meters":28000,"station_id":"ce4bgm92rcd13ifvqbr0","pricing_plan_id":"cebpf4jnsgd1na2vs0mg"},{"bike_id":"943ef52c-e6d3-4eb1-982e-9ccfe06bf9cd","system_id":"levelo_inurba_marseille","lat":43.27563,"lon":5.3843,"is_reserved":false,"is_disabled":false,"rental_uris":{"android":"levelo://app?vid=943ef52c-e6d3-4eb1-982e-9ccfe06bf9cd","ios":"levelo://app?vid=943ef52c-e6d3-4eb1-982e-9ccfe06bf9cd"},"vehicle_type_id":"4","last_reported":1732115361,"current_range_meters":36800,"station_id":"ce4bhh92rcd13ifvqfi0","pricing_plan_id":"cebpf4jnsgd1na2vs0mg"},{"bike_id":"7144fcf7-fada-4a34-bf79-af5abbb6bd30","system_id":"levelo_inurba_marseille","lat":43.32059,"lon":5.41553,"is_reserved":false,"is_disabled":false,"rental_uris":{"android":"levelo://app?vid=7144fcf7-fada-4a34-bf79-af5abbb6bd30","ios":"levelo://app?vid=7144fcf7-fada-4a34-bf79-af5abbb6bd30"},"vehicle_type_id":"4","last_reported":1732115361,"current_range_meters":39200,"station_id":"ce4bhq92rcd13ifvqhkg","pricing_plan_id":"cebpf4jnsgd1na2vs0mg"},{"bike_id":"65d04e90-7399-494c-957c-8e06b29dc6d0","system_id":"levelo_inurba_marseille","lat":43.30304,"lon":5.39215,"is_reserved":false,"is_disabled":false,"rental_uris":{"android":"levelo://app?vid=65d04e90-7399-494c-957c-8e06b29dc6d0","ios":"levelo://app?vid=65d04e90-7399-494c-957c-8e06b29dc6d0"},"vehicle_type_id":"4","last_reported":1732115361,"current_range_meters":36000,"station_id":"ce4bgkh2rcd13ifvqbk0","pricing_plan_id":"cebpf4jnsgd1na2vs0mg"},{"bike_id":"9a401885-21a4-49d1-a4ad-3ae3e7a4ee61","system_id":"levelo_inurba_marseille","lat":43.27949,"lon":5.41056,"is_reserved":false,"is_disabled":false,"rental_uris":{"android":"levelo://app?vid=9a401885-21a4-49d1-a4ad-3ae3e7a4ee61","ios":"levelo://app?vid=9a401885-21a4-49d1-a4ad-3ae3e7a4ee61"},"vehicle_type_id":"4","last_reported":1732115361,"current_range_meters":28400,"station_id":"ce4bhnp2rcd13ifvqh0g","pricing_plan_id":"cebpf4jnsgd1na2vs0mg"},{"bike_id":"9f2e0eb1-91b0-4cf0-b9c7-eba71c543847","system_id":"levelo_inurba_marseille","lat":43.29366,"lon":5.3786,"is_reserved":false,"is_disabled":false,"rental_uris":{"android":"levelo://app?vid=9f2e0eb1-91b0-4cf0-b9c7-eba71c543847","ios":"levelo://app?vid=9f2e0eb1-91b0-4cf0-b9c7-eba71c543847"},"vehicle_type_id":"4","last_reported":1732115361,"current_range_meters":23200,"station_id":"ce4bgjh2rcd13ifvqbf0","pricing_plan_id":"cebpf4jnsgd1na2vs0mg"},{"bike_id":"59fe6ac7-ab5f-448b-a0dd-f0905e4f654e","system_id":"levelo_inurba_marseille","lat":43.28862,"lon":5.35837,"is_reserved":false,"is_disabled":false,"rental_uris":{"android":"levelo://app?vid=59fe6ac7-ab5f-448b-a0dd-f0905e4f654e","ios":"levelo://app?vid=59fe6ac7-ab5f-448b-a0dd-f0905e4f654e"},"vehicle_type_id":"4","last_reported":1732115361,"current_range_meters":24000,"station_id":"ce4bhb12rcd13ifvqem0","pricing_plan_id":"cebpf4jnsgd1na2vs0mg"},{"bike_id":"10815b4d-f630-46e4-b054-3a315a68514f","system_id":"levelo_inurba_marseille","lat":43.33727,"lon":5.39188,"is_reserved":false,"is_disabled":false,"rental_uris":{"android":"levelo://app?vid=10815b4d-f630-46e4-b054-3a315a68514f","ios":"levelo://app?vid=10815b4d-f630-46e4-b054-3a315a68514f"},"vehicle_type_id":"4","last_reported":1732115361,"current_range_meters":38800,"station_id":"ce4bhr92rcd13ifvqhsg","pricing_plan_id":"cebpf4jnsgd1na2vs0mg"},{"bike_id":"c7c133c2-0a8d-40a8-9b43-d3bc14e56bef","system_id":"levelo_inurba_marseille","lat":43.27561,"lon":5.38444,"is_reserved":false,"is_disabled":true,"rental_uris":{"android":"levelo://app?vid=c7c133c2-0a8d-40a8-9b43-d3bc14e56bef","ios":"levelo://app?vid=c7c133c2-0a8d-40a8-9b43-d3bc14e56bef"},"vehicle_type_id":"4","last_reported":1732115361,"current_range_meters":1600,"station_id":"ce4bhh92rcd13ifvqfi0","pricing_plan_id":"cebpf4jnsgd1na2vs0mg"},{"bike_id":"49150ae4-5d3b-425c-bcef-85359c68b429","system_id":"levelo_inurba_marseille","lat":43.25109,"lon":5.40328,"is_reserved":false,"is_disabled":false,"rental_uris":{"android":"levelo://app?vid=49150ae4-5d3b-425c-bcef-85359c68b429","ios":"levelo://app?vid=49150ae4-5d3b-425c-bcef-85359c68b429"},"vehicle_type_id":"4","last_reported":1732115361,"current_range_meters":14400,"station_id":"ce4bhlh2rcd13ifvqgig","pricing_plan_id":"cebpf4jnsgd1na2vs0mg"},{"bike_id":"0dcd8cb5-6d23-418f-8621-d4558f7ce32b","system_id":"levelo_inurba_marseille","lat":43.28031,"lon":5.36949,"is_reserved":false,"is_disabled":false,"rental_uris":{"android":"levelo://app?vid=0dcd8cb5-6d23-418f-8621-d4558f7ce32b","ios":"levelo://app?vid=0dcd8cb5-6d23-418f-8621-d4558f7ce32b"},"vehicle_type_id":"4","last_reported":1732115361,"current_range_meters":20400,"station_id":"ce4bha12rcd13ifvqef0","pricing_plan_id":"cebpf4jnsgd1na2vs0mg"},{"bike_id":"0dc4a3bf-2fba-424f-bfdf-6329c2972485","system_id":"levelo_inurba_marseille","lat":43.26684,"lon":5.38282,"is_reserved":false,"is_disabled":false,"rental_uris":{"android":"levelo://app?vid=0dc4a3bf-2fba-424f-bfdf-6329c2972485","ios":"levelo://app?vid=0dc4a3bf-2fba-424f-bfdf-6329c2972485"},"vehicle_type_id":"4","last_reported":1732115361,"current_range_meters":24800,"station_id":"ce4bhg92rcd13ifvqf90","pricing_plan_id":"cebpf4jnsgd1na2vs0mg"},{"bike_id":"94ce9954-6dc9-4017-8435-829309ee69bd","system_id":"levelo_inurba_marseille","lat":43.26958,"lon":5.38639,"is_reserved":false,"is_disabled":true,"rental_uris":{"android":"levelo://app?vid=94ce9954-6dc9-4017-8435-829309ee69bd","ios":"levelo://app?vid=94ce9954-6dc9-4017-8435-829309ee69bd"},"vehicle_type_id":"4","last_reported":1732115361,"current_range_meters":0,"station_id":"ce4bhh92rcd13ifvqfh0","pricing_plan_id":"cebpf4jnsgd1na2vs0mg"},{"bike_id":"a294dff0-fd60-4b5a-a5bb-f8c183996e85","system_id":"levelo_inurba_marseille","lat":43.30588,"lon":5.37252,"is_reserved":false,"is_disabled":false,"rental_uris":{"android":"levelo://app?vid=a294dff0-fd60-4b5a-a5bb-f8c183996e85","ios":"levelo://app?vid=a294dff0-fd60-4b5a-a5bb-f8c183996e85"},"vehicle_type_id":"4","last_reported":1732115361,"current_range_meters":39200,"station_id":"ce4bgqh2rcd13ifvqc4g","pricing_plan_id":"cebpf4jnsgd1na2vs0mg"},{"bike_id":"72988ed8-3b21-48f9-9313-4c219313a03b","system_id":"levelo_inurba_marseille","lat":43.25116,"lon":5.40324,"is_reserved":false,"is_disabled":false,"rental_uris":{"android":"levelo://app?vid=72988ed8-3b21-48f9-9313-4c219313a03b","ios":"levelo://app?vid=72988ed8-3b21-48f9-9313-4c219313a03b"},"vehicle_type_id":"4","last_reported":1732115361,"current_range_meters":20000,"station_id":"ce4bhlh2rcd13ifvqgig","pricing_plan_id":"cebpf4jnsgd1na2vs0mg"},{"bike_id":"772660a8-f43c-4931-8b67-2190c65a8143","system_id":"levelo_inurba_marseille","lat":43.28827,"lon":5.35855,"is_reserved":false,"is_disabled":false,"rental_uris":{"android":"levelo://app?vid=772660a8-f43c-4931-8b67-2190c65a8143","ios":"levelo://app?vid=772660a8-f43c-4931-8b67-2190c65a8143"},"vehicle_type_id":"4","last_reported":1732115361,"current_range_meters":20400,"station_id":"ce4bhb12rcd13ifvqem0","pricing_plan_id":"cebpf4jnsgd1na2vs0mg"},{"bike_id":"05c1f6f8-bced-4d08-8e67-96a95c203f5c","system_id":"levelo_inurba_marseille","lat":43.28006,"lon":5.40008,"is_reserved":false,"is_disabled":false,"rental_uris":{"android":"levelo://app?vid=05c1f6f8-bced-4d08-8e67-96a95c203f5c","ios":"levelo://app?vid=05c1f6f8-bced-4d08-8e67-96a95c203f5c"},"vehicle_type_id":"4","last_reported":1732115361,"current_range_meters":22400,"station_id":"ce4bho92rcd13ifvqh4g","pricing_plan_id":"cebpf4jnsgd1na2vs0mg"},{"bike_id":"f5cf085e-8694-4c6f-ba9c-aa6e0d3c58c6","system_id":"levelo_inurba_marseille","lat":43.3366,"lon":5.35584,"is_reserved":false,"is_disabled":true,"rental_uris":{"android":"levelo://app?vid=f5cf085e-8694-4c6f-ba9c-aa6e0d3c58c6","ios":"levelo://app?vid=f5cf085e-8694-4c6f-ba9c-aa6e0d3c58c6"},"vehicle_type_id":"4","last_reported":1732115361,"current_range_meters":11200,"station_id":"","pricing_plan_id":"cebpf4jnsgd1na2vs0mg"},{"bike_id":"3d2beca7-eef0-4bae-98e1-8b3de347272c","system_id":"levelo_inurba_marseille","lat":43.23192,"lon":5.35554,"is_reserved":false,"is_disabled":false,"rental_uris":{"android":"levelo://app?vid=3d2beca7-eef0-4bae-98e1-8b3de347272c","ios":"levelo://app?vid=3d2beca7-eef0-4bae-98e1-8b3de347272c"},"vehicle_type_id":"4","last_reported":1732115361,"current_range_meters":37600,"station_id":"ce4bhu92rcd13ifvqi70","pricing_plan_id":"cebpf4jnsgd1na2vs0mg"},{"bike_id":"3274e2e0-6c9a-427a-aeef-d09c7ae3cb79","system_id":"levelo_inurba_marseille","lat":43.2978,"lon":5.3934,"is_reserved":false,"is_disabled":false,"rental_uris":{"android":"levelo://app?vid=3274e2e0-6c9a-427a-aeef-d09c7ae3cb79","ios":"levelo://app?vid=3274e2e0-6c9a-427a-aeef-d09c7ae3cb79"},"vehicle_type_id":"4","last_reported":1732115361,"current_range_meters":38400,"station_id":"chh1huq6cuj3fo74tm60","pricing_plan_id":"cebpf4jnsgd1na2vs0mg"},{"bike_id":"a783b28e-6532-40d1-ba29-12b68761c1b6","system_id":"levelo_inurba_marseille","lat":43.26792,"lon":5.39415,"is_reserved":false,"is_disabled":false,"rental_uris":{"android":"levelo://app?vid=a783b28e-6532-40d1-ba29-12b68761c1b6","ios":"levelo://app?vid=a783b28e-6532-40d1-ba29-12b68761c1b6"},"vehicle_type_id":"4","last_reported":1732115361,"current_range_meters":37600,"station_id":"ce4bhh12rcd13ifvqfg0","pricing_plan_id":"cebpf4jnsgd1na2vs0mg"},{"bike_id":"ccd50d75-83ba-44e8-8889-51c560c2d710","system_id":"levelo_inurba_marseille","lat":43.31214,"lon":5.36854,"is_reserved":false,"is_disabled":false,"rental_uris":{"android":"levelo://app?vid=ccd50d75-83ba-44e8-8889-51c560c2d710","ios":"levelo://app?vid=ccd50d75-83ba-44e8-8889-51c560c2d710"},"vehicle_type_id":"4","last_reported":1732115361,"current_range_meters":29600,"station_id":"ce4bgl92rcd13ifvqbq0","pricing_plan_id":"cebpf4jnsgd1na2vs0mg"},{"bike_id":"2c0403cf-6952-4b51-b277-405286f2aaa5","system_id":"levelo_inurba_marseille","lat":43.33022,"lon":5.39048,"is_reserved":false,"is_disabled":true,"rental_uris":{"android":"levelo://app?vid=2c0403cf-6952-4b51-b277-405286f2aaa5","ios":"levelo://app?vid=2c0403cf-6952-4b51-b277-405286f2aaa5"},"vehicle_type_id":"4","last_reported":1732115361,"current_range_meters":400,"station_id":"ce4bhr92rcd13ifvqhrg","pricing_plan_id":"cebpf4jnsgd1na2vs0mg"},{"bike_id":"e57590cc-a844-462b-b95c-023047b497c3","system_id":"levelo_inurba_marseille","lat":43.26024,"lon":5.37551,"is_reserved":false,"is_disabled":true,"rental_uris":{"android":"levelo://app?vid=e57590cc-a844-462b-b95c-023047b497c3","ios":"levelo://app?vid=e57590cc-a844-462b-b95c-023047b497c3"},"vehicle_type_id":"4","last_reported":1732115361,"current_range_meters":0,"station_id":"ce4bhgh2rcd13ifvqfa0","pricing_plan_id":"cebpf4jnsgd1na2vs0mg"},{"bike_id":"69794115-cbe6-4d41-af99-f5e9b444d935","system_id":"levelo_inurba_marseille","lat":43.31114,"lon":5.37767,"is_reserved":false,"is_disabled":false,"rental_uris":{"android":"levelo://app?vid=69794115-cbe6-4d41-af99-f5e9b444d935","ios":"levelo://app?vid=69794115-cbe6-4d41-af99-f5e9b444d935"},"vehicle_type_id":"4","last_reported":1732115361,"current_range_meters":19600,"station_id":"ce4bgt92rcd13ifvqcg0","pricing_plan_id":"cebpf4jnsgd1na2vs0mg"},{"bike_id":"f3a52da7-9a20-424d-95b2-19ad07370146","system_id":"levelo_inurba_marseille","lat":43.31171,"lon":5.38726,"is_reserved":false,"is_disabled":false,"rental_uris":{"android":"levelo://app?vid=f3a52da7-9a20-424d-95b2-19ad07370146","ios":"levelo://app?vid=f3a52da7-9a20-424d-95b2-19ad07370146"},"vehicle_type_id":"4","last_reported":1732115361,"current_range_meters":38800,"station_id":"ce4bgv12rcd13ifvqcp0","pricing_plan_id":"cebpf4jnsgd1na2vs0mg"},{"bike_id":"f4431c05-84ca-4361-b023-ac46c2699636","system_id":"levelo_inurba_marseille","lat":43.29527,"lon":5.38542,"is_reserved":false,"is_disabled":false,"rental_uris":{"android":"levelo://app?vid=f4431c05-84ca-4361-b023-ac46c2699636","ios":"levelo://app?vid=f4431c05-84ca-4361-b023-ac46c2699636"},"vehicle_type_id":"4","last_reported":1732115361,"current_range_meters":38800,"station_id":"ce4bgih2rcd13ifvqba0","pricing_plan_id":"cebpf4jnsgd1na2vs0mg"},{"bike_id":"4b0a3ab0-2dc0-4269-8965-cd0b5e0c9605","system_id":"levelo_inurba_marseille","lat":43.29044,"lon":5.35924,"is_reserved":false,"is_disabled":false,"rental_uris":{"android":"levelo://app?vid=4b0a3ab0-2dc0-4269-8965-cd0b5e0c9605","ios":"levelo://app?vid=4b0a3ab0-2dc0-4269-8965-cd0b5e0c9605"},"vehicle_type_id":"4","last_reported":1732115361,"current_range_meters":20400,"station_id":"ce4bha92rcd13ifvqeg0","pricing_plan_id":"cebpf4jnsgd1na2vs0mg"},{"bike_id":"8d5e8e54-f87c-49b3-8720-7e21078f8fcd","system_id":"levelo_inurba_marseille","lat":43.26485,"lon":5.39557,"is_reserved":false,"is_disabled":true,"rental_uris":{"android":"levelo://app?vid=8d5e8e54-f87c-49b3-8720-7e21078f8fcd","ios":"levelo://app?vid=8d5e8e54-f87c-49b3-8720-7e21078f8fcd"},"vehicle_type_id":"4","last_reported":1732115361,"current_range_meters":1200,"station_id":"ce4bhi12rcd13ifvqfq0","pricing_plan_id":"cebpf4jnsgd1na2vs0mg"},{"bike_id":"9beabdc8-a2b2-4b1e-b24a-f5ebad04b4ce","system_id":"levelo_inurba_marseille","lat":43.28709,"lon":5.37954,"is_reserved":false,"is_disabled":false,"rental_uris":{"android":"levelo://app?vid=9beabdc8-a2b2-4b1e-b24a-f5ebad04b4ce","ios":"levelo://app?vid=9beabdc8-a2b2-4b1e-b24a-f5ebad04b4ce"},"vehicle_type_id":"4","last_reported":1732115361,"current_range_meters":14400,"station_id":"ce4bh9p2rcd13ifvqec0","pricing_plan_id":"cebpf4jnsgd1na2vs0mg"},{"bike_id":"0a8598ed-878e-4e4a-960a-5816bd0efea9","system_id":"levelo_inurba_marseille","lat":43.27818,"lon":5.3921,"is_reserved":false,"is_disabled":false,"rental_uris":{"android":"levelo://app?vid=0a8598ed-878e-4e4a-960a-5816bd0efea9","ios":"levelo://app?vid=0a8598ed-878e-4e4a-960a-5816bd0efea9"},"vehicle_type_id":"4","last_reported":1732115361,"current_range_meters":9200,"station_id":"ce4bhjp2rcd13ifvqga0","pricing_plan_id":"cebpf4jnsgd1na2vs0mg"},{"bike_id":"0f7be5d0-aad9-49f4-8395-5841e5868f41","system_id":"levelo_inurba_marseille","lat":43.29438,"lon":5.39751,"is_reserved":false,"is_disabled":true,"rental_uris":{"android":"levelo://app?vid=0f7be5d0-aad9-49f4-8395-5841e5868f41","ios":"levelo://app?vid=0f7be5d0-aad9-49f4-8395-5841e5868f41"},"vehicle_type_id":"4","last_reported":1732115361,"current_range_meters":1600,"station_id":"ce4bh3h2rcd13ifvqdo0","pricing_plan_id":"cebpf4jnsgd1na2vs0mg"},{"bike_id":"70e61638-4d2e-4f06-a20e-2fca01787ff8","system_id":"levelo_inurba_marseille","lat":43.30538,"lon":5.38436,"is_reserved":false,"is_disabled":false,"rental_uris":{"android":"levelo://app?vid=70e61638-4d2e-4f06-a20e-2fca01787ff8","ios":"levelo://app?vid=70e61638-4d2e-4f06-a20e-2fca01787ff8"},"vehicle_type_id":"4","last_reported":1732115361,"current_range_meters":36800,"station_id":"ce4bgg92rcd13ifvqb30","pricing_plan_id":"cebpf4jnsgd1na2vs0mg"},{"bike_id":"cdaafd2d-0da1-4fac-9881-15c66a7cd7c0","system_id":"levelo_inurba_marseille","lat":43.2315,"lon":5.43707,"is_reserved":false,"is_disabled":true,"rental_uris":{"android":"levelo://app?vid=cdaafd2d-0da1-4fac-9881-15c66a7cd7c0","ios":"levelo://app?vid=cdaafd2d-0da1-4fac-9881-15c66a7cd7c0"},"vehicle_type_id":"4","last_reported":1732115361,"current_range_meters":0,"station_id":"ce4bhmp2rcd13ifvqgog","pricing_plan_id":"cebpf4jnsgd1na2vs0mg"},{"bike_id":"571ebf17-9551-4693-af9a-d47668470fe6","system_id":"levelo_inurba_marseille","lat":43.32365,"lon":5.38883,"is_reserved":false,"is_disabled":false,"rental_uris":{"android":"levelo://app?vid=571ebf17-9551-4693-af9a-d47668470fe6","ios":"levelo://app?vid=571ebf17-9551-4693-af9a-d47668470fe6"},"vehicle_type_id":"4","last_reported":1732115361,"current_range_meters":8400,"station_id":"ce4bhqp2rcd13ifvqhog","pricing_plan_id":"cebpf4jnsgd1na2vs0mg"},{"bike_id":"8d5ad0a8-268e-4afd-be61-7919f93826c7","system_id":"levelo_inurba_marseille","lat":43.29918,"lon":5.37466,"is_reserved":false,"is_disabled":true,"rental_uris":{"android":"levelo://app?vid=8d5ad0a8-268e-4afd-be61-7919f93826c7","ios":"levelo://app?vid=8d5ad0a8-268e-4afd-be61-7919f93826c7"},"vehicle_type_id":"4","last_reported":1732115361,"current_range_meters":37600,"station_id":"ce4bgjh2rcd13ifvqbg0","pricing_plan_id":"cebpf4jnsgd1na2vs0mg"},{"bike_id":"f198b97b-88d4-49aa-b205-4610520421a6","system_id":"levelo_inurba_marseille","lat":43.33026,"lon":5.39039,"is_reserved":false,"is_disabled":false,"rental_uris":{"android":"levelo://app?vid=f198b97b-88d4-49aa-b205-4610520421a6","ios":"levelo://app?vid=f198b97b-88d4-49aa-b205-4610520421a6"},"vehicle_type_id":"4","last_reported":1732115361,"current_range_meters":38800,"station_id":"ce4bhr92rcd13ifvqhrg","pricing_plan_id":"cebpf4jnsgd1na2vs0mg"},{"bike_id":"b7975300-ba63-480b-8a82-8c5a1cbb8034","system_id":"levelo_inurba_marseille","lat":43.30958,"lon":5.39047,"is_reserved":false,"is_disabled":false,"rental_uris":{"android":"levelo://app?vid=b7975300-ba63-480b-8a82-8c5a1cbb8034","ios":"levelo://app?vid=b7975300-ba63-480b-8a82-8c5a1cbb8034"},"vehicle_type_id":"4","last_reported":1732115361,"current_range_meters":38400,"station_id":"ce4bgup2rcd13ifvqco0","pricing_plan_id":"cebpf4jnsgd1na2vs0mg"},{"bike_id":"20231e00-bfca-448e-9021-13e01c2711d0","system_id":"levelo_inurba_marseille","lat":43.25866,"lon":5.39904,"is_reserved":false,"is_disabled":false,"rental_uris":{"android":"levelo://app?vid=20231e00-bfca-448e-9021-13e01c2711d0","ios":"levelo://app?vid=20231e00-bfca-448e-9021-13e01c2711d0"},"vehicle_type_id":"4","last_reported":1732115361,"current_range_meters":26800,"station_id":"ce4bhl92rcd13ifvqghg","pricing_plan_id":"cebpf4jnsgd1na2vs0mg"},{"bike_id":"9df16021-471e-4ef6-9340-e233fcc32213","system_id":"levelo_inurba_marseille","lat":43.25117,"lon":5.40317,"is_reserved":false,"is_disabled":false,"rental_uris":{"android":"levelo://app?vid=9df16021-471e-4ef6-9340-e233fcc32213","ios":"levelo://app?vid=9df16021-471e-4ef6-9340-e233fcc32213"},"vehicle_type_id":"4","last_reported":1732115361,"current_range_meters":8400,"station_id":"ce4bhlh2rcd13ifvqgig","pricing_plan_id":"cebpf4jnsgd1na2vs0mg"},{"bike_id":"ce57d25d-cc14-4e11-a63a-2b23c47bc077","system_id":"levelo_inurba_marseille","lat":43.31755,"lon":5.3902,"is_reserved":false,"is_disabled":false,"rental_uris":{"android":"levelo://app?vid=ce57d25d-cc14-4e11-a63a-2b23c47bc077","ios":"levelo://app?vid=ce57d25d-cc14-4e11-a63a-2b23c47bc077"},"vehicle_type_id":"4","last_reported":1732115361,"current_range_meters":12800,"station_id":"ce4bhqp2rcd13ifvqhng","pricing_plan_id":"cebpf4jnsgd1na2vs0mg"},{"bike_id":"d5520024-268d-4cf1-bc14-52731474d68e","system_id":"levelo_inurba_marseille","lat":43.25109,"lon":5.40327,"is_reserved":false,"is_disabled":false,"rental_uris":{"android":"levelo://app?vid=d5520024-268d-4cf1-bc14-52731474d68e","ios":"levelo://app?vid=d5520024-268d-4cf1-bc14-52731474d68e"},"vehicle_type_id":"4","last_reported":1732115361,"current_range_meters":14400,"station_id":"ce4bhlh2rcd13ifvqgig","pricing_plan_id":"cebpf4jnsgd1na2vs0mg"},{"bike_id":"6a9c3b42-bbed-4a17-9d21-9d400d11f331","system_id":"levelo_inurba_marseille","lat":43.32472,"lon":5.36573,"is_reserved":false,"is_disabled":false,"rental_uris":{"android":"levelo://app?vid=6a9c3b42-bbed-4a17-9d21-9d400d11f331","ios":"levelo://app?vid=6a9c3b42-bbed-4a17-9d21-9d400d11f331"},"vehicle_type_id":"4","last_reported":1732115361,"current_range_meters":37600,"station_id":"ce4bhs12rcd13ifvqhvg","pricing_plan_id":"cebpf4jnsgd1na2vs0mg"},{"bike_id":"d77e99d3-4473-4f3a-a588-d856cf1dc59a","system_id":"levelo_inurba_marseille","lat":43.2919,"lon":5.35796,"is_reserved":false,"is_disabled":false,"rental_uris":{"android":"levelo://app?vid=d77e99d3-4473-4f3a-a588-d856cf1dc59a","ios":"levelo://app?vid=d77e99d3-4473-4f3a-a588-d856cf1dc59a"},"vehicle_type_id":"4","last_reported":1732115361,"current_range_meters":6800,"station_id":"ce4bhb12rcd13ifvqel0","pricing_plan_id":"cebpf4jnsgd1na2vs0mg"},{"bike_id":"319639f6-c364-407e-9612-56f449d4d076","system_id":"levelo_inurba_marseille","lat":43.28077,"lon":5.39672,"is_reserved":false,"is_disabled":true,"rental_uris":{"android":"levelo://app?vid=319639f6-c364-407e-9612-56f449d4d076","ios":"levelo://app?vid=319639f6-c364-407e-9612-56f449d4d076"},"vehicle_type_id":"4","last_reported":1732115361,"current_range_meters":0,"station_id":"ce4bho12rcd13ifvqh2g","pricing_plan_id":"cebpf4jnsgd1na2vs0mg"},{"bike_id":"76091a5b-a878-4b61-b401-0465aaa2d4dd","system_id":"levelo_inurba_marseille","lat":43.27373,"lon":5.36268,"is_reserved":false,"is_disabled":false,"rental_uris":{"android":"levelo://app?vid=76091a5b-a878-4b61-b401-0465aaa2d4dd","ios":"levelo://app?vid=76091a5b-a878-4b61-b401-0465aaa2d4dd"},"vehicle_type_id":"4","last_reported":1732115361,"current_range_meters":17200,"station_id":"ce4bhbh2rcd13ifvqeo0","pricing_plan_id":"cebpf4jnsgd1na2vs0mg"},{"bike_id":"0fa9539a-7fcb-443c-ba98-0cbf52e808af","system_id":"levelo_inurba_marseille","lat":43.30593,"lon":5.37219,"is_reserved":false,"is_disabled":false,"rental_uris":{"android":"levelo://app?vid=0fa9539a-7fcb-443c-ba98-0cbf52e808af","ios":"levelo://app?vid=0fa9539a-7fcb-443c-ba98-0cbf52e808af"},"vehicle_type_id":"4","last_reported":1732115361,"current_range_meters":38000,"station_id":"ce4bgqh2rcd13ifvqc4g","pricing_plan_id":"cebpf4jnsgd1na2vs0mg"},{"bike_id":"29d9a67c-da0b-4f59-b653-254158fbcbcd","system_id":"levelo_inurba_marseille","lat":43.29082,"lon":5.37166,"is_reserved":false,"is_disabled":false,"rental_uris":{"android":"levelo://app?vid=29d9a67c-da0b-4f59-b653-254158fbcbcd","ios":"levelo://app?vid=29d9a67c-da0b-4f59-b653-254158fbcbcd"},"vehicle_type_id":"4","last_reported":1732115361,"current_range_meters":25600,"station_id":"ce4bh5p2rcd13ifvqe4g","pricing_plan_id":"cebpf4jnsgd1na2vs0mg"},{"bike_id":"be2b046b-8d4e-45a5-963d-1bd3c7ac2943","system_id":"levelo_inurba_marseille","lat":43.29034,"lon":5.38122,"is_reserved":false,"is_disabled":false,"rental_uris":{"android":"levelo://app?vid=be2b046b-8d4e-45a5-963d-1bd3c7ac2943","ios":"levelo://app?vid=be2b046b-8d4e-45a5-963d-1bd3c7ac2943"},"vehicle_type_id":"4","last_reported":1732115361,"current_range_meters":20800,"station_id":"ce4bh4p2rcd13ifvqe1g","pricing_plan_id":"cebpf4jnsgd1na2vs0mg"},{"bike_id":"f3ed74b7-b666-4dfa-8970-48319ed863a6","system_id":"levelo_inurba_marseille","lat":43.290098,"lon":5.35619,"is_reserved":false,"is_disabled":false,"rental_uris":{"android":"levelo://app?vid=f3ed74b7-b666-4dfa-8970-48319ed863a6","ios":"levelo://app?vid=f3ed74b7-b666-4dfa-8970-48319ed863a6"},"vehicle_type_id":"4","last_reported":1732115361,"current_range_meters":38800,"station_id":"ce4bhb92rcd13ifvqen0","pricing_plan_id":"cebpf4jnsgd1na2vs0mg"},{"bike_id":"c5f1db54-11ea-4990-b832-555ec10080b9","system_id":"levelo_inurba_marseille","lat":43.26574,"lon":5.39033,"is_reserved":false,"is_disabled":true,"rental_uris":{"android":"levelo://app?vid=c5f1db54-11ea-4990-b832-555ec10080b9","ios":"levelo://app?vid=c5f1db54-11ea-4990-b832-555ec10080b9"},"vehicle_type_id":"4","last_reported":1732115361,"current_range_meters":0,"station_id":"ce4bhe12rcd13ifvqf30","pricing_plan_id":"cebpf4jnsgd1na2vs0mg"},{"bike_id":"85d744ec-cb15-4b2f-b08a-d28287017cb9","system_id":"levelo_inurba_marseille","lat":43.28574,"lon":5.39506,"is_reserved":false,"is_disabled":false,"rental_uris":{"android":"levelo://app?vid=85d744ec-cb15-4b2f-b08a-d28287017cb9","ios":"levelo://app?vid=85d744ec-cb15-4b2f-b08a-d28287017cb9"},"vehicle_type_id":"4","last_reported":1732115361,"current_range_meters":38800,"station_id":"ce4bh292rcd13ifvqdg0","pricing_plan_id":"cebpf4jnsgd1na2vs0mg"},{"bike_id":"547ef4ba-50dc-4c7f-88fb-8cb1bad75b32","system_id":"levelo_inurba_marseille","lat":43.28156,"lon":5.42647,"is_reserved":false,"is_disabled":false,"rental_uris":{"android":"levelo://app?vid=547ef4ba-50dc-4c7f-88fb-8cb1bad75b32","ios":"levelo://app?vid=547ef4ba-50dc-4c7f-88fb-8cb1bad75b32"},"vehicle_type_id":"4","last_reported":1732115361,"current_range_meters":17600,"station_id":"ce4bhnh2rcd13ifvqgug","pricing_plan_id":"cebpf4jnsgd1na2vs0mg"},{"bike_id":"a858d3c9-f611-4d50-9c6e-5d3eb791536e","system_id":"levelo_inurba_marseille","lat":43.29901,"lon":5.40191,"is_reserved":false,"is_disabled":false,"rental_uris":{"android":"levelo://app?vid=a858d3c9-f611-4d50-9c6e-5d3eb791536e","ios":"levelo://app?vid=a858d3c9-f611-4d50-9c6e-5d3eb791536e"},"vehicle_type_id":"4","last_reported":1732115361,"current_range_meters":31200,"station_id":"","pricing_plan_id":"cebpf4jnsgd1na2vs0mg"},{"bike_id":"9b4d52a8-a22b-418c-a556-65afaca3a235","system_id":"levelo_inurba_marseille","lat":43.3376,"lon":5.37466,"is_reserved":false,"is_disabled":false,"rental_uris":{"android":"levelo://app?vid=9b4d52a8-a22b-418c-a556-65afaca3a235","ios":"levelo://app?vid=9b4d52a8-a22b-418c-a556-65afaca3a235"},"vehicle_type_id":"4","last_reported":1732115361,"current_range_meters":16000,"station_id":"","pricing_plan_id":"cebpf4jnsgd1na2vs0mg"},{"bike_id":"4a480100-024d-48c9-89da-2b1b4df99533","system_id":"levelo_inurba_marseille","lat":43.30144,"lon":5.37426,"is_reserved":false,"is_disabled":false,"rental_uris":{"android":"levelo://app?vid=4a480100-024d-48c9-89da-2b1b4df99533","ios":"levelo://app?vid=4a480100-024d-48c9-89da-2b1b4df99533"},"vehicle_type_id":"4","last_reported":1732115361,"current_range_meters":19200,"station_id":"ce4bgs92rcd13ifvqcc0","pricing_plan_id":"cebpf4jnsgd1na2vs0mg"},{"bike_id":"28013382-a13f-438d-a816-6c0d874cbecc","system_id":"levelo_inurba_marseille","lat":43.32618,"lon":5.41053,"is_reserved":false,"is_disabled":false,"rental_uris":{"android":"levelo://app?vid=28013382-a13f-438d-a816-6c0d874cbecc","ios":"levelo://app?vid=28013382-a13f-438d-a816-6c0d874cbecc"},"vehicle_type_id":"4","last_reported":1732115361,"current_range_meters":23200,"station_id":"","pricing_plan_id":"cebpf4jnsgd1na2vs0mg"},{"bike_id":"b483aa49-d973-45b3-9e82-f4a2b89610a3","system_id":"levelo_inurba_marseille","lat":43.28074,"lon":5.39657,"is_reserved":false,"is_disabled":false,"rental_uris":{"android":"levelo://app?vid=b483aa49-d973-45b3-9e82-f4a2b89610a3","ios":"levelo://app?vid=b483aa49-d973-45b3-9e82-f4a2b89610a3"},"vehicle_type_id":"4","last_reported":1732115361,"current_range_meters":39200,"station_id":"ce4bho12rcd13ifvqh2g","pricing_plan_id":"cebpf4jnsgd1na2vs0mg"},{"bike_id":"ee7027e7-c5bc-4428-8079-9585ac9780c3","system_id":"levelo_inurba_marseille","lat":43.27171,"lon":5.40994,"is_reserved":false,"is_disabled":false,"rental_uris":{"android":"levelo://app?vid=ee7027e7-c5bc-4428-8079-9585ac9780c3","ios":"levelo://app?vid=ee7027e7-c5bc-4428-8079-9585ac9780c3"},"vehicle_type_id":"4","last_reported":1732115361,"current_range_meters":22400,"station_id":"ce4bhl12rcd13ifvqgf0","pricing_plan_id":"cebpf4jnsgd1na2vs0mg"},{"bike_id":"5adc63a5-1251-4e0f-a23d-8ee6ab24af22","system_id":"levelo_inurba_marseille","lat":43.27617,"lon":5.36128,"is_reserved":false,"is_disabled":false,"rental_uris":{"android":"levelo://app?vid=5adc63a5-1251-4e0f-a23d-8ee6ab24af22","ios":"levelo://app?vid=5adc63a5-1251-4e0f-a23d-8ee6ab24af22"},"vehicle_type_id":"4","last_reported":1732115361,"current_range_meters":38800,"station_id":"ce4bgj92rcd13ifvqbe0","pricing_plan_id":"cebpf4jnsgd1na2vs0mg"},{"bike_id":"e74e8692-56b5-455e-b107-3674a73c30f0","system_id":"levelo_inurba_marseille","lat":43.29267,"lon":5.3685,"is_reserved":false,"is_disabled":false,"rental_uris":{"android":"levelo://app?vid=e74e8692-56b5-455e-b107-3674a73c30f0","ios":"levelo://app?vid=e74e8692-56b5-455e-b107-3674a73c30f0"},"vehicle_type_id":"4","last_reported":1732115361,"current_range_meters":38800,"station_id":"ce4bhbp2rcd13ifvqesg","pricing_plan_id":"cebpf4jnsgd1na2vs0mg"},{"bike_id":"f8d773ad-6117-441c-8a1f-2ad7889ac928","system_id":"levelo_inurba_marseille","lat":43.337444,"lon":5.374475,"is_reserved":false,"is_disabled":false,"rental_uris":{"android":"levelo://app?vid=f8d773ad-6117-441c-8a1f-2ad7889ac928","ios":"levelo://app?vid=f8d773ad-6117-441c-8a1f-2ad7889ac928"},"vehicle_type_id":"4","last_reported":1732115361,"current_range_meters":32800,"station_id":"","pricing_plan_id":"cebpf4jnsgd1na2vs0mg"},{"bike_id":"b983ec96-9b4e-4bdb-9739-bc3017dfa85c","system_id":"levelo_inurba_marseille","lat":43.28336,"lon":5.38105,"is_reserved":false,"is_disabled":false,"rental_uris":{"android":"levelo://app?vid=b983ec96-9b4e-4bdb-9739-bc3017dfa85c","ios":"levelo://app?vid=b983ec96-9b4e-4bdb-9739-bc3017dfa85c"},"vehicle_type_id":"4","last_reported":1732115361,"current_range_meters":4400,"station_id":"ce4bh412rcd13ifvqdr0","pricing_plan_id":"cebpf4jnsgd1na2vs0mg"},{"bike_id":"a32613c2-ce23-4c6b-99d9-f02f377bc95a","system_id":"levelo_inurba_marseille","lat":43.337444,"lon":5.374475,"is_reserved":false,"is_disabled":false,"rental_uris":{"android":"levelo://app?vid=a32613c2-ce23-4c6b-99d9-f02f377bc95a","ios":"levelo://app?vid=a32613c2-ce23-4c6b-99d9-f02f377bc95a"},"vehicle_type_id":"4","last_reported":1732115361,"current_range_meters":38400,"station_id":"","pricing_plan_id":"cebpf4jnsgd1na2vs0mg"},{"bike_id":"b776332e-40d1-4fd6-9c65-32803e6de98b","system_id":"levelo_inurba_marseille","lat":43.30142,"lon":5.37422,"is_reserved":false,"is_disabled":true,"rental_uris":{"android":"levelo://app?vid=b776332e-40d1-4fd6-9c65-32803e6de98b","ios":"levelo://app?vid=b776332e-40d1-4fd6-9c65-32803e6de98b"},"vehicle_type_id":"4","last_reported":1732115361,"current_range_meters":27200,"station_id":"","pricing_plan_id":"cebpf4jnsgd1na2vs0mg"},{"bike_id":"27131bab-36c8-459f-9d6d-e837ee329958","system_id":"levelo_inurba_marseille","lat":43.30153,"lon":5.37419,"is_reserved":false,"is_disabled":false,"rental_uris":{"android":"levelo://app?vid=27131bab-36c8-459f-9d6d-e837ee329958","ios":"levelo://app?vid=27131bab-36c8-459f-9d6d-e837ee329958"},"vehicle_type_id":"4","last_reported":1732115361,"current_range_meters":38800,"station_id":"ce4bgs92rcd13ifvqcc0","pricing_plan_id":"cebpf4jnsgd1na2vs0mg"},{"bike_id":"32414af1-6b54-43fc-b3c0-b44ea325bd12","system_id":"levelo_inurba_marseille","lat":43.31076,"lon":5.38357,"is_reserved":false,"is_disabled":false,"rental_uris":{"android":"levelo://app?vid=32414af1-6b54-43fc-b3c0-b44ea325bd12","ios":"levelo://app?vid=32414af1-6b54-43fc-b3c0-b44ea325bd12"},"vehicle_type_id":"4","last_reported":1732115361,"current_range_meters":36000,"station_id":"ce4bgv92rcd13ifvqcr0","pricing_plan_id":"cebpf4jnsgd1na2vs0mg"},{"bike_id":"d83ca54b-110a-4b85-bd81-2f091c6c560a","system_id":"levelo_inurba_marseille","lat":43.3042,"lon":5.41286,"is_reserved":false,"is_disabled":false,"rental_uris":{"android":"levelo://app?vid=d83ca54b-110a-4b85-bd81-2f091c6c560a","ios":"levelo://app?vid=d83ca54b-110a-4b85-bd81-2f091c6c560a"},"vehicle_type_id":"4","last_reported":1732115361,"current_range_meters":25200,"station_id":"ce4bhop2rcd13ifvqh8g","pricing_plan_id":"cebpf4jnsgd1na2vs0mg"},{"bike_id":"4361da98-532b-4887-b85d-e7d76f30bc9f","system_id":"levelo_inurba_marseille","lat":43.30589,"lon":5.37216,"is_reserved":false,"is_disabled":false,"rental_uris":{"android":"levelo://app?vid=4361da98-532b-4887-b85d-e7d76f30bc9f","ios":"levelo://app?vid=4361da98-532b-4887-b85d-e7d76f30bc9f"},"vehicle_type_id":"4","last_reported":1732115361,"current_range_meters":38800,"station_id":"ce4bgqh2rcd13ifvqc4g","pricing_plan_id":"cebpf4jnsgd1na2vs0mg"},{"bike_id":"5d436f52-a822-4e6c-90b6-3720cb098923","system_id":"levelo_inurba_marseille","lat":43.32291,"lon":5.38273,"is_reserved":false,"is_disabled":false,"rental_uris":{"android":"levelo://app?vid=5d436f52-a822-4e6c-90b6-3720cb098923","ios":"levelo://app?vid=5d436f52-a822-4e6c-90b6-3720cb098923"},"vehicle_type_id":"4","last_reported":1732115361,"current_range_meters":18000,"station_id":"ce4bhr12rcd13ifvqhqg","pricing_plan_id":"cebpf4jnsgd1na2vs0mg"},{"bike_id":"e4c11769-2c19-46a4-a622-9a2180bb2646","system_id":"levelo_inurba_marseille","lat":43.23149,"lon":5.43709,"is_reserved":false,"is_disabled":false,"rental_uris":{"android":"levelo://app?vid=e4c11769-2c19-46a4-a622-9a2180bb2646","ios":"levelo://app?vid=e4c11769-2c19-46a4-a622-9a2180bb2646"},"vehicle_type_id":"4","last_reported":1732115361,"current_range_meters":38800,"station_id":"ce4bhmp2rcd13ifvqgog","pricing_plan_id":"cebpf4jnsgd1na2vs0mg"},{"bike_id":"4338d9b7-ddd5-4699-8476-5fdf62d9bf2c","system_id":"levelo_inurba_marseille","lat":43.29535,"lon":5.38535,"is_reserved":false,"is_disabled":false,"rental_uris":{"android":"levelo://app?vid=4338d9b7-ddd5-4699-8476-5fdf62d9bf2c","ios":"levelo://app?vid=4338d9b7-ddd5-4699-8476-5fdf62d9bf2c"},"vehicle_type_id":"4","last_reported":1732115361,"current_range_meters":35600,"station_id":"ce4bgih2rcd13ifvqba0","pricing_plan_id":"cebpf4jnsgd1na2vs0mg"},{"bike_id":"b1cedc83-c61f-4409-9668-a0092534a00a","system_id":"levelo_inurba_marseille","lat":43.2861,"lon":5.37071,"is_reserved":false,"is_disabled":false,"rental_uris":{"android":"levelo://app?vid=b1cedc83-c61f-4409-9668-a0092534a00a","ios":"levelo://app?vid=b1cedc83-c61f-4409-9668-a0092534a00a"},"vehicle_type_id":"4","last_reported":1732115361,"current_range_meters":7200,"station_id":"ce4bht12rcd13ifvqi60","pricing_plan_id":"cebpf4jnsgd1na2vs0mg"},{"bike_id":"0df706e6-2835-4c83-8ba8-3798946f1f9e","system_id":"levelo_inurba_marseille","lat":43.26682,"lon":5.38269,"is_reserved":false,"is_disabled":false,"rental_uris":{"android":"levelo://app?vid=0df706e6-2835-4c83-8ba8-3798946f1f9e","ios":"levelo://app?vid=0df706e6-2835-4c83-8ba8-3798946f1f9e"},"vehicle_type_id":"4","last_reported":1732115361,"current_range_meters":12400,"station_id":"ce4bhg92rcd13ifvqf90","pricing_plan_id":"cebpf4jnsgd1na2vs0mg"},{"bike_id":"a6eb028f-ec3f-4274-b618-56c594a327df","system_id":"levelo_inurba_marseille","lat":43.2755,"lon":5.38445,"is_reserved":false,"is_disabled":false,"rental_uris":{"android":"levelo://app?vid=a6eb028f-ec3f-4274-b618-56c594a327df","ios":"levelo://app?vid=a6eb028f-ec3f-4274-b618-56c594a327df"},"vehicle_type_id":"4","last_reported":1732115361,"current_range_meters":38800,"station_id":"ce4bhh92rcd13ifvqfi0","pricing_plan_id":"cebpf4jnsgd1na2vs0mg"},{"bike_id":"6f83fb51-5ea2-48b2-96d9-025738438d9d","system_id":"levelo_inurba_marseille","lat":43.27205,"lon":5.39186,"is_reserved":false,"is_disabled":false,"rental_uris":{"android":"levelo://app?vid=6f83fb51-5ea2-48b2-96d9-025738438d9d","ios":"levelo://app?vid=6f83fb51-5ea2-48b2-96d9-025738438d9d"},"vehicle_type_id":"4","last_reported":1732115361,"current_range_meters":6800,"station_id":"ce4bhhp2rcd13ifvqfm0","pricing_plan_id":"cebpf4jnsgd1na2vs0mg"},{"bike_id":"8818b0a7-c814-4461-bb43-5fd8c33bac08","system_id":"levelo_inurba_marseille","lat":43.3302,"lon":5.39033,"is_reserved":false,"is_disabled":false,"rental_uris":{"android":"levelo://app?vid=8818b0a7-c814-4461-bb43-5fd8c33bac08","ios":"levelo://app?vid=8818b0a7-c814-4461-bb43-5fd8c33bac08"},"vehicle_type_id":"4","last_reported":1732115361,"current_range_meters":30400,"station_id":"ce4bhr92rcd13ifvqhrg","pricing_plan_id":"cebpf4jnsgd1na2vs0mg"},{"bike_id":"de70783a-355f-4d8a-8b60-5096cb21639a","system_id":"levelo_inurba_marseille","lat":43.26552,"lon":5.37291,"is_reserved":false,"is_disabled":false,"rental_uris":{"android":"levelo://app?vid=de70783a-355f-4d8a-8b60-5096cb21639a","ios":"levelo://app?vid=de70783a-355f-4d8a-8b60-5096cb21639a"},"vehicle_type_id":"4","last_reported":1732115361,"current_range_meters":9200,"station_id":"ce4bhg12rcd13ifvqf70","pricing_plan_id":"cebpf4jnsgd1na2vs0mg"},{"bike_id":"1904e4d6-e1e0-456f-9800-8b0e0e7107b4","system_id":"levelo_inurba_marseille","lat":43.23153,"lon":5.4371,"is_reserved":false,"is_disabled":true,"rental_uris":{"android":"levelo://app?vid=1904e4d6-e1e0-456f-9800-8b0e0e7107b4","ios":"levelo://app?vid=1904e4d6-e1e0-456f-9800-8b0e0e7107b4"},"vehicle_type_id":"4","last_reported":1732115361,"current_range_meters":0,"station_id":"ce4bhmp2rcd13ifvqgog","pricing_plan_id":"cebpf4jnsgd1na2vs0mg"},{"bike_id":"4d47a2d6-27cc-4d35-8b5d-74c0c33d22e8","system_id":"levelo_inurba_marseille","lat":43.24808,"lon":5.37462,"is_reserved":false,"is_disabled":false,"rental_uris":{"android":"levelo://app?vid=4d47a2d6-27cc-4d35-8b5d-74c0c33d22e8","ios":"levelo://app?vid=4d47a2d6-27cc-4d35-8b5d-74c0c33d22e8"},"vehicle_type_id":"4","last_reported":1732115361,"current_range_meters":10800,"station_id":"ce4bhgh2rcd13ifvqfb0","pricing_plan_id":"cebpf4jnsgd1na2vs0mg"},{"bike_id":"c25de37d-33b2-4372-a08d-e17c37a715b8","system_id":"levelo_inurba_marseille","lat":43.26488,"lon":5.3955,"is_reserved":false,"is_disabled":false,"rental_uris":{"android":"levelo://app?vid=c25de37d-33b2-4372-a08d-e17c37a715b8","ios":"levelo://app?vid=c25de37d-33b2-4372-a08d-e17c37a715b8"},"vehicle_type_id":"4","last_reported":1732115361,"current_range_meters":36000,"station_id":"ce4bhi12rcd13ifvqfq0","pricing_plan_id":"cebpf4jnsgd1na2vs0mg"},{"bike_id":"5bed771e-39e5-41eb-a8cc-e9dd79035ab2","system_id":"levelo_inurba_marseille","lat":43.32106,"lon":5.36778,"is_reserved":false,"is_disabled":false,"rental_uris":{"android":"levelo://app?vid=5bed771e-39e5-41eb-a8cc-e9dd79035ab2","ios":"levelo://app?vid=5bed771e-39e5-41eb-a8cc-e9dd79035ab2"},"vehicle_type_id":"4","last_reported":1732115361,"current_range_meters":25600,"station_id":"ce4bhrh2rcd13ifvqhug","pricing_plan_id":"cebpf4jnsgd1na2vs0mg"},{"bike_id":"1eff5ce5-2d56-4465-a12c-60db9ec2175a","system_id":"levelo_inurba_marseille","lat":43.22928,"lon":5.35375,"is_reserved":false,"is_disabled":false,"rental_uris":{"android":"levelo://app?vid=1eff5ce5-2d56-4465-a12c-60db9ec2175a","ios":"levelo://app?vid=1eff5ce5-2d56-4465-a12c-60db9ec2175a"},"vehicle_type_id":"4","last_reported":1732115361,"current_range_meters":16000,"station_id":"cpo3532slgdg3j2ikp40","pricing_plan_id":"cebpf4jnsgd1na2vs0mg"},{"bike_id":"6df5cfd4-48bc-4cfc-87d2-cdf8a83f62a1","system_id":"levelo_inurba_marseille","lat":43.29721,"lon":5.37691,"is_reserved":false,"is_disabled":false,"rental_uris":{"android":"levelo://app?vid=6df5cfd4-48bc-4cfc-87d2-cdf8a83f62a1","ios":"levelo://app?vid=6df5cfd4-48bc-4cfc-87d2-cdf8a83f62a1"},"vehicle_type_id":"4","last_reported":1732115361,"current_range_meters":12800,"station_id":"ce4bgkh2rcd13ifvqbl0","pricing_plan_id":"cebpf4jnsgd1na2vs0mg"},{"bike_id":"2ababd92-0357-4cfc-b6e0-d35df1f43f27","system_id":"levelo_inurba_marseille","lat":43.29905,"lon":5.4019,"is_reserved":false,"is_disabled":false,"rental_uris":{"android":"levelo://app?vid=2ababd92-0357-4cfc-b6e0-d35df1f43f27","ios":"levelo://app?vid=2ababd92-0357-4cfc-b6e0-d35df1f43f27"},"vehicle_type_id":"4","last_reported":1732115361,"current_range_meters":20800,"station_id":"","pricing_plan_id":"cebpf4jnsgd1na2vs0mg"},{"bike_id":"f1126846-151c-41db-a723-1b5f4b356b87","system_id":"levelo_inurba_marseille","lat":43.32363,"lon":5.38884,"is_reserved":false,"is_disabled":true,"rental_uris":{"android":"levelo://app?vid=f1126846-151c-41db-a723-1b5f4b356b87","ios":"levelo://app?vid=f1126846-151c-41db-a723-1b5f4b356b87"},"vehicle_type_id":"4","last_reported":1732115361,"current_range_meters":13600,"station_id":"ce4bhqp2rcd13ifvqhog","pricing_plan_id":"cebpf4jnsgd1na2vs0mg"},{"bike_id":"0d49403e-f818-45f5-8b06-4342166a3804","system_id":"levelo_inurba_marseille","lat":43.29972,"lon":5.37177,"is_reserved":false,"is_disabled":false,"rental_uris":{"android":"levelo://app?vid=0d49403e-f818-45f5-8b06-4342166a3804","ios":"levelo://app?vid=0d49403e-f818-45f5-8b06-4342166a3804"},"vehicle_type_id":"4","last_reported":1732115361,"current_range_meters":24800,"station_id":"ce4bgr92rcd13ifvqc7g","pricing_plan_id":"cebpf4jnsgd1na2vs0mg"},{"bike_id":"954054ad-77ac-46c3-a1b5-c8fc266a522b","system_id":"levelo_inurba_marseille","lat":43.31725,"lon":5.42397,"is_reserved":false,"is_disabled":false,"rental_uris":{"android":"levelo://app?vid=954054ad-77ac-46c3-a1b5-c8fc266a522b","ios":"levelo://app?vid=954054ad-77ac-46c3-a1b5-c8fc266a522b"},"vehicle_type_id":"4","last_reported":1732115361,"current_range_meters":38800,"station_id":"ce4bhp92rcd13ifvqhbg","pricing_plan_id":"cebpf4jnsgd1na2vs0mg"},{"bike_id":"6fb21490-ae35-486e-851e-6a8be14ace0e","system_id":"levelo_inurba_marseille","lat":43.30537,"lon":5.36736,"is_reserved":false,"is_disabled":false,"rental_uris":{"android":"levelo://app?vid=6fb21490-ae35-486e-851e-6a8be14ace0e","ios":"levelo://app?vid=6fb21490-ae35-486e-851e-6a8be14ace0e"},"vehicle_type_id":"4","last_reported":1732115361,"current_range_meters":12400,"station_id":"ce4bgrp2rcd13ifvqc9g","pricing_plan_id":"cebpf4jnsgd1na2vs0mg"},{"bike_id":"9c4a655e-2680-4a60-a844-6a2ea62fb4b1","system_id":"levelo_inurba_marseille","lat":43.26067,"lon":5.39402,"is_reserved":false,"is_disabled":false,"rental_uris":{"android":"levelo://app?vid=9c4a655e-2680-4a60-a844-6a2ea62fb4b1","ios":"levelo://app?vid=9c4a655e-2680-4a60-a844-6a2ea62fb4b1"},"vehicle_type_id":"4","last_reported":1732115361,"current_range_meters":24400,"station_id":"ce4bhh92rcd13ifvqfj0","pricing_plan_id":"cebpf4jnsgd1na2vs0mg"},{"bike_id":"5a390d72-ae57-4a2f-bab1-9c3a36c00b54","system_id":"levelo_inurba_marseille","lat":43.24805,"lon":5.3746,"is_reserved":false,"is_disabled":false,"rental_uris":{"android":"levelo://app?vid=5a390d72-ae57-4a2f-bab1-9c3a36c00b54","ios":"levelo://app?vid=5a390d72-ae57-4a2f-bab1-9c3a36c00b54"},"vehicle_type_id":"4","last_reported":1732115361,"current_range_meters":37600,"station_id":"ce4bhgh2rcd13ifvqfb0","pricing_plan_id":"cebpf4jnsgd1na2vs0mg"},{"bike_id":"ea5fb77d-dc86-40ce-a1b0-aef7f884c30e","system_id":"levelo_inurba_marseille","lat":43.28488,"lon":5.38418,"is_reserved":false,"is_disabled":false,"rental_uris":{"android":"levelo://app?vid=ea5fb77d-dc86-40ce-a1b0-aef7f884c30e","ios":"levelo://app?vid=ea5fb77d-dc86-40ce-a1b0-aef7f884c30e"},"vehicle_type_id":"4","last_reported":1732115361,"current_range_meters":28000,"station_id":"ce4bh512rcd13ifvqe3g","pricing_plan_id":"cebpf4jnsgd1na2vs0mg"},{"bike_id":"e840fe4f-47a0-4d31-8133-7c332a3d517a","system_id":"levelo_inurba_marseille","lat":43.31078,"lon":5.42432,"is_reserved":false,"is_disabled":true,"rental_uris":{"android":"levelo://app?vid=e840fe4f-47a0-4d31-8133-7c332a3d517a","ios":"levelo://app?vid=e840fe4f-47a0-4d31-8133-7c332a3d517a"},"vehicle_type_id":"4","last_reported":1732115361,"current_range_meters":10000,"station_id":"ce4bhp92rcd13ifvqhag","pricing_plan_id":"cebpf4jnsgd1na2vs0mg"},{"bike_id":"abd2258a-038a-4c01-864f-097bfdcbf118","system_id":"levelo_inurba_marseille","lat":43.308873,"lon":5.368638,"is_reserved":false,"is_disabled":false,"rental_uris":{"android":"levelo://app?vid=abd2258a-038a-4c01-864f-097bfdcbf118","ios":"levelo://app?vid=abd2258a-038a-4c01-864f-097bfdcbf118"},"vehicle_type_id":"4","last_reported":1732115361,"current_range_meters":16400,"station_id":"ce4bgn92rcd13ifvqbvg","pricing_plan_id":"cebpf4jnsgd1na2vs0mg"},{"bike_id":"50b5ab72-375a-4967-9bd7-4c76a86481a5","system_id":"levelo_inurba_marseille","lat":43.299,"lon":5.38883,"is_reserved":false,"is_disabled":false,"rental_uris":{"android":"levelo://app?vid=50b5ab72-375a-4967-9bd7-4c76a86481a5","ios":"levelo://app?vid=50b5ab72-375a-4967-9bd7-4c76a86481a5"},"vehicle_type_id":"4","last_reported":1732115361,"current_range_meters":8800,"station_id":"ce4bh392rcd13ifvqdl0","pricing_plan_id":"cebpf4jnsgd1na2vs0mg"},{"bike_id":"a1cf6f06-44aa-4bc8-9eb2-8055a5e207a9","system_id":"levelo_inurba_marseille","lat":43.32484,"lon":5.36565,"is_reserved":false,"is_disabled":false,"rental_uris":{"android":"levelo://app?vid=a1cf6f06-44aa-4bc8-9eb2-8055a5e207a9","ios":"levelo://app?vid=a1cf6f06-44aa-4bc8-9eb2-8055a5e207a9"},"vehicle_type_id":"4","last_reported":1732115361,"current_range_meters":38800,"station_id":"ce4bhs12rcd13ifvqhvg","pricing_plan_id":"cebpf4jnsgd1na2vs0mg"},{"bike_id":"98b32e58-9186-4741-afff-13e77a09e04c","system_id":"levelo_inurba_marseille","lat":43.25084,"lon":5.39511,"is_reserved":false,"is_disabled":false,"rental_uris":{"android":"levelo://app?vid=98b32e58-9186-4741-afff-13e77a09e04c","ios":"levelo://app?vid=98b32e58-9186-4741-afff-13e77a09e04c"},"vehicle_type_id":"4","last_reported":1732115361,"current_range_meters":26800,"station_id":"ce4bhm12rcd13ifvqgkg","pricing_plan_id":"cebpf4jnsgd1na2vs0mg"},{"bike_id":"1fc637b8-f9c7-491b-a62f-c0c862ffe272","system_id":"levelo_inurba_marseille","lat":43.31479,"lon":5.37306,"is_reserved":false,"is_disabled":false,"rental_uris":{"android":"levelo://app?vid=1fc637b8-f9c7-491b-a62f-c0c862ffe272","ios":"levelo://app?vid=1fc637b8-f9c7-491b-a62f-c0c862ffe272"},"vehicle_type_id":"4","last_reported":1732115361,"current_range_meters":17600,"station_id":"ce4bgt12rcd13ifvqcd0","pricing_plan_id":"cebpf4jnsgd1na2vs0mg"},{"bike_id":"7bec47bd-edd4-4415-924c-dbdf57e3d376","system_id":"levelo_inurba_marseille","lat":43.31367,"lon":5.36686,"is_reserved":false,"is_disabled":false,"rental_uris":{"android":"levelo://app?vid=7bec47bd-edd4-4415-924c-dbdf57e3d376","ios":"levelo://app?vid=7bec47bd-edd4-4415-924c-dbdf57e3d376"},"vehicle_type_id":"4","last_reported":1732115361,"current_range_meters":38800,"station_id":"ce4bgr92rcd13ifvqc6g","pricing_plan_id":"cebpf4jnsgd1na2vs0mg"},{"bike_id":"7eaf5910-b4db-4259-961f-d6ce83b4b295","system_id":"levelo_inurba_marseille","lat":43.337444,"lon":5.374475,"is_reserved":false,"is_disabled":false,"rental_uris":{"android":"levelo://app?vid=7eaf5910-b4db-4259-961f-d6ce83b4b295","ios":"levelo://app?vid=7eaf5910-b4db-4259-961f-d6ce83b4b295"},"vehicle_type_id":"4","last_reported":1732115361,"current_range_meters":38000,"station_id":"","pricing_plan_id":"cebpf4jnsgd1na2vs0mg"},{"bike_id":"36664ebb-4ca8-4637-b42b-d46c14de65dd","system_id":"levelo_inurba_marseille","lat":43.30606,"lon":5.37218,"is_reserved":false,"is_disabled":false,"rental_uris":{"android":"levelo://app?vid=36664ebb-4ca8-4637-b42b-d46c14de65dd","ios":"levelo://app?vid=36664ebb-4ca8-4637-b42b-d46c14de65dd"},"vehicle_type_id":"4","last_reported":1732115361,"current_range_meters":39200,"station_id":"ce4bgqh2rcd13ifvqc4g","pricing_plan_id":"cebpf4jnsgd1na2vs0mg"},{"bike_id":"144b7443-439b-4eb3-a8bb-304f595a9422","system_id":"levelo_inurba_marseille","lat":43.28,"lon":5.40016,"is_reserved":false,"is_disabled":false,"rental_uris":{"android":"levelo://app?vid=144b7443-439b-4eb3-a8bb-304f595a9422","ios":"levelo://app?vid=144b7443-439b-4eb3-a8bb-304f595a9422"},"vehicle_type_id":"4","last_reported":1732115361,"current_range_meters":40000,"station_id":"ce4bho92rcd13ifvqh4g","pricing_plan_id":"cebpf4jnsgd1na2vs0mg"},{"bike_id":"05725ad4-e1a4-4023-9f02-37bc3fcd6926","system_id":"levelo_inurba_marseille","lat":43.23151,"lon":5.43705,"is_reserved":false,"is_disabled":false,"rental_uris":{"android":"levelo://app?vid=05725ad4-e1a4-4023-9f02-37bc3fcd6926","ios":"levelo://app?vid=05725ad4-e1a4-4023-9f02-37bc3fcd6926"},"vehicle_type_id":"4","last_reported":1732115361,"current_range_meters":39200,"station_id":"ce4bhmp2rcd13ifvqgog","pricing_plan_id":"cebpf4jnsgd1na2vs0mg"},{"bike_id":"cdef276e-b5a5-4022-b3eb-aef900f6b002","system_id":"levelo_inurba_marseille","lat":43.24387,"lon":5.37065,"is_reserved":false,"is_disabled":false,"rental_uris":{"android":"levelo://app?vid=cdef276e-b5a5-4022-b3eb-aef900f6b002","ios":"levelo://app?vid=cdef276e-b5a5-4022-b3eb-aef900f6b002"},"vehicle_type_id":"4","last_reported":1732115361,"current_range_meters":18800,"station_id":"ce4bhhh2rcd13ifvqfk0","pricing_plan_id":"cebpf4jnsgd1na2vs0mg"},{"bike_id":"e66fb724-c129-4279-b539-98885d063721","system_id":"levelo_inurba_marseille","lat":43.292786,"lon":5.408984,"is_reserved":false,"is_disabled":false,"rental_uris":{"android":"levelo://app?vid=e66fb724-c129-4279-b539-98885d063721","ios":"levelo://app?vid=e66fb724-c129-4279-b539-98885d063721"},"vehicle_type_id":"4","last_reported":1732115361,"current_range_meters":34000,"station_id":"","pricing_plan_id":"cebpf4jnsgd1na2vs0mg"},{"bike_id":"07aefd15-a845-40e1-b682-f0d6059f2cb6","system_id":"levelo_inurba_marseille","lat":43.32008,"lon":5.38151,"is_reserved":false,"is_disabled":false,"rental_uris":{"android":"levelo://app?vid=07aefd15-a845-40e1-b682-f0d6059f2cb6","ios":"levelo://app?vid=07aefd15-a845-40e1-b682-f0d6059f2cb6"},"vehicle_type_id":"4","last_reported":1732115361,"current_range_meters":38800,"station_id":"ce4bhr12rcd13ifvqhpg","pricing_plan_id":"cebpf4jnsgd1na2vs0mg"},{"bike_id":"da92100c-6198-499c-bcb4-ce99352a2a85","system_id":"levelo_inurba_marseille","lat":43.24249,"lon":5.397,"is_reserved":false,"is_disabled":true,"rental_uris":{"android":"levelo://app?vid=da92100c-6198-499c-bcb4-ce99352a2a85","ios":"levelo://app?vid=da92100c-6198-499c-bcb4-ce99352a2a85"},"vehicle_type_id":"4","last_reported":1732115361,"current_range_meters":2000,"station_id":"ce4bhn12rcd13ifvqgpg","pricing_plan_id":"cebpf4jnsgd1na2vs0mg"},{"bike_id":"5b5f4604-3a82-4584-a08b-4bc79bf3d12b","system_id":"levelo_inurba_marseille","lat":43.30909,"lon":5.37162,"is_reserved":false,"is_disabled":false,"rental_uris":{"android":"levelo://app?vid=5b5f4604-3a82-4584-a08b-4bc79bf3d12b","ios":"levelo://app?vid=5b5f4604-3a82-4584-a08b-4bc79bf3d12b"},"vehicle_type_id":"4","last_reported":1732115361,"current_range_meters":14000,"station_id":"ce4bguh2rcd13ifvqckg","pricing_plan_id":"cebpf4jnsgd1na2vs0mg"},{"bike_id":"4be42907-a17d-4528-aadb-4ee1624a0554","system_id":"levelo_inurba_marseille","lat":43.28036,"lon":5.36956,"is_reserved":false,"is_disabled":false,"rental_uris":{"android":"levelo://app?vid=4be42907-a17d-4528-aadb-4ee1624a0554","ios":"levelo://app?vid=4be42907-a17d-4528-aadb-4ee1624a0554"},"vehicle_type_id":"4","last_reported":1732115361,"current_range_meters":39200,"station_id":"ce4bha12rcd13ifvqef0","pricing_plan_id":"cebpf4jnsgd1na2vs0mg"},{"bike_id":"c042cec0-d787-43d1-8aed-23057d17653d","system_id":"levelo_inurba_marseille","lat":43.24802,"lon":5.37454,"is_reserved":false,"is_disabled":false,"rental_uris":{"android":"levelo://app?vid=c042cec0-d787-43d1-8aed-23057d17653d","ios":"levelo://app?vid=c042cec0-d787-43d1-8aed-23057d17653d"},"vehicle_type_id":"4","last_reported":1732115361,"current_range_meters":8000,"station_id":"ce4bhgh2rcd13ifvqfb0","pricing_plan_id":"cebpf4jnsgd1na2vs0mg"},{"bike_id":"4e9f60f9-27e3-4b10-a390-b7108622e3cb","system_id":"levelo_inurba_marseille","lat":43.29798,"lon":5.39343,"is_reserved":false,"is_disabled":false,"rental_uris":{"android":"levelo://app?vid=4e9f60f9-27e3-4b10-a390-b7108622e3cb","ios":"levelo://app?vid=4e9f60f9-27e3-4b10-a390-b7108622e3cb"},"vehicle_type_id":"4","last_reported":1732115361,"current_range_meters":38400,"station_id":"chh1huq6cuj3fo74tm60","pricing_plan_id":"cebpf4jnsgd1na2vs0mg"},{"bike_id":"fa903a4d-e65a-41f9-bb07-869331be61e5","system_id":"levelo_inurba_marseille","lat":43.27993,"lon":5.40022,"is_reserved":false,"is_disabled":false,"rental_uris":{"android":"levelo://app?vid=fa903a4d-e65a-41f9-bb07-869331be61e5","ios":"levelo://app?vid=fa903a4d-e65a-41f9-bb07-869331be61e5"},"vehicle_type_id":"4","last_reported":1732115361,"current_range_meters":36800,"station_id":"ce4bho92rcd13ifvqh4g","pricing_plan_id":"cebpf4jnsgd1na2vs0mg"},{"bike_id":"efaa20f7-d2fb-4778-9ca3-b17e9193d440","system_id":"levelo_inurba_marseille","lat":43.33718,"lon":5.39184,"is_reserved":false,"is_disabled":false,"rental_uris":{"android":"levelo://app?vid=efaa20f7-d2fb-4778-9ca3-b17e9193d440","ios":"levelo://app?vid=efaa20f7-d2fb-4778-9ca3-b17e9193d440"},"vehicle_type_id":"4","last_reported":1732115361,"current_range_meters":34000,"station_id":"ce4bhr92rcd13ifvqhsg","pricing_plan_id":"cebpf4jnsgd1na2vs0mg"},{"bike_id":"0ac103dd-3b16-4064-8218-76865298b513","system_id":"levelo_inurba_marseille","lat":43.2992,"lon":5.37464,"is_reserved":false,"is_disabled":false,"rental_uris":{"android":"levelo://app?vid=0ac103dd-3b16-4064-8218-76865298b513","ios":"levelo://app?vid=0ac103dd-3b16-4064-8218-76865298b513"},"vehicle_type_id":"4","last_reported":1732115361,"current_range_meters":38800,"station_id":"ce4bgjh2rcd13ifvqbg0","pricing_plan_id":"cebpf4jnsgd1na2vs0mg"},{"bike_id":"cbb19e09-aa20-4763-8e71-dc123172ec07","system_id":"levelo_inurba_marseille","lat":43.23152,"lon":5.4371,"is_reserved":false,"is_disabled":false,"rental_uris":{"android":"levelo://app?vid=cbb19e09-aa20-4763-8e71-dc123172ec07","ios":"levelo://app?vid=cbb19e09-aa20-4763-8e71-dc123172ec07"},"vehicle_type_id":"4","last_reported":1732115361,"current_range_meters":38800,"station_id":"ce4bhmp2rcd13ifvqgog","pricing_plan_id":"cebpf4jnsgd1na2vs0mg"},{"bike_id":"d13f72bd-036f-4958-b587-d0439abfa2e5","system_id":"levelo_inurba_marseille","lat":43.29567,"lon":5.39974,"is_reserved":false,"is_disabled":false,"rental_uris":{"android":"levelo://app?vid=d13f72bd-036f-4958-b587-d0439abfa2e5","ios":"levelo://app?vid=d13f72bd-036f-4958-b587-d0439abfa2e5"},"vehicle_type_id":"4","last_reported":1732115361,"current_range_meters":38000,"station_id":"ce4bh312rcd13ifvqdj0","pricing_plan_id":"cebpf4jnsgd1na2vs0mg"},{"bike_id":"028e5427-36e2-49e1-b3db-260058fffb58","system_id":"levelo_inurba_marseille","lat":43.25575,"lon":5.38237,"is_reserved":false,"is_disabled":false,"rental_uris":{"android":"levelo://app?vid=028e5427-36e2-49e1-b3db-260058fffb58","ios":"levelo://app?vid=028e5427-36e2-49e1-b3db-260058fffb58"},"vehicle_type_id":"4","last_reported":1732115361,"current_range_meters":27600,"station_id":"ce4bhih2rcd13ifvqfs0","pricing_plan_id":"cebpf4jnsgd1na2vs0mg"},{"bike_id":"9aebab83-4ec3-4ff0-b39b-3ef7b4648bad","system_id":"levelo_inurba_marseille","lat":43.26561,"lon":5.39035,"is_reserved":false,"is_disabled":false,"rental_uris":{"android":"levelo://app?vid=9aebab83-4ec3-4ff0-b39b-3ef7b4648bad","ios":"levelo://app?vid=9aebab83-4ec3-4ff0-b39b-3ef7b4648bad"},"vehicle_type_id":"4","last_reported":1732115361,"current_range_meters":22000,"station_id":"ce4bhe12rcd13ifvqf30","pricing_plan_id":"cebpf4jnsgd1na2vs0mg"},{"bike_id":"a820487b-8ff2-4360-b2f3-86d11f42d4ec","system_id":"levelo_inurba_marseille","lat":43.31218,"lon":5.36857,"is_reserved":false,"is_disabled":false,"rental_uris":{"android":"levelo://app?vid=a820487b-8ff2-4360-b2f3-86d11f42d4ec","ios":"levelo://app?vid=a820487b-8ff2-4360-b2f3-86d11f42d4ec"},"vehicle_type_id":"4","last_reported":1732115361,"current_range_meters":12000,"station_id":"ce4bgl92rcd13ifvqbq0","pricing_plan_id":"cebpf4jnsgd1na2vs0mg"},{"bike_id":"b1a4bf23-c171-4de5-a7aa-e32723bf806a","system_id":"levelo_inurba_marseille","lat":43.24665,"lon":5.38164,"is_reserved":false,"is_disabled":false,"rental_uris":{"android":"levelo://app?vid=b1a4bf23-c171-4de5-a7aa-e32723bf806a","ios":"levelo://app?vid=b1a4bf23-c171-4de5-a7aa-e32723bf806a"},"vehicle_type_id":"4","last_reported":1732115361,"current_range_meters":8800,"station_id":"ce4bhih2rcd13ifvqfr0","pricing_plan_id":"cebpf4jnsgd1na2vs0mg"},{"bike_id":"3aa5fccb-abfc-4871-9f49-7919cbc2be80","system_id":"levelo_inurba_marseille","lat":43.28718,"lon":5.36094,"is_reserved":false,"is_disabled":false,"rental_uris":{"android":"levelo://app?vid=3aa5fccb-abfc-4871-9f49-7919cbc2be80","ios":"levelo://app?vid=3aa5fccb-abfc-4871-9f49-7919cbc2be80"},"vehicle_type_id":"4","last_reported":1732115361,"current_range_meters":32400,"station_id":"cki0cbj6b192h4jlfktg","pricing_plan_id":"cebpf4jnsgd1na2vs0mg"},{"bike_id":"11a921f4-7448-4249-8b7a-3f2009dac01f","system_id":"levelo_inurba_marseille","lat":43.30444,"lon":5.395785,"is_reserved":false,"is_disabled":false,"rental_uris":{"android":"levelo://app?vid=11a921f4-7448-4249-8b7a-3f2009dac01f","ios":"levelo://app?vid=11a921f4-7448-4249-8b7a-3f2009dac01f"},"vehicle_type_id":"4","last_reported":1732115361,"current_range_meters":27600,"station_id":"ce4bh092rcd13ifvqd20","pricing_plan_id":"cebpf4jnsgd1na2vs0mg"},{"bike_id":"41b66025-5082-421d-922c-552de41f1f1b","system_id":"levelo_inurba_marseille","lat":43.33795,"lon":5.37474,"is_reserved":false,"is_disabled":false,"rental_uris":{"android":"levelo://app?vid=41b66025-5082-421d-922c-552de41f1f1b","ios":"levelo://app?vid=41b66025-5082-421d-922c-552de41f1f1b"},"vehicle_type_id":"4","last_reported":1732115361,"current_range_meters":36000,"station_id":"","pricing_plan_id":"cebpf4jnsgd1na2vs0mg"},{"bike_id":"ae28f309-442b-481a-b36d-497f21a8e6e0","system_id":"levelo_inurba_marseille","lat":43.31755,"lon":5.39029,"is_reserved":false,"is_disabled":false,"rental_uris":{"android":"levelo://app?vid=ae28f309-442b-481a-b36d-497f21a8e6e0","ios":"levelo://app?vid=ae28f309-442b-481a-b36d-497f21a8e6e0"},"vehicle_type_id":"4","last_reported":1732115361,"current_range_meters":39200,"station_id":"ce4bhqp2rcd13ifvqhng","pricing_plan_id":"cebpf4jnsgd1na2vs0mg"},{"bike_id":"b6a5dd45-3299-4794-bb3d-6c5c2b5a78a1","system_id":"levelo_inurba_marseille","lat":43.33023,"lon":5.39041,"is_reserved":false,"is_disabled":false,"rental_uris":{"android":"levelo://app?vid=b6a5dd45-3299-4794-bb3d-6c5c2b5a78a1","ios":"levelo://app?vid=b6a5dd45-3299-4794-bb3d-6c5c2b5a78a1"},"vehicle_type_id":"4","last_reported":1732115361,"current_range_meters":39200,"station_id":"ce4bhr92rcd13ifvqhrg","pricing_plan_id":"cebpf4jnsgd1na2vs0mg"},{"bike_id":"433ee41d-7427-4f2a-94aa-6f35decac4c7","system_id":"levelo_inurba_marseille","lat":43.26033,"lon":5.37559,"is_reserved":false,"is_disabled":false,"rental_uris":{"android":"levelo://app?vid=433ee41d-7427-4f2a-94aa-6f35decac4c7","ios":"levelo://app?vid=433ee41d-7427-4f2a-94aa-6f35decac4c7"},"vehicle_type_id":"4","last_reported":1732115361,"current_range_meters":34800,"station_id":"ce4bhgh2rcd13ifvqfa0","pricing_plan_id":"cebpf4jnsgd1na2vs0mg"},{"bike_id":"422724e5-20b6-4c82-99a6-14994c43927d","system_id":"levelo_inurba_marseille","lat":43.29003,"lon":5.35608,"is_reserved":false,"is_disabled":false,"rental_uris":{"android":"levelo://app?vid=422724e5-20b6-4c82-99a6-14994c43927d","ios":"levelo://app?vid=422724e5-20b6-4c82-99a6-14994c43927d"},"vehicle_type_id":"4","last_reported":1732115361,"current_range_meters":38800,"station_id":"ce4bhb92rcd13ifvqen0","pricing_plan_id":"cebpf4jnsgd1na2vs0mg"},{"bike_id":"0b067f3c-e55c-4de2-897c-3d262d3f1f7e","system_id":"levelo_inurba_marseille","lat":43.31335,"lon":5.39706,"is_reserved":false,"is_disabled":false,"rental_uris":{"android":"levelo://app?vid=0b067f3c-e55c-4de2-897c-3d262d3f1f7e","ios":"levelo://app?vid=0b067f3c-e55c-4de2-897c-3d262d3f1f7e"},"vehicle_type_id":"4","last_reported":1732115361,"current_range_meters":38400,"station_id":"ce4bgvp2rcd13ifvqcu0","pricing_plan_id":"cebpf4jnsgd1na2vs0mg"},{"bike_id":"ef95be68-f924-4da3-934e-ad308acbe5cd","system_id":"levelo_inurba_marseille","lat":43.32369,"lon":5.3888,"is_reserved":false,"is_disabled":false,"rental_uris":{"android":"levelo://app?vid=ef95be68-f924-4da3-934e-ad308acbe5cd","ios":"levelo://app?vid=ef95be68-f924-4da3-934e-ad308acbe5cd"},"vehicle_type_id":"4","last_reported":1732115361,"current_range_meters":12800,"station_id":"ce4bhqp2rcd13ifvqhog","pricing_plan_id":"cebpf4jnsgd1na2vs0mg"},{"bike_id":"44f1c56e-9ee5-48c3-9f67-5ed57fbc1b5d","system_id":"levelo_inurba_marseille","lat":43.25826,"lon":5.39427,"is_reserved":false,"is_disabled":false,"rental_uris":{"android":"levelo://app?vid=44f1c56e-9ee5-48c3-9f67-5ed57fbc1b5d","ios":"levelo://app?vid=44f1c56e-9ee5-48c3-9f67-5ed57fbc1b5d"},"vehicle_type_id":"4","last_reported":1732115361,"current_range_meters":30800,"station_id":"ce4bhip2rcd13ifvqft0","pricing_plan_id":"cebpf4jnsgd1na2vs0mg"},{"bike_id":"e5951ee3-4a5a-4ebb-b469-096c5188dfa3","system_id":"levelo_inurba_marseille","lat":43.23186,"lon":5.35568,"is_reserved":false,"is_disabled":true,"rental_uris":{"android":"levelo://app?vid=e5951ee3-4a5a-4ebb-b469-096c5188dfa3","ios":"levelo://app?vid=e5951ee3-4a5a-4ebb-b469-096c5188dfa3"},"vehicle_type_id":"4","last_reported":1732115361,"current_range_meters":0,"station_id":"ce4bhu92rcd13ifvqi70","pricing_plan_id":"cebpf4jnsgd1na2vs0mg"},{"bike_id":"c53c93eb-0e34-4a38-9282-0a792c622372","system_id":"levelo_inurba_marseille","lat":43.28038,"lon":5.36959,"is_reserved":false,"is_disabled":false,"rental_uris":{"android":"levelo://app?vid=c53c93eb-0e34-4a38-9282-0a792c622372","ios":"levelo://app?vid=c53c93eb-0e34-4a38-9282-0a792c622372"},"vehicle_type_id":"4","last_reported":1732115361,"current_range_meters":9600,"station_id":"ce4bha12rcd13ifvqef0","pricing_plan_id":"cebpf4jnsgd1na2vs0mg"},{"bike_id":"b2f6b9cf-69db-40ab-8230-689c41a2c16c","system_id":"levelo_inurba_marseille","lat":43.24162,"lon":5.36404,"is_reserved":false,"is_disabled":false,"rental_uris":{"android":"levelo://app?vid=b2f6b9cf-69db-40ab-8230-689c41a2c16c","ios":"levelo://app?vid=b2f6b9cf-69db-40ab-8230-689c41a2c16c"},"vehicle_type_id":"4","last_reported":1732115361,"current_range_meters":37600,"station_id":"cpo36qri1sfpv3e86is0","pricing_plan_id":"cebpf4jnsgd1na2vs0mg"},{"bike_id":"5088d695-0e9f-4773-b57e-f02f32e7ed76","system_id":"levelo_inurba_marseille","lat":43.33026,"lon":5.39043,"is_reserved":false,"is_disabled":false,"rental_uris":{"android":"levelo://app?vid=5088d695-0e9f-4773-b57e-f02f32e7ed76","ios":"levelo://app?vid=5088d695-0e9f-4773-b57e-f02f32e7ed76"},"vehicle_type_id":"4","last_reported":1732115361,"current_range_meters":12800,"station_id":"ce4bhr92rcd13ifvqhrg","pricing_plan_id":"cebpf4jnsgd1na2vs0mg"},{"bike_id":"7552fdf6-68b4-42db-aad1-86f289198bda","system_id":"levelo_inurba_marseille","lat":43.26547,"lon":5.37292,"is_reserved":false,"is_disabled":false,"rental_uris":{"android":"levelo://app?vid=7552fdf6-68b4-42db-aad1-86f289198bda","ios":"levelo://app?vid=7552fdf6-68b4-42db-aad1-86f289198bda"},"vehicle_type_id":"4","last_reported":1732115361,"current_range_meters":35600,"station_id":"ce4bhg12rcd13ifvqf70","pricing_plan_id":"cebpf4jnsgd1na2vs0mg"},{"bike_id":"9c2f2764-6c98-4600-8b7b-4a479e36ad6f","system_id":"levelo_inurba_marseille","lat":43.28674,"lon":5.36352,"is_reserved":false,"is_disabled":false,"rental_uris":{"android":"levelo://app?vid=9c2f2764-6c98-4600-8b7b-4a479e36ad6f","ios":"levelo://app?vid=9c2f2764-6c98-4600-8b7b-4a479e36ad6f"},"vehicle_type_id":"4","last_reported":1732115361,"current_range_meters":38800,"station_id":"ce4bhah2rcd13ifvqej0","pricing_plan_id":"cebpf4jnsgd1na2vs0mg"},{"bike_id":"42631039-a1b1-42c3-96cb-261ddb2b0ee4","system_id":"levelo_inurba_marseille","lat":43.30183,"lon":5.36615,"is_reserved":false,"is_disabled":false,"rental_uris":{"android":"levelo://app?vid=42631039-a1b1-42c3-96cb-261ddb2b0ee4","ios":"levelo://app?vid=42631039-a1b1-42c3-96cb-261ddb2b0ee4"},"vehicle_type_id":"4","last_reported":1732115361,"current_range_meters":39200,"station_id":"ce4bgrh2rcd13ifvqc8g","pricing_plan_id":"cebpf4jnsgd1na2vs0mg"},{"bike_id":"da118503-6ab7-4c94-98bc-2b63accd50d2","system_id":"levelo_inurba_marseille","lat":43.31083,"lon":5.42433,"is_reserved":false,"is_disabled":false,"rental_uris":{"android":"levelo://app?vid=da118503-6ab7-4c94-98bc-2b63accd50d2","ios":"levelo://app?vid=da118503-6ab7-4c94-98bc-2b63accd50d2"},"vehicle_type_id":"4","last_reported":1732115361,"current_range_meters":39200,"station_id":"ce4bhp92rcd13ifvqhag","pricing_plan_id":"cebpf4jnsgd1na2vs0mg"},{"bike_id":"76fa2e4c-4b80-4fae-8878-8472d9a31a0d","system_id":"levelo_inurba_marseille","lat":43.29966,"lon":5.38497,"is_reserved":false,"is_disabled":false,"rental_uris":{"android":"levelo://app?vid=76fa2e4c-4b80-4fae-8878-8472d9a31a0d","ios":"levelo://app?vid=76fa2e4c-4b80-4fae-8878-8472d9a31a0d"},"vehicle_type_id":"4","last_reported":1732115361,"current_range_meters":32000,"station_id":"ce4bgj92rcd13ifvqbd0","pricing_plan_id":"cebpf4jnsgd1na2vs0mg"},{"bike_id":"f55181d4-2053-40e2-9cda-06227a4b9bdf","system_id":"levelo_inurba_marseille","lat":43.32483,"lon":5.36564,"is_reserved":false,"is_disabled":false,"rental_uris":{"android":"levelo://app?vid=f55181d4-2053-40e2-9cda-06227a4b9bdf","ios":"levelo://app?vid=f55181d4-2053-40e2-9cda-06227a4b9bdf"},"vehicle_type_id":"4","last_reported":1732115361,"current_range_meters":38000,"station_id":"ce4bhs12rcd13ifvqhvg","pricing_plan_id":"cebpf4jnsgd1na2vs0mg"},{"bike_id":"036145f2-25f3-431d-8452-bf74254a5141","system_id":"levelo_inurba_marseille","lat":43.31756,"lon":5.39012,"is_reserved":false,"is_disabled":false,"rental_uris":{"android":"levelo://app?vid=036145f2-25f3-431d-8452-bf74254a5141","ios":"levelo://app?vid=036145f2-25f3-431d-8452-bf74254a5141"},"vehicle_type_id":"4","last_reported":1732115361,"current_range_meters":39200,"station_id":"ce4bhqp2rcd13ifvqhng","pricing_plan_id":"cebpf4jnsgd1na2vs0mg"},{"bike_id":"e281d2c8-ad6b-422f-929d-65f1a75a6032","system_id":"levelo_inurba_marseille","lat":43.26807,"lon":5.40272,"is_reserved":false,"is_disabled":false,"rental_uris":{"android":"levelo://app?vid=e281d2c8-ad6b-422f-929d-65f1a75a6032","ios":"levelo://app?vid=e281d2c8-ad6b-422f-929d-65f1a75a6032"},"vehicle_type_id":"4","last_reported":1732115361,"current_range_meters":17600,"station_id":"ce501612rcd8frsf0b60","pricing_plan_id":"cebpf4jnsgd1na2vs0mg"},{"bike_id":"a899e6bf-3bb7-4cf3-b160-88a650208135","system_id":"levelo_inurba_marseille","lat":43.31178,"lon":5.38726,"is_reserved":false,"is_disabled":false,"rental_uris":{"android":"levelo://app?vid=a899e6bf-3bb7-4cf3-b160-88a650208135","ios":"levelo://app?vid=a899e6bf-3bb7-4cf3-b160-88a650208135"},"vehicle_type_id":"4","last_reported":1732115361,"current_range_meters":8800,"station_id":"ce4bgv12rcd13ifvqcp0","pricing_plan_id":"cebpf4jnsgd1na2vs0mg"},{"bike_id":"4c8ed69d-903a-47a6-a719-b8a1ba33ec6e","system_id":"levelo_inurba_marseille","lat":43.260243,"lon":5.375607,"is_reserved":false,"is_disabled":false,"rental_uris":{"android":"levelo://app?vid=4c8ed69d-903a-47a6-a719-b8a1ba33ec6e","ios":"levelo://app?vid=4c8ed69d-903a-47a6-a719-b8a1ba33ec6e"},"vehicle_type_id":"4","last_reported":1732115361,"current_range_meters":23200,"station_id":"ce4bhgh2rcd13ifvqfa0","pricing_plan_id":"cebpf4jnsgd1na2vs0mg"},{"bike_id":"247075d1-a3f3-4234-817c-49bf158c7739","system_id":"levelo_inurba_marseille","lat":43.28378,"lon":5.38631,"is_reserved":false,"is_disabled":false,"rental_uris":{"android":"levelo://app?vid=247075d1-a3f3-4234-817c-49bf158c7739","ios":"levelo://app?vid=247075d1-a3f3-4234-817c-49bf158c7739"},"vehicle_type_id":"4","last_reported":1732115361,"current_range_meters":26800,"station_id":"ce4bh492rcd13ifvqdvg","pricing_plan_id":"cebpf4jnsgd1na2vs0mg"},{"bike_id":"18375270-5c96-4148-9480-b075066f6b66","system_id":"levelo_inurba_marseille","lat":43.30543,"lon":5.36544,"is_reserved":false,"is_disabled":false,"rental_uris":{"android":"levelo://app?vid=18375270-5c96-4148-9480-b075066f6b66","ios":"levelo://app?vid=18375270-5c96-4148-9480-b075066f6b66"},"vehicle_type_id":"4","last_reported":1732115361,"current_range_meters":38800,"station_id":"ce4bgs12rcd13ifvqcag","pricing_plan_id":"cebpf4jnsgd1na2vs0mg"},{"bike_id":"1f3c44c2-1386-44f5-8446-78a248711806","system_id":"levelo_inurba_marseille","lat":43.27998,"lon":5.40026,"is_reserved":false,"is_disabled":false,"rental_uris":{"android":"levelo://app?vid=1f3c44c2-1386-44f5-8446-78a248711806","ios":"levelo://app?vid=1f3c44c2-1386-44f5-8446-78a248711806"},"vehicle_type_id":"4","last_reported":1732115361,"current_range_meters":7200,"station_id":"ce4bho92rcd13ifvqh4g","pricing_plan_id":"cebpf4jnsgd1na2vs0mg"},{"bike_id":"1f6184e6-16e9-423d-b3e0-a3aa386ef26b","system_id":"levelo_inurba_marseille","lat":43.33023,"lon":5.39036,"is_reserved":false,"is_disabled":false,"rental_uris":{"android":"levelo://app?vid=1f6184e6-16e9-423d-b3e0-a3aa386ef26b","ios":"levelo://app?vid=1f6184e6-16e9-423d-b3e0-a3aa386ef26b"},"vehicle_type_id":"4","last_reported":1732115361,"current_range_meters":36400,"station_id":"ce4bhr92rcd13ifvqhrg","pricing_plan_id":"cebpf4jnsgd1na2vs0mg"},{"bike_id":"3cd84749-4c1a-4b50-aa18-9d8d08a2f930","system_id":"levelo_inurba_marseille","lat":43.27374,"lon":5.36259,"is_reserved":false,"is_disabled":true,"rental_uris":{"android":"levelo://app?vid=3cd84749-4c1a-4b50-aa18-9d8d08a2f930","ios":"levelo://app?vid=3cd84749-4c1a-4b50-aa18-9d8d08a2f930"},"vehicle_type_id":"4","last_reported":1732115361,"current_range_meters":0,"station_id":"ce4bhbh2rcd13ifvqeo0","pricing_plan_id":"cebpf4jnsgd1na2vs0mg"},{"bike_id":"cde5eb04-35f5-4971-aec4-8004f9b2dcd9","system_id":"levelo_inurba_marseille","lat":43.28264,"lon":5.35067,"is_reserved":false,"is_disabled":true,"rental_uris":{"android":"levelo://app?vid=cde5eb04-35f5-4971-aec4-8004f9b2dcd9","ios":"levelo://app?vid=cde5eb04-35f5-4971-aec4-8004f9b2dcd9"},"vehicle_type_id":"4","last_reported":1732115361,"current_range_meters":0,"station_id":"ce4bhbp2rcd13ifvqerg","pricing_plan_id":"cebpf4jnsgd1na2vs0mg"},{"bike_id":"8bf837b0-d302-4f74-8e6a-2a9cedf7f2b9","system_id":"levelo_inurba_marseille","lat":43.29783,"lon":5.38109,"is_reserved":false,"is_disabled":false,"rental_uris":{"android":"levelo://app?vid=8bf837b0-d302-4f74-8e6a-2a9cedf7f2b9","ios":"levelo://app?vid=8bf837b0-d302-4f74-8e6a-2a9cedf7f2b9"},"vehicle_type_id":"4","last_reported":1732115361,"current_range_meters":9600,"station_id":"ce4bgip2rcd13ifvqbb0","pricing_plan_id":"cebpf4jnsgd1na2vs0mg"},{"bike_id":"c56d13e3-5c03-4569-b700-7519141a63b3","system_id":"levelo_inurba_marseille","lat":43.27954,"lon":5.3872,"is_reserved":false,"is_disabled":true,"rental_uris":{"android":"levelo://app?vid=c56d13e3-5c03-4569-b700-7519141a63b3","ios":"levelo://app?vid=c56d13e3-5c03-4569-b700-7519141a63b3"},"vehicle_type_id":"4","last_reported":1732115361,"current_range_meters":0,"station_id":"ce4bhg12rcd13ifvqf80","pricing_plan_id":"cebpf4jnsgd1na2vs0mg"},{"bike_id":"255d3da1-50a8-4bcf-9281-25d2fc8513e2","system_id":"levelo_inurba_marseille","lat":43.30545,"lon":5.38415,"is_reserved":false,"is_disabled":false,"rental_uris":{"android":"levelo://app?vid=255d3da1-50a8-4bcf-9281-25d2fc8513e2","ios":"levelo://app?vid=255d3da1-50a8-4bcf-9281-25d2fc8513e2"},"vehicle_type_id":"4","last_reported":1732115361,"current_range_meters":37600,"station_id":"ce4bgg92rcd13ifvqb30","pricing_plan_id":"cebpf4jnsgd1na2vs0mg"},{"bike_id":"9249cf24-ba1e-4622-b600-5f0c35133a35","system_id":"levelo_inurba_marseille","lat":43.30185,"lon":5.36623,"is_reserved":false,"is_disabled":false,"rental_uris":{"android":"levelo://app?vid=9249cf24-ba1e-4622-b600-5f0c35133a35","ios":"levelo://app?vid=9249cf24-ba1e-4622-b600-5f0c35133a35"},"vehicle_type_id":"4","last_reported":1732115361,"current_range_meters":38800,"station_id":"ce4bgrh2rcd13ifvqc8g","pricing_plan_id":"cebpf4jnsgd1na2vs0mg"},{"bike_id":"bd0f3ed6-4cba-4f56-9205-c76f2a9cc9c8","system_id":"levelo_inurba_marseille","lat":43.3018,"lon":5.36618,"is_reserved":false,"is_disabled":false,"rental_uris":{"android":"levelo://app?vid=bd0f3ed6-4cba-4f56-9205-c76f2a9cc9c8","ios":"levelo://app?vid=bd0f3ed6-4cba-4f56-9205-c76f2a9cc9c8"},"vehicle_type_id":"4","last_reported":1732115361,"current_range_meters":38800,"station_id":"ce4bgrh2rcd13ifvqc8g","pricing_plan_id":"cebpf4jnsgd1na2vs0mg"},{"bike_id":"bbf8487a-d295-4dc7-9627-c9fc18da9faa","system_id":"levelo_inurba_marseille","lat":43.32338,"lon":5.40624,"is_reserved":false,"is_disabled":false,"rental_uris":{"android":"levelo://app?vid=bbf8487a-d295-4dc7-9627-c9fc18da9faa","ios":"levelo://app?vid=bbf8487a-d295-4dc7-9627-c9fc18da9faa"},"vehicle_type_id":"4","last_reported":1732115361,"current_range_meters":26000,"station_id":"ce4bhq92rcd13ifvqhjg","pricing_plan_id":"cebpf4jnsgd1na2vs0mg"},{"bike_id":"89429ed2-f839-4749-bcb9-3e5230fe3bfb","system_id":"levelo_inurba_marseille","lat":43.33729,"lon":5.39184,"is_reserved":false,"is_disabled":false,"rental_uris":{"android":"levelo://app?vid=89429ed2-f839-4749-bcb9-3e5230fe3bfb","ios":"levelo://app?vid=89429ed2-f839-4749-bcb9-3e5230fe3bfb"},"vehicle_type_id":"4","last_reported":1732115361,"current_range_meters":33600,"station_id":"ce4bhr92rcd13ifvqhsg","pricing_plan_id":"cebpf4jnsgd1na2vs0mg"},{"bike_id":"4d7daa92-098a-4d38-b26f-4629da77392e","system_id":"levelo_inurba_marseille","lat":43.30874,"lon":5.39646,"is_reserved":false,"is_disabled":false,"rental_uris":{"android":"levelo://app?vid=4d7daa92-098a-4d38-b26f-4629da77392e","ios":"levelo://app?vid=4d7daa92-098a-4d38-b26f-4629da77392e"},"vehicle_type_id":"4","last_reported":1732115361,"current_range_meters":38800,"station_id":"ce4bh012rcd13ifvqcv0","pricing_plan_id":"cebpf4jnsgd1na2vs0mg"},{"bike_id":"bb8bc886-b16d-46c8-b54d-72fcf2a3b828","system_id":"levelo_inurba_marseille","lat":43.31459,"lon":5.3667,"is_reserved":false,"is_disabled":false,"rental_uris":{"android":"levelo://app?vid=bb8bc886-b16d-46c8-b54d-72fcf2a3b828","ios":"levelo://app?vid=bb8bc886-b16d-46c8-b54d-72fcf2a3b828"},"vehicle_type_id":"4","last_reported":1732115361,"current_range_meters":28400,"station_id":"","pricing_plan_id":"cebpf4jnsgd1na2vs0mg"},{"bike_id":"09069445-3630-4783-a223-c9fd063d7c96","system_id":"levelo_inurba_marseille","lat":43.337444,"lon":5.374475,"is_reserved":false,"is_disabled":false,"rental_uris":{"android":"levelo://app?vid=09069445-3630-4783-a223-c9fd063d7c96","ios":"levelo://app?vid=09069445-3630-4783-a223-c9fd063d7c96"},"vehicle_type_id":"4","last_reported":1732115361,"current_range_meters":38000,"station_id":"","pricing_plan_id":"cebpf4jnsgd1na2vs0mg"},{"bike_id":"960f7f4e-8c1d-440a-9e1b-958b3588a530","system_id":"levelo_inurba_marseille","lat":43.29172,"lon":5.37153,"is_reserved":false,"is_disabled":false,"rental_uris":{"android":"levelo://app?vid=960f7f4e-8c1d-440a-9e1b-958b3588a530","ios":"levelo://app?vid=960f7f4e-8c1d-440a-9e1b-958b3588a530"},"vehicle_type_id":"4","last_reported":1732115361,"current_range_meters":39200,"station_id":"ce4bha92rcd13ifvqeh0","pricing_plan_id":"cebpf4jnsgd1na2vs0mg"},{"bike_id":"691f2e51-fe08-4685-b805-f21e4a672351","system_id":"levelo_inurba_marseille","lat":43.30008,"lon":5.37354,"is_reserved":false,"is_disabled":false,"rental_uris":{"android":"levelo://app?vid=691f2e51-fe08-4685-b805-f21e4a672351","ios":"levelo://app?vid=691f2e51-fe08-4685-b805-f21e4a672351"},"vehicle_type_id":"4","last_reported":1732115361,"current_range_meters":34800,"station_id":"","pricing_plan_id":"cebpf4jnsgd1na2vs0mg"},{"bike_id":"e7aa8cd8-fad9-4a9d-a165-d74ddbb4dba9","system_id":"levelo_inurba_marseille","lat":43.32541,"lon":5.41434,"is_reserved":false,"is_disabled":true,"rental_uris":{"android":"levelo://app?vid=e7aa8cd8-fad9-4a9d-a165-d74ddbb4dba9","ios":"levelo://app?vid=e7aa8cd8-fad9-4a9d-a165-d74ddbb4dba9"},"vehicle_type_id":"4","last_reported":1732115361,"current_range_meters":0,"station_id":"ce4bhq12rcd13ifvqhhg","pricing_plan_id":"cebpf4jnsgd1na2vs0mg"},{"bike_id":"a288582f-e609-4b1f-9e1f-4b407176785e","system_id":"levelo_inurba_marseille","lat":43.29904,"lon":5.37462,"is_reserved":false,"is_disabled":true,"rental_uris":{"android":"levelo://app?vid=a288582f-e609-4b1f-9e1f-4b407176785e","ios":"levelo://app?vid=a288582f-e609-4b1f-9e1f-4b407176785e"},"vehicle_type_id":"4","last_reported":1732115361,"current_range_meters":0,"station_id":"ce4bgjh2rcd13ifvqbg0","pricing_plan_id":"cebpf4jnsgd1na2vs0mg"},{"bike_id":"7b63c0fd-1177-4bfd-9b24-66c2536aead2","system_id":"levelo_inurba_marseille","lat":43.30551,"lon":5.36539,"is_reserved":false,"is_disabled":false,"rental_uris":{"android":"levelo://app?vid=7b63c0fd-1177-4bfd-9b24-66c2536aead2","ios":"levelo://app?vid=7b63c0fd-1177-4bfd-9b24-66c2536aead2"},"vehicle_type_id":"4","last_reported":1732115361,"current_range_meters":38000,"station_id":"ce4bgs12rcd13ifvqcag","pricing_plan_id":"cebpf4jnsgd1na2vs0mg"},{"bike_id":"79d8c574-9062-423c-8a03-76b3dbc58333","system_id":"levelo_inurba_marseille","lat":43.278349,"lon":5.391973,"is_reserved":false,"is_disabled":true,"rental_uris":{"android":"levelo://app?vid=79d8c574-9062-423c-8a03-76b3dbc58333","ios":"levelo://app?vid=79d8c574-9062-423c-8a03-76b3dbc58333"},"vehicle_type_id":"4","last_reported":1732115361,"current_range_meters":0,"station_id":"ce4bhjp2rcd13ifvqga0","pricing_plan_id":"cebpf4jnsgd1na2vs0mg"},{"bike_id":"7770b1cc-2a54-4d08-8255-6bed2fc397aa","system_id":"levelo_inurba_marseille","lat":43.23199,"lon":5.3556,"is_reserved":false,"is_disabled":false,"rental_uris":{"android":"levelo://app?vid=7770b1cc-2a54-4d08-8255-6bed2fc397aa","ios":"levelo://app?vid=7770b1cc-2a54-4d08-8255-6bed2fc397aa"},"vehicle_type_id":"4","last_reported":1732115361,"current_range_meters":24800,"station_id":"ce4bhu92rcd13ifvqi70","pricing_plan_id":"cebpf4jnsgd1na2vs0mg"},{"bike_id":"c193bb74-4f9e-4ea6-9f8d-af25c7accdbb","system_id":"levelo_inurba_marseille","lat":43.2843,"lon":5.39226,"is_reserved":false,"is_disabled":false,"rental_uris":{"android":"levelo://app?vid=c193bb74-4f9e-4ea6-9f8d-af25c7accdbb","ios":"levelo://app?vid=c193bb74-4f9e-4ea6-9f8d-af25c7accdbb"},"vehicle_type_id":"4","last_reported":1732115361,"current_range_meters":36000,"station_id":"ce4bhoh2rcd13ifvqh5g","pricing_plan_id":"cebpf4jnsgd1na2vs0mg"},{"bike_id":"c7cf0c86-20a3-47da-b19c-ad17aab67602","system_id":"levelo_inurba_marseille","lat":43.28335,"lon":5.38116,"is_reserved":false,"is_disabled":false,"rental_uris":{"android":"levelo://app?vid=c7cf0c86-20a3-47da-b19c-ad17aab67602","ios":"levelo://app?vid=c7cf0c86-20a3-47da-b19c-ad17aab67602"},"vehicle_type_id":"4","last_reported":1732115361,"current_range_meters":38800,"station_id":"ce4bh412rcd13ifvqdr0","pricing_plan_id":"cebpf4jnsgd1na2vs0mg"},{"bike_id":"ce094846-1c9a-4fb9-bcaf-df78e9d83ede","system_id":"levelo_inurba_marseille","lat":43.26941,"lon":5.40255,"is_reserved":false,"is_disabled":false,"rental_uris":{"android":"levelo://app?vid=ce094846-1c9a-4fb9-bcaf-df78e9d83ede","ios":"levelo://app?vid=ce094846-1c9a-4fb9-bcaf-df78e9d83ede"},"vehicle_type_id":"4","last_reported":1732115361,"current_range_meters":39200,"station_id":"cjm6bp8fraef2m0cb0m0","pricing_plan_id":"cebpf4jnsgd1na2vs0mg"},{"bike_id":"75afbc83-41fa-4972-a251-8f7abf3d0a52","system_id":"levelo_inurba_marseille","lat":43.2927,"lon":5.38446,"is_reserved":false,"is_disabled":false,"rental_uris":{"android":"levelo://app?vid=75afbc83-41fa-4972-a251-8f7abf3d0a52","ios":"levelo://app?vid=75afbc83-41fa-4972-a251-8f7abf3d0a52"},"vehicle_type_id":"4","last_reported":1732115361,"current_range_meters":32000,"station_id":"ce4bh692rcd13ifvqea0","pricing_plan_id":"cebpf4jnsgd1na2vs0mg"},{"bike_id":"3d25d818-80cf-415a-996a-afc2d01ce97b","system_id":"levelo_inurba_marseille","lat":43.27789,"lon":5.40728,"is_reserved":false,"is_disabled":false,"rental_uris":{"android":"levelo://app?vid=3d25d818-80cf-415a-996a-afc2d01ce97b","ios":"levelo://app?vid=3d25d818-80cf-415a-996a-afc2d01ce97b"},"vehicle_type_id":"4","last_reported":1732115361,"current_range_meters":9200,"station_id":"ce4bhnh2rcd13ifvqgtg","pricing_plan_id":"cebpf4jnsgd1na2vs0mg"},{"bike_id":"165f81c1-0f22-402f-8053-793ce30df1d9","system_id":"levelo_inurba_marseille","lat":43.29291,"lon":5.37457,"is_reserved":false,"is_disabled":false,"rental_uris":{"android":"levelo://app?vid=165f81c1-0f22-402f-8053-793ce30df1d9","ios":"levelo://app?vid=165f81c1-0f22-402f-8053-793ce30df1d9"},"vehicle_type_id":"4","last_reported":1732115361,"current_range_meters":38400,"station_id":"ce4bgi12rcd13ifvqb70","pricing_plan_id":"cebpf4jnsgd1na2vs0mg"},{"bike_id":"fd2c12d2-7b4e-40dc-b7d5-8c8341f680d3","system_id":"levelo_inurba_marseille","lat":43.31116,"lon":5.37779,"is_reserved":false,"is_disabled":false,"rental_uris":{"android":"levelo://app?vid=fd2c12d2-7b4e-40dc-b7d5-8c8341f680d3","ios":"levelo://app?vid=fd2c12d2-7b4e-40dc-b7d5-8c8341f680d3"},"vehicle_type_id":"4","last_reported":1732115361,"current_range_meters":29600,"station_id":"ce4bgt92rcd13ifvqcg0","pricing_plan_id":"cebpf4jnsgd1na2vs0mg"},{"bike_id":"475b4231-1349-494e-b70b-365119d1c664","system_id":"levelo_inurba_marseille","lat":43.264872,"lon":5.395458,"is_reserved":false,"is_disabled":false,"rental_uris":{"android":"levelo://app?vid=475b4231-1349-494e-b70b-365119d1c664","ios":"levelo://app?vid=475b4231-1349-494e-b70b-365119d1c664"},"vehicle_type_id":"4","last_reported":1732115361,"current_range_meters":10800,"station_id":"ce4bhi12rcd13ifvqfq0","pricing_plan_id":"cebpf4jnsgd1na2vs0mg"},{"bike_id":"32b29fb2-dfde-4d04-b087-989cd944a33c","system_id":"levelo_inurba_marseille","lat":43.23149,"lon":5.43727,"is_reserved":false,"is_disabled":false,"rental_uris":{"android":"levelo://app?vid=32b29fb2-dfde-4d04-b087-989cd944a33c","ios":"levelo://app?vid=32b29fb2-dfde-4d04-b087-989cd944a33c"},"vehicle_type_id":"4","last_reported":1732115361,"current_range_meters":38800,"station_id":"ce4bhmp2rcd13ifvqgog","pricing_plan_id":"cebpf4jnsgd1na2vs0mg"},{"bike_id":"acf689cf-3d62-4de4-aa95-e1f87eebd8fa","system_id":"levelo_inurba_marseille","lat":43.31513,"lon":5.37302,"is_reserved":false,"is_disabled":false,"rental_uris":{"android":"levelo://app?vid=acf689cf-3d62-4de4-aa95-e1f87eebd8fa","ios":"levelo://app?vid=acf689cf-3d62-4de4-aa95-e1f87eebd8fa"},