{"last_updated":1734697004,"ttl":60,"version":"2.2","data":{"bikes":[{"bike_id":"6f417142-4381-4cb7-80ee-165ae6c54951","system_id":"levelo_inurba_marseille","lat":43.31079,"lon":5.42433,"is_reserved":false,"is_disabled":false,"rental_uris":{"android":"levelo://app?vid=6f417142-4381-4cb7-80ee-165ae6c54951","ios":"levelo://app?vid=6f417142-4381-4cb7-80ee-165ae6c54951"},"vehicle_type_id":"4","last_reported":1734697004,"current_range_meters":11200,"station_id":"ce4bhp92rcd13ifvqhag","pricing_plan_id":"cebpf4jnsgd1na2vs0mg"},{"bike_id":"0dd56f32-def4-4e3f-b3dd-536c82db31b0","system_id":"levelo_inurba_marseille","lat":43.28931,"lon":5.36643,"is_reserved":false,"is_disabled":false,"rental_uris":{"android":"levelo://app?vid=0dd56f32-def4-4e3f-b3dd-536c82db31b0","ios":"levelo://app?vid=0dd56f32-def4-4e3f-b3dd-536c82db31b0"},"vehicle_type_id":"4","last_reported":1734697004,"current_range_meters":25600,"station_id":"ce4bhap2rcd13ifvqek0","pricing_plan_id":"cebpf4jnsgd1na2vs0mg"},{"bike_id":"eb156c91-5c91-4664-a66b-8fb17c1b7811","system_id":"levelo_inurba_marseille","lat":43.2844,"lon":5.39186,"is_reserved":false,"is_disabled":false,"rental_uris":{"android":"levelo://app?vid=eb156c91-5c91-4664-a66b-8fb17c1b7811","ios":"levelo://app?vid=eb156c91-5c91-4664-a66b-8fb17c1b7811"},"vehicle_type_id":"4","last_reported":1734697004,"current_range_meters":37600,"station_id":"ce4bhoh2rcd13ifvqh5g","pricing_plan_id":"cebpf4jnsgd1na2vs0mg"},{"bike_id":"c20c717d-c827-41e6-9454-3f93a777b421","system_id":"levelo_inurba_marseille","lat":43.27838,"lon":5.39203,"is_reserved":false,"is_disabled":true,"rental_uris":{"android":"levelo://app?vid=c20c717d-c827-41e6-9454-3f93a777b421","ios":"levelo://app?vid=c20c717d-c827-41e6-9454-3f93a777b421"},"vehicle_type_id":"4","last_reported":1734697004,"current_range_meters":2000,"station_id":"ce4bhjp2rcd13ifvqga0","pricing_plan_id":"cebpf4jnsgd1na2vs0mg"},{"bike_id":"b4a49495-1cc3-46a1-a20b-a0ccf61c6ad2","system_id":"levelo_inurba_marseille","lat":43.26048,"lon":5.39371,"is_reserved":false,"is_disabled":false,"rental_uris":{"android":"levelo://app?vid=b4a49495-1cc3-46a1-a20b-a0ccf61c6ad2","ios":"levelo://app?vid=b4a49495-1cc3-46a1-a20b-a0ccf61c6ad2"},"vehicle_type_id":"4","last_reported":1734697004,"current_range_meters":30000,"station_id":"ce4bhh92rcd13ifvqfj0","pricing_plan_id":"cebpf4jnsgd1na2vs0mg"},{"bike_id":"0b3c962c-40d1-4375-b60d-644d72aaacf1","system_id":"levelo_inurba_marseille","lat":43.28157,"lon":5.4033,"is_reserved":false,"is_disabled":true,"rental_uris":{"android":"levelo://app?vid=0b3c962c-40d1-4375-b60d-644d72aaacf1","ios":"levelo://app?vid=0b3c962c-40d1-4375-b60d-644d72aaacf1"},"vehicle_type_id":"4","last_reported":1734697004,"current_range_meters":0,"station_id":"","pricing_plan_id":"cebpf4jnsgd1na2vs0mg"},{"bike_id":"db944496-3b59-40f7-acb5-b434737b48ca","system_id":"levelo_inurba_marseille","lat":43.31278,"lon":5.40174,"is_reserved":false,"is_disabled":false,"rental_uris":{"android":"levelo://app?vid=db944496-3b59-40f7-acb5-b434737b48ca","ios":"levelo://app?vid=db944496-3b59-40f7-acb5-b434737b48ca"},"vehicle_type_id":"4","last_reported":1734697004,"current_range_meters":37600,"station_id":"ce4bh092rcd13ifvqd30","pricing_plan_id":"cebpf4jnsgd1na2vs0mg"},{"bike_id":"bb8a7f7b-b3a9-42f7-80d9-b15024d74ec2","system_id":"levelo_inurba_marseille","lat":43.2873,"lon":5.36077,"is_reserved":false,"is_disabled":false,"rental_uris":{"android":"levelo://app?vid=bb8a7f7b-b3a9-42f7-80d9-b15024d74ec2","ios":"levelo://app?vid=bb8a7f7b-b3a9-42f7-80d9-b15024d74ec2"},"vehicle_type_id":"4","last_reported":1734697004,"current_range_meters":31200,"station_id":"cki0cbj6b192h4jlfktg","pricing_plan_id":"cebpf4jnsgd1na2vs0mg"},{"bike_id":"6dbd45f5-882d-4325-9c7e-f0f72386c6da","system_id":"levelo_inurba_marseille","lat":43.23866,"lon":5.37399,"is_reserved":false,"is_disabled":true,"rental_uris":{"android":"levelo://app?vid=6dbd45f5-882d-4325-9c7e-f0f72386c6da","ios":"levelo://app?vid=6dbd45f5-882d-4325-9c7e-f0f72386c6da"},"vehicle_type_id":"4","last_reported":1734697004,"current_range_meters":4800,"station_id":"","pricing_plan_id":"cebpf4jnsgd1na2vs0mg"},{"bike_id":"87af0e5b-8449-4dac-8268-e26d7b279931","system_id":"levelo_inurba_marseille","lat":43.29011,"lon":5.3866,"is_reserved":false,"is_disabled":false,"rental_uris":{"android":"levelo://app?vid=87af0e5b-8449-4dac-8268-e26d7b279931","ios":"levelo://app?vid=87af0e5b-8449-4dac-8268-e26d7b279931"},"vehicle_type_id":"4","last_reported":1734697004,"current_range_meters":36800,"station_id":"ce4bh4p2rcd13ifvqe0g","pricing_plan_id":"cebpf4jnsgd1na2vs0mg"},{"bike_id":"abc6f370-b6e0-439b-9c9c-c03670848084","system_id":"levelo_inurba_marseille","lat":43.29285,"lon":5.37441,"is_reserved":false,"is_disabled":false,"rental_uris":{"android":"levelo://app?vid=abc6f370-b6e0-439b-9c9c-c03670848084","ios":"levelo://app?vid=abc6f370-b6e0-439b-9c9c-c03670848084"},"vehicle_type_id":"4","last_reported":1734697004,"current_range_meters":38800,"station_id":"ce4bgi12rcd13ifvqb70","pricing_plan_id":"cebpf4jnsgd1na2vs0mg"},{"bike_id":"93cd12d2-ee52-454b-a1c6-a2a94b1185da","system_id":"levelo_inurba_marseille","lat":43.24802,"lon":5.37456,"is_reserved":false,"is_disabled":false,"rental_uris":{"android":"levelo://app?vid=93cd12d2-ee52-454b-a1c6-a2a94b1185da","ios":"levelo://app?vid=93cd12d2-ee52-454b-a1c6-a2a94b1185da"},"vehicle_type_id":"4","last_reported":1734697004,"current_range_meters":38800,"station_id":"ce4bhgh2rcd13ifvqfb0","pricing_plan_id":"cebpf4jnsgd1na2vs0mg"},{"bike_id":"8882aefb-02d3-41db-af35-9b8ac9f6fea4","system_id":"levelo_inurba_marseille","lat":43.30879,"lon":5.39651,"is_reserved":false,"is_disabled":false,"rental_uris":{"android":"levelo://app?vid=8882aefb-02d3-41db-af35-9b8ac9f6fea4","ios":"levelo://app?vid=8882aefb-02d3-41db-af35-9b8ac9f6fea4"},"vehicle_type_id":"4","last_reported":1734697004,"current_range_meters":28400,"station_id":"ce4bh012rcd13ifvqcv0","pricing_plan_id":"cebpf4jnsgd1na2vs0mg"},{"bike_id":"11238ed2-bff1-45df-8863-eb7d3ce1d27a","system_id":"levelo_inurba_marseille","lat":43.27172,"lon":5.40997,"is_reserved":false,"is_disabled":false,"rental_uris":{"android":"levelo://app?vid=11238ed2-bff1-45df-8863-eb7d3ce1d27a","ios":"levelo://app?vid=11238ed2-bff1-45df-8863-eb7d3ce1d27a"},"vehicle_type_id":"4","last_reported":1734697004,"current_range_meters":38400,"station_id":"ce4bhl12rcd13ifvqgf0","pricing_plan_id":"cebpf4jnsgd1na2vs0mg"},{"bike_id":"a6b29f44-fdb7-43b4-aa0a-03a46febd127","system_id":"levelo_inurba_marseille","lat":43.308863,"lon":5.378124,"is_reserved":false,"is_disabled":true,"rental_uris":{"android":"levelo://app?vid=a6b29f44-fdb7-43b4-aa0a-03a46febd127","ios":"levelo://app?vid=a6b29f44-fdb7-43b4-aa0a-03a46febd127"},"vehicle_type_id":"4","last_reported":1734697004,"current_range_meters":18000,"station_id":"","pricing_plan_id":"cebpf4jnsgd1na2vs0mg"},{"bike_id":"ba6bf6db-f6f5-446d-a27d-ba883740af73","system_id":"levelo_inurba_marseille","lat":43.31709,"lon":5.3775,"is_reserved":false,"is_disabled":false,"rental_uris":{"android":"levelo://app?vid=ba6bf6db-f6f5-446d-a27d-ba883740af73","ios":"levelo://app?vid=ba6bf6db-f6f5-446d-a27d-ba883740af73"},"vehicle_type_id":"4","last_reported":1734697004,"current_range_meters":20800,"station_id":"ce4bgth2rcd13ifvqch0","pricing_plan_id":"cebpf4jnsgd1na2vs0mg"},{"bike_id":"c7f24469-1136-4e21-b84a-0a12ce3b4eea","system_id":"levelo_inurba_marseille","lat":43.31687,"lon":5.40462,"is_reserved":false,"is_disabled":false,"rental_uris":{"android":"levelo://app?vid=c7f24469-1136-4e21-b84a-0a12ce3b4eea","ios":"levelo://app?vid=c7f24469-1136-4e21-b84a-0a12ce3b4eea"},"vehicle_type_id":"4","last_reported":1734697004,"current_range_meters":38800,"station_id":"ce4bh012rcd13ifvqd00","pricing_plan_id":"cebpf4jnsgd1na2vs0mg"},{"bike_id":"7ec8621a-9726-4d85-b602-b2b6b4a16cb4","system_id":"levelo_inurba_marseille","lat":43.296248,"lon":5.377354,"is_reserved":false,"is_disabled":false,"rental_uris":{"android":"levelo://app?vid=7ec8621a-9726-4d85-b602-b2b6b4a16cb4","ios":"levelo://app?vid=7ec8621a-9726-4d85-b602-b2b6b4a16cb4"},"vehicle_type_id":"4","last_reported":1734697004,"current_range_meters":38800,"station_id":"ce4bgi92rcd13ifvqb90","pricing_plan_id":"cebpf4jnsgd1na2vs0mg"},{"bike_id":"3091d709-3c11-43a1-a95d-31c0908ceed1","system_id":"levelo_inurba_marseille","lat":43.29266,"lon":5.36851,"is_reserved":false,"is_disabled":false,"rental_uris":{"android":"levelo://app?vid=3091d709-3c11-43a1-a95d-31c0908ceed1","ios":"levelo://app?vid=3091d709-3c11-43a1-a95d-31c0908ceed1"},"vehicle_type_id":"4","last_reported":1734697004,"current_range_meters":27600,"station_id":"ce4bhbp2rcd13ifvqesg","pricing_plan_id":"cebpf4jnsgd1na2vs0mg"},{"bike_id":"f2fca4b0-6d09-4b8b-ac93-ff1931bdad1c","system_id":"levelo_inurba_marseille","lat":43.27941,"lon":5.41045,"is_reserved":false,"is_disabled":false,"rental_uris":{"android":"levelo://app?vid=f2fca4b0-6d09-4b8b-ac93-ff1931bdad1c","ios":"levelo://app?vid=f2fca4b0-6d09-4b8b-ac93-ff1931bdad1c"},"vehicle_type_id":"4","last_reported":1734697004,"current_range_meters":27200,"station_id":"ce4bhnp2rcd13ifvqh0g","pricing_plan_id":"cebpf4jnsgd1na2vs0mg"},{"bike_id":"9f826eb0-0dfb-447e-92e0-ddb647271103","system_id":"levelo_inurba_marseille","lat":43.27808,"lon":5.40717,"is_reserved":false,"is_disabled":false,"rental_uris":{"android":"levelo://app?vid=9f826eb0-0dfb-447e-92e0-ddb647271103","ios":"levelo://app?vid=9f826eb0-0dfb-447e-92e0-ddb647271103"},"vehicle_type_id":"4","last_reported":1734697004,"current_range_meters":39200,"station_id":"ce4bhnh2rcd13ifvqgtg","pricing_plan_id":"cebpf4jnsgd1na2vs0mg"},{"bike_id":"e54c3fa3-f9e8-43fa-97ab-12f5b2a3bfae","system_id":"levelo_inurba_marseille","lat":43.27825,"lon":5.39201,"is_reserved":false,"is_disabled":true,"rental_uris":{"android":"levelo://app?vid=e54c3fa3-f9e8-43fa-97ab-12f5b2a3bfae","ios":"levelo://app?vid=e54c3fa3-f9e8-43fa-97ab-12f5b2a3bfae"},"vehicle_type_id":"4","last_reported":1734697004,"current_range_meters":26800,"station_id":"ce4bhjp2rcd13ifvqga0","pricing_plan_id":"cebpf4jnsgd1na2vs0mg"},{"bike_id":"85f27a5d-9af7-4b09-a20c-f802a8f11d6d","system_id":"levelo_inurba_marseille","lat":43.32659,"lon":5.40985,"is_reserved":false,"is_disabled":false,"rental_uris":{"android":"levelo://app?vid=85f27a5d-9af7-4b09-a20c-f802a8f11d6d","ios":"levelo://app?vid=85f27a5d-9af7-4b09-a20c-f802a8f11d6d"},"vehicle_type_id":"4","last_reported":1734697004,"current_range_meters":10000,"station_id":"ce4bhpp2rcd13ifvqhgg","pricing_plan_id":"cebpf4jnsgd1na2vs0mg"},{"bike_id":"d34bdf4f-71bc-4ae4-b273-f3852ddc692a","system_id":"levelo_inurba_marseille","lat":43.33756,"lon":5.37472,"is_reserved":false,"is_disabled":false,"rental_uris":{"android":"levelo://app?vid=d34bdf4f-71bc-4ae4-b273-f3852ddc692a","ios":"levelo://app?vid=d34bdf4f-71bc-4ae4-b273-f3852ddc692a"},"vehicle_type_id":"4","last_reported":1734697004,"current_range_meters":33200,"station_id":"","pricing_plan_id":"cebpf4jnsgd1na2vs0mg"},{"bike_id":"f892a8d7-aa95-4d28-b5aa-2d16ed394fe4","system_id":"levelo_inurba_marseille","lat":43.30187,"lon":5.36624,"is_reserved":false,"is_disabled":false,"rental_uris":{"android":"levelo://app?vid=f892a8d7-aa95-4d28-b5aa-2d16ed394fe4","ios":"levelo://app?vid=f892a8d7-aa95-4d28-b5aa-2d16ed394fe4"},"vehicle_type_id":"4","last_reported":1734697004,"current_range_meters":19600,"station_id":"ce4bgrh2rcd13ifvqc8g","pricing_plan_id":"cebpf4jnsgd1na2vs0mg"},{"bike_id":"e179d50b-086e-45cb-a7d9-da9036539d17","system_id":"levelo_inurba_marseille","lat":43.27999,"lon":5.40018,"is_reserved":false,"is_disabled":false,"rental_uris":{"android":"levelo://app?vid=e179d50b-086e-45cb-a7d9-da9036539d17","ios":"levelo://app?vid=e179d50b-086e-45cb-a7d9-da9036539d17"},"vehicle_type_id":"4","last_reported":1734697004,"current_range_meters":20000,"station_id":"ce4bho92rcd13ifvqh4g","pricing_plan_id":"cebpf4jnsgd1na2vs0mg"},{"bike_id":"e2c33152-745a-434c-adba-db9f2a35596c","system_id":"levelo_inurba_marseille","lat":43.2909,"lon":5.38113,"is_reserved":false,"is_disabled":false,"rental_uris":{"android":"levelo://app?vid=e2c33152-745a-434c-adba-db9f2a35596c","ios":"levelo://app?vid=e2c33152-745a-434c-adba-db9f2a35596c"},"vehicle_type_id":"4","last_reported":1734697004,"current_range_meters":25600,"station_id":"ce4bh512rcd13ifvqe2g","pricing_plan_id":"cebpf4jnsgd1na2vs0mg"},{"bike_id":"c7a472ed-6dc3-4cde-83b8-4deb8af0b49b","system_id":"levelo_inurba_marseille","lat":43.24388,"lon":5.37058,"is_reserved":false,"is_disabled":false,"rental_uris":{"android":"levelo://app?vid=c7a472ed-6dc3-4cde-83b8-4deb8af0b49b","ios":"levelo://app?vid=c7a472ed-6dc3-4cde-83b8-4deb8af0b49b"},"vehicle_type_id":"4","last_reported":1734697004,"current_range_meters":22400,"station_id":"ce4bhhh2rcd13ifvqfk0","pricing_plan_id":"cebpf4jnsgd1na2vs0mg"},{"bike_id":"af375b95-98ed-4d0c-a1db-a5220a0cbfa9","system_id":"levelo_inurba_marseille","lat":43.31686,"lon":5.40465,"is_reserved":false,"is_disabled":false,"rental_uris":{"android":"levelo://app?vid=af375b95-98ed-4d0c-a1db-a5220a0cbfa9","ios":"levelo://app?vid=af375b95-98ed-4d0c-a1db-a5220a0cbfa9"},"vehicle_type_id":"4","last_reported":1734697004,"current_range_meters":37600,"station_id":"ce4bh012rcd13ifvqd00","pricing_plan_id":"cebpf4jnsgd1na2vs0mg"},{"bike_id":"89f423a2-47b5-413d-988f-d16b7ae8182a","system_id":"levelo_inurba_marseille","lat":43.29193,"lon":5.39322,"is_reserved":false,"is_disabled":false,"rental_uris":{"android":"levelo://app?vid=89f423a2-47b5-413d-988f-d16b7ae8182a","ios":"levelo://app?vid=89f423a2-47b5-413d-988f-d16b7ae8182a"},"vehicle_type_id":"4","last_reported":1734697004,"current_range_meters":32400,"station_id":"ce4bh192rcd13ifvqdd0","pricing_plan_id":"cebpf4jnsgd1na2vs0mg"},{"bike_id":"efe5091c-2077-4ef3-a08d-227ccfc08d27","system_id":"levelo_inurba_marseille","lat":43.30116,"lon":5.38771,"is_reserved":false,"is_disabled":false,"rental_uris":{"android":"levelo://app?vid=efe5091c-2077-4ef3-a08d-227ccfc08d27","ios":"levelo://app?vid=efe5091c-2077-4ef3-a08d-227ccfc08d27"},"vehicle_type_id":"4","last_reported":1734697004,"current_range_meters":37600,"station_id":"ce4bhoh2rcd13ifvqh6g","pricing_plan_id":"cebpf4jnsgd1na2vs0mg"},{"bike_id":"f977d97a-622d-4ab3-9183-15a81591ed18","system_id":"levelo_inurba_marseille","lat":43.2481,"lon":5.37457,"is_reserved":false,"is_disabled":false,"rental_uris":{"android":"levelo://app?vid=f977d97a-622d-4ab3-9183-15a81591ed18","ios":"levelo://app?vid=f977d97a-622d-4ab3-9183-15a81591ed18"},"vehicle_type_id":"4","last_reported":1734697004,"current_range_meters":19200,"station_id":"ce4bhgh2rcd13ifvqfb0","pricing_plan_id":"cebpf4jnsgd1na2vs0mg"},{"bike_id":"dd52cea9-6fe3-460c-a4fc-255f18d6f38c","system_id":"levelo_inurba_marseille","lat":43.250013,"lon":5.389267,"is_reserved":false,"is_disabled":false,"rental_uris":{"android":"levelo://app?vid=dd52cea9-6fe3-460c-a4fc-255f18d6f38c","ios":"levelo://app?vid=dd52cea9-6fe3-460c-a4fc-255f18d6f38c"},"vehicle_type_id":"4","last_reported":1734697004,"current_range_meters":30000,"station_id":"ce4bhgp2rcd13ifvqfd0","pricing_plan_id":"cebpf4jnsgd1na2vs0mg"},{"bike_id":"714703e4-4373-45a0-8859-0524fe8e8d54","system_id":"levelo_inurba_marseille","lat":43.30129,"lon":5.37418,"is_reserved":false,"is_disabled":false,"rental_uris":{"android":"levelo://app?vid=714703e4-4373-45a0-8859-0524fe8e8d54","ios":"levelo://app?vid=714703e4-4373-45a0-8859-0524fe8e8d54"},"vehicle_type_id":"4","last_reported":1734697004,"current_range_meters":37600,"station_id":"ce4bgs92rcd13ifvqcc0","pricing_plan_id":"cebpf4jnsgd1na2vs0mg"},{"bike_id":"ed4d8bde-c92f-443e-99bd-9da507974765","system_id":"levelo_inurba_marseille","lat":43.29684,"lon":5.36608,"is_reserved":false,"is_disabled":false,"rental_uris":{"android":"levelo://app?vid=ed4d8bde-c92f-443e-99bd-9da507974765","ios":"levelo://app?vid=ed4d8bde-c92f-443e-99bd-9da507974765"},"vehicle_type_id":"4","last_reported":1734697004,"current_range_meters":38000,"station_id":"ce4bgn12rcd13ifvqbt0","pricing_plan_id":"cebpf4jnsgd1na2vs0mg"},{"bike_id":"a3490aca-cd3e-423c-b291-413d54e7a9b6","system_id":"levelo_inurba_marseille","lat":43.29724,"lon":5.37701,"is_reserved":false,"is_disabled":false,"rental_uris":{"android":"levelo://app?vid=a3490aca-cd3e-423c-b291-413d54e7a9b6","ios":"levelo://app?vid=a3490aca-cd3e-423c-b291-413d54e7a9b6"},"vehicle_type_id":"4","last_reported":1734697004,"current_range_meters":36800,"station_id":"ce4bgkh2rcd13ifvqbl0","pricing_plan_id":"cebpf4jnsgd1na2vs0mg"},{"bike_id":"897e83d4-47e9-4759-95cb-be7dcc401779","system_id":"levelo_inurba_marseille","lat":43.28655,"lon":5.3634,"is_reserved":false,"is_disabled":false,"rental_uris":{"android":"levelo://app?vid=897e83d4-47e9-4759-95cb-be7dcc401779","ios":"levelo://app?vid=897e83d4-47e9-4759-95cb-be7dcc401779"},"vehicle_type_id":"4","last_reported":1734697004,"current_range_meters":38000,"station_id":"ce4bhah2rcd13ifvqej0","pricing_plan_id":"cebpf4jnsgd1na2vs0mg"},{"bike_id":"3f35c514-84c7-403c-be41-f914dbb94369","system_id":"levelo_inurba_marseille","lat":43.246488,"lon":5.388946,"is_reserved":false,"is_disabled":false,"rental_uris":{"android":"levelo://app?vid=3f35c514-84c7-403c-be41-f914dbb94369","ios":"levelo://app?vid=3f35c514-84c7-403c-be41-f914dbb94369"},"vehicle_type_id":"4","last_reported":1734697004,"current_range_meters":38800,"station_id":"ce4bhg12rcd13ifvqf60","pricing_plan_id":"cebpf4jnsgd1na2vs0mg"},{"bike_id":"6728802e-c3c6-4f8f-ade5-af96b0024ae1","system_id":"levelo_inurba_marseille","lat":43.25707,"lon":5.41118,"is_reserved":false,"is_disabled":false,"rental_uris":{"android":"levelo://app?vid=6728802e-c3c6-4f8f-ade5-af96b0024ae1","ios":"levelo://app?vid=6728802e-c3c6-4f8f-ade5-af96b0024ae1"},"vehicle_type_id":"4","last_reported":1734697004,"current_range_meters":39200,"station_id":"ce4bhkp2rcd13ifvqgd0","pricing_plan_id":"cebpf4jnsgd1na2vs0mg"},{"bike_id":"f20cd36c-a895-444d-b8aa-a67ddb893a61","system_id":"levelo_inurba_marseille","lat":43.30667,"lon":5.40111,"is_reserved":false,"is_disabled":true,"rental_uris":{"android":"levelo://app?vid=f20cd36c-a895-444d-b8aa-a67ddb893a61","ios":"levelo://app?vid=f20cd36c-a895-444d-b8aa-a67ddb893a61"},"vehicle_type_id":"4","last_reported":1734697004,"current_range_meters":5600,"station_id":"ce4bh112rcd13ifvqda0","pricing_plan_id":"cebpf4jnsgd1na2vs0mg"},{"bike_id":"666223cf-f963-4676-a2c3-13c4383f763c","system_id":"levelo_inurba_marseille","lat":43.31714,"lon":5.42402,"is_reserved":false,"is_disabled":false,"rental_uris":{"android":"levelo://app?vid=666223cf-f963-4676-a2c3-13c4383f763c","ios":"levelo://app?vid=666223cf-f963-4676-a2c3-13c4383f763c"},"vehicle_type_id":"4","last_reported":1734697004,"current_range_meters":27600,"station_id":"ce4bhp92rcd13ifvqhbg","pricing_plan_id":"cebpf4jnsgd1na2vs0mg"},{"bike_id":"7d8b4789-db38-4881-a12e-8303c1c118b0","system_id":"levelo_inurba_marseille","lat":43.30526,"lon":5.36701,"is_reserved":false,"is_disabled":false,"rental_uris":{"android":"levelo://app?vid=7d8b4789-db38-4881-a12e-8303c1c118b0","ios":"levelo://app?vid=7d8b4789-db38-4881-a12e-8303c1c118b0"},"vehicle_type_id":"4","last_reported":1734697004,"current_range_meters":38800,"station_id":"ce4bgrp2rcd13ifvqc9g","pricing_plan_id":"cebpf4jnsgd1na2vs0mg"},{"bike_id":"6840d155-4ad1-41f0-8aba-5b39be5e42db","system_id":"levelo_inurba_marseille","lat":43.34143,"lon":5.40901,"is_reserved":false,"is_disabled":true,"rental_uris":{"android":"levelo://app?vid=6840d155-4ad1-41f0-8aba-5b39be5e42db","ios":"levelo://app?vid=6840d155-4ad1-41f0-8aba-5b39be5e42db"},"vehicle_type_id":"4","last_reported":1734697004,"current_range_meters":30800,"station_id":"ce4bhqh2rcd13ifvqhlg","pricing_plan_id":"cebpf4jnsgd1na2vs0mg"},{"bike_id":"ccafd601-a601-427e-9311-be371d157fd2","system_id":"levelo_inurba_marseille","lat":43.3015,"lon":5.3809,"is_reserved":false,"is_disabled":false,"rental_uris":{"android":"levelo://app?vid=ccafd601-a601-427e-9311-be371d157fd2","ios":"levelo://app?vid=ccafd601-a601-427e-9311-be371d157fd2"},"vehicle_type_id":"4","last_reported":1734697004,"current_range_meters":38800,"station_id":"ce4bgjp2rcd13ifvqbh0","pricing_plan_id":"cebpf4jnsgd1na2vs0mg"},{"bike_id":"49afe83b-abb5-4be5-a10f-e37f6b41e94f","system_id":"levelo_inurba_marseille","lat":43.29898,"lon":5.43674,"is_reserved":false,"is_disabled":false,"rental_uris":{"android":"levelo://app?vid=49afe83b-abb5-4be5-a10f-e37f6b41e94f","ios":"levelo://app?vid=49afe83b-abb5-4be5-a10f-e37f6b41e94f"},"vehicle_type_id":"4","last_reported":1734697004,"current_range_meters":32800,"station_id":"ce4bhpp2rcd13ifvqhfg","pricing_plan_id":"cebpf4jnsgd1na2vs0mg"},{"bike_id":"fe187b0f-abff-4fa7-8a20-0462e6c79208","system_id":"levelo_inurba_marseille","lat":43.24383,"lon":5.37075,"is_reserved":false,"is_disabled":false,"rental_uris":{"android":"levelo://app?vid=fe187b0f-abff-4fa7-8a20-0462e6c79208","ios":"levelo://app?vid=fe187b0f-abff-4fa7-8a20-0462e6c79208"},"vehicle_type_id":"4","last_reported":1734697004,"current_range_meters":23200,"station_id":"ce4bhhh2rcd13ifvqfk0","pricing_plan_id":"cebpf4jnsgd1na2vs0mg"},{"bike_id":"da976e63-2653-4865-94d7-c962f7529aae","system_id":"levelo_inurba_marseille","lat":43.29438,"lon":5.3975,"is_reserved":false,"is_disabled":false,"rental_uris":{"android":"levelo://app?vid=da976e63-2653-4865-94d7-c962f7529aae","ios":"levelo://app?vid=da976e63-2653-4865-94d7-c962f7529aae"},"vehicle_type_id":"4","last_reported":1734697004,"current_range_meters":35200,"station_id":"ce4bh3h2rcd13ifvqdo0","pricing_plan_id":"cebpf4jnsgd1na2vs0mg"},{"bike_id":"52cdc38e-ff43-4d2e-9556-8beb3900a8bd","system_id":"levelo_inurba_marseille","lat":43.29904,"lon":5.38151,"is_reserved":false,"is_disabled":false,"rental_uris":{"android":"levelo://app?vid=52cdc38e-ff43-4d2e-9556-8beb3900a8bd","ios":"levelo://app?vid=52cdc38e-ff43-4d2e-9556-8beb3900a8bd"},"vehicle_type_id":"4","last_reported":1734697004,"current_range_meters":38000,"station_id":"ce4bgj12rcd13ifvqbc0","pricing_plan_id":"cebpf4jnsgd1na2vs0mg"},{"bike_id":"6be06396-7842-46ec-a270-3e8d410abdb0","system_id":"levelo_inurba_marseille","lat":43.30137,"lon":5.37423,"is_reserved":false,"is_disabled":false,"rental_uris":{"android":"levelo://app?vid=6be06396-7842-46ec-a270-3e8d410abdb0","ios":"levelo://app?vid=6be06396-7842-46ec-a270-3e8d410abdb0"},"vehicle_type_id":"4","last_reported":1734697004,"current_range_meters":32800,"station_id":"ce4bgs92rcd13ifvqcc0","pricing_plan_id":"cebpf4jnsgd1na2vs0mg"},{"bike_id":"aceb3676-6ea7-42ff-8547-5be9aca19066","system_id":"levelo_inurba_marseille","lat":43.30144,"lon":5.3809,"is_reserved":false,"is_disabled":false,"rental_uris":{"android":"levelo://app?vid=aceb3676-6ea7-42ff-8547-5be9aca19066","ios":"levelo://app?vid=aceb3676-6ea7-42ff-8547-5be9aca19066"},"vehicle_type_id":"4","last_reported":1734697004,"current_range_meters":26000,"station_id":"ce4bgjp2rcd13ifvqbh0","pricing_plan_id":"cebpf4jnsgd1na2vs0mg"},{"bike_id":"c36f9794-db64-4a07-823f-b590f113a19f","system_id":"levelo_inurba_marseille","lat":43.2793,"lon":5.41036,"is_reserved":false,"is_disabled":false,"rental_uris":{"android":"levelo://app?vid=c36f9794-db64-4a07-823f-b590f113a19f","ios":"levelo://app?vid=c36f9794-db64-4a07-823f-b590f113a19f"},"vehicle_type_id":"4","last_reported":1734697004,"current_range_meters":9600,"station_id":"ce4bhnp2rcd13ifvqh0g","pricing_plan_id":"cebpf4jnsgd1na2vs0mg"},{"bike_id":"6b1c02dd-ff4d-4960-9056-ebf73c481a95","system_id":"levelo_inurba_marseille","lat":43.30143,"lon":5.38071,"is_reserved":false,"is_disabled":false,"rental_uris":{"android":"levelo://app?vid=6b1c02dd-ff4d-4960-9056-ebf73c481a95","ios":"levelo://app?vid=6b1c02dd-ff4d-4960-9056-ebf73c481a95"},"vehicle_type_id":"4","last_reported":1734697004,"current_range_meters":26000,"station_id":"ce4bgjp2rcd13ifvqbh0","pricing_plan_id":"cebpf4jnsgd1na2vs0mg"},{"bike_id":"ec8b85ba-80e7-49fc-944d-ae51fa9164e8","system_id":"levelo_inurba_marseille","lat":43.27056,"lon":5.4027,"is_reserved":false,"is_disabled":false,"rental_uris":{"android":"levelo://app?vid=ec8b85ba-80e7-49fc-944d-ae51fa9164e8","ios":"levelo://app?vid=ec8b85ba-80e7-49fc-944d-ae51fa9164e8"},"vehicle_type_id":"4","last_reported":1734697004,"current_range_meters":37600,"station_id":"ce4bhk92rcd13ifvqgc0","pricing_plan_id":"cebpf4jnsgd1na2vs0mg"},{"bike_id":"c5d3dda4-9397-4823-9c8b-ea8eda2ab949","system_id":"levelo_inurba_marseille","lat":43.23957,"lon":5.36651,"is_reserved":false,"is_disabled":false,"rental_uris":{"android":"levelo://app?vid=c5d3dda4-9397-4823-9c8b-ea8eda2ab949","ios":"levelo://app?vid=c5d3dda4-9397-4823-9c8b-ea8eda2ab949"},"vehicle_type_id":"4","last_reported":1734697004,"current_range_meters":34800,"station_id":"ce4bhi12rcd13ifvqfp0","pricing_plan_id":"cebpf4jnsgd1na2vs0mg"},{"bike_id":"4a3ca9fc-50c7-445a-b4a3-dd5b6864efc1","system_id":"levelo_inurba_marseille","lat":43.28716,"lon":5.39997,"is_reserved":false,"is_disabled":false,"rental_uris":{"android":"levelo://app?vid=4a3ca9fc-50c7-445a-b4a3-dd5b6864efc1","ios":"levelo://app?vid=4a3ca9fc-50c7-445a-b4a3-dd5b6864efc1"},"vehicle_type_id":"4","last_reported":1734697004,"current_range_meters":29600,"station_id":"ce4bho92rcd13ifvqh3g","pricing_plan_id":"cebpf4jnsgd1na2vs0mg"},{"bike_id":"b5436064-4838-4a21-99fb-87553b534de1","system_id":"levelo_inurba_marseille","lat":43.29265,"lon":5.36859,"is_reserved":false,"is_disabled":false,"rental_uris":{"android":"levelo://app?vid=b5436064-4838-4a21-99fb-87553b534de1","ios":"levelo://app?vid=b5436064-4838-4a21-99fb-87553b534de1"},"vehicle_type_id":"4","last_reported":1734697004,"current_range_meters":34000,"station_id":"ce4bhbp2rcd13ifvqesg","pricing_plan_id":"cebpf4jnsgd1na2vs0mg"},{"bike_id":"539a2eb1-b77c-4bbe-945b-d9f315a3f756","system_id":"levelo_inurba_marseille","lat":43.31219,"lon":5.36864,"is_reserved":false,"is_disabled":false,"rental_uris":{"android":"levelo://app?vid=539a2eb1-b77c-4bbe-945b-d9f315a3f756","ios":"levelo://app?vid=539a2eb1-b77c-4bbe-945b-d9f315a3f756"},"vehicle_type_id":"4","last_reported":1734697004,"current_range_meters":39200,"station_id":"ce4bgl92rcd13ifvqbq0","pricing_plan_id":"cebpf4jnsgd1na2vs0mg"},{"bike_id":"72ed2b0c-e4da-4e13-871b-7a1b91b96b9d","system_id":"levelo_inurba_marseille","lat":43.28151,"lon":5.42639,"is_reserved":false,"is_disabled":false,"rental_uris":{"android":"levelo://app?vid=72ed2b0c-e4da-4e13-871b-7a1b91b96b9d","ios":"levelo://app?vid=72ed2b0c-e4da-4e13-871b-7a1b91b96b9d"},"vehicle_type_id":"4","last_reported":1734697004,"current_range_meters":28400,"station_id":"ce4bhnh2rcd13ifvqgug","pricing_plan_id":"cebpf4jnsgd1na2vs0mg"},{"bike_id":"09dd14b1-2c4c-427d-b97d-9155cc5f4b19","system_id":"levelo_inurba_marseille","lat":43.28401,"lon":5.37513,"is_reserved":false,"is_disabled":false,"rental_uris":{"android":"levelo://app?vid=09dd14b1-2c4c-427d-b97d-9155cc5f4b19","ios":"levelo://app?vid=09dd14b1-2c4c-427d-b97d-9155cc5f4b19"},"vehicle_type_id":"4","last_reported":1734697004,"current_range_meters":27200,"station_id":"ce4bh412rcd13ifvqds0","pricing_plan_id":"cebpf4jnsgd1na2vs0mg"},{"bike_id":"72492ff3-d3e5-4b81-822b-1d3357339451","system_id":"levelo_inurba_marseille","lat":43.29303,"lon":5.40004,"is_reserved":false,"is_disabled":true,"rental_uris":{"android":"levelo://app?vid=72492ff3-d3e5-4b81-822b-1d3357339451","ios":"levelo://app?vid=72492ff3-d3e5-4b81-822b-1d3357339451"},"vehicle_type_id":"4","last_reported":1734697004,"current_range_meters":31200,"station_id":"","pricing_plan_id":"cebpf4jnsgd1na2vs0mg"},{"bike_id":"ac35e660-89e6-4739-9d9a-129983f77756","system_id":"levelo_inurba_marseille","lat":43.30469,"lon":5.368765,"is_reserved":false,"is_disabled":false,"rental_uris":{"android":"levelo://app?vid=ac35e660-89e6-4739-9d9a-129983f77756","ios":"levelo://app?vid=ac35e660-89e6-4739-9d9a-129983f77756"},"vehicle_type_id":"4","last_reported":1734697004,"current_range_meters":16000,"station_id":"","pricing_plan_id":"cebpf4jnsgd1na2vs0mg"},{"bike_id":"68cc3280-8c90-422e-b1e6-051d15979724","system_id":"levelo_inurba_marseille","lat":43.23186,"lon":5.39989,"is_reserved":false,"is_disabled":false,"rental_uris":{"android":"levelo://app?vid=68cc3280-8c90-422e-b1e6-051d15979724","ios":"levelo://app?vid=68cc3280-8c90-422e-b1e6-051d15979724"},"vehicle_type_id":"4","last_reported":1734697004,"current_range_meters":17600,"station_id":"ce4bhn12rcd13ifvqgqg","pricing_plan_id":"cebpf4jnsgd1na2vs0mg"},{"bike_id":"2f3ffe14-db03-4fbe-b9e8-6285c689975c","system_id":"levelo_inurba_marseille","lat":43.31321,"lon":5.39703,"is_reserved":false,"is_disabled":true,"rental_uris":{"android":"levelo://app?vid=2f3ffe14-db03-4fbe-b9e8-6285c689975c","ios":"levelo://app?vid=2f3ffe14-db03-4fbe-b9e8-6285c689975c"},"vehicle_type_id":"4","last_reported":1734697004,"current_range_meters":14800,"station_id":"ce4bgvp2rcd13ifvqcu0","pricing_plan_id":"cebpf4jnsgd1na2vs0mg"},{"bike_id":"882e0f33-c985-49f5-9128-ec5a374b2cc1","system_id":"levelo_inurba_marseille","lat":43.25933,"lon":5.4091,"is_reserved":false,"is_disabled":false,"rental_uris":{"android":"levelo://app?vid=882e0f33-c985-49f5-9128-ec5a374b2cc1","ios":"levelo://app?vid=882e0f33-c985-49f5-9128-ec5a374b2cc1"},"vehicle_type_id":"4","last_reported":1734697004,"current_range_meters":30800,"station_id":"ce4bhm92rcd13ifvqglg","pricing_plan_id":"cebpf4jnsgd1na2vs0mg"},{"bike_id":"dd2894c9-b5e0-4d81-bf3f-27808402daf8","system_id":"levelo_inurba_marseille","lat":43.25871,"lon":5.39892,"is_reserved":false,"is_disabled":false,"rental_uris":{"android":"levelo://app?vid=dd2894c9-b5e0-4d81-bf3f-27808402daf8","ios":"levelo://app?vid=dd2894c9-b5e0-4d81-bf3f-27808402daf8"},"vehicle_type_id":"4","last_reported":1734697004,"current_range_meters":38800,"station_id":"ce4bhl92rcd13ifvqghg","pricing_plan_id":"cebpf4jnsgd1na2vs0mg"},{"bike_id":"b3c94148-282c-49ef-bed3-a778d2e917e9","system_id":"levelo_inurba_marseille","lat":43.30148,"lon":5.38084,"is_reserved":false,"is_disabled":false,"rental_uris":{"android":"levelo://app?vid=b3c94148-282c-49ef-bed3-a778d2e917e9","ios":"levelo://app?vid=b3c94148-282c-49ef-bed3-a778d2e917e9"},"vehicle_type_id":"4","last_reported":1734697004,"current_range_meters":35200,"station_id":"ce4bgjp2rcd13ifvqbh0","pricing_plan_id":"cebpf4jnsgd1na2vs0mg"},{"bike_id":"de4b486a-0b29-4905-a54b-0d42d7b6a814","system_id":"levelo_inurba_marseille","lat":43.29364,"lon":5.37833,"is_reserved":false,"is_disabled":false,"rental_uris":{"android":"levelo://app?vid=de4b486a-0b29-4905-a54b-0d42d7b6a814","ios":"levelo://app?vid=de4b486a-0b29-4905-a54b-0d42d7b6a814"},"vehicle_type_id":"4","last_reported":1734697004,"current_range_meters":38800,"station_id":"ce4bgjh2rcd13ifvqbf0","pricing_plan_id":"cebpf4jnsgd1na2vs0mg"},{"bike_id":"a0b13504-4db3-4c1c-85c9-95caada3e30d","system_id":"levelo_inurba_marseille","lat":43.25932,"lon":5.40913,"is_reserved":false,"is_disabled":false,"rental_uris":{"android":"levelo://app?vid=a0b13504-4db3-4c1c-85c9-95caada3e30d","ios":"levelo://app?vid=a0b13504-4db3-4c1c-85c9-95caada3e30d"},"vehicle_type_id":"4","last_reported":1734697004,"current_range_meters":30400,"station_id":"ce4bhm92rcd13ifvqglg","pricing_plan_id":"cebpf4jnsgd1na2vs0mg"},{"bike_id":"c438a646-b482-4ae8-a441-38ede34475dd","system_id":"levelo_inurba_marseille","lat":43.29797,"lon":5.38099,"is_reserved":false,"is_disabled":false,"rental_uris":{"android":"levelo://app?vid=c438a646-b482-4ae8-a441-38ede34475dd","ios":"levelo://app?vid=c438a646-b482-4ae8-a441-38ede34475dd"},"vehicle_type_id":"4","last_reported":1734697004,"current_range_meters":35600,"station_id":"ce4bgip2rcd13ifvqbb0","pricing_plan_id":"cebpf4jnsgd1na2vs0mg"},{"bike_id":"d1b91c76-2912-434f-9958-5000f5ca40c4","system_id":"levelo_inurba_marseille","lat":43.31217,"lon":5.36861,"is_reserved":false,"is_disabled":false,"rental_uris":{"android":"levelo://app?vid=d1b91c76-2912-434f-9958-5000f5ca40c4","ios":"levelo://app?vid=d1b91c76-2912-434f-9958-5000f5ca40c4"},"vehicle_type_id":"4","last_reported":1734697004,"current_range_meters":27600,"station_id":"ce4bgl92rcd13ifvqbq0","pricing_plan_id":"cebpf4jnsgd1na2vs0mg"},{"bike_id":"1a0d11f0-028d-46a4-9578-bf3d63abb59e","system_id":"levelo_inurba_marseille","lat":43.27969,"lon":5.3874,"is_reserved":false,"is_disabled":false,"rental_uris":{"android":"levelo://app?vid=1a0d11f0-028d-46a4-9578-bf3d63abb59e","ios":"levelo://app?vid=1a0d11f0-028d-46a4-9578-bf3d63abb59e"},"vehicle_type_id":"4","last_reported":1734697004,"current_range_meters":38800,"station_id":"ce4bhg12rcd13ifvqf80","pricing_plan_id":"cebpf4jnsgd1na2vs0mg"},{"bike_id":"782bcbf2-b7de-4b04-bebc-aaa0329dd90c","system_id":"levelo_inurba_marseille","lat":43.23184,"lon":5.35558,"is_reserved":false,"is_disabled":false,"rental_uris":{"android":"levelo://app?vid=782bcbf2-b7de-4b04-bebc-aaa0329dd90c","ios":"levelo://app?vid=782bcbf2-b7de-4b04-bebc-aaa0329dd90c"},"vehicle_type_id":"4","last_reported":1734697004,"current_range_meters":36800,"station_id":"ce4bhu92rcd13ifvqi70","pricing_plan_id":"cebpf4jnsgd1na2vs0mg"},{"bike_id":"27c36df4-9d90-4781-b4cb-211b7e3426aa","system_id":"levelo_inurba_marseille","lat":43.2961,"lon":5.38104,"is_reserved":false,"is_disabled":false,"rental_uris":{"android":"levelo://app?vid=27c36df4-9d90-4781-b4cb-211b7e3426aa","ios":"levelo://app?vid=27c36df4-9d90-4781-b4cb-211b7e3426aa"},"vehicle_type_id":"4","last_reported":1734697004,"current_range_meters":10800,"station_id":"ce4bgl12rcd13ifvqbo0","pricing_plan_id":"cebpf4jnsgd1na2vs0mg"},{"bike_id":"67e590f7-0feb-4571-9ae2-729bb19e5be9","system_id":"levelo_inurba_marseille","lat":43.2846,"lon":5.35878,"is_reserved":false,"is_disabled":false,"rental_uris":{"android":"levelo://app?vid=67e590f7-0feb-4571-9ae2-729bb19e5be9","ios":"levelo://app?vid=67e590f7-0feb-4571-9ae2-729bb19e5be9"},"vehicle_type_id":"4","last_reported":1734697004,"current_range_meters":14800,"station_id":"ce4bhah2rcd13ifvqei0","pricing_plan_id":"cebpf4jnsgd1na2vs0mg"},{"bike_id":"7d872448-c3b4-40a4-984e-792a758c118e","system_id":"levelo_inurba_marseille","lat":43.27808,"lon":5.40716,"is_reserved":false,"is_disabled":false,"rental_uris":{"android":"levelo://app?vid=7d872448-c3b4-40a4-984e-792a758c118e","ios":"levelo://app?vid=7d872448-c3b4-40a4-984e-792a758c118e"},"vehicle_type_id":"4","last_reported":1734697004,"current_range_meters":8000,"station_id":"ce4bhnh2rcd13ifvqgtg","pricing_plan_id":"cebpf4jnsgd1na2vs0mg"},{"bike_id":"1897ad2d-5c02-4d9f-ba4c-937899dfbdc3","system_id":"levelo_inurba_marseille","lat":43.243974,"lon":5.370449,"is_reserved":false,"is_disabled":false,"rental_uris":{"android":"levelo://app?vid=1897ad2d-5c02-4d9f-ba4c-937899dfbdc3","ios":"levelo://app?vid=1897ad2d-5c02-4d9f-ba4c-937899dfbdc3"},"vehicle_type_id":"4","last_reported":1734697004,"current_range_meters":38800,"station_id":"ce4bhhh2rcd13ifvqfk0","pricing_plan_id":"cebpf4jnsgd1na2vs0mg"},{"bike_id":"e9e5d726-62e1-4b6b-a23c-0a4951c24076","system_id":"levelo_inurba_marseille","lat":43.24082,"lon":5.39711,"is_reserved":false,"is_disabled":true,"rental_uris":{"android":"levelo://app?vid=e9e5d726-62e1-4b6b-a23c-0a4951c24076","ios":"levelo://app?vid=e9e5d726-62e1-4b6b-a23c-0a4951c24076"},"vehicle_type_id":"4","last_reported":1734697004,"current_range_meters":0,"station_id":"","pricing_plan_id":"cebpf4jnsgd1na2vs0mg"},{"bike_id":"d532bafb-9e8b-4cf7-90e8-b135eb98500d","system_id":"levelo_inurba_marseille","lat":43.30539,"lon":5.36705,"is_reserved":false,"is_disabled":false,"rental_uris":{"android":"levelo://app?vid=d532bafb-9e8b-4cf7-90e8-b135eb98500d","ios":"levelo://app?vid=d532bafb-9e8b-4cf7-90e8-b135eb98500d"},"vehicle_type_id":"4","last_reported":1734697004,"current_range_meters":38000,"station_id":"ce4bgrp2rcd13ifvqc9g","pricing_plan_id":"cebpf4jnsgd1na2vs0mg"},{"bike_id":"ea300bb5-9ab8-4102-825a-14e36fff0270","system_id":"levelo_inurba_marseille","lat":43.30606,"lon":5.37103,"is_reserved":false,"is_disabled":false,"rental_uris":{"android":"levelo://app?vid=ea300bb5-9ab8-4102-825a-14e36fff0270","ios":"levelo://app?vid=ea300bb5-9ab8-4102-825a-14e36fff0270"},"vehicle_type_id":"4","last_reported":1734697004,"current_range_meters":38800,"station_id":"","pricing_plan_id":"cebpf4jnsgd1na2vs0mg"},{"bike_id":"5f8e4290-a91a-4704-973a-835ea6fc4c37","system_id":"levelo_inurba_marseille","lat":43.30543,"lon":5.36703,"is_reserved":false,"is_disabled":false,"rental_uris":{"android":"levelo://app?vid=5f8e4290-a91a-4704-973a-835ea6fc4c37","ios":"levelo://app?vid=5f8e4290-a91a-4704-973a-835ea6fc4c37"},"vehicle_type_id":"4","last_reported":1734697004,"current_range_meters":19600,"station_id":"ce4bgrp2rcd13ifvqc9g","pricing_plan_id":"cebpf4jnsgd1na2vs0mg"},{"bike_id":"fa1834fb-deed-4941-b189-9700a25eb505","system_id":"levelo_inurba_marseille","lat":43.28342,"lon":5.38106,"is_reserved":false,"is_disabled":false,"rental_uris":{"android":"levelo://app?vid=fa1834fb-deed-4941-b189-9700a25eb505","ios":"levelo://app?vid=fa1834fb-deed-4941-b189-9700a25eb505"},"vehicle_type_id":"4","last_reported":1734697004,"current_range_meters":38000,"station_id":"ce4bh412rcd13ifvqdr0","pricing_plan_id":"cebpf4jnsgd1na2vs0mg"},{"bike_id":"da47edb6-6b7d-48ce-8360-5fd99f41974c","system_id":"levelo_inurba_marseille","lat":43.23189,"lon":5.39988,"is_reserved":false,"is_disabled":false,"rental_uris":{"android":"levelo://app?vid=da47edb6-6b7d-48ce-8360-5fd99f41974c","ios":"levelo://app?vid=da47edb6-6b7d-48ce-8360-5fd99f41974c"},"vehicle_type_id":"4","last_reported":1734697004,"current_range_meters":30400,"station_id":"ce4bhn12rcd13ifvqgqg","pricing_plan_id":"cebpf4jnsgd1na2vs0mg"},{"bike_id":"290bb62e-1ac8-4f49-8850-7312456812da","system_id":"levelo_inurba_marseille","lat":43.30526,"lon":5.36703,"is_reserved":false,"is_disabled":false,"rental_uris":{"android":"levelo://app?vid=290bb62e-1ac8-4f49-8850-7312456812da","ios":"levelo://app?vid=290bb62e-1ac8-4f49-8850-7312456812da"},"vehicle_type_id":"4","last_reported":1734697004,"current_range_meters":29600,"station_id":"ce4bgrp2rcd13ifvqc9g","pricing_plan_id":"cebpf4jnsgd1na2vs0mg"},{"bike_id":"8121ea70-bcea-4330-bf34-8839e068416d","system_id":"levelo_inurba_marseille","lat":43.30517,"lon":5.36717,"is_reserved":false,"is_disabled":false,"rental_uris":{"android":"levelo://app?vid=8121ea70-bcea-4330-bf34-8839e068416d","ios":"levelo://app?vid=8121ea70-bcea-4330-bf34-8839e068416d"},"vehicle_type_id":"4","last_reported":1734697004,"current_range_meters":38800,"station_id":"ce4bgrp2rcd13ifvqc9g","pricing_plan_id":"cebpf4jnsgd1na2vs0mg"},{"bike_id":"e96afc68-6981-43c2-9227-f49a1a6968b1","system_id":"levelo_inurba_marseille","lat":43.29276,"lon":5.40142,"is_reserved":false,"is_disabled":false,"rental_uris":{"android":"levelo://app?vid=e96afc68-6981-43c2-9227-f49a1a6968b1","ios":"levelo://app?vid=e96afc68-6981-43c2-9227-f49a1a6968b1"},"vehicle_type_id":"4","last_reported":1734697004,"current_range_meters":36800,"station_id":"ce4bh312rcd13ifvqdk0","pricing_plan_id":"cebpf4jnsgd1na2vs0mg"},{"bike_id":"330bf880-e1f5-4f4a-b329-f0f879268631","system_id":"levelo_inurba_marseille","lat":43.28852,"lon":5.39324,"is_reserved":false,"is_disabled":true,"rental_uris":{"android":"levelo://app?vid=330bf880-e1f5-4f4a-b329-f0f879268631","ios":"levelo://app?vid=330bf880-e1f5-4f4a-b329-f0f879268631"},"vehicle_type_id":"4","last_reported":1734697004,"current_range_meters":15200,"station_id":"ce4bh2p2rcd13ifvqdi0","pricing_plan_id":"cebpf4jnsgd1na2vs0mg"},{"bike_id":"44127e4e-8e84-4a38-89f7-8f4efb63f7a5","system_id":"levelo_inurba_marseille","lat":43.31188,"lon":5.36758,"is_reserved":false,"is_disabled":true,"rental_uris":{"android":"levelo://app?vid=44127e4e-8e84-4a38-89f7-8f4efb63f7a5","ios":"levelo://app?vid=44127e4e-8e84-4a38-89f7-8f4efb63f7a5"},"vehicle_type_id":"4","last_reported":1734697004,"current_range_meters":0,"station_id":"","pricing_plan_id":"cebpf4jnsgd1na2vs0mg"},{"bike_id":"4d0f1a4c-1714-4d10-9dcb-51f42dee7a6f","system_id":"levelo_inurba_marseille","lat":43.27373,"lon":5.36259,"is_reserved":false,"is_disabled":false,"rental_uris":{"android":"levelo://app?vid=4d0f1a4c-1714-4d10-9dcb-51f42dee7a6f","ios":"levelo://app?vid=4d0f1a4c-1714-4d10-9dcb-51f42dee7a6f"},"vehicle_type_id":"4","last_reported":1734697004,"current_range_meters":12800,"station_id":"ce4bhbh2rcd13ifvqeo0","pricing_plan_id":"cebpf4jnsgd1na2vs0mg"},{"bike_id":"cb94b455-ede4-42b4-8538-b7ac9813c224","system_id":"levelo_inurba_marseille","lat":43.29023,"lon":5.38648,"is_reserved":false,"is_disabled":false,"rental_uris":{"android":"levelo://app?vid=cb94b455-ede4-42b4-8538-b7ac9813c224","ios":"levelo://app?vid=cb94b455-ede4-42b4-8538-b7ac9813c224"},"vehicle_type_id":"4","last_reported":1734697004,"current_range_meters":32000,"station_id":"ce4bh4p2rcd13ifvqe0g","pricing_plan_id":"cebpf4jnsgd1na2vs0mg"},{"bike_id":"60c24abf-7634-4c1d-be8e-3905917c0f35","system_id":"levelo_inurba_marseille","lat":43.2605,"lon":5.39413,"is_reserved":false,"is_disabled":false,"rental_uris":{"android":"levelo://app?vid=60c24abf-7634-4c1d-be8e-3905917c0f35","ios":"levelo://app?vid=60c24abf-7634-4c1d-be8e-3905917c0f35"},"vehicle_type_id":"4","last_reported":1734697004,"current_range_meters":25600,"station_id":"ce4bhh92rcd13ifvqfj0","pricing_plan_id":"cebpf4jnsgd1na2vs0mg"},{"bike_id":"4c1fd80c-e9fb-42bb-9ee8-77cae5913cbe","system_id":"levelo_inurba_marseille","lat":43.28611,"lon":5.37067,"is_reserved":false,"is_disabled":false,"rental_uris":{"android":"levelo://app?vid=4c1fd80c-e9fb-42bb-9ee8-77cae5913cbe","ios":"levelo://app?vid=4c1fd80c-e9fb-42bb-9ee8-77cae5913cbe"},"vehicle_type_id":"4","last_reported":1734697004,"current_range_meters":37600,"station_id":"ce4bht12rcd13ifvqi60","pricing_plan_id":"cebpf4jnsgd1na2vs0mg"},{"bike_id":"780516d6-62c5-4297-a4cd-3af261eb6292","system_id":"levelo_inurba_marseille","lat":43.28463,"lon":5.38419,"is_reserved":false,"is_disabled":false,"rental_uris":{"android":"levelo://app?vid=780516d6-62c5-4297-a4cd-3af261eb6292","ios":"levelo://app?vid=780516d6-62c5-4297-a4cd-3af261eb6292"},"vehicle_type_id":"4","last_reported":1734697004,"current_range_meters":38800,"station_id":"ce4bh512rcd13ifvqe3g","pricing_plan_id":"cebpf4jnsgd1na2vs0mg"},{"bike_id":"5ccf4016-43de-40ec-b7cb-18f36b051f59","system_id":"levelo_inurba_marseille","lat":43.2815,"lon":5.42661,"is_reserved":false,"is_disabled":true,"rental_uris":{"android":"levelo://app?vid=5ccf4016-43de-40ec-b7cb-18f36b051f59","ios":"levelo://app?vid=5ccf4016-43de-40ec-b7cb-18f36b051f59"},"vehicle_type_id":"4","last_reported":1734697004,"current_range_meters":2000,"station_id":"ce4bhnh2rcd13ifvqgug","pricing_plan_id":"cebpf4jnsgd1na2vs0mg"},{"bike_id":"4a70593e-60c1-445f-abfe-0a71a1fbcf0a","system_id":"levelo_inurba_marseille","lat":43.30943,"lon":5.39049,"is_reserved":false,"is_disabled":false,"rental_uris":{"android":"levelo://app?vid=4a70593e-60c1-445f-abfe-0a71a1fbcf0a","ios":"levelo://app?vid=4a70593e-60c1-445f-abfe-0a71a1fbcf0a"},"vehicle_type_id":"4","last_reported":1734697004,"current_range_meters":24000,"station_id":"ce4bgup2rcd13ifvqco0","pricing_plan_id":"cebpf4jnsgd1na2vs0mg"},{"bike_id":"c1179c2d-1a97-43bd-9ddf-b9aa95f9906a","system_id":"levelo_inurba_marseille","lat":43.32539,"lon":5.41426,"is_reserved":false,"is_disabled":false,"rental_uris":{"android":"levelo://app?vid=c1179c2d-1a97-43bd-9ddf-b9aa95f9906a","ios":"levelo://app?vid=c1179c2d-1a97-43bd-9ddf-b9aa95f9906a"},"vehicle_type_id":"4","last_reported":1734697004,"current_range_meters":22400,"station_id":"ce4bhq12rcd13ifvqhhg","pricing_plan_id":"cebpf4jnsgd1na2vs0mg"},{"bike_id":"c5448d7c-ce1b-4976-a816-9c8571bd467a","system_id":"levelo_inurba_marseille","lat":43.29521,"lon":5.37508,"is_reserved":false,"is_disabled":false,"rental_uris":{"android":"levelo://app?vid=c5448d7c-ce1b-4976-a816-9c8571bd467a","ios":"levelo://app?vid=c5448d7c-ce1b-4976-a816-9c8571bd467a"},"vehicle_type_id":"4","last_reported":1734697004,"current_range_meters":27600,"station_id":"ce4bgkp2rcd13ifvqbmg","pricing_plan_id":"cebpf4jnsgd1na2vs0mg"},{"bike_id":"82d04b50-e48e-48de-9086-622bd99590fe","system_id":"levelo_inurba_marseille","lat":43.31664,"lon":5.40498,"is_reserved":false,"is_disabled":false,"rental_uris":{"android":"levelo://app?vid=82d04b50-e48e-48de-9086-622bd99590fe","ios":"levelo://app?vid=82d04b50-e48e-48de-9086-622bd99590fe"},"vehicle_type_id":"4","last_reported":1734697004,"current_range_meters":38800,"station_id":"ce4bh012rcd13ifvqd00","pricing_plan_id":"cebpf4jnsgd1na2vs0mg"},{"bike_id":"88d0fca1-50cd-440e-a583-785fe0c07914","system_id":"levelo_inurba_marseille","lat":43.33176,"lon":5.39618,"is_reserved":false,"is_disabled":false,"rental_uris":{"android":"levelo://app?vid=88d0fca1-50cd-440e-a583-785fe0c07914","ios":"levelo://app?vid=88d0fca1-50cd-440e-a583-785fe0c07914"},"vehicle_type_id":"4","last_reported":1734697004,"current_range_meters":4400,"station_id":"","pricing_plan_id":"cebpf4jnsgd1na2vs0mg"},{"bike_id":"584b817f-1a7d-4e53-8e6b-a260280bc97e","system_id":"levelo_inurba_marseille","lat":43.27771,"lon":5.40731,"is_reserved":false,"is_disabled":false,"rental_uris":{"android":"levelo://app?vid=584b817f-1a7d-4e53-8e6b-a260280bc97e","ios":"levelo://app?vid=584b817f-1a7d-4e53-8e6b-a260280bc97e"},"vehicle_type_id":"4","last_reported":1734697004,"current_range_meters":21600,"station_id":"ce4bhnh2rcd13ifvqgtg","pricing_plan_id":"cebpf4jnsgd1na2vs0mg"},{"bike_id":"77dd45bd-8318-4b15-b271-d6ad3042584d","system_id":"levelo_inurba_marseille","lat":43.28606,"lon":5.37075,"is_reserved":false,"is_disabled":false,"rental_uris":{"android":"levelo://app?vid=77dd45bd-8318-4b15-b271-d6ad3042584d","ios":"levelo://app?vid=77dd45bd-8318-4b15-b271-d6ad3042584d"},"vehicle_type_id":"4","last_reported":1734697004,"current_range_meters":36800,"station_id":"ce4bht12rcd13ifvqi60","pricing_plan_id":"cebpf4jnsgd1na2vs0mg"},{"bike_id":"62159b96-70de-4225-a341-fe8203f1c374","system_id":"levelo_inurba_marseille","lat":43.28917,"lon":5.39661,"is_reserved":false,"is_disabled":true,"rental_uris":{"android":"levelo://app?vid=62159b96-70de-4225-a341-fe8203f1c374","ios":"levelo://app?vid=62159b96-70de-4225-a341-fe8203f1c374"},"vehicle_type_id":"4","last_reported":1734697004,"current_range_meters":30000,"station_id":"ce4bh3h2rcd13ifvqdn0","pricing_plan_id":"cebpf4jnsgd1na2vs0mg"},{"bike_id":"c97d5880-82c8-486f-b57c-042aaa388801","system_id":"levelo_inurba_marseille","lat":43.25926,"lon":5.40894,"is_reserved":false,"is_disabled":false,"rental_uris":{"android":"levelo://app?vid=c97d5880-82c8-486f-b57c-042aaa388801","ios":"levelo://app?vid=c97d5880-82c8-486f-b57c-042aaa388801"},"vehicle_type_id":"4","last_reported":1734697004,"current_range_meters":36400,"station_id":"ce4bhm92rcd13ifvqglg","pricing_plan_id":"cebpf4jnsgd1na2vs0mg"},{"bike_id":"ad7b2ea3-7921-404a-91ec-33bce1b06640","system_id":"levelo_inurba_marseille","lat":43.29703,"lon":5.36616,"is_reserved":false,"is_disabled":false,"rental_uris":{"android":"levelo://app?vid=ad7b2ea3-7921-404a-91ec-33bce1b06640","ios":"levelo://app?vid=ad7b2ea3-7921-404a-91ec-33bce1b06640"},"vehicle_type_id":"4","last_reported":1734697004,"current_range_meters":38800,"station_id":"ce4bgn12rcd13ifvqbt0","pricing_plan_id":"cebpf4jnsgd1na2vs0mg"},{"bike_id":"0c9a1202-8e72-4c9a-bd45-c006f8854121","system_id":"levelo_inurba_marseille","lat":43.30157,"lon":5.38081,"is_reserved":false,"is_disabled":false,"rental_uris":{"android":"levelo://app?vid=0c9a1202-8e72-4c9a-bd45-c006f8854121","ios":"levelo://app?vid=0c9a1202-8e72-4c9a-bd45-c006f8854121"},"vehicle_type_id":"4","last_reported":1734697004,"current_range_meters":20000,"station_id":"ce4bgjp2rcd13ifvqbh0","pricing_plan_id":"cebpf4jnsgd1na2vs0mg"},{"bike_id":"cc5cc33a-170c-4c9d-8b38-4163e1ce4670","system_id":"levelo_inurba_marseille","lat":43.27899,"lon":5.38016,"is_reserved":false,"is_disabled":false,"rental_uris":{"android":"levelo://app?vid=cc5cc33a-170c-4c9d-8b38-4163e1ce4670","ios":"levelo://app?vid=cc5cc33a-170c-4c9d-8b38-4163e1ce4670"},"vehicle_type_id":"4","last_reported":1734697004,"current_range_meters":39200,"station_id":"ce4bhf92rcd13ifvqf50","pricing_plan_id":"cebpf4jnsgd1na2vs0mg"},{"bike_id":"eeb165cd-0850-4135-b307-a7a2de607d7b","system_id":"levelo_inurba_marseille","lat":43.28602,"lon":5.37065,"is_reserved":false,"is_disabled":false,"rental_uris":{"android":"levelo://app?vid=eeb165cd-0850-4135-b307-a7a2de607d7b","ios":"levelo://app?vid=eeb165cd-0850-4135-b307-a7a2de607d7b"},"vehicle_type_id":"4","last_reported":1734697004,"current_range_meters":39200,"station_id":"ce4bht12rcd13ifvqi60","pricing_plan_id":"cebpf4jnsgd1na2vs0mg"},{"bike_id":"3f1b8f17-91cb-4899-9c32-5b9ea7a0ed54","system_id":"levelo_inurba_marseille","lat":43.26552,"lon":5.37285,"is_reserved":false,"is_disabled":true,"rental_uris":{"android":"levelo://app?vid=3f1b8f17-91cb-4899-9c32-5b9ea7a0ed54","ios":"levelo://app?vid=3f1b8f17-91cb-4899-9c32-5b9ea7a0ed54"},"vehicle_type_id":"4","last_reported":1734697004,"current_range_meters":1600,"station_id":"ce4bhg12rcd13ifvqf70","pricing_plan_id":"cebpf4jnsgd1na2vs0mg"},{"bike_id":"bde16004-2a0c-4fc8-acdd-f812d033bf70","system_id":"levelo_inurba_marseille","lat":43.26065,"lon":5.39388,"is_reserved":false,"is_disabled":false,"rental_uris":{"android":"levelo://app?vid=bde16004-2a0c-4fc8-acdd-f812d033bf70","ios":"levelo://app?vid=bde16004-2a0c-4fc8-acdd-f812d033bf70"},"vehicle_type_id":"4","last_reported":1734697004,"current_range_meters":8400,"station_id":"ce4bhh92rcd13ifvqfj0","pricing_plan_id":"cebpf4jnsgd1na2vs0mg"},{"bike_id":"df227d23-afec-4906-8b5a-7364725bbe5b","system_id":"levelo_inurba_marseille","lat":43.26491,"lon":5.39563,"is_reserved":false,"is_disabled":false,"rental_uris":{"android":"levelo://app?vid=df227d23-afec-4906-8b5a-7364725bbe5b","ios":"levelo://app?vid=df227d23-afec-4906-8b5a-7364725bbe5b"},"vehicle_type_id":"4","last_reported":1734697004,"current_range_meters":25600,"station_id":"ce4bhi12rcd13ifvqfq0","pricing_plan_id":"cebpf4jnsgd1na2vs0mg"},{"bike_id":"9f50244a-d38a-491a-9f70-c23a46404b46","system_id":"levelo_inurba_marseille","lat":43.28601,"lon":5.37079,"is_reserved":false,"is_disabled":false,"rental_uris":{"android":"levelo://app?vid=9f50244a-d38a-491a-9f70-c23a46404b46","ios":"levelo://app?vid=9f50244a-d38a-491a-9f70-c23a46404b46"},"vehicle_type_id":"4","last_reported":1734697004,"current_range_meters":39200,"station_id":"ce4bht12rcd13ifvqi60","pricing_plan_id":"cebpf4jnsgd1na2vs0mg"},{"bike_id":"df609213-4f03-423d-a027-9336b146a373","system_id":"levelo_inurba_marseille","lat":43.27557,"lon":5.38432,"is_reserved":false,"is_disabled":false,"rental_uris":{"android":"levelo://app?vid=df609213-4f03-423d-a027-9336b146a373","ios":"levelo://app?vid=df609213-4f03-423d-a027-9336b146a373"},"vehicle_type_id":"4","last_reported":1734697004,"current_range_meters":38800,"station_id":"ce4bhh92rcd13ifvqfi0","pricing_plan_id":"cebpf4jnsgd1na2vs0mg"},{"bike_id":"06edd7d0-77f9-471c-8776-c84ceac1c59f","system_id":"levelo_inurba_marseille","lat":43.29029,"lon":5.38631,"is_reserved":false,"is_disabled":false,"rental_uris":{"android":"levelo://app?vid=06edd7d0-77f9-471c-8776-c84ceac1c59f","ios":"levelo://app?vid=06edd7d0-77f9-471c-8776-c84ceac1c59f"},"vehicle_type_id":"4","last_reported":1734697004,"current_range_meters":38800,"station_id":"ce4bh4p2rcd13ifvqe0g","pricing_plan_id":"cebpf4jnsgd1na2vs0mg"},{"bike_id":"a2556b02-a46f-40fc-83fb-d4423cb32ea6","system_id":"levelo_inurba_marseille","lat":43.28092,"lon":5.37855,"is_reserved":false,"is_disabled":false,"rental_uris":{"android":"levelo://app?vid=a2556b02-a46f-40fc-83fb-d4423cb32ea6","ios":"levelo://app?vid=a2556b02-a46f-40fc-83fb-d4423cb32ea6"},"vehicle_type_id":"4","last_reported":1734697004,"current_range_meters":27200,"station_id":"ce4bha12rcd13ifvqee0","pricing_plan_id":"cebpf4jnsgd1na2vs0mg"},{"bike_id":"8f6798f2-4f69-4fa3-8218-4b173e6d6bad","system_id":"levelo_inurba_marseille","lat":43.27961,"lon":5.38689,"is_reserved":false,"is_disabled":false,"rental_uris":{"android":"levelo://app?vid=8f6798f2-4f69-4fa3-8218-4b173e6d6bad","ios":"levelo://app?vid=8f6798f2-4f69-4fa3-8218-4b173e6d6bad"},"vehicle_type_id":"4","last_reported":1734697004,"current_range_meters":18000,"station_id":"ce4bhg12rcd13ifvqf80","pricing_plan_id":"cebpf4jnsgd1na2vs0mg"},{"bike_id":"106f7b84-d1e4-4b04-b336-697dd666c41e","system_id":"levelo_inurba_marseille","lat":43.28459,"lon":5.35889,"is_reserved":false,"is_disabled":false,"rental_uris":{"android":"levelo://app?vid=106f7b84-d1e4-4b04-b336-697dd666c41e","ios":"levelo://app?vid=106f7b84-d1e4-4b04-b336-697dd666c41e"},"vehicle_type_id":"4","last_reported":1734697004,"current_range_meters":33600,"station_id":"ce4bhah2rcd13ifvqei0","pricing_plan_id":"cebpf4jnsgd1na2vs0mg"},{"bike_id":"c7f3790f-1be1-459d-8fd5-eb3dc47d8f4c","system_id":"levelo_inurba_marseille","lat":43.29836,"lon":5.36266,"is_reserved":false,"is_disabled":false,"rental_uris":{"android":"levelo://app?vid=c7f3790f-1be1-459d-8fd5-eb3dc47d8f4c","ios":"levelo://app?vid=c7f3790f-1be1-459d-8fd5-eb3dc47d8f4c"},"vehicle_type_id":"4","last_reported":1734697004,"current_range_meters":38000,"station_id":"ce4bgpp2rcd13ifvqc3g","pricing_plan_id":"cebpf4jnsgd1na2vs0mg"},{"bike_id":"fdedeb22-25f3-437c-93c3-0cffa7be6e4d","system_id":"levelo_inurba_marseille","lat":43.28459,"lon":5.35895,"is_reserved":false,"is_disabled":true,"rental_uris":{"android":"levelo://app?vid=fdedeb22-25f3-437c-93c3-0cffa7be6e4d","ios":"levelo://app?vid=fdedeb22-25f3-437c-93c3-0cffa7be6e4d"},"vehicle_type_id":"4","last_reported":1734697004,"current_range_meters":38800,"station_id":"ce4bhah2rcd13ifvqei0","pricing_plan_id":"cebpf4jnsgd1na2vs0mg"},{"bike_id":"8a940caf-a840-4317-825e-2921d5b02311","system_id":"levelo_inurba_marseille","lat":43.30885,"lon":5.37191,"is_reserved":false,"is_disabled":false,"rental_uris":{"android":"levelo://app?vid=8a940caf-a840-4317-825e-2921d5b02311","ios":"levelo://app?vid=8a940caf-a840-4317-825e-2921d5b02311"},"vehicle_type_id":"4","last_reported":1734697004,"current_range_meters":35600,"station_id":"ce4bguh2rcd13ifvqckg","pricing_plan_id":"cebpf4jnsgd1na2vs0mg"},{"bike_id":"c8b30424-050c-4dd3-9931-fa2ff9468c28","system_id":"levelo_inurba_marseille","lat":43.30265,"lon":5.37725,"is_reserved":false,"is_disabled":false,"rental_uris":{"android":"levelo://app?vid=c8b30424-050c-4dd3-9931-fa2ff9468c28","ios":"levelo://app?vid=c8b30424-050c-4dd3-9931-fa2ff9468c28"},"vehicle_type_id":"4","last_reported":1734697004,"current_range_meters":39200,"station_id":"ce4bguh2rcd13ifvqcj0","pricing_plan_id":"cebpf4jnsgd1na2vs0mg"},{"bike_id":"aee0c001-d83d-47e6-86b4-3c2a0bbc1bf7","system_id":"levelo_inurba_marseille","lat":43.25815,"lon":5.39441,"is_reserved":false,"is_disabled":false,"rental_uris":{"android":"levelo://app?vid=aee0c001-d83d-47e6-86b4-3c2a0bbc1bf7","ios":"levelo://app?vid=aee0c001-d83d-47e6-86b4-3c2a0bbc1bf7"},"vehicle_type_id":"4","last_reported":1734697004,"current_range_meters":38800,"station_id":"ce4bhip2rcd13ifvqft0","pricing_plan_id":"cebpf4jnsgd1na2vs0mg"},{"bike_id":"a7053f8c-b657-4929-95e3-080c0ef9f617","system_id":"levelo_inurba_marseille","lat":43.27938,"lon":5.4104,"is_reserved":false,"is_disabled":false,"rental_uris":{"android":"levelo://app?vid=a7053f8c-b657-4929-95e3-080c0ef9f617","ios":"levelo://app?vid=a7053f8c-b657-4929-95e3-080c0ef9f617"},"vehicle_type_id":"4","last_reported":1734697004,"current_range_meters":24400,"station_id":"ce4bhnp2rcd13ifvqh0g","pricing_plan_id":"cebpf4jnsgd1na2vs0mg"},{"bike_id":"8fb1bad3-a121-4eb1-a55f-687f99cf68d1","system_id":"levelo_inurba_marseille","lat":43.25487,"lon":5.37656,"is_reserved":false,"is_disabled":false,"rental_uris":{"android":"levelo://app?vid=8fb1bad3-a121-4eb1-a55f-687f99cf68d1","ios":"levelo://app?vid=8fb1bad3-a121-4eb1-a55f-687f99cf68d1"},"vehicle_type_id":"4","last_reported":1734697004,"current_range_meters":38800,"station_id":"ce4bhh12rcd13ifvqff0","pricing_plan_id":"cebpf4jnsgd1na2vs0mg"},{"bike_id":"8417b700-ae98-45dd-8f9e-a85d1d752cc3","system_id":"levelo_inurba_marseille","lat":43.26047,"lon":5.39432,"is_reserved":false,"is_disabled":true,"rental_uris":{"android":"levelo://app?vid=8417b700-ae98-45dd-8f9e-a85d1d752cc3","ios":"levelo://app?vid=8417b700-ae98-45dd-8f9e-a85d1d752cc3"},"vehicle_type_id":"4","last_reported":1734697004,"current_range_meters":39200,"station_id":"ce4bhh92rcd13ifvqfj0","pricing_plan_id":"cebpf4jnsgd1na2vs0mg"},{"bike_id":"09bec947-4c4d-46e1-81b7-d95e087b0d9f","system_id":"levelo_inurba_marseille","lat":43.25492,"lon":5.37651,"is_reserved":false,"is_disabled":false,"rental_uris":{"android":"levelo://app?vid=09bec947-4c4d-46e1-81b7-d95e087b0d9f","ios":"levelo://app?vid=09bec947-4c4d-46e1-81b7-d95e087b0d9f"},"vehicle_type_id":"4","last_reported":1734697004,"current_range_meters":38800,"station_id":"ce4bhh12rcd13ifvqff0","pricing_plan_id":"cebpf4jnsgd1na2vs0mg"},{"bike_id":"bfbfa309-e736-4a61-b3da-e584362122b2","system_id":"levelo_inurba_marseille","lat":43.248063,"lon":5.374566,"is_reserved":false,"is_disabled":false,"rental_uris":{"android":"levelo://app?vid=bfbfa309-e736-4a61-b3da-e584362122b2","ios":"levelo://app?vid=bfbfa309-e736-4a61-b3da-e584362122b2"},"vehicle_type_id":"4","last_reported":1734697004,"current_range_meters":19600,"station_id":"ce4bhgh2rcd13ifvqfb0","pricing_plan_id":"cebpf4jnsgd1na2vs0mg"},{"bike_id":"6b9cb4b7-081a-4688-aa4c-fe83ccb2d64e","system_id":"levelo_inurba_marseille","lat":43.30605,"lon":5.37227,"is_reserved":false,"is_disabled":false,"rental_uris":{"android":"levelo://app?vid=6b9cb4b7-081a-4688-aa4c-fe83ccb2d64e","ios":"levelo://app?vid=6b9cb4b7-081a-4688-aa4c-fe83ccb2d64e"},"vehicle_type_id":"4","last_reported":1734697004,"current_range_meters":22800,"station_id":"ce4bgqh2rcd13ifvqc4g","pricing_plan_id":"cebpf4jnsgd1na2vs0mg"},{"bike_id":"7f0380c8-bc4c-4a64-baf8-fabe66a793ab","system_id":"levelo_inurba_marseille","lat":43.28346,"lon":5.38097,"is_reserved":false,"is_disabled":false,"rental_uris":{"android":"levelo://app?vid=7f0380c8-bc4c-4a64-baf8-fabe66a793ab","ios":"levelo://app?vid=7f0380c8-bc4c-4a64-baf8-fabe66a793ab"},"vehicle_type_id":"4","last_reported":1734697004,"current_range_meters":32400,"station_id":"ce4bh412rcd13ifvqdr0","pricing_plan_id":"cebpf4jnsgd1na2vs0mg"},{"bike_id":"70819d6c-3617-4e48-a1ff-45276a1c2e22","system_id":"levelo_inurba_marseille","lat":43.269391,"lon":5.402543,"is_reserved":false,"is_disabled":false,"rental_uris":{"android":"levelo://app?vid=70819d6c-3617-4e48-a1ff-45276a1c2e22","ios":"levelo://app?vid=70819d6c-3617-4e48-a1ff-45276a1c2e22"},"vehicle_type_id":"4","last_reported":1734697004,"current_range_meters":36800,"station_id":"cjm6bp8fraef2m0cb0m0","pricing_plan_id":"cebpf4jnsgd1na2vs0mg"},{"bike_id":"fc4ff347-ef4d-4a4d-ae09-babf618fedb6","system_id":"levelo_inurba_marseille","lat":43.24169,"lon":5.36403,"is_reserved":false,"is_disabled":false,"rental_uris":{"android":"levelo://app?vid=fc4ff347-ef4d-4a4d-ae09-babf618fedb6","ios":"levelo://app?vid=fc4ff347-ef4d-4a4d-ae09-babf618fedb6"},"vehicle_type_id":"4","last_reported":1734697004,"current_range_meters":38800,"station_id":"cpo36qri1sfpv3e86is0","pricing_plan_id":"cebpf4jnsgd1na2vs0mg"},{"bike_id":"4e1c702f-4fec-4a09-a45d-af1848f5ba3b","system_id":"levelo_inurba_marseille","lat":43.25576,"lon":5.38244,"is_reserved":false,"is_disabled":false,"rental_uris":{"android":"levelo://app?vid=4e1c702f-4fec-4a09-a45d-af1848f5ba3b","ios":"levelo://app?vid=4e1c702f-4fec-4a09-a45d-af1848f5ba3b"},"vehicle_type_id":"4","last_reported":1734697004,"current_range_meters":38800,"station_id":"ce4bhih2rcd13ifvqfs0","pricing_plan_id":"cebpf4jnsgd1na2vs0mg"},{"bike_id":"5b5d6318-579e-4182-9933-8deea490751e","system_id":"levelo_inurba_marseille","lat":43.3014,"lon":5.38092,"is_reserved":false,"is_disabled":false,"rental_uris":{"android":"levelo://app?vid=5b5d6318-579e-4182-9933-8deea490751e","ios":"levelo://app?vid=5b5d6318-579e-4182-9933-8deea490751e"},"vehicle_type_id":"4","last_reported":1734697004,"current_range_meters":15200,"station_id":"ce4bgjp2rcd13ifvqbh0","pricing_plan_id":"cebpf4jnsgd1na2vs0mg"},{"bike_id":"f0598eeb-6636-4202-bc3a-c35fdb37b2a3","system_id":"levelo_inurba_marseille","lat":43.30147,"lon":5.38094,"is_reserved":false,"is_disabled":false,"rental_uris":{"android":"levelo://app?vid=f0598eeb-6636-4202-bc3a-c35fdb37b2a3","ios":"levelo://app?vid=f0598eeb-6636-4202-bc3a-c35fdb37b2a3"},"vehicle_type_id":"4","last_reported":1734697004,"current_range_meters":23200,"station_id":"ce4bgjp2rcd13ifvqbh0","pricing_plan_id":"cebpf4jnsgd1na2vs0mg"},{"bike_id":"dca4ef69-419d-4496-ae2c-a9b947e8f7e9","system_id":"levelo_inurba_marseille","lat":43.2797,"lon":5.38749,"is_reserved":false,"is_disabled":false,"rental_uris":{"android":"levelo://app?vid=dca4ef69-419d-4496-ae2c-a9b947e8f7e9","ios":"levelo://app?vid=dca4ef69-419d-4496-ae2c-a9b947e8f7e9"},"vehicle_type_id":"4","last_reported":1734697004,"current_range_meters":30000,"station_id":"ce4bhg12rcd13ifvqf80","pricing_plan_id":"cebpf4jnsgd1na2vs0mg"},{"bike_id":"fbe2bf62-e6f0-4040-8e46-4a937bf89229","system_id":"levelo_inurba_marseille","lat":43.28342,"lon":5.38107,"is_reserved":false,"is_disabled":false,"rental_uris":{"android":"levelo://app?vid=fbe2bf62-e6f0-4040-8e46-4a937bf89229","ios":"levelo://app?vid=fbe2bf62-e6f0-4040-8e46-4a937bf89229"},"vehicle_type_id":"4","last_reported":1734697004,"current_range_meters":39200,"station_id":"ce4bh412rcd13ifvqdr0","pricing_plan_id":"cebpf4jnsgd1na2vs0mg"},{"bike_id":"fbc839bc-6ee5-40a4-9a57-a02a471355f1","system_id":"levelo_inurba_marseille","lat":43.28666,"lon":5.38667,"is_reserved":false,"is_disabled":false,"rental_uris":{"android":"levelo://app?vid=fbc839bc-6ee5-40a4-9a57-a02a471355f1","ios":"levelo://app?vid=fbc839bc-6ee5-40a4-9a57-a02a471355f1"},"vehicle_type_id":"4","last_reported":1734697004,"current_range_meters":26000,"station_id":"ce4bh492rcd13ifvqdug","pricing_plan_id":"cebpf4jnsgd1na2vs0mg"},{"bike_id":"4695cff2-e8a9-4cfc-a059-a1678fa39cf5","system_id":"levelo_inurba_marseille","lat":43.27808,"lon":5.40717,"is_reserved":false,"is_disabled":false,"rental_uris":{"android":"levelo://app?vid=4695cff2-e8a9-4cfc-a059-a1678fa39cf5","ios":"levelo://app?vid=4695cff2-e8a9-4cfc-a059-a1678fa39cf5"},"vehicle_type_id":"4","last_reported":1734697004,"current_range_meters":29600,"station_id":"ce4bhnh2rcd13ifvqgtg","pricing_plan_id":"cebpf4jnsgd1na2vs0mg"},{"bike_id":"47b0ab5e-d500-4c65-8aaa-676c147017a7","system_id":"levelo_inurba_marseille","lat":43.31527,"lon":5.3804,"is_reserved":false,"is_disabled":false,"rental_uris":{"android":"levelo://app?vid=47b0ab5e-d500-4c65-8aaa-676c147017a7","ios":"levelo://app?vid=47b0ab5e-d500-4c65-8aaa-676c147017a7"},"vehicle_type_id":"4","last_reported":1734697004,"current_range_meters":31200,"station_id":"ce4bhsp2rcd13ifvqi50","pricing_plan_id":"cebpf4jnsgd1na2vs0mg"},{"bike_id":"05929ef6-9ef2-4752-a127-101b7fed8eb1","system_id":"levelo_inurba_marseille","lat":43.29567,"lon":5.37511,"is_reserved":false,"is_disabled":false,"rental_uris":{"android":"levelo://app?vid=05929ef6-9ef2-4752-a127-101b7fed8eb1","ios":"levelo://app?vid=05929ef6-9ef2-4752-a127-101b7fed8eb1"},"vehicle_type_id":"4","last_reported":1734697004,"current_range_meters":35600,"station_id":"ce4bgh92rcd13ifvqb50","pricing_plan_id":"cebpf4jnsgd1na2vs0mg"},{"bike_id":"6b311879-2bde-4ef4-b466-fe69eb768b43","system_id":"levelo_inurba_marseille","lat":43.26697,"lon":5.38259,"is_reserved":false,"is_disabled":false,"rental_uris":{"android":"levelo://app?vid=6b311879-2bde-4ef4-b466-fe69eb768b43","ios":"levelo://app?vid=6b311879-2bde-4ef4-b466-fe69eb768b43"},"vehicle_type_id":"4","last_reported":1734697004,"current_range_meters":38800,"station_id":"ce4bhg92rcd13ifvqf90","pricing_plan_id":"cebpf4jnsgd1na2vs0mg"},{"bike_id":"4d7a228f-4e0b-48fe-a576-0bd3e50315a1","system_id":"levelo_inurba_marseille","lat":43.28412,"lon":5.34997,"is_reserved":false,"is_disabled":false,"rental_uris":{"android":"levelo://app?vid=4d7a228f-4e0b-48fe-a576-0bd3e50315a1","ios":"levelo://app?vid=4d7a228f-4e0b-48fe-a576-0bd3e50315a1"},"vehicle_type_id":"4","last_reported":1734697004,"current_range_meters":21600,"station_id":"ce4bhbh2rcd13ifvqepg","pricing_plan_id":"cebpf4jnsgd1na2vs0mg"},{"bike_id":"4a23f52a-a5bf-4824-9bc5-54e45b9dbd1d","system_id":"levelo_inurba_marseille","lat":43.2986,"lon":5.39352,"is_reserved":false,"is_disabled":false,"rental_uris":{"android":"levelo://app?vid=4a23f52a-a5bf-4824-9bc5-54e45b9dbd1d","ios":"levelo://app?vid=4a23f52a-a5bf-4824-9bc5-54e45b9dbd1d"},"vehicle_type_id":"4","last_reported":1734697004,"current_range_meters":38800,"station_id":"chh1huq6cuj3fo74tm60","pricing_plan_id":"cebpf4jnsgd1na2vs0mg"},{"bike_id":"9114d27a-8a84-46ce-b516-48b1fd7c0280","system_id":"levelo_inurba_marseille","lat":43.28408,"lon":5.37477,"is_reserved":false,"is_disabled":false,"rental_uris":{"android":"levelo://app?vid=9114d27a-8a84-46ce-b516-48b1fd7c0280","ios":"levelo://app?vid=9114d27a-8a84-46ce-b516-48b1fd7c0280"},"vehicle_type_id":"4","last_reported":1734697004,"current_range_meters":11600,"station_id":"ce4bh412rcd13ifvqds0","pricing_plan_id":"cebpf4jnsgd1na2vs0mg"},{"bike_id":"ccfddbb7-bdd2-4bed-9bd4-68a43061003a","system_id":"levelo_inurba_marseille","lat":43.25934,"lon":5.40906,"is_reserved":false,"is_disabled":false,"rental_uris":{"android":"levelo://app?vid=ccfddbb7-bdd2-4bed-9bd4-68a43061003a","ios":"levelo://app?vid=ccfddbb7-bdd2-4bed-9bd4-68a43061003a"},"vehicle_type_id":"4","last_reported":1734697004,"current_range_meters":38800,"station_id":"ce4bhm92rcd13ifvqglg","pricing_plan_id":"cebpf4jnsgd1na2vs0mg"},{"bike_id":"04251412-591f-4936-bca7-1dc4aa87eeae","system_id":"levelo_inurba_marseille","lat":43.29836,"lon":5.36268,"is_reserved":false,"is_disabled":false,"rental_uris":{"android":"levelo://app?vid=04251412-591f-4936-bca7-1dc4aa87eeae","ios":"levelo://app?vid=04251412-591f-4936-bca7-1dc4aa87eeae"},"vehicle_type_id":"4","last_reported":1734697004,"current_range_meters":36000,"station_id":"ce4bgpp2rcd13ifvqc3g","pricing_plan_id":"cebpf4jnsgd1na2vs0mg"},{"bike_id":"8e59743e-ef5e-4b41-839a-bf01d6f13692","system_id":"levelo_inurba_marseille","lat":43.32536,"lon":5.41435,"is_reserved":false,"is_disabled":false,"rental_uris":{"android":"levelo://app?vid=8e59743e-ef5e-4b41-839a-bf01d6f13692","ios":"levelo://app?vid=8e59743e-ef5e-4b41-839a-bf01d6f13692"},"vehicle_type_id":"4","last_reported":1734697004,"current_range_meters":5600,"station_id":"ce4bhq12rcd13ifvqhhg","pricing_plan_id":"cebpf4jnsgd1na2vs0mg"},{"bike_id":"d4a92d73-458f-4633-b078-8b09bedbb320","system_id":"levelo_inurba_marseille","lat":43.31327,"lon":5.39693,"is_reserved":false,"is_disabled":false,"rental_uris":{"android":"levelo://app?vid=d4a92d73-458f-4633-b078-8b09bedbb320","ios":"levelo://app?vid=d4a92d73-458f-4633-b078-8b09bedbb320"},"vehicle_type_id":"4","last_reported":1734697004,"current_range_meters":39200,"station_id":"ce4bgvp2rcd13ifvqcu0","pricing_plan_id":"cebpf4jnsgd1na2vs0mg"},{"bike_id":"2a12bde8-ca1e-4ca8-8cbb-8dbf9a638106","system_id":"levelo_inurba_marseille","lat":43.23189,"lon":5.35565,"is_reserved":false,"is_disabled":false,"rental_uris":{"android":"levelo://app?vid=2a12bde8-ca1e-4ca8-8cbb-8dbf9a638106","ios":"levelo://app?vid=2a12bde8-ca1e-4ca8-8cbb-8dbf9a638106"},"vehicle_type_id":"4","last_reported":1734697004,"current_range_meters":25600,"station_id":"ce4bhu92rcd13ifvqi70","pricing_plan_id":"cebpf4jnsgd1na2vs0mg"},{"bike_id":"82b98b08-cf84-40f3-a0a4-1136038c5b5f","system_id":"levelo_inurba_marseille","lat":43.28851,"lon":5.35852,"is_reserved":false,"is_disabled":false,"rental_uris":{"android":"levelo://app?vid=82b98b08-cf84-40f3-a0a4-1136038c5b5f","ios":"levelo://app?vid=82b98b08-cf84-40f3-a0a4-1136038c5b5f"},"vehicle_type_id":"4","last_reported":1734697004,"current_range_meters":35200,"station_id":"ce4bhb12rcd13ifvqem0","pricing_plan_id":"cebpf4jnsgd1na2vs0mg"},{"bike_id":"5cd0e186-dad6-403c-9513-a3f3abdcc32e","system_id":"levelo_inurba_marseille","lat":43.25088,"lon":5.39516,"is_reserved":false,"is_disabled":false,"rental_uris":{"android":"levelo://app?vid=5cd0e186-dad6-403c-9513-a3f3abdcc32e","ios":"levelo://app?vid=5cd0e186-dad6-403c-9513-a3f3abdcc32e"},"vehicle_type_id":"4","last_reported":1734697004,"current_range_meters":27200,"station_id":"ce4bhm12rcd13ifvqgkg","pricing_plan_id":"cebpf4jnsgd1na2vs0mg"},{"bike_id":"434fc0df-6295-4be1-949d-a77a16929ec8","system_id":"levelo_inurba_marseille","lat":43.26193,"lon":5.37925,"is_reserved":false,"is_disabled":false,"rental_uris":{"android":"levelo://app?vid=434fc0df-6295-4be1-949d-a77a16929ec8","ios":"levelo://app?vid=434fc0df-6295-4be1-949d-a77a16929ec8"},"vehicle_type_id":"4","last_reported":1734697004,"current_range_meters":39200,"station_id":"ce4bhjp2rcd13ifvqg90","pricing_plan_id":"cebpf4jnsgd1na2vs0mg"},{"bike_id":"b3d2b7e5-575c-4e68-b9c6-01c32abd0abb","system_id":"levelo_inurba_marseille","lat":43.2781,"lon":5.40714,"is_reserved":false,"is_disabled":false,"rental_uris":{"android":"levelo://app?vid=b3d2b7e5-575c-4e68-b9c6-01c32abd0abb","ios":"levelo://app?vid=b3d2b7e5-575c-4e68-b9c6-01c32abd0abb"},"vehicle_type_id":"4","last_reported":1734697004,"current_range_meters":26000,"station_id":"ce4bhnh2rcd13ifvqgtg","pricing_plan_id":"cebpf4jnsgd1na2vs0mg"},{"bike_id":"f0bcbb45-555d-4c5b-8534-084b0fafc4e9","system_id":"levelo_inurba_marseille","lat":43.2916,"lon":5.37156,"is_reserved":false,"is_disabled":true,"rental_uris":{"android":"levelo://app?vid=f0bcbb45-555d-4c5b-8534-084b0fafc4e9","ios":"levelo://app?vid=f0bcbb45-555d-4c5b-8534-084b0fafc4e9"},"vehicle_type_id":"4","last_reported":1734697004,"current_range_meters":12000,"station_id":"ce4bha92rcd13ifvqeh0","pricing_plan_id":"cebpf4jnsgd1na2vs0mg"},{"bike_id":"6e60e44a-835c-4524-97cd-98e45c667a2e","system_id":"levelo_inurba_marseille","lat":43.30595,"lon":5.3724,"is_reserved":false,"is_disabled":false,"rental_uris":{"android":"levelo://app?vid=6e60e44a-835c-4524-97cd-98e45c667a2e","ios":"levelo://app?vid=6e60e44a-835c-4524-97cd-98e45c667a2e"},"vehicle_type_id":"4","last_reported":1734697004,"current_range_meters":34800,"station_id":"ce4bgqh2rcd13ifvqc4g","pricing_plan_id":"cebpf4jnsgd1na2vs0mg"},{"bike_id":"422600bf-f515-472e-b707-d7911f071078","system_id":"levelo_inurba_marseille","lat":43.30427,"lon":5.3975,"is_reserved":false,"is_disabled":false,"rental_uris":{"android":"levelo://app?vid=422600bf-f515-472e-b707-d7911f071078","ios":"levelo://app?vid=422600bf-f515-472e-b707-d7911f071078"},"vehicle_type_id":"4","last_reported":1734697004,"current_range_meters":16000,"station_id":"ce4bh092rcd13ifvqd20","pricing_plan_id":"cebpf4jnsgd1na2vs0mg"},{"bike_id":"b002d028-e42c-46e2-93ce-a18a7a90546e","system_id":"levelo_inurba_marseille","lat":43.32287,"lon":5.38288,"is_reserved":false,"is_disabled":false,"rental_uris":{"android":"levelo://app?vid=b002d028-e42c-46e2-93ce-a18a7a90546e","ios":"levelo://app?vid=b002d028-e42c-46e2-93ce-a18a7a90546e"},"vehicle_type_id":"4","last_reported":1734697004,"current_range_meters":17600,"station_id":"ce4bhr12rcd13ifvqhqg","pricing_plan_id":"cebpf4jnsgd1na2vs0mg"},{"bike_id":"e2405262-ad12-483a-82ef-2596b3ca5f31","system_id":"levelo_inurba_marseille","lat":43.25724,"lon":5.41108,"is_reserved":false,"is_disabled":false,"rental_uris":{"android":"levelo://app?vid=e2405262-ad12-483a-82ef-2596b3ca5f31","ios":"levelo://app?vid=e2405262-ad12-483a-82ef-2596b3ca5f31"},"vehicle_type_id":"4","last_reported":1734697004,"current_range_meters":22400,"station_id":"ce4bhkp2rcd13ifvqgd0","pricing_plan_id":"cebpf4jnsgd1na2vs0mg"},{"bike_id":"1a3f82c5-ef42-4534-981a-bcc20f26cb3f","system_id":"levelo_inurba_marseille","lat":43.272,"lon":5.3917,"is_reserved":false,"is_disabled":false,"rental_uris":{"android":"levelo://app?vid=1a3f82c5-ef42-4534-981a-bcc20f26cb3f","ios":"levelo://app?vid=1a3f82c5-ef42-4534-981a-bcc20f26cb3f"},"vehicle_type_id":"4","last_reported":1734697004,"current_range_meters":38400,"station_id":"ce4bhhp2rcd13ifvqfm0","pricing_plan_id":"cebpf4jnsgd1na2vs0mg"},{"bike_id":"d452df7b-9cf3-4345-9661-a79d0f4f284d","system_id":"levelo_inurba_marseille","lat":43.30545,"lon":5.36721,"is_reserved":false,"is_disabled":false,"rental_uris":{"android":"levelo://app?vid=d452df7b-9cf3-4345-9661-a79d0f4f284d","ios":"levelo://app?vid=d452df7b-9cf3-4345-9661-a79d0f4f284d"},"vehicle_type_id":"4","last_reported":1734697004,"current_range_meters":38000,"station_id":"ce4bgrp2rcd13ifvqc9g","pricing_plan_id":"cebpf4jnsgd1na2vs0mg"},{"bike_id":"06490188-5799-4bb6-8bf3-bc1b8cd951f0","system_id":"levelo_inurba_marseille","lat":43.29697,"lon":5.36604,"is_reserved":false,"is_disabled":false,"rental_uris":{"android":"levelo://app?vid=06490188-5799-4bb6-8bf3-bc1b8cd951f0","ios":"levelo://app?vid=06490188-5799-4bb6-8bf3-bc1b8cd951f0"},"vehicle_type_id":"4","last_reported":1734697004,"current_range_meters":36800,"station_id":"ce4bgn12rcd13ifvqbt0","pricing_plan_id":"cebpf4jnsgd1na2vs0mg"},{"bike_id":"7d09503b-e01a-4f26-bd4c-afa1410c6f9c","system_id":"levelo_inurba_marseille","lat":43.26065,"lon":5.39412,"is_reserved":false,"is_disabled":false,"rental_uris":{"android":"levelo://app?vid=7d09503b-e01a-4f26-bd4c-afa1410c6f9c","ios":"levelo://app?vid=7d09503b-e01a-4f26-bd4c-afa1410c6f9c"},"vehicle_type_id":"4","last_reported":1734697004,"current_range_meters":30000,"station_id":"ce4bhh92rcd13ifvqfj0","pricing_plan_id":"cebpf4jnsgd1na2vs0mg"},{"bike_id":"4094ac40-fe97-4483-91f4-bc4b6a97b4f3","system_id":"levelo_inurba_marseille","lat":43.25821,"lon":5.39435,"is_reserved":false,"is_disabled":false,"rental_uris":{"android":"levelo://app?vid=4094ac40-fe97-4483-91f4-bc4b6a97b4f3","ios":"levelo://app?vid=4094ac40-fe97-4483-91f4-bc4b6a97b4f3"},"vehicle_type_id":"4","last_reported":1734697004,"current_range_meters":9600,"station_id":"ce4bhip2rcd13ifvqft0","pricing_plan_id":"cebpf4jnsgd1na2vs0mg"},{"bike_id":"b44f9236-c33f-43b3-ab7e-0f32e9951c9e","system_id":"levelo_inurba_marseille","lat":43.23195,"lon":5.35551,"is_reserved":false,"is_disabled":false,"rental_uris":{"android":"levelo://app?vid=b44f9236-c33f-43b3-ab7e-0f32e9951c9e","ios":"levelo://app?vid=b44f9236-c33f-43b3-ab7e-0f32e9951c9e"},"vehicle_type_id":"4","last_reported":1734697004,"current_range_meters":7200,"station_id":"ce4bhu92rcd13ifvqi70","pricing_plan_id":"cebpf4jnsgd1na2vs0mg"},{"bike_id":"4620dcd9-c3a6-4871-8162-c4a28f6d33ca","system_id":"levelo_inurba_marseille","lat":43.31893,"lon":5.4072,"is_reserved":false,"is_disabled":true,"rental_uris":{"android":"levelo://app?vid=4620dcd9-c3a6-4871-8162-c4a28f6d33ca","ios":"levelo://app?vid=4620dcd9-c3a6-4871-8162-c4a28f6d33ca"},"vehicle_type_id":"4","last_reported":1734697004,"current_range_meters":38800,"station_id":"ce4bhq12rcd13ifvqhig","pricing_plan_id":"cebpf4jnsgd1na2vs0mg"},{"bike_id":"7cdaab41-d6a9-411c-91af-08e1cd111a45","system_id":"levelo_inurba_marseille","lat":43.30755,"lon":5.40271,"is_reserved":false,"is_disabled":false,"rental_uris":{"android":"levelo://app?vid=7cdaab41-d6a9-411c-91af-08e1cd111a45","ios":"levelo://app?vid=7cdaab41-d6a9-411c-91af-08e1cd111a45"},"vehicle_type_id":"4","last_reported":1734697004,"current_range_meters":11600,"station_id":"","pricing_plan_id":"cebpf4jnsgd1na2vs0mg"},{"bike_id":"276c9499-43db-409c-811c-1972563b5f62","system_id":"levelo_inurba_marseille","lat":43.27673,"lon":5.38886,"is_reserved":false,"is_disabled":false,"rental_uris":{"android":"levelo://app?vid=276c9499-43db-409c-811c-1972563b5f62","ios":"levelo://app?vid=276c9499-43db-409c-811c-1972563b5f62"},"vehicle_type_id":"4","last_reported":1734697004,"current_range_meters":32000,"station_id":"ce4bhi12rcd13ifvqfo0","pricing_plan_id":"cebpf4jnsgd1na2vs0mg"},{"bike_id":"b152beff-460f-416e-9e7c-554e402210ef","system_id":"levelo_inurba_marseille","lat":43.2468,"lon":5.38141,"is_reserved":false,"is_disabled":false,"rental_uris":{"android":"levelo://app?vid=b152beff-460f-416e-9e7c-554e402210ef","ios":"levelo://app?vid=b152beff-460f-416e-9e7c-554e402210ef"},"vehicle_type_id":"4","last_reported":1734697004,"current_range_meters":38800,"station_id":"ce4bhih2rcd13ifvqfr0","pricing_plan_id":"cebpf4jnsgd1na2vs0mg"},{"bike_id":"a75b08f1-37cc-41c5-95db-2b9ed81dc942","system_id":"levelo_inurba_marseille","lat":43.29725,"lon":5.37693,"is_reserved":false,"is_disabled":false,"rental_uris":{"android":"levelo://app?vid=a75b08f1-37cc-41c5-95db-2b9ed81dc942","ios":"levelo://app?vid=a75b08f1-37cc-41c5-95db-2b9ed81dc942"},"vehicle_type_id":"4","last_reported":1734697004,"current_range_meters":24800,"station_id":"ce4bgkh2rcd13ifvqbl0","pricing_plan_id":"cebpf4jnsgd1na2vs0mg"},{"bike_id":"7f26a9f5-a8ad-47b3-9fb1-698bff1dae74","system_id":"levelo_inurba_marseille","lat":43.30277,"lon":5.3771,"is_reserved":false,"is_disabled":false,"rental_uris":{"android":"levelo://app?vid=7f26a9f5-a8ad-47b3-9fb1-698bff1dae74","ios":"levelo://app?vid=7f26a9f5-a8ad-47b3-9fb1-698bff1dae74"},"vehicle_type_id":"4","last_reported":1734697004,"current_range_meters":38800,"station_id":"ce4bguh2rcd13ifvqcj0","pricing_plan_id":"cebpf4jnsgd1na2vs0mg"},{"bike_id":"64229b70-221f-4057-87fe-de5b125293ff","system_id":"levelo_inurba_marseille","lat":43.30173,"lon":5.36619,"is_reserved":false,"is_disabled":false,"rental_uris":{"android":"levelo://app?vid=64229b70-221f-4057-87fe-de5b125293ff","ios":"levelo://app?vid=64229b70-221f-4057-87fe-de5b125293ff"},"vehicle_type_id":"4","last_reported":1734697004,"current_range_meters":39200,"station_id":"ce4bgrh2rcd13ifvqc8g","pricing_plan_id":"cebpf4jnsgd1na2vs0mg"},{"bike_id":"9bb85159-9b97-48c7-8b70-a5ba1a6e19c5","system_id":"levelo_inurba_marseille","lat":43.32481,"lon":5.3656,"is_reserved":false,"is_disabled":false,"rental_uris":{"android":"levelo://app?vid=9bb85159-9b97-48c7-8b70-a5ba1a6e19c5","ios":"levelo://app?vid=9bb85159-9b97-48c7-8b70-a5ba1a6e19c5"},"vehicle_type_id":"4","last_reported":1734697004,"current_range_meters":24400,"station_id":"ce4bhs12rcd13ifvqhvg","pricing_plan_id":"cebpf4jnsgd1na2vs0mg"},{"bike_id":"59edd089-7379-4180-ab91-a07c47a59c06","system_id":"levelo_inurba_marseille","lat":43.31076,"lon":5.42438,"is_reserved":false,"is_disabled":false,"rental_uris":{"android":"levelo://app?vid=59edd089-7379-4180-ab91-a07c47a59c06","ios":"levelo://app?vid=59edd089-7379-4180-ab91-a07c47a59c06"},"vehicle_type_id":"4","last_reported":1734697004,"current_range_meters":26800,"station_id":"ce4bhp92rcd13ifvqhag","pricing_plan_id":"cebpf4jnsgd1na2vs0mg"},{"bike_id":"61d6996d-3290-4ff0-9ef3-387b57fcacbb","system_id":"levelo_inurba_marseille","lat":43.30142,"lon":5.37407,"is_reserved":false,"is_disabled":false,"rental_uris":{"android":"levelo://app?vid=61d6996d-3290-4ff0-9ef3-387b57fcacbb","ios":"levelo://app?vid=61d6996d-3290-4ff0-9ef3-387b57fcacbb"},"vehicle_type_id":"4","last_reported":1734697004,"current_range_meters":33600,"station_id":"ce4bgs92rcd13ifvqcc0","pricing_plan_id":"cebpf4jnsgd1na2vs0mg"},{"bike_id":"cf7ee5da-8f20-4e0c-9be2-887033ef8c21","system_id":"levelo_inurba_marseille","lat":43.29936,"lon":5.36559,"is_reserved":false,"is_disabled":false,"rental_uris":{"android":"levelo://app?vid=cf7ee5da-8f20-4e0c-9be2-887033ef8c21","ios":"levelo://app?vid=cf7ee5da-8f20-4e0c-9be2-887033ef8c21"},"vehicle_type_id":"4","last_reported":1734697004,"current_range_meters":28800,"station_id":"ce4bgm92rcd13ifvqbr0","pricing_plan_id":"cebpf4jnsgd1na2vs0mg"},{"bike_id":"b2aad394-ce32-412e-8aaf-9e5aaecb42f9","system_id":"levelo_inurba_marseille","lat":43.27189,"lon":5.40978,"is_reserved":false,"is_disabled":false,"rental_uris":{"android":"levelo://app?vid=b2aad394-ce32-412e-8aaf-9e5aaecb42f9","ios":"levelo://app?vid=b2aad394-ce32-412e-8aaf-9e5aaecb42f9"},"vehicle_type_id":"4","last_reported":1734697004,"current_range_meters":39200,"station_id":"ce4bhl12rcd13ifvqgf0","pricing_plan_id":"cebpf4jnsgd1na2vs0mg"},{"bike_id":"145b4131-68e1-411d-ba4a-4016be63f7bf","system_id":"levelo_inurba_marseille","lat":43.26552,"lon":5.37285,"is_reserved":false,"is_disabled":false,"rental_uris":{"android":"levelo://app?vid=145b4131-68e1-411d-ba4a-4016be63f7bf","ios":"levelo://app?vid=145b4131-68e1-411d-ba4a-4016be63f7bf"},"vehicle_type_id":"4","last_reported":1734697004,"current_range_meters":36000,"station_id":"ce4bhg12rcd13ifvqf70","pricing_plan_id":"cebpf4jnsgd1na2vs0mg"},{"bike_id":"95c32498-e914-4842-847d-4132323b77d4","system_id":"levelo_inurba_marseille","lat":43.29795,"lon":5.38091,"is_reserved":false,"is_disabled":false,"rental_uris":{"android":"levelo://app?vid=95c32498-e914-4842-847d-4132323b77d4","ios":"levelo://app?vid=95c32498-e914-4842-847d-4132323b77d4"},"vehicle_type_id":"4","last_reported":1734697004,"current_range_meters":38800,"station_id":"ce4bgip2rcd13ifvqbb0","pricing_plan_id":"cebpf4jnsgd1na2vs0mg"},{"bike_id":"a9a8602a-1485-4cc0-a1ec-83af02453f84","system_id":"levelo_inurba_marseille","lat":43.30275,"lon":5.37703,"is_reserved":false,"is_disabled":false,"rental_uris":{"android":"levelo://app?vid=a9a8602a-1485-4cc0-a1ec-83af02453f84","ios":"levelo://app?vid=a9a8602a-1485-4cc0-a1ec-83af02453f84"},"vehicle_type_id":"4","last_reported":1734697004,"current_range_meters":38000,"station_id":"ce4bguh2rcd13ifvqcj0","pricing_plan_id":"cebpf4jnsgd1na2vs0mg"},{"bike_id":"8a070722-fa74-4540-bf04-c86d02615ae6","system_id":"levelo_inurba_marseille","lat":43.2781,"lon":5.4072,"is_reserved":false,"is_disabled":false,"rental_uris":{"android":"levelo://app?vid=8a070722-fa74-4540-bf04-c86d02615ae6","ios":"levelo://app?vid=8a070722-fa74-4540-bf04-c86d02615ae6"},"vehicle_type_id":"4","last_reported":1734697004,"current_range_meters":24800,"station_id":"ce4bhnh2rcd13ifvqgtg","pricing_plan_id":"cebpf4jnsgd1na2vs0mg"},{"bike_id":"d7a9a039-2919-4498-94bc-85df69bbf9b4","system_id":"levelo_inurba_marseille","lat":43.25085,"lon":5.39521,"is_reserved":false,"is_disabled":true,"rental_uris":{"android":"levelo://app?vid=d7a9a039-2919-4498-94bc-85df69bbf9b4","ios":"levelo://app?vid=d7a9a039-2919-4498-94bc-85df69bbf9b4"},"vehicle_type_id":"4","last_reported":1734697004,"current_range_meters":0,"station_id":"ce4bhm12rcd13ifvqgkg","pricing_plan_id":"cebpf4jnsgd1na2vs0mg"},{"bike_id":"2e0a4273-9b64-4eb1-8d1b-b8e55991eb0a","system_id":"levelo_inurba_marseille","lat":43.27262,"lon":5.40085,"is_reserved":false,"is_disabled":true,"rental_uris":{"android":"levelo://app?vid=2e0a4273-9b64-4eb1-8d1b-b8e55991eb0a","ios":"levelo://app?vid=2e0a4273-9b64-4eb1-8d1b-b8e55991eb0a"},"vehicle_type_id":"4","last_reported":1734697004,"current_range_meters":0,"station_id":"","pricing_plan_id":"cebpf4jnsgd1na2vs0mg"},{"bike_id":"d7dc678d-eb38-44c8-8258-0fa0627b8d3a","system_id":"levelo_inurba_marseille","lat":43.3053,"lon":5.36703,"is_reserved":false,"is_disabled":false,"rental_uris":{"android":"levelo://app?vid=d7dc678d-eb38-44c8-8258-0fa0627b8d3a","ios":"levelo://app?vid=d7dc678d-eb38-44c8-8258-0fa0627b8d3a"},"vehicle_type_id":"4","last_reported":1734697004,"current_range_meters":38800,"station_id":"ce4bgrp2rcd13ifvqc9g","pricing_plan_id":"cebpf4jnsgd1na2vs0mg"},{"bike_id":"f957ffa3-7b76-4b18-bb62-81627d313cf8","system_id":"levelo_inurba_marseille","lat":43.23199,"lon":5.35556,"is_reserved":false,"is_disabled":false,"rental_uris":{"android":"levelo://app?vid=f957ffa3-7b76-4b18-bb62-81627d313cf8","ios":"levelo://app?vid=f957ffa3-7b76-4b18-bb62-81627d313cf8"},"vehicle_type_id":"4","last_reported":1734697004,"current_range_meters":30000,"station_id":"ce4bhu92rcd13ifvqi70","pricing_plan_id":"cebpf4jnsgd1na2vs0mg"},{"bike_id":"5dd95ec7-a282-40a6-a0fe-4e2e61de4064","system_id":"levelo_inurba_marseille","lat":43.26331,"lon":5.40148,"is_reserved":false,"is_disabled":true,"rental_uris":{"android":"levelo://app?vid=5dd95ec7-a282-40a6-a0fe-4e2e61de4064","ios":"levelo://app?vid=5dd95ec7-a282-40a6-a0fe-4e2e61de4064"},"vehicle_type_id":"4","last_reported":1734697004,"current_range_meters":8000,"station_id":"","pricing_plan_id":"cebpf4jnsgd1na2vs0mg"},{"bike_id":"3c94d355-d0e2-4b3a-a173-d8a478747fca","system_id":"levelo_inurba_marseille","lat":43.29643,"lon":5.3714,"is_reserved":false,"is_disabled":false,"rental_uris":{"android":"levelo://app?vid=3c94d355-d0e2-4b3a-a173-d8a478747fca","ios":"levelo://app?vid=3c94d355-d0e2-4b3a-a173-d8a478747fca"},"vehicle_type_id":"4","last_reported":1734697004,"current_range_meters":36800,"station_id":"ce4bgnh2rcd13ifvqc0g","pricing_plan_id":"cebpf4jnsgd1na2vs0mg"},{"bike_id":"3c1b48d9-0ee0-4fb8-a73a-93122fd465f2","system_id":"levelo_inurba_marseille","lat":43.27945,"lon":5.41047,"is_reserved":false,"is_disabled":false,"rental_uris":{"android":"levelo://app?vid=3c1b48d9-0ee0-4fb8-a73a-93122fd465f2","ios":"levelo://app?vid=3c1b48d9-0ee0-4fb8-a73a-93122fd465f2"},"vehicle_type_id":"4","last_reported":1734697004,"current_range_meters":19600,"station_id":"ce4bhnp2rcd13ifvqh0g","pricing_plan_id":"cebpf4jnsgd1na2vs0mg"},{"bike_id":"56fd960d-6abf-4fb2-b39b-42c74ef93da3","system_id":"levelo_inurba_marseille","lat":43.2792,"lon":5.3878,"is_reserved":false,"is_disabled":false,"rental_uris":{"android":"levelo://app?vid=56fd960d-6abf-4fb2-b39b-42c74ef93da3","ios":"levelo://app?vid=56fd960d-6abf-4fb2-b39b-42c74ef93da3"},"vehicle_type_id":"4","last_reported":1734697004,"current_range_meters":29600,"station_id":"ce4bhg12rcd13ifvqf80","pricing_plan_id":"cebpf4jnsgd1na2vs0mg"},{"bike_id":"2256e953-e04c-4a1a-96b7-b03d74e4d2b6","system_id":"levelo_inurba_marseille","lat":43.24801,"lon":5.37454,"is_reserved":false,"is_disabled":false,"rental_uris":{"android":"levelo://app?vid=2256e953-e04c-4a1a-96b7-b03d74e4d2b6","ios":"levelo://app?vid=2256e953-e04c-4a1a-96b7-b03d74e4d2b6"},"vehicle_type_id":"4","last_reported":1734697004,"current_range_meters":38800,"station_id":"ce4bhgh2rcd13ifvqfb0","pricing_plan_id":"cebpf4jnsgd1na2vs0mg"},{"bike_id":"260171d1-5388-4de2-8f1f-acb7e571567f","system_id":"levelo_inurba_marseille","lat":43.29709,"lon":5.37691,"is_reserved":false,"is_disabled":false,"rental_uris":{"android":"levelo://app?vid=260171d1-5388-4de2-8f1f-acb7e571567f","ios":"levelo://app?vid=260171d1-5388-4de2-8f1f-acb7e571567f"},"vehicle_type_id":"4","last_reported":1734697004,"current_range_meters":17200,"station_id":"ce4bgkh2rcd13ifvqbl0","pricing_plan_id":"cebpf4jnsgd1na2vs0mg"},{"bike_id":"b7e79141-b45d-4aa5-91a2-be1586410293","system_id":"levelo_inurba_marseille","lat":43.2928,"lon":5.37479,"is_reserved":false,"is_disabled":false,"rental_uris":{"android":"levelo://app?vid=b7e79141-b45d-4aa5-91a2-be1586410293","ios":"levelo://app?vid=b7e79141-b45d-4aa5-91a2-be1586410293"},"vehicle_type_id":"4","last_reported":1734697004,"current_range_meters":38800,"station_id":"ce4bgi12rcd13ifvqb70","pricing_plan_id":"cebpf4jnsgd1na2vs0mg"},{"bike_id":"2fdc3292-7478-4713-ad1d-204237e84084","system_id":"levelo_inurba_marseille","lat":43.31368,"lon":5.38363,"is_reserved":false,"is_disabled":false,"rental_uris":{"android":"levelo://app?vid=2fdc3292-7478-4713-ad1d-204237e84084","ios":"levelo://app?vid=2fdc3292-7478-4713-ad1d-204237e84084"},"vehicle_type_id":"4","last_reported":1734697004,"current_range_meters":36800,"station_id":"","pricing_plan_id":"cebpf4jnsgd1na2vs0mg"},{"bike_id":"19f34006-1dba-4c03-b59a-0511830589aa","system_id":"levelo_inurba_marseille","lat":43.24813,"lon":5.37463,"is_reserved":false,"is_disabled":false,"rental_uris":{"android":"levelo://app?vid=19f34006-1dba-4c03-b59a-0511830589aa","ios":"levelo://app?vid=19f34006-1dba-4c03-b59a-0511830589aa"},"vehicle_type_id":"4","last_reported":1734697004,"current_range_meters":26000,"station_id":"ce4bhgh2rcd13ifvqfb0","pricing_plan_id":"cebpf4jnsgd1na2vs0mg"},{"bike_id":"5a81334d-3e2b-4322-919f-5369e046a084","system_id":"levelo_inurba_marseille","lat":43.30539,"lon":5.36725,"is_reserved":false,"is_disabled":true,"rental_uris":{"android":"levelo://app?vid=5a81334d-3e2b-4322-919f-5369e046a084","ios":"levelo://app?vid=5a81334d-3e2b-4322-919f-5369e046a084"},"vehicle_type_id":"4","last_reported":1734697004,"current_range_meters":10800,"station_id":"ce4bgrp2rcd13ifvqc9g","pricing_plan_id":"cebpf4jnsgd1na2vs0mg"},{"bike_id":"9d6b51ab-fd14-4c6b-aa24-de45376f78a1","system_id":"levelo_inurba_marseille","lat":43.299088,"lon":5.381432,"is_reserved":false,"is_disabled":false,"rental_uris":{"android":"levelo://app?vid=9d6b51ab-fd14-4c6b-aa24-de45376f78a1","ios":"levelo://app?vid=9d6b51ab-fd14-4c6b-aa24-de45376f78a1"},"vehicle_type_id":"4","last_reported":1734697004,"current_range_meters":38800,"station_id":"ce4bgj12rcd13ifvqbc0","pricing_plan_id":"cebpf4jnsgd1na2vs0mg"},{"bike_id":"e592292d-8432-4857-886c-3d06fc79ea90","system_id":"levelo_inurba_marseille","lat":43.2619,"lon":5.37444,"is_reserved":false,"is_disabled":false,"rental_uris":{"android":"levelo://app?vid=e592292d-8432-4857-886c-3d06fc79ea90","ios":"levelo://app?vid=e592292d-8432-4857-886c-3d06fc79ea90"},"vehicle_type_id":"4","last_reported":1734697004,"current_range_meters":34800,"station_id":"ce4bhgp2rcd13ifvqfc0","pricing_plan_id":"cebpf4jnsgd1na2vs0mg"},{"bike_id":"73089af4-8bef-4c4e-9573-8a8f768947b4","system_id":"levelo_inurba_marseille","lat":43.31081,"lon":5.42433,"is_reserved":false,"is_disabled":false,"rental_uris":{"android":"levelo://app?vid=73089af4-8bef-4c4e-9573-8a8f768947b4","ios":"levelo://app?vid=73089af4-8bef-4c4e-9573-8a8f768947b4"},"vehicle_type_id":"4","last_reported":1734697004,"current_range_meters":38800,"station_id":"ce4bhp92rcd13ifvqhag","pricing_plan_id":"cebpf4jnsgd1na2vs0mg"},{"bike_id":"01135f23-8f24-40dc-bcec-b4a361df26eb","system_id":"levelo_inurba_marseille","lat":43.30131,"lon":5.38793,"is_reserved":false,"is_disabled":true,"rental_uris":{"android":"levelo://app?vid=01135f23-8f24-40dc-bcec-b4a361df26eb","ios":"levelo://app?vid=01135f23-8f24-40dc-bcec-b4a361df26eb"},"vehicle_type_id":"4","last_reported":1734697004,"current_range_meters":0,"station_id":"ce4bghh2rcd13ifvqb60","pricing_plan_id":"cebpf4jnsgd1na2vs0mg"},{"bike_id":"f2f6aaf7-105d-4d04-83f7-012739cdfa7e","system_id":"levelo_inurba_marseille","lat":43.30673,"lon":5.36943,"is_reserved":false,"is_disabled":false,"rental_uris":{"android":"levelo://app?vid=f2f6aaf7-105d-4d04-83f7-012739cdfa7e","ios":"levelo://app?vid=f2f6aaf7-105d-4d04-83f7-012739cdfa7e"},"vehicle_type_id":"4","last_reported":1734697004,"current_range_meters":16400,"station_id":"","pricing_plan_id":"cebpf4jnsgd1na2vs0mg"},{"bike_id":"6dea30ac-69d8-43cd-97cb-8834adc3b7ef","system_id":"levelo_inurba_marseille","lat":43.29596,"lon":5.38108,"is_reserved":false,"is_disabled":false,"rental_uris":{"android":"levelo://app?vid=6dea30ac-69d8-43cd-97cb-8834adc3b7ef","ios":"levelo://app?vid=6dea30ac-69d8-43cd-97cb-8834adc3b7ef"},"vehicle_type_id":"4","last_reported":1734697004,"current_range_meters":33200,"station_id":"ce4bgl12rcd13ifvqbo0","pricing_plan_id":"cebpf4jnsgd1na2vs0mg"},{"bike_id":"6a9cc4c6-7a10-48a7-a7d3-2b99709eb0a4","system_id":"levelo_inurba_marseille","lat":43.2963,"lon":5.40594,"is_reserved":false,"is_disabled":false,"rental_uris":{"android":"levelo://app?vid=6a9cc4c6-7a10-48a7-a7d3-2b99709eb0a4","ios":"levelo://app?vid=6a9cc4c6-7a10-48a7-a7d3-2b99709eb0a4"},"vehicle_type_id":"4","last_reported":1734697004,"current_range_meters":34000,"station_id":"ce4bh0h2rcd13ifvqd60","pricing_plan_id":"cebpf4jnsgd1na2vs0mg"},{"bike_id":"cc414c34-265e-4dca-beaa-6c84c5588df6","system_id":"levelo_inurba_marseille","lat":43.2869,"lon":5.38659,"is_reserved":false,"is_disabled":true,"rental_uris":{"android":"levelo://app?vid=cc414c34-265e-4dca-beaa-6c84c5588df6","ios":"levelo://app?vid=cc414c34-265e-4dca-beaa-6c84c5588df6"},"vehicle_type_id":"4","last_reported":1734697004,"current_range_meters":38800,"station_id":"ce4bh492rcd13ifvqdug","pricing_plan_id":"cebpf4jnsgd1na2vs0mg"},{"bike_id":"cc91e18c-31a1-4d61-8bec-2d478014f9b7","system_id":"levelo_inurba_marseille","lat":43.27379,"lon":5.36258,"is_reserved":false,"is_disabled":false,"rental_uris":{"android":"levelo://app?vid=cc91e18c-31a1-4d61-8bec-2d478014f9b7","ios":"levelo://app?vid=cc91e18c-31a1-4d61-8bec-2d478014f9b7"},"vehicle_type_id":"4","last_reported":1734697004,"current_range_meters":28800,"station_id":"ce4bhbh2rcd13ifvqeo0","pricing_plan_id":"cebpf4jnsgd1na2vs0mg"},{"bike_id":"395883ea-9dbb-4542-8bcb-a601afb051be","system_id":"levelo_inurba_marseille","lat":43.27681,"lon":5.38875,"is_reserved":false,"is_disabled":false,"rental_uris":{"android":"levelo://app?vid=395883ea-9dbb-4542-8bcb-a601afb051be","ios":"levelo://app?vid=395883ea-9dbb-4542-8bcb-a601afb051be"},"vehicle_type_id":"4","last_reported":1734697004,"current_range_meters":37600,"station_id":"ce4bhi12rcd13ifvqfo0","pricing_plan_id":"cebpf4jnsgd1na2vs0mg"},{"bike_id":"fdfb3580-1002-4881-8a39-36cd06d2a7b8","system_id":"levelo_inurba_marseille","lat":43.282743,"lon":5.350707,"is_reserved":false,"is_disabled":false,"rental_uris":{"android":"levelo://app?vid=fdfb3580-1002-4881-8a39-36cd06d2a7b8","ios":"levelo://app?vid=fdfb3580-1002-4881-8a39-36cd06d2a7b8"},"vehicle_type_id":"4","last_reported":1734697004,"current_range_meters":34800,"station_id":"ce4bhbp2rcd13ifvqerg","pricing_plan_id":"cebpf4jnsgd1na2vs0mg"},{"bike_id":"494c8398-822e-42ee-a7f1-dfd664d1fba7","system_id":"levelo_inurba_marseille","lat":43.23193,"lon":5.35553,"is_reserved":false,"is_disabled":false,"rental_uris":{"android":"levelo://app?vid=494c8398-822e-42ee-a7f1-dfd664d1fba7","ios":"levelo://app?vid=494c8398-822e-42ee-a7f1-dfd664d1fba7"},"vehicle_type_id":"4","last_reported":1734697004,"current_range_meters":35600,"station_id":"ce4bhu92rcd13ifvqi70","pricing_plan_id":"cebpf4jnsgd1na2vs0mg"},{"bike_id":"6ba83114-d278-4508-9a93-f6c6309d425c","system_id":"levelo_inurba_marseille","lat":43.29293,"lon":5.37457,"is_reserved":false,"is_disabled":false,"rental_uris":{"android":"levelo://app?vid=6ba83114-d278-4508-9a93-f6c6309d425c","ios":"levelo://app?vid=6ba83114-d278-4508-9a93-f6c6309d425c"},"vehicle_type_id":"4","last_reported":1734697004,"current_range_meters":38000,"station_id":"ce4bgi12rcd13ifvqb70","pricing_plan_id":"cebpf4jnsgd1na2vs0mg"},{"bike_id":"c782be4b-818b-4cb4-830c-89e6e8de2966","system_id":"levelo_inurba_marseille","lat":43.27811,"lon":5.40714,"is_reserved":false,"is_disabled":false,"rental_uris":{"android":"levelo://app?vid=c782be4b-818b-4cb4-830c-89e6e8de2966","ios":"levelo://app?vid=c782be4b-818b-4cb4-830c-89e6e8de2966"},"vehicle_type_id":"4","last_reported":1734697004,"current_range_meters":33600,"station_id":"ce4bhnh2rcd13ifvqgtg","pricing_plan_id":"cebpf4jnsgd1na2vs0mg"},{"bike_id":"55fa967f-e3e3-42c4-9dd1-2bcbb5fc2d4d","system_id":"levelo_inurba_marseille","lat":43.27214,"lon":5.39113,"is_reserved":false,"is_disabled":false,"rental_uris":{"android":"levelo://app?vid=55fa967f-e3e3-42c4-9dd1-2bcbb5fc2d4d","ios":"levelo://app?vid=55fa967f-e3e3-42c4-9dd1-2bcbb5fc2d4d"},"vehicle_type_id":"4","last_reported":1734697004,"current_range_meters":24000,"station_id":"","pricing_plan_id":"cebpf4jnsgd1na2vs0mg"},{"bike_id":"9e0a9920-d1ae-4ccd-a58f-c78416388400","system_id":"levelo_inurba_marseille","lat":43.27309,"lon":5.39109,"is_reserved":false,"is_disabled":false,"rental_uris":{"android":"levelo://app?vid=9e0a9920-d1ae-4ccd-a58f-c78416388400","ios":"levelo://app?vid=9e0a9920-d1ae-4ccd-a58f-c78416388400"},"vehicle_type_id":"4","last_reported":1734697004,"current_range_meters":38800,"station_id":"ce4bhgp2rcd13ifvqfe0","pricing_plan_id":"cebpf4jnsgd1na2vs0mg"},{"bike_id":"93a82e60-314a-4cb0-a5cf-a19515d4fc75","system_id":"levelo_inurba_marseille","lat":43.29557,"lon":5.37504,"is_reserved":false,"is_disabled":false,"rental_uris":{"android":"levelo://app?vid=93a82e60-314a-4cb0-a5cf-a19515d4fc75","ios":"levelo://app?vid=93a82e60-314a-4cb0-a5cf-a19515d4fc75"},"vehicle_type_id":"4","last_reported":1734697004,"current_range_meters":25600,"station_id":"ce4bgh92rcd13ifvqb50","pricing_plan_id":"cebpf4jnsgd1na2vs0mg"},{"bike_id":"260c2867-0a9f-4984-ba41-21ef8d3ecaf4","system_id":"levelo_inurba_marseille","lat":43.29359,"lon":5.3785,"is_reserved":false,"is_disabled":false,"rental_uris":{"android":"levelo://app?vid=260c2867-0a9f-4984-ba41-21ef8d3ecaf4","ios":"levelo://app?vid=260c2867-0a9f-4984-ba41-21ef8d3ecaf4"},"vehicle_type_id":"4","last_reported":1734697004,"current_range_meters":38800,"station_id":"ce4bgjh2rcd13ifvqbf0","pricing_plan_id":"cebpf4jnsgd1na2vs0mg"},{"bike_id":"7235cb80-987b-4c84-a49f-87190eb10f76","system_id":"levelo_inurba_marseille","lat":43.28467,"lon":5.38405,"is_reserved":false,"is_disabled":false,"rental_uris":{"android":"levelo://app?vid=7235cb80-987b-4c84-a49f-87190eb10f76","ios":"levelo://app?vid=7235cb80-987b-4c84-a49f-87190eb10f76"},"vehicle_type_id":"4","last_reported":1734697004,"current_range_meters":32400,"station_id":"ce4bh512rcd13ifvqe3g","pricing_plan_id":"cebpf4jnsgd1na2vs0mg"},{"bike_id":"a2eba22b-b0ee-4005-9bf3-576bb458d391","system_id":"levelo_inurba_marseille","lat":43.279651,"lon":5.387544,"is_reserved":false,"is_disabled":true,"rental_uris":{"android":"levelo://app?vid=a2eba22b-b0ee-4005-9bf3-576bb458d391","ios":"levelo://app?vid=a2eba22b-b0ee-4005-9bf3-576bb458d391"},"vehicle_type_id":"4","last_reported":1734697004,"current_range_meters":0,"station_id":"","pricing_plan_id":"cebpf4jnsgd1na2vs0mg"},{"bike_id":"a831f63f-54e4-483b-b7e3-c00e270282f2","system_id":"levelo_inurba_marseille","lat":43.29153,"lon":5.37151,"is_reserved":false,"is_disabled":false,"rental_uris":{"android":"levelo://app?vid=a831f63f-54e4-483b-b7e3-c00e270282f2","ios":"levelo://app?vid=a831f63f-54e4-483b-b7e3-c00e270282f2"},"vehicle_type_id":"4","last_reported":1734697004,"current_range_meters":32800,"station_id":"ce4bha92rcd13ifvqeh0","pricing_plan_id":"cebpf4jnsgd1na2vs0mg"},{"bike_id":"fcf6f42c-9492-49dd-a9e6-322a50636e12","system_id":"levelo_inurba_marseille","lat":43.31692,"lon":5.37826,"is_reserved":false,"is_disabled":false,"rental_uris":{"android":"levelo://app?vid=fcf6f42c-9492-49dd-a9e6-322a50636e12","ios":"levelo://app?vid=fcf6f42c-9492-49dd-a9e6-322a50636e12"},"vehicle_type_id":"4","last_reported":1734697004,"current_range_meters":11200,"station_id":"","pricing_plan_id":"cebpf4jnsgd1na2vs0mg"},{"bike_id":"cdb0ffa1-9f73-4375-8092-52b0b875c1e2","system_id":"levelo_inurba_marseille","lat":43.299,"lon":5.38144,"is_reserved":false,"is_disabled":false,"rental_uris":{"android":"levelo://app?vid=cdb0ffa1-9f73-4375-8092-52b0b875c1e2","ios":"levelo://app?vid=cdb0ffa1-9f73-4375-8092-52b0b875c1e2"},"vehicle_type_id":"4","last_reported":1734697004,"current_range_meters":36400,"station_id":"ce4bgj12rcd13ifvqbc0","pricing_plan_id":"cebpf4jnsgd1na2vs0mg"},{"bike_id":"6e868a60-9f88-474e-adb5-72cc44996f9b","system_id":"levelo_inurba_marseille","lat":43.29526,"lon":5.37512,"is_reserved":false,"is_disabled":false,"rental_uris":{"android":"levelo://app?vid=6e868a60-9f88-474e-adb5-72cc44996f9b","ios":"levelo://app?vid=6e868a60-9f88-474e-adb5-72cc44996f9b"},"vehicle_type_id":"4","last_reported":1734697004,"current_range_meters":36400,"station_id":"ce4bgkp2rcd13ifvqbmg","pricing_plan_id":"cebpf4jnsgd1na2vs0mg"},{"bike_id":"7d8ebeb0-09c5-49e0-a13e-f63ab3a3f1e2","system_id":"levelo_inurba_marseille","lat":43.305397,"lon":5.365623,"is_reserved":false,"is_disabled":false,"rental_uris":{"android":"levelo://app?vid=7d8ebeb0-09c5-49e0-a13e-f63ab3a3f1e2","ios":"levelo://app?vid=7d8ebeb0-09c5-49e0-a13e-f63ab3a3f1e2"},"vehicle_type_id":"4","last_reported":1734697004,"current_range_meters":38000,"station_id":"ce4bgs12rcd13ifvqcag","pricing_plan_id":"cebpf4jnsgd1na2vs0mg"},{"bike_id":"33053ff6-38ab-43c8-9125-f013294c4031","system_id":"levelo_inurba_marseille","lat":43.31317,"lon":5.39716,"is_reserved":false,"is_disabled":false,"rental_uris":{"android":"levelo://app?vid=33053ff6-38ab-43c8-9125-f013294c4031","ios":"levelo://app?vid=33053ff6-38ab-43c8-9125-f013294c4031"},"vehicle_type_id":"4","last_reported":1734697004,"current_range_meters":26000,"station_id":"ce4bgvp2rcd13ifvqcu0","pricing_plan_id":"cebpf4jnsgd1na2vs0mg"},{"bike_id":"f384362e-dca0-4d89-b509-4071c545130d","system_id":"levelo_inurba_marseille","lat":43.26555,"lon":5.3729,"is_reserved":false,"is_disabled":true,"rental_uris":{"android":"levelo://app?vid=f384362e-dca0-4d89-b509-4071c545130d","ios":"levelo://app?vid=f384362e-dca0-4d89-b509-4071c545130d"},"vehicle_type_id":"4","last_reported":1734697004,"current_range_meters":38400,"station_id":"ce4bhg12rcd13ifvqf70","pricing_plan_id":"cebpf4jnsgd1na2vs0mg"},{"bike_id":"4db7ca93-60c5-496d-9ed7-2f531983fb6b","system_id":"levelo_inurba_marseille","lat":43.29798,"lon":5.40401,"is_reserved":false,"is_disabled":false,"rental_uris":{"android":"levelo://app?vid=4db7ca93-60c5-496d-9ed7-2f531983fb6b","ios":"levelo://app?vid=4db7ca93-60c5-496d-9ed7-2f531983fb6b"},