{"last_updated":1747160096,"ttl":60,"version":"2.2","data":{"bikes":[{"bike_id":"c0b9fd4f-e181-46ce-b0bf-f5119973334f","system_id":"levelo_inurba_marseille","lat":43.33771,"lon":5.37424,"is_reserved":false,"is_disabled":false,"rental_uris":{"android":"levelo://app?vid=c0b9fd4f-e181-46ce-b0bf-f5119973334f","ios":"levelo://app?vid=c0b9fd4f-e181-46ce-b0bf-f5119973334f"},"vehicle_type_id":"4","last_reported":1747160096,"current_range_meters":22400,"station_id":"","pricing_plan_id":"cebpf4jnsgd1na2vs0mg"},{"bike_id":"32ab2f6f-d857-4fc8-88fb-7ebfc19c0608","system_id":"levelo_inurba_marseille","lat":43.26861,"lon":5.40916,"is_reserved":false,"is_disabled":true,"rental_uris":{"android":"levelo://app?vid=32ab2f6f-d857-4fc8-88fb-7ebfc19c0608","ios":"levelo://app?vid=32ab2f6f-d857-4fc8-88fb-7ebfc19c0608"},"vehicle_type_id":"4","last_reported":1747160096,"current_range_meters":0,"station_id":"","pricing_plan_id":"cebpf4jnsgd1na2vs0mg"},{"bike_id":"0fedde00-40eb-40d2-8fc2-e61ecce46b7b","system_id":"levelo_inurba_marseille","lat":43.2823,"lon":5.43313,"is_reserved":false,"is_disabled":true,"rental_uris":{"android":"levelo://app?vid=0fedde00-40eb-40d2-8fc2-e61ecce46b7b","ios":"levelo://app?vid=0fedde00-40eb-40d2-8fc2-e61ecce46b7b"},"vehicle_type_id":"4","last_reported":1747160096,"current_range_meters":0,"station_id":"","pricing_plan_id":"cebpf4jnsgd1na2vs0mg"},{"bike_id":"d19ebaab-ef98-4efa-b952-7192b9b2f014","system_id":"levelo_inurba_marseille","lat":43.261446,"lon":5.391993,"is_reserved":false,"is_disabled":true,"rental_uris":{"android":"levelo://app?vid=d19ebaab-ef98-4efa-b952-7192b9b2f014","ios":"levelo://app?vid=d19ebaab-ef98-4efa-b952-7192b9b2f014"},"vehicle_type_id":"4","last_reported":1747160096,"current_range_meters":0,"station_id":"","pricing_plan_id":"cebpf4jnsgd1na2vs0mg"},{"bike_id":"792567c6-0442-4011-aff0-9c05e25deb48","system_id":"levelo_inurba_marseille","lat":43.28035,"lon":5.44228,"is_reserved":false,"is_disabled":true,"rental_uris":{"android":"levelo://app?vid=792567c6-0442-4011-aff0-9c05e25deb48","ios":"levelo://app?vid=792567c6-0442-4011-aff0-9c05e25deb48"},"vehicle_type_id":"4","last_reported":1747160096,"current_range_meters":0,"station_id":"","pricing_plan_id":"cebpf4jnsgd1na2vs0mg"},{"bike_id":"beb3c1d3-9efa-4c13-9eee-f5ee63560545","system_id":"levelo_inurba_marseille","lat":43.313547,"lon":5.385003,"is_reserved":false,"is_disabled":true,"rental_uris":{"android":"levelo://app?vid=beb3c1d3-9efa-4c13-9eee-f5ee63560545","ios":"levelo://app?vid=beb3c1d3-9efa-4c13-9eee-f5ee63560545"},"vehicle_type_id":"4","last_reported":1747160096,"current_range_meters":0,"station_id":"ce4bgt92rcd13ifvqcf0","pricing_plan_id":"cebpf4jnsgd1na2vs0mg"},{"bike_id":"9a415256-c599-4fc6-9910-d77a19b13695","system_id":"levelo_inurba_marseille","lat":43.3107,"lon":5.38363,"is_reserved":false,"is_disabled":true,"rental_uris":{"android":"levelo://app?vid=9a415256-c599-4fc6-9910-d77a19b13695","ios":"levelo://app?vid=9a415256-c599-4fc6-9910-d77a19b13695"},"vehicle_type_id":"4","last_reported":1747160096,"current_range_meters":0,"station_id":"ce4bgv92rcd13ifvqcr0","pricing_plan_id":"cebpf4jnsgd1na2vs0mg"},{"bike_id":"fc974506-dcd0-427f-919e-e5c26826eea4","system_id":"levelo_inurba_marseille","lat":43.28845,"lon":5.39306,"is_reserved":false,"is_disabled":true,"rental_uris":{"android":"levelo://app?vid=fc974506-dcd0-427f-919e-e5c26826eea4","ios":"levelo://app?vid=fc974506-dcd0-427f-919e-e5c26826eea4"},"vehicle_type_id":"4","last_reported":1747160096,"current_range_meters":0,"station_id":"ce4bh2p2rcd13ifvqdi0","pricing_plan_id":"cebpf4jnsgd1na2vs0mg"},{"bike_id":"968ac5cf-bf7c-40c2-8f56-bee9807bde71","system_id":"levelo_inurba_marseille","lat":43.28406,"lon":5.37514,"is_reserved":false,"is_disabled":true,"rental_uris":{"android":"levelo://app?vid=968ac5cf-bf7c-40c2-8f56-bee9807bde71","ios":"levelo://app?vid=968ac5cf-bf7c-40c2-8f56-bee9807bde71"},"vehicle_type_id":"4","last_reported":1747160096,"current_range_meters":0,"station_id":"ce4bh412rcd13ifvqds0","pricing_plan_id":"cebpf4jnsgd1na2vs0mg"},{"bike_id":"02b7eaa8-74b3-4aa7-8acc-570b6194a748","system_id":"levelo_inurba_marseille","lat":43.290215,"lon":5.38648,"is_reserved":false,"is_disabled":true,"rental_uris":{"android":"levelo://app?vid=02b7eaa8-74b3-4aa7-8acc-570b6194a748","ios":"levelo://app?vid=02b7eaa8-74b3-4aa7-8acc-570b6194a748"},"vehicle_type_id":"4","last_reported":1747160096,"current_range_meters":0,"station_id":"ce4bh4p2rcd13ifvqe0g","pricing_plan_id":"cebpf4jnsgd1na2vs0mg"},{"bike_id":"a5f62dbf-e8de-4d37-8b0c-5d4c9c5fa719","system_id":"levelo_inurba_marseille","lat":43.28469,"lon":5.38425,"is_reserved":false,"is_disabled":true,"rental_uris":{"android":"levelo://app?vid=a5f62dbf-e8de-4d37-8b0c-5d4c9c5fa719","ios":"levelo://app?vid=a5f62dbf-e8de-4d37-8b0c-5d4c9c5fa719"},"vehicle_type_id":"4","last_reported":1747160096,"current_range_meters":0,"station_id":"ce4bh512rcd13ifvqe3g","pricing_plan_id":"cebpf4jnsgd1na2vs0mg"},{"bike_id":"2222c996-4ac6-46cc-80ef-7d6745bf1e21","system_id":"levelo_inurba_marseille","lat":43.28115,"lon":5.37836,"is_reserved":false,"is_disabled":true,"rental_uris":{"android":"levelo://app?vid=2222c996-4ac6-46cc-80ef-7d6745bf1e21","ios":"levelo://app?vid=2222c996-4ac6-46cc-80ef-7d6745bf1e21"},"vehicle_type_id":"4","last_reported":1747160096,"current_range_meters":0,"station_id":"ce4bha12rcd13ifvqee0","pricing_plan_id":"cebpf4jnsgd1na2vs0mg"},{"bike_id":"e8073c15-44e6-4a70-9396-ac68f227b837","system_id":"levelo_inurba_marseille","lat":43.28614,"lon":5.35102,"is_reserved":false,"is_disabled":true,"rental_uris":{"android":"levelo://app?vid=e8073c15-44e6-4a70-9396-ac68f227b837","ios":"levelo://app?vid=e8073c15-44e6-4a70-9396-ac68f227b837"},"vehicle_type_id":"4","last_reported":1747160096,"current_range_meters":0,"station_id":"ce4bhch2rcd13ifvqeug","pricing_plan_id":"cebpf4jnsgd1na2vs0mg"},{"bike_id":"a32d299a-45a2-4f19-8722-a3dc4942c42f","system_id":"levelo_inurba_marseille","lat":43.27914,"lon":5.395825,"is_reserved":false,"is_disabled":false,"rental_uris":{"android":"levelo://app?vid=a32d299a-45a2-4f19-8722-a3dc4942c42f","ios":"levelo://app?vid=a32d299a-45a2-4f19-8722-a3dc4942c42f"},"vehicle_type_id":"4","last_reported":1747160096,"current_range_meters":0,"station_id":"ce4bhf92rcd13ifvqf40","pricing_plan_id":"cebpf4jnsgd1na2vs0mg"},{"bike_id":"50bec9d9-ec13-4b8b-826c-936044c89865","system_id":"levelo_inurba_marseille","lat":43.26208,"lon":5.37441,"is_reserved":false,"is_disabled":true,"rental_uris":{"android":"levelo://app?vid=50bec9d9-ec13-4b8b-826c-936044c89865","ios":"levelo://app?vid=50bec9d9-ec13-4b8b-826c-936044c89865"},"vehicle_type_id":"4","last_reported":1747160096,"current_range_meters":0,"station_id":"ce4bhgp2rcd13ifvqfc0","pricing_plan_id":"cebpf4jnsgd1na2vs0mg"},{"bike_id":"f154b5db-c9a2-4607-a2c9-368c8cc1d9d1","system_id":"levelo_inurba_marseille","lat":43.25507,"lon":5.37644,"is_reserved":false,"is_disabled":true,"rental_uris":{"android":"levelo://app?vid=f154b5db-c9a2-4607-a2c9-368c8cc1d9d1","ios":"levelo://app?vid=f154b5db-c9a2-4607-a2c9-368c8cc1d9d1"},"vehicle_type_id":"4","last_reported":1747160096,"current_range_meters":0,"station_id":"ce4bhh12rcd13ifvqff0","pricing_plan_id":"cebpf4jnsgd1na2vs0mg"},{"bike_id":"4f5ebab2-dfb1-46a3-8131-f1cece54603e","system_id":"levelo_inurba_marseille","lat":43.26226,"lon":5.40452,"is_reserved":false,"is_disabled":true,"rental_uris":{"android":"levelo://app?vid=4f5ebab2-dfb1-46a3-8131-f1cece54603e","ios":"levelo://app?vid=4f5ebab2-dfb1-46a3-8131-f1cece54603e"},"vehicle_type_id":"4","last_reported":1747160096,"current_range_meters":0,"station_id":"ce4bhmh2rcd13ifvqgmg","pricing_plan_id":"cebpf4jnsgd1na2vs0mg"},{"bike_id":"b0df7db8-3421-497a-b7ae-6831a9f35d5d","system_id":"levelo_inurba_marseille","lat":43.26223,"lon":5.40448,"is_reserved":false,"is_disabled":true,"rental_uris":{"android":"levelo://app?vid=b0df7db8-3421-497a-b7ae-6831a9f35d5d","ios":"levelo://app?vid=b0df7db8-3421-497a-b7ae-6831a9f35d5d"},"vehicle_type_id":"4","last_reported":1747160096,"current_range_meters":0,"station_id":"ce4bhmh2rcd13ifvqgmg","pricing_plan_id":"cebpf4jnsgd1na2vs0mg"},{"bike_id":"7d648bb7-ab7e-409a-add7-d4a17f03de12","system_id":"levelo_inurba_marseille","lat":43.2315,"lon":5.43685,"is_reserved":false,"is_disabled":true,"rental_uris":{"android":"levelo://app?vid=7d648bb7-ab7e-409a-add7-d4a17f03de12","ios":"levelo://app?vid=7d648bb7-ab7e-409a-add7-d4a17f03de12"},"vehicle_type_id":"4","last_reported":1747160096,"current_range_meters":0,"station_id":"ce4bhmp2rcd13ifvqgog","pricing_plan_id":"cebpf4jnsgd1na2vs0mg"},{"bike_id":"8aecad1a-6a65-4d9a-bc60-67a3daa52852","system_id":"levelo_inurba_marseille","lat":43.21742,"lon":5.34604,"is_reserved":false,"is_disabled":true,"rental_uris":{"android":"levelo://app?vid=8aecad1a-6a65-4d9a-bc60-67a3daa52852","ios":"levelo://app?vid=8aecad1a-6a65-4d9a-bc60-67a3daa52852"},"vehicle_type_id":"4","last_reported":1747160096,"current_range_meters":0,"station_id":"st_cvj6r9ubvosntc0bgbag","pricing_plan_id":"cebpf4jnsgd1na2vs0mg"},{"bike_id":"986c18d8-74d7-4caf-9a65-ed5970f61353","system_id":"levelo_inurba_marseille","lat":43.2116,"lon":5.35103,"is_reserved":false,"is_disabled":true,"rental_uris":{"android":"levelo://app?vid=986c18d8-74d7-4caf-9a65-ed5970f61353","ios":"levelo://app?vid=986c18d8-74d7-4caf-9a65-ed5970f61353"},"vehicle_type_id":"4","last_reported":1747160096,"current_range_meters":0,"station_id":"st_cvj6sg6p6f1abm77japg","pricing_plan_id":"cebpf4jnsgd1na2vs0mg"},{"bike_id":"fc2577e7-1497-425b-9d4f-ab8d7dc843c6","system_id":"levelo_inurba_marseille","lat":43.33771,"lon":5.37485,"is_reserved":false,"is_disabled":true,"rental_uris":{"android":"levelo://app?vid=fc2577e7-1497-425b-9d4f-ab8d7dc843c6","ios":"levelo://app?vid=fc2577e7-1497-425b-9d4f-ab8d7dc843c6"},"vehicle_type_id":"4","last_reported":1747160096,"current_range_meters":400,"station_id":"","pricing_plan_id":"cebpf4jnsgd1na2vs0mg"},{"bike_id":"0634d89d-ed67-4919-a58b-64ca08800316","system_id":"levelo_inurba_marseille","lat":43.30439,"lon":5.38858,"is_reserved":false,"is_disabled":true,"rental_uris":{"android":"levelo://app?vid=0634d89d-ed67-4919-a58b-64ca08800316","ios":"levelo://app?vid=0634d89d-ed67-4919-a58b-64ca08800316"},"vehicle_type_id":"4","last_reported":1747160096,"current_range_meters":400,"station_id":"ce4bgk12rcd13ifvqbi0","pricing_plan_id":"cebpf4jnsgd1na2vs0mg"},{"bike_id":"c60ff235-faff-4085-bda0-c8f42a1124df","system_id":"levelo_inurba_marseille","lat":43.292673,"lon":5.384382,"is_reserved":false,"is_disabled":true,"rental_uris":{"android":"levelo://app?vid=c60ff235-faff-4085-bda0-c8f42a1124df","ios":"levelo://app?vid=c60ff235-faff-4085-bda0-c8f42a1124df"},"vehicle_type_id":"4","last_reported":1747160096,"current_range_meters":400,"station_id":"ce4bh692rcd13ifvqea0","pricing_plan_id":"cebpf4jnsgd1na2vs0mg"},{"bike_id":"3e384a09-8c2b-4e21-a256-2de216cd0eb5","system_id":"levelo_inurba_marseille","lat":43.290115,"lon":5.356035,"is_reserved":false,"is_disabled":true,"rental_uris":{"android":"levelo://app?vid=3e384a09-8c2b-4e21-a256-2de216cd0eb5","ios":"levelo://app?vid=3e384a09-8c2b-4e21-a256-2de216cd0eb5"},"vehicle_type_id":"4","last_reported":1747160096,"current_range_meters":400,"station_id":"ce4bhb92rcd13ifvqen0","pricing_plan_id":"cebpf4jnsgd1na2vs0mg"},{"bike_id":"518be039-efd2-47c8-8b30-051fb6e63694","system_id":"levelo_inurba_marseille","lat":43.28011,"lon":5.40007,"is_reserved":false,"is_disabled":true,"rental_uris":{"android":"levelo://app?vid=518be039-efd2-47c8-8b30-051fb6e63694","ios":"levelo://app?vid=518be039-efd2-47c8-8b30-051fb6e63694"},"vehicle_type_id":"4","last_reported":1747160096,"current_range_meters":400,"station_id":"ce4bho92rcd13ifvqh4g","pricing_plan_id":"cebpf4jnsgd1na2vs0mg"},{"bike_id":"98269766-157c-48ff-b99e-52b73d8f3ffe","system_id":"levelo_inurba_marseille","lat":43.30143,"lon":5.38072,"is_reserved":false,"is_disabled":true,"rental_uris":{"android":"levelo://app?vid=98269766-157c-48ff-b99e-52b73d8f3ffe","ios":"levelo://app?vid=98269766-157c-48ff-b99e-52b73d8f3ffe"},"vehicle_type_id":"4","last_reported":1747160096,"current_range_meters":800,"station_id":"ce4bgjp2rcd13ifvqbh0","pricing_plan_id":"cebpf4jnsgd1na2vs0mg"},{"bike_id":"4712eca2-9e18-410f-affd-c34e1b1aa04d","system_id":"levelo_inurba_marseille","lat":43.23963,"lon":5.36627,"is_reserved":false,"is_disabled":true,"rental_uris":{"android":"levelo://app?vid=4712eca2-9e18-410f-affd-c34e1b1aa04d","ios":"levelo://app?vid=4712eca2-9e18-410f-affd-c34e1b1aa04d"},"vehicle_type_id":"4","last_reported":1747160096,"current_range_meters":800,"station_id":"ce4bhi12rcd13ifvqfp0","pricing_plan_id":"cebpf4jnsgd1na2vs0mg"},{"bike_id":"46e3e287-a223-4b37-95a1-85c169932846","system_id":"levelo_inurba_marseille","lat":43.27811,"lon":5.40709,"is_reserved":false,"is_disabled":true,"rental_uris":{"android":"levelo://app?vid=46e3e287-a223-4b37-95a1-85c169932846","ios":"levelo://app?vid=46e3e287-a223-4b37-95a1-85c169932846"},"vehicle_type_id":"4","last_reported":1747160096,"current_range_meters":800,"station_id":"ce4bhnh2rcd13ifvqgtg","pricing_plan_id":"cebpf4jnsgd1na2vs0mg"},{"bike_id":"82708510-bc4c-47a7-a1d0-bd89ef8b6e0f","system_id":"levelo_inurba_marseille","lat":43.2955,"lon":5.42271,"is_reserved":false,"is_disabled":true,"rental_uris":{"android":"levelo://app?vid=82708510-bc4c-47a7-a1d0-bd89ef8b6e0f","ios":"levelo://app?vid=82708510-bc4c-47a7-a1d0-bd89ef8b6e0f"},"vehicle_type_id":"4","last_reported":1747160096,"current_range_meters":800,"station_id":"ce4bhph2rcd13ifvqhdg","pricing_plan_id":"cebpf4jnsgd1na2vs0mg"},{"bike_id":"49c47ed7-52af-4f8e-abc1-3485cf2c06af","system_id":"levelo_inurba_marseille","lat":43.22494,"lon":5.34784,"is_reserved":false,"is_disabled":true,"rental_uris":{"android":"levelo://app?vid=49c47ed7-52af-4f8e-abc1-3485cf2c06af","ios":"levelo://app?vid=49c47ed7-52af-4f8e-abc1-3485cf2c06af"},"vehicle_type_id":"4","last_reported":1747160096,"current_range_meters":800,"station_id":"st_cvj5dfep6f1abm77gieg","pricing_plan_id":"cebpf4jnsgd1na2vs0mg"},{"bike_id":"5a94688a-67fb-41c9-95f7-c5bc5a1b069f","system_id":"levelo_inurba_marseille","lat":43.29871,"lon":5.39731,"is_reserved":false,"is_disabled":true,"rental_uris":{"android":"levelo://app?vid=5a94688a-67fb-41c9-95f7-c5bc5a1b069f","ios":"levelo://app?vid=5a94688a-67fb-41c9-95f7-c5bc5a1b069f"},"vehicle_type_id":"4","last_reported":1747160096,"current_range_meters":1200,"station_id":"ce4bh0h2rcd13ifvqd50","pricing_plan_id":"cebpf4jnsgd1na2vs0mg"},{"bike_id":"b4fb1da7-2a07-4efc-80d8-65fed4b0bac9","system_id":"levelo_inurba_marseille","lat":43.2695,"lon":5.38643,"is_reserved":false,"is_disabled":true,"rental_uris":{"android":"levelo://app?vid=b4fb1da7-2a07-4efc-80d8-65fed4b0bac9","ios":"levelo://app?vid=b4fb1da7-2a07-4efc-80d8-65fed4b0bac9"},"vehicle_type_id":"4","last_reported":1747160096,"current_range_meters":1200,"station_id":"ce4bhh92rcd13ifvqfh0","pricing_plan_id":"cebpf4jnsgd1na2vs0mg"},{"bike_id":"f624eee6-d01e-4acc-a776-bc0fd5fb293e","system_id":"levelo_inurba_marseille","lat":43.27051,"lon":5.4026,"is_reserved":false,"is_disabled":true,"rental_uris":{"android":"levelo://app?vid=f624eee6-d01e-4acc-a776-bc0fd5fb293e","ios":"levelo://app?vid=f624eee6-d01e-4acc-a776-bc0fd5fb293e"},"vehicle_type_id":"4","last_reported":1747160096,"current_range_meters":1200,"station_id":"ce4bhk92rcd13ifvqgc0","pricing_plan_id":"cebpf4jnsgd1na2vs0mg"},{"bike_id":"7ca2e088-01be-4e30-9cca-e5127e630277","system_id":"levelo_inurba_marseille","lat":43.309455,"lon":5.39054,"is_reserved":false,"is_disabled":true,"rental_uris":{"android":"levelo://app?vid=7ca2e088-01be-4e30-9cca-e5127e630277","ios":"levelo://app?vid=7ca2e088-01be-4e30-9cca-e5127e630277"},"vehicle_type_id":"4","last_reported":1747160096,"current_range_meters":1600,"station_id":"ce4bgup2rcd13ifvqco0","pricing_plan_id":"cebpf4jnsgd1na2vs0mg"},{"bike_id":"44d5875b-99e3-4288-9101-98c9098f9375","system_id":"levelo_inurba_marseille","lat":43.29095,"lon":5.38104,"is_reserved":false,"is_disabled":true,"rental_uris":{"android":"levelo://app?vid=44d5875b-99e3-4288-9101-98c9098f9375","ios":"levelo://app?vid=44d5875b-99e3-4288-9101-98c9098f9375"},"vehicle_type_id":"4","last_reported":1747160096,"current_range_meters":1600,"station_id":"ce4bh512rcd13ifvqe2g","pricing_plan_id":"cebpf4jnsgd1na2vs0mg"},{"bike_id":"66024810-e997-432e-9fc5-910a229d1a5f","system_id":"levelo_inurba_marseille","lat":43.29006,"lon":5.3561,"is_reserved":false,"is_disabled":true,"rental_uris":{"android":"levelo://app?vid=66024810-e997-432e-9fc5-910a229d1a5f","ios":"levelo://app?vid=66024810-e997-432e-9fc5-910a229d1a5f"},"vehicle_type_id":"4","last_reported":1747160096,"current_range_meters":1600,"station_id":"ce4bhb92rcd13ifvqen0","pricing_plan_id":"cebpf4jnsgd1na2vs0mg"},{"bike_id":"bcf9cf3c-51b9-4381-8a10-bf4d571ac943","system_id":"levelo_inurba_marseille","lat":43.292206,"lon":5.360526,"is_reserved":false,"is_disabled":false,"rental_uris":{"android":"levelo://app?vid=bcf9cf3c-51b9-4381-8a10-bf4d571ac943","ios":"levelo://app?vid=bcf9cf3c-51b9-4381-8a10-bf4d571ac943"},"vehicle_type_id":"4","last_reported":1747160096,"current_range_meters":1600,"station_id":"ce4bhbh2rcd13ifvqeqg","pricing_plan_id":"cebpf4jnsgd1na2vs0mg"},{"bike_id":"0a2939d2-aa7c-4c48-9d4d-8c302a6f0596","system_id":"levelo_inurba_marseille","lat":43.28278,"lon":5.35075,"is_reserved":false,"is_disabled":false,"rental_uris":{"android":"levelo://app?vid=0a2939d2-aa7c-4c48-9d4d-8c302a6f0596","ios":"levelo://app?vid=0a2939d2-aa7c-4c48-9d4d-8c302a6f0596"},"vehicle_type_id":"4","last_reported":1747160096,"current_range_meters":1600,"station_id":"ce4bhbp2rcd13ifvqerg","pricing_plan_id":"cebpf4jnsgd1na2vs0mg"},{"bike_id":"877155ab-f977-4fad-bc28-a51546ffe9de","system_id":"levelo_inurba_marseille","lat":43.26191,"lon":5.37453,"is_reserved":false,"is_disabled":true,"rental_uris":{"android":"levelo://app?vid=877155ab-f977-4fad-bc28-a51546ffe9de","ios":"levelo://app?vid=877155ab-f977-4fad-bc28-a51546ffe9de"},"vehicle_type_id":"4","last_reported":1747160096,"current_range_meters":1600,"station_id":"ce4bhgp2rcd13ifvqfc0","pricing_plan_id":"cebpf4jnsgd1na2vs0mg"},{"bike_id":"3a8dc9b4-430b-4c84-8333-80e5a03257cf","system_id":"levelo_inurba_marseille","lat":43.26057,"lon":5.39404,"is_reserved":false,"is_disabled":true,"rental_uris":{"android":"levelo://app?vid=3a8dc9b4-430b-4c84-8333-80e5a03257cf","ios":"levelo://app?vid=3a8dc9b4-430b-4c84-8333-80e5a03257cf"},"vehicle_type_id":"4","last_reported":1747160096,"current_range_meters":1600,"station_id":"ce4bhh92rcd13ifvqfj0","pricing_plan_id":"cebpf4jnsgd1na2vs0mg"},{"bike_id":"227084cd-06c2-45a0-96f6-987c0dcf41ff","system_id":"levelo_inurba_marseille","lat":43.29604,"lon":5.3811,"is_reserved":false,"is_disabled":true,"rental_uris":{"android":"levelo://app?vid=227084cd-06c2-45a0-96f6-987c0dcf41ff","ios":"levelo://app?vid=227084cd-06c2-45a0-96f6-987c0dcf41ff"},"vehicle_type_id":"4","last_reported":1747160096,"current_range_meters":2000,"station_id":"ce4bgl12rcd13ifvqbo0","pricing_plan_id":"cebpf4jnsgd1na2vs0mg"},{"bike_id":"09b55b87-0735-4d6d-80eb-bc151ac8a43e","system_id":"levelo_inurba_marseille","lat":43.255,"lon":5.37629,"is_reserved":false,"is_disabled":true,"rental_uris":{"android":"levelo://app?vid=09b55b87-0735-4d6d-80eb-bc151ac8a43e","ios":"levelo://app?vid=09b55b87-0735-4d6d-80eb-bc151ac8a43e"},"vehicle_type_id":"4","last_reported":1747160096,"current_range_meters":2000,"station_id":"ce4bhh12rcd13ifvqff0","pricing_plan_id":"cebpf4jnsgd1na2vs0mg"},{"bike_id":"679a1652-9834-4e25-8720-e5f793f672e7","system_id":"levelo_inurba_marseille","lat":43.250901,"lon":5.395279,"is_reserved":false,"is_disabled":true,"rental_uris":{"android":"levelo://app?vid=679a1652-9834-4e25-8720-e5f793f672e7","ios":"levelo://app?vid=679a1652-9834-4e25-8720-e5f793f672e7"},"vehicle_type_id":"4","last_reported":1747160096,"current_range_meters":2000,"station_id":"ce4bhm12rcd13ifvqgkg","pricing_plan_id":"cebpf4jnsgd1na2vs0mg"},{"bike_id":"2826e3a4-114e-4cc1-8035-2507886f4067","system_id":"levelo_inurba_marseille","lat":43.32475,"lon":5.36555,"is_reserved":false,"is_disabled":true,"rental_uris":{"android":"levelo://app?vid=2826e3a4-114e-4cc1-8035-2507886f4067","ios":"levelo://app?vid=2826e3a4-114e-4cc1-8035-2507886f4067"},"vehicle_type_id":"4","last_reported":1747160096,"current_range_meters":2000,"station_id":"ce4bhs12rcd13ifvqhvg","pricing_plan_id":"cebpf4jnsgd1na2vs0mg"},{"bike_id":"c5342b03-3186-4ad3-887e-5013dacfa8d3","system_id":"levelo_inurba_marseille","lat":43.32475,"lon":5.36565,"is_reserved":false,"is_disabled":true,"rental_uris":{"android":"levelo://app?vid=c5342b03-3186-4ad3-887e-5013dacfa8d3","ios":"levelo://app?vid=c5342b03-3186-4ad3-887e-5013dacfa8d3"},"vehicle_type_id":"4","last_reported":1747160096,"current_range_meters":2000,"station_id":"ce4bhs12rcd13ifvqhvg","pricing_plan_id":"cebpf4jnsgd1na2vs0mg"},{"bike_id":"15c7a101-c480-46e3-9791-e084fa129aea","system_id":"levelo_inurba_marseille","lat":43.29577,"lon":5.36742,"is_reserved":false,"is_disabled":false,"rental_uris":{"android":"levelo://app?vid=15c7a101-c480-46e3-9791-e084fa129aea","ios":"levelo://app?vid=15c7a101-c480-46e3-9791-e084fa129aea"},"vehicle_type_id":"4","last_reported":1747160096,"current_range_meters":2800,"station_id":"ce4bgph2rcd13ifvqc2g","pricing_plan_id":"cebpf4jnsgd1na2vs0mg"},{"bike_id":"448bca43-7125-436e-b88c-fb1708f093cc","system_id":"levelo_inurba_marseille","lat":43.281406,"lon":5.378575,"is_reserved":false,"is_disabled":false,"rental_uris":{"android":"levelo://app?vid=448bca43-7125-436e-b88c-fb1708f093cc","ios":"levelo://app?vid=448bca43-7125-436e-b88c-fb1708f093cc"},"vehicle_type_id":"4","last_reported":1747160096,"current_range_meters":2800,"station_id":"ce4bha12rcd13ifvqee0","pricing_plan_id":"cebpf4jnsgd1na2vs0mg"},{"bike_id":"09b104c5-13f5-4c94-ac36-80a085a351aa","system_id":"levelo_inurba_marseille","lat":43.29195,"lon":5.35798,"is_reserved":false,"is_disabled":false,"rental_uris":{"android":"levelo://app?vid=09b104c5-13f5-4c94-ac36-80a085a351aa","ios":"levelo://app?vid=09b104c5-13f5-4c94-ac36-80a085a351aa"},"vehicle_type_id":"4","last_reported":1747160096,"current_range_meters":2800,"station_id":"ce4bhb12rcd13ifvqel0","pricing_plan_id":"cebpf4jnsgd1na2vs0mg"},{"bike_id":"865a1494-a569-423a-95ca-de809d558057","system_id":"levelo_inurba_marseille","lat":43.317682,"lon":5.368683,"is_reserved":false,"is_disabled":false,"rental_uris":{"android":"levelo://app?vid=865a1494-a569-423a-95ca-de809d558057","ios":"levelo://app?vid=865a1494-a569-423a-95ca-de809d558057"},"vehicle_type_id":"4","last_reported":1747160096,"current_range_meters":3200,"station_id":"","pricing_plan_id":"cebpf4jnsgd1na2vs0mg"},{"bike_id":"7d5a633b-a703-45dc-b9ed-77084d72ce61","system_id":"levelo_inurba_marseille","lat":43.29258,"lon":5.40907,"is_reserved":false,"is_disabled":false,"rental_uris":{"android":"levelo://app?vid=7d5a633b-a703-45dc-b9ed-77084d72ce61","ios":"levelo://app?vid=7d5a633b-a703-45dc-b9ed-77084d72ce61"},"vehicle_type_id":"4","last_reported":1747160096,"current_range_meters":3200,"station_id":"ce4bh192rcd13ifvqdc0","pricing_plan_id":"cebpf4jnsgd1na2vs0mg"},{"bike_id":"d8986884-20dc-4d81-b647-e94ce50bb841","system_id":"levelo_inurba_marseille","lat":43.28352,"lon":5.38104,"is_reserved":false,"is_disabled":false,"rental_uris":{"android":"levelo://app?vid=d8986884-20dc-4d81-b647-e94ce50bb841","ios":"levelo://app?vid=d8986884-20dc-4d81-b647-e94ce50bb841"},"vehicle_type_id":"4","last_reported":1747160096,"current_range_meters":3200,"station_id":"ce4bh412rcd13ifvqdr0","pricing_plan_id":"cebpf4jnsgd1na2vs0mg"},{"bike_id":"e37d0a61-644a-484e-8296-ecf473d50b32","system_id":"levelo_inurba_marseille","lat":43.32366,"lon":5.38885,"is_reserved":false,"is_disabled":false,"rental_uris":{"android":"levelo://app?vid=e37d0a61-644a-484e-8296-ecf473d50b32","ios":"levelo://app?vid=e37d0a61-644a-484e-8296-ecf473d50b32"},"vehicle_type_id":"4","last_reported":1747160096,"current_range_meters":3200,"station_id":"ce4bhqp2rcd13ifvqhog","pricing_plan_id":"cebpf4jnsgd1na2vs0mg"},{"bike_id":"7533e0e9-8dd7-420e-97ed-0b456e7c28cc","system_id":"levelo_inurba_marseille","lat":43.3043,"lon":5.39747,"is_reserved":false,"is_disabled":false,"rental_uris":{"android":"levelo://app?vid=7533e0e9-8dd7-420e-97ed-0b456e7c28cc","ios":"levelo://app?vid=7533e0e9-8dd7-420e-97ed-0b456e7c28cc"},"vehicle_type_id":"4","last_reported":1747160096,"current_range_meters":3600,"station_id":"ce4bh092rcd13ifvqd20","pricing_plan_id":"cebpf4jnsgd1na2vs0mg"},{"bike_id":"f4f686b9-96ac-4872-9628-82d1c833f2f8","system_id":"levelo_inurba_marseille","lat":43.24661,"lon":5.38165,"is_reserved":false,"is_disabled":false,"rental_uris":{"android":"levelo://app?vid=f4f686b9-96ac-4872-9628-82d1c833f2f8","ios":"levelo://app?vid=f4f686b9-96ac-4872-9628-82d1c833f2f8"},"vehicle_type_id":"4","last_reported":1747160096,"current_range_meters":3600,"station_id":"ce4bhih2rcd13ifvqfr0","pricing_plan_id":"cebpf4jnsgd1na2vs0mg"},{"bike_id":"6f8dd7ef-13eb-4876-a227-f3db3ef6fe94","system_id":"levelo_inurba_marseille","lat":43.26801,"lon":5.40273,"is_reserved":false,"is_disabled":false,"rental_uris":{"android":"levelo://app?vid=6f8dd7ef-13eb-4876-a227-f3db3ef6fe94","ios":"levelo://app?vid=6f8dd7ef-13eb-4876-a227-f3db3ef6fe94"},"vehicle_type_id":"4","last_reported":1747160096,"current_range_meters":3600,"station_id":"ce501612rcd8frsf0b60","pricing_plan_id":"cebpf4jnsgd1na2vs0mg"},{"bike_id":"dbaad36f-ff9c-40ec-879c-d866d3a0fce6","system_id":"levelo_inurba_marseille","lat":43.29933,"lon":5.36563,"is_reserved":false,"is_disabled":false,"rental_uris":{"android":"levelo://app?vid=dbaad36f-ff9c-40ec-879c-d866d3a0fce6","ios":"levelo://app?vid=dbaad36f-ff9c-40ec-879c-d866d3a0fce6"},"vehicle_type_id":"4","last_reported":1747160096,"current_range_meters":4000,"station_id":"ce4bgm92rcd13ifvqbr0","pricing_plan_id":"cebpf4jnsgd1na2vs0mg"},{"bike_id":"983baf40-78d5-4aed-91ca-2ab95a1838df","system_id":"levelo_inurba_marseille","lat":43.30333,"lon":5.40428,"is_reserved":false,"is_disabled":false,"rental_uris":{"android":"levelo://app?vid=983baf40-78d5-4aed-91ca-2ab95a1838df","ios":"levelo://app?vid=983baf40-78d5-4aed-91ca-2ab95a1838df"},"vehicle_type_id":"4","last_reported":1747160096,"current_range_meters":4000,"station_id":"ce4bh012rcd13ifvqd10","pricing_plan_id":"cebpf4jnsgd1na2vs0mg"},{"bike_id":"7e6f52ae-ec27-480b-8aa7-1d0f6c9e3c0d","system_id":"levelo_inurba_marseille","lat":43.28925,"lon":5.36641,"is_reserved":false,"is_disabled":false,"rental_uris":{"android":"levelo://app?vid=7e6f52ae-ec27-480b-8aa7-1d0f6c9e3c0d","ios":"levelo://app?vid=7e6f52ae-ec27-480b-8aa7-1d0f6c9e3c0d"},"vehicle_type_id":"4","last_reported":1747160096,"current_range_meters":4000,"station_id":"ce4bhap2rcd13ifvqek0","pricing_plan_id":"cebpf4jnsgd1na2vs0mg"},{"bike_id":"fb3b7c7e-6cde-418e-9846-819e9614f5c1","system_id":"levelo_inurba_marseille","lat":43.24384,"lon":5.37053,"is_reserved":false,"is_disabled":false,"rental_uris":{"android":"levelo://app?vid=fb3b7c7e-6cde-418e-9846-819e9614f5c1","ios":"levelo://app?vid=fb3b7c7e-6cde-418e-9846-819e9614f5c1"},"vehicle_type_id":"4","last_reported":1747160096,"current_range_meters":4000,"station_id":"ce4bhhh2rcd13ifvqfk0","pricing_plan_id":"cebpf4jnsgd1na2vs0mg"},{"bike_id":"764a7013-3fc3-4d32-b171-097f58534232","system_id":"levelo_inurba_marseille","lat":43.280707,"lon":5.396596,"is_reserved":false,"is_disabled":false,"rental_uris":{"android":"levelo://app?vid=764a7013-3fc3-4d32-b171-097f58534232","ios":"levelo://app?vid=764a7013-3fc3-4d32-b171-097f58534232"},"vehicle_type_id":"4","last_reported":1747160096,"current_range_meters":4000,"station_id":"ce4bho12rcd13ifvqh2g","pricing_plan_id":"cebpf4jnsgd1na2vs0mg"},{"bike_id":"4c7f1281-060a-44cb-a859-8bd513948078","system_id":"levelo_inurba_marseille","lat":43.301107,"lon":5.38339,"is_reserved":false,"is_disabled":false,"rental_uris":{"android":"levelo://app?vid=4c7f1281-060a-44cb-a859-8bd513948078","ios":"levelo://app?vid=4c7f1281-060a-44cb-a859-8bd513948078"},"vehicle_type_id":"4","last_reported":1747160096,"current_range_meters":4400,"station_id":"","pricing_plan_id":"cebpf4jnsgd1na2vs0mg"},{"bike_id":"be4bdc69-1445-47ce-acb3-3f74739d6954","system_id":"levelo_inurba_marseille","lat":43.28994,"lon":5.35612,"is_reserved":false,"is_disabled":false,"rental_uris":{"android":"levelo://app?vid=be4bdc69-1445-47ce-acb3-3f74739d6954","ios":"levelo://app?vid=be4bdc69-1445-47ce-acb3-3f74739d6954"},"vehicle_type_id":"4","last_reported":1747160096,"current_range_meters":4400,"station_id":"ce4bhb92rcd13ifvqen0","pricing_plan_id":"cebpf4jnsgd1na2vs0mg"},{"bike_id":"11bd6c4c-3075-4abd-9f25-4908a25c6aeb","system_id":"levelo_inurba_marseille","lat":43.2904,"lon":5.37571,"is_reserved":false,"is_disabled":false,"rental_uris":{"android":"levelo://app?vid=11bd6c4c-3075-4abd-9f25-4908a25c6aeb","ios":"levelo://app?vid=11bd6c4c-3075-4abd-9f25-4908a25c6aeb"},"vehicle_type_id":"4","last_reported":1747160096,"current_range_meters":5600,"station_id":"ce4bh692rcd13ifvqe90","pricing_plan_id":"cebpf4jnsgd1na2vs0mg"},{"bike_id":"b2b480e2-3d9a-45bf-96e7-3ceef422d7ef","system_id":"levelo_inurba_marseille","lat":43.3171,"lon":5.43707,"is_reserved":false,"is_disabled":false,"rental_uris":{"android":"levelo://app?vid=b2b480e2-3d9a-45bf-96e7-3ceef422d7ef","ios":"levelo://app?vid=b2b480e2-3d9a-45bf-96e7-3ceef422d7ef"},"vehicle_type_id":"4","last_reported":1747160096,"current_range_meters":5600,"station_id":"ce4bhp92rcd13ifvqhcg","pricing_plan_id":"cebpf4jnsgd1na2vs0mg"},{"bike_id":"fe098a40-4d43-4fba-800f-8e18e7a2cc65","system_id":"levelo_inurba_marseille","lat":43.27916,"lon":5.39589,"is_reserved":false,"is_disabled":false,"rental_uris":{"android":"levelo://app?vid=fe098a40-4d43-4fba-800f-8e18e7a2cc65","ios":"levelo://app?vid=fe098a40-4d43-4fba-800f-8e18e7a2cc65"},"vehicle_type_id":"4","last_reported":1747160096,"current_range_meters":6000,"station_id":"ce4bhf92rcd13ifvqf40","pricing_plan_id":"cebpf4jnsgd1na2vs0mg"},{"bike_id":"3f4f7e7c-00ee-4ab4-89b8-839a8719b199","system_id":"levelo_inurba_marseille","lat":43.25502,"lon":5.37647,"is_reserved":false,"is_disabled":false,"rental_uris":{"android":"levelo://app?vid=3f4f7e7c-00ee-4ab4-89b8-839a8719b199","ios":"levelo://app?vid=3f4f7e7c-00ee-4ab4-89b8-839a8719b199"},"vehicle_type_id":"4","last_reported":1747160096,"current_range_meters":6000,"station_id":"ce4bhh12rcd13ifvqff0","pricing_plan_id":"cebpf4jnsgd1na2vs0mg"},{"bike_id":"0d479c96-7f55-45e2-b309-1f9f02fc7258","system_id":"levelo_inurba_marseille","lat":43.24389,"lon":5.37061,"is_reserved":false,"is_disabled":false,"rental_uris":{"android":"levelo://app?vid=0d479c96-7f55-45e2-b309-1f9f02fc7258","ios":"levelo://app?vid=0d479c96-7f55-45e2-b309-1f9f02fc7258"},"vehicle_type_id":"4","last_reported":1747160096,"current_range_meters":6000,"station_id":"ce4bhhh2rcd13ifvqfk0","pricing_plan_id":"cebpf4jnsgd1na2vs0mg"},{"bike_id":"8a114e08-b45c-453a-8954-c268fbcc9a13","system_id":"levelo_inurba_marseille","lat":43.34141,"lon":5.40912,"is_reserved":false,"is_disabled":false,"rental_uris":{"android":"levelo://app?vid=8a114e08-b45c-453a-8954-c268fbcc9a13","ios":"levelo://app?vid=8a114e08-b45c-453a-8954-c268fbcc9a13"},"vehicle_type_id":"4","last_reported":1747160096,"current_range_meters":6000,"station_id":"ce4bhqh2rcd13ifvqhlg","pricing_plan_id":"cebpf4jnsgd1na2vs0mg"},{"bike_id":"28bbb701-8f11-475a-b7fe-836f6cb4294d","system_id":"levelo_inurba_marseille","lat":43.31368,"lon":5.38504,"is_reserved":false,"is_disabled":false,"rental_uris":{"android":"levelo://app?vid=28bbb701-8f11-475a-b7fe-836f6cb4294d","ios":"levelo://app?vid=28bbb701-8f11-475a-b7fe-836f6cb4294d"},"vehicle_type_id":"4","last_reported":1747160096,"current_range_meters":6400,"station_id":"ce4bgt92rcd13ifvqcf0","pricing_plan_id":"cebpf4jnsgd1na2vs0mg"},{"bike_id":"2d2e654b-8263-4bbb-9411-ef231ea2a01f","system_id":"levelo_inurba_marseille","lat":43.30949,"lon":5.39028,"is_reserved":false,"is_disabled":false,"rental_uris":{"android":"levelo://app?vid=2d2e654b-8263-4bbb-9411-ef231ea2a01f","ios":"levelo://app?vid=2d2e654b-8263-4bbb-9411-ef231ea2a01f"},"vehicle_type_id":"4","last_reported":1747160096,"current_range_meters":6400,"station_id":"ce4bgup2rcd13ifvqco0","pricing_plan_id":"cebpf4jnsgd1na2vs0mg"},{"bike_id":"39c8ec9e-ca9b-4596-a3d5-792368bfb4ea","system_id":"levelo_inurba_marseille","lat":43.31161,"lon":5.38723,"is_reserved":false,"is_disabled":false,"rental_uris":{"android":"levelo://app?vid=39c8ec9e-ca9b-4596-a3d5-792368bfb4ea","ios":"levelo://app?vid=39c8ec9e-ca9b-4596-a3d5-792368bfb4ea"},"vehicle_type_id":"4","last_reported":1747160096,"current_range_meters":6400,"station_id":"ce4bgv12rcd13ifvqcp0","pricing_plan_id":"cebpf4jnsgd1na2vs0mg"},{"bike_id":"64d2553a-cb5d-432b-993b-dacf2e6d3b50","system_id":"levelo_inurba_marseille","lat":43.29226,"lon":5.36042,"is_reserved":false,"is_disabled":false,"rental_uris":{"android":"levelo://app?vid=64d2553a-cb5d-432b-993b-dacf2e6d3b50","ios":"levelo://app?vid=64d2553a-cb5d-432b-993b-dacf2e6d3b50"},"vehicle_type_id":"4","last_reported":1747160096,"current_range_meters":6400,"station_id":"ce4bhbh2rcd13ifvqeqg","pricing_plan_id":"cebpf4jnsgd1na2vs0mg"},{"bike_id":"4a7a989c-172d-4f21-a17f-a1e0e81980c4","system_id":"levelo_inurba_marseille","lat":43.25866,"lon":5.39901,"is_reserved":false,"is_disabled":false,"rental_uris":{"android":"levelo://app?vid=4a7a989c-172d-4f21-a17f-a1e0e81980c4","ios":"levelo://app?vid=4a7a989c-172d-4f21-a17f-a1e0e81980c4"},"vehicle_type_id":"4","last_reported":1747160096,"current_range_meters":6400,"station_id":"ce4bhl92rcd13ifvqghg","pricing_plan_id":"cebpf4jnsgd1na2vs0mg"},{"bike_id":"ca81eb5e-1da4-4be9-a6b6-4e13b98767cd","system_id":"levelo_inurba_marseille","lat":43.27494,"lon":5.4246,"is_reserved":false,"is_disabled":false,"rental_uris":{"android":"levelo://app?vid=ca81eb5e-1da4-4be9-a6b6-4e13b98767cd","ios":"levelo://app?vid=ca81eb5e-1da4-4be9-a6b6-4e13b98767cd"},"vehicle_type_id":"4","last_reported":1747160096,"current_range_meters":6400,"station_id":"ce4bhn92rcd13ifvqgrg","pricing_plan_id":"cebpf4jnsgd1na2vs0mg"},{"bike_id":"4016995e-bad8-4c8c-9a16-52e81020be8e","system_id":"levelo_inurba_marseille","lat":43.298473,"lon":5.382812,"is_reserved":false,"is_disabled":false,"rental_uris":{"android":"levelo://app?vid=4016995e-bad8-4c8c-9a16-52e81020be8e","ios":"levelo://app?vid=4016995e-bad8-4c8c-9a16-52e81020be8e"},"vehicle_type_id":"4","last_reported":1747160096,"current_range_meters":6800,"station_id":"","pricing_plan_id":"cebpf4jnsgd1na2vs0mg"},{"bike_id":"c1cc6bc5-d6bc-47f8-9099-f3929046d1d7","system_id":"levelo_inurba_marseille","lat":43.31231,"lon":5.36873,"is_reserved":false,"is_disabled":false,"rental_uris":{"android":"levelo://app?vid=c1cc6bc5-d6bc-47f8-9099-f3929046d1d7","ios":"levelo://app?vid=c1cc6bc5-d6bc-47f8-9099-f3929046d1d7"},"vehicle_type_id":"4","last_reported":1747160096,"current_range_meters":6800,"station_id":"ce4bgl92rcd13ifvqbq0","pricing_plan_id":"cebpf4jnsgd1na2vs0mg"},{"bike_id":"7508b996-95d4-41ea-b19b-6f1bd367693b","system_id":"levelo_inurba_marseille","lat":43.25871,"lon":5.39931,"is_reserved":false,"is_disabled":false,"rental_uris":{"android":"levelo://app?vid=7508b996-95d4-41ea-b19b-6f1bd367693b","ios":"levelo://app?vid=7508b996-95d4-41ea-b19b-6f1bd367693b"},"vehicle_type_id":"4","last_reported":1747160096,"current_range_meters":6800,"station_id":"ce4bhl92rcd13ifvqghg","pricing_plan_id":"cebpf4jnsgd1na2vs0mg"},{"bike_id":"a74b23a8-63bc-4536-b2b9-0ad39af048f0","system_id":"levelo_inurba_marseille","lat":43.31162,"lon":5.38727,"is_reserved":false,"is_disabled":false,"rental_uris":{"android":"levelo://app?vid=a74b23a8-63bc-4536-b2b9-0ad39af048f0","ios":"levelo://app?vid=a74b23a8-63bc-4536-b2b9-0ad39af048f0"},"vehicle_type_id":"4","last_reported":1747160096,"current_range_meters":7200,"station_id":"ce4bgv12rcd13ifvqcp0","pricing_plan_id":"cebpf4jnsgd1na2vs0mg"},{"bike_id":"b107cab0-ec50-4f05-a448-19d632064bbc","system_id":"levelo_inurba_marseille","lat":43.292683,"lon":5.384364,"is_reserved":false,"is_disabled":false,"rental_uris":{"android":"levelo://app?vid=b107cab0-ec50-4f05-a448-19d632064bbc","ios":"levelo://app?vid=b107cab0-ec50-4f05-a448-19d632064bbc"},"vehicle_type_id":"4","last_reported":1747160096,"current_range_meters":7200,"station_id":"ce4bh692rcd13ifvqea0","pricing_plan_id":"cebpf4jnsgd1na2vs0mg"},{"bike_id":"8e279dca-9425-4bc2-b384-77b204171643","system_id":"levelo_inurba_marseille","lat":43.29216,"lon":5.3606,"is_reserved":false,"is_disabled":false,"rental_uris":{"android":"levelo://app?vid=8e279dca-9425-4bc2-b384-77b204171643","ios":"levelo://app?vid=8e279dca-9425-4bc2-b384-77b204171643"},"vehicle_type_id":"4","last_reported":1747160096,"current_range_meters":8000,"station_id":"","pricing_plan_id":"cebpf4jnsgd1na2vs0mg"},{"bike_id":"74ce7741-5813-4b25-8268-d773ddb37d17","system_id":"levelo_inurba_marseille","lat":43.303274,"lon":5.438893,"is_reserved":false,"is_disabled":false,"rental_uris":{"android":"levelo://app?vid=74ce7741-5813-4b25-8268-d773ddb37d17","ios":"levelo://app?vid=74ce7741-5813-4b25-8268-d773ddb37d17"},"vehicle_type_id":"4","last_reported":1747160096,"current_range_meters":8000,"station_id":"","pricing_plan_id":"cebpf4jnsgd1na2vs0mg"},{"bike_id":"39cfea63-69be-4c15-9996-63b8a17a1527","system_id":"levelo_inurba_marseille","lat":43.250839,"lon":5.395244,"is_reserved":false,"is_disabled":false,"rental_uris":{"android":"levelo://app?vid=39cfea63-69be-4c15-9996-63b8a17a1527","ios":"levelo://app?vid=39cfea63-69be-4c15-9996-63b8a17a1527"},"vehicle_type_id":"4","last_reported":1747160096,"current_range_meters":8000,"station_id":"","pricing_plan_id":"cebpf4jnsgd1na2vs0mg"},{"bike_id":"9b78edb9-3f4b-44d7-ae34-6d134b070189","system_id":"levelo_inurba_marseille","lat":43.295874,"lon":5.3674,"is_reserved":false,"is_disabled":false,"rental_uris":{"android":"levelo://app?vid=9b78edb9-3f4b-44d7-ae34-6d134b070189","ios":"levelo://app?vid=9b78edb9-3f4b-44d7-ae34-6d134b070189"},"vehicle_type_id":"4","last_reported":1747160096,"current_range_meters":8000,"station_id":"ce4bgph2rcd13ifvqc2g","pricing_plan_id":"cebpf4jnsgd1na2vs0mg"},{"bike_id":"b6df1ef4-d5f7-49cc-b6d6-45e21292bd56","system_id":"levelo_inurba_marseille","lat":43.3078,"lon":5.37655,"is_reserved":false,"is_disabled":false,"rental_uris":{"android":"levelo://app?vid=b6df1ef4-d5f7-49cc-b6d6-45e21292bd56","ios":"levelo://app?vid=b6df1ef4-d5f7-49cc-b6d6-45e21292bd56"},"vehicle_type_id":"4","last_reported":1747160096,"current_range_meters":8000,"station_id":"ce4bgv92rcd13ifvqcq0","pricing_plan_id":"cebpf4jnsgd1na2vs0mg"},{"bike_id":"9b059fd2-accd-41f4-b898-d404801fcb11","system_id":"levelo_inurba_marseille","lat":43.290326,"lon":5.374519,"is_reserved":false,"is_disabled":false,"rental_uris":{"android":"levelo://app?vid=9b059fd2-accd-41f4-b898-d404801fcb11","ios":"levelo://app?vid=9b059fd2-accd-41f4-b898-d404801fcb11"},"vehicle_type_id":"4","last_reported":1747160096,"current_range_meters":8000,"station_id":"ce4bh692rcd13ifvqe90","pricing_plan_id":"cebpf4jnsgd1na2vs0mg"},{"bike_id":"f9820d18-c43a-47d7-91bc-b061f6c10005","system_id":"levelo_inurba_marseille","lat":43.2922,"lon":5.36067,"is_reserved":false,"is_disabled":false,"rental_uris":{"android":"levelo://app?vid=f9820d18-c43a-47d7-91bc-b061f6c10005","ios":"levelo://app?vid=f9820d18-c43a-47d7-91bc-b061f6c10005"},"vehicle_type_id":"4","last_reported":1747160096,"current_range_meters":8000,"station_id":"ce4bhbh2rcd13ifvqeqg","pricing_plan_id":"cebpf4jnsgd1na2vs0mg"},{"bike_id":"d1ba419d-03d3-42a4-b530-f5fbeb489d47","system_id":"levelo_inurba_marseille","lat":43.286163,"lon":5.351009,"is_reserved":false,"is_disabled":false,"rental_uris":{"android":"levelo://app?vid=d1ba419d-03d3-42a4-b530-f5fbeb489d47","ios":"levelo://app?vid=d1ba419d-03d3-42a4-b530-f5fbeb489d47"},"vehicle_type_id":"4","last_reported":1747160096,"current_range_meters":8000,"station_id":"ce4bhch2rcd13ifvqeug","pricing_plan_id":"cebpf4jnsgd1na2vs0mg"},{"bike_id":"3ade0518-9bdb-4aef-b216-b2906e196b8b","system_id":"levelo_inurba_marseille","lat":43.2767,"lon":5.38879,"is_reserved":false,"is_disabled":false,"rental_uris":{"android":"levelo://app?vid=3ade0518-9bdb-4aef-b216-b2906e196b8b","ios":"levelo://app?vid=3ade0518-9bdb-4aef-b216-b2906e196b8b"},"vehicle_type_id":"4","last_reported":1747160096,"current_range_meters":8000,"station_id":"ce4bhi12rcd13ifvqfo0","pricing_plan_id":"cebpf4jnsgd1na2vs0mg"},{"bike_id":"a91a91e5-0696-41a5-a73e-ace81717cc5f","system_id":"levelo_inurba_marseille","lat":43.28443,"lon":5.39203,"is_reserved":false,"is_disabled":false,"rental_uris":{"android":"levelo://app?vid=a91a91e5-0696-41a5-a73e-ace81717cc5f","ios":"levelo://app?vid=a91a91e5-0696-41a5-a73e-ace81717cc5f"},"vehicle_type_id":"4","last_reported":1747160096,"current_range_meters":8000,"station_id":"ce4bhoh2rcd13ifvqh5g","pricing_plan_id":"cebpf4jnsgd1na2vs0mg"},{"bike_id":"34e9ef4b-c9fc-47e1-a0ff-db5b070f065f","system_id":"levelo_inurba_marseille","lat":43.26803,"lon":5.40272,"is_reserved":false,"is_disabled":false,"rental_uris":{"android":"levelo://app?vid=34e9ef4b-c9fc-47e1-a0ff-db5b070f065f","ios":"levelo://app?vid=34e9ef4b-c9fc-47e1-a0ff-db5b070f065f"},"vehicle_type_id":"4","last_reported":1747160096,"current_range_meters":8000,"station_id":"ce501612rcd8frsf0b60","pricing_plan_id":"cebpf4jnsgd1na2vs0mg"},{"bike_id":"9ee37240-b59b-4b0b-bef3-1cf4905307c0","system_id":"levelo_inurba_marseille","lat":43.31069,"lon":5.38353,"is_reserved":false,"is_disabled":false,"rental_uris":{"android":"levelo://app?vid=9ee37240-b59b-4b0b-bef3-1cf4905307c0","ios":"levelo://app?vid=9ee37240-b59b-4b0b-bef3-1cf4905307c0"},"vehicle_type_id":"4","last_reported":1747160096,"current_range_meters":8400,"station_id":"ce4bgv92rcd13ifvqcr0","pricing_plan_id":"cebpf4jnsgd1na2vs0mg"},{"bike_id":"d3c943bf-11ca-4c4d-bfa6-5762b630d9c1","system_id":"levelo_inurba_marseille","lat":43.28846,"lon":5.35848,"is_reserved":false,"is_disabled":false,"rental_uris":{"android":"levelo://app?vid=d3c943bf-11ca-4c4d-bfa6-5762b630d9c1","ios":"levelo://app?vid=d3c943bf-11ca-4c4d-bfa6-5762b630d9c1"},"vehicle_type_id":"4","last_reported":1747160096,"current_range_meters":8400,"station_id":"ce4bhb12rcd13ifvqem0","pricing_plan_id":"cebpf4jnsgd1na2vs0mg"},{"bike_id":"ba4b24ce-de5d-4dba-b212-eb988c3a8f3b","system_id":"levelo_inurba_marseille","lat":43.29183,"lon":5.35834,"is_reserved":false,"is_disabled":false,"rental_uris":{"android":"levelo://app?vid=ba4b24ce-de5d-4dba-b212-eb988c3a8f3b","ios":"levelo://app?vid=ba4b24ce-de5d-4dba-b212-eb988c3a8f3b"},"vehicle_type_id":"4","last_reported":1747160096,"current_range_meters":8800,"station_id":"ce4bhb12rcd13ifvqel0","pricing_plan_id":"cebpf4jnsgd1na2vs0mg"},{"bike_id":"c3967bde-8add-4355-9880-b7b93522b808","system_id":"levelo_inurba_marseille","lat":43.25493,"lon":5.37647,"is_reserved":false,"is_disabled":false,"rental_uris":{"android":"levelo://app?vid=c3967bde-8add-4355-9880-b7b93522b808","ios":"levelo://app?vid=c3967bde-8add-4355-9880-b7b93522b808"},"vehicle_type_id":"4","last_reported":1747160096,"current_range_meters":8800,"station_id":"ce4bhh12rcd13ifvqff0","pricing_plan_id":"cebpf4jnsgd1na2vs0mg"},{"bike_id":"5f540601-c97f-48d3-9c9e-0383186bbfc0","system_id":"levelo_inurba_marseille","lat":43.25862,"lon":5.39899,"is_reserved":false,"is_disabled":false,"rental_uris":{"android":"levelo://app?vid=5f540601-c97f-48d3-9c9e-0383186bbfc0","ios":"levelo://app?vid=5f540601-c97f-48d3-9c9e-0383186bbfc0"},"vehicle_type_id":"4","last_reported":1747160096,"current_range_meters":8800,"station_id":"ce4bhl92rcd13ifvqghg","pricing_plan_id":"cebpf4jnsgd1na2vs0mg"},{"bike_id":"597e7865-b942-4532-81ea-d2c26c4cbf33","system_id":"levelo_inurba_marseille","lat":43.24046,"lon":5.37782,"is_reserved":false,"is_disabled":false,"rental_uris":{"android":"levelo://app?vid=597e7865-b942-4532-81ea-d2c26c4cbf33","ios":"levelo://app?vid=597e7865-b942-4532-81ea-d2c26c4cbf33"},"vehicle_type_id":"4","last_reported":1747160096,"current_range_meters":8800,"station_id":"ce4bhnp2rcd13ifvqgvg","pricing_plan_id":"cebpf4jnsgd1na2vs0mg"},{"bike_id":"54cd888b-3c4f-4246-9e80-c294f2a7fa5c","system_id":"levelo_inurba_marseille","lat":43.24072,"lon":5.37762,"is_reserved":false,"is_disabled":false,"rental_uris":{"android":"levelo://app?vid=54cd888b-3c4f-4246-9e80-c294f2a7fa5c","ios":"levelo://app?vid=54cd888b-3c4f-4246-9e80-c294f2a7fa5c"},"vehicle_type_id":"4","last_reported":1747160096,"current_range_meters":8800,"station_id":"ce4bhnp2rcd13ifvqgvg","pricing_plan_id":"cebpf4jnsgd1na2vs0mg"},{"bike_id":"127f6762-1f70-43ae-8938-79f5184b1ee2","system_id":"levelo_inurba_marseille","lat":43.24069,"lon":5.37751,"is_reserved":false,"is_disabled":false,"rental_uris":{"android":"levelo://app?vid=127f6762-1f70-43ae-8938-79f5184b1ee2","ios":"levelo://app?vid=127f6762-1f70-43ae-8938-79f5184b1ee2"},"vehicle_type_id":"4","last_reported":1747160096,"current_range_meters":8800,"station_id":"ce4bhnp2rcd13ifvqgvg","pricing_plan_id":"cebpf4jnsgd1na2vs0mg"},{"bike_id":"876946dd-9795-468d-94ce-3c72270bb954","system_id":"levelo_inurba_marseille","lat":43.295624,"lon":5.422938,"is_reserved":false,"is_disabled":false,"rental_uris":{"android":"levelo://app?vid=876946dd-9795-468d-94ce-3c72270bb954","ios":"levelo://app?vid=876946dd-9795-468d-94ce-3c72270bb954"},"vehicle_type_id":"4","last_reported":1747160096,"current_range_meters":8800,"station_id":"ce4bhph2rcd13ifvqhdg","pricing_plan_id":"cebpf4jnsgd1na2vs0mg"},{"bike_id":"0e89a721-196d-4572-b905-e39e1dafff7a","system_id":"levelo_inurba_marseille","lat":43.32105,"lon":5.36788,"is_reserved":false,"is_disabled":false,"rental_uris":{"android":"levelo://app?vid=0e89a721-196d-4572-b905-e39e1dafff7a","ios":"levelo://app?vid=0e89a721-196d-4572-b905-e39e1dafff7a"},"vehicle_type_id":"4","last_reported":1747160096,"current_range_meters":9200,"station_id":"ce4bhrh2rcd13ifvqhug","pricing_plan_id":"cebpf4jnsgd1na2vs0mg"},{"bike_id":"5dfe61de-cc7b-431e-ae0d-74436a7afb02","system_id":"levelo_inurba_marseille","lat":43.30417,"lon":5.39748,"is_reserved":false,"is_disabled":false,"rental_uris":{"android":"levelo://app?vid=5dfe61de-cc7b-431e-ae0d-74436a7afb02","ios":"levelo://app?vid=5dfe61de-cc7b-431e-ae0d-74436a7afb02"},"vehicle_type_id":"4","last_reported":1747160096,"current_range_meters":9600,"station_id":"ce4bh092rcd13ifvqd20","pricing_plan_id":"cebpf4jnsgd1na2vs0mg"},{"bike_id":"bd09df31-b50d-499c-bddd-2446fd814faf","system_id":"levelo_inurba_marseille","lat":43.329571,"lon":5.385736,"is_reserved":false,"is_disabled":false,"rental_uris":{"android":"levelo://app?vid=bd09df31-b50d-499c-bddd-2446fd814faf","ios":"levelo://app?vid=bd09df31-b50d-499c-bddd-2446fd814faf"},"vehicle_type_id":"4","last_reported":1747160096,"current_range_meters":9600,"station_id":"ce4bhr92rcd13ifvqhrg","pricing_plan_id":"cebpf4jnsgd1na2vs0mg"},{"bike_id":"727c4684-f63f-4c08-83b6-b043d1b81a1c","system_id":"levelo_inurba_marseille","lat":43.30323,"lon":5.43812,"is_reserved":false,"is_disabled":false,"rental_uris":{"android":"levelo://app?vid=727c4684-f63f-4c08-83b6-b043d1b81a1c","ios":"levelo://app?vid=727c4684-f63f-4c08-83b6-b043d1b81a1c"},"vehicle_type_id":"4","last_reported":1747160096,"current_range_meters":10000,"station_id":"","pricing_plan_id":"cebpf4jnsgd1na2vs0mg"},{"bike_id":"95eb5cfe-6709-42f7-92f1-359d844b4ebd","system_id":"levelo_inurba_marseille","lat":43.30924,"lon":5.40144,"is_reserved":false,"is_disabled":false,"rental_uris":{"android":"levelo://app?vid=95eb5cfe-6709-42f7-92f1-359d844b4ebd","ios":"levelo://app?vid=95eb5cfe-6709-42f7-92f1-359d844b4ebd"},"vehicle_type_id":"4","last_reported":1747160096,"current_range_meters":10000,"station_id":"ce4bgvp2rcd13ifvqct0","pricing_plan_id":"cebpf4jnsgd1na2vs0mg"},{"bike_id":"75d1e0c8-d4ed-48aa-ba11-ce835c12ba0e","system_id":"levelo_inurba_marseille","lat":43.2884,"lon":5.39306,"is_reserved":false,"is_disabled":false,"rental_uris":{"android":"levelo://app?vid=75d1e0c8-d4ed-48aa-ba11-ce835c12ba0e","ios":"levelo://app?vid=75d1e0c8-d4ed-48aa-ba11-ce835c12ba0e"},"vehicle_type_id":"4","last_reported":1747160096,"current_range_meters":10000,"station_id":"ce4bh2p2rcd13ifvqdi0","pricing_plan_id":"cebpf4jnsgd1na2vs0mg"},{"bike_id":"4f5240e6-f013-4a1a-85be-c57373681e75","system_id":"levelo_inurba_marseille","lat":43.298355,"lon":5.388789,"is_reserved":false,"is_disabled":false,"rental_uris":{"android":"levelo://app?vid=4f5240e6-f013-4a1a-85be-c57373681e75","ios":"levelo://app?vid=4f5240e6-f013-4a1a-85be-c57373681e75"},"vehicle_type_id":"4","last_reported":1747160096,"current_range_meters":10000,"station_id":"ce4bh392rcd13ifvqdl0","pricing_plan_id":"cebpf4jnsgd1na2vs0mg"},{"bike_id":"7681d85c-5131-42f1-b19c-59b02cb7f61e","system_id":"levelo_inurba_marseille","lat":43.29009,"lon":5.35613,"is_reserved":false,"is_disabled":false,"rental_uris":{"android":"levelo://app?vid=7681d85c-5131-42f1-b19c-59b02cb7f61e","ios":"levelo://app?vid=7681d85c-5131-42f1-b19c-59b02cb7f61e"},"vehicle_type_id":"4","last_reported":1747160096,"current_range_meters":10000,"station_id":"ce4bhb92rcd13ifvqen0","pricing_plan_id":"cebpf4jnsgd1na2vs0mg"},{"bike_id":"5235509c-f714-4b01-a70c-32262077ea9f","system_id":"levelo_inurba_marseille","lat":43.2861,"lon":5.35114,"is_reserved":false,"is_disabled":false,"rental_uris":{"android":"levelo://app?vid=5235509c-f714-4b01-a70c-32262077ea9f","ios":"levelo://app?vid=5235509c-f714-4b01-a70c-32262077ea9f"},"vehicle_type_id":"4","last_reported":1747160096,"current_range_meters":10000,"station_id":"ce4bhch2rcd13ifvqeug","pricing_plan_id":"cebpf4jnsgd1na2vs0mg"},{"bike_id":"29ffcb24-3da9-4361-83d5-7b9207261d2b","system_id":"levelo_inurba_marseille","lat":43.24806,"lon":5.37457,"is_reserved":false,"is_disabled":false,"rental_uris":{"android":"levelo://app?vid=29ffcb24-3da9-4361-83d5-7b9207261d2b","ios":"levelo://app?vid=29ffcb24-3da9-4361-83d5-7b9207261d2b"},"vehicle_type_id":"4","last_reported":1747160096,"current_range_meters":10000,"station_id":"ce4bhgh2rcd13ifvqfb0","pricing_plan_id":"cebpf4jnsgd1na2vs0mg"},{"bike_id":"0079b1d1-d646-4020-9d35-f22f87ea5f43","system_id":"levelo_inurba_marseille","lat":43.33023,"lon":5.39042,"is_reserved":false,"is_disabled":false,"rental_uris":{"android":"levelo://app?vid=0079b1d1-d646-4020-9d35-f22f87ea5f43","ios":"levelo://app?vid=0079b1d1-d646-4020-9d35-f22f87ea5f43"},"vehicle_type_id":"4","last_reported":1747160096,"current_range_meters":10000,"station_id":"ce4bhr92rcd13ifvqhrg","pricing_plan_id":"cebpf4jnsgd1na2vs0mg"},{"bike_id":"29feed6a-27db-408c-8406-ceaf0185908d","system_id":"levelo_inurba_marseille","lat":43.29628,"lon":5.40597,"is_reserved":false,"is_disabled":false,"rental_uris":{"android":"levelo://app?vid=29feed6a-27db-408c-8406-ceaf0185908d","ios":"levelo://app?vid=29feed6a-27db-408c-8406-ceaf0185908d"},"vehicle_type_id":"4","last_reported":1747160096,"current_range_meters":10800,"station_id":"ce4bh0h2rcd13ifvqd60","pricing_plan_id":"cebpf4jnsgd1na2vs0mg"},{"bike_id":"6a09621a-497c-4788-8ec4-80eedf84ba0c","system_id":"levelo_inurba_marseille","lat":43.28849,"lon":5.39312,"is_reserved":false,"is_disabled":false,"rental_uris":{"android":"levelo://app?vid=6a09621a-497c-4788-8ec4-80eedf84ba0c","ios":"levelo://app?vid=6a09621a-497c-4788-8ec4-80eedf84ba0c"},"vehicle_type_id":"4","last_reported":1747160096,"current_range_meters":10800,"station_id":"ce4bh2p2rcd13ifvqdi0","pricing_plan_id":"cebpf4jnsgd1na2vs0mg"},{"bike_id":"9920a855-905f-44a7-9b54-730d2473067d","system_id":"levelo_inurba_marseille","lat":43.29217,"lon":5.36046,"is_reserved":false,"is_disabled":false,"rental_uris":{"android":"levelo://app?vid=9920a855-905f-44a7-9b54-730d2473067d","ios":"levelo://app?vid=9920a855-905f-44a7-9b54-730d2473067d"},"vehicle_type_id":"4","last_reported":1747160096,"current_range_meters":10800,"station_id":"ce4bhbh2rcd13ifvqeqg","pricing_plan_id":"cebpf4jnsgd1na2vs0mg"},{"bike_id":"4fb8fec9-981a-4e29-83cf-7ca4a536c370","system_id":"levelo_inurba_marseille","lat":43.25495,"lon":5.37647,"is_reserved":false,"is_disabled":false,"rental_uris":{"android":"levelo://app?vid=4fb8fec9-981a-4e29-83cf-7ca4a536c370","ios":"levelo://app?vid=4fb8fec9-981a-4e29-83cf-7ca4a536c370"},"vehicle_type_id":"4","last_reported":1747160096,"current_range_meters":10800,"station_id":"ce4bhh12rcd13ifvqff0","pricing_plan_id":"cebpf4jnsgd1na2vs0mg"},{"bike_id":"11e495cb-e2b0-4615-bc23-02982335ed54","system_id":"levelo_inurba_marseille","lat":43.25087,"lon":5.39521,"is_reserved":false,"is_disabled":false,"rental_uris":{"android":"levelo://app?vid=11e495cb-e2b0-4615-bc23-02982335ed54","ios":"levelo://app?vid=11e495cb-e2b0-4615-bc23-02982335ed54"},"vehicle_type_id":"4","last_reported":1747160096,"current_range_meters":10800,"station_id":"ce4bhm12rcd13ifvqgkg","pricing_plan_id":"cebpf4jnsgd1na2vs0mg"},{"bike_id":"9c6415ed-b3e1-45d4-97ca-1675bbf7d1d7","system_id":"levelo_inurba_marseille","lat":43.3234,"lon":5.40628,"is_reserved":false,"is_disabled":false,"rental_uris":{"android":"levelo://app?vid=9c6415ed-b3e1-45d4-97ca-1675bbf7d1d7","ios":"levelo://app?vid=9c6415ed-b3e1-45d4-97ca-1675bbf7d1d7"},"vehicle_type_id":"4","last_reported":1747160096,"current_range_meters":10800,"station_id":"ce4bhq92rcd13ifvqhjg","pricing_plan_id":"cebpf4jnsgd1na2vs0mg"},{"bike_id":"fa208e2c-3577-4fd4-b6cc-937e4266aa1b","system_id":"levelo_inurba_marseille","lat":43.3041,"lon":5.3889,"is_reserved":false,"is_disabled":false,"rental_uris":{"android":"levelo://app?vid=fa208e2c-3577-4fd4-b6cc-937e4266aa1b","ios":"levelo://app?vid=fa208e2c-3577-4fd4-b6cc-937e4266aa1b"},"vehicle_type_id":"4","last_reported":1747160096,"current_range_meters":11200,"station_id":"ce4bgk12rcd13ifvqbi0","pricing_plan_id":"cebpf4jnsgd1na2vs0mg"},{"bike_id":"fe5af662-0723-402d-88ea-658951051a58","system_id":"levelo_inurba_marseille","lat":43.27814,"lon":5.40648,"is_reserved":false,"is_disabled":false,"rental_uris":{"android":"levelo://app?vid=fe5af662-0723-402d-88ea-658951051a58","ios":"levelo://app?vid=fe5af662-0723-402d-88ea-658951051a58"},"vehicle_type_id":"4","last_reported":1747160096,"current_range_meters":11200,"station_id":"ce4bhnh2rcd13ifvqgtg","pricing_plan_id":"cebpf4jnsgd1na2vs0mg"},{"bike_id":"5843fd61-97f0-44a0-9f09-5036e39f4492","system_id":"levelo_inurba_marseille","lat":43.33023,"lon":5.39036,"is_reserved":false,"is_disabled":false,"rental_uris":{"android":"levelo://app?vid=5843fd61-97f0-44a0-9f09-5036e39f4492","ios":"levelo://app?vid=5843fd61-97f0-44a0-9f09-5036e39f4492"},"vehicle_type_id":"4","last_reported":1747160096,"current_range_meters":11200,"station_id":"ce4bhr92rcd13ifvqhrg","pricing_plan_id":"cebpf4jnsgd1na2vs0mg"},{"bike_id":"2c1b5e23-a494-4bb5-a49e-d282828af52b","system_id":"levelo_inurba_marseille","lat":43.2306,"lon":5.35491,"is_reserved":false,"is_disabled":false,"rental_uris":{"android":"levelo://app?vid=2c1b5e23-a494-4bb5-a49e-d282828af52b","ios":"levelo://app?vid=2c1b5e23-a494-4bb5-a49e-d282828af52b"},"vehicle_type_id":"4","last_reported":1747160096,"current_range_meters":11200,"station_id":"cpo3342slgdg3j2ifvpg","pricing_plan_id":"cebpf4jnsgd1na2vs0mg"},{"bike_id":"bae0709b-c933-441a-ab47-3aad58f66d78","system_id":"levelo_inurba_marseille","lat":43.21747,"lon":5.34605,"is_reserved":false,"is_disabled":false,"rental_uris":{"android":"levelo://app?vid=bae0709b-c933-441a-ab47-3aad58f66d78","ios":"levelo://app?vid=bae0709b-c933-441a-ab47-3aad58f66d78"},"vehicle_type_id":"4","last_reported":1747160096,"current_range_meters":11200,"station_id":"st_cvj6r9ubvosntc0bgbag","pricing_plan_id":"cebpf4jnsgd1na2vs0mg"},{"bike_id":"8b524f0b-61df-40cf-8852-4a7f53f82894","system_id":"levelo_inurba_marseille","lat":43.30136,"lon":5.38772,"is_reserved":false,"is_disabled":false,"rental_uris":{"android":"levelo://app?vid=8b524f0b-61df-40cf-8852-4a7f53f82894","ios":"levelo://app?vid=8b524f0b-61df-40cf-8852-4a7f53f82894"},"vehicle_type_id":"4","last_reported":1747160096,"current_range_meters":11600,"station_id":"ce4bghh2rcd13ifvqb60","pricing_plan_id":"cebpf4jnsgd1na2vs0mg"},{"bike_id":"9abf956f-330a-4b60-b728-d986a0d4748e","system_id":"levelo_inurba_marseille","lat":43.30657,"lon":5.401,"is_reserved":false,"is_disabled":false,"rental_uris":{"android":"levelo://app?vid=9abf956f-330a-4b60-b728-d986a0d4748e","ios":"levelo://app?vid=9abf956f-330a-4b60-b728-d986a0d4748e"},"vehicle_type_id":"4","last_reported":1747160096,"current_range_meters":11600,"station_id":"ce4bh112rcd13ifvqda0","pricing_plan_id":"cebpf4jnsgd1na2vs0mg"},{"bike_id":"77c44d3c-ca21-4ca2-9b3a-3aefdf49e704","system_id":"levelo_inurba_marseille","lat":43.24079,"lon":5.37754,"is_reserved":false,"is_disabled":false,"rental_uris":{"android":"levelo://app?vid=77c44d3c-ca21-4ca2-9b3a-3aefdf49e704","ios":"levelo://app?vid=77c44d3c-ca21-4ca2-9b3a-3aefdf49e704"},"vehicle_type_id":"4","last_reported":1747160096,"current_range_meters":11600,"station_id":"ce4bhnp2rcd13ifvqgvg","pricing_plan_id":"cebpf4jnsgd1na2vs0mg"},{"bike_id":"fe27bac4-be61-433c-9fb1-0983a58cf50d","system_id":"levelo_inurba_marseille","lat":43.337216,"lon":5.391849,"is_reserved":false,"is_disabled":false,"rental_uris":{"android":"levelo://app?vid=fe27bac4-be61-433c-9fb1-0983a58cf50d","ios":"levelo://app?vid=fe27bac4-be61-433c-9fb1-0983a58cf50d"},"vehicle_type_id":"4","last_reported":1747160096,"current_range_meters":11600,"station_id":"ce4bhr92rcd13ifvqhsg","pricing_plan_id":"cebpf4jnsgd1na2vs0mg"},{"bike_id":"12ad34f2-cb61-40cd-9aae-665190169ccd","system_id":"levelo_inurba_marseille","lat":43.307739,"lon":5.376495,"is_reserved":false,"is_disabled":false,"rental_uris":{"android":"levelo://app?vid=12ad34f2-cb61-40cd-9aae-665190169ccd","ios":"levelo://app?vid=12ad34f2-cb61-40cd-9aae-665190169ccd"},"vehicle_type_id":"4","last_reported":1747160096,"current_range_meters":12000,"station_id":"ce4bgv92rcd13ifvqcq0","pricing_plan_id":"cebpf4jnsgd1na2vs0mg"},{"bike_id":"ab2d676b-4721-44a8-bca6-5264e8c0c2aa","system_id":"levelo_inurba_marseille","lat":43.285,"lon":5.38558,"is_reserved":false,"is_disabled":false,"rental_uris":{"android":"levelo://app?vid=ab2d676b-4721-44a8-bca6-5264e8c0c2aa","ios":"levelo://app?vid=ab2d676b-4721-44a8-bca6-5264e8c0c2aa"},"vehicle_type_id":"4","last_reported":1747160096,"current_range_meters":12000,"station_id":"ce4bh8p2rcd13ifvqeb0","pricing_plan_id":"cebpf4jnsgd1na2vs0mg"},{"bike_id":"443a1ffb-8a91-483b-a3c2-d2f7c531b35f","system_id":"levelo_inurba_marseille","lat":43.29003,"lon":5.35609,"is_reserved":false,"is_disabled":false,"rental_uris":{"android":"levelo://app?vid=443a1ffb-8a91-483b-a3c2-d2f7c531b35f","ios":"levelo://app?vid=443a1ffb-8a91-483b-a3c2-d2f7c531b35f"},"vehicle_type_id":"4","last_reported":1747160096,"current_range_meters":12000,"station_id":"ce4bhb92rcd13ifvqen0","pricing_plan_id":"cebpf4jnsgd1na2vs0mg"},{"bike_id":"e486d79c-adad-4f84-8422-f92282ad57ce","system_id":"levelo_inurba_marseille","lat":43.27503,"lon":5.42455,"is_reserved":false,"is_disabled":false,"rental_uris":{"android":"levelo://app?vid=e486d79c-adad-4f84-8422-f92282ad57ce","ios":"levelo://app?vid=e486d79c-adad-4f84-8422-f92282ad57ce"},"vehicle_type_id":"4","last_reported":1747160096,"current_range_meters":12000,"station_id":"ce4bhn92rcd13ifvqgrg","pricing_plan_id":"cebpf4jnsgd1na2vs0mg"},{"bike_id":"29ca8818-f2ee-47ec-a332-2860bcc2fb2a","system_id":"levelo_inurba_marseille","lat":43.23192,"lon":5.3556,"is_reserved":false,"is_disabled":false,"rental_uris":{"android":"levelo://app?vid=29ca8818-f2ee-47ec-a332-2860bcc2fb2a","ios":"levelo://app?vid=29ca8818-f2ee-47ec-a332-2860bcc2fb2a"},"vehicle_type_id":"4","last_reported":1747160096,"current_range_meters":12000,"station_id":"ce4bhu92rcd13ifvqi70","pricing_plan_id":"cebpf4jnsgd1na2vs0mg"},{"bike_id":"7d8a940b-fa41-48ed-bc64-d4da3160240b","system_id":"levelo_inurba_marseille","lat":43.30822,"lon":5.37915,"is_reserved":false,"is_disabled":false,"rental_uris":{"android":"levelo://app?vid=7d8a940b-fa41-48ed-bc64-d4da3160240b","ios":"levelo://app?vid=7d8a940b-fa41-48ed-bc64-d4da3160240b"},"vehicle_type_id":"4","last_reported":1747160096,"current_range_meters":12400,"station_id":"","pricing_plan_id":"cebpf4jnsgd1na2vs0mg"},{"bike_id":"f992a421-1974-43d2-890b-13f18604b31c","system_id":"levelo_inurba_marseille","lat":43.24649,"lon":5.38887,"is_reserved":false,"is_disabled":false,"rental_uris":{"android":"levelo://app?vid=f992a421-1974-43d2-890b-13f18604b31c","ios":"levelo://app?vid=f992a421-1974-43d2-890b-13f18604b31c"},"vehicle_type_id":"4","last_reported":1747160096,"current_range_meters":12400,"station_id":"ce4bhg12rcd13ifvqf60","pricing_plan_id":"cebpf4jnsgd1na2vs0mg"},{"bike_id":"25a0d27a-7005-46db-a020-0bae846250c5","system_id":"levelo_inurba_marseille","lat":43.2756,"lon":5.38417,"is_reserved":false,"is_disabled":false,"rental_uris":{"android":"levelo://app?vid=25a0d27a-7005-46db-a020-0bae846250c5","ios":"levelo://app?vid=25a0d27a-7005-46db-a020-0bae846250c5"},"vehicle_type_id":"4","last_reported":1747160096,"current_range_meters":12400,"station_id":"ce4bhh92rcd13ifvqfi0","pricing_plan_id":"cebpf4jnsgd1na2vs0mg"},{"bike_id":"d559a899-b1bd-4a71-a12e-4458bcd0cdbf","system_id":"levelo_inurba_marseille","lat":43.2306,"lon":5.3549,"is_reserved":false,"is_disabled":false,"rental_uris":{"android":"levelo://app?vid=d559a899-b1bd-4a71-a12e-4458bcd0cdbf","ios":"levelo://app?vid=d559a899-b1bd-4a71-a12e-4458bcd0cdbf"},"vehicle_type_id":"4","last_reported":1747160096,"current_range_meters":12400,"station_id":"cpo3342slgdg3j2ifvpg","pricing_plan_id":"cebpf4jnsgd1na2vs0mg"},{"bike_id":"fcca4540-f146-4fc3-b8c5-02eea7992353","system_id":"levelo_inurba_marseille","lat":43.27169,"lon":5.40993,"is_reserved":false,"is_disabled":false,"rental_uris":{"android":"levelo://app?vid=fcca4540-f146-4fc3-b8c5-02eea7992353","ios":"levelo://app?vid=fcca4540-f146-4fc3-b8c5-02eea7992353"},"vehicle_type_id":"4","last_reported":1747160096,"current_range_meters":13600,"station_id":"ce4bhl12rcd13ifvqgf0","pricing_plan_id":"cebpf4jnsgd1na2vs0mg"},{"bike_id":"382da604-28cd-407b-adb2-1bed2bb48c46","system_id":"levelo_inurba_marseille","lat":43.32346,"lon":5.38471,"is_reserved":false,"is_disabled":false,"rental_uris":{"android":"levelo://app?vid=382da604-28cd-407b-adb2-1bed2bb48c46","ios":"levelo://app?vid=382da604-28cd-407b-adb2-1bed2bb48c46"},"vehicle_type_id":"4","last_reported":1747160096,"current_range_meters":14000,"station_id":"","pricing_plan_id":"cebpf4jnsgd1na2vs0mg"},{"bike_id":"0a937b37-2a73-4b79-bebe-c5952c78432f","system_id":"levelo_inurba_marseille","lat":43.286147,"lon":5.350977,"is_reserved":false,"is_disabled":false,"rental_uris":{"android":"levelo://app?vid=0a937b37-2a73-4b79-bebe-c5952c78432f","ios":"levelo://app?vid=0a937b37-2a73-4b79-bebe-c5952c78432f"},"vehicle_type_id":"4","last_reported":1747160096,"current_range_meters":14000,"station_id":"ce4bhch2rcd13ifvqeug","pricing_plan_id":"cebpf4jnsgd1na2vs0mg"},{"bike_id":"13efca26-4085-42ed-861f-d7bd74c23308","system_id":"levelo_inurba_marseille","lat":43.28443,"lon":5.39208,"is_reserved":false,"is_disabled":false,"rental_uris":{"android":"levelo://app?vid=13efca26-4085-42ed-861f-d7bd74c23308","ios":"levelo://app?vid=13efca26-4085-42ed-861f-d7bd74c23308"},"vehicle_type_id":"4","last_reported":1747160096,"current_range_meters":14000,"station_id":"ce4bhoh2rcd13ifvqh5g","pricing_plan_id":"cebpf4jnsgd1na2vs0mg"},{"bike_id":"54d0d152-a727-4203-b04b-7f8652f1c1c5","system_id":"levelo_inurba_marseille","lat":43.23194,"lon":5.35555,"is_reserved":false,"is_disabled":false,"rental_uris":{"android":"levelo://app?vid=54d0d152-a727-4203-b04b-7f8652f1c1c5","ios":"levelo://app?vid=54d0d152-a727-4203-b04b-7f8652f1c1c5"},"vehicle_type_id":"4","last_reported":1747160096,"current_range_meters":14000,"station_id":"ce4bhu92rcd13ifvqi70","pricing_plan_id":"cebpf4jnsgd1na2vs0mg"},{"bike_id":"ee95d7b1-23aa-4ba2-8604-c3c7e16b2172","system_id":"levelo_inurba_marseille","lat":43.289456,"lon":5.36635,"is_reserved":false,"is_disabled":false,"rental_uris":{"android":"levelo://app?vid=ee95d7b1-23aa-4ba2-8604-c3c7e16b2172","ios":"levelo://app?vid=ee95d7b1-23aa-4ba2-8604-c3c7e16b2172"},"vehicle_type_id":"4","last_reported":1747160096,"current_range_meters":14400,"station_id":"ce4bhap2rcd13ifvqek0","pricing_plan_id":"cebpf4jnsgd1na2vs0mg"},{"bike_id":"c4786ded-3433-45df-b69f-aad4168b36d3","system_id":"levelo_inurba_marseille","lat":43.29216,"lon":5.36072,"is_reserved":false,"is_disabled":false,"rental_uris":{"android":"levelo://app?vid=c4786ded-3433-45df-b69f-aad4168b36d3","ios":"levelo://app?vid=c4786ded-3433-45df-b69f-aad4168b36d3"},"vehicle_type_id":"4","last_reported":1747160096,"current_range_meters":14400,"station_id":"ce4bhbh2rcd13ifvqeqg","pricing_plan_id":"cebpf4jnsgd1na2vs0mg"},{"bike_id":"4c9efc29-aaf8-4cf9-8666-6e7f3bbfe0a7","system_id":"levelo_inurba_marseille","lat":43.286173,"lon":5.3511,"is_reserved":false,"is_disabled":false,"rental_uris":{"android":"levelo://app?vid=4c9efc29-aaf8-4cf9-8666-6e7f3bbfe0a7","ios":"levelo://app?vid=4c9efc29-aaf8-4cf9-8666-6e7f3bbfe0a7"},"vehicle_type_id":"4","last_reported":1747160096,"current_range_meters":14400,"station_id":"ce4bhch2rcd13ifvqeug","pricing_plan_id":"cebpf4jnsgd1na2vs0mg"},{"bike_id":"b0242bf4-b83b-4d62-aa3e-64266801fbe9","system_id":"levelo_inurba_marseille","lat":43.31081,"lon":5.42443,"is_reserved":false,"is_disabled":false,"rental_uris":{"android":"levelo://app?vid=b0242bf4-b83b-4d62-aa3e-64266801fbe9","ios":"levelo://app?vid=b0242bf4-b83b-4d62-aa3e-64266801fbe9"},"vehicle_type_id":"4","last_reported":1747160096,"current_range_meters":14400,"station_id":"ce4bhp92rcd13ifvqhag","pricing_plan_id":"cebpf4jnsgd1na2vs0mg"},{"bike_id":"c5b36766-2417-4717-bb20-6045102f8eef","system_id":"levelo_inurba_marseille","lat":43.31262,"lon":5.36887,"is_reserved":false,"is_disabled":false,"rental_uris":{"android":"levelo://app?vid=c5b36766-2417-4717-bb20-6045102f8eef","ios":"levelo://app?vid=c5b36766-2417-4717-bb20-6045102f8eef"},"vehicle_type_id":"4","last_reported":1747160096,"current_range_meters":14800,"station_id":"ce4bgl92rcd13ifvqbq0","pricing_plan_id":"cebpf4jnsgd1na2vs0mg"},{"bike_id":"9707d057-042b-4b0f-97c7-74439c91b61f","system_id":"levelo_inurba_marseille","lat":43.31083,"lon":5.42427,"is_reserved":false,"is_disabled":false,"rental_uris":{"android":"levelo://app?vid=9707d057-042b-4b0f-97c7-74439c91b61f","ios":"levelo://app?vid=9707d057-042b-4b0f-97c7-74439c91b61f"},"vehicle_type_id":"4","last_reported":1747160096,"current_range_meters":14800,"station_id":"ce4bhp92rcd13ifvqhag","pricing_plan_id":"cebpf4jnsgd1na2vs0mg"},{"bike_id":"fc32a7af-3a27-4e95-9e32-a4465df36452","system_id":"levelo_inurba_marseille","lat":43.29932,"lon":5.36561,"is_reserved":false,"is_disabled":false,"rental_uris":{"android":"levelo://app?vid=fc32a7af-3a27-4e95-9e32-a4465df36452","ios":"levelo://app?vid=fc32a7af-3a27-4e95-9e32-a4465df36452"},"vehicle_type_id":"4","last_reported":1747160096,"current_range_meters":15200,"station_id":"ce4bgm92rcd13ifvqbr0","pricing_plan_id":"cebpf4jnsgd1na2vs0mg"},{"bike_id":"258e0742-a011-4316-af26-b3a388a84f7c","system_id":"levelo_inurba_marseille","lat":43.28827,"lon":5.35809,"is_reserved":false,"is_disabled":false,"rental_uris":{"android":"levelo://app?vid=258e0742-a011-4316-af26-b3a388a84f7c","ios":"levelo://app?vid=258e0742-a011-4316-af26-b3a388a84f7c"},"vehicle_type_id":"4","last_reported":1747160096,"current_range_meters":15200,"station_id":"ce4bhb12rcd13ifvqem0","pricing_plan_id":"cebpf4jnsgd1na2vs0mg"},{"bike_id":"12431e31-acb3-445e-9c94-eaff9e4821a8","system_id":"levelo_inurba_marseille","lat":43.2815,"lon":5.42646,"is_reserved":false,"is_disabled":false,"rental_uris":{"android":"levelo://app?vid=12431e31-acb3-445e-9c94-eaff9e4821a8","ios":"levelo://app?vid=12431e31-acb3-445e-9c94-eaff9e4821a8"},"vehicle_type_id":"4","last_reported":1747160096,"current_range_meters":15200,"station_id":"ce4bhnh2rcd13ifvqgug","pricing_plan_id":"cebpf4jnsgd1na2vs0mg"},{"bike_id":"76bcca4a-4878-4115-93f1-0b8e8ab33508","system_id":"levelo_inurba_marseille","lat":43.29152,"lon":5.35809,"is_reserved":false,"is_disabled":false,"rental_uris":{"android":"levelo://app?vid=76bcca4a-4878-4115-93f1-0b8e8ab33508","ios":"levelo://app?vid=76bcca4a-4878-4115-93f1-0b8e8ab33508"},"vehicle_type_id":"4","last_reported":1747160096,"current_range_meters":16000,"station_id":"","pricing_plan_id":"cebpf4jnsgd1na2vs0mg"},{"bike_id":"51a0b06f-08e9-4d1e-bc01-692bdd43b76f","system_id":"levelo_inurba_marseille","lat":43.31109,"lon":5.37771,"is_reserved":false,"is_disabled":false,"rental_uris":{"android":"levelo://app?vid=51a0b06f-08e9-4d1e-bc01-692bdd43b76f","ios":"levelo://app?vid=51a0b06f-08e9-4d1e-bc01-692bdd43b76f"},"vehicle_type_id":"4","last_reported":1747160096,"current_range_meters":16000,"station_id":"ce4bgt92rcd13ifvqcg0","pricing_plan_id":"cebpf4jnsgd1na2vs0mg"},{"bike_id":"77e2b8e1-05b4-4697-98dd-7f301d0dfb33","system_id":"levelo_inurba_marseille","lat":43.28999,"lon":5.35614,"is_reserved":false,"is_disabled":false,"rental_uris":{"android":"levelo://app?vid=77e2b8e1-05b4-4697-98dd-7f301d0dfb33","ios":"levelo://app?vid=77e2b8e1-05b4-4697-98dd-7f301d0dfb33"},"vehicle_type_id":"4","last_reported":1747160096,"current_range_meters":16000,"station_id":"ce4bhb92rcd13ifvqen0","pricing_plan_id":"cebpf4jnsgd1na2vs0mg"},{"bike_id":"42cfaabc-d4d4-405c-ab84-52ce3ce3032a","system_id":"levelo_inurba_marseille","lat":43.31712,"lon":5.43611,"is_reserved":false,"is_disabled":false,"rental_uris":{"android":"levelo://app?vid=42cfaabc-d4d4-405c-ab84-52ce3ce3032a","ios":"levelo://app?vid=42cfaabc-d4d4-405c-ab84-52ce3ce3032a"},"vehicle_type_id":"4","last_reported":1747160096,"current_range_meters":16400,"station_id":"","pricing_plan_id":"cebpf4jnsgd1na2vs0mg"},{"bike_id":"a79193cc-9585-4ea0-b743-cf12e501a0d9","system_id":"levelo_inurba_marseille","lat":43.31173,"lon":5.38719,"is_reserved":false,"is_disabled":false,"rental_uris":{"android":"levelo://app?vid=a79193cc-9585-4ea0-b743-cf12e501a0d9","ios":"levelo://app?vid=a79193cc-9585-4ea0-b743-cf12e501a0d9"},"vehicle_type_id":"4","last_reported":1747160096,"current_range_meters":16400,"station_id":"ce4bgv12rcd13ifvqcp0","pricing_plan_id":"cebpf4jnsgd1na2vs0mg"},{"bike_id":"a60683f3-d94a-4a4b-a7cc-2a89323d8160","system_id":"levelo_inurba_marseille","lat":43.306401,"lon":5.400857,"is_reserved":false,"is_disabled":false,"rental_uris":{"android":"levelo://app?vid=a60683f3-d94a-4a4b-a7cc-2a89323d8160","ios":"levelo://app?vid=a60683f3-d94a-4a4b-a7cc-2a89323d8160"},"vehicle_type_id":"4","last_reported":1747160096,"current_range_meters":16400,"station_id":"ce4bh112rcd13ifvqda0","pricing_plan_id":"cebpf4jnsgd1na2vs0mg"},{"bike_id":"fd88d147-63d6-42fe-b4c7-d414c7af1e62","system_id":"levelo_inurba_marseille","lat":43.29264,"lon":5.38446,"is_reserved":false,"is_disabled":false,"rental_uris":{"android":"levelo://app?vid=fd88d147-63d6-42fe-b4c7-d414c7af1e62","ios":"levelo://app?vid=fd88d147-63d6-42fe-b4c7-d414c7af1e62"},"vehicle_type_id":"4","last_reported":1747160096,"current_range_meters":16400,"station_id":"ce4bh692rcd13ifvqea0","pricing_plan_id":"cebpf4jnsgd1na2vs0mg"},{"bike_id":"8b7c1567-1d6b-4457-a9e3-7cdb76c5b84a","system_id":"levelo_inurba_marseille","lat":43.24182,"lon":5.39725,"is_reserved":false,"is_disabled":false,"rental_uris":{"android":"levelo://app?vid=8b7c1567-1d6b-4457-a9e3-7cdb76c5b84a","ios":"levelo://app?vid=8b7c1567-1d6b-4457-a9e3-7cdb76c5b84a"},"vehicle_type_id":"4","last_reported":1747160096,"current_range_meters":16400,"station_id":"ce4bhn12rcd13ifvqgpg","pricing_plan_id":"cebpf4jnsgd1na2vs0mg"},{"bike_id":"9d76660f-c284-49a2-8765-48337aa51471","system_id":"levelo_inurba_marseille","lat":43.321107,"lon":5.367869,"is_reserved":false,"is_disabled":false,"rental_uris":{"android":"levelo://app?vid=9d76660f-c284-49a2-8765-48337aa51471","ios":"levelo://app?vid=9d76660f-c284-49a2-8765-48337aa51471"},"vehicle_type_id":"4","last_reported":1747160096,"current_range_meters":16400,"station_id":"ce4bhrh2rcd13ifvqhug","pricing_plan_id":"cebpf4jnsgd1na2vs0mg"},{"bike_id":"0c893fb7-8626-4706-85bf-f404b871dea5","system_id":"levelo_inurba_marseille","lat":43.281278,"lon":5.445896,"is_reserved":false,"is_disabled":false,"rental_uris":{"android":"levelo://app?vid=0c893fb7-8626-4706-85bf-f404b871dea5","ios":"levelo://app?vid=0c893fb7-8626-4706-85bf-f404b871dea5"},"vehicle_type_id":"4","last_reported":1747160096,"current_range_meters":16800,"station_id":"","pricing_plan_id":"cebpf4jnsgd1na2vs0mg"},{"bike_id":"97151f99-561b-4190-bda3-8de9517168a1","system_id":"levelo_inurba_marseille","lat":43.30926,"lon":5.40145,"is_reserved":false,"is_disabled":false,"rental_uris":{"android":"levelo://app?vid=97151f99-561b-4190-bda3-8de9517168a1","ios":"levelo://app?vid=97151f99-561b-4190-bda3-8de9517168a1"},"vehicle_type_id":"4","last_reported":1747160096,"current_range_meters":16800,"station_id":"ce4bgvp2rcd13ifvqct0","pricing_plan_id":"cebpf4jnsgd1na2vs0mg"},{"bike_id":"b789b6de-015a-4d34-8f20-ac64a1867b00","system_id":"levelo_inurba_marseille","lat":43.29865,"lon":5.39743,"is_reserved":false,"is_disabled":false,"rental_uris":{"android":"levelo://app?vid=b789b6de-015a-4d34-8f20-ac64a1867b00","ios":"levelo://app?vid=b789b6de-015a-4d34-8f20-ac64a1867b00"},"vehicle_type_id":"4","last_reported":1747160096,"current_range_meters":16800,"station_id":"ce4bh0h2rcd13ifvqd50","pricing_plan_id":"cebpf4jnsgd1na2vs0mg"},{"bike_id":"ebbb3db5-66b4-4907-9a7b-ed749cb4c62b","system_id":"levelo_inurba_marseille","lat":43.31754,"lon":5.39025,"is_reserved":false,"is_disabled":false,"rental_uris":{"android":"levelo://app?vid=ebbb3db5-66b4-4907-9a7b-ed749cb4c62b","ios":"levelo://app?vid=ebbb3db5-66b4-4907-9a7b-ed749cb4c62b"},"vehicle_type_id":"4","last_reported":1747160096,"current_range_meters":16800,"station_id":"ce4bhqp2rcd13ifvqhng","pricing_plan_id":"cebpf4jnsgd1na2vs0mg"},{"bike_id":"1e297e0e-a907-489c-9a22-1dfb89bfb64f","system_id":"levelo_inurba_marseille","lat":43.29243,"lon":5.36419,"is_reserved":false,"is_disabled":false,"rental_uris":{"android":"levelo://app?vid=1e297e0e-a907-489c-9a22-1dfb89bfb64f","ios":"levelo://app?vid=1e297e0e-a907-489c-9a22-1dfb89bfb64f"},"vehicle_type_id":"4","last_reported":1747160096,"current_range_meters":17200,"station_id":"","pricing_plan_id":"cebpf4jnsgd1na2vs0mg"},{"bike_id":"4b9e409a-cfbc-4d41-b8ea-b62bfaf45f0a","system_id":"levelo_inurba_marseille","lat":43.2953,"lon":5.39038,"is_reserved":false,"is_disabled":false,"rental_uris":{"android":"levelo://app?vid=4b9e409a-cfbc-4d41-b8ea-b62bfaf45f0a","ios":"levelo://app?vid=4b9e409a-cfbc-4d41-b8ea-b62bfaf45f0a"},"vehicle_type_id":"4","last_reported":1747160096,"current_range_meters":17200,"station_id":"ce4bh3p2rcd13ifvqdp0","pricing_plan_id":"cebpf4jnsgd1na2vs0mg"},{"bike_id":"34b79a68-3639-4d09-8a4a-9a4025717ee0","system_id":"levelo_inurba_marseille","lat":43.30591,"lon":5.39363,"is_reserved":false,"is_disabled":false,"rental_uris":{"android":"levelo://app?vid=34b79a68-3639-4d09-8a4a-9a4025717ee0","ios":"levelo://app?vid=34b79a68-3639-4d09-8a4a-9a4025717ee0"},"vehicle_type_id":"4","last_reported":1747160096,"current_range_meters":17600,"station_id":"","pricing_plan_id":"cebpf4jnsgd1na2vs0mg"},{"bike_id":"455c641a-3f91-4c68-b0d9-1070e8b508d7","system_id":"levelo_inurba_marseille","lat":43.2657,"lon":5.39021,"is_reserved":false,"is_disabled":false,"rental_uris":{"android":"levelo://app?vid=455c641a-3f91-4c68-b0d9-1070e8b508d7","ios":"levelo://app?vid=455c641a-3f91-4c68-b0d9-1070e8b508d7"},"vehicle_type_id":"4","last_reported":1747160096,"current_range_meters":17600,"station_id":"ce4bhe12rcd13ifvqf30","pricing_plan_id":"cebpf4jnsgd1na2vs0mg"},{"bike_id":"13c4f78c-6a36-40ae-a90b-6a6df66e19e6","system_id":"levelo_inurba_marseille","lat":43.2844,"lon":5.39188,"is_reserved":false,"is_disabled":false,"rental_uris":{"android":"levelo://app?vid=13c4f78c-6a36-40ae-a90b-6a6df66e19e6","ios":"levelo://app?vid=13c4f78c-6a36-40ae-a90b-6a6df66e19e6"},"vehicle_type_id":"4","last_reported":1747160096,"current_range_meters":17600,"station_id":"ce4bhoh2rcd13ifvqh5g","pricing_plan_id":"cebpf4jnsgd1na2vs0mg"},{"bike_id":"f59c0111-1c2f-41ad-a22f-7cedb6051377","system_id":"levelo_inurba_marseille","lat":43.29301,"lon":5.37464,"is_reserved":false,"is_disabled":false,"rental_uris":{"android":"levelo://app?vid=f59c0111-1c2f-41ad-a22f-7cedb6051377","ios":"levelo://app?vid=f59c0111-1c2f-41ad-a22f-7cedb6051377"},"vehicle_type_id":"4","last_reported":1747160096,"current_range_meters":18000,"station_id":"ce4bgi12rcd13ifvqb70","pricing_plan_id":"cebpf4jnsgd1na2vs0mg"},{"bike_id":"10f98a35-89c5-4475-9c01-49b1c98311db","system_id":"levelo_inurba_marseille","lat":43.27574,"lon":5.38404,"is_reserved":false,"is_disabled":false,"rental_uris":{"android":"levelo://app?vid=10f98a35-89c5-4475-9c01-49b1c98311db","ios":"levelo://app?vid=10f98a35-89c5-4475-9c01-49b1c98311db"},"vehicle_type_id":"4","last_reported":1747160096,"current_range_meters":18000,"station_id":"ce4bhh92rcd13ifvqfi0","pricing_plan_id":"cebpf4jnsgd1na2vs0mg"},{"bike_id":"6e3094ae-584b-4b23-8747-809792d486b5","system_id":"levelo_inurba_marseille","lat":43.21193,"lon":5.35082,"is_reserved":false,"is_disabled":false,"rental_uris":{"android":"levelo://app?vid=6e3094ae-584b-4b23-8747-809792d486b5","ios":"levelo://app?vid=6e3094ae-584b-4b23-8747-809792d486b5"},"vehicle_type_id":"4","last_reported":1747160096,"current_range_meters":18000,"station_id":"st_cvj6sg6p6f1abm77japg","pricing_plan_id":"cebpf4jnsgd1na2vs0mg"},{"bike_id":"2946e1ad-261a-4e55-b6e5-2947a1a09110","system_id":"levelo_inurba_marseille","lat":43.29768,"lon":5.37113,"is_reserved":false,"is_disabled":false,"rental_uris":{"android":"levelo://app?vid=2946e1ad-261a-4e55-b6e5-2947a1a09110","ios":"levelo://app?vid=2946e1ad-261a-4e55-b6e5-2947a1a09110"},"vehicle_type_id":"4","last_reported":1747160096,"current_range_meters":18800,"station_id":"ce4bgop2rcd13ifvqc1g","pricing_plan_id":"cebpf4jnsgd1na2vs0mg"},{"bike_id":"ddaa999c-b039-42a8-840e-d56af82334f9","system_id":"levelo_inurba_marseille","lat":43.29586,"lon":5.36738,"is_reserved":false,"is_disabled":false,"rental_uris":{"android":"levelo://app?vid=ddaa999c-b039-42a8-840e-d56af82334f9","ios":"levelo://app?vid=ddaa999c-b039-42a8-840e-d56af82334f9"},"vehicle_type_id":"4","last_reported":1747160096,"current_range_meters":19200,"station_id":"","pricing_plan_id":"cebpf4jnsgd1na2vs0mg"},{"bike_id":"8176f50a-5254-433b-9222-6b952da47774","system_id":"levelo_inurba_marseille","lat":43.30189,"lon":5.36622,"is_reserved":false,"is_disabled":false,"rental_uris":{"android":"levelo://app?vid=8176f50a-5254-433b-9222-6b952da47774","ios":"levelo://app?vid=8176f50a-5254-433b-9222-6b952da47774"},"vehicle_type_id":"4","last_reported":1747160096,"current_range_meters":19200,"station_id":"ce4bgrh2rcd13ifvqc8g","pricing_plan_id":"cebpf4jnsgd1na2vs0mg"},{"bike_id":"54bc9b13-641f-450b-b0e5-5529d1c574f8","system_id":"levelo_inurba_marseille","lat":43.31163,"lon":5.38727,"is_reserved":false,"is_disabled":false,"rental_uris":{"android":"levelo://app?vid=54bc9b13-641f-450b-b0e5-5529d1c574f8","ios":"levelo://app?vid=54bc9b13-641f-450b-b0e5-5529d1c574f8"},"vehicle_type_id":"4","last_reported":1747160096,"current_range_meters":19200,"station_id":"ce4bgv12rcd13ifvqcp0","pricing_plan_id":"cebpf4jnsgd1na2vs0mg"},{"bike_id":"1ec39fb7-fcce-4f02-b6b3-14336ad31f43","system_id":"levelo_inurba_marseille","lat":43.2845,"lon":5.35883,"is_reserved":false,"is_disabled":false,"rental_uris":{"android":"levelo://app?vid=1ec39fb7-fcce-4f02-b6b3-14336ad31f43","ios":"levelo://app?vid=1ec39fb7-fcce-4f02-b6b3-14336ad31f43"},"vehicle_type_id":"4","last_reported":1747160096,"current_range_meters":19200,"station_id":"ce4bhah2rcd13ifvqei0","pricing_plan_id":"cebpf4jnsgd1na2vs0mg"},{"bike_id":"84e9a3a8-e6a2-4bb8-8334-ef03a1ac41d8","system_id":"levelo_inurba_marseille","lat":43.27978,"lon":5.38749,"is_reserved":false,"is_disabled":false,"rental_uris":{"android":"levelo://app?vid=84e9a3a8-e6a2-4bb8-8334-ef03a1ac41d8","ios":"levelo://app?vid=84e9a3a8-e6a2-4bb8-8334-ef03a1ac41d8"},"vehicle_type_id":"4","last_reported":1747160096,"current_range_meters":19200,"station_id":"ce4bhg12rcd13ifvqf80","pricing_plan_id":"cebpf4jnsgd1na2vs0mg"},{"bike_id":"c5a6038e-e242-4c42-a6da-186787771b16","system_id":"levelo_inurba_marseille","lat":43.21746,"lon":5.34612,"is_reserved":false,"is_disabled":false,"rental_uris":{"android":"levelo://app?vid=c5a6038e-e242-4c42-a6da-186787771b16","ios":"levelo://app?vid=c5a6038e-e242-4c42-a6da-186787771b16"},"vehicle_type_id":"4","last_reported":1747160096,"current_range_meters":19200,"station_id":"st_cvj6r9ubvosntc0bgbag","pricing_plan_id":"cebpf4jnsgd1na2vs0mg"},{"bike_id":"91fc6559-1441-4ca9-8254-534f6be6e622","system_id":"levelo_inurba_marseille","lat":43.30148,"lon":5.38092,"is_reserved":false,"is_disabled":false,"rental_uris":{"android":"levelo://app?vid=91fc6559-1441-4ca9-8254-534f6be6e622","ios":"levelo://app?vid=91fc6559-1441-4ca9-8254-534f6be6e622"},"vehicle_type_id":"4","last_reported":1747160096,"current_range_meters":19600,"station_id":"ce4bgjp2rcd13ifvqbh0","pricing_plan_id":"cebpf4jnsgd1na2vs0mg"},{"bike_id":"722fd772-a065-498f-abe8-7ed982798be0","system_id":"levelo_inurba_marseille","lat":43.3132,"lon":5.397,"is_reserved":false,"is_disabled":false,"rental_uris":{"android":"levelo://app?vid=722fd772-a065-498f-abe8-7ed982798be0","ios":"levelo://app?vid=722fd772-a065-498f-abe8-7ed982798be0"},"vehicle_type_id":"4","last_reported":1747160096,"current_range_meters":19600,"station_id":"ce4bgvp2rcd13ifvqcu0","pricing_plan_id":"cebpf4jnsgd1na2vs0mg"},{"bike_id":"a2b1db34-0530-4024-9487-d169b6805ba1","system_id":"levelo_inurba_marseille","lat":43.29263,"lon":5.38434,"is_reserved":false,"is_disabled":false,"rental_uris":{"android":"levelo://app?vid=a2b1db34-0530-4024-9487-d169b6805ba1","ios":"levelo://app?vid=a2b1db34-0530-4024-9487-d169b6805ba1"},"vehicle_type_id":"4","last_reported":1747160096,"current_range_meters":19600,"station_id":"ce4bh692rcd13ifvqea0","pricing_plan_id":"cebpf4jnsgd1na2vs0mg"},{"bike_id":"77d1fd30-5b4c-4cd3-a0bb-c1a04b451f2e","system_id":"levelo_inurba_marseille","lat":43.2917,"lon":5.35799,"is_reserved":false,"is_disabled":false,"rental_uris":{"android":"levelo://app?vid=77d1fd30-5b4c-4cd3-a0bb-c1a04b451f2e","ios":"levelo://app?vid=77d1fd30-5b4c-4cd3-a0bb-c1a04b451f2e"},"vehicle_type_id":"4","last_reported":1747160096,"current_range_meters":19600,"station_id":"ce4bhb12rcd13ifvqel0","pricing_plan_id":"cebpf4jnsgd1na2vs0mg"},{"bike_id":"c66647f6-3e1c-44ca-82fd-17ab12b62003","system_id":"levelo_inurba_marseille","lat":43.26561,"lon":5.39019,"is_reserved":false,"is_disabled":false,"rental_uris":{"android":"levelo://app?vid=c66647f6-3e1c-44ca-82fd-17ab12b62003","ios":"levelo://app?vid=c66647f6-3e1c-44ca-82fd-17ab12b62003"},"vehicle_type_id":"4","last_reported":1747160096,"current_range_meters":19600,"station_id":"ce4bhe12rcd13ifvqf30","pricing_plan_id":"cebpf4jnsgd1na2vs0mg"},{"bike_id":"6e9fb99d-3a0e-4918-b305-e50ab9a00cae","system_id":"levelo_inurba_marseille","lat":43.26193,"lon":5.3745,"is_reserved":false,"is_disabled":false,"rental_uris":{"android":"levelo://app?vid=6e9fb99d-3a0e-4918-b305-e50ab9a00cae","ios":"levelo://app?vid=6e9fb99d-3a0e-4918-b305-e50ab9a00cae"},"vehicle_type_id":"4","last_reported":1747160096,"current_range_meters":19600,"station_id":"ce4bhgp2rcd13ifvqfc0","pricing_plan_id":"cebpf4jnsgd1na2vs0mg"},{"bike_id":"950faf9b-a3c9-4395-ab10-bd4ed134b978","system_id":"levelo_inurba_marseille","lat":43.243805,"lon":5.370672,"is_reserved":false,"is_disabled":false,"rental_uris":{"android":"levelo://app?vid=950faf9b-a3c9-4395-ab10-bd4ed134b978","ios":"levelo://app?vid=950faf9b-a3c9-4395-ab10-bd4ed134b978"},"vehicle_type_id":"4","last_reported":1747160096,"current_range_meters":19600,"station_id":"ce4bhhh2rcd13ifvqfk0","pricing_plan_id":"cebpf4jnsgd1na2vs0mg"},{"bike_id":"29ce2bff-29c9-4638-a93d-53611c79a41e","system_id":"levelo_inurba_marseille","lat":43.32363,"lon":5.38894,"is_reserved":false,"is_disabled":false,"rental_uris":{"android":"levelo://app?vid=29ce2bff-29c9-4638-a93d-53611c79a41e","ios":"levelo://app?vid=29ce2bff-29c9-4638-a93d-53611c79a41e"},"vehicle_type_id":"4","last_reported":1747160096,"current_range_meters":19600,"station_id":"ce4bhqp2rcd13ifvqhog","pricing_plan_id":"cebpf4jnsgd1na2vs0mg"},{"bike_id":"e9aa045c-dd51-4ddc-96de-6d21e9cf2b19","system_id":"levelo_inurba_marseille","lat":43.31178,"lon":5.38724,"is_reserved":false,"is_disabled":false,"rental_uris":{"android":"levelo://app?vid=e9aa045c-dd51-4ddc-96de-6d21e9cf2b19","ios":"levelo://app?vid=e9aa045c-dd51-4ddc-96de-6d21e9cf2b19"},"vehicle_type_id":"4","last_reported":1747160096,"current_range_meters":20000,"station_id":"ce4bgv12rcd13ifvqcp0","pricing_plan_id":"cebpf4jnsgd1na2vs0mg"},{"bike_id":"1c0f9c9d-6d7b-4163-a105-9087e0f18fc3","system_id":"levelo_inurba_marseille","lat":43.3015,"lon":5.3985,"is_reserved":false,"is_disabled":false,"rental_uris":{"android":"levelo://app?vid=1c0f9c9d-6d7b-4163-a105-9087e0f18fc3","ios":"levelo://app?vid=1c0f9c9d-6d7b-4163-a105-9087e0f18fc3"},"vehicle_type_id":"4","last_reported":1747160096,"current_range_meters":20000,"station_id":"ce4bh0h2rcd13ifvqd40","pricing_plan_id":"cebpf4jnsgd1na2vs0mg"},{"bike_id":"8c7bb7cb-4fc7-4d8d-99ed-5046162f8cd1","system_id":"levelo_inurba_marseille","lat":43.29262,"lon":5.38435,"is_reserved":false,"is_disabled":false,"rental_uris":{"android":"levelo://app?vid=8c7bb7cb-4fc7-4d8d-99ed-5046162f8cd1","ios":"levelo://app?vid=8c7bb7cb-4fc7-4d8d-99ed-5046162f8cd1"},"vehicle_type_id":"4","last_reported":1747160096,"current_range_meters":20000,"station_id":"ce4bh692rcd13ifvqea0","pricing_plan_id":"cebpf4jnsgd1na2vs0mg"},{"bike_id":"6809c0eb-b7e7-448f-9dbf-9f30344d28ff","system_id":"levelo_inurba_marseille","lat":43.29038,"lon":5.359287,"is_reserved":false,"is_disabled":false,"rental_uris":{"android":"levelo://app?vid=6809c0eb-b7e7-448f-9dbf-9f30344d28ff","ios":"levelo://app?vid=6809c0eb-b7e7-448f-9dbf-9f30344d28ff"},"vehicle_type_id":"4","last_reported":1747160096,"current_range_meters":20000,"station_id":"ce4bha92rcd13ifvqeg0","pricing_plan_id":"cebpf4jnsgd1na2vs0mg"},{"bike_id":"8e4435c1-885f-4f0a-9f4a-fe02b3a08c42","system_id":"levelo_inurba_marseille","lat":43.29229,"lon":5.36065,"is_reserved":false,"is_disabled":false,"rental_uris":{"android":"levelo://app?vid=8e4435c1-885f-4f0a-9f4a-fe02b3a08c42","ios":"levelo://app?vid=8e4435c1-885f-4f0a-9f4a-fe02b3a08c42"},"vehicle_type_id":"4","last_reported":1747160096,"current_range_meters":20000,"station_id":"ce4bhbh2rcd13ifvqeqg","pricing_plan_id":"cebpf4jnsgd1na2vs0mg"},{"bike_id":"644511a3-94a8-4d9e-a99e-a8a4681f0634","system_id":"levelo_inurba_marseille","lat":43.24178,"lon":5.39725,"is_reserved":false,"is_disabled":false,"rental_uris":{"android":"levelo://app?vid=644511a3-94a8-4d9e-a99e-a8a4681f0634","ios":"levelo://app?vid=644511a3-94a8-4d9e-a99e-a8a4681f0634"},"vehicle_type_id":"4","last_reported":1747160096,"current_range_meters":20000,"station_id":"ce4bhn12rcd13ifvqgpg","pricing_plan_id":"cebpf4jnsgd1na2vs0mg"},{"bike_id":"0cfed20f-6096-46eb-a9ee-f90ea6d010ca","system_id":"levelo_inurba_marseille","lat":43.2795,"lon":5.41044,"is_reserved":false,"is_disabled":false,"rental_uris":{"android":"levelo://app?vid=0cfed20f-6096-46eb-a9ee-f90ea6d010ca","ios":"levelo://app?vid=0cfed20f-6096-46eb-a9ee-f90ea6d010ca"},"vehicle_type_id":"4","last_reported":1747160096,"current_range_meters":20000,"station_id":"ce4bhnp2rcd13ifvqh0g","pricing_plan_id":"cebpf4jnsgd1na2vs0mg"},{"bike_id":"4fc49f79-fa67-4460-a03b-8373ee1b7092","system_id":"levelo_inurba_marseille","lat":43.26806,"lon":5.40271,"is_reserved":false,"is_disabled":false,"rental_uris":{"android":"levelo://app?vid=4fc49f79-fa67-4460-a03b-8373ee1b7092","ios":"levelo://app?vid=4fc49f79-fa67-4460-a03b-8373ee1b7092"},"vehicle_type_id":"4","last_reported":1747160096,"current_range_meters":20000,"station_id":"ce501612rcd8frsf0b60","pricing_plan_id":"cebpf4jnsgd1na2vs0mg"},{"bike_id":"5647a91f-31a6-41fb-82bb-83893a94fc73","system_id":"levelo_inurba_marseille","lat":43.21204,"lon":5.35064,"is_reserved":false,"is_disabled":false,"rental_uris":{"android":"levelo://app?vid=5647a91f-31a6-41fb-82bb-83893a94fc73","ios":"levelo://app?vid=5647a91f-31a6-41fb-82bb-83893a94fc73"},"vehicle_type_id":"4","last_reported":1747160096,"current_range_meters":20000,"station_id":"st_cvj6sg6p6f1abm77japg","pricing_plan_id":"cebpf4jnsgd1na2vs0mg"},{"bike_id":"cb49b400-585d-457f-bb45-590483c41134","system_id":"levelo_inurba_marseille","lat":43.295898,"lon":5.381061,"is_reserved":false,"is_disabled":false,"rental_uris":{"android":"levelo://app?vid=cb49b400-585d-457f-bb45-590483c41134","ios":"levelo://app?vid=cb49b400-585d-457f-bb45-590483c41134"},"vehicle_type_id":"4","last_reported":1747160096,"current_range_meters":20400,"station_id":"ce4bgl12rcd13ifvqbo0","pricing_plan_id":"cebpf4jnsgd1na2vs0mg"},{"bike_id":"a75400c3-3753-42e0-8b41-4397ee1afab6","system_id":"levelo_inurba_marseille","lat":43.28021,"lon":5.36959,"is_reserved":false,"is_disabled":false,"rental_uris":{"android":"levelo://app?vid=a75400c3-3753-42e0-8b41-4397ee1afab6","ios":"levelo://app?vid=a75400c3-3753-42e0-8b41-4397ee1afab6"},"vehicle_type_id":"4","last_reported":1747160096,"current_range_meters":20400,"station_id":"ce4bha12rcd13ifvqef0","pricing_plan_id":"cebpf4jnsgd1na2vs0mg"},{"bike_id":"6a7de738-32bb-4dbc-a47f-74f971d1da87","system_id":"levelo_inurba_marseille","lat":43.27172,"lon":5.40992,"is_reserved":false,"is_disabled":false,"rental_uris":{"android":"levelo://app?vid=6a7de738-32bb-4dbc-a47f-74f971d1da87","ios":"levelo://app?vid=6a7de738-32bb-4dbc-a47f-74f971d1da87"},"vehicle_type_id":"4","last_reported":1747160096,"current_range_meters":20400,"station_id":"ce4bhl12rcd13ifvqgf0","pricing_plan_id":"cebpf4jnsgd1na2vs0mg"},{"bike_id":"5c8b9c5b-5c2a-483e-865d-ae36047d40b5","system_id":"levelo_inurba_marseille","lat":43.307601,"lon":5.435643,"is_reserved":false,"is_disabled":false,"rental_uris":{"android":"levelo://app?vid=5c8b9c5b-5c2a-483e-865d-ae36047d40b5","ios":"levelo://app?vid=5c8b9c5b-5c2a-483e-865d-ae36047d40b5"},"vehicle_type_id":"4","last_reported":1747160096,"current_range_meters":20800,"station_id":"","pricing_plan_id":"cebpf4jnsgd1na2vs0mg"},{"bike_id":"c77744cd-dd85-473a-952b-e9873b6afa4f","system_id":"levelo_inurba_marseille","lat":43.33222,"lon":5.40436,"is_reserved":false,"is_disabled":false,"rental_uris":{"android":"levelo://app?vid=c77744cd-dd85-473a-952b-e9873b6afa4f","ios":"levelo://app?vid=c77744cd-dd85-473a-952b-e9873b6afa4f"},"vehicle_type_id":"4","last_reported":1747160096,"current_range_meters":20800,"station_id":"","pricing_plan_id":"cebpf4jnsgd1na2vs0mg"},{"bike_id":"ac0112c9-313e-422c-910b-a3523b05b0c9","system_id":"levelo_inurba_marseille","lat":43.23039,"lon":5.35497,"is_reserved":false,"is_disabled":false,"rental_uris":{"android":"levelo://app?vid=ac0112c9-313e-422c-910b-a3523b05b0c9","ios":"levelo://app?vid=ac0112c9-313e-422c-910b-a3523b05b0c9"},"vehicle_type_id":"4","last_reported":1747160096,"current_range_meters":20800,"station_id":"cpo3342slgdg3j2ifvpg","pricing_plan_id":"cebpf4jnsgd1na2vs0mg"},{"bike_id":"d5ed7d33-f344-4a45-8032-e4e13167fe46","system_id":"levelo_inurba_marseille","lat":43.30888,"lon":5.36848,"is_reserved":false,"is_disabled":false,"rental_uris":{"android":"levelo://app?vid=d5ed7d33-f344-4a45-8032-e4e13167fe46","ios":"levelo://app?vid=d5ed7d33-f344-4a45-8032-e4e13167fe46"},"vehicle_type_id":"4","last_reported":1747160096,"current_range_meters":21600,"station_id":"ce4bgn92rcd13ifvqbvg","pricing_plan_id":"cebpf4jnsgd1na2vs0mg"},{"bike_id":"867e2619-52a1-4fed-a838-aa7200689672","system_id":"levelo_inurba_marseille","lat":43.31366,"lon":5.38485,"is_reserved":false,"is_disabled":false,"rental_uris":{"android":"levelo://app?vid=867e2619-52a1-4fed-a838-aa7200689672","ios":"levelo://app?vid=867e2619-52a1-4fed-a838-aa7200689672"},"vehicle_type_id":"4","last_reported":1747160096,"current_range_meters":21600,"station_id":"ce4bgt92rcd13ifvqcf0","pricing_plan_id":"cebpf4jnsgd1na2vs0mg"},{"bike_id":"f0649364-0107-4d97-ae7e-c2cb5ebd23f0","system_id":"levelo_inurba_marseille","lat":43.21749,"lon":5.34588,"is_reserved":false,"is_disabled":false,"rental_uris":{"android":"levelo://app?vid=f0649364-0107-4d97-ae7e-c2cb5ebd23f0","ios":"levelo://app?vid=f0649364-0107-4d97-ae7e-c2cb5ebd23f0"},"vehicle_type_id":"4","last_reported":1747160096,"current_range_meters":21600,"station_id":"st_cvj6r9ubvosntc0bgbag","pricing_plan_id":"cebpf4jnsgd1na2vs0mg"},{"bike_id":"e409cd08-b9c4-4d62-aefb-05d029e2c480","system_id":"levelo_inurba_marseille","lat":43.30648,"lon":5.42803,"is_reserved":false,"is_disabled":false,"rental_uris":{"android":"levelo://app?vid=e409cd08-b9c4-4d62-aefb-05d029e2c480","ios":"levelo://app?vid=e409cd08-b9c4-4d62-aefb-05d029e2c480"},"vehicle_type_id":"4","last_reported":1747160096,"current_range_meters":22000,"station_id":"","pricing_plan_id":"cebpf4jnsgd1na2vs0mg"},{"bike_id":"c27e4973-7e8a-4188-b49d-478d9188ac42","system_id":"levelo_inurba_marseille","lat":43.31761,"lon":5.3901,"is_reserved":false,"is_disabled":false,"rental_uris":{"android":"levelo://app?vid=c27e4973-7e8a-4188-b49d-478d9188ac42","ios":"levelo://app?vid=c27e4973-7e8a-4188-b49d-478d9188ac42"},"vehicle_type_id":"4","last_reported":1747160096,"current_range_meters":22000,"station_id":"ce4bhqp2rcd13ifvqhng","pricing_plan_id":"cebpf4jnsgd1na2vs0mg"},{"bike_id":"3f9b7946-2b45-4f45-93c3-c0418b274e80","system_id":"levelo_inurba_marseille","lat":43.258234,"lon":5.394359,"is_reserved":false,"is_disabled":false,"rental_uris":{"android":"levelo://app?vid=3f9b7946-2b45-4f45-93c3-c0418b274e80","ios":"levelo://app?vid=3f9b7946-2b45-4f45-93c3-c0418b274e80"},"vehicle_type_id":"4","last_reported":1747160096,"current_range_meters":22400,"station_id":"ce4bhip2rcd13ifvqft0","pricing_plan_id":"cebpf4jnsgd1na2vs0mg"},{"bike_id":"ec17c60c-1ecb-420a-bec6-dd14d7a363f6","system_id":"levelo_inurba_marseille","lat":43.2511,"lon":5.4032,"is_reserved":false,"is_disabled":false,"rental_uris":{"android":"levelo://app?vid=ec17c60c-1ecb-420a-bec6-dd14d7a363f6","ios":"levelo://app?vid=ec17c60c-1ecb-420a-bec6-dd14d7a363f6"},"vehicle_type_id":"4","last_reported":1747160096,"current_range_meters":22400,"station_id":"ce4bhlh2rcd13ifvqgig","pricing_plan_id":"cebpf4jnsgd1na2vs0mg"},{"bike_id":"930119eb-ad7f-411b-a2ed-da956d5fe0b2","system_id":"levelo_inurba_marseille","lat":43.318878,"lon":5.407436,"is_reserved":false,"is_disabled":false,"rental_uris":{"android":"levelo://app?vid=930119eb-ad7f-411b-a2ed-da956d5fe0b2","ios":"levelo://app?vid=930119eb-ad7f-411b-a2ed-da956d5fe0b2"},"vehicle_type_id":"4","last_reported":1747160096,"current_range_meters":22400,"station_id":"ce4bhq12rcd13ifvqhig","pricing_plan_id":"cebpf4jnsgd1na2vs0mg"},{"bike_id":"032341d2-c851-4137-87a4-51e5cd7f2f58","system_id":"levelo_inurba_marseille","lat":43.29289,"lon":5.3746,"is_reserved":false,"is_disabled":false,"rental_uris":{"android":"levelo://app?vid=032341d2-c851-4137-87a4-51e5cd7f2f58","ios":"levelo://app?vid=032341d2-c851-4137-87a4-51e5cd7f2f58"},"vehicle_type_id":"4","last_reported":1747160096,"current_range_meters":22800,"station_id":"ce4bgi12rcd13ifvqb70","pricing_plan_id":"cebpf4jnsgd1na2vs0mg"},{"bike_id":"2662f1a5-817a-472a-942e-96930dccf995","system_id":"levelo_inurba_marseille","lat":43.2465,"lon":5.38896,"is_reserved":false,"is_disabled":false,"rental_uris":{"android":"levelo://app?vid=2662f1a5-817a-472a-942e-96930dccf995","ios":"levelo://app?vid=2662f1a5-817a-472a-942e-96930dccf995"},"vehicle_type_id":"4","last_reported":1747160096,"current_range_meters":22800,"station_id":"ce4bhg12rcd13ifvqf60","pricing_plan_id":"cebpf4jnsgd1na2vs0mg"},{"bike_id":"7b0a5376-f0aa-4c68-bc9f-cc12137dae43","system_id":"levelo_inurba_marseille","lat":43.26955,"lon":5.38633,"is_reserved":false,"is_disabled":false,"rental_uris":{"android":"levelo://app?vid=7b0a5376-f0aa-4c68-bc9f-cc12137dae43","ios":"levelo://app?vid=7b0a5376-f0aa-4c68-bc9f-cc12137dae43"},"vehicle_type_id":"4","last_reported":1747160096,"current_range_meters":22800,"station_id":"ce4bhh92rcd13ifvqfh0","pricing_plan_id":"cebpf4jnsgd1na2vs0mg"},{"bike_id":"e947549a-7341-4a63-8437-adf95f7ccbf4","system_id":"levelo_inurba_marseille","lat":43.28041,"lon":5.3695,"is_reserved":false,"is_disabled":false,"rental_uris":{"android":"levelo://app?vid=e947549a-7341-4a63-8437-adf95f7ccbf4","ios":"levelo://app?vid=e947549a-7341-4a63-8437-adf95f7ccbf4"},"vehicle_type_id":"4","last_reported":1747160096,"current_range_meters":23200,"station_id":"ce4bha12rcd13ifvqef0","pricing_plan_id":"cebpf4jnsgd1na2vs0mg"},{"bike_id":"4d31de41-9784-48c8-ac81-00e5c47fd07d","system_id":"levelo_inurba_marseille","lat":43.27172,"lon":5.40999,"is_reserved":false,"is_disabled":false,"rental_uris":{"android":"levelo://app?vid=4d31de41-9784-48c8-ac81-00e5c47fd07d","ios":"levelo://app?vid=4d31de41-9784-48c8-ac81-00e5c47fd07d"},"vehicle_type_id":"4","last_reported":1747160096,"current_range_meters":23200,"station_id":"ce4bhl12rcd13ifvqgf0","pricing_plan_id":"cebpf4jnsgd1na2vs0mg"},{"bike_id":"08a93b84-f9e2-4480-b23a-2ee7a592645e","system_id":"levelo_inurba_marseille","lat":43.2175,"lon":5.34613,"is_reserved":false,"is_disabled":false,"rental_uris":{"android":"levelo://app?vid=08a93b84-f9e2-4480-b23a-2ee7a592645e","ios":"levelo://app?vid=08a93b84-f9e2-4480-b23a-2ee7a592645e"},"vehicle_type_id":"4","last_reported":1747160096,"current_range_meters":23200,"station_id":"st_cvj6r9ubvosntc0bgbag","pricing_plan_id":"cebpf4jnsgd1na2vs0mg"},{"bike_id":"64824209-6cba-4c12-875a-1502c403c27a","system_id":"levelo_inurba_marseille","lat":43.211941,"lon":5.35067,"is_reserved":false,"is_disabled":false,"rental_uris":{"android":"levelo://app?vid=64824209-6cba-4c12-875a-1502c403c27a","ios":"levelo://app?vid=64824209-6cba-4c12-875a-1502c403c27a"},"vehicle_type_id":"4","last_reported":1747160096,"current_range_meters":23200,"station_id":"st_cvj6sg6p6f1abm77japg","pricing_plan_id":"cebpf4jnsgd1na2vs0mg"},{"bike_id":"e6bfb01d-f28c-4118-8fe8-dbfe009ea23f","system_id":"levelo_inurba_marseille","lat":43.29306,"lon":5.371762,"is_reserved":false,"is_disabled":false,"rental_uris":{"android":"levelo://app?vid=e6bfb01d-f28c-4118-8fe8-dbfe009ea23f","ios":"levelo://app?vid=e6bfb01d-f28c-4118-8fe8-dbfe009ea23f"},"vehicle_type_id":"4","last_reported":1747160096,"current_range_meters":24000,"station_id":"ce4bgh92rcd13ifvqb40","pricing_plan_id":"cebpf4jnsgd1na2vs0mg"},{"bike_id":"0fdb5f50-b5de-4043-811f-632ba6b7b6ba","system_id":"levelo_inurba_marseille","lat":43.29794,"lon":5.381,"is_reserved":false,"is_disabled":false,"rental_uris":{"android":"levelo://app?vid=0fdb5f50-b5de-4043-811f-632ba6b7b6ba","ios":"levelo://app?vid=0fdb5f50-b5de-4043-811f-632ba6b7b6ba"},"vehicle_type_id":"4","last_reported":1747160096,"current_range_meters":24000,"station_id":"ce4bgip2rcd13ifvqbb0","pricing_plan_id":"cebpf4jnsgd1na2vs0mg"},{"bike_id":"91a6c395-091b-4023-bb60-a01be82c238f","system_id":"levelo_inurba_marseille","lat":43.29438,"lon":5.38643,"is_reserved":false,"is_disabled":false,"rental_uris":{"android":"levelo://app?vid=91a6c395-091b-4023-bb60-a01be82c238f","ios":"levelo://app?vid=91a6c395-091b-4023-bb60-a01be82c238f"},"vehicle_type_id":"4","last_reported":1747160096,"current_range_meters":24000,"station_id":"ce4bh2h2rcd13ifvqdh0","pricing_plan_id":"cebpf4jnsgd1na2vs0mg"},{"bike_id":"bccf9dff-cae5-4074-8276-0e519426bec1","system_id":"levelo_inurba_marseille","lat":43.26193,"lon":5.37459,"is_reserved":false,"is_disabled":false,"rental_uris":{"android":"levelo://app?vid=bccf9dff-cae5-4074-8276-0e519426bec1","ios":"levelo://app?vid=bccf9dff-cae5-4074-8276-0e519426bec1"},"vehicle_type_id":"4","last_reported":1747160096,"current_range_meters":24000,"station_id":"ce4bhgp2rcd13ifvqfc0","pricing_plan_id":"cebpf4jnsgd1na2vs0mg"},{"bike_id":"e99f4a26-64b2-45ac-a273-67f7e5f31e17","system_id":"levelo_inurba_marseille","lat":43.29189,"lon":5.35811,"is_reserved":false,"is_disabled":false,"rental_uris":{"android":"levelo://app?vid=e99f4a26-64b2-45ac-a273-67f7e5f31e17","ios":"levelo://app?vid=e99f4a26-64b2-45ac-a273-67f7e5f31e17"},"vehicle_type_id":"4","last_reported":1747160096,"current_range_meters":24400,"station_id":"ce4bhb12rcd13ifvqel0","pricing_plan_id":"cebpf4jnsgd1na2vs0mg"},