{"last_updated":1731406201,"ttl":60,"version":"2.2","data":{"bikes":[{"bike_id":"2afb4c00-67cc-42f1-ae32-502f5aecb4b2","system_id":"levelo_inurba_marseille","lat":43.24084,"lon":5.3774,"is_reserved":false,"is_disabled":false,"rental_uris":{"android":"levelo://app?vid=2afb4c00-67cc-42f1-ae32-502f5aecb4b2","ios":"levelo://app?vid=2afb4c00-67cc-42f1-ae32-502f5aecb4b2"},"vehicle_type_id":"4","last_reported":1731406201,"current_range_meters":29600,"station_id":"ce4bhnp2rcd13ifvqgvg","pricing_plan_id":"cebpf4jnsgd1na2vs0mg"},{"bike_id":"55f338da-564d-4339-bcb5-5d0a4b68c4e6","system_id":"levelo_inurba_marseille","lat":43.31072,"lon":5.40092,"is_reserved":false,"is_disabled":false,"rental_uris":{"android":"levelo://app?vid=55f338da-564d-4339-bcb5-5d0a4b68c4e6","ios":"levelo://app?vid=55f338da-564d-4339-bcb5-5d0a4b68c4e6"},"vehicle_type_id":"4","last_reported":1731406201,"current_range_meters":5600,"station_id":"","pricing_plan_id":"cebpf4jnsgd1na2vs0mg"},{"bike_id":"6a970c6e-55f9-4555-92d6-30cb08773f0a","system_id":"levelo_inurba_marseille","lat":43.33599,"lon":5.40995,"is_reserved":false,"is_disabled":false,"rental_uris":{"android":"levelo://app?vid=6a970c6e-55f9-4555-92d6-30cb08773f0a","ios":"levelo://app?vid=6a970c6e-55f9-4555-92d6-30cb08773f0a"},"vehicle_type_id":"4","last_reported":1731406201,"current_range_meters":30000,"station_id":"ce4bhqh2rcd13ifvqhmg","pricing_plan_id":"cebpf4jnsgd1na2vs0mg"},{"bike_id":"ca7b51c1-41f7-48c3-b99c-ac6c08ca46fd","system_id":"levelo_inurba_marseille","lat":43.27489,"lon":5.42453,"is_reserved":false,"is_disabled":false,"rental_uris":{"android":"levelo://app?vid=ca7b51c1-41f7-48c3-b99c-ac6c08ca46fd","ios":"levelo://app?vid=ca7b51c1-41f7-48c3-b99c-ac6c08ca46fd"},"vehicle_type_id":"4","last_reported":1731406201,"current_range_meters":28000,"station_id":"ce4bhn92rcd13ifvqgrg","pricing_plan_id":"cebpf4jnsgd1na2vs0mg"},{"bike_id":"e0c6e299-63b7-40c1-9c74-eee595335ea6","system_id":"levelo_inurba_marseille","lat":43.26959,"lon":5.38629,"is_reserved":false,"is_disabled":false,"rental_uris":{"android":"levelo://app?vid=e0c6e299-63b7-40c1-9c74-eee595335ea6","ios":"levelo://app?vid=e0c6e299-63b7-40c1-9c74-eee595335ea6"},"vehicle_type_id":"4","last_reported":1731406201,"current_range_meters":30000,"station_id":"ce4bhh92rcd13ifvqfh0","pricing_plan_id":"cebpf4jnsgd1na2vs0mg"},{"bike_id":"6ac7e8f3-ecae-451a-bf85-b68ad0a05e2c","system_id":"levelo_inurba_marseille","lat":43.24084,"lon":5.37753,"is_reserved":false,"is_disabled":false,"rental_uris":{"android":"levelo://app?vid=6ac7e8f3-ecae-451a-bf85-b68ad0a05e2c","ios":"levelo://app?vid=6ac7e8f3-ecae-451a-bf85-b68ad0a05e2c"},"vehicle_type_id":"4","last_reported":1731406201,"current_range_meters":22000,"station_id":"ce4bhnp2rcd13ifvqgvg","pricing_plan_id":"cebpf4jnsgd1na2vs0mg"},{"bike_id":"401c7e7f-cfe3-4923-a39a-877f8003df7b","system_id":"levelo_inurba_marseille","lat":43.27074,"lon":5.42283,"is_reserved":false,"is_disabled":false,"rental_uris":{"android":"levelo://app?vid=401c7e7f-cfe3-4923-a39a-877f8003df7b","ios":"levelo://app?vid=401c7e7f-cfe3-4923-a39a-877f8003df7b"},"vehicle_type_id":"4","last_reported":1731406201,"current_range_meters":20000,"station_id":"ce4bhk92rcd13ifvqgb0","pricing_plan_id":"cebpf4jnsgd1na2vs0mg"},{"bike_id":"bab8df37-e2cc-422f-8390-131820b02381","system_id":"levelo_inurba_marseille","lat":43.29585,"lon":5.38098,"is_reserved":false,"is_disabled":false,"rental_uris":{"android":"levelo://app?vid=bab8df37-e2cc-422f-8390-131820b02381","ios":"levelo://app?vid=bab8df37-e2cc-422f-8390-131820b02381"},"vehicle_type_id":"4","last_reported":1731406201,"current_range_meters":28400,"station_id":"ce4bgl12rcd13ifvqbo0","pricing_plan_id":"cebpf4jnsgd1na2vs0mg"},{"bike_id":"7d19651a-41c9-4fac-b0c5-dfca07508539","system_id":"levelo_inurba_marseille","lat":43.29007,"lon":5.35615,"is_reserved":false,"is_disabled":false,"rental_uris":{"android":"levelo://app?vid=7d19651a-41c9-4fac-b0c5-dfca07508539","ios":"levelo://app?vid=7d19651a-41c9-4fac-b0c5-dfca07508539"},"vehicle_type_id":"4","last_reported":1731406201,"current_range_meters":37600,"station_id":"ce4bhb92rcd13ifvqen0","pricing_plan_id":"cebpf4jnsgd1na2vs0mg"},{"bike_id":"ff92ab82-b2f0-4f06-a111-0e846c1b4fe2","system_id":"levelo_inurba_marseille","lat":43.29269,"lon":5.36859,"is_reserved":false,"is_disabled":false,"rental_uris":{"android":"levelo://app?vid=ff92ab82-b2f0-4f06-a111-0e846c1b4fe2","ios":"levelo://app?vid=ff92ab82-b2f0-4f06-a111-0e846c1b4fe2"},"vehicle_type_id":"4","last_reported":1731406201,"current_range_meters":38800,"station_id":"ce4bhbp2rcd13ifvqesg","pricing_plan_id":"cebpf4jnsgd1na2vs0mg"},{"bike_id":"12622422-82da-4c7f-aa3d-b84c32d52a68","system_id":"levelo_inurba_marseille","lat":43.28673,"lon":5.38664,"is_reserved":false,"is_disabled":false,"rental_uris":{"android":"levelo://app?vid=12622422-82da-4c7f-aa3d-b84c32d52a68","ios":"levelo://app?vid=12622422-82da-4c7f-aa3d-b84c32d52a68"},"vehicle_type_id":"4","last_reported":1731406201,"current_range_meters":32400,"station_id":"ce4bh492rcd13ifvqdug","pricing_plan_id":"cebpf4jnsgd1na2vs0mg"},{"bike_id":"a8bf9178-1fc7-4cf1-8534-0454319d3cc8","system_id":"levelo_inurba_marseille","lat":43.30922,"lon":5.36849,"is_reserved":false,"is_disabled":false,"rental_uris":{"android":"levelo://app?vid=a8bf9178-1fc7-4cf1-8534-0454319d3cc8","ios":"levelo://app?vid=a8bf9178-1fc7-4cf1-8534-0454319d3cc8"},"vehicle_type_id":"4","last_reported":1731406201,"current_range_meters":39200,"station_id":"ce4bgn92rcd13ifvqbvg","pricing_plan_id":"cebpf4jnsgd1na2vs0mg"},{"bike_id":"49effbc6-1aad-46bf-8c53-c4b5d41bdb91","system_id":"levelo_inurba_marseille","lat":43.31341,"lon":5.36711,"is_reserved":false,"is_disabled":false,"rental_uris":{"android":"levelo://app?vid=49effbc6-1aad-46bf-8c53-c4b5d41bdb91","ios":"levelo://app?vid=49effbc6-1aad-46bf-8c53-c4b5d41bdb91"},"vehicle_type_id":"4","last_reported":1731406201,"current_range_meters":29600,"station_id":"ce4bgr92rcd13ifvqc6g","pricing_plan_id":"cebpf4jnsgd1na2vs0mg"},{"bike_id":"3e392b66-91b0-4ce2-b24e-779ddf9eacb4","system_id":"levelo_inurba_marseille","lat":43.32487,"lon":5.36565,"is_reserved":false,"is_disabled":false,"rental_uris":{"android":"levelo://app?vid=3e392b66-91b0-4ce2-b24e-779ddf9eacb4","ios":"levelo://app?vid=3e392b66-91b0-4ce2-b24e-779ddf9eacb4"},"vehicle_type_id":"4","last_reported":1731406201,"current_range_meters":26800,"station_id":"ce4bhs12rcd13ifvqhvg","pricing_plan_id":"cebpf4jnsgd1na2vs0mg"},{"bike_id":"2fadd308-cc0e-49e3-b554-b7e72d1c3ab7","system_id":"levelo_inurba_marseille","lat":43.27967,"lon":5.3872,"is_reserved":false,"is_disabled":false,"rental_uris":{"android":"levelo://app?vid=2fadd308-cc0e-49e3-b554-b7e72d1c3ab7","ios":"levelo://app?vid=2fadd308-cc0e-49e3-b554-b7e72d1c3ab7"},"vehicle_type_id":"4","last_reported":1731406201,"current_range_meters":16000,"station_id":"ce4bhg12rcd13ifvqf80","pricing_plan_id":"cebpf4jnsgd1na2vs0mg"},{"bike_id":"ae68527b-9a6a-41df-8492-01b400becdca","system_id":"levelo_inurba_marseille","lat":43.29009,"lon":5.35619,"is_reserved":false,"is_disabled":false,"rental_uris":{"android":"levelo://app?vid=ae68527b-9a6a-41df-8492-01b400becdca","ios":"levelo://app?vid=ae68527b-9a6a-41df-8492-01b400becdca"},"vehicle_type_id":"4","last_reported":1731406201,"current_range_meters":37600,"station_id":"ce4bhb92rcd13ifvqen0","pricing_plan_id":"cebpf4jnsgd1na2vs0mg"},{"bike_id":"54dc11b8-b928-4e53-b8e7-2cddb0a8e43a","system_id":"levelo_inurba_marseille","lat":43.24073,"lon":5.3776,"is_reserved":false,"is_disabled":false,"rental_uris":{"android":"levelo://app?vid=54dc11b8-b928-4e53-b8e7-2cddb0a8e43a","ios":"levelo://app?vid=54dc11b8-b928-4e53-b8e7-2cddb0a8e43a"},"vehicle_type_id":"4","last_reported":1731406201,"current_range_meters":26800,"station_id":"ce4bhnp2rcd13ifvqgvg","pricing_plan_id":"cebpf4jnsgd1na2vs0mg"},{"bike_id":"b1a74415-2cd8-4130-a98c-9603b6a0bc62","system_id":"levelo_inurba_marseille","lat":43.2849,"lon":5.38563,"is_reserved":false,"is_disabled":false,"rental_uris":{"android":"levelo://app?vid=b1a74415-2cd8-4130-a98c-9603b6a0bc62","ios":"levelo://app?vid=b1a74415-2cd8-4130-a98c-9603b6a0bc62"},"vehicle_type_id":"4","last_reported":1731406201,"current_range_meters":32400,"station_id":"ce4bh8p2rcd13ifvqeb0","pricing_plan_id":"cebpf4jnsgd1na2vs0mg"},{"bike_id":"ce87ee49-8e2f-4b62-afc9-3c4a0031b9a3","system_id":"levelo_inurba_marseille","lat":43.30967,"lon":5.39036,"is_reserved":false,"is_disabled":false,"rental_uris":{"android":"levelo://app?vid=ce87ee49-8e2f-4b62-afc9-3c4a0031b9a3","ios":"levelo://app?vid=ce87ee49-8e2f-4b62-afc9-3c4a0031b9a3"},"vehicle_type_id":"4","last_reported":1731406201,"current_range_meters":38400,"station_id":"ce4bgup2rcd13ifvqco0","pricing_plan_id":"cebpf4jnsgd1na2vs0mg"},{"bike_id":"aad201f8-4768-4529-bb34-9edba7f0114d","system_id":"levelo_inurba_marseille","lat":43.26948,"lon":5.38635,"is_reserved":false,"is_disabled":false,"rental_uris":{"android":"levelo://app?vid=aad201f8-4768-4529-bb34-9edba7f0114d","ios":"levelo://app?vid=aad201f8-4768-4529-bb34-9edba7f0114d"},"vehicle_type_id":"4","last_reported":1731406201,"current_range_meters":35600,"station_id":"ce4bhh92rcd13ifvqfh0","pricing_plan_id":"cebpf4jnsgd1na2vs0mg"},{"bike_id":"1cb3057d-fabe-4c69-8afd-e4971756b054","system_id":"levelo_inurba_marseille","lat":43.30139,"lon":5.39859,"is_reserved":false,"is_disabled":false,"rental_uris":{"android":"levelo://app?vid=1cb3057d-fabe-4c69-8afd-e4971756b054","ios":"levelo://app?vid=1cb3057d-fabe-4c69-8afd-e4971756b054"},"vehicle_type_id":"4","last_reported":1731406201,"current_range_meters":24000,"station_id":"ce4bh0h2rcd13ifvqd40","pricing_plan_id":"cebpf4jnsgd1na2vs0mg"},{"bike_id":"27ea959b-7f74-43aa-b24f-19e0f8e6b155","system_id":"levelo_inurba_marseille","lat":43.25584,"lon":5.38244,"is_reserved":false,"is_disabled":false,"rental_uris":{"android":"levelo://app?vid=27ea959b-7f74-43aa-b24f-19e0f8e6b155","ios":"levelo://app?vid=27ea959b-7f74-43aa-b24f-19e0f8e6b155"},"vehicle_type_id":"4","last_reported":1731406201,"current_range_meters":29600,"station_id":"ce4bhih2rcd13ifvqfs0","pricing_plan_id":"cebpf4jnsgd1na2vs0mg"},{"bike_id":"d9ebbf26-a8b9-49e9-a05c-0532faeb36dd","system_id":"levelo_inurba_marseille","lat":43.25945,"lon":5.40903,"is_reserved":false,"is_disabled":false,"rental_uris":{"android":"levelo://app?vid=d9ebbf26-a8b9-49e9-a05c-0532faeb36dd","ios":"levelo://app?vid=d9ebbf26-a8b9-49e9-a05c-0532faeb36dd"},"vehicle_type_id":"4","last_reported":1731406201,"current_range_meters":22000,"station_id":"ce4bhm92rcd13ifvqglg","pricing_plan_id":"cebpf4jnsgd1na2vs0mg"},{"bike_id":"e6ea7628-653f-486a-a82c-a3cafa77bbcc","system_id":"levelo_inurba_marseille","lat":43.27491,"lon":5.42453,"is_reserved":false,"is_disabled":false,"rental_uris":{"android":"levelo://app?vid=e6ea7628-653f-486a-a82c-a3cafa77bbcc","ios":"levelo://app?vid=e6ea7628-653f-486a-a82c-a3cafa77bbcc"},"vehicle_type_id":"4","last_reported":1731406201,"current_range_meters":18000,"station_id":"ce4bhn92rcd13ifvqgrg","pricing_plan_id":"cebpf4jnsgd1na2vs0mg"},{"bike_id":"a6cebce8-5cc9-4e63-856d-8b5d14b3f2bb","system_id":"levelo_inurba_marseille","lat":43.24083,"lon":5.37752,"is_reserved":false,"is_disabled":false,"rental_uris":{"android":"levelo://app?vid=a6cebce8-5cc9-4e63-856d-8b5d14b3f2bb","ios":"levelo://app?vid=a6cebce8-5cc9-4e63-856d-8b5d14b3f2bb"},"vehicle_type_id":"4","last_reported":1731406201,"current_range_meters":8400,"station_id":"ce4bhnp2rcd13ifvqgvg","pricing_plan_id":"cebpf4jnsgd1na2vs0mg"},{"bike_id":"7b62d9a1-4410-4919-b265-e09aff197a53","system_id":"levelo_inurba_marseille","lat":43.27068,"lon":5.42276,"is_reserved":false,"is_disabled":false,"rental_uris":{"android":"levelo://app?vid=7b62d9a1-4410-4919-b265-e09aff197a53","ios":"levelo://app?vid=7b62d9a1-4410-4919-b265-e09aff197a53"},"vehicle_type_id":"4","last_reported":1731406201,"current_range_meters":38000,"station_id":"ce4bhk92rcd13ifvqgb0","pricing_plan_id":"cebpf4jnsgd1na2vs0mg"},{"bike_id":"8a1aeb54-d35f-4889-92af-9a6b52db4350","system_id":"levelo_inurba_marseille","lat":43.30962,"lon":5.39027,"is_reserved":false,"is_disabled":false,"rental_uris":{"android":"levelo://app?vid=8a1aeb54-d35f-4889-92af-9a6b52db4350","ios":"levelo://app?vid=8a1aeb54-d35f-4889-92af-9a6b52db4350"},"vehicle_type_id":"4","last_reported":1731406201,"current_range_meters":6800,"station_id":"ce4bgup2rcd13ifvqco0","pricing_plan_id":"cebpf4jnsgd1na2vs0mg"},{"bike_id":"59b3678e-cfd4-44ce-b728-bfcf35ab93b7","system_id":"levelo_inurba_marseille","lat":43.28946,"lon":5.39636,"is_reserved":false,"is_disabled":false,"rental_uris":{"android":"levelo://app?vid=59b3678e-cfd4-44ce-b728-bfcf35ab93b7","ios":"levelo://app?vid=59b3678e-cfd4-44ce-b728-bfcf35ab93b7"},"vehicle_type_id":"4","last_reported":1731406201,"current_range_meters":20000,"station_id":"ce4bh3h2rcd13ifvqdn0","pricing_plan_id":"cebpf4jnsgd1na2vs0mg"},{"bike_id":"b0864b2f-248e-47d9-ac2d-dc9ee7e07860","system_id":"levelo_inurba_marseille","lat":43.27176,"lon":5.40993,"is_reserved":false,"is_disabled":false,"rental_uris":{"android":"levelo://app?vid=b0864b2f-248e-47d9-ac2d-dc9ee7e07860","ios":"levelo://app?vid=b0864b2f-248e-47d9-ac2d-dc9ee7e07860"},"vehicle_type_id":"4","last_reported":1731406201,"current_range_meters":39200,"station_id":"ce4bhl12rcd13ifvqgf0","pricing_plan_id":"cebpf4jnsgd1na2vs0mg"},{"bike_id":"729adba0-28ae-441d-b07f-dad208e9d80f","system_id":"levelo_inurba_marseille","lat":43.31565,"lon":5.37997,"is_reserved":false,"is_disabled":false,"rental_uris":{"android":"levelo://app?vid=729adba0-28ae-441d-b07f-dad208e9d80f","ios":"levelo://app?vid=729adba0-28ae-441d-b07f-dad208e9d80f"},"vehicle_type_id":"4","last_reported":1731406201,"current_range_meters":38400,"station_id":"ce4bhsp2rcd13ifvqi50","pricing_plan_id":"cebpf4jnsgd1na2vs0mg"},{"bike_id":"eb8c3cc5-fe7b-45af-aab6-4f9d0cd7ba0b","system_id":"levelo_inurba_marseille","lat":43.26681,"lon":5.38265,"is_reserved":false,"is_disabled":false,"rental_uris":{"android":"levelo://app?vid=eb8c3cc5-fe7b-45af-aab6-4f9d0cd7ba0b","ios":"levelo://app?vid=eb8c3cc5-fe7b-45af-aab6-4f9d0cd7ba0b"},"vehicle_type_id":"4","last_reported":1731406201,"current_range_meters":37600,"station_id":"ce4bhg92rcd13ifvqf90","pricing_plan_id":"cebpf4jnsgd1na2vs0mg"},{"bike_id":"919e1ce1-dba3-47f8-b23e-ca362adaadaf","system_id":"levelo_inurba_marseille","lat":43.29007,"lon":5.3561,"is_reserved":false,"is_disabled":false,"rental_uris":{"android":"levelo://app?vid=919e1ce1-dba3-47f8-b23e-ca362adaadaf","ios":"levelo://app?vid=919e1ce1-dba3-47f8-b23e-ca362adaadaf"},"vehicle_type_id":"4","last_reported":1731406201,"current_range_meters":35200,"station_id":"ce4bhb92rcd13ifvqen0","pricing_plan_id":"cebpf4jnsgd1na2vs0mg"},{"bike_id":"cada6b80-a677-41e5-8fff-dfebf7e0e1a9","system_id":"levelo_inurba_marseille","lat":43.29005,"lon":5.35618,"is_reserved":false,"is_disabled":false,"rental_uris":{"android":"levelo://app?vid=cada6b80-a677-41e5-8fff-dfebf7e0e1a9","ios":"levelo://app?vid=cada6b80-a677-41e5-8fff-dfebf7e0e1a9"},"vehicle_type_id":"4","last_reported":1731406201,"current_range_meters":38000,"station_id":"ce4bhb92rcd13ifvqen0","pricing_plan_id":"cebpf4jnsgd1na2vs0mg"},{"bike_id":"86a1e8ec-924c-482f-a632-e7f0600dca6f","system_id":"levelo_inurba_marseille","lat":43.33606,"lon":5.41015,"is_reserved":false,"is_disabled":false,"rental_uris":{"android":"levelo://app?vid=86a1e8ec-924c-482f-a632-e7f0600dca6f","ios":"levelo://app?vid=86a1e8ec-924c-482f-a632-e7f0600dca6f"},"vehicle_type_id":"4","last_reported":1731406201,"current_range_meters":37600,"station_id":"ce4bhqh2rcd13ifvqhmg","pricing_plan_id":"cebpf4jnsgd1na2vs0mg"},{"bike_id":"10854876-e8fd-4e07-a478-2b8e8c03ef26","system_id":"levelo_inurba_marseille","lat":43.28841,"lon":5.39323,"is_reserved":false,"is_disabled":false,"rental_uris":{"android":"levelo://app?vid=10854876-e8fd-4e07-a478-2b8e8c03ef26","ios":"levelo://app?vid=10854876-e8fd-4e07-a478-2b8e8c03ef26"},"vehicle_type_id":"4","last_reported":1731406201,"current_range_meters":23200,"station_id":"ce4bh2p2rcd13ifvqdi0","pricing_plan_id":"cebpf4jnsgd1na2vs0mg"},{"bike_id":"3b03b7e5-6c8f-45ab-848a-3b2b10553b2c","system_id":"levelo_inurba_marseille","lat":43.24084,"lon":5.37744,"is_reserved":false,"is_disabled":false,"rental_uris":{"android":"levelo://app?vid=3b03b7e5-6c8f-45ab-848a-3b2b10553b2c","ios":"levelo://app?vid=3b03b7e5-6c8f-45ab-848a-3b2b10553b2c"},"vehicle_type_id":"4","last_reported":1731406201,"current_range_meters":8000,"station_id":"ce4bhnp2rcd13ifvqgvg","pricing_plan_id":"cebpf4jnsgd1na2vs0mg"},{"bike_id":"43bd4df6-40bb-4eee-a218-cdd879e9efdd","system_id":"levelo_inurba_marseille","lat":43.31232,"lon":5.36846,"is_reserved":false,"is_disabled":false,"rental_uris":{"android":"levelo://app?vid=43bd4df6-40bb-4eee-a218-cdd879e9efdd","ios":"levelo://app?vid=43bd4df6-40bb-4eee-a218-cdd879e9efdd"},"vehicle_type_id":"4","last_reported":1731406201,"current_range_meters":28000,"station_id":"ce4bgl92rcd13ifvqbq0","pricing_plan_id":"cebpf4jnsgd1na2vs0mg"},{"bike_id":"d46ec40f-cc3d-4fe6-b9e7-3cb07f3c1980","system_id":"levelo_inurba_marseille","lat":43.26684,"lon":5.38271,"is_reserved":false,"is_disabled":false,"rental_uris":{"android":"levelo://app?vid=d46ec40f-cc3d-4fe6-b9e7-3cb07f3c1980","ios":"levelo://app?vid=d46ec40f-cc3d-4fe6-b9e7-3cb07f3c1980"},"vehicle_type_id":"4","last_reported":1731406201,"current_range_meters":39200,"station_id":"ce4bhg92rcd13ifvqf90","pricing_plan_id":"cebpf4jnsgd1na2vs0mg"},{"bike_id":"bcacc3e2-0a47-4025-8eba-85f945d186fb","system_id":"levelo_inurba_marseille","lat":43.24804,"lon":5.37455,"is_reserved":false,"is_disabled":false,"rental_uris":{"android":"levelo://app?vid=bcacc3e2-0a47-4025-8eba-85f945d186fb","ios":"levelo://app?vid=bcacc3e2-0a47-4025-8eba-85f945d186fb"},"vehicle_type_id":"4","last_reported":1731406201,"current_range_meters":39200,"station_id":"ce4bhgh2rcd13ifvqfb0","pricing_plan_id":"cebpf4jnsgd1na2vs0mg"},{"bike_id":"36019b4c-12eb-4a40-878e-1cad7b7b78c8","system_id":"levelo_inurba_marseille","lat":43.29311,"lon":5.371774,"is_reserved":false,"is_disabled":false,"rental_uris":{"android":"levelo://app?vid=36019b4c-12eb-4a40-878e-1cad7b7b78c8","ios":"levelo://app?vid=36019b4c-12eb-4a40-878e-1cad7b7b78c8"},"vehicle_type_id":"4","last_reported":1731406201,"current_range_meters":37600,"station_id":"ce4bgh92rcd13ifvqb40","pricing_plan_id":"cebpf4jnsgd1na2vs0mg"},{"bike_id":"5fbd5809-42eb-48c6-8c2f-1b3fe116c3f5","system_id":"levelo_inurba_marseille","lat":43.29851,"lon":5.36284,"is_reserved":false,"is_disabled":false,"rental_uris":{"android":"levelo://app?vid=5fbd5809-42eb-48c6-8c2f-1b3fe116c3f5","ios":"levelo://app?vid=5fbd5809-42eb-48c6-8c2f-1b3fe116c3f5"},"vehicle_type_id":"4","last_reported":1731406201,"current_range_meters":26800,"station_id":"ce4bgpp2rcd13ifvqc3g","pricing_plan_id":"cebpf4jnsgd1na2vs0mg"},{"bike_id":"c982bbbe-b8f4-4b20-8871-339b786a4ffc","system_id":"levelo_inurba_marseille","lat":43.30942,"lon":5.3904,"is_reserved":false,"is_disabled":false,"rental_uris":{"android":"levelo://app?vid=c982bbbe-b8f4-4b20-8871-339b786a4ffc","ios":"levelo://app?vid=c982bbbe-b8f4-4b20-8871-339b786a4ffc"},"vehicle_type_id":"4","last_reported":1731406201,"current_range_meters":18000,"station_id":"ce4bgup2rcd13ifvqco0","pricing_plan_id":"cebpf4jnsgd1na2vs0mg"},{"bike_id":"79bdeb02-992a-4811-8d5e-df446ae6c46c","system_id":"levelo_inurba_marseille","lat":43.29037,"lon":5.37559,"is_reserved":false,"is_disabled":false,"rental_uris":{"android":"levelo://app?vid=79bdeb02-992a-4811-8d5e-df446ae6c46c","ios":"levelo://app?vid=79bdeb02-992a-4811-8d5e-df446ae6c46c"},"vehicle_type_id":"4","last_reported":1731406201,"current_range_meters":35200,"station_id":"ce4bh692rcd13ifvqe90","pricing_plan_id":"cebpf4jnsgd1na2vs0mg"},{"bike_id":"791689bc-b073-4cdc-9869-27b338165735","system_id":"levelo_inurba_marseille","lat":43.32656,"lon":5.40993,"is_reserved":false,"is_disabled":false,"rental_uris":{"android":"levelo://app?vid=791689bc-b073-4cdc-9869-27b338165735","ios":"levelo://app?vid=791689bc-b073-4cdc-9869-27b338165735"},"vehicle_type_id":"4","last_reported":1731406201,"current_range_meters":38800,"station_id":"ce4bhpp2rcd13ifvqhgg","pricing_plan_id":"cebpf4jnsgd1na2vs0mg"},{"bike_id":"3430cd90-ac39-46a2-9744-66b4b177a9d3","system_id":"levelo_inurba_marseille","lat":43.289282,"lon":5.384012,"is_reserved":false,"is_disabled":false,"rental_uris":{"android":"levelo://app?vid=3430cd90-ac39-46a2-9744-66b4b177a9d3","ios":"levelo://app?vid=3430cd90-ac39-46a2-9744-66b4b177a9d3"},"vehicle_type_id":"4","last_reported":1731406201,"current_range_meters":2800,"station_id":"ce4bh0h2rcd13ifvqd40","pricing_plan_id":"cebpf4jnsgd1na2vs0mg"},{"bike_id":"a7d71a95-aff9-47f9-8c01-defabf3b40db","system_id":"levelo_inurba_marseille","lat":43.28155,"lon":5.42635,"is_reserved":false,"is_disabled":false,"rental_uris":{"android":"levelo://app?vid=a7d71a95-aff9-47f9-8c01-defabf3b40db","ios":"levelo://app?vid=a7d71a95-aff9-47f9-8c01-defabf3b40db"},"vehicle_type_id":"4","last_reported":1731406201,"current_range_meters":7200,"station_id":"ce4bhnh2rcd13ifvqgug","pricing_plan_id":"cebpf4jnsgd1na2vs0mg"},{"bike_id":"0efa8546-84a6-4c0c-ab60-ffc695fb3d4b","system_id":"levelo_inurba_marseille","lat":43.30535,"lon":5.36702,"is_reserved":false,"is_disabled":false,"rental_uris":{"android":"levelo://app?vid=0efa8546-84a6-4c0c-ab60-ffc695fb3d4b","ios":"levelo://app?vid=0efa8546-84a6-4c0c-ab60-ffc695fb3d4b"},"vehicle_type_id":"4","last_reported":1731406201,"current_range_meters":36400,"station_id":"ce4bgrp2rcd13ifvqc9g","pricing_plan_id":"cebpf4jnsgd1na2vs0mg"},{"bike_id":"e2ed3bc4-36a7-4f91-ba67-845235937940","system_id":"levelo_inurba_marseille","lat":43.30554,"lon":5.36544,"is_reserved":false,"is_disabled":false,"rental_uris":{"android":"levelo://app?vid=e2ed3bc4-36a7-4f91-ba67-845235937940","ios":"levelo://app?vid=e2ed3bc4-36a7-4f91-ba67-845235937940"},"vehicle_type_id":"4","last_reported":1731406201,"current_range_meters":30000,"station_id":"ce4bgs12rcd13ifvqcag","pricing_plan_id":"cebpf4jnsgd1na2vs0mg"},{"bike_id":"d32cde08-2c58-4bc0-9567-3021d65ee7a3","system_id":"levelo_inurba_marseille","lat":43.31373,"lon":5.38496,"is_reserved":false,"is_disabled":false,"rental_uris":{"android":"levelo://app?vid=d32cde08-2c58-4bc0-9567-3021d65ee7a3","ios":"levelo://app?vid=d32cde08-2c58-4bc0-9567-3021d65ee7a3"},"vehicle_type_id":"4","last_reported":1731406201,"current_range_meters":38800,"station_id":"ce4bgt92rcd13ifvqcf0","pricing_plan_id":"cebpf4jnsgd1na2vs0mg"},{"bike_id":"ec5899ca-f462-4f0a-af00-68e188e1cdc1","system_id":"levelo_inurba_marseille","lat":43.25938,"lon":5.40907,"is_reserved":false,"is_disabled":false,"rental_uris":{"android":"levelo://app?vid=ec5899ca-f462-4f0a-af00-68e188e1cdc1","ios":"levelo://app?vid=ec5899ca-f462-4f0a-af00-68e188e1cdc1"},"vehicle_type_id":"4","last_reported":1731406201,"current_range_meters":29600,"station_id":"ce4bhm92rcd13ifvqglg","pricing_plan_id":"cebpf4jnsgd1na2vs0mg"},{"bike_id":"f7db8d50-4ce4-4ad7-9b62-87557b2d49d5","system_id":"levelo_inurba_marseille","lat":43.30954,"lon":5.39045,"is_reserved":false,"is_disabled":false,"rental_uris":{"android":"levelo://app?vid=f7db8d50-4ce4-4ad7-9b62-87557b2d49d5","ios":"levelo://app?vid=f7db8d50-4ce4-4ad7-9b62-87557b2d49d5"},"vehicle_type_id":"4","last_reported":1731406201,"current_range_meters":8000,"station_id":"ce4bgup2rcd13ifvqco0","pricing_plan_id":"cebpf4jnsgd1na2vs0mg"},{"bike_id":"7935dc1c-687e-4c17-8bab-4061926c979f","system_id":"levelo_inurba_marseille","lat":43.29006,"lon":5.35614,"is_reserved":false,"is_disabled":false,"rental_uris":{"android":"levelo://app?vid=7935dc1c-687e-4c17-8bab-4061926c979f","ios":"levelo://app?vid=7935dc1c-687e-4c17-8bab-4061926c979f"},"vehicle_type_id":"4","last_reported":1731406201,"current_range_meters":8800,"station_id":"ce4bhb92rcd13ifvqen0","pricing_plan_id":"cebpf4jnsgd1na2vs0mg"},{"bike_id":"86c6ff49-2b5b-4afb-8125-7091456fb85f","system_id":"levelo_inurba_marseille","lat":43.29307,"lon":5.37156,"is_reserved":false,"is_disabled":false,"rental_uris":{"android":"levelo://app?vid=86c6ff49-2b5b-4afb-8125-7091456fb85f","ios":"levelo://app?vid=86c6ff49-2b5b-4afb-8125-7091456fb85f"},"vehicle_type_id":"4","last_reported":1731406201,"current_range_meters":38800,"station_id":"ce4bgh92rcd13ifvqb40","pricing_plan_id":"cebpf4jnsgd1na2vs0mg"},{"bike_id":"868a76b2-4399-49df-a1e4-86df2777b865","system_id":"levelo_inurba_marseille","lat":43.30141,"lon":5.37427,"is_reserved":false,"is_disabled":false,"rental_uris":{"android":"levelo://app?vid=868a76b2-4399-49df-a1e4-86df2777b865","ios":"levelo://app?vid=868a76b2-4399-49df-a1e4-86df2777b865"},"vehicle_type_id":"4","last_reported":1731406201,"current_range_meters":20800,"station_id":"ce4bgs92rcd13ifvqcc0","pricing_plan_id":"cebpf4jnsgd1na2vs0mg"},{"bike_id":"4207dc09-ccec-4f07-8c1f-2084b2368698","system_id":"levelo_inurba_marseille","lat":43.29803,"lon":5.40398,"is_reserved":false,"is_disabled":false,"rental_uris":{"android":"levelo://app?vid=4207dc09-ccec-4f07-8c1f-2084b2368698","ios":"levelo://app?vid=4207dc09-ccec-4f07-8c1f-2084b2368698"},"vehicle_type_id":"4","last_reported":1731406201,"current_range_meters":38400,"station_id":"ce4bh112rcd13ifvqd90","pricing_plan_id":"cebpf4jnsgd1na2vs0mg"},{"bike_id":"6941d4ab-ed7f-4443-8c5b-67486eab1a54","system_id":"levelo_inurba_marseille","lat":43.28358,"lon":5.38619,"is_reserved":false,"is_disabled":false,"rental_uris":{"android":"levelo://app?vid=6941d4ab-ed7f-4443-8c5b-67486eab1a54","ios":"levelo://app?vid=6941d4ab-ed7f-4443-8c5b-67486eab1a54"},"vehicle_type_id":"4","last_reported":1731406201,"current_range_meters":31200,"station_id":"ce4bh492rcd13ifvqdvg","pricing_plan_id":"cebpf4jnsgd1na2vs0mg"},{"bike_id":"4a19371a-296c-4821-8792-54911128b33e","system_id":"levelo_inurba_marseille","lat":43.29047,"lon":5.39973,"is_reserved":false,"is_disabled":false,"rental_uris":{"android":"levelo://app?vid=4a19371a-296c-4821-8792-54911128b33e","ios":"levelo://app?vid=4a19371a-296c-4821-8792-54911128b33e"},"vehicle_type_id":"4","last_reported":1731406201,"current_range_meters":30000,"station_id":"ce4bh392rcd13ifvqdm0","pricing_plan_id":"cebpf4jnsgd1na2vs0mg"},{"bike_id":"4c62d813-e09c-46f8-96c5-40ef2aa6b1c6","system_id":"levelo_inurba_marseille","lat":43.29029,"lon":5.39986,"is_reserved":false,"is_disabled":false,"rental_uris":{"android":"levelo://app?vid=4c62d813-e09c-46f8-96c5-40ef2aa6b1c6","ios":"levelo://app?vid=4c62d813-e09c-46f8-96c5-40ef2aa6b1c6"},"vehicle_type_id":"4","last_reported":1731406201,"current_range_meters":29600,"station_id":"ce4bh392rcd13ifvqdm0","pricing_plan_id":"cebpf4jnsgd1na2vs0mg"},{"bike_id":"320e12a1-288b-4e41-acf1-914d9b0a850f","system_id":"levelo_inurba_marseille","lat":43.26684,"lon":5.38267,"is_reserved":false,"is_disabled":false,"rental_uris":{"android":"levelo://app?vid=320e12a1-288b-4e41-acf1-914d9b0a850f","ios":"levelo://app?vid=320e12a1-288b-4e41-acf1-914d9b0a850f"},"vehicle_type_id":"4","last_reported":1731406201,"current_range_meters":32400,"station_id":"ce4bhg92rcd13ifvqf90","pricing_plan_id":"cebpf4jnsgd1na2vs0mg"},{"bike_id":"87361715-c36d-4ef1-97ec-40db9e51686b","system_id":"levelo_inurba_marseille","lat":43.29096,"lon":5.38123,"is_reserved":false,"is_disabled":false,"rental_uris":{"android":"levelo://app?vid=87361715-c36d-4ef1-97ec-40db9e51686b","ios":"levelo://app?vid=87361715-c36d-4ef1-97ec-40db9e51686b"},"vehicle_type_id":"4","last_reported":1731406201,"current_range_meters":29600,"station_id":"ce4bh512rcd13ifvqe2g","pricing_plan_id":"cebpf4jnsgd1na2vs0mg"},{"bike_id":"7e6be10b-d162-48a6-9ace-bae67f7eeecf","system_id":"levelo_inurba_marseille","lat":43.27997,"lon":5.400081,"is_reserved":false,"is_disabled":false,"rental_uris":{"android":"levelo://app?vid=7e6be10b-d162-48a6-9ace-bae67f7eeecf","ios":"levelo://app?vid=7e6be10b-d162-48a6-9ace-bae67f7eeecf"},"vehicle_type_id":"4","last_reported":1731406201,"current_range_meters":36800,"station_id":"ce4bho92rcd13ifvqh4g","pricing_plan_id":"cebpf4jnsgd1na2vs0mg"},{"bike_id":"fb620fec-62a0-491d-b3c4-93d39408a57d","system_id":"levelo_inurba_marseille","lat":43.296368,"lon":5.381272,"is_reserved":false,"is_disabled":false,"rental_uris":{"android":"levelo://app?vid=fb620fec-62a0-491d-b3c4-93d39408a57d","ios":"levelo://app?vid=fb620fec-62a0-491d-b3c4-93d39408a57d"},"vehicle_type_id":"4","last_reported":1731406201,"current_range_meters":32000,"station_id":"ce4bgup2rcd13ifvqcn0","pricing_plan_id":"cebpf4jnsgd1na2vs0mg"},{"bike_id":"0abc8459-f171-439b-bedc-de213de3b56e","system_id":"levelo_inurba_marseille","lat":43.29968,"lon":5.38504,"is_reserved":false,"is_disabled":false,"rental_uris":{"android":"levelo://app?vid=0abc8459-f171-439b-bedc-de213de3b56e","ios":"levelo://app?vid=0abc8459-f171-439b-bedc-de213de3b56e"},"vehicle_type_id":"4","last_reported":1731406201,"current_range_meters":19600,"station_id":"ce4bgj92rcd13ifvqbd0","pricing_plan_id":"cebpf4jnsgd1na2vs0mg"},{"bike_id":"72f2459d-a66f-4594-a47a-d7559414586e","system_id":"levelo_inurba_marseille","lat":43.29313,"lon":5.37177,"is_reserved":false,"is_disabled":false,"rental_uris":{"android":"levelo://app?vid=72f2459d-a66f-4594-a47a-d7559414586e","ios":"levelo://app?vid=72f2459d-a66f-4594-a47a-d7559414586e"},"vehicle_type_id":"4","last_reported":1731406201,"current_range_meters":6000,"station_id":"ce4bgh92rcd13ifvqb40","pricing_plan_id":"cebpf4jnsgd1na2vs0mg"},{"bike_id":"6971b219-d80d-4d3c-a0f3-03267ef91f28","system_id":"levelo_inurba_marseille","lat":43.283386,"lon":5.381094,"is_reserved":false,"is_disabled":false,"rental_uris":{"android":"levelo://app?vid=6971b219-d80d-4d3c-a0f3-03267ef91f28","ios":"levelo://app?vid=6971b219-d80d-4d3c-a0f3-03267ef91f28"},"vehicle_type_id":"4","last_reported":1731406201,"current_range_meters":11600,"station_id":"ce4bh412rcd13ifvqdr0","pricing_plan_id":"cebpf4jnsgd1na2vs0mg"},{"bike_id":"ecf9a70d-8430-4e85-a75b-3ca5c65a4f38","system_id":"levelo_inurba_marseille","lat":43.29284,"lon":5.40125,"is_reserved":false,"is_disabled":false,"rental_uris":{"android":"levelo://app?vid=ecf9a70d-8430-4e85-a75b-3ca5c65a4f38","ios":"levelo://app?vid=ecf9a70d-8430-4e85-a75b-3ca5c65a4f38"},"vehicle_type_id":"4","last_reported":1731406201,"current_range_meters":12800,"station_id":"ce4bh312rcd13ifvqdk0","pricing_plan_id":"cebpf4jnsgd1na2vs0mg"},{"bike_id":"b453a817-b2ea-4985-8ffe-28a038a11218","system_id":"levelo_inurba_marseille","lat":43.24083,"lon":5.37743,"is_reserved":false,"is_disabled":false,"rental_uris":{"android":"levelo://app?vid=b453a817-b2ea-4985-8ffe-28a038a11218","ios":"levelo://app?vid=b453a817-b2ea-4985-8ffe-28a038a11218"},"vehicle_type_id":"4","last_reported":1731406201,"current_range_meters":16000,"station_id":"ce4bhnp2rcd13ifvqgvg","pricing_plan_id":"cebpf4jnsgd1na2vs0mg"},{"bike_id":"40ee769d-1238-4013-8434-6704bade4ce4","system_id":"levelo_inurba_marseille","lat":43.3361,"lon":5.41041,"is_reserved":false,"is_disabled":false,"rental_uris":{"android":"levelo://app?vid=40ee769d-1238-4013-8434-6704bade4ce4","ios":"levelo://app?vid=40ee769d-1238-4013-8434-6704bade4ce4"},"vehicle_type_id":"4","last_reported":1731406201,"current_range_meters":32400,"station_id":"ce4bhqh2rcd13ifvqhmg","pricing_plan_id":"cebpf4jnsgd1na2vs0mg"},{"bike_id":"2f085ddc-4d69-4c79-9514-8165bb5c8a06","system_id":"levelo_inurba_marseille","lat":43.30552,"lon":5.36529,"is_reserved":false,"is_disabled":false,"rental_uris":{"android":"levelo://app?vid=2f085ddc-4d69-4c79-9514-8165bb5c8a06","ios":"levelo://app?vid=2f085ddc-4d69-4c79-9514-8165bb5c8a06"},"vehicle_type_id":"4","last_reported":1731406201,"current_range_meters":29600,"station_id":"ce4bgs12rcd13ifvqcag","pricing_plan_id":"cebpf4jnsgd1na2vs0mg"},{"bike_id":"b101fd27-9e23-4f31-abdd-6393677f4589","system_id":"levelo_inurba_marseille","lat":43.24074,"lon":5.37758,"is_reserved":false,"is_disabled":false,"rental_uris":{"android":"levelo://app?vid=b101fd27-9e23-4f31-abdd-6393677f4589","ios":"levelo://app?vid=b101fd27-9e23-4f31-abdd-6393677f4589"},"vehicle_type_id":"4","last_reported":1731406201,"current_range_meters":36400,"station_id":"ce4bhnp2rcd13ifvqgvg","pricing_plan_id":"cebpf4jnsgd1na2vs0mg"},{"bike_id":"77d92518-dd48-4d99-b61f-eaeaf2d3446b","system_id":"levelo_inurba_marseille","lat":43.305542,"lon":5.36545,"is_reserved":false,"is_disabled":false,"rental_uris":{"android":"levelo://app?vid=77d92518-dd48-4d99-b61f-eaeaf2d3446b","ios":"levelo://app?vid=77d92518-dd48-4d99-b61f-eaeaf2d3446b"},"vehicle_type_id":"4","last_reported":1731406201,"current_range_meters":20400,"station_id":"ce4bgs12rcd13ifvqcag","pricing_plan_id":"cebpf4jnsgd1na2vs0mg"},{"bike_id":"0c0c226c-4311-40bc-966e-4d8a46b2c5c4","system_id":"levelo_inurba_marseille","lat":43.24073,"lon":5.37757,"is_reserved":false,"is_disabled":false,"rental_uris":{"android":"levelo://app?vid=0c0c226c-4311-40bc-966e-4d8a46b2c5c4","ios":"levelo://app?vid=0c0c226c-4311-40bc-966e-4d8a46b2c5c4"},"vehicle_type_id":"4","last_reported":1731406201,"current_range_meters":17600,"station_id":"ce4bhnp2rcd13ifvqgvg","pricing_plan_id":"cebpf4jnsgd1na2vs0mg"},{"bike_id":"af5e3c2a-c449-43ab-b290-4cdf9e20f1aa","system_id":"levelo_inurba_marseille","lat":43.27994,"lon":5.41664,"is_reserved":false,"is_disabled":false,"rental_uris":{"android":"levelo://app?vid=af5e3c2a-c449-43ab-b290-4cdf9e20f1aa","ios":"levelo://app?vid=af5e3c2a-c449-43ab-b290-4cdf9e20f1aa"},"vehicle_type_id":"4","last_reported":1731406201,"current_range_meters":32800,"station_id":"ce4bho12rcd13ifvqh1g","pricing_plan_id":"cebpf4jnsgd1na2vs0mg"},{"bike_id":"6cecce0a-2ac4-4613-824e-348102fe947a","system_id":"levelo_inurba_marseille","lat":43.24082,"lon":5.37752,"is_reserved":false,"is_disabled":false,"rental_uris":{"android":"levelo://app?vid=6cecce0a-2ac4-4613-824e-348102fe947a","ios":"levelo://app?vid=6cecce0a-2ac4-4613-824e-348102fe947a"},"vehicle_type_id":"4","last_reported":1731406201,"current_range_meters":28800,"station_id":"ce4bhnp2rcd13ifvqgvg","pricing_plan_id":"cebpf4jnsgd1na2vs0mg"},{"bike_id":"29c01c91-58dc-4ed0-a5c3-e829489caba9","system_id":"levelo_inurba_marseille","lat":43.30955,"lon":5.39044,"is_reserved":false,"is_disabled":false,"rental_uris":{"android":"levelo://app?vid=29c01c91-58dc-4ed0-a5c3-e829489caba9","ios":"levelo://app?vid=29c01c91-58dc-4ed0-a5c3-e829489caba9"},"vehicle_type_id":"4","last_reported":1731406201,"current_range_meters":39200,"station_id":"ce4bgup2rcd13ifvqco0","pricing_plan_id":"cebpf4jnsgd1na2vs0mg"},{"bike_id":"8efbb9f4-e414-4e8a-86c0-9a60e267dcda","system_id":"levelo_inurba_marseille","lat":43.25826,"lon":5.39435,"is_reserved":false,"is_disabled":false,"rental_uris":{"android":"levelo://app?vid=8efbb9f4-e414-4e8a-86c0-9a60e267dcda","ios":"levelo://app?vid=8efbb9f4-e414-4e8a-86c0-9a60e267dcda"},"vehicle_type_id":"4","last_reported":1731406201,"current_range_meters":38000,"station_id":"ce4bhip2rcd13ifvqft0","pricing_plan_id":"cebpf4jnsgd1na2vs0mg"},{"bike_id":"e7f46eb4-6b70-41c0-b2ec-d4f5352531c8","system_id":"levelo_inurba_marseille","lat":43.27492,"lon":5.42457,"is_reserved":false,"is_disabled":false,"rental_uris":{"android":"levelo://app?vid=e7f46eb4-6b70-41c0-b2ec-d4f5352531c8","ios":"levelo://app?vid=e7f46eb4-6b70-41c0-b2ec-d4f5352531c8"},"vehicle_type_id":"4","last_reported":1731406201,"current_range_meters":35600,"station_id":"ce4bhn92rcd13ifvqgrg","pricing_plan_id":"cebpf4jnsgd1na2vs0mg"},{"bike_id":"c2c0c158-e994-4346-894a-aa2c5884f6bb","system_id":"levelo_inurba_marseille","lat":43.25497,"lon":5.37648,"is_reserved":false,"is_disabled":false,"rental_uris":{"android":"levelo://app?vid=c2c0c158-e994-4346-894a-aa2c5884f6bb","ios":"levelo://app?vid=c2c0c158-e994-4346-894a-aa2c5884f6bb"},"vehicle_type_id":"4","last_reported":1731406201,"current_range_meters":36400,"station_id":"ce4bhh12rcd13ifvqff0","pricing_plan_id":"cebpf4jnsgd1na2vs0mg"},{"bike_id":"4cb5e838-ad27-4279-bf5a-cfdd3ae4a61a","system_id":"levelo_inurba_marseille","lat":43.29711,"lon":5.37703,"is_reserved":false,"is_disabled":false,"rental_uris":{"android":"levelo://app?vid=4cb5e838-ad27-4279-bf5a-cfdd3ae4a61a","ios":"levelo://app?vid=4cb5e838-ad27-4279-bf5a-cfdd3ae4a61a"},"vehicle_type_id":"4","last_reported":1731406201,"current_range_meters":17600,"station_id":"ce4bgkh2rcd13ifvqbl0","pricing_plan_id":"cebpf4jnsgd1na2vs0mg"},{"bike_id":"b435a9f5-fc10-44df-821b-3850e2eb1876","system_id":"levelo_inurba_marseille","lat":43.307922,"lon":5.376387,"is_reserved":false,"is_disabled":false,"rental_uris":{"android":"levelo://app?vid=b435a9f5-fc10-44df-821b-3850e2eb1876","ios":"levelo://app?vid=b435a9f5-fc10-44df-821b-3850e2eb1876"},"vehicle_type_id":"4","last_reported":1731406201,"current_range_meters":4000,"station_id":"ce4bgv92rcd13ifvqcq0","pricing_plan_id":"cebpf4jnsgd1na2vs0mg"},{"bike_id":"360bc08a-f969-4ec3-bf1c-00dfb5d8677c","system_id":"levelo_inurba_marseille","lat":43.3019,"lon":5.36616,"is_reserved":false,"is_disabled":false,"rental_uris":{"android":"levelo://app?vid=360bc08a-f969-4ec3-bf1c-00dfb5d8677c","ios":"levelo://app?vid=360bc08a-f969-4ec3-bf1c-00dfb5d8677c"},"vehicle_type_id":"4","last_reported":1731406201,"current_range_meters":38000,"station_id":"ce4bgrh2rcd13ifvqc8g","pricing_plan_id":"cebpf4jnsgd1na2vs0mg"},{"bike_id":"6e10a7c4-8d89-4533-93b6-d9e04eb0b330","system_id":"levelo_inurba_marseille","lat":43.3091,"lon":5.36852,"is_reserved":false,"is_disabled":false,"rental_uris":{"android":"levelo://app?vid=6e10a7c4-8d89-4533-93b6-d9e04eb0b330","ios":"levelo://app?vid=6e10a7c4-8d89-4533-93b6-d9e04eb0b330"},"vehicle_type_id":"4","last_reported":1731406201,"current_range_meters":27200,"station_id":"ce4bgn92rcd13ifvqbvg","pricing_plan_id":"cebpf4jnsgd1na2vs0mg"},{"bike_id":"aa3ec2fd-0efd-439c-b6af-32c66c48e006","system_id":"levelo_inurba_marseille","lat":43.24073,"lon":5.37753,"is_reserved":false,"is_disabled":false,"rental_uris":{"android":"levelo://app?vid=aa3ec2fd-0efd-439c-b6af-32c66c48e006","ios":"levelo://app?vid=aa3ec2fd-0efd-439c-b6af-32c66c48e006"},"vehicle_type_id":"4","last_reported":1731406201,"current_range_meters":14400,"station_id":"ce4bhnp2rcd13ifvqgvg","pricing_plan_id":"cebpf4jnsgd1na2vs0mg"},{"bike_id":"dd2b8768-f22e-480b-8778-9d9e6cf2b8b7","system_id":"levelo_inurba_marseille","lat":43.27439,"lon":5.39407,"is_reserved":false,"is_disabled":false,"rental_uris":{"android":"levelo://app?vid=dd2b8768-f22e-480b-8778-9d9e6cf2b8b7","ios":"levelo://app?vid=dd2b8768-f22e-480b-8778-9d9e6cf2b8b7"},"vehicle_type_id":"4","last_reported":1731406201,"current_range_meters":30400,"station_id":"ce4bhdp2rcd13ifvqf20","pricing_plan_id":"cebpf4jnsgd1na2vs0mg"},{"bike_id":"ac3f5690-a3f7-4549-b5d3-46ab83ddc9bc","system_id":"levelo_inurba_marseille","lat":43.337444,"lon":5.374475,"is_reserved":false,"is_disabled":false,"rental_uris":{"android":"levelo://app?vid=ac3f5690-a3f7-4549-b5d3-46ab83ddc9bc","ios":"levelo://app?vid=ac3f5690-a3f7-4549-b5d3-46ab83ddc9bc"},"vehicle_type_id":"4","last_reported":1731406201,"current_range_meters":36400,"station_id":"ce4bhb92rcd13ifvqen0","pricing_plan_id":"cebpf4jnsgd1na2vs0mg"},{"bike_id":"49b84d54-e9a8-414b-8f96-35ff1ec47098","system_id":"levelo_inurba_marseille","lat":43.24067,"lon":5.37763,"is_reserved":false,"is_disabled":false,"rental_uris":{"android":"levelo://app?vid=49b84d54-e9a8-414b-8f96-35ff1ec47098","ios":"levelo://app?vid=49b84d54-e9a8-414b-8f96-35ff1ec47098"},"vehicle_type_id":"4","last_reported":1731406201,"current_range_meters":25200,"station_id":"ce4bhnp2rcd13ifvqgvg","pricing_plan_id":"cebpf4jnsgd1na2vs0mg"},{"bike_id":"8af6838a-5ba9-411f-a20f-25a00328e0bc","system_id":"levelo_inurba_marseille","lat":43.25939,"lon":5.40907,"is_reserved":false,"is_disabled":false,"rental_uris":{"android":"levelo://app?vid=8af6838a-5ba9-411f-a20f-25a00328e0bc","ios":"levelo://app?vid=8af6838a-5ba9-411f-a20f-25a00328e0bc"},"vehicle_type_id":"4","last_reported":1731406201,"current_range_meters":38800,"station_id":"ce4bhm92rcd13ifvqglg","pricing_plan_id":"cebpf4jnsgd1na2vs0mg"},{"bike_id":"3466e13c-8b96-4577-a469-2c96bb00210f","system_id":"levelo_inurba_marseille","lat":43.28976,"lon":5.37834,"is_reserved":false,"is_disabled":false,"rental_uris":{"android":"levelo://app?vid=3466e13c-8b96-4577-a469-2c96bb00210f","ios":"levelo://app?vid=3466e13c-8b96-4577-a469-2c96bb00210f"},"vehicle_type_id":"4","last_reported":1731406201,"current_range_meters":38400,"station_id":"ce4bh9p2rcd13ifvqed0","pricing_plan_id":"cebpf4jnsgd1na2vs0mg"},{"bike_id":"5d5336c7-9cee-434d-a908-9eb965076091","system_id":"levelo_inurba_marseille","lat":43.29273,"lon":5.36847,"is_reserved":false,"is_disabled":false,"rental_uris":{"android":"levelo://app?vid=5d5336c7-9cee-434d-a908-9eb965076091","ios":"levelo://app?vid=5d5336c7-9cee-434d-a908-9eb965076091"},"vehicle_type_id":"4","last_reported":1731406201,"current_range_meters":38800,"station_id":"ce4bhbp2rcd13ifvqesg","pricing_plan_id":"cebpf4jnsgd1na2vs0mg"},{"bike_id":"92458f41-bfe8-46d5-a2b8-66b90a905a47","system_id":"levelo_inurba_marseille","lat":43.34149,"lon":5.40909,"is_reserved":false,"is_disabled":false,"rental_uris":{"android":"levelo://app?vid=92458f41-bfe8-46d5-a2b8-66b90a905a47","ios":"levelo://app?vid=92458f41-bfe8-46d5-a2b8-66b90a905a47"},"vehicle_type_id":"4","last_reported":1731406201,"current_range_meters":35600,"station_id":"ce4bhqh2rcd13ifvqhlg","pricing_plan_id":"cebpf4jnsgd1na2vs0mg"},{"bike_id":"d1362590-b6fd-4692-adba-5d590e7a510f","system_id":"levelo_inurba_marseille","lat":43.3014,"lon":5.37425,"is_reserved":false,"is_disabled":false,"rental_uris":{"android":"levelo://app?vid=d1362590-b6fd-4692-adba-5d590e7a510f","ios":"levelo://app?vid=d1362590-b6fd-4692-adba-5d590e7a510f"},"vehicle_type_id":"4","last_reported":1731406201,"current_range_meters":27600,"station_id":"ce4bgs92rcd13ifvqcc0","pricing_plan_id":"cebpf4jnsgd1na2vs0mg"},{"bike_id":"002ea831-86df-4729-a086-c17469923863","system_id":"levelo_inurba_marseille","lat":43.24082,"lon":5.37754,"is_reserved":false,"is_disabled":false,"rental_uris":{"android":"levelo://app?vid=002ea831-86df-4729-a086-c17469923863","ios":"levelo://app?vid=002ea831-86df-4729-a086-c17469923863"},"vehicle_type_id":"4","last_reported":1731406201,"current_range_meters":33600,"station_id":"ce4bhnp2rcd13ifvqgvg","pricing_plan_id":"cebpf4jnsgd1na2vs0mg"},{"bike_id":"eedf0c2a-a7d8-44a6-ab26-4773ad682f4a","system_id":"levelo_inurba_marseille","lat":43.30533,"lon":5.36537,"is_reserved":false,"is_disabled":false,"rental_uris":{"android":"levelo://app?vid=eedf0c2a-a7d8-44a6-ab26-4773ad682f4a","ios":"levelo://app?vid=eedf0c2a-a7d8-44a6-ab26-4773ad682f4a"},"vehicle_type_id":"4","last_reported":1731406201,"current_range_meters":28000,"station_id":"ce4bgs12rcd13ifvqcag","pricing_plan_id":"cebpf4jnsgd1na2vs0mg"},{"bike_id":"fe96562b-5601-498a-af19-9d68eb44f05f","system_id":"levelo_inurba_marseille","lat":43.32542,"lon":5.41432,"is_reserved":false,"is_disabled":false,"rental_uris":{"android":"levelo://app?vid=fe96562b-5601-498a-af19-9d68eb44f05f","ios":"levelo://app?vid=fe96562b-5601-498a-af19-9d68eb44f05f"},"vehicle_type_id":"4","last_reported":1731406201,"current_range_meters":39200,"station_id":"ce4bhq12rcd13ifvqhhg","pricing_plan_id":"cebpf4jnsgd1na2vs0mg"},{"bike_id":"51e4106b-ae7d-4ceb-b87d-0c30ad9b3b74","system_id":"levelo_inurba_marseille","lat":43.33618,"lon":5.41032,"is_reserved":false,"is_disabled":false,"rental_uris":{"android":"levelo://app?vid=51e4106b-ae7d-4ceb-b87d-0c30ad9b3b74","ios":"levelo://app?vid=51e4106b-ae7d-4ceb-b87d-0c30ad9b3b74"},"vehicle_type_id":"4","last_reported":1731406201,"current_range_meters":38000,"station_id":"ce4bhqh2rcd13ifvqhmg","pricing_plan_id":"cebpf4jnsgd1na2vs0mg"},{"bike_id":"34c4e5fd-d09b-481c-889a-20f2df0a03b0","system_id":"levelo_inurba_marseille","lat":43.28156,"lon":5.42642,"is_reserved":false,"is_disabled":false,"rental_uris":{"android":"levelo://app?vid=34c4e5fd-d09b-481c-889a-20f2df0a03b0","ios":"levelo://app?vid=34c4e5fd-d09b-481c-889a-20f2df0a03b0"},"vehicle_type_id":"4","last_reported":1731406201,"current_range_meters":38000,"station_id":"ce4bhnh2rcd13ifvqgug","pricing_plan_id":"cebpf4jnsgd1na2vs0mg"},{"bike_id":"0047e4fe-86ba-452f-8384-f53bf4a10227","system_id":"levelo_inurba_marseille","lat":43.337444,"lon":5.374475,"is_reserved":false,"is_disabled":false,"rental_uris":{"android":"levelo://app?vid=0047e4fe-86ba-452f-8384-f53bf4a10227","ios":"levelo://app?vid=0047e4fe-86ba-452f-8384-f53bf4a10227"},"vehicle_type_id":"4","last_reported":1731406201,"current_range_meters":38000,"station_id":"","pricing_plan_id":"cebpf4jnsgd1na2vs0mg"},{"bike_id":"e4b422ee-c56c-42a5-8df2-24e8624e43d7","system_id":"levelo_inurba_marseille","lat":43.25936,"lon":5.40907,"is_reserved":false,"is_disabled":false,"rental_uris":{"android":"levelo://app?vid=e4b422ee-c56c-42a5-8df2-24e8624e43d7","ios":"levelo://app?vid=e4b422ee-c56c-42a5-8df2-24e8624e43d7"},"vehicle_type_id":"4","last_reported":1731406201,"current_range_meters":36000,"station_id":"ce4bhm92rcd13ifvqglg","pricing_plan_id":"cebpf4jnsgd1na2vs0mg"},{"bike_id":"d33ad2a6-0433-4690-8668-63ffec3b0898","system_id":"levelo_inurba_marseille","lat":43.309132,"lon":5.368522,"is_reserved":false,"is_disabled":false,"rental_uris":{"android":"levelo://app?vid=d33ad2a6-0433-4690-8668-63ffec3b0898","ios":"levelo://app?vid=d33ad2a6-0433-4690-8668-63ffec3b0898"},"vehicle_type_id":"4","last_reported":1731406201,"current_range_meters":39200,"station_id":"ce4bgn92rcd13ifvqbvg","pricing_plan_id":"cebpf4jnsgd1na2vs0mg"},{"bike_id":"cf99cb58-44fe-4f90-853b-d980ae4d84fe","system_id":"levelo_inurba_marseille","lat":43.3046,"lon":5.37902,"is_reserved":false,"is_disabled":false,"rental_uris":{"android":"levelo://app?vid=cf99cb58-44fe-4f90-853b-d980ae4d84fe","ios":"levelo://app?vid=cf99cb58-44fe-4f90-853b-d980ae4d84fe"},"vehicle_type_id":"4","last_reported":1731406201,"current_range_meters":36800,"station_id":"ce4bgup2rcd13ifvqcn0","pricing_plan_id":"cebpf4jnsgd1na2vs0mg"},{"bike_id":"627d4298-f057-46da-ae86-005fe1212f68","system_id":"levelo_inurba_marseille","lat":43.29222,"lon":5.36054,"is_reserved":false,"is_disabled":false,"rental_uris":{"android":"levelo://app?vid=627d4298-f057-46da-ae86-005fe1212f68","ios":"levelo://app?vid=627d4298-f057-46da-ae86-005fe1212f68"},"vehicle_type_id":"4","last_reported":1731406201,"current_range_meters":19600,"station_id":"ce4bhbh2rcd13ifvqeqg","pricing_plan_id":"cebpf4jnsgd1na2vs0mg"},{"bike_id":"57aa54a7-87e7-4db4-92c5-ff80fe44f9f2","system_id":"levelo_inurba_marseille","lat":43.2816,"lon":5.42645,"is_reserved":false,"is_disabled":false,"rental_uris":{"android":"levelo://app?vid=57aa54a7-87e7-4db4-92c5-ff80fe44f9f2","ios":"levelo://app?vid=57aa54a7-87e7-4db4-92c5-ff80fe44f9f2"},"vehicle_type_id":"4","last_reported":1731406201,"current_range_meters":22400,"station_id":"ce4bhnh2rcd13ifvqgug","pricing_plan_id":"cebpf4jnsgd1na2vs0mg"},{"bike_id":"b6649fd5-6529-4736-962c-37237ff042d4","system_id":"levelo_inurba_marseille","lat":43.26571,"lon":5.39008,"is_reserved":false,"is_disabled":false,"rental_uris":{"android":"levelo://app?vid=b6649fd5-6529-4736-962c-37237ff042d4","ios":"levelo://app?vid=b6649fd5-6529-4736-962c-37237ff042d4"},"vehicle_type_id":"4","last_reported":1731406201,"current_range_meters":36400,"station_id":"ce4bhe12rcd13ifvqf30","pricing_plan_id":"cebpf4jnsgd1na2vs0mg"},{"bike_id":"c5fbd54c-1338-4a6e-a2bb-558c73be5fd0","system_id":"levelo_inurba_marseille","lat":43.28979,"lon":5.37832,"is_reserved":false,"is_disabled":false,"rental_uris":{"android":"levelo://app?vid=c5fbd54c-1338-4a6e-a2bb-558c73be5fd0","ios":"levelo://app?vid=c5fbd54c-1338-4a6e-a2bb-558c73be5fd0"},"vehicle_type_id":"4","last_reported":1731406201,"current_range_meters":38800,"station_id":"ce4bh9p2rcd13ifvqed0","pricing_plan_id":"cebpf4jnsgd1na2vs0mg"},{"bike_id":"6be11af8-ae51-43fa-b143-e3077cde111f","system_id":"levelo_inurba_marseille","lat":43.26958,"lon":5.38633,"is_reserved":false,"is_disabled":false,"rental_uris":{"android":"levelo://app?vid=6be11af8-ae51-43fa-b143-e3077cde111f","ios":"levelo://app?vid=6be11af8-ae51-43fa-b143-e3077cde111f"},"vehicle_type_id":"4","last_reported":1731406201,"current_range_meters":39200,"station_id":"ce4bhh92rcd13ifvqfh0","pricing_plan_id":"cebpf4jnsgd1na2vs0mg"},{"bike_id":"1d75d4ce-da07-47a0-83ad-027ef32b7b53","system_id":"levelo_inurba_marseille","lat":43.27415,"lon":5.38953,"is_reserved":false,"is_disabled":false,"rental_uris":{"android":"levelo://app?vid=1d75d4ce-da07-47a0-83ad-027ef32b7b53","ios":"levelo://app?vid=1d75d4ce-da07-47a0-83ad-027ef32b7b53"},"vehicle_type_id":"4","last_reported":1731406201,"current_range_meters":15200,"station_id":"","pricing_plan_id":"cebpf4jnsgd1na2vs0mg"},{"bike_id":"d609430f-45bc-4a97-9e9d-c7cee80cddfc","system_id":"levelo_inurba_marseille","lat":43.29201,"lon":5.35804,"is_reserved":false,"is_disabled":false,"rental_uris":{"android":"levelo://app?vid=d609430f-45bc-4a97-9e9d-c7cee80cddfc","ios":"levelo://app?vid=d609430f-45bc-4a97-9e9d-c7cee80cddfc"},"vehicle_type_id":"4","last_reported":1731406201,"current_range_meters":34000,"station_id":"ce4bhb12rcd13ifvqel0","pricing_plan_id":"cebpf4jnsgd1na2vs0mg"},{"bike_id":"679f1fda-66e8-4f01-9056-cdfa47220d96","system_id":"levelo_inurba_marseille","lat":43.23152,"lon":5.4372,"is_reserved":false,"is_disabled":false,"rental_uris":{"android":"levelo://app?vid=679f1fda-66e8-4f01-9056-cdfa47220d96","ios":"levelo://app?vid=679f1fda-66e8-4f01-9056-cdfa47220d96"},"vehicle_type_id":"4","last_reported":1731406201,"current_range_meters":8400,"station_id":"ce4bhmp2rcd13ifvqgog","pricing_plan_id":"cebpf4jnsgd1na2vs0mg"},{"bike_id":"0b006fb3-804d-41b0-9b56-41fc325ad39f","system_id":"levelo_inurba_marseille","lat":43.27488,"lon":5.42456,"is_reserved":false,"is_disabled":false,"rental_uris":{"android":"levelo://app?vid=0b006fb3-804d-41b0-9b56-41fc325ad39f","ios":"levelo://app?vid=0b006fb3-804d-41b0-9b56-41fc325ad39f"},"vehicle_type_id":"4","last_reported":1731406201,"current_range_meters":38800,"station_id":"ce4bhn92rcd13ifvqgrg","pricing_plan_id":"cebpf4jnsgd1na2vs0mg"},{"bike_id":"d881a04b-7487-46c8-bcc3-e9689650446f","system_id":"levelo_inurba_marseille","lat":43.26191,"lon":5.3745,"is_reserved":false,"is_disabled":false,"rental_uris":{"android":"levelo://app?vid=d881a04b-7487-46c8-bcc3-e9689650446f","ios":"levelo://app?vid=d881a04b-7487-46c8-bcc3-e9689650446f"},"vehicle_type_id":"4","last_reported":1731406201,"current_range_meters":37600,"station_id":"ce4bhgp2rcd13ifvqfc0","pricing_plan_id":"cebpf4jnsgd1na2vs0mg"},{"bike_id":"66cfe020-c744-424b-a35b-be09f38ed204","system_id":"levelo_inurba_marseille","lat":43.30542,"lon":5.3652,"is_reserved":false,"is_disabled":false,"rental_uris":{"android":"levelo://app?vid=66cfe020-c744-424b-a35b-be09f38ed204","ios":"levelo://app?vid=66cfe020-c744-424b-a35b-be09f38ed204"},"vehicle_type_id":"4","last_reported":1731406201,"current_range_meters":32400,"station_id":"ce4bgs12rcd13ifvqcag","pricing_plan_id":"cebpf4jnsgd1na2vs0mg"},{"bike_id":"14f63860-a6d5-45f4-b937-f276623be314","system_id":"levelo_inurba_marseille","lat":43.29589,"lon":5.36734,"is_reserved":false,"is_disabled":false,"rental_uris":{"android":"levelo://app?vid=14f63860-a6d5-45f4-b937-f276623be314","ios":"levelo://app?vid=14f63860-a6d5-45f4-b937-f276623be314"},"vehicle_type_id":"4","last_reported":1731406201,"current_range_meters":35600,"station_id":"ce4bgph2rcd13ifvqc2g","pricing_plan_id":"cebpf4jnsgd1na2vs0mg"},{"bike_id":"39402c55-4786-4707-bd7a-e070b411d79d","system_id":"levelo_inurba_marseille","lat":43.337444,"lon":5.374475,"is_reserved":false,"is_disabled":false,"rental_uris":{"android":"levelo://app?vid=39402c55-4786-4707-bd7a-e070b411d79d","ios":"levelo://app?vid=39402c55-4786-4707-bd7a-e070b411d79d"},"vehicle_type_id":"4","last_reported":1731406201,"current_range_meters":38400,"station_id":"","pricing_plan_id":"cebpf4jnsgd1na2vs0mg"},{"bike_id":"4be7edbe-5982-45b2-a3b1-2e4ca0a06526","system_id":"levelo_inurba_marseille","lat":43.24072,"lon":5.37754,"is_reserved":false,"is_disabled":false,"rental_uris":{"android":"levelo://app?vid=4be7edbe-5982-45b2-a3b1-2e4ca0a06526","ios":"levelo://app?vid=4be7edbe-5982-45b2-a3b1-2e4ca0a06526"},"vehicle_type_id":"4","last_reported":1731406201,"current_range_meters":39200,"station_id":"ce4bhnp2rcd13ifvqgvg","pricing_plan_id":"cebpf4jnsgd1na2vs0mg"},{"bike_id":"36eeb58a-a7f6-473b-bbae-38abfebe226c","system_id":"levelo_inurba_marseille","lat":43.3092,"lon":5.36847,"is_reserved":false,"is_disabled":false,"rental_uris":{"android":"levelo://app?vid=36eeb58a-a7f6-473b-bbae-38abfebe226c","ios":"levelo://app?vid=36eeb58a-a7f6-473b-bbae-38abfebe226c"},"vehicle_type_id":"4","last_reported":1731406201,"current_range_meters":26800,"station_id":"ce4bgn92rcd13ifvqbvg","pricing_plan_id":"cebpf4jnsgd1na2vs0mg"},{"bike_id":"550f848b-ada4-405a-a9af-7b11afaa578c","system_id":"levelo_inurba_marseille","lat":43.25933,"lon":5.40906,"is_reserved":false,"is_disabled":false,"rental_uris":{"android":"levelo://app?vid=550f848b-ada4-405a-a9af-7b11afaa578c","ios":"levelo://app?vid=550f848b-ada4-405a-a9af-7b11afaa578c"},"vehicle_type_id":"4","last_reported":1731406201,"current_range_meters":34000,"station_id":"ce4bhm92rcd13ifvqglg","pricing_plan_id":"cebpf4jnsgd1na2vs0mg"},{"bike_id":"f64d0b8e-7f96-44f7-9440-8db5445f46c0","system_id":"levelo_inurba_marseille","lat":43.28607,"lon":5.37092,"is_reserved":false,"is_disabled":false,"rental_uris":{"android":"levelo://app?vid=f64d0b8e-7f96-44f7-9440-8db5445f46c0","ios":"levelo://app?vid=f64d0b8e-7f96-44f7-9440-8db5445f46c0"},"vehicle_type_id":"4","last_reported":1731406201,"current_range_meters":38800,"station_id":"ce4bht12rcd13ifvqi60","pricing_plan_id":"cebpf4jnsgd1na2vs0mg"},{"bike_id":"3a8f3d4b-aa28-428e-afd1-fac9ce82cb9e","system_id":"levelo_inurba_marseille","lat":43.2705,"lon":5.4026,"is_reserved":false,"is_disabled":false,"rental_uris":{"android":"levelo://app?vid=3a8f3d4b-aa28-428e-afd1-fac9ce82cb9e","ios":"levelo://app?vid=3a8f3d4b-aa28-428e-afd1-fac9ce82cb9e"},"vehicle_type_id":"4","last_reported":1731406201,"current_range_meters":32800,"station_id":"ce4bhk92rcd13ifvqgc0","pricing_plan_id":"cebpf4jnsgd1na2vs0mg"},{"bike_id":"8fa421b0-0fd3-44f0-8b0e-2347348fad2e","system_id":"levelo_inurba_marseille","lat":43.2465,"lon":5.38891,"is_reserved":false,"is_disabled":false,"rental_uris":{"android":"levelo://app?vid=8fa421b0-0fd3-44f0-8b0e-2347348fad2e","ios":"levelo://app?vid=8fa421b0-0fd3-44f0-8b0e-2347348fad2e"},"vehicle_type_id":"4","last_reported":1731406201,"current_range_meters":39200,"station_id":"ce4bhg12rcd13ifvqf60","pricing_plan_id":"cebpf4jnsgd1na2vs0mg"},{"bike_id":"7ff6ef98-537e-4cc4-9ee9-d4490c062e3a","system_id":"levelo_inurba_marseille","lat":43.30603,"lon":5.39335,"is_reserved":false,"is_disabled":false,"rental_uris":{"android":"levelo://app?vid=7ff6ef98-537e-4cc4-9ee9-d4490c062e3a","ios":"levelo://app?vid=7ff6ef98-537e-4cc4-9ee9-d4490c062e3a"},"vehicle_type_id":"4","last_reported":1731406201,"current_range_meters":32800,"station_id":"ce4bh0p2rcd13ifvqd80","pricing_plan_id":"cebpf4jnsgd1na2vs0mg"},{"bike_id":"eb8a5487-c4e6-4fae-8b90-a832ba6c06bb","system_id":"levelo_inurba_marseille","lat":43.29261,"lon":5.38433,"is_reserved":false,"is_disabled":false,"rental_uris":{"android":"levelo://app?vid=eb8a5487-c4e6-4fae-8b90-a832ba6c06bb","ios":"levelo://app?vid=eb8a5487-c4e6-4fae-8b90-a832ba6c06bb"},"vehicle_type_id":"4","last_reported":1731406201,"current_range_meters":32000,"station_id":"ce4bh692rcd13ifvqea0","pricing_plan_id":"cebpf4jnsgd1na2vs0mg"},{"bike_id":"c2cda817-43f0-435f-bd1d-0ba8e14369aa","system_id":"levelo_inurba_marseille","lat":43.24075,"lon":5.37761,"is_reserved":false,"is_disabled":false,"rental_uris":{"android":"levelo://app?vid=c2cda817-43f0-435f-bd1d-0ba8e14369aa","ios":"levelo://app?vid=c2cda817-43f0-435f-bd1d-0ba8e14369aa"},"vehicle_type_id":"4","last_reported":1731406201,"current_range_meters":35200,"station_id":"ce4bhnp2rcd13ifvqgvg","pricing_plan_id":"cebpf4jnsgd1na2vs0mg"},{"bike_id":"2aa34768-e9fe-462a-ac91-d1bb644b1438","system_id":"levelo_inurba_marseille","lat":43.29688,"lon":5.37291,"is_reserved":false,"is_disabled":false,"rental_uris":{"android":"levelo://app?vid=2aa34768-e9fe-462a-ac91-d1bb644b1438","ios":"levelo://app?vid=2aa34768-e9fe-462a-ac91-d1bb644b1438"},"vehicle_type_id":"4","last_reported":1731406201,"current_range_meters":38000,"station_id":"ce4bgk12rcd13ifvqbj0","pricing_plan_id":"cebpf4jnsgd1na2vs0mg"},{"bike_id":"db35f45e-1a73-42fd-876e-0a145e339ca7","system_id":"levelo_inurba_marseille","lat":43.24173,"lon":5.39723,"is_reserved":false,"is_disabled":false,"rental_uris":{"android":"levelo://app?vid=db35f45e-1a73-42fd-876e-0a145e339ca7","ios":"levelo://app?vid=db35f45e-1a73-42fd-876e-0a145e339ca7"},"vehicle_type_id":"4","last_reported":1731406201,"current_range_meters":34000,"station_id":"ce4bhn12rcd13ifvqgpg","pricing_plan_id":"cebpf4jnsgd1na2vs0mg"},{"bike_id":"f8989477-e059-40bb-97e6-8bf9f40bc55f","system_id":"levelo_inurba_marseille","lat":43.291009,"lon":5.381242,"is_reserved":false,"is_disabled":false,"rental_uris":{"android":"levelo://app?vid=f8989477-e059-40bb-97e6-8bf9f40bc55f","ios":"levelo://app?vid=f8989477-e059-40bb-97e6-8bf9f40bc55f"},"vehicle_type_id":"4","last_reported":1731406201,"current_range_meters":32800,"station_id":"ce4bh492rcd13ifvqdug","pricing_plan_id":"cebpf4jnsgd1na2vs0mg"},{"bike_id":"9c9e0c5a-2fcf-4a2b-a3ec-94e915bc3bba","system_id":"levelo_inurba_marseille","lat":43.30542,"lon":5.36708,"is_reserved":false,"is_disabled":false,"rental_uris":{"android":"levelo://app?vid=9c9e0c5a-2fcf-4a2b-a3ec-94e915bc3bba","ios":"levelo://app?vid=9c9e0c5a-2fcf-4a2b-a3ec-94e915bc3bba"},"vehicle_type_id":"4","last_reported":1731406201,"current_range_meters":34800,"station_id":"ce4bgrp2rcd13ifvqc9g","pricing_plan_id":"cebpf4jnsgd1na2vs0mg"},{"bike_id":"da885111-535b-4329-b013-a1bab5dd6158","system_id":"levelo_inurba_marseille","lat":43.24082,"lon":5.37751,"is_reserved":false,"is_disabled":false,"rental_uris":{"android":"levelo://app?vid=da885111-535b-4329-b013-a1bab5dd6158","ios":"levelo://app?vid=da885111-535b-4329-b013-a1bab5dd6158"},"vehicle_type_id":"4","last_reported":1731406201,"current_range_meters":36000,"station_id":"ce4bhnp2rcd13ifvqgvg","pricing_plan_id":"cebpf4jnsgd1na2vs0mg"},{"bike_id":"cd624a46-7c22-4a05-8916-495388cc6377","system_id":"levelo_inurba_marseille","lat":43.30914,"lon":5.36852,"is_reserved":false,"is_disabled":false,"rental_uris":{"android":"levelo://app?vid=cd624a46-7c22-4a05-8916-495388cc6377","ios":"levelo://app?vid=cd624a46-7c22-4a05-8916-495388cc6377"},"vehicle_type_id":"4","last_reported":1731406201,"current_range_meters":33200,"station_id":"ce4bgn92rcd13ifvqbvg","pricing_plan_id":"cebpf4jnsgd1na2vs0mg"},{"bike_id":"a981cddb-35b3-4b69-a3bf-cfde7e96370a","system_id":"levelo_inurba_marseille","lat":43.2315,"lon":5.43716,"is_reserved":false,"is_disabled":false,"rental_uris":{"android":"levelo://app?vid=a981cddb-35b3-4b69-a3bf-cfde7e96370a","ios":"levelo://app?vid=a981cddb-35b3-4b69-a3bf-cfde7e96370a"},"vehicle_type_id":"4","last_reported":1731406201,"current_range_meters":39200,"station_id":"ce4bhmp2rcd13ifvqgog","pricing_plan_id":"cebpf4jnsgd1na2vs0mg"},{"bike_id":"2043ad40-3d02-487b-8105-782f0fa816fa","system_id":"levelo_inurba_marseille","lat":43.267863,"lon":5.394153,"is_reserved":false,"is_disabled":false,"rental_uris":{"android":"levelo://app?vid=2043ad40-3d02-487b-8105-782f0fa816fa","ios":"levelo://app?vid=2043ad40-3d02-487b-8105-782f0fa816fa"},"vehicle_type_id":"4","last_reported":1731406201,"current_range_meters":37600,"station_id":"ce4bhh12rcd13ifvqfg0","pricing_plan_id":"cebpf4jnsgd1na2vs0mg"},{"bike_id":"f7ac3658-e4f8-45b5-8cf5-25d1bf4fe733","system_id":"levelo_inurba_marseille","lat":43.30104,"lon":5.3908,"is_reserved":false,"is_disabled":false,"rental_uris":{"android":"levelo://app?vid=f7ac3658-e4f8-45b5-8cf5-25d1bf4fe733","ios":"levelo://app?vid=f7ac3658-e4f8-45b5-8cf5-25d1bf4fe733"},"vehicle_type_id":"4","last_reported":1731406201,"current_range_meters":8400,"station_id":"ce4bh192rcd13ifvqdb0","pricing_plan_id":"cebpf4jnsgd1na2vs0mg"},{"bike_id":"0e2a69ec-b7ef-44c0-a22a-09843c03940d","system_id":"levelo_inurba_marseille","lat":43.26959,"lon":5.38623,"is_reserved":false,"is_disabled":false,"rental_uris":{"android":"levelo://app?vid=0e2a69ec-b7ef-44c0-a22a-09843c03940d","ios":"levelo://app?vid=0e2a69ec-b7ef-44c0-a22a-09843c03940d"},"vehicle_type_id":"4","last_reported":1731406201,"current_range_meters":18000,"station_id":"ce4bhh92rcd13ifvqfh0","pricing_plan_id":"cebpf4jnsgd1na2vs0mg"},{"bike_id":"90a26b92-f7f9-4648-8c5e-5d5a4780f284","system_id":"levelo_inurba_marseille","lat":43.30129,"lon":5.39862,"is_reserved":false,"is_disabled":false,"rental_uris":{"android":"levelo://app?vid=90a26b92-f7f9-4648-8c5e-5d5a4780f284","ios":"levelo://app?vid=90a26b92-f7f9-4648-8c5e-5d5a4780f284"},"vehicle_type_id":"4","last_reported":1731406201,"current_range_meters":9600,"station_id":"ce4bh0h2rcd13ifvqd40","pricing_plan_id":"cebpf4jnsgd1na2vs0mg"},{"bike_id":"181fa628-fd06-4339-88f4-5d411c857699","system_id":"levelo_inurba_marseille","lat":43.27069,"lon":5.42281,"is_reserved":false,"is_disabled":false,"rental_uris":{"android":"levelo://app?vid=181fa628-fd06-4339-88f4-5d411c857699","ios":"levelo://app?vid=181fa628-fd06-4339-88f4-5d411c857699"},"vehicle_type_id":"4","last_reported":1731406201,"current_range_meters":32000,"station_id":"ce4bhk92rcd13ifvqgb0","pricing_plan_id":"cebpf4jnsgd1na2vs0mg"},{"bike_id":"24d9d586-8c32-4471-a664-bc6edf687549","system_id":"levelo_inurba_marseille","lat":43.2695,"lon":5.38629,"is_reserved":false,"is_disabled":false,"rental_uris":{"android":"levelo://app?vid=24d9d586-8c32-4471-a664-bc6edf687549","ios":"levelo://app?vid=24d9d586-8c32-4471-a664-bc6edf687549"},"vehicle_type_id":"4","last_reported":1731406201,"current_range_meters":31200,"station_id":"ce4bhh92rcd13ifvqfh0","pricing_plan_id":"cebpf4jnsgd1na2vs0mg"},{"bike_id":"66e87406-2b0a-40a2-ac3f-a3194ab98cae","system_id":"levelo_inurba_marseille","lat":43.29931,"lon":5.36537,"is_reserved":false,"is_disabled":false,"rental_uris":{"android":"levelo://app?vid=66e87406-2b0a-40a2-ac3f-a3194ab98cae","ios":"levelo://app?vid=66e87406-2b0a-40a2-ac3f-a3194ab98cae"},"vehicle_type_id":"4","last_reported":1731406201,"current_range_meters":18800,"station_id":"ce4bgm92rcd13ifvqbr0","pricing_plan_id":"cebpf4jnsgd1na2vs0mg"},{"bike_id":"f57e5e8f-0f39-4d06-aee6-2b65851c9097","system_id":"levelo_inurba_marseille","lat":43.3302,"lon":5.39038,"is_reserved":false,"is_disabled":false,"rental_uris":{"android":"levelo://app?vid=f57e5e8f-0f39-4d06-aee6-2b65851c9097","ios":"levelo://app?vid=f57e5e8f-0f39-4d06-aee6-2b65851c9097"},"vehicle_type_id":"4","last_reported":1731406201,"current_range_meters":35200,"station_id":"ce4bhr92rcd13ifvqhrg","pricing_plan_id":"cebpf4jnsgd1na2vs0mg"},{"bike_id":"43520d9d-38a2-4578-aafe-59a4e96e35b6","system_id":"levelo_inurba_marseille","lat":43.29202,"lon":5.39323,"is_reserved":false,"is_disabled":false,"rental_uris":{"android":"levelo://app?vid=43520d9d-38a2-4578-aafe-59a4e96e35b6","ios":"levelo://app?vid=43520d9d-38a2-4578-aafe-59a4e96e35b6"},"vehicle_type_id":"4","last_reported":1731406201,"current_range_meters":20800,"station_id":"ce4bh192rcd13ifvqdd0","pricing_plan_id":"cebpf4jnsgd1na2vs0mg"},{"bike_id":"c211e6c0-310f-4185-9e69-3ccddf8ad5c7","system_id":"levelo_inurba_marseille","lat":43.24079,"lon":5.37758,"is_reserved":false,"is_disabled":false,"rental_uris":{"android":"levelo://app?vid=c211e6c0-310f-4185-9e69-3ccddf8ad5c7","ios":"levelo://app?vid=c211e6c0-310f-4185-9e69-3ccddf8ad5c7"},"vehicle_type_id":"4","last_reported":1731406201,"current_range_meters":30400,"station_id":"ce4bhnp2rcd13ifvqgvg","pricing_plan_id":"cebpf4jnsgd1na2vs0mg"},{"bike_id":"bd5d2367-1e38-44d1-9328-f8a27f959ddf","system_id":"levelo_inurba_marseille","lat":43.30539,"lon":5.36532,"is_reserved":false,"is_disabled":false,"rental_uris":{"android":"levelo://app?vid=bd5d2367-1e38-44d1-9328-f8a27f959ddf","ios":"levelo://app?vid=bd5d2367-1e38-44d1-9328-f8a27f959ddf"},"vehicle_type_id":"4","last_reported":1731406201,"current_range_meters":33200,"station_id":"ce4bgs12rcd13ifvqcag","pricing_plan_id":"cebpf4jnsgd1na2vs0mg"},{"bike_id":"e0dd5ad8-53cf-4379-b894-58b137568b15","system_id":"levelo_inurba_marseille","lat":43.22924,"lon":5.35377,"is_reserved":false,"is_disabled":false,"rental_uris":{"android":"levelo://app?vid=e0dd5ad8-53cf-4379-b894-58b137568b15","ios":"levelo://app?vid=e0dd5ad8-53cf-4379-b894-58b137568b15"},"vehicle_type_id":"4","last_reported":1731406201,"current_range_meters":36800,"station_id":"cpo3532slgdg3j2ikp40","pricing_plan_id":"cebpf4jnsgd1na2vs0mg"},{"bike_id":"e6cb4a02-eadb-4fff-bc4d-b987f0341f37","system_id":"levelo_inurba_marseille","lat":43.28471,"lon":5.3841,"is_reserved":false,"is_disabled":false,"rental_uris":{"android":"levelo://app?vid=e6cb4a02-eadb-4fff-bc4d-b987f0341f37","ios":"levelo://app?vid=e6cb4a02-eadb-4fff-bc4d-b987f0341f37"},"vehicle_type_id":"4","last_reported":1731406201,"current_range_meters":34000,"station_id":"ce4bh512rcd13ifvqe3g","pricing_plan_id":"cebpf4jnsgd1na2vs0mg"},{"bike_id":"0ff30c97-d032-4bd2-b806-0ba1b23f1458","system_id":"levelo_inurba_marseille","lat":43.29895,"lon":5.4366,"is_reserved":false,"is_disabled":false,"rental_uris":{"android":"levelo://app?vid=0ff30c97-d032-4bd2-b806-0ba1b23f1458","ios":"levelo://app?vid=0ff30c97-d032-4bd2-b806-0ba1b23f1458"},"vehicle_type_id":"4","last_reported":1731406201,"current_range_meters":39200,"station_id":"ce4bhpp2rcd13ifvqhfg","pricing_plan_id":"cebpf4jnsgd1na2vs0mg"},{"bike_id":"81bbffab-2294-4802-a46f-42950b37b5d6","system_id":"levelo_inurba_marseille","lat":43.23963,"lon":5.3663,"is_reserved":false,"is_disabled":false,"rental_uris":{"android":"levelo://app?vid=81bbffab-2294-4802-a46f-42950b37b5d6","ios":"levelo://app?vid=81bbffab-2294-4802-a46f-42950b37b5d6"},"vehicle_type_id":"4","last_reported":1731406201,"current_range_meters":37600,"station_id":"ce4bhi12rcd13ifvqfp0","pricing_plan_id":"cebpf4jnsgd1na2vs0mg"},{"bike_id":"e9dd0c6b-2853-466f-8a0a-962c6252327d","system_id":"levelo_inurba_marseille","lat":43.291,"lon":5.38136,"is_reserved":false,"is_disabled":false,"rental_uris":{"android":"levelo://app?vid=e9dd0c6b-2853-466f-8a0a-962c6252327d","ios":"levelo://app?vid=e9dd0c6b-2853-466f-8a0a-962c6252327d"},"vehicle_type_id":"4","last_reported":1731406201,"current_range_meters":24000,"station_id":"ce4bh512rcd13ifvqe2g","pricing_plan_id":"cebpf4jnsgd1na2vs0mg"},{"bike_id":"ad045db2-503d-4081-b02f-af492ea16c38","system_id":"levelo_inurba_marseille","lat":43.27973,"lon":5.38747,"is_reserved":false,"is_disabled":false,"rental_uris":{"android":"levelo://app?vid=ad045db2-503d-4081-b02f-af492ea16c38","ios":"levelo://app?vid=ad045db2-503d-4081-b02f-af492ea16c38"},"vehicle_type_id":"4","last_reported":1731406201,"current_range_meters":38000,"station_id":"ce4bhg12rcd13ifvqf80","pricing_plan_id":"cebpf4jnsgd1na2vs0mg"},{"bike_id":"0e932888-aaad-46e5-a564-bfbc93c45cab","system_id":"levelo_inurba_marseille","lat":43.30098,"lon":5.39075,"is_reserved":false,"is_disabled":false,"rental_uris":{"android":"levelo://app?vid=0e932888-aaad-46e5-a564-bfbc93c45cab","ios":"levelo://app?vid=0e932888-aaad-46e5-a564-bfbc93c45cab"},"vehicle_type_id":"4","last_reported":1731406201,"current_range_meters":30000,"station_id":"ce4bh192rcd13ifvqdb0","pricing_plan_id":"cebpf4jnsgd1na2vs0mg"},{"bike_id":"1a5a7c78-63fa-4be9-b258-f0f8591f2372","system_id":"levelo_inurba_marseille","lat":43.29972,"lon":5.37172,"is_reserved":false,"is_disabled":false,"rental_uris":{"android":"levelo://app?vid=1a5a7c78-63fa-4be9-b258-f0f8591f2372","ios":"levelo://app?vid=1a5a7c78-63fa-4be9-b258-f0f8591f2372"},"vehicle_type_id":"4","last_reported":1731406201,"current_range_meters":38000,"station_id":"ce4bgr92rcd13ifvqc7g","pricing_plan_id":"cebpf4jnsgd1na2vs0mg"},{"bike_id":"00e272f2-84fd-4928-b4f9-6dcf50a03a04","system_id":"levelo_inurba_marseille","lat":43.29621,"lon":5.37164,"is_reserved":false,"is_disabled":false,"rental_uris":{"android":"levelo://app?vid=00e272f2-84fd-4928-b4f9-6dcf50a03a04","ios":"levelo://app?vid=00e272f2-84fd-4928-b4f9-6dcf50a03a04"},"vehicle_type_id":"4","last_reported":1731406201,"current_range_meters":28400,"station_id":"ce4bgnh2rcd13ifvqc0g","pricing_plan_id":"cebpf4jnsgd1na2vs0mg"},{"bike_id":"71b63164-c3d8-426b-ace8-eec8b1a7f67a","system_id":"levelo_inurba_marseille","lat":43.23151,"lon":5.43724,"is_reserved":false,"is_disabled":false,"rental_uris":{"android":"levelo://app?vid=71b63164-c3d8-426b-ace8-eec8b1a7f67a","ios":"levelo://app?vid=71b63164-c3d8-426b-ace8-eec8b1a7f67a"},"vehicle_type_id":"4","last_reported":1731406201,"current_range_meters":16400,"station_id":"ce4bhmp2rcd13ifvqgog","pricing_plan_id":"cebpf4jnsgd1na2vs0mg"},{"bike_id":"f87c449c-8877-48c5-b0c6-7e870499460e","system_id":"levelo_inurba_marseille","lat":43.29036,"lon":5.39977,"is_reserved":false,"is_disabled":false,"rental_uris":{"android":"levelo://app?vid=f87c449c-8877-48c5-b0c6-7e870499460e","ios":"levelo://app?vid=f87c449c-8877-48c5-b0c6-7e870499460e"},"vehicle_type_id":"4","last_reported":1731406201,"current_range_meters":28000,"station_id":"ce4bh392rcd13ifvqdm0","pricing_plan_id":"cebpf4jnsgd1na2vs0mg"},{"bike_id":"9627e088-e51f-4725-aa4b-03686fa877e5","system_id":"levelo_inurba_marseille","lat":43.26935,"lon":5.38648,"is_reserved":false,"is_disabled":false,"rental_uris":{"android":"levelo://app?vid=9627e088-e51f-4725-aa4b-03686fa877e5","ios":"levelo://app?vid=9627e088-e51f-4725-aa4b-03686fa877e5"},"vehicle_type_id":"4","last_reported":1731406201,"current_range_meters":4800,"station_id":"ce4bhh92rcd13ifvqfh0","pricing_plan_id":"cebpf4jnsgd1na2vs0mg"},{"bike_id":"2782d62c-5db7-48b5-b1c9-aae6d82c7531","system_id":"levelo_inurba_marseille","lat":43.31997,"lon":5.3816,"is_reserved":false,"is_disabled":false,"rental_uris":{"android":"levelo://app?vid=2782d62c-5db7-48b5-b1c9-aae6d82c7531","ios":"levelo://app?vid=2782d62c-5db7-48b5-b1c9-aae6d82c7531"},"vehicle_type_id":"4","last_reported":1731406201,"current_range_meters":39200,"station_id":"ce4bhr12rcd13ifvqhpg","pricing_plan_id":"cebpf4jnsgd1na2vs0mg"},{"bike_id":"d1bc247d-59f1-4f79-b760-0b5489bee37e","system_id":"levelo_inurba_marseille","lat":43.25727,"lon":5.41114,"is_reserved":false,"is_disabled":false,"rental_uris":{"android":"levelo://app?vid=d1bc247d-59f1-4f79-b760-0b5489bee37e","ios":"levelo://app?vid=d1bc247d-59f1-4f79-b760-0b5489bee37e"},"vehicle_type_id":"4","last_reported":1731406201,"current_range_meters":38000,"station_id":"ce4bhkp2rcd13ifvqgd0","pricing_plan_id":"cebpf4jnsgd1na2vs0mg"},{"bike_id":"3c599d78-96ef-467f-aad7-b2108f28d38a","system_id":"levelo_inurba_marseille","lat":43.26956,"lon":5.38631,"is_reserved":false,"is_disabled":false,"rental_uris":{"android":"levelo://app?vid=3c599d78-96ef-467f-aad7-b2108f28d38a","ios":"levelo://app?vid=3c599d78-96ef-467f-aad7-b2108f28d38a"},"vehicle_type_id":"4","last_reported":1731406201,"current_range_meters":32400,"station_id":"ce4bhh92rcd13ifvqfh0","pricing_plan_id":"cebpf4jnsgd1na2vs0mg"},{"bike_id":"434ec63e-a4dd-4c34-ac69-e995e67e0e83","system_id":"levelo_inurba_marseille","lat":43.27428,"lon":5.39418,"is_reserved":false,"is_disabled":false,"rental_uris":{"android":"levelo://app?vid=434ec63e-a4dd-4c34-ac69-e995e67e0e83","ios":"levelo://app?vid=434ec63e-a4dd-4c34-ac69-e995e67e0e83"},"vehicle_type_id":"4","last_reported":1731406201,"current_range_meters":39200,"station_id":"ce4bhdp2rcd13ifvqf20","pricing_plan_id":"cebpf4jnsgd1na2vs0mg"},{"bike_id":"9181c5f3-2257-401d-b99d-a63e014ee85d","system_id":"levelo_inurba_marseille","lat":43.25001,"lon":5.3893,"is_reserved":false,"is_disabled":false,"rental_uris":{"android":"levelo://app?vid=9181c5f3-2257-401d-b99d-a63e014ee85d","ios":"levelo://app?vid=9181c5f3-2257-401d-b99d-a63e014ee85d"},"vehicle_type_id":"4","last_reported":1731406201,"current_range_meters":25600,"station_id":"ce4bhgp2rcd13ifvqfd0","pricing_plan_id":"cebpf4jnsgd1na2vs0mg"},{"bike_id":"ca470591-2acf-4dcf-8a9b-56688197c9a2","system_id":"levelo_inurba_marseille","lat":43.28658,"lon":5.36351,"is_reserved":false,"is_disabled":false,"rental_uris":{"android":"levelo://app?vid=ca470591-2acf-4dcf-8a9b-56688197c9a2","ios":"levelo://app?vid=ca470591-2acf-4dcf-8a9b-56688197c9a2"},"vehicle_type_id":"4","last_reported":1731406201,"current_range_meters":32000,"station_id":"ce4bhah2rcd13ifvqej0","pricing_plan_id":"cebpf4jnsgd1na2vs0mg"},{"bike_id":"9268055f-2fc7-4bb5-8563-e264a6e67ce0","system_id":"levelo_inurba_marseille","lat":43.2847,"lon":5.38414,"is_reserved":false,"is_disabled":false,"rental_uris":{"android":"levelo://app?vid=9268055f-2fc7-4bb5-8563-e264a6e67ce0","ios":"levelo://app?vid=9268055f-2fc7-4bb5-8563-e264a6e67ce0"},"vehicle_type_id":"4","last_reported":1731406201,"current_range_meters":32400,"station_id":"ce4bh512rcd13ifvqe3g","pricing_plan_id":"cebpf4jnsgd1na2vs0mg"},{"bike_id":"c82de6bc-afc0-4dff-a091-f29850463deb","system_id":"levelo_inurba_marseille","lat":43.33603,"lon":5.41031,"is_reserved":false,"is_disabled":false,"rental_uris":{"android":"levelo://app?vid=c82de6bc-afc0-4dff-a091-f29850463deb","ios":"levelo://app?vid=c82de6bc-afc0-4dff-a091-f29850463deb"},"vehicle_type_id":"4","last_reported":1731406201,"current_range_meters":38000,"station_id":"ce4bhqh2rcd13ifvqhmg","pricing_plan_id":"cebpf4jnsgd1na2vs0mg"},{"bike_id":"8efeffbf-ac46-4566-afa0-7ad103ff7726","system_id":"levelo_inurba_marseille","lat":43.23966,"lon":5.36628,"is_reserved":false,"is_disabled":false,"rental_uris":{"android":"levelo://app?vid=8efeffbf-ac46-4566-afa0-7ad103ff7726","ios":"levelo://app?vid=8efeffbf-ac46-4566-afa0-7ad103ff7726"},"vehicle_type_id":"4","last_reported":1731406201,"current_range_meters":38000,"station_id":"ce4bhi12rcd13ifvqfp0","pricing_plan_id":"cebpf4jnsgd1na2vs0mg"},{"bike_id":"a4d57b56-88aa-4467-9897-70b3255c4814","system_id":"levelo_inurba_marseille","lat":43.27073,"lon":5.42274,"is_reserved":false,"is_disabled":false,"rental_uris":{"android":"levelo://app?vid=a4d57b56-88aa-4467-9897-70b3255c4814","ios":"levelo://app?vid=a4d57b56-88aa-4467-9897-70b3255c4814"},"vehicle_type_id":"4","last_reported":1731406201,"current_range_meters":22800,"station_id":"ce4bhk92rcd13ifvqgb0","pricing_plan_id":"cebpf4jnsgd1na2vs0mg"},{"bike_id":"952918e1-3477-4ec2-ada5-f4fbec2cd30b","system_id":"levelo_inurba_marseille","lat":43.29967,"lon":5.38498,"is_reserved":false,"is_disabled":false,"rental_uris":{"android":"levelo://app?vid=952918e1-3477-4ec2-ada5-f4fbec2cd30b","ios":"levelo://app?vid=952918e1-3477-4ec2-ada5-f4fbec2cd30b"},"vehicle_type_id":"4","last_reported":1731406201,"current_range_meters":8400,"station_id":"ce4bgj92rcd13ifvqbd0","pricing_plan_id":"cebpf4jnsgd1na2vs0mg"},{"bike_id":"a09e0c3f-e0bd-49b7-9e1e-fd29c6267cdf","system_id":"levelo_inurba_marseille","lat":43.29968,"lon":5.385,"is_reserved":false,"is_disabled":false,"rental_uris":{"android":"levelo://app?vid=a09e0c3f-e0bd-49b7-9e1e-fd29c6267cdf","ios":"levelo://app?vid=a09e0c3f-e0bd-49b7-9e1e-fd29c6267cdf"},"vehicle_type_id":"4","last_reported":1731406201,"current_range_meters":12000,"station_id":"ce4bgj92rcd13ifvqbd0","pricing_plan_id":"cebpf4jnsgd1na2vs0mg"},{"bike_id":"9807afc9-8358-4ed0-b943-7dad1d26b814","system_id":"levelo_inurba_marseille","lat":43.33613,"lon":5.41034,"is_reserved":false,"is_disabled":false,"rental_uris":{"android":"levelo://app?vid=9807afc9-8358-4ed0-b943-7dad1d26b814","ios":"levelo://app?vid=9807afc9-8358-4ed0-b943-7dad1d26b814"},"vehicle_type_id":"4","last_reported":1731406201,"current_range_meters":9200,"station_id":"ce4bhqh2rcd13ifvqhmg","pricing_plan_id":"cebpf4jnsgd1na2vs0mg"},{"bike_id":"90d04b64-9faa-4eac-976a-1e912da98cdd","system_id":"levelo_inurba_marseille","lat":43.26957,"lon":5.38629,"is_reserved":false,"is_disabled":false,"rental_uris":{"android":"levelo://app?vid=90d04b64-9faa-4eac-976a-1e912da98cdd","ios":"levelo://app?vid=90d04b64-9faa-4eac-976a-1e912da98cdd"},"vehicle_type_id":"4","last_reported":1731406201,"current_range_meters":23200,"station_id":"ce4bhh92rcd13ifvqfh0","pricing_plan_id":"cebpf4jnsgd1na2vs0mg"},{"bike_id":"41bc15f4-beff-4b4b-8a90-8df4586b1f36","system_id":"levelo_inurba_marseille","lat":43.26963,"lon":5.38625,"is_reserved":false,"is_disabled":false,"rental_uris":{"android":"levelo://app?vid=41bc15f4-beff-4b4b-8a90-8df4586b1f36","ios":"levelo://app?vid=41bc15f4-beff-4b4b-8a90-8df4586b1f36"},"vehicle_type_id":"4","last_reported":1731406201,"current_range_meters":30000,"station_id":"ce4bhh92rcd13ifvqfh0","pricing_plan_id":"cebpf4jnsgd1na2vs0mg"},{"bike_id":"0389f6ba-9b11-4bae-aa59-6c887bee55e5","system_id":"levelo_inurba_marseille","lat":43.31831,"lon":5.38914,"is_reserved":false,"is_disabled":false,"rental_uris":{"android":"levelo://app?vid=0389f6ba-9b11-4bae-aa59-6c887bee55e5","ios":"levelo://app?vid=0389f6ba-9b11-4bae-aa59-6c887bee55e5"},"vehicle_type_id":"4","last_reported":1731406201,"current_range_meters":28800,"station_id":"","pricing_plan_id":"cebpf4jnsgd1na2vs0mg"},{"bike_id":"bc82472b-fd5f-4d5d-b9ed-4cdfee160b3a","system_id":"levelo_inurba_marseille","lat":43.29796,"lon":5.39339,"is_reserved":false,"is_disabled":false,"rental_uris":{"android":"levelo://app?vid=bc82472b-fd5f-4d5d-b9ed-4cdfee160b3a","ios":"levelo://app?vid=bc82472b-fd5f-4d5d-b9ed-4cdfee160b3a"},"vehicle_type_id":"4","last_reported":1731406201,"current_range_meters":24800,"station_id":"chh1huq6cuj3fo74tm60","pricing_plan_id":"cebpf4jnsgd1na2vs0mg"},{"bike_id":"0f51005a-d816-498c-9985-fee40ab1f5df","system_id":"levelo_inurba_marseille","lat":43.29039,"lon":5.3998,"is_reserved":false,"is_disabled":false,"rental_uris":{"android":"levelo://app?vid=0f51005a-d816-498c-9985-fee40ab1f5df","ios":"levelo://app?vid=0f51005a-d816-498c-9985-fee40ab1f5df"},"vehicle_type_id":"4","last_reported":1731406201,"current_range_meters":32800,"station_id":"ce4bh392rcd13ifvqdm0","pricing_plan_id":"cebpf4jnsgd1na2vs0mg"},{"bike_id":"63c21793-ca40-4153-8256-f644496502b0","system_id":"levelo_inurba_marseille","lat":43.24084,"lon":5.37752,"is_reserved":false,"is_disabled":false,"rental_uris":{"android":"levelo://app?vid=63c21793-ca40-4153-8256-f644496502b0","ios":"levelo://app?vid=63c21793-ca40-4153-8256-f644496502b0"},"vehicle_type_id":"4","last_reported":1731406201,"current_range_meters":8800,"station_id":"ce4bhnp2rcd13ifvqgvg","pricing_plan_id":"cebpf4jnsgd1na2vs0mg"},{"bike_id":"0d4a7c64-c0bc-4dea-b791-1f5ab46055ea","system_id":"levelo_inurba_marseille","lat":43.286793,"lon":5.38659,"is_reserved":false,"is_disabled":false,"rental_uris":{"android":"levelo://app?vid=0d4a7c64-c0bc-4dea-b791-1f5ab46055ea","ios":"levelo://app?vid=0d4a7c64-c0bc-4dea-b791-1f5ab46055ea"},"vehicle_type_id":"4","last_reported":1731406201,"current_range_meters":39200,"station_id":"ce4bh492rcd13ifvqdug","pricing_plan_id":"cebpf4jnsgd1na2vs0mg"},{"bike_id":"6a6bc5de-7288-497d-bcb4-215b164e88d4","system_id":"levelo_inurba_marseille","lat":43.30546,"lon":5.36537,"is_reserved":false,"is_disabled":false,"rental_uris":{"android":"levelo://app?vid=6a6bc5de-7288-497d-bcb4-215b164e88d4","ios":"levelo://app?vid=6a6bc5de-7288-497d-bcb4-215b164e88d4"},"vehicle_type_id":"4","last_reported":1731406201,"current_range_meters":28800,"station_id":"ce4bgs12rcd13ifvqcag","pricing_plan_id":"cebpf4jnsgd1na2vs0mg"},{"bike_id":"68abcea4-b254-472c-83f6-01826308fdb8","system_id":"levelo_inurba_marseille","lat":43.29192,"lon":5.39319,"is_reserved":false,"is_disabled":false,"rental_uris":{"android":"levelo://app?vid=68abcea4-b254-472c-83f6-01826308fdb8","ios":"levelo://app?vid=68abcea4-b254-472c-83f6-01826308fdb8"},"vehicle_type_id":"4","last_reported":1731406201,"current_range_meters":38800,"station_id":"ce4bh192rcd13ifvqdd0","pricing_plan_id":"cebpf4jnsgd1na2vs0mg"},{"bike_id":"e722dc4e-3d22-4dc5-9ca5-ee6d37d1fc31","system_id":"levelo_inurba_marseille","lat":43.29523,"lon":5.37502,"is_reserved":false,"is_disabled":false,"rental_uris":{"android":"levelo://app?vid=e722dc4e-3d22-4dc5-9ca5-ee6d37d1fc31","ios":"levelo://app?vid=e722dc4e-3d22-4dc5-9ca5-ee6d37d1fc31"},"vehicle_type_id":"4","last_reported":1731406201,"current_range_meters":30800,"station_id":"ce4bgkp2rcd13ifvqbmg","pricing_plan_id":"cebpf4jnsgd1na2vs0mg"},{"bike_id":"396cf7de-c3ff-4af9-9241-b1b558a79d7d","system_id":"levelo_inurba_marseille","lat":43.28005,"lon":5.40012,"is_reserved":false,"is_disabled":false,"rental_uris":{"android":"levelo://app?vid=396cf7de-c3ff-4af9-9241-b1b558a79d7d","ios":"levelo://app?vid=396cf7de-c3ff-4af9-9241-b1b558a79d7d"},"vehicle_type_id":"4","last_reported":1731406201,"current_range_meters":38000,"station_id":"ce4bho92rcd13ifvqh4g","pricing_plan_id":"cebpf4jnsgd1na2vs0mg"},{"bike_id":"f9337123-8b88-41dc-aa21-e3b610fc2b0d","system_id":"levelo_inurba_marseille","lat":43.29801,"lon":5.38084,"is_reserved":false,"is_disabled":false,"rental_uris":{"android":"levelo://app?vid=f9337123-8b88-41dc-aa21-e3b610fc2b0d","ios":"levelo://app?vid=f9337123-8b88-41dc-aa21-e3b610fc2b0d"},"vehicle_type_id":"4","last_reported":1731406201,"current_range_meters":8400,"station_id":"ce4bgip2rcd13ifvqbb0","pricing_plan_id":"cebpf4jnsgd1na2vs0mg"},{"bike_id":"b8679e6d-7ac1-4e7c-bd69-63e93ea1742f","system_id":"levelo_inurba_marseille","lat":43.255803,"lon":5.382318,"is_reserved":false,"is_disabled":false,"rental_uris":{"android":"levelo://app?vid=b8679e6d-7ac1-4e7c-bd69-63e93ea1742f","ios":"levelo://app?vid=b8679e6d-7ac1-4e7c-bd69-63e93ea1742f"},"vehicle_type_id":"4","last_reported":1731406201,"current_range_meters":16000,"station_id":"ce4bhih2rcd13ifvqfs0","pricing_plan_id":"cebpf4jnsgd1na2vs0mg"},{"bike_id":"4ff97317-fbad-43fd-9ff4-cb7af7570ad5","system_id":"levelo_inurba_marseille","lat":43.29844,"lon":5.36268,"is_reserved":false,"is_disabled":false,"rental_uris":{"android":"levelo://app?vid=4ff97317-fbad-43fd-9ff4-cb7af7570ad5","ios":"levelo://app?vid=4ff97317-fbad-43fd-9ff4-cb7af7570ad5"},"vehicle_type_id":"4","last_reported":1731406201,"current_range_meters":20800,"station_id":"ce4bgpp2rcd13ifvqc3g","pricing_plan_id":"cebpf4jnsgd1na2vs0mg"},{"bike_id":"dea8e24b-36b5-4c6f-a7a1-18720dbf8f12","system_id":"levelo_inurba_marseille","lat":43.32486,"lon":5.36578,"is_reserved":false,"is_disabled":false,"rental_uris":{"android":"levelo://app?vid=dea8e24b-36b5-4c6f-a7a1-18720dbf8f12","ios":"levelo://app?vid=dea8e24b-36b5-4c6f-a7a1-18720dbf8f12"},"vehicle_type_id":"4","last_reported":1731406201,"current_range_meters":37600,"station_id":"ce4bhs12rcd13ifvqhvg","pricing_plan_id":"cebpf4jnsgd1na2vs0mg"},{"bike_id":"1f81c4d4-3355-46d5-acd3-aad47be887f7","system_id":"levelo_inurba_marseille","lat":43.30545,"lon":5.36539,"is_reserved":false,"is_disabled":false,"rental_uris":{"android":"levelo://app?vid=1f81c4d4-3355-46d5-acd3-aad47be887f7","ios":"levelo://app?vid=1f81c4d4-3355-46d5-acd3-aad47be887f7"},"vehicle_type_id":"4","last_reported":1731406201,"current_range_meters":26800,"station_id":"ce4bgs12rcd13ifvqcag","pricing_plan_id":"cebpf4jnsgd1na2vs0mg"},{"bike_id":"f34c1380-d92f-4bc1-abe1-52a2cde73fb2","system_id":"levelo_inurba_marseille","lat":43.30188,"lon":5.36624,"is_reserved":false,"is_disabled":false,"rental_uris":{"android":"levelo://app?vid=f34c1380-d92f-4bc1-abe1-52a2cde73fb2","ios":"levelo://app?vid=f34c1380-d92f-4bc1-abe1-52a2cde73fb2"},"vehicle_type_id":"4","last_reported":1731406201,"current_range_meters":38400,"station_id":"ce4bgrh2rcd13ifvqc8g","pricing_plan_id":"cebpf4jnsgd1na2vs0mg"},{"bike_id":"3d538f50-8563-4193-82a5-d417b677c48f","system_id":"levelo_inurba_marseille","lat":43.30544,"lon":5.3653,"is_reserved":false,"is_disabled":false,"rental_uris":{"android":"levelo://app?vid=3d538f50-8563-4193-82a5-d417b677c48f","ios":"levelo://app?vid=3d538f50-8563-4193-82a5-d417b677c48f"},"vehicle_type_id":"4","last_reported":1731406201,"current_range_meters":39200,"station_id":"ce4bgs12rcd13ifvqcag","pricing_plan_id":"cebpf4jnsgd1na2vs0mg"},{"bike_id":"2736195e-df05-4cae-9145-08820a97c3a9","system_id":"levelo_inurba_marseille","lat":43.33608,"lon":5.41034,"is_reserved":false,"is_disabled":false,"rental_uris":{"android":"levelo://app?vid=2736195e-df05-4cae-9145-08820a97c3a9","ios":"levelo://app?vid=2736195e-df05-4cae-9145-08820a97c3a9"},"vehicle_type_id":"4","last_reported":1731406201,"current_range_meters":30400,"station_id":"ce4bhqh2rcd13ifvqhmg","pricing_plan_id":"cebpf4jnsgd1na2vs0mg"},{"bike_id":"566a5334-3f8f-47bc-a4cb-b69269b5f3f2","system_id":"levelo_inurba_marseille","lat":43.27968,"lon":5.38719,"is_reserved":false,"is_disabled":false,"rental_uris":{"android":"levelo://app?vid=566a5334-3f8f-47bc-a4cb-b69269b5f3f2","ios":"levelo://app?vid=566a5334-3f8f-47bc-a4cb-b69269b5f3f2"},"vehicle_type_id":"4","last_reported":1731406201,"current_range_meters":38800,"station_id":"ce4bhg12rcd13ifvqf80","pricing_plan_id":"cebpf4jnsgd1na2vs0mg"},{"bike_id":"f69fa12c-5038-47fb-943d-e46331828fbc","system_id":"levelo_inurba_marseille","lat":43.30469,"lon":5.37908,"is_reserved":false,"is_disabled":false,"rental_uris":{"android":"levelo://app?vid=f69fa12c-5038-47fb-943d-e46331828fbc","ios":"levelo://app?vid=f69fa12c-5038-47fb-943d-e46331828fbc"},"vehicle_type_id":"4","last_reported":1731406201,"current_range_meters":36400,"station_id":"ce4bgup2rcd13ifvqcn0","pricing_plan_id":"cebpf4jnsgd1na2vs0mg"},{"bike_id":"6d79db44-9bc4-4c0c-8b62-911b1ea55158","system_id":"levelo_inurba_marseille","lat":43.26942,"lon":5.40249,"is_reserved":false,"is_disabled":false,"rental_uris":{"android":"levelo://app?vid=6d79db44-9bc4-4c0c-8b62-911b1ea55158","ios":"levelo://app?vid=6d79db44-9bc4-4c0c-8b62-911b1ea55158"},"vehicle_type_id":"4","last_reported":1731406201,"current_range_meters":38400,"station_id":"cjm6bp8fraef2m0cb0m0","pricing_plan_id":"cebpf4jnsgd1na2vs0mg"},{"bike_id":"28b44ef5-6197-4cd0-8f1c-4015ba83b8bb","system_id":"levelo_inurba_marseille","lat":43.30892,"lon":5.36846,"is_reserved":false,"is_disabled":false,"rental_uris":{"android":"levelo://app?vid=28b44ef5-6197-4cd0-8f1c-4015ba83b8bb","ios":"levelo://app?vid=28b44ef5-6197-4cd0-8f1c-4015ba83b8bb"},"vehicle_type_id":"4","last_reported":1731406201,"current_range_meters":37600,"station_id":"ce4bgn92rcd13ifvqbvg","pricing_plan_id":"cebpf4jnsgd1na2vs0mg"},{"bike_id":"d18f8d32-e2b0-45ff-9de1-befe5676c05f","system_id":"levelo_inurba_marseille","lat":43.29841,"lon":5.36268,"is_reserved":false,"is_disabled":false,"rental_uris":{"android":"levelo://app?vid=d18f8d32-e2b0-45ff-9de1-befe5676c05f","ios":"levelo://app?vid=d18f8d32-e2b0-45ff-9de1-befe5676c05f"},"vehicle_type_id":"4","last_reported":1731406201,"current_range_meters":26800,"station_id":"ce4bgpp2rcd13ifvqc3g","pricing_plan_id":"cebpf4jnsgd1na2vs0mg"},{"bike_id":"1853846c-0d7b-44f0-92fd-c931834fd696","system_id":"levelo_inurba_marseille","lat":43.29172,"lon":5.3717,"is_reserved":false,"is_disabled":false,"rental_uris":{"android":"levelo://app?vid=1853846c-0d7b-44f0-92fd-c931834fd696","ios":"levelo://app?vid=1853846c-0d7b-44f0-92fd-c931834fd696"},"vehicle_type_id":"4","last_reported":1731406201,"current_range_meters":10800,"station_id":"ce4bha92rcd13ifvqeh0","pricing_plan_id":"cebpf4jnsgd1na2vs0mg"},{"bike_id":"ece13cc8-5906-48ad-bc54-734e791b9b7d","system_id":"levelo_inurba_marseille","lat":43.3046,"lon":5.379,"is_reserved":false,"is_disabled":false,"rental_uris":{"android":"levelo://app?vid=ece13cc8-5906-48ad-bc54-734e791b9b7d","ios":"levelo://app?vid=ece13cc8-5906-48ad-bc54-734e791b9b7d"},"vehicle_type_id":"4","last_reported":1731406201,"current_range_meters":28400,"station_id":"ce4bgup2rcd13ifvqcn0","pricing_plan_id":"cebpf4jnsgd1na2vs0mg"},{"bike_id":"ebd4f82c-11dc-4dc9-8fd9-d0a742def808","system_id":"levelo_inurba_marseille","lat":43.24073,"lon":5.3776,"is_reserved":false,"is_disabled":false,"rental_uris":{"android":"levelo://app?vid=ebd4f82c-11dc-4dc9-8fd9-d0a742def808","ios":"levelo://app?vid=ebd4f82c-11dc-4dc9-8fd9-d0a742def808"},"vehicle_type_id":"4","last_reported":1731406201,"current_range_meters":24800,"station_id":"ce4bhnp2rcd13ifvqgvg","pricing_plan_id":"cebpf4jnsgd1na2vs0mg"},{"bike_id":"3a380d17-df8f-4b0b-9249-c031a1e66b20","system_id":"levelo_inurba_marseille","lat":43.25581,"lon":5.38233,"is_reserved":false,"is_disabled":false,"rental_uris":{"android":"levelo://app?vid=3a380d17-df8f-4b0b-9249-c031a1e66b20","ios":"levelo://app?vid=3a380d17-df8f-4b0b-9249-c031a1e66b20"},"vehicle_type_id":"4","last_reported":1731406201,"current_range_meters":34000,"station_id":"ce4bhih2rcd13ifvqfs0","pricing_plan_id":"cebpf4jnsgd1na2vs0mg"},{"bike_id":"0534264e-1424-4d76-ba25-f9c7b179e082","system_id":"levelo_inurba_marseille","lat":43.296295,"lon":5.38145,"is_reserved":false,"is_disabled":false,"rental_uris":{"android":"levelo://app?vid=0534264e-1424-4d76-ba25-f9c7b179e082","ios":"levelo://app?vid=0534264e-1424-4d76-ba25-f9c7b179e082"},"vehicle_type_id":"4","last_reported":1731406201,"current_range_meters":30800,"station_id":"ce4bgl12rcd13ifvqbo0","pricing_plan_id":"cebpf4jnsgd1na2vs0mg"},{"bike_id":"298980d2-b8b5-4c6e-90d6-60f920aa0770","system_id":"levelo_inurba_marseille","lat":43.28679,"lon":5.38658,"is_reserved":false,"is_disabled":false,"rental_uris":{"android":"levelo://app?vid=298980d2-b8b5-4c6e-90d6-60f920aa0770","ios":"levelo://app?vid=298980d2-b8b5-4c6e-90d6-60f920aa0770"},"vehicle_type_id":"4","last_reported":1731406201,"current_range_meters":38800,"station_id":"ce4bh492rcd13ifvqdug","pricing_plan_id":"cebpf4jnsgd1na2vs0mg"},{"bike_id":"ab6a8b2e-1d37-4a8a-acab-d5ef823cba97","system_id":"levelo_inurba_marseille","lat":43.27433,"lon":5.39403,"is_reserved":false,"is_disabled":false,"rental_uris":{"android":"levelo://app?vid=ab6a8b2e-1d37-4a8a-acab-d5ef823cba97","ios":"levelo://app?vid=ab6a8b2e-1d37-4a8a-acab-d5ef823cba97"},"vehicle_type_id":"4","last_reported":1731406201,"current_range_meters":33600,"station_id":"ce4bhdp2rcd13ifvqf20","pricing_plan_id":"cebpf4jnsgd1na2vs0mg"},{"bike_id":"9ced07d2-d6e3-402e-ad71-da7fcc490ca5","system_id":"levelo_inurba_marseille","lat":43.30286,"lon":5.37704,"is_reserved":false,"is_disabled":false,"rental_uris":{"android":"levelo://app?vid=9ced07d2-d6e3-402e-ad71-da7fcc490ca5","ios":"levelo://app?vid=9ced07d2-d6e3-402e-ad71-da7fcc490ca5"},"vehicle_type_id":"4","last_reported":1731406201,"current_range_meters":39200,"station_id":"ce4bguh2rcd13ifvqcj0","pricing_plan_id":"cebpf4jnsgd1na2vs0mg"},{"bike_id":"9e1b1848-77a9-4726-bb90-8d3278c2f1c4","system_id":"levelo_inurba_marseille","lat":43.28862,"lon":5.39314,"is_reserved":false,"is_disabled":false,"rental_uris":{"android":"levelo://app?vid=9e1b1848-77a9-4726-bb90-8d3278c2f1c4","ios":"levelo://app?vid=9e1b1848-77a9-4726-bb90-8d3278c2f1c4"},"vehicle_type_id":"4","last_reported":1731406201,"current_range_meters":35600,"station_id":"ce4bh2p2rcd13ifvqdi0","pricing_plan_id":"cebpf4jnsgd1na2vs0mg"},{"bike_id":"614ad2ea-21eb-4f38-bfbd-1cdf97bd2bc1","system_id":"levelo_inurba_marseille","lat":43.28109,"lon":5.37846,"is_reserved":false,"is_disabled":false,"rental_uris":{"android":"levelo://app?vid=614ad2ea-21eb-4f38-bfbd-1cdf97bd2bc1","ios":"levelo://app?vid=614ad2ea-21eb-4f38-bfbd-1cdf97bd2bc1"},"vehicle_type_id":"4","last_reported":1731406201,"current_range_meters":26800,"station_id":"ce4bha12rcd13ifvqee0","pricing_plan_id":"cebpf4jnsgd1na2vs0mg"},{"bike_id":"307f472c-576c-4d90-a06d-9ae8a20dafea","system_id":"levelo_inurba_marseille","lat":43.31339,"lon":5.36724,"is_reserved":false,"is_disabled":false,"rental_uris":{"android":"levelo://app?vid=307f472c-576c-4d90-a06d-9ae8a20dafea","ios":"levelo://app?vid=307f472c-576c-4d90-a06d-9ae8a20dafea"},"vehicle_type_id":"4","last_reported":1731406201,"current_range_meters":36000,"station_id":"ce4bgr92rcd13ifvqc6g","pricing_plan_id":"cebpf4jnsgd1na2vs0mg"},{"bike_id":"73d8d45d-7c7f-4b6c-b465-6f303315b183","system_id":"levelo_inurba_marseille","lat":43.29369,"lon":5.37856,"is_reserved":false,"is_disabled":false,"rental_uris":{"android":"levelo://app?vid=73d8d45d-7c7f-4b6c-b465-6f303315b183","ios":"levelo://app?vid=73d8d45d-7c7f-4b6c-b465-6f303315b183"},"vehicle_type_id":"4","last_reported":1731406201,"current_range_meters":39200,"station_id":"ce4bgjh2rcd13ifvqbf0","pricing_plan_id":"cebpf4jnsgd1na2vs0mg"},{"bike_id":"8ac34e23-abe7-49b7-bd4a-67bf67a9c077","system_id":"levelo_inurba_marseille","lat":43.29005,"lon":5.35616,"is_reserved":false,"is_disabled":false,"rental_uris":{"android":"levelo://app?vid=8ac34e23-abe7-49b7-bd4a-67bf67a9c077","ios":"levelo://app?vid=8ac34e23-abe7-49b7-bd4a-67bf67a9c077"},"vehicle_type_id":"4","last_reported":1731406201,"current_range_meters":33600,"station_id":"ce4bhb92rcd13ifvqen0","pricing_plan_id":"cebpf4jnsgd1na2vs0mg"},{"bike_id":"29427e56-35e3-4104-93a3-af73fe74495e","system_id":"levelo_inurba_marseille","lat":43.30884,"lon":5.39659,"is_reserved":false,"is_disabled":false,"rental_uris":{"android":"levelo://app?vid=29427e56-35e3-4104-93a3-af73fe74495e","ios":"levelo://app?vid=29427e56-35e3-4104-93a3-af73fe74495e"},"vehicle_type_id":"4","last_reported":1731406201,"current_range_meters":23200,"station_id":"ce4bh012rcd13ifvqcv0","pricing_plan_id":"cebpf4jnsgd1na2vs0mg"},{"bike_id":"b6d3e5d0-5aa7-4629-a58b-3c726e7f4b07","system_id":"levelo_inurba_marseille","lat":43.23971,"lon":5.36629,"is_reserved":false,"is_disabled":false,"rental_uris":{"android":"levelo://app?vid=b6d3e5d0-5aa7-4629-a58b-3c726e7f4b07","ios":"levelo://app?vid=b6d3e5d0-5aa7-4629-a58b-3c726e7f4b07"},"vehicle_type_id":"4","last_reported":1731406201,"current_range_meters":7200,"station_id":"ce4bhi12rcd13ifvqfp0","pricing_plan_id":"cebpf4jnsgd1na2vs0mg"},{"bike_id":"ca5db060-c02c-4c9c-85b8-fa89c45fc361","system_id":"levelo_inurba_marseille","lat":43.2815,"lon":5.42634,"is_reserved":false,"is_disabled":false,"rental_uris":{"android":"levelo://app?vid=ca5db060-c02c-4c9c-85b8-fa89c45fc361","ios":"levelo://app?vid=ca5db060-c02c-4c9c-85b8-fa89c45fc361"},"vehicle_type_id":"4","last_reported":1731406201,"current_range_meters":38400,"station_id":"ce4bhnh2rcd13ifvqgug","pricing_plan_id":"cebpf4jnsgd1na2vs0mg"},{"bike_id":"39c92a6d-0353-4eed-a491-34d313dd0cef","system_id":"levelo_inurba_marseille","lat":43.279986,"lon":5.400116,"is_reserved":false,"is_disabled":false,"rental_uris":{"android":"levelo://app?vid=39c92a6d-0353-4eed-a491-34d313dd0cef","ios":"levelo://app?vid=39c92a6d-0353-4eed-a491-34d313dd0cef"},"vehicle_type_id":"4","last_reported":1731406201,"current_range_meters":38800,"station_id":"ce4bho92rcd13ifvqh4g","pricing_plan_id":"cebpf4jnsgd1na2vs0mg"},{"bike_id":"1cb296ca-e768-4ff4-9ba6-d9720f6d8c12","system_id":"levelo_inurba_marseille","lat":43.24082,"lon":5.37747,"is_reserved":false,"is_disabled":false,"rental_uris":{"android":"levelo://app?vid=1cb296ca-e768-4ff4-9ba6-d9720f6d8c12","ios":"levelo://app?vid=1cb296ca-e768-4ff4-9ba6-d9720f6d8c12"},"vehicle_type_id":"4","last_reported":1731406201,"current_range_meters":35200,"station_id":"ce4bhnp2rcd13ifvqgvg","pricing_plan_id":"cebpf4jnsgd1na2vs0mg"},{"bike_id":"93e3593b-df5d-4dda-89c1-1fa6527e296f","system_id":"levelo_inurba_marseille","lat":43.27054,"lon":5.40261,"is_reserved":false,"is_disabled":false,"rental_uris":{"android":"levelo://app?vid=93e3593b-df5d-4dda-89c1-1fa6527e296f","ios":"levelo://app?vid=93e3593b-df5d-4dda-89c1-1fa6527e296f"},"vehicle_type_id":"4","last_reported":1731406201,"current_range_meters":38000,"station_id":"ce4bhk92rcd13ifvqgc0","pricing_plan_id":"cebpf4jnsgd1na2vs0mg"},{"bike_id":"a4b926dd-90c8-45af-863f-b70152495bc3","system_id":"levelo_inurba_marseille","lat":43.24806,"lon":5.37454,"is_reserved":false,"is_disabled":false,"rental_uris":{"android":"levelo://app?vid=a4b926dd-90c8-45af-863f-b70152495bc3","ios":"levelo://app?vid=a4b926dd-90c8-45af-863f-b70152495bc3"},"vehicle_type_id":"4","last_reported":1731406201,"current_range_meters":38800,"station_id":"ce4bhgh2rcd13ifvqfb0","pricing_plan_id":"cebpf4jnsgd1na2vs0mg"},{"bike_id":"e8c085d8-09e1-431a-bbb8-5e4873879e38","system_id":"levelo_inurba_marseille","lat":43.27496,"lon":5.42459,"is_reserved":false,"is_disabled":false,"rental_uris":{"android":"levelo://app?vid=e8c085d8-09e1-431a-bbb8-5e4873879e38","ios":"levelo://app?vid=e8c085d8-09e1-431a-bbb8-5e4873879e38"},"vehicle_type_id":"4","last_reported":1731406201,"current_range_meters":28800,"station_id":"ce4bhn92rcd13ifvqgrg","pricing_plan_id":"cebpf4jnsgd1na2vs0mg"},{"bike_id":"e029f39c-9b59-4309-85cc-cfaac8b31b8c","system_id":"levelo_inurba_marseille","lat":43.30956,"lon":5.39051,"is_reserved":false,"is_disabled":false,"rental_uris":{"android":"levelo://app?vid=e029f39c-9b59-4309-85cc-cfaac8b31b8c","ios":"levelo://app?vid=e029f39c-9b59-4309-85cc-cfaac8b31b8c"},"vehicle_type_id":"4","last_reported":1731406201,"current_range_meters":24800,"station_id":"ce4bgup2rcd13ifvqco0","pricing_plan_id":"cebpf4jnsgd1na2vs0mg"},{"bike_id":"91744202-1e40-4d2f-a4c2-19300a2d7bc5","system_id":"levelo_inurba_marseille","lat":43.29028,"lon":5.39981,"is_reserved":false,"is_disabled":false,"rental_uris":{"android":"levelo://app?vid=91744202-1e40-4d2f-a4c2-19300a2d7bc5","ios":"levelo://app?vid=91744202-1e40-4d2f-a4c2-19300a2d7bc5"},"vehicle_type_id":"4","last_reported":1731406201,"current_range_meters":10800,"station_id":"ce4bh392rcd13ifvqdm0","pricing_plan_id":"cebpf4jnsgd1na2vs0mg"},{"bike_id":"36f09f9a-5d9d-4d1a-bbe6-a7c8d0359045","system_id":"levelo_inurba_marseille","lat":43.31225,"lon":5.36857,"is_reserved":false,"is_disabled":false,"rental_uris":{"android":"levelo://app?vid=36f09f9a-5d9d-4d1a-bbe6-a7c8d0359045","ios":"levelo://app?vid=36f09f9a-5d9d-4d1a-bbe6-a7c8d0359045"},"vehicle_type_id":"4","last_reported":1731406201,"current_range_meters":27200,"station_id":"ce4bgl92rcd13ifvqbq0","pricing_plan_id":"cebpf4jnsgd1na2vs0mg"},{"bike_id":"9d59599d-1ddc-4584-9619-36b075aff25d","system_id":"levelo_inurba_marseille","lat":43.2408,"lon":5.37756,"is_reserved":false,"is_disabled":false,"rental_uris":{"android":"levelo://app?vid=9d59599d-1ddc-4584-9619-36b075aff25d","ios":"levelo://app?vid=9d59599d-1ddc-4584-9619-36b075aff25d"},"vehicle_type_id":"4","last_reported":1731406201,"current_range_meters":36800,"station_id":"ce4bhnp2rcd13ifvqgvg","pricing_plan_id":"cebpf4jnsgd1na2vs0mg"},{"bike_id":"b72ca6e7-47e9-42be-9a97-b74e22acdc0e","system_id":"levelo_inurba_marseille","lat":43.32102,"lon":5.36777,"is_reserved":false,"is_disabled":false,"rental_uris":{"android":"levelo://app?vid=b72ca6e7-47e9-42be-9a97-b74e22acdc0e","ios":"levelo://app?vid=b72ca6e7-47e9-42be-9a97-b74e22acdc0e"},"vehicle_type_id":"4","last_reported":1731406201,"current_range_meters":25200,"station_id":"ce4bhrh2rcd13ifvqhug","pricing_plan_id":"cebpf4jnsgd1na2vs0mg"},{"bike_id":"dd1756de-4ba6-4e50-92e4-173e7a2f91bf","system_id":"levelo_inurba_marseille","lat":43.30312,"lon":5.36893,"is_reserved":false,"is_disabled":false,"rental_uris":{"android":"levelo://app?vid=dd1756de-4ba6-4e50-92e4-173e7a2f91bf","ios":"levelo://app?vid=dd1756de-4ba6-4e50-92e4-173e7a2f91bf"},"vehicle_type_id":"4","last_reported":1731406201,"current_range_meters":32800,"station_id":"ce4bgqh2rcd13ifvqc5g","pricing_plan_id":"cebpf4jnsgd1na2vs0mg"},{"bike_id":"5b46ce18-e7d5-4e30-8def-85cfb1b5102d","system_id":"levelo_inurba_marseille","lat":43.23152,"lon":5.43718,"is_reserved":false,"is_disabled":false,"rental_uris":{"android":"levelo://app?vid=5b46ce18-e7d5-4e30-8def-85cfb1b5102d","ios":"levelo://app?vid=5b46ce18-e7d5-4e30-8def-85cfb1b5102d"},"vehicle_type_id":"4","last_reported":1731406201,"current_range_meters":39200,"station_id":"ce4bhmp2rcd13ifvqgog","pricing_plan_id":"cebpf4jnsgd1na2vs0mg"},{"bike_id":"bcfd7453-f6c5-4a61-a535-9937cc1ac31b","system_id":"levelo_inurba_marseille","lat":43.31891,"lon":5.40734,"is_reserved":false,"is_disabled":false,"rental_uris":{"android":"levelo://app?vid=bcfd7453-f6c5-4a61-a535-9937cc1ac31b","ios":"levelo://app?vid=bcfd7453-f6c5-4a61-a535-9937cc1ac31b"},"vehicle_type_id":"4","last_reported":1731406201,"current_range_meters":32000,"station_id":"ce4bhq12rcd13ifvqhig","pricing_plan_id":"cebpf4jnsgd1na2vs0mg"},{"bike_id":"169a71c2-9129-43be-8aba-22f0822d15c1","system_id":"levelo_inurba_marseille","lat":43.30103,"lon":5.39086,"is_reserved":false,"is_disabled":false,"rental_uris":{"android":"levelo://app?vid=169a71c2-9129-43be-8aba-22f0822d15c1","ios":"levelo://app?vid=169a71c2-9129-43be-8aba-22f0822d15c1"},