{"last_updated":1779295423,"ttl":60,"version":"2.2","data":{"bikes":[{"bike_id":"7d641315-6110-49cb-a9dd-d637ff032de1","system_id":"levelo_inurba_marseille","lat":43.337444,"lon":5.374475,"is_reserved":false,"is_disabled":false,"rental_uris":{"android":"levelo://app?vid=7d641315-6110-49cb-a9dd-d637ff032de1","ios":"levelo://app?vid=7d641315-6110-49cb-a9dd-d637ff032de1"},"vehicle_type_id":"4","last_reported":1779295424,"current_range_meters":0,"station_id":"","pricing_plan_id":"cebpf4jnsgd1na2vs0mg"},{"bike_id":"7483cc93-487f-4c05-beae-04f48ef8fd99","system_id":"levelo_inurba_marseille","lat":43.28413,"lon":5.34978,"is_reserved":false,"is_disabled":false,"rental_uris":{"android":"levelo://app?vid=7483cc93-487f-4c05-beae-04f48ef8fd99","ios":"levelo://app?vid=7483cc93-487f-4c05-beae-04f48ef8fd99"},"vehicle_type_id":"4","last_reported":1779295424,"current_range_meters":2800,"station_id":"ce4bhbh2rcd13ifvqepg","pricing_plan_id":"cebpf4jnsgd1na2vs0mg"},{"bike_id":"0289d7cd-172c-47ff-b8cf-50b53eb7fe89","system_id":"levelo_inurba_marseille","lat":43.302545,"lon":5.400887,"is_reserved":false,"is_disabled":false,"rental_uris":{"android":"levelo://app?vid=0289d7cd-172c-47ff-b8cf-50b53eb7fe89","ios":"levelo://app?vid=0289d7cd-172c-47ff-b8cf-50b53eb7fe89"},"vehicle_type_id":"4","last_reported":1779295424,"current_range_meters":2800,"station_id":"ce4bgvh2rcd13ifvqcs0","pricing_plan_id":"cebpf4jnsgd1na2vs0mg"},{"bike_id":"7627a54d-2ec1-48fa-923d-21bbea2587da","system_id":"levelo_inurba_marseille","lat":43.29612,"lon":5.37696,"is_reserved":false,"is_disabled":false,"rental_uris":{"android":"levelo://app?vid=7627a54d-2ec1-48fa-923d-21bbea2587da","ios":"levelo://app?vid=7627a54d-2ec1-48fa-923d-21bbea2587da"},"vehicle_type_id":"4","last_reported":1779295424,"current_range_meters":2800,"station_id":"ce4bgi92rcd13ifvqb90","pricing_plan_id":"cebpf4jnsgd1na2vs0mg"},{"bike_id":"b996cfb9-38d5-416b-aee4-f1eaee511a6a","system_id":"levelo_inurba_marseille","lat":43.28422,"lon":5.34997,"is_reserved":false,"is_disabled":false,"rental_uris":{"android":"levelo://app?vid=b996cfb9-38d5-416b-aee4-f1eaee511a6a","ios":"levelo://app?vid=b996cfb9-38d5-416b-aee4-f1eaee511a6a"},"vehicle_type_id":"4","last_reported":1779295424,"current_range_meters":2800,"station_id":"ce4bhbh2rcd13ifvqepg","pricing_plan_id":"cebpf4jnsgd1na2vs0mg"},{"bike_id":"a3d8a97c-2dfb-4f33-9c9d-27aff8187be1","system_id":"levelo_inurba_marseille","lat":43.28964,"lon":5.36614,"is_reserved":false,"is_disabled":false,"rental_uris":{"android":"levelo://app?vid=a3d8a97c-2dfb-4f33-9c9d-27aff8187be1","ios":"levelo://app?vid=a3d8a97c-2dfb-4f33-9c9d-27aff8187be1"},"vehicle_type_id":"4","last_reported":1779295424,"current_range_meters":2800,"station_id":"","pricing_plan_id":"cebpf4jnsgd1na2vs0mg"},{"bike_id":"d933f96f-1077-4e0a-ae34-031c672423a8","system_id":"levelo_inurba_marseille","lat":43.28474,"lon":5.38546,"is_reserved":false,"is_disabled":false,"rental_uris":{"android":"levelo://app?vid=d933f96f-1077-4e0a-ae34-031c672423a8","ios":"levelo://app?vid=d933f96f-1077-4e0a-ae34-031c672423a8"},"vehicle_type_id":"4","last_reported":1779295424,"current_range_meters":2800,"station_id":"ce4bh8p2rcd13ifvqeb0","pricing_plan_id":"cebpf4jnsgd1na2vs0mg"},{"bike_id":"40e11415-186d-4a53-ac50-ac693db6945a","system_id":"levelo_inurba_marseille","lat":43.33545,"lon":5.37462,"is_reserved":false,"is_disabled":false,"rental_uris":{"android":"levelo://app?vid=40e11415-186d-4a53-ac50-ac693db6945a","ios":"levelo://app?vid=40e11415-186d-4a53-ac50-ac693db6945a"},"vehicle_type_id":"4","last_reported":1779295424,"current_range_meters":2800,"station_id":"st_d46tts09ee8s73dlu43g","pricing_plan_id":"cebpf4jnsgd1na2vs0mg"},{"bike_id":"89dcf81e-d685-4eb4-82aa-fe68a85d332a","system_id":"levelo_inurba_marseille","lat":43.32099,"lon":5.36763,"is_reserved":false,"is_disabled":false,"rental_uris":{"android":"levelo://app?vid=89dcf81e-d685-4eb4-82aa-fe68a85d332a","ios":"levelo://app?vid=89dcf81e-d685-4eb4-82aa-fe68a85d332a"},"vehicle_type_id":"4","last_reported":1779295424,"current_range_meters":2800,"station_id":"ce4bhrh2rcd13ifvqhug","pricing_plan_id":"cebpf4jnsgd1na2vs0mg"},{"bike_id":"25048c0b-8f41-4c2f-b6d8-d2fba4e301d7","system_id":"levelo_inurba_marseille","lat":43.30199,"lon":5.39463,"is_reserved":false,"is_disabled":false,"rental_uris":{"android":"levelo://app?vid=25048c0b-8f41-4c2f-b6d8-d2fba4e301d7","ios":"levelo://app?vid=25048c0b-8f41-4c2f-b6d8-d2fba4e301d7"},"vehicle_type_id":"4","last_reported":1779295424,"current_range_meters":2800,"station_id":"ce4bh0p2rcd13ifvqd70","pricing_plan_id":"cebpf4jnsgd1na2vs0mg"},{"bike_id":"ddbc8471-5252-404c-83e9-a1275d7d8784","system_id":"levelo_inurba_marseille","lat":43.30252,"lon":5.40046,"is_reserved":false,"is_disabled":false,"rental_uris":{"android":"levelo://app?vid=ddbc8471-5252-404c-83e9-a1275d7d8784","ios":"levelo://app?vid=ddbc8471-5252-404c-83e9-a1275d7d8784"},"vehicle_type_id":"4","last_reported":1779295424,"current_range_meters":2800,"station_id":"ce4bgvh2rcd13ifvqcs0","pricing_plan_id":"cebpf4jnsgd1na2vs0mg"},{"bike_id":"9fbae477-97a5-460c-b2da-0618c4b54827","system_id":"levelo_inurba_marseille","lat":43.28446,"lon":5.39167,"is_reserved":false,"is_disabled":false,"rental_uris":{"android":"levelo://app?vid=9fbae477-97a5-460c-b2da-0618c4b54827","ios":"levelo://app?vid=9fbae477-97a5-460c-b2da-0618c4b54827"},"vehicle_type_id":"4","last_reported":1779295424,"current_range_meters":2800,"station_id":"ce4bhoh2rcd13ifvqh5g","pricing_plan_id":"cebpf4jnsgd1na2vs0mg"},{"bike_id":"9759ffcf-df97-4562-870e-89e64c058e02","system_id":"levelo_inurba_marseille","lat":43.28608,"lon":5.37072,"is_reserved":false,"is_disabled":false,"rental_uris":{"android":"levelo://app?vid=9759ffcf-df97-4562-870e-89e64c058e02","ios":"levelo://app?vid=9759ffcf-df97-4562-870e-89e64c058e02"},"vehicle_type_id":"4","last_reported":1779295424,"current_range_meters":2800,"station_id":"ce4bht12rcd13ifvqi60","pricing_plan_id":"cebpf4jnsgd1na2vs0mg"},{"bike_id":"bdff52e1-6e1d-478b-9cc3-2231324c88c9","system_id":"levelo_inurba_marseille","lat":43.29225,"lon":5.36061,"is_reserved":false,"is_disabled":false,"rental_uris":{"android":"levelo://app?vid=bdff52e1-6e1d-478b-9cc3-2231324c88c9","ios":"levelo://app?vid=bdff52e1-6e1d-478b-9cc3-2231324c88c9"},"vehicle_type_id":"4","last_reported":1779295424,"current_range_meters":2800,"station_id":"ce4bhbh2rcd13ifvqeqg","pricing_plan_id":"cebpf4jnsgd1na2vs0mg"},{"bike_id":"408701cc-3f2d-4c32-b20d-587f50ccde82","system_id":"levelo_inurba_marseille","lat":43.305578,"lon":5.367156,"is_reserved":false,"is_disabled":false,"rental_uris":{"android":"levelo://app?vid=408701cc-3f2d-4c32-b20d-587f50ccde82","ios":"levelo://app?vid=408701cc-3f2d-4c32-b20d-587f50ccde82"},"vehicle_type_id":"4","last_reported":1779295424,"current_range_meters":2800,"station_id":"","pricing_plan_id":"cebpf4jnsgd1na2vs0mg"},{"bike_id":"e242e2d1-2a2a-42c4-b6e4-ada040bd1b9e","system_id":"levelo_inurba_marseille","lat":43.2836,"lon":5.38103,"is_reserved":false,"is_disabled":false,"rental_uris":{"android":"levelo://app?vid=e242e2d1-2a2a-42c4-b6e4-ada040bd1b9e","ios":"levelo://app?vid=e242e2d1-2a2a-42c4-b6e4-ada040bd1b9e"},"vehicle_type_id":"4","last_reported":1779295424,"current_range_meters":2800,"station_id":"ce4bh412rcd13ifvqdr0","pricing_plan_id":"cebpf4jnsgd1na2vs0mg"},{"bike_id":"055ff083-fb0e-42ab-836e-60c53af5b4fa","system_id":"levelo_inurba_marseille","lat":43.305424,"lon":5.365577,"is_reserved":false,"is_disabled":false,"rental_uris":{"android":"levelo://app?vid=055ff083-fb0e-42ab-836e-60c53af5b4fa","ios":"levelo://app?vid=055ff083-fb0e-42ab-836e-60c53af5b4fa"},"vehicle_type_id":"4","last_reported":1779295424,"current_range_meters":2800,"station_id":"ce4bgs12rcd13ifvqcag","pricing_plan_id":"cebpf4jnsgd1na2vs0mg"},{"bike_id":"79834aba-9631-49e8-87c4-b2bde0f0dcff","system_id":"levelo_inurba_marseille","lat":43.26494,"lon":5.39562,"is_reserved":false,"is_disabled":false,"rental_uris":{"android":"levelo://app?vid=79834aba-9631-49e8-87c4-b2bde0f0dcff","ios":"levelo://app?vid=79834aba-9631-49e8-87c4-b2bde0f0dcff"},"vehicle_type_id":"4","last_reported":1779295424,"current_range_meters":3200,"station_id":"ce4bhi12rcd13ifvqfq0","pricing_plan_id":"cebpf4jnsgd1na2vs0mg"},{"bike_id":"f89ee8ae-71a3-476e-8620-3612e1a49616","system_id":"levelo_inurba_marseille","lat":43.23968,"lon":5.36631,"is_reserved":false,"is_disabled":false,"rental_uris":{"android":"levelo://app?vid=f89ee8ae-71a3-476e-8620-3612e1a49616","ios":"levelo://app?vid=f89ee8ae-71a3-476e-8620-3612e1a49616"},"vehicle_type_id":"4","last_reported":1779295424,"current_range_meters":3200,"station_id":"ce4bhi12rcd13ifvqfp0","pricing_plan_id":"cebpf4jnsgd1na2vs0mg"},{"bike_id":"f4c883c3-2623-44c0-b5bf-b2de4eb8b8e7","system_id":"levelo_inurba_marseille","lat":43.31516,"lon":5.38038,"is_reserved":false,"is_disabled":false,"rental_uris":{"android":"levelo://app?vid=f4c883c3-2623-44c0-b5bf-b2de4eb8b8e7","ios":"levelo://app?vid=f4c883c3-2623-44c0-b5bf-b2de4eb8b8e7"},"vehicle_type_id":"4","last_reported":1779295424,"current_range_meters":3200,"station_id":"ce4bhsp2rcd13ifvqi50","pricing_plan_id":"cebpf4jnsgd1na2vs0mg"},{"bike_id":"1e599a3a-ec95-47c7-8262-f465c144fe46","system_id":"levelo_inurba_marseille","lat":43.30051,"lon":5.39104,"is_reserved":false,"is_disabled":false,"rental_uris":{"android":"levelo://app?vid=1e599a3a-ec95-47c7-8262-f465c144fe46","ios":"levelo://app?vid=1e599a3a-ec95-47c7-8262-f465c144fe46"},"vehicle_type_id":"4","last_reported":1779295424,"current_range_meters":3200,"station_id":"ce4bh192rcd13ifvqdb0","pricing_plan_id":"cebpf4jnsgd1na2vs0mg"},{"bike_id":"c16bdf38-82db-498e-bdad-5b264882e7bf","system_id":"levelo_inurba_marseille","lat":43.28928,"lon":5.3876,"is_reserved":false,"is_disabled":false,"rental_uris":{"android":"levelo://app?vid=c16bdf38-82db-498e-bdad-5b264882e7bf","ios":"levelo://app?vid=c16bdf38-82db-498e-bdad-5b264882e7bf"},"vehicle_type_id":"4","last_reported":1779295424,"current_range_meters":3200,"station_id":"","pricing_plan_id":"cebpf4jnsgd1na2vs0mg"},{"bike_id":"bb492a6b-8213-4517-8635-dd0e665b10dc","system_id":"levelo_inurba_marseille","lat":43.28458,"lon":5.38421,"is_reserved":false,"is_disabled":false,"rental_uris":{"android":"levelo://app?vid=bb492a6b-8213-4517-8635-dd0e665b10dc","ios":"levelo://app?vid=bb492a6b-8213-4517-8635-dd0e665b10dc"},"vehicle_type_id":"4","last_reported":1779295424,"current_range_meters":3200,"station_id":"ce4bh512rcd13ifvqe3g","pricing_plan_id":"cebpf4jnsgd1na2vs0mg"},{"bike_id":"0e4d4482-c2a3-4ea2-a630-6d488c9ebddf","system_id":"levelo_inurba_marseille","lat":43.24389,"lon":5.37062,"is_reserved":false,"is_disabled":false,"rental_uris":{"android":"levelo://app?vid=0e4d4482-c2a3-4ea2-a630-6d488c9ebddf","ios":"levelo://app?vid=0e4d4482-c2a3-4ea2-a630-6d488c9ebddf"},"vehicle_type_id":"4","last_reported":1779295424,"current_range_meters":3200,"station_id":"ce4bhhh2rcd13ifvqfk0","pricing_plan_id":"cebpf4jnsgd1na2vs0mg"},{"bike_id":"398b68c6-d5fd-415b-8457-4fec721b0d8c","system_id":"levelo_inurba_marseille","lat":43.33357,"lon":5.41089,"is_reserved":false,"is_disabled":false,"rental_uris":{"android":"levelo://app?vid=398b68c6-d5fd-415b-8457-4fec721b0d8c","ios":"levelo://app?vid=398b68c6-d5fd-415b-8457-4fec721b0d8c"},"vehicle_type_id":"4","last_reported":1779295424,"current_range_meters":3200,"station_id":"","pricing_plan_id":"cebpf4jnsgd1na2vs0mg"},{"bike_id":"0dc2a326-b6a1-4c5e-a1ef-eb96acfa78dd","system_id":"levelo_inurba_marseille","lat":43.24797,"lon":5.37452,"is_reserved":false,"is_disabled":false,"rental_uris":{"android":"levelo://app?vid=0dc2a326-b6a1-4c5e-a1ef-eb96acfa78dd","ios":"levelo://app?vid=0dc2a326-b6a1-4c5e-a1ef-eb96acfa78dd"},"vehicle_type_id":"4","last_reported":1779295424,"current_range_meters":3200,"station_id":"ce4bhgh2rcd13ifvqfb0","pricing_plan_id":"cebpf4jnsgd1na2vs0mg"},{"bike_id":"c10a6ad5-64fe-4049-a5e8-95300ca5231e","system_id":"levelo_inurba_marseille","lat":43.29195,"lon":5.35802,"is_reserved":false,"is_disabled":false,"rental_uris":{"android":"levelo://app?vid=c10a6ad5-64fe-4049-a5e8-95300ca5231e","ios":"levelo://app?vid=c10a6ad5-64fe-4049-a5e8-95300ca5231e"},"vehicle_type_id":"4","last_reported":1779295424,"current_range_meters":3200,"station_id":"ce4bhb12rcd13ifvqel0","pricing_plan_id":"cebpf4jnsgd1na2vs0mg"},{"bike_id":"32ee124a-b662-4c81-857d-f41c7fcfe430","system_id":"levelo_inurba_marseille","lat":43.31686,"lon":5.39034,"is_reserved":false,"is_disabled":false,"rental_uris":{"android":"levelo://app?vid=32ee124a-b662-4c81-857d-f41c7fcfe430","ios":"levelo://app?vid=32ee124a-b662-4c81-857d-f41c7fcfe430"},"vehicle_type_id":"4","last_reported":1779295424,"current_range_meters":3200,"station_id":"","pricing_plan_id":"cebpf4jnsgd1na2vs0mg"},{"bike_id":"b4053240-62a5-4f8b-b172-6dc975c0ae15","system_id":"levelo_inurba_marseille","lat":43.248048,"lon":5.374574,"is_reserved":false,"is_disabled":false,"rental_uris":{"android":"levelo://app?vid=b4053240-62a5-4f8b-b172-6dc975c0ae15","ios":"levelo://app?vid=b4053240-62a5-4f8b-b172-6dc975c0ae15"},"vehicle_type_id":"4","last_reported":1779295424,"current_range_meters":3200,"station_id":"ce4bhgh2rcd13ifvqfb0","pricing_plan_id":"cebpf4jnsgd1na2vs0mg"},{"bike_id":"bda68439-c8ca-46c7-a5b3-bb0c0aee4f50","system_id":"levelo_inurba_marseille","lat":43.30066,"lon":5.40216,"is_reserved":false,"is_disabled":false,"rental_uris":{"android":"levelo://app?vid=bda68439-c8ca-46c7-a5b3-bb0c0aee4f50","ios":"levelo://app?vid=bda68439-c8ca-46c7-a5b3-bb0c0aee4f50"},"vehicle_type_id":"4","last_reported":1779295424,"current_range_meters":3600,"station_id":"","pricing_plan_id":"cebpf4jnsgd1na2vs0mg"},{"bike_id":"fee8e867-9f5a-4fdc-b2bf-500f0a7d6738","system_id":"levelo_inurba_marseille","lat":43.29524,"lon":5.39046,"is_reserved":false,"is_disabled":false,"rental_uris":{"android":"levelo://app?vid=fee8e867-9f5a-4fdc-b2bf-500f0a7d6738","ios":"levelo://app?vid=fee8e867-9f5a-4fdc-b2bf-500f0a7d6738"},"vehicle_type_id":"4","last_reported":1779295424,"current_range_meters":3600,"station_id":"ce4bh3p2rcd13ifvqdp0","pricing_plan_id":"cebpf4jnsgd1na2vs0mg"},{"bike_id":"b1a6e6b5-5ba4-46e0-90da-12ee580df0dd","system_id":"levelo_inurba_marseille","lat":43.26805,"lon":5.40253,"is_reserved":false,"is_disabled":false,"rental_uris":{"android":"levelo://app?vid=b1a6e6b5-5ba4-46e0-90da-12ee580df0dd","ios":"levelo://app?vid=b1a6e6b5-5ba4-46e0-90da-12ee580df0dd"},"vehicle_type_id":"4","last_reported":1779295424,"current_range_meters":3600,"station_id":"ce501612rcd8frsf0b60","pricing_plan_id":"cebpf4jnsgd1na2vs0mg"},{"bike_id":"df9a8e29-b2b3-47c5-8270-dd94d1c5bf49","system_id":"levelo_inurba_marseille","lat":43.25515,"lon":5.3763,"is_reserved":false,"is_disabled":false,"rental_uris":{"android":"levelo://app?vid=df9a8e29-b2b3-47c5-8270-dd94d1c5bf49","ios":"levelo://app?vid=df9a8e29-b2b3-47c5-8270-dd94d1c5bf49"},"vehicle_type_id":"4","last_reported":1779295424,"current_range_meters":3600,"station_id":"ce4bhh12rcd13ifvqff0","pricing_plan_id":"cebpf4jnsgd1na2vs0mg"},{"bike_id":"a8ea8d83-c9cd-4629-a246-ef8bdb83bc4d","system_id":"levelo_inurba_marseille","lat":43.31034,"lon":5.37549,"is_reserved":false,"is_disabled":false,"rental_uris":{"android":"levelo://app?vid=a8ea8d83-c9cd-4629-a246-ef8bdb83bc4d","ios":"levelo://app?vid=a8ea8d83-c9cd-4629-a246-ef8bdb83bc4d"},"vehicle_type_id":"4","last_reported":1779295424,"current_range_meters":3600,"station_id":"","pricing_plan_id":"cebpf4jnsgd1na2vs0mg"},{"bike_id":"d51cabe8-2f18-4db7-a034-747252f3380d","system_id":"levelo_inurba_marseille","lat":43.2842,"lon":5.34995,"is_reserved":false,"is_disabled":false,"rental_uris":{"android":"levelo://app?vid=d51cabe8-2f18-4db7-a034-747252f3380d","ios":"levelo://app?vid=d51cabe8-2f18-4db7-a034-747252f3380d"},"vehicle_type_id":"4","last_reported":1779295424,"current_range_meters":3600,"station_id":"ce4bhbh2rcd13ifvqepg","pricing_plan_id":"cebpf4jnsgd1na2vs0mg"},{"bike_id":"42903055-7792-4256-af80-d0bae0f7395e","system_id":"levelo_inurba_marseille","lat":43.29204,"lon":5.35791,"is_reserved":false,"is_disabled":false,"rental_uris":{"android":"levelo://app?vid=42903055-7792-4256-af80-d0bae0f7395e","ios":"levelo://app?vid=42903055-7792-4256-af80-d0bae0f7395e"},"vehicle_type_id":"4","last_reported":1779295424,"current_range_meters":3600,"station_id":"ce4bhb12rcd13ifvqel0","pricing_plan_id":"cebpf4jnsgd1na2vs0mg"},{"bike_id":"b24068f8-d0c5-4fa0-92a3-c188dbc06915","system_id":"levelo_inurba_marseille","lat":43.28287,"lon":5.35084,"is_reserved":false,"is_disabled":false,"rental_uris":{"android":"levelo://app?vid=b24068f8-d0c5-4fa0-92a3-c188dbc06915","ios":"levelo://app?vid=b24068f8-d0c5-4fa0-92a3-c188dbc06915"},"vehicle_type_id":"4","last_reported":1779295424,"current_range_meters":3600,"station_id":"ce4bhbp2rcd13ifvqerg","pricing_plan_id":"cebpf4jnsgd1na2vs0mg"},{"bike_id":"e67804b4-0fbe-466f-ad2b-1c249023f42c","system_id":"levelo_inurba_marseille","lat":43.29529,"lon":5.38545,"is_reserved":false,"is_disabled":false,"rental_uris":{"android":"levelo://app?vid=e67804b4-0fbe-466f-ad2b-1c249023f42c","ios":"levelo://app?vid=e67804b4-0fbe-466f-ad2b-1c249023f42c"},"vehicle_type_id":"4","last_reported":1779295424,"current_range_meters":3600,"station_id":"","pricing_plan_id":"cebpf4jnsgd1na2vs0mg"},{"bike_id":"854da997-21ff-48c4-ae70-cc3a0937e1c9","system_id":"levelo_inurba_marseille","lat":43.33526,"lon":5.37473,"is_reserved":false,"is_disabled":false,"rental_uris":{"android":"levelo://app?vid=854da997-21ff-48c4-ae70-cc3a0937e1c9","ios":"levelo://app?vid=854da997-21ff-48c4-ae70-cc3a0937e1c9"},"vehicle_type_id":"4","last_reported":1779295424,"current_range_meters":3600,"station_id":"st_d46tts09ee8s73dlu43g","pricing_plan_id":"cebpf4jnsgd1na2vs0mg"},{"bike_id":"75e1122c-ce5f-4d5a-a88d-60eea5be48b7","system_id":"levelo_inurba_marseille","lat":43.284363,"lon":5.392002,"is_reserved":false,"is_disabled":false,"rental_uris":{"android":"levelo://app?vid=75e1122c-ce5f-4d5a-a88d-60eea5be48b7","ios":"levelo://app?vid=75e1122c-ce5f-4d5a-a88d-60eea5be48b7"},"vehicle_type_id":"4","last_reported":1779295424,"current_range_meters":3600,"station_id":"ce4bhoh2rcd13ifvqh5g","pricing_plan_id":"cebpf4jnsgd1na2vs0mg"},{"bike_id":"b49a6ded-8d35-469c-a0d0-0e2189c90eab","system_id":"levelo_inurba_marseille","lat":43.26928,"lon":5.38922,"is_reserved":false,"is_disabled":false,"rental_uris":{"android":"levelo://app?vid=b49a6ded-8d35-469c-a0d0-0e2189c90eab","ios":"levelo://app?vid=b49a6ded-8d35-469c-a0d0-0e2189c90eab"},"vehicle_type_id":"4","last_reported":1779295424,"current_range_meters":3600,"station_id":"ce4bhhh2rcd13ifvqfl0","pricing_plan_id":"cebpf4jnsgd1na2vs0mg"},{"bike_id":"a7e02cbc-b09e-4f63-b713-75fd24bd6b2b","system_id":"levelo_inurba_marseille","lat":43.27829,"lon":5.40735,"is_reserved":false,"is_disabled":false,"rental_uris":{"android":"levelo://app?vid=a7e02cbc-b09e-4f63-b713-75fd24bd6b2b","ios":"levelo://app?vid=a7e02cbc-b09e-4f63-b713-75fd24bd6b2b"},"vehicle_type_id":"4","last_reported":1779295424,"current_range_meters":3600,"station_id":"ce4bhnh2rcd13ifvqgtg","pricing_plan_id":"cebpf4jnsgd1na2vs0mg"},{"bike_id":"3c9c7f26-cacd-4ae6-b8ce-67bc2dfd7c15","system_id":"levelo_inurba_marseille","lat":43.27962,"lon":5.4103,"is_reserved":false,"is_disabled":false,"rental_uris":{"android":"levelo://app?vid=3c9c7f26-cacd-4ae6-b8ce-67bc2dfd7c15","ios":"levelo://app?vid=3c9c7f26-cacd-4ae6-b8ce-67bc2dfd7c15"},"vehicle_type_id":"4","last_reported":1779295424,"current_range_meters":3600,"station_id":"ce4bhnp2rcd13ifvqh0g","pricing_plan_id":"cebpf4jnsgd1na2vs0mg"},{"bike_id":"1818e32a-aab2-4bb4-9759-98336e723827","system_id":"levelo_inurba_marseille","lat":43.29204,"lon":5.35803,"is_reserved":false,"is_disabled":false,"rental_uris":{"android":"levelo://app?vid=1818e32a-aab2-4bb4-9759-98336e723827","ios":"levelo://app?vid=1818e32a-aab2-4bb4-9759-98336e723827"},"vehicle_type_id":"4","last_reported":1779295424,"current_range_meters":3600,"station_id":"ce4bhb12rcd13ifvqel0","pricing_plan_id":"cebpf4jnsgd1na2vs0mg"},{"bike_id":"51e17b72-a0fa-4509-8e00-2b00b978be04","system_id":"levelo_inurba_marseille","lat":43.314828,"lon":5.373089,"is_reserved":false,"is_disabled":false,"rental_uris":{"android":"levelo://app?vid=51e17b72-a0fa-4509-8e00-2b00b978be04","ios":"levelo://app?vid=51e17b72-a0fa-4509-8e00-2b00b978be04"},"vehicle_type_id":"4","last_reported":1779295424,"current_range_meters":3600,"station_id":"ce4bgt12rcd13ifvqcd0","pricing_plan_id":"cebpf4jnsgd1na2vs0mg"},{"bike_id":"89b1412e-fcfb-4970-92fc-bc2bf08cf4b3","system_id":"levelo_inurba_marseille","lat":43.29263,"lon":5.38438,"is_reserved":false,"is_disabled":false,"rental_uris":{"android":"levelo://app?vid=89b1412e-fcfb-4970-92fc-bc2bf08cf4b3","ios":"levelo://app?vid=89b1412e-fcfb-4970-92fc-bc2bf08cf4b3"},"vehicle_type_id":"4","last_reported":1779295424,"current_range_meters":3600,"station_id":"ce4bh692rcd13ifvqea0","pricing_plan_id":"cebpf4jnsgd1na2vs0mg"},{"bike_id":"cc476bb6-e23a-49cd-8a7d-52d2097fa5b2","system_id":"levelo_inurba_marseille","lat":43.27206,"lon":5.39171,"is_reserved":false,"is_disabled":false,"rental_uris":{"android":"levelo://app?vid=cc476bb6-e23a-49cd-8a7d-52d2097fa5b2","ios":"levelo://app?vid=cc476bb6-e23a-49cd-8a7d-52d2097fa5b2"},"vehicle_type_id":"4","last_reported":1779295424,"current_range_meters":4000,"station_id":"ce4bhhp2rcd13ifvqfm0","pricing_plan_id":"cebpf4jnsgd1na2vs0mg"},{"bike_id":"d0e19c68-9793-467e-8891-2d7d11c753fe","system_id":"levelo_inurba_marseille","lat":43.28698,"lon":5.3793,"is_reserved":false,"is_disabled":false,"rental_uris":{"android":"levelo://app?vid=d0e19c68-9793-467e-8891-2d7d11c753fe","ios":"levelo://app?vid=d0e19c68-9793-467e-8891-2d7d11c753fe"},"vehicle_type_id":"4","last_reported":1779295424,"current_range_meters":4000,"station_id":"ce4bh9p2rcd13ifvqec0","pricing_plan_id":"cebpf4jnsgd1na2vs0mg"},{"bike_id":"04e67cbe-7692-42c9-a57b-d194e9419f17","system_id":"levelo_inurba_marseille","lat":43.32124,"lon":5.36747,"is_reserved":false,"is_disabled":false,"rental_uris":{"android":"levelo://app?vid=04e67cbe-7692-42c9-a57b-d194e9419f17","ios":"levelo://app?vid=04e67cbe-7692-42c9-a57b-d194e9419f17"},"vehicle_type_id":"4","last_reported":1779295424,"current_range_meters":4000,"station_id":"ce4bhrh2rcd13ifvqhug","pricing_plan_id":"cebpf4jnsgd1na2vs0mg"},{"bike_id":"ead7f65c-62c2-483d-8556-e0f1fee8ceea","system_id":"levelo_inurba_marseille","lat":43.29796,"lon":5.39325,"is_reserved":false,"is_disabled":false,"rental_uris":{"android":"levelo://app?vid=ead7f65c-62c2-483d-8556-e0f1fee8ceea","ios":"levelo://app?vid=ead7f65c-62c2-483d-8556-e0f1fee8ceea"},"vehicle_type_id":"4","last_reported":1779295424,"current_range_meters":4000,"station_id":"chh1huq6cuj3fo74tm60","pricing_plan_id":"cebpf4jnsgd1na2vs0mg"},{"bike_id":"d7c0f6b7-bf4b-4bcf-b80f-8112d2bdb261","system_id":"levelo_inurba_marseille","lat":43.28274,"lon":5.35054,"is_reserved":false,"is_disabled":false,"rental_uris":{"android":"levelo://app?vid=d7c0f6b7-bf4b-4bcf-b80f-8112d2bdb261","ios":"levelo://app?vid=d7c0f6b7-bf4b-4bcf-b80f-8112d2bdb261"},"vehicle_type_id":"4","last_reported":1779295424,"current_range_meters":4000,"station_id":"ce4bhbp2rcd13ifvqerg","pricing_plan_id":"cebpf4jnsgd1na2vs0mg"},{"bike_id":"aea53124-685f-461f-83f8-5845e7d574db","system_id":"levelo_inurba_marseille","lat":43.29788,"lon":5.39345,"is_reserved":false,"is_disabled":false,"rental_uris":{"android":"levelo://app?vid=aea53124-685f-461f-83f8-5845e7d574db","ios":"levelo://app?vid=aea53124-685f-461f-83f8-5845e7d574db"},"vehicle_type_id":"4","last_reported":1779295424,"current_range_meters":4000,"station_id":"chh1huq6cuj3fo74tm60","pricing_plan_id":"cebpf4jnsgd1na2vs0mg"},{"bike_id":"9566a7e1-5fb4-4407-aea0-ed4083cc3645","system_id":"levelo_inurba_marseille","lat":43.29046,"lon":5.42472,"is_reserved":false,"is_disabled":false,"rental_uris":{"android":"levelo://app?vid=9566a7e1-5fb4-4407-aea0-ed4083cc3645","ios":"levelo://app?vid=9566a7e1-5fb4-4407-aea0-ed4083cc3645"},"vehicle_type_id":"4","last_reported":1779295424,"current_range_meters":4000,"station_id":"","pricing_plan_id":"cebpf4jnsgd1na2vs0mg"},{"bike_id":"3a71285a-1356-4600-bd2f-8e86ee8539d1","system_id":"levelo_inurba_marseille","lat":43.28281,"lon":5.35051,"is_reserved":false,"is_disabled":false,"rental_uris":{"android":"levelo://app?vid=3a71285a-1356-4600-bd2f-8e86ee8539d1","ios":"levelo://app?vid=3a71285a-1356-4600-bd2f-8e86ee8539d1"},"vehicle_type_id":"4","last_reported":1779295424,"current_range_meters":4000,"station_id":"ce4bhbp2rcd13ifvqerg","pricing_plan_id":"cebpf4jnsgd1na2vs0mg"},{"bike_id":"a7990396-65d1-4c03-9a1b-87571da2ea08","system_id":"levelo_inurba_marseille","lat":43.28608,"lon":5.37066,"is_reserved":false,"is_disabled":false,"rental_uris":{"android":"levelo://app?vid=a7990396-65d1-4c03-9a1b-87571da2ea08","ios":"levelo://app?vid=a7990396-65d1-4c03-9a1b-87571da2ea08"},"vehicle_type_id":"4","last_reported":1779295424,"current_range_meters":4000,"station_id":"ce4bht12rcd13ifvqi60","pricing_plan_id":"cebpf4jnsgd1na2vs0mg"},{"bike_id":"dfad1ad9-1bdd-44ab-b5b1-5adc8e060337","system_id":"levelo_inurba_marseille","lat":43.31038,"lon":5.37159,"is_reserved":false,"is_disabled":false,"rental_uris":{"android":"levelo://app?vid=dfad1ad9-1bdd-44ab-b5b1-5adc8e060337","ios":"levelo://app?vid=dfad1ad9-1bdd-44ab-b5b1-5adc8e060337"},"vehicle_type_id":"4","last_reported":1779295424,"current_range_meters":4000,"station_id":"st_d4kl2rp97mjs73e7tdfg","pricing_plan_id":"cebpf4jnsgd1na2vs0mg"},{"bike_id":"4c819258-d016-4cce-9a0c-a8a28cf85d97","system_id":"levelo_inurba_marseille","lat":43.309,"lon":5.39633,"is_reserved":false,"is_disabled":true,"rental_uris":{"android":"levelo://app?vid=4c819258-d016-4cce-9a0c-a8a28cf85d97","ios":"levelo://app?vid=4c819258-d016-4cce-9a0c-a8a28cf85d97"},"vehicle_type_id":"4","last_reported":1779295424,"current_range_meters":4000,"station_id":"ce4bh012rcd13ifvqcv0","pricing_plan_id":"cebpf4jnsgd1na2vs0mg"},{"bike_id":"f142c683-46a2-4534-bca8-64a4ad334fa8","system_id":"levelo_inurba_marseille","lat":43.26565,"lon":5.39011,"is_reserved":false,"is_disabled":false,"rental_uris":{"android":"levelo://app?vid=f142c683-46a2-4534-bca8-64a4ad334fa8","ios":"levelo://app?vid=f142c683-46a2-4534-bca8-64a4ad334fa8"},"vehicle_type_id":"4","last_reported":1779295424,"current_range_meters":4000,"station_id":"ce4bhe12rcd13ifvqf30","pricing_plan_id":"cebpf4jnsgd1na2vs0mg"},{"bike_id":"3fbfbd8e-5681-4e7f-b6c7-d025fc3f3e58","system_id":"levelo_inurba_marseille","lat":43.29013,"lon":5.35632,"is_reserved":false,"is_disabled":true,"rental_uris":{"android":"levelo://app?vid=3fbfbd8e-5681-4e7f-b6c7-d025fc3f3e58","ios":"levelo://app?vid=3fbfbd8e-5681-4e7f-b6c7-d025fc3f3e58"},"vehicle_type_id":"4","last_reported":1779295424,"current_range_meters":4000,"station_id":"ce4bhb92rcd13ifvqen0","pricing_plan_id":"cebpf4jnsgd1na2vs0mg"},{"bike_id":"c14e2156-9a8d-4c33-8004-fd865300cc53","system_id":"levelo_inurba_marseille","lat":43.28319,"lon":5.35043,"is_reserved":false,"is_disabled":false,"rental_uris":{"android":"levelo://app?vid=c14e2156-9a8d-4c33-8004-fd865300cc53","ios":"levelo://app?vid=c14e2156-9a8d-4c33-8004-fd865300cc53"},"vehicle_type_id":"4","last_reported":1779295424,"current_range_meters":4000,"station_id":"","pricing_plan_id":"cebpf4jnsgd1na2vs0mg"},{"bike_id":"93cc2ade-5b53-405a-bf45-bd96aac80ba0","system_id":"levelo_inurba_marseille","lat":43.29521,"lon":5.39042,"is_reserved":false,"is_disabled":false,"rental_uris":{"android":"levelo://app?vid=93cc2ade-5b53-405a-bf45-bd96aac80ba0","ios":"levelo://app?vid=93cc2ade-5b53-405a-bf45-bd96aac80ba0"},"vehicle_type_id":"4","last_reported":1779295424,"current_range_meters":4000,"station_id":"ce4bh3p2rcd13ifvqdp0","pricing_plan_id":"cebpf4jnsgd1na2vs0mg"},{"bike_id":"1537ff86-4c07-4043-a319-565b4fb3369d","system_id":"levelo_inurba_marseille","lat":43.28585,"lon":5.38145,"is_reserved":false,"is_disabled":false,"rental_uris":{"android":"levelo://app?vid=1537ff86-4c07-4043-a319-565b4fb3369d","ios":"levelo://app?vid=1537ff86-4c07-4043-a319-565b4fb3369d"},"vehicle_type_id":"4","last_reported":1779295424,"current_range_meters":4400,"station_id":"","pricing_plan_id":"cebpf4jnsgd1na2vs0mg"},{"bike_id":"359727ce-4799-40c3-975a-7caed50d1f44","system_id":"levelo_inurba_marseille","lat":43.255779,"lon":5.382314,"is_reserved":false,"is_disabled":false,"rental_uris":{"android":"levelo://app?vid=359727ce-4799-40c3-975a-7caed50d1f44","ios":"levelo://app?vid=359727ce-4799-40c3-975a-7caed50d1f44"},"vehicle_type_id":"4","last_reported":1779295424,"current_range_meters":4400,"station_id":"ce4bhih2rcd13ifvqfs0","pricing_plan_id":"cebpf4jnsgd1na2vs0mg"},{"bike_id":"964c4626-eb97-4170-b7bf-ab703dff22e5","system_id":"levelo_inurba_marseille","lat":43.27066,"lon":5.38297,"is_reserved":false,"is_disabled":false,"rental_uris":{"android":"levelo://app?vid=964c4626-eb97-4170-b7bf-ab703dff22e5","ios":"levelo://app?vid=964c4626-eb97-4170-b7bf-ab703dff22e5"},"vehicle_type_id":"4","last_reported":1779295424,"current_range_meters":4400,"station_id":"st_d3n2fo6cfp8s73cte1j0","pricing_plan_id":"cebpf4jnsgd1na2vs0mg"},{"bike_id":"837bbb75-d8c9-4187-8a8b-d073de0033b8","system_id":"levelo_inurba_marseille","lat":43.26577,"lon":5.39016,"is_reserved":false,"is_disabled":false,"rental_uris":{"android":"levelo://app?vid=837bbb75-d8c9-4187-8a8b-d073de0033b8","ios":"levelo://app?vid=837bbb75-d8c9-4187-8a8b-d073de0033b8"},"vehicle_type_id":"4","last_reported":1779295424,"current_range_meters":4400,"station_id":"ce4bhe12rcd13ifvqf30","pricing_plan_id":"cebpf4jnsgd1na2vs0mg"},{"bike_id":"f795a0fb-79a4-4857-8acb-9f80f99f4629","system_id":"levelo_inurba_marseille","lat":43.28398,"lon":5.37535,"is_reserved":false,"is_disabled":false,"rental_uris":{"android":"levelo://app?vid=f795a0fb-79a4-4857-8acb-9f80f99f4629","ios":"levelo://app?vid=f795a0fb-79a4-4857-8acb-9f80f99f4629"},"vehicle_type_id":"4","last_reported":1779295424,"current_range_meters":4400,"station_id":"ce4bh412rcd13ifvqds0","pricing_plan_id":"cebpf4jnsgd1na2vs0mg"},{"bike_id":"30d58bf4-33f2-4238-9c13-aa7d00837524","system_id":"levelo_inurba_marseille","lat":43.29181,"lon":5.358,"is_reserved":false,"is_disabled":false,"rental_uris":{"android":"levelo://app?vid=30d58bf4-33f2-4238-9c13-aa7d00837524","ios":"levelo://app?vid=30d58bf4-33f2-4238-9c13-aa7d00837524"},"vehicle_type_id":"4","last_reported":1779295424,"current_range_meters":4400,"station_id":"ce4bhb12rcd13ifvqel0","pricing_plan_id":"cebpf4jnsgd1na2vs0mg"},{"bike_id":"f8ce2d2a-dd2f-451c-b37e-f572b6bf67c5","system_id":"levelo_inurba_marseille","lat":43.28721,"lon":5.39962,"is_reserved":false,"is_disabled":false,"rental_uris":{"android":"levelo://app?vid=f8ce2d2a-dd2f-451c-b37e-f572b6bf67c5","ios":"levelo://app?vid=f8ce2d2a-dd2f-451c-b37e-f572b6bf67c5"},"vehicle_type_id":"4","last_reported":1779295424,"current_range_meters":4400,"station_id":"ce4bho92rcd13ifvqh3g","pricing_plan_id":"cebpf4jnsgd1na2vs0mg"},{"bike_id":"7c7fb249-fc8e-4d79-a1ce-dd5b0f183060","system_id":"levelo_inurba_marseille","lat":43.29804,"lon":5.44047,"is_reserved":false,"is_disabled":false,"rental_uris":{"android":"levelo://app?vid=7c7fb249-fc8e-4d79-a1ce-dd5b0f183060","ios":"levelo://app?vid=7c7fb249-fc8e-4d79-a1ce-dd5b0f183060"},"vehicle_type_id":"4","last_reported":1779295424,"current_range_meters":4800,"station_id":"st_d3jp68qikq2c7381ktn0","pricing_plan_id":"cebpf4jnsgd1na2vs0mg"},{"bike_id":"1d8a0de7-dee9-4c46-b0dc-9cb1beff9b47","system_id":"levelo_inurba_marseille","lat":43.28413,"lon":5.34991,"is_reserved":false,"is_disabled":false,"rental_uris":{"android":"levelo://app?vid=1d8a0de7-dee9-4c46-b0dc-9cb1beff9b47","ios":"levelo://app?vid=1d8a0de7-dee9-4c46-b0dc-9cb1beff9b47"},"vehicle_type_id":"4","last_reported":1779295424,"current_range_meters":4800,"station_id":"ce4bhbh2rcd13ifvqepg","pricing_plan_id":"cebpf4jnsgd1na2vs0mg"},{"bike_id":"6fbbeee5-4103-4e2c-9a6b-f561619170ee","system_id":"levelo_inurba_marseille","lat":43.225316,"lon":5.348364,"is_reserved":false,"is_disabled":false,"rental_uris":{"android":"levelo://app?vid=6fbbeee5-4103-4e2c-9a6b-f561619170ee","ios":"levelo://app?vid=6fbbeee5-4103-4e2c-9a6b-f561619170ee"},"vehicle_type_id":"4","last_reported":1779295424,"current_range_meters":4800,"station_id":"st_cvj5dfep6f1abm77gieg","pricing_plan_id":"cebpf4jnsgd1na2vs0mg"},{"bike_id":"afd6756a-242b-4f0a-88c1-b7cab85ea78a","system_id":"levelo_inurba_marseille","lat":43.27211,"lon":5.39172,"is_reserved":false,"is_disabled":false,"rental_uris":{"android":"levelo://app?vid=afd6756a-242b-4f0a-88c1-b7cab85ea78a","ios":"levelo://app?vid=afd6756a-242b-4f0a-88c1-b7cab85ea78a"},"vehicle_type_id":"4","last_reported":1779295424,"current_range_meters":4800,"station_id":"ce4bhhp2rcd13ifvqfm0","pricing_plan_id":"cebpf4jnsgd1na2vs0mg"},{"bike_id":"05e96898-a928-4a3a-918b-fe95a4e06ca8","system_id":"levelo_inurba_marseille","lat":43.273191,"lon":5.390724,"is_reserved":false,"is_disabled":true,"rental_uris":{"android":"levelo://app?vid=05e96898-a928-4a3a-918b-fe95a4e06ca8","ios":"levelo://app?vid=05e96898-a928-4a3a-918b-fe95a4e06ca8"},"vehicle_type_id":"4","last_reported":1779295424,"current_range_meters":4800,"station_id":"","pricing_plan_id":"cebpf4jnsgd1na2vs0mg"},{"bike_id":"d71889f6-3550-4294-b746-4d288225579f","system_id":"levelo_inurba_marseille","lat":43.27376,"lon":5.36257,"is_reserved":false,"is_disabled":false,"rental_uris":{"android":"levelo://app?vid=d71889f6-3550-4294-b746-4d288225579f","ios":"levelo://app?vid=d71889f6-3550-4294-b746-4d288225579f"},"vehicle_type_id":"4","last_reported":1779295424,"current_range_meters":4800,"station_id":"ce4bhbh2rcd13ifvqeo0","pricing_plan_id":"cebpf4jnsgd1na2vs0mg"},{"bike_id":"668bb7ea-e890-4867-b444-969d9384fab7","system_id":"levelo_inurba_marseille","lat":43.25265,"lon":5.39451,"is_reserved":false,"is_disabled":false,"rental_uris":{"android":"levelo://app?vid=668bb7ea-e890-4867-b444-969d9384fab7","ios":"levelo://app?vid=668bb7ea-e890-4867-b444-969d9384fab7"},"vehicle_type_id":"4","last_reported":1779295424,"current_range_meters":4800,"station_id":"","pricing_plan_id":"cebpf4jnsgd1na2vs0mg"},{"bike_id":"28e33a74-4c95-4793-adf7-12bf4650bce0","system_id":"levelo_inurba_marseille","lat":43.28705,"lon":5.37395,"is_reserved":false,"is_disabled":false,"rental_uris":{"android":"levelo://app?vid=28e33a74-4c95-4793-adf7-12bf4650bce0","ios":"levelo://app?vid=28e33a74-4c95-4793-adf7-12bf4650bce0"},"vehicle_type_id":"4","last_reported":1779295424,"current_range_meters":4800,"station_id":"ce4bh3p2rcd13ifvqdq0","pricing_plan_id":"cebpf4jnsgd1na2vs0mg"},{"bike_id":"796ba7c6-9432-4d76-b142-47911ed8993a","system_id":"levelo_inurba_marseille","lat":43.31723,"lon":5.42394,"is_reserved":false,"is_disabled":false,"rental_uris":{"android":"levelo://app?vid=796ba7c6-9432-4d76-b142-47911ed8993a","ios":"levelo://app?vid=796ba7c6-9432-4d76-b142-47911ed8993a"},"vehicle_type_id":"4","last_reported":1779295424,"current_range_meters":4800,"station_id":"ce4bhp92rcd13ifvqhbg","pricing_plan_id":"cebpf4jnsgd1na2vs0mg"},{"bike_id":"7c7049f6-c0fd-4d6d-aa81-99b1e4ff108c","system_id":"levelo_inurba_marseille","lat":43.30945,"lon":5.39038,"is_reserved":false,"is_disabled":false,"rental_uris":{"android":"levelo://app?vid=7c7049f6-c0fd-4d6d-aa81-99b1e4ff108c","ios":"levelo://app?vid=7c7049f6-c0fd-4d6d-aa81-99b1e4ff108c"},"vehicle_type_id":"4","last_reported":1779295424,"current_range_meters":4800,"station_id":"ce4bgup2rcd13ifvqco0","pricing_plan_id":"cebpf4jnsgd1na2vs0mg"},{"bike_id":"7a4462d1-3861-4b33-966d-c55b540352d3","system_id":"levelo_inurba_marseille","lat":43.28271,"lon":5.35071,"is_reserved":false,"is_disabled":false,"rental_uris":{"android":"levelo://app?vid=7a4462d1-3861-4b33-966d-c55b540352d3","ios":"levelo://app?vid=7a4462d1-3861-4b33-966d-c55b540352d3"},"vehicle_type_id":"4","last_reported":1779295424,"current_range_meters":4800,"station_id":"ce4bhbp2rcd13ifvqerg","pricing_plan_id":"cebpf4jnsgd1na2vs0mg"},{"bike_id":"0ab43c7a-90f5-4995-b682-9b867a3101f4","system_id":"levelo_inurba_marseille","lat":43.2954,"lon":5.39005,"is_reserved":false,"is_disabled":false,"rental_uris":{"android":"levelo://app?vid=0ab43c7a-90f5-4995-b682-9b867a3101f4","ios":"levelo://app?vid=0ab43c7a-90f5-4995-b682-9b867a3101f4"},"vehicle_type_id":"4","last_reported":1779295424,"current_range_meters":4800,"station_id":"ce4bh3p2rcd13ifvqdp0","pricing_plan_id":"cebpf4jnsgd1na2vs0mg"},{"bike_id":"395ec0d3-f58a-4c63-8cc8-5db075d55037","system_id":"levelo_inurba_marseille","lat":43.30182,"lon":5.36628,"is_reserved":false,"is_disabled":false,"rental_uris":{"android":"levelo://app?vid=395ec0d3-f58a-4c63-8cc8-5db075d55037","ios":"levelo://app?vid=395ec0d3-f58a-4c63-8cc8-5db075d55037"},"vehicle_type_id":"4","last_reported":1779295424,"current_range_meters":4800,"station_id":"ce4bgrh2rcd13ifvqc8g","pricing_plan_id":"cebpf4jnsgd1na2vs0mg"},{"bike_id":"2c9c7d21-f265-4785-b35e-807eb27897fa","system_id":"levelo_inurba_marseille","lat":43.29969,"lon":5.38492,"is_reserved":false,"is_disabled":false,"rental_uris":{"android":"levelo://app?vid=2c9c7d21-f265-4785-b35e-807eb27897fa","ios":"levelo://app?vid=2c9c7d21-f265-4785-b35e-807eb27897fa"},"vehicle_type_id":"4","last_reported":1779295424,"current_range_meters":4800,"station_id":"ce4bgj92rcd13ifvqbd0","pricing_plan_id":"cebpf4jnsgd1na2vs0mg"},{"bike_id":"dd16236e-0e1f-431f-a20b-cf542fa9089e","system_id":"levelo_inurba_marseille","lat":43.29968,"lon":5.37177,"is_reserved":false,"is_disabled":false,"rental_uris":{"android":"levelo://app?vid=dd16236e-0e1f-431f-a20b-cf542fa9089e","ios":"levelo://app?vid=dd16236e-0e1f-431f-a20b-cf542fa9089e"},"vehicle_type_id":"4","last_reported":1779295424,"current_range_meters":4800,"station_id":"ce4bgr92rcd13ifvqc7g","pricing_plan_id":"cebpf4jnsgd1na2vs0mg"},{"bike_id":"6c7eb571-6ff0-483c-8d19-72e24508b100","system_id":"levelo_inurba_marseille","lat":43.25117,"lon":5.40319,"is_reserved":false,"is_disabled":false,"rental_uris":{"android":"levelo://app?vid=6c7eb571-6ff0-483c-8d19-72e24508b100","ios":"levelo://app?vid=6c7eb571-6ff0-483c-8d19-72e24508b100"},"vehicle_type_id":"4","last_reported":1779295424,"current_range_meters":5600,"station_id":"ce4bhlh2rcd13ifvqgig","pricing_plan_id":"cebpf4jnsgd1na2vs0mg"},{"bike_id":"c80be5f4-aba0-49ec-8510-28a6efa86b02","system_id":"levelo_inurba_marseille","lat":43.29541,"lon":5.38531,"is_reserved":false,"is_disabled":false,"rental_uris":{"android":"levelo://app?vid=c80be5f4-aba0-49ec-8510-28a6efa86b02","ios":"levelo://app?vid=c80be5f4-aba0-49ec-8510-28a6efa86b02"},"vehicle_type_id":"4","last_reported":1779295424,"current_range_meters":5600,"station_id":"ce4bgih2rcd13ifvqba0","pricing_plan_id":"cebpf4jnsgd1na2vs0mg"},{"bike_id":"8f152bee-3211-4e15-93e8-ea209c77697d","system_id":"levelo_inurba_marseille","lat":43.26567,"lon":5.39018,"is_reserved":false,"is_disabled":false,"rental_uris":{"android":"levelo://app?vid=8f152bee-3211-4e15-93e8-ea209c77697d","ios":"levelo://app?vid=8f152bee-3211-4e15-93e8-ea209c77697d"},"vehicle_type_id":"4","last_reported":1779295424,"current_range_meters":5600,"station_id":"ce4bhe12rcd13ifvqf30","pricing_plan_id":"cebpf4jnsgd1na2vs0mg"},{"bike_id":"f51424ff-17fe-4965-a152-f9ba43387bb0","system_id":"levelo_inurba_marseille","lat":43.29533,"lon":5.37507,"is_reserved":false,"is_disabled":false,"rental_uris":{"android":"levelo://app?vid=f51424ff-17fe-4965-a152-f9ba43387bb0","ios":"levelo://app?vid=f51424ff-17fe-4965-a152-f9ba43387bb0"},"vehicle_type_id":"4","last_reported":1779295424,"current_range_meters":5600,"station_id":"ce4bgkp2rcd13ifvqbmg","pricing_plan_id":"cebpf4jnsgd1na2vs0mg"},{"bike_id":"a1e5c2de-f7d4-4989-aea2-0fc96bce4b06","system_id":"levelo_inurba_marseille","lat":43.31121,"lon":5.39283,"is_reserved":false,"is_disabled":false,"rental_uris":{"android":"levelo://app?vid=a1e5c2de-f7d4-4989-aea2-0fc96bce4b06","ios":"levelo://app?vid=a1e5c2de-f7d4-4989-aea2-0fc96bce4b06"},"vehicle_type_id":"4","last_reported":1779295424,"current_range_meters":5600,"station_id":"","pricing_plan_id":"cebpf4jnsgd1na2vs0mg"},{"bike_id":"f94f190f-6270-4f24-999a-7dcfb8b1e648","system_id":"levelo_inurba_marseille","lat":43.30947,"lon":5.39037,"is_reserved":false,"is_disabled":false,"rental_uris":{"android":"levelo://app?vid=f94f190f-6270-4f24-999a-7dcfb8b1e648","ios":"levelo://app?vid=f94f190f-6270-4f24-999a-7dcfb8b1e648"},"vehicle_type_id":"4","last_reported":1779295424,"current_range_meters":5600,"station_id":"ce4bgup2rcd13ifvqco0","pricing_plan_id":"cebpf4jnsgd1na2vs0mg"},{"bike_id":"4341a76c-de83-439a-8ce3-4ff3f63ae155","system_id":"levelo_inurba_marseille","lat":43.28929,"lon":5.36637,"is_reserved":false,"is_disabled":false,"rental_uris":{"android":"levelo://app?vid=4341a76c-de83-439a-8ce3-4ff3f63ae155","ios":"levelo://app?vid=4341a76c-de83-439a-8ce3-4ff3f63ae155"},"vehicle_type_id":"4","last_reported":1779295424,"current_range_meters":5600,"station_id":"ce4bhap2rcd13ifvqek0","pricing_plan_id":"cebpf4jnsgd1na2vs0mg"},{"bike_id":"3f42a6d9-721c-4045-81f8-56e377ee5c6e","system_id":"levelo_inurba_marseille","lat":43.26469,"lon":5.3956,"is_reserved":false,"is_disabled":true,"rental_uris":{"android":"levelo://app?vid=3f42a6d9-721c-4045-81f8-56e377ee5c6e","ios":"levelo://app?vid=3f42a6d9-721c-4045-81f8-56e377ee5c6e"},"vehicle_type_id":"4","last_reported":1779295424,"current_range_meters":5600,"station_id":"ce4bhi12rcd13ifvqfq0","pricing_plan_id":"cebpf4jnsgd1na2vs0mg"},{"bike_id":"47e75fc7-5e0f-4fd7-831f-8486114b27f3","system_id":"levelo_inurba_marseille","lat":43.28714,"lon":5.37403,"is_reserved":false,"is_disabled":true,"rental_uris":{"android":"levelo://app?vid=47e75fc7-5e0f-4fd7-831f-8486114b27f3","ios":"levelo://app?vid=47e75fc7-5e0f-4fd7-831f-8486114b27f3"},"vehicle_type_id":"4","last_reported":1779295424,"current_range_meters":5600,"station_id":"ce4bh3p2rcd13ifvqdq0","pricing_plan_id":"cebpf4jnsgd1na2vs0mg"},{"bike_id":"94133b29-971d-48eb-9475-ae0b64fbd116","system_id":"levelo_inurba_marseille","lat":43.28205,"lon":5.38135,"is_reserved":false,"is_disabled":false,"rental_uris":{"android":"levelo://app?vid=94133b29-971d-48eb-9475-ae0b64fbd116","ios":"levelo://app?vid=94133b29-971d-48eb-9475-ae0b64fbd116"},"vehicle_type_id":"4","last_reported":1779295424,"current_range_meters":5600,"station_id":"","pricing_plan_id":"cebpf4jnsgd1na2vs0mg"},{"bike_id":"f734503f-77ab-4463-b3c5-d9228f405ada","system_id":"levelo_inurba_marseille","lat":43.2789,"lon":5.38005,"is_reserved":false,"is_disabled":false,"rental_uris":{"android":"levelo://app?vid=f734503f-77ab-4463-b3c5-d9228f405ada","ios":"levelo://app?vid=f734503f-77ab-4463-b3c5-d9228f405ada"},"vehicle_type_id":"4","last_reported":1779295424,"current_range_meters":5600,"station_id":"ce4bhf92rcd13ifvqf50","pricing_plan_id":"cebpf4jnsgd1na2vs0mg"},{"bike_id":"fda1992b-5398-4b0e-b2ce-a74f12edb582","system_id":"levelo_inurba_marseille","lat":43.265573,"lon":5.372817,"is_reserved":false,"is_disabled":false,"rental_uris":{"android":"levelo://app?vid=fda1992b-5398-4b0e-b2ce-a74f12edb582","ios":"levelo://app?vid=fda1992b-5398-4b0e-b2ce-a74f12edb582"},"vehicle_type_id":"4","last_reported":1779295424,"current_range_meters":5600,"station_id":"ce4bhg12rcd13ifvqf70","pricing_plan_id":"cebpf4jnsgd1na2vs0mg"},{"bike_id":"7d39eec6-0681-4eb4-8dde-4370ba3edbec","system_id":"levelo_inurba_marseille","lat":43.2987,"lon":5.3973,"is_reserved":false,"is_disabled":false,"rental_uris":{"android":"levelo://app?vid=7d39eec6-0681-4eb4-8dde-4370ba3edbec","ios":"levelo://app?vid=7d39eec6-0681-4eb4-8dde-4370ba3edbec"},"vehicle_type_id":"4","last_reported":1779295424,"current_range_meters":5600,"station_id":"ce4bh0h2rcd13ifvqd50","pricing_plan_id":"cebpf4jnsgd1na2vs0mg"},{"bike_id":"cf74e631-bef4-4104-a6f5-dbabf8fef501","system_id":"levelo_inurba_marseille","lat":43.29524,"lon":5.3854,"is_reserved":false,"is_disabled":false,"rental_uris":{"android":"levelo://app?vid=cf74e631-bef4-4104-a6f5-dbabf8fef501","ios":"levelo://app?vid=cf74e631-bef4-4104-a6f5-dbabf8fef501"},"vehicle_type_id":"4","last_reported":1779295424,"current_range_meters":5600,"station_id":"ce4bgih2rcd13ifvqba0","pricing_plan_id":"cebpf4jnsgd1na2vs0mg"},{"bike_id":"b905ca94-3071-4f16-9ce5-d80026149c93","system_id":"levelo_inurba_marseille","lat":43.31716,"lon":5.43714,"is_reserved":false,"is_disabled":false,"rental_uris":{"android":"levelo://app?vid=b905ca94-3071-4f16-9ce5-d80026149c93","ios":"levelo://app?vid=b905ca94-3071-4f16-9ce5-d80026149c93"},"vehicle_type_id":"4","last_reported":1779295424,"current_range_meters":5600,"station_id":"ce4bhp92rcd13ifvqhcg","pricing_plan_id":"cebpf4jnsgd1na2vs0mg"},{"bike_id":"ff26a0ce-1300-4a14-824b-0d8ecc854269","system_id":"levelo_inurba_marseille","lat":43.24464,"lon":5.42533,"is_reserved":false,"is_disabled":false,"rental_uris":{"android":"levelo://app?vid=ff26a0ce-1300-4a14-824b-0d8ecc854269","ios":"levelo://app?vid=ff26a0ce-1300-4a14-824b-0d8ecc854269"},"vehicle_type_id":"4","last_reported":1779295424,"current_range_meters":5600,"station_id":"st_d4a3vfp97mjs738cd8kg","pricing_plan_id":"cebpf4jnsgd1na2vs0mg"},{"bike_id":"46be8dd3-948b-467e-ad94-fd338307b9c7","system_id":"levelo_inurba_marseille","lat":43.29986,"lon":5.36742,"is_reserved":false,"is_disabled":false,"rental_uris":{"android":"levelo://app?vid=46be8dd3-948b-467e-ad94-fd338307b9c7","ios":"levelo://app?vid=46be8dd3-948b-467e-ad94-fd338307b9c7"},"vehicle_type_id":"4","last_reported":1779295424,"current_range_meters":5600,"station_id":"","pricing_plan_id":"cebpf4jnsgd1na2vs0mg"},{"bike_id":"4010246e-8b17-4906-b9e9-f9f39a67e2e9","system_id":"levelo_inurba_marseille","lat":43.28403,"lon":5.34988,"is_reserved":false,"is_disabled":false,"rental_uris":{"android":"levelo://app?vid=4010246e-8b17-4906-b9e9-f9f39a67e2e9","ios":"levelo://app?vid=4010246e-8b17-4906-b9e9-f9f39a67e2e9"},"vehicle_type_id":"4","last_reported":1779295424,"current_range_meters":5600,"station_id":"ce4bhbh2rcd13ifvqepg","pricing_plan_id":"cebpf4jnsgd1na2vs0mg"},{"bike_id":"d6baffa6-fa10-4652-ad25-aa86802d0582","system_id":"levelo_inurba_marseille","lat":43.2918,"lon":5.358,"is_reserved":false,"is_disabled":false,"rental_uris":{"android":"levelo://app?vid=d6baffa6-fa10-4652-ad25-aa86802d0582","ios":"levelo://app?vid=d6baffa6-fa10-4652-ad25-aa86802d0582"},"vehicle_type_id":"4","last_reported":1779295424,"current_range_meters":5600,"station_id":"ce4bhb12rcd13ifvqel0","pricing_plan_id":"cebpf4jnsgd1na2vs0mg"},{"bike_id":"0bbc7790-1757-40f9-bbf8-e4528777ad31","system_id":"levelo_inurba_marseille","lat":43.29523,"lon":5.39046,"is_reserved":false,"is_disabled":false,"rental_uris":{"android":"levelo://app?vid=0bbc7790-1757-40f9-bbf8-e4528777ad31","ios":"levelo://app?vid=0bbc7790-1757-40f9-bbf8-e4528777ad31"},"vehicle_type_id":"4","last_reported":1779295424,"current_range_meters":5600,"station_id":"ce4bh3p2rcd13ifvqdp0","pricing_plan_id":"cebpf4jnsgd1na2vs0mg"},{"bike_id":"65eb9ff9-15c9-4a56-bd3a-d3588f69bdf0","system_id":"levelo_inurba_marseille","lat":43.31992,"lon":5.40788,"is_reserved":false,"is_disabled":false,"rental_uris":{"android":"levelo://app?vid=65eb9ff9-15c9-4a56-bd3a-d3588f69bdf0","ios":"levelo://app?vid=65eb9ff9-15c9-4a56-bd3a-d3588f69bdf0"},"vehicle_type_id":"4","last_reported":1779295424,"current_range_meters":5600,"station_id":"","pricing_plan_id":"cebpf4jnsgd1na2vs0mg"},{"bike_id":"8b4fc509-3dfd-4c45-bf80-55515ed28219","system_id":"levelo_inurba_marseille","lat":43.28257,"lon":5.35104,"is_reserved":false,"is_disabled":false,"rental_uris":{"android":"levelo://app?vid=8b4fc509-3dfd-4c45-bf80-55515ed28219","ios":"levelo://app?vid=8b4fc509-3dfd-4c45-bf80-55515ed28219"},"vehicle_type_id":"4","last_reported":1779295424,"current_range_meters":5600,"station_id":"ce4bhbp2rcd13ifvqerg","pricing_plan_id":"cebpf4jnsgd1na2vs0mg"},{"bike_id":"4d9ee6d9-5b9f-446e-ba40-dccb3a9755fd","system_id":"levelo_inurba_marseille","lat":43.248016,"lon":5.374571,"is_reserved":false,"is_disabled":true,"rental_uris":{"android":"levelo://app?vid=4d9ee6d9-5b9f-446e-ba40-dccb3a9755fd","ios":"levelo://app?vid=4d9ee6d9-5b9f-446e-ba40-dccb3a9755fd"},"vehicle_type_id":"4","last_reported":1779295424,"current_range_meters":5600,"station_id":"ce4bhgh2rcd13ifvqfb0","pricing_plan_id":"cebpf4jnsgd1na2vs0mg"},{"bike_id":"7fda94e1-e2e3-4c99-b006-59137d824a49","system_id":"levelo_inurba_marseille","lat":43.23187,"lon":5.39974,"is_reserved":false,"is_disabled":false,"rental_uris":{"android":"levelo://app?vid=7fda94e1-e2e3-4c99-b006-59137d824a49","ios":"levelo://app?vid=7fda94e1-e2e3-4c99-b006-59137d824a49"},"vehicle_type_id":"4","last_reported":1779295424,"current_range_meters":6000,"station_id":"ce4bhn12rcd13ifvqgqg","pricing_plan_id":"cebpf4jnsgd1na2vs0mg"},{"bike_id":"8833bd15-75fa-46e3-9d42-a17c158b28d1","system_id":"levelo_inurba_marseille","lat":43.295264,"lon":5.390646,"is_reserved":false,"is_disabled":false,"rental_uris":{"android":"levelo://app?vid=8833bd15-75fa-46e3-9d42-a17c158b28d1","ios":"levelo://app?vid=8833bd15-75fa-46e3-9d42-a17c158b28d1"},"vehicle_type_id":"4","last_reported":1779295424,"current_range_meters":6000,"station_id":"ce4bh3p2rcd13ifvqdp0","pricing_plan_id":"cebpf4jnsgd1na2vs0mg"},{"bike_id":"0bcf765f-e7ca-4355-b549-0c8df4c97ce3","system_id":"levelo_inurba_marseille","lat":43.29004,"lon":5.35605,"is_reserved":false,"is_disabled":false,"rental_uris":{"android":"levelo://app?vid=0bcf765f-e7ca-4355-b549-0c8df4c97ce3","ios":"levelo://app?vid=0bcf765f-e7ca-4355-b549-0c8df4c97ce3"},"vehicle_type_id":"4","last_reported":1779295424,"current_range_meters":6000,"station_id":"ce4bhb92rcd13ifvqen0","pricing_plan_id":"cebpf4jnsgd1na2vs0mg"},{"bike_id":"5415706f-ea4d-4742-8d62-45b477ea6981","system_id":"levelo_inurba_marseille","lat":43.28272,"lon":5.35063,"is_reserved":false,"is_disabled":false,"rental_uris":{"android":"levelo://app?vid=5415706f-ea4d-4742-8d62-45b477ea6981","ios":"levelo://app?vid=5415706f-ea4d-4742-8d62-45b477ea6981"},"vehicle_type_id":"4","last_reported":1779295424,"current_range_meters":6000,"station_id":"ce4bhbp2rcd13ifvqerg","pricing_plan_id":"cebpf4jnsgd1na2vs0mg"},{"bike_id":"69acbd9a-dda1-4d37-ac7b-8e5282231068","system_id":"levelo_inurba_marseille","lat":43.295837,"lon":5.367333,"is_reserved":false,"is_disabled":false,"rental_uris":{"android":"levelo://app?vid=69acbd9a-dda1-4d37-ac7b-8e5282231068","ios":"levelo://app?vid=69acbd9a-dda1-4d37-ac7b-8e5282231068"},"vehicle_type_id":"4","last_reported":1779295424,"current_range_meters":6000,"station_id":"ce4bgph2rcd13ifvqc2g","pricing_plan_id":"cebpf4jnsgd1na2vs0mg"},{"bike_id":"8b30cf7c-e323-4937-a27c-040c9bca2b76","system_id":"levelo_inurba_marseille","lat":43.29527,"lon":5.38547,"is_reserved":false,"is_disabled":false,"rental_uris":{"android":"levelo://app?vid=8b30cf7c-e323-4937-a27c-040c9bca2b76","ios":"levelo://app?vid=8b30cf7c-e323-4937-a27c-040c9bca2b76"},"vehicle_type_id":"4","last_reported":1779295424,"current_range_meters":6000,"station_id":"ce4bgih2rcd13ifvqba0","pricing_plan_id":"cebpf4jnsgd1na2vs0mg"},{"bike_id":"e7b2834d-0414-4c8b-95bb-dbeba87a5cba","system_id":"levelo_inurba_marseille","lat":43.32946,"lon":5.38913,"is_reserved":false,"is_disabled":false,"rental_uris":{"android":"levelo://app?vid=e7b2834d-0414-4c8b-95bb-dbeba87a5cba","ios":"levelo://app?vid=e7b2834d-0414-4c8b-95bb-dbeba87a5cba"},"vehicle_type_id":"4","last_reported":1779295424,"current_range_meters":6000,"station_id":"","pricing_plan_id":"cebpf4jnsgd1na2vs0mg"},{"bike_id":"e58671d8-d388-4b08-aa9e-a1e55afb1e2f","system_id":"levelo_inurba_marseille","lat":43.28417,"lon":5.34973,"is_reserved":false,"is_disabled":false,"rental_uris":{"android":"levelo://app?vid=e58671d8-d388-4b08-aa9e-a1e55afb1e2f","ios":"levelo://app?vid=e58671d8-d388-4b08-aa9e-a1e55afb1e2f"},"vehicle_type_id":"4","last_reported":1779295424,"current_range_meters":6000,"station_id":"ce4bhbh2rcd13ifvqepg","pricing_plan_id":"cebpf4jnsgd1na2vs0mg"},{"bike_id":"0d7e1a75-5e2b-4806-88b1-635310630b67","system_id":"levelo_inurba_marseille","lat":43.28581,"lon":5.39487,"is_reserved":false,"is_disabled":false,"rental_uris":{"android":"levelo://app?vid=0d7e1a75-5e2b-4806-88b1-635310630b67","ios":"levelo://app?vid=0d7e1a75-5e2b-4806-88b1-635310630b67"},"vehicle_type_id":"4","last_reported":1779295424,"current_range_meters":6000,"station_id":"ce4bh292rcd13ifvqdg0","pricing_plan_id":"cebpf4jnsgd1na2vs0mg"},{"bike_id":"84dd7381-d88a-4da9-bcfb-c41a71291f00","system_id":"levelo_inurba_marseille","lat":43.27805,"lon":5.40709,"is_reserved":false,"is_disabled":false,"rental_uris":{"android":"levelo://app?vid=84dd7381-d88a-4da9-bcfb-c41a71291f00","ios":"levelo://app?vid=84dd7381-d88a-4da9-bcfb-c41a71291f00"},"vehicle_type_id":"4","last_reported":1779295424,"current_range_meters":6000,"station_id":"ce4bhnh2rcd13ifvqgtg","pricing_plan_id":"cebpf4jnsgd1na2vs0mg"},{"bike_id":"fb2fd9ce-ef7b-4f88-ba37-98cbd231afbe","system_id":"levelo_inurba_marseille","lat":43.26214,"lon":5.37937,"is_reserved":false,"is_disabled":false,"rental_uris":{"android":"levelo://app?vid=fb2fd9ce-ef7b-4f88-ba37-98cbd231afbe","ios":"levelo://app?vid=fb2fd9ce-ef7b-4f88-ba37-98cbd231afbe"},"vehicle_type_id":"4","last_reported":1779295424,"current_range_meters":6000,"station_id":"ce4bhjp2rcd13ifvqg90","pricing_plan_id":"cebpf4jnsgd1na2vs0mg"},{"bike_id":"291bce7d-95a9-4f5c-a2d8-de5b55889c52","system_id":"levelo_inurba_marseille","lat":43.30974,"lon":5.36819,"is_reserved":false,"is_disabled":false,"rental_uris":{"android":"levelo://app?vid=291bce7d-95a9-4f5c-a2d8-de5b55889c52","ios":"levelo://app?vid=291bce7d-95a9-4f5c-a2d8-de5b55889c52"},"vehicle_type_id":"4","last_reported":1779295424,"current_range_meters":6000,"station_id":"","pricing_plan_id":"cebpf4jnsgd1na2vs0mg"},{"bike_id":"f1592308-1379-423c-a839-f7fa56f9c6fd","system_id":"levelo_inurba_marseille","lat":43.30952,"lon":5.39024,"is_reserved":false,"is_disabled":false,"rental_uris":{"android":"levelo://app?vid=f1592308-1379-423c-a839-f7fa56f9c6fd","ios":"levelo://app?vid=f1592308-1379-423c-a839-f7fa56f9c6fd"},"vehicle_type_id":"4","last_reported":1779295424,"current_range_meters":6000,"station_id":"ce4bgup2rcd13ifvqco0","pricing_plan_id":"cebpf4jnsgd1na2vs0mg"},{"bike_id":"65dfb13f-4570-4435-9163-5a7dd58b9c97","system_id":"levelo_inurba_marseille","lat":43.22552,"lon":5.34832,"is_reserved":false,"is_disabled":false,"rental_uris":{"android":"levelo://app?vid=65dfb13f-4570-4435-9163-5a7dd58b9c97","ios":"levelo://app?vid=65dfb13f-4570-4435-9163-5a7dd58b9c97"},"vehicle_type_id":"4","last_reported":1779295424,"current_range_meters":6000,"station_id":"st_cvj5dfep6f1abm77gieg","pricing_plan_id":"cebpf4jnsgd1na2vs0mg"},{"bike_id":"dcab00e4-b3bd-4572-b937-f215ffccae6a","system_id":"levelo_inurba_marseille","lat":43.26929,"lon":5.40255,"is_reserved":false,"is_disabled":false,"rental_uris":{"android":"levelo://app?vid=dcab00e4-b3bd-4572-b937-f215ffccae6a","ios":"levelo://app?vid=dcab00e4-b3bd-4572-b937-f215ffccae6a"},"vehicle_type_id":"4","last_reported":1779295424,"current_range_meters":6000,"station_id":"cjm6bp8fraef2m0cb0m0","pricing_plan_id":"cebpf4jnsgd1na2vs0mg"},{"bike_id":"3a50c5a4-deb8-4283-a331-71ea6e0504a8","system_id":"levelo_inurba_marseille","lat":43.28532,"lon":5.4409,"is_reserved":false,"is_disabled":false,"rental_uris":{"android":"levelo://app?vid=3a50c5a4-deb8-4283-a331-71ea6e0504a8","ios":"levelo://app?vid=3a50c5a4-deb8-4283-a331-71ea6e0504a8"},"vehicle_type_id":"4","last_reported":1779295424,"current_range_meters":6400,"station_id":"st_d3j3df2ikq2c7380ej80","pricing_plan_id":"cebpf4jnsgd1na2vs0mg"},{"bike_id":"6448c6c8-8045-4dab-8370-7f5d397b098d","system_id":"levelo_inurba_marseille","lat":43.2558,"lon":5.38207,"is_reserved":false,"is_disabled":false,"rental_uris":{"android":"levelo://app?vid=6448c6c8-8045-4dab-8370-7f5d397b098d","ios":"levelo://app?vid=6448c6c8-8045-4dab-8370-7f5d397b098d"},"vehicle_type_id":"4","last_reported":1779295424,"current_range_meters":6400,"station_id":"ce4bhih2rcd13ifvqfs0","pricing_plan_id":"cebpf4jnsgd1na2vs0mg"},{"bike_id":"a7663cb0-bdf2-4f00-9897-79ffa21a4db5","system_id":"levelo_inurba_marseille","lat":43.29527,"lon":5.39015,"is_reserved":false,"is_disabled":false,"rental_uris":{"android":"levelo://app?vid=a7663cb0-bdf2-4f00-9897-79ffa21a4db5","ios":"levelo://app?vid=a7663cb0-bdf2-4f00-9897-79ffa21a4db5"},"vehicle_type_id":"4","last_reported":1779295424,"current_range_meters":6400,"station_id":"ce4bh3p2rcd13ifvqdp0","pricing_plan_id":"cebpf4jnsgd1na2vs0mg"},{"bike_id":"d60ae60c-1319-4c2f-9499-7e415329dd9f","system_id":"levelo_inurba_marseille","lat":43.23189,"lon":5.39977,"is_reserved":false,"is_disabled":false,"rental_uris":{"android":"levelo://app?vid=d60ae60c-1319-4c2f-9499-7e415329dd9f","ios":"levelo://app?vid=d60ae60c-1319-4c2f-9499-7e415329dd9f"},"vehicle_type_id":"4","last_reported":1779295424,"current_range_meters":6400,"station_id":"ce4bhn12rcd13ifvqgqg","pricing_plan_id":"cebpf4jnsgd1na2vs0mg"},{"bike_id":"a4e1774e-a5f7-4dda-9a1b-0a56c1ae6419","system_id":"levelo_inurba_marseille","lat":43.27235,"lon":5.39278,"is_reserved":false,"is_disabled":false,"rental_uris":{"android":"levelo://app?vid=a4e1774e-a5f7-4dda-9a1b-0a56c1ae6419","ios":"levelo://app?vid=a4e1774e-a5f7-4dda-9a1b-0a56c1ae6419"},"vehicle_type_id":"4","last_reported":1779295424,"current_range_meters":6400,"station_id":"ce4bhhp2rcd13ifvqfm0","pricing_plan_id":"cebpf4jnsgd1na2vs0mg"},{"bike_id":"4cf5899f-760e-4c98-a83a-74f687ec566d","system_id":"levelo_inurba_marseille","lat":43.30318,"lon":5.39195,"is_reserved":false,"is_disabled":true,"rental_uris":{"android":"levelo://app?vid=4cf5899f-760e-4c98-a83a-74f687ec566d","ios":"levelo://app?vid=4cf5899f-760e-4c98-a83a-74f687ec566d"},"vehicle_type_id":"4","last_reported":1779295424,"current_range_meters":6400,"station_id":"ce4bgkh2rcd13ifvqbk0","pricing_plan_id":"cebpf4jnsgd1na2vs0mg"},{"bike_id":"d33891a8-dace-44e6-a570-e93d989d95b5","system_id":"levelo_inurba_marseille","lat":43.29505,"lon":5.39426,"is_reserved":false,"is_disabled":false,"rental_uris":{"android":"levelo://app?vid=d33891a8-dace-44e6-a570-e93d989d95b5","ios":"levelo://app?vid=d33891a8-dace-44e6-a570-e93d989d95b5"},"vehicle_type_id":"4","last_reported":1779295424,"current_range_meters":6400,"station_id":"ce4bh292rcd13ifvqdf0","pricing_plan_id":"cebpf4jnsgd1na2vs0mg"},{"bike_id":"6160ae8e-a0ef-40fb-a824-ac8b6555538f","system_id":"levelo_inurba_marseille","lat":43.26619,"lon":5.38965,"is_reserved":false,"is_disabled":false,"rental_uris":{"android":"levelo://app?vid=6160ae8e-a0ef-40fb-a824-ac8b6555538f","ios":"levelo://app?vid=6160ae8e-a0ef-40fb-a824-ac8b6555538f"},"vehicle_type_id":"4","last_reported":1779295424,"current_range_meters":6400,"station_id":"","pricing_plan_id":"cebpf4jnsgd1na2vs0mg"},{"bike_id":"dc00a619-45cb-4fbd-b10b-201ae0bd5964","system_id":"levelo_inurba_marseille","lat":43.28406,"lon":5.34986,"is_reserved":false,"is_disabled":false,"rental_uris":{"android":"levelo://app?vid=dc00a619-45cb-4fbd-b10b-201ae0bd5964","ios":"levelo://app?vid=dc00a619-45cb-4fbd-b10b-201ae0bd5964"},"vehicle_type_id":"4","last_reported":1779295424,"current_range_meters":6400,"station_id":"ce4bhbh2rcd13ifvqepg","pricing_plan_id":"cebpf4jnsgd1na2vs0mg"},{"bike_id":"1c87b4f0-267c-4c7a-a433-77f9fd462cb6","system_id":"levelo_inurba_marseille","lat":43.29014,"lon":5.38127,"is_reserved":false,"is_disabled":false,"rental_uris":{"android":"levelo://app?vid=1c87b4f0-267c-4c7a-a433-77f9fd462cb6","ios":"levelo://app?vid=1c87b4f0-267c-4c7a-a433-77f9fd462cb6"},"vehicle_type_id":"4","last_reported":1779295424,"current_range_meters":6400,"station_id":"ce4bh4p2rcd13ifvqe1g","pricing_plan_id":"cebpf4jnsgd1na2vs0mg"},{"bike_id":"49fc871c-df1e-4b4e-a73c-0ebb40def32c","system_id":"levelo_inurba_marseille","lat":43.26214,"lon":5.37444,"is_reserved":false,"is_disabled":false,"rental_uris":{"android":"levelo://app?vid=49fc871c-df1e-4b4e-a73c-0ebb40def32c","ios":"levelo://app?vid=49fc871c-df1e-4b4e-a73c-0ebb40def32c"},"vehicle_type_id":"4","last_reported":1779295424,"current_range_meters":6400,"station_id":"ce4bhgp2rcd13ifvqfc0","pricing_plan_id":"cebpf4jnsgd1na2vs0mg"},{"bike_id":"da944e72-44c6-4bd2-9c1b-1671f752e12e","system_id":"levelo_inurba_marseille","lat":43.284182,"lon":5.349742,"is_reserved":false,"is_disabled":false,"rental_uris":{"android":"levelo://app?vid=da944e72-44c6-4bd2-9c1b-1671f752e12e","ios":"levelo://app?vid=da944e72-44c6-4bd2-9c1b-1671f752e12e"},"vehicle_type_id":"4","last_reported":1779295424,"current_range_meters":6400,"station_id":"ce4bhbh2rcd13ifvqepg","pricing_plan_id":"cebpf4jnsgd1na2vs0mg"},{"bike_id":"bc3fe07f-ae95-42d2-91f0-d34745765c9e","system_id":"levelo_inurba_marseille","lat":43.24456,"lon":5.42543,"is_reserved":false,"is_disabled":false,"rental_uris":{"android":"levelo://app?vid=bc3fe07f-ae95-42d2-91f0-d34745765c9e","ios":"levelo://app?vid=bc3fe07f-ae95-42d2-91f0-d34745765c9e"},"vehicle_type_id":"4","last_reported":1779295424,"current_range_meters":6400,"station_id":"st_d4a3vfp97mjs738cd8kg","pricing_plan_id":"cebpf4jnsgd1na2vs0mg"},{"bike_id":"88791c01-6cb0-47b5-ba10-6ef0ba9b522c","system_id":"levelo_inurba_marseille","lat":43.23198,"lon":5.35564,"is_reserved":false,"is_disabled":false,"rental_uris":{"android":"levelo://app?vid=88791c01-6cb0-47b5-ba10-6ef0ba9b522c","ios":"levelo://app?vid=88791c01-6cb0-47b5-ba10-6ef0ba9b522c"},"vehicle_type_id":"4","last_reported":1779295424,"current_range_meters":6400,"station_id":"ce4bhu92rcd13ifvqi70","pricing_plan_id":"cebpf4jnsgd1na2vs0mg"},{"bike_id":"769d9297-efb7-4896-9572-4ac9e01c6f73","system_id":"levelo_inurba_marseille","lat":43.30794,"lon":5.38162,"is_reserved":false,"is_disabled":false,"rental_uris":{"android":"levelo://app?vid=769d9297-efb7-4896-9572-4ac9e01c6f73","ios":"levelo://app?vid=769d9297-efb7-4896-9572-4ac9e01c6f73"},"vehicle_type_id":"4","last_reported":1779295424,"current_range_meters":6400,"station_id":"ce4bgt12rcd13ifvqce0","pricing_plan_id":"cebpf4jnsgd1na2vs0mg"},{"bike_id":"e2a2b206-8f5a-4f99-9270-574af5a04ca5","system_id":"levelo_inurba_marseille","lat":43.29511,"lon":5.39398,"is_reserved":false,"is_disabled":false,"rental_uris":{"android":"levelo://app?vid=e2a2b206-8f5a-4f99-9270-574af5a04ca5","ios":"levelo://app?vid=e2a2b206-8f5a-4f99-9270-574af5a04ca5"},"vehicle_type_id":"4","last_reported":1779295424,"current_range_meters":6400,"station_id":"ce4bh292rcd13ifvqdf0","pricing_plan_id":"cebpf4jnsgd1na2vs0mg"},{"bike_id":"ab3d0653-ceb0-447c-b6ee-1608aa7ac29d","system_id":"levelo_inurba_marseille","lat":43.29182,"lon":5.45997,"is_reserved":false,"is_disabled":false,"rental_uris":{"android":"levelo://app?vid=ab3d0653-ceb0-447c-b6ee-1608aa7ac29d","ios":"levelo://app?vid=ab3d0653-ceb0-447c-b6ee-1608aa7ac29d"},"vehicle_type_id":"4","last_reported":1779295424,"current_range_meters":6400,"station_id":"","pricing_plan_id":"cebpf4jnsgd1na2vs0mg"},{"bike_id":"2e78de2d-d8e3-4391-988b-4d1154738233","system_id":"levelo_inurba_marseille","lat":43.26198,"lon":5.37914,"is_reserved":false,"is_disabled":false,"rental_uris":{"android":"levelo://app?vid=2e78de2d-d8e3-4391-988b-4d1154738233","ios":"levelo://app?vid=2e78de2d-d8e3-4391-988b-4d1154738233"},"vehicle_type_id":"4","last_reported":1779295424,"current_range_meters":6400,"station_id":"ce4bhjp2rcd13ifvqg90","pricing_plan_id":"cebpf4jnsgd1na2vs0mg"},{"bike_id":"595ae28d-2294-4886-9ea4-c22376df6fd3","system_id":"levelo_inurba_marseille","lat":43.29385,"lon":5.38577,"is_reserved":false,"is_disabled":false,"rental_uris":{"android":"levelo://app?vid=595ae28d-2294-4886-9ea4-c22376df6fd3","ios":"levelo://app?vid=595ae28d-2294-4886-9ea4-c22376df6fd3"},"vehicle_type_id":"4","last_reported":1779295424,"current_range_meters":6400,"station_id":"","pricing_plan_id":"cebpf4jnsgd1na2vs0mg"},{"bike_id":"1945c429-a6b3-4afe-8b4e-c989148ef8b4","system_id":"levelo_inurba_marseille","lat":43.28623,"lon":5.37811,"is_reserved":false,"is_disabled":false,"rental_uris":{"android":"levelo://app?vid=1945c429-a6b3-4afe-8b4e-c989148ef8b4","ios":"levelo://app?vid=1945c429-a6b3-4afe-8b4e-c989148ef8b4"},"vehicle_type_id":"4","last_reported":1779295424,"current_range_meters":6400,"station_id":"","pricing_plan_id":"cebpf4jnsgd1na2vs0mg"},{"bike_id":"f9672d6a-6397-4bbd-b8ae-9224e8a58a21","system_id":"levelo_inurba_marseille","lat":43.23187,"lon":5.39976,"is_reserved":false,"is_disabled":false,"rental_uris":{"android":"levelo://app?vid=f9672d6a-6397-4bbd-b8ae-9224e8a58a21","ios":"levelo://app?vid=f9672d6a-6397-4bbd-b8ae-9224e8a58a21"},"vehicle_type_id":"4","last_reported":1779295424,"current_range_meters":6800,"station_id":"ce4bhn12rcd13ifvqgqg","pricing_plan_id":"cebpf4jnsgd1na2vs0mg"},{"bike_id":"3defc929-f33f-4739-8b1f-14e0e403504c","system_id":"levelo_inurba_marseille","lat":43.23169,"lon":5.40014,"is_reserved":false,"is_disabled":false,"rental_uris":{"android":"levelo://app?vid=3defc929-f33f-4739-8b1f-14e0e403504c","ios":"levelo://app?vid=3defc929-f33f-4739-8b1f-14e0e403504c"},"vehicle_type_id":"4","last_reported":1779295424,"current_range_meters":6800,"station_id":"ce4bhn12rcd13ifvqgqg","pricing_plan_id":"cebpf4jnsgd1na2vs0mg"},{"bike_id":"c202bc15-6fd2-4b5b-b9f8-fe2a7981a9a0","system_id":"levelo_inurba_marseille","lat":43.23311,"lon":5.35908,"is_reserved":false,"is_disabled":false,"rental_uris":{"android":"levelo://app?vid=c202bc15-6fd2-4b5b-b9f8-fe2a7981a9a0","ios":"levelo://app?vid=c202bc15-6fd2-4b5b-b9f8-fe2a7981a9a0"},"vehicle_type_id":"4","last_reported":1779295424,"current_range_meters":6800,"station_id":"","pricing_plan_id":"cebpf4jnsgd1na2vs0mg"},{"bike_id":"9e32e2d6-6c68-442a-88c0-149a0636e174","system_id":"levelo_inurba_marseille","lat":43.2994,"lon":5.36553,"is_reserved":false,"is_disabled":false,"rental_uris":{"android":"levelo://app?vid=9e32e2d6-6c68-442a-88c0-149a0636e174","ios":"levelo://app?vid=9e32e2d6-6c68-442a-88c0-149a0636e174"},"vehicle_type_id":"4","last_reported":1779295424,"current_range_meters":6800,"station_id":"ce4bgm92rcd13ifvqbr0","pricing_plan_id":"cebpf4jnsgd1na2vs0mg"},{"bike_id":"ed0a2e31-3f52-4952-819a-710fa6677d96","system_id":"levelo_inurba_marseille","lat":43.28698,"lon":5.46683,"is_reserved":false,"is_disabled":false,"rental_uris":{"android":"levelo://app?vid=ed0a2e31-3f52-4952-819a-710fa6677d96","ios":"levelo://app?vid=ed0a2e31-3f52-4952-819a-710fa6677d96"},"vehicle_type_id":"4","last_reported":1779295424,"current_range_meters":6800,"station_id":"st_d6tc3vkotcvc738tfjhg","pricing_plan_id":"cebpf4jnsgd1na2vs0mg"},{"bike_id":"c7933186-737a-4479-ad0c-bc603a579570","system_id":"levelo_inurba_marseille","lat":43.30811,"lon":5.38146,"is_reserved":false,"is_disabled":false,"rental_uris":{"android":"levelo://app?vid=c7933186-737a-4479-ad0c-bc603a579570","ios":"levelo://app?vid=c7933186-737a-4479-ad0c-bc603a579570"},"vehicle_type_id":"4","last_reported":1779295424,"current_range_meters":6800,"station_id":"ce4bgt12rcd13ifvqce0","pricing_plan_id":"cebpf4jnsgd1na2vs0mg"},{"bike_id":"51498d75-9af5-4013-969a-723de0aa6489","system_id":"levelo_inurba_marseille","lat":43.27186,"lon":5.41105,"is_reserved":false,"is_disabled":false,"rental_uris":{"android":"levelo://app?vid=51498d75-9af5-4013-969a-723de0aa6489","ios":"levelo://app?vid=51498d75-9af5-4013-969a-723de0aa6489"},"vehicle_type_id":"4","last_reported":1779295424,"current_range_meters":6800,"station_id":"","pricing_plan_id":"cebpf4jnsgd1na2vs0mg"},{"bike_id":"8d0bde7b-380b-4404-90a8-f24d54d20be7","system_id":"levelo_inurba_marseille","lat":43.28826,"lon":5.39331,"is_reserved":false,"is_disabled":false,"rental_uris":{"android":"levelo://app?vid=8d0bde7b-380b-4404-90a8-f24d54d20be7","ios":"levelo://app?vid=8d0bde7b-380b-4404-90a8-f24d54d20be7"},"vehicle_type_id":"4","last_reported":1779295424,"current_range_meters":6800,"station_id":"ce4bh2p2rcd13ifvqdi0","pricing_plan_id":"cebpf4jnsgd1na2vs0mg"},{"bike_id":"e9e56b8f-e3a9-4e46-b029-b4f84d3352f0","system_id":"levelo_inurba_marseille","lat":43.29012,"lon":5.35622,"is_reserved":false,"is_disabled":false,"rental_uris":{"android":"levelo://app?vid=e9e56b8f-e3a9-4e46-b029-b4f84d3352f0","ios":"levelo://app?vid=e9e56b8f-e3a9-4e46-b029-b4f84d3352f0"},"vehicle_type_id":"4","last_reported":1779295424,"current_range_meters":6800,"station_id":"ce4bhb92rcd13ifvqen0","pricing_plan_id":"cebpf4jnsgd1na2vs0mg"},{"bike_id":"4d0c24f8-62bb-4ae7-adcc-3091a86de062","system_id":"levelo_inurba_marseille","lat":43.31435,"lon":5.38532,"is_reserved":false,"is_disabled":false,"rental_uris":{"android":"levelo://app?vid=4d0c24f8-62bb-4ae7-adcc-3091a86de062","ios":"levelo://app?vid=4d0c24f8-62bb-4ae7-adcc-3091a86de062"},"vehicle_type_id":"4","last_reported":1779295424,"current_range_meters":6800,"station_id":"","pricing_plan_id":"cebpf4jnsgd1na2vs0mg"},{"bike_id":"9610b6c1-4de4-4635-adca-70fccdbaf631","system_id":"levelo_inurba_marseille","lat":43.29528,"lon":5.38553,"is_reserved":false,"is_disabled":true,"rental_uris":{"android":"levelo://app?vid=9610b6c1-4de4-4635-adca-70fccdbaf631","ios":"levelo://app?vid=9610b6c1-4de4-4635-adca-70fccdbaf631"},"vehicle_type_id":"4","last_reported":1779295424,"current_range_meters":6800,"station_id":"ce4bgih2rcd13ifvqba0","pricing_plan_id":"cebpf4jnsgd1na2vs0mg"},{"bike_id":"a05d7e08-f01f-4d45-9a99-d4e169f8141b","system_id":"levelo_inurba_marseille","lat":43.27814,"lon":5.40717,"is_reserved":false,"is_disabled":false,"rental_uris":{"android":"levelo://app?vid=a05d7e08-f01f-4d45-9a99-d4e169f8141b","ios":"levelo://app?vid=a05d7e08-f01f-4d45-9a99-d4e169f8141b"},"vehicle_type_id":"4","last_reported":1779295424,"current_range_meters":6800,"station_id":"ce4bhnh2rcd13ifvqgtg","pricing_plan_id":"cebpf4jnsgd1na2vs0mg"},{"bike_id":"d60d54fe-9f3c-4db1-9b1d-b72bccf1f0ec","system_id":"levelo_inurba_marseille","lat":43.28611,"lon":5.35105,"is_reserved":false,"is_disabled":false,"rental_uris":{"android":"levelo://app?vid=d60d54fe-9f3c-4db1-9b1d-b72bccf1f0ec","ios":"levelo://app?vid=d60d54fe-9f3c-4db1-9b1d-b72bccf1f0ec"},"vehicle_type_id":"4","last_reported":1779295424,"current_range_meters":6800,"station_id":"ce4bhch2rcd13ifvqeug","pricing_plan_id":"cebpf4jnsgd1na2vs0mg"},{"bike_id":"528592bc-8d39-47c8-b521-6d5ad32fb36d","system_id":"levelo_inurba_marseille","lat":43.284,"lon":5.37521,"is_reserved":false,"is_disabled":false,"rental_uris":{"android":"levelo://app?vid=528592bc-8d39-47c8-b521-6d5ad32fb36d","ios":"levelo://app?vid=528592bc-8d39-47c8-b521-6d5ad32fb36d"},"vehicle_type_id":"4","last_reported":1779295424,"current_range_meters":6800,"station_id":"ce4bh412rcd13ifvqds0","pricing_plan_id":"cebpf4jnsgd1na2vs0mg"},{"bike_id":"ab1b80a7-8642-4232-b72a-fa5cdf2c1795","system_id":"levelo_inurba_marseille","lat":43.27062,"lon":5.38304,"is_reserved":false,"is_disabled":false,"rental_uris":{"android":"levelo://app?vid=ab1b80a7-8642-4232-b72a-fa5cdf2c1795","ios":"levelo://app?vid=ab1b80a7-8642-4232-b72a-fa5cdf2c1795"},"vehicle_type_id":"4","last_reported":1779295424,"current_range_meters":6800,"station_id":"st_d3n2fo6cfp8s73cte1j0","pricing_plan_id":"cebpf4jnsgd1na2vs0mg"},{"bike_id":"d1700aa3-8628-43ce-9ec7-41aafbb8ba3a","system_id":"levelo_inurba_marseille","lat":43.21745,"lon":5.346,"is_reserved":false,"is_disabled":false,"rental_uris":{"android":"levelo://app?vid=d1700aa3-8628-43ce-9ec7-41aafbb8ba3a","ios":"levelo://app?vid=d1700aa3-8628-43ce-9ec7-41aafbb8ba3a"},"vehicle_type_id":"4","last_reported":1779295424,"current_range_meters":6800,"station_id":"st_cvj6r9ubvosntc0bgbag","pricing_plan_id":"cebpf4jnsgd1na2vs0mg"},{"bike_id":"cc8e1b55-b457-4b9d-9211-90ea98cd9f2b","system_id":"levelo_inurba_marseille","lat":43.24967,"lon":5.40473,"is_reserved":false,"is_disabled":false,"rental_uris":{"android":"levelo://app?vid=cc8e1b55-b457-4b9d-9211-90ea98cd9f2b","ios":"levelo://app?vid=cc8e1b55-b457-4b9d-9211-90ea98cd9f2b"},"vehicle_type_id":"4","last_reported":1779295424,"current_range_meters":7200,"station_id":"st_d2ngiaodas8pm72gd1h0","pricing_plan_id":"cebpf4jnsgd1na2vs0mg"},{"bike_id":"f9e01850-ca26-4640-907c-9a5ab508de8b","system_id":"levelo_inurba_marseille","lat":43.28966,"lon":5.37847,"is_reserved":false,"is_disabled":false,"rental_uris":{"android":"levelo://app?vid=f9e01850-ca26-4640-907c-9a5ab508de8b","ios":"levelo://app?vid=f9e01850-ca26-4640-907c-9a5ab508de8b"},"vehicle_type_id":"4","last_reported":1779295424,"current_range_meters":7200,"station_id":"ce4bh9p2rcd13ifvqed0","pricing_plan_id":"cebpf4jnsgd1na2vs0mg"},{"bike_id":"0d95ac27-0520-4475-b691-74c5093dabdd","system_id":"levelo_inurba_marseille","lat":43.295271,"lon":5.385371,"is_reserved":false,"is_disabled":false,"rental_uris":{"android":"levelo://app?vid=0d95ac27-0520-4475-b691-74c5093dabdd","ios":"levelo://app?vid=0d95ac27-0520-4475-b691-74c5093dabdd"},"vehicle_type_id":"4","last_reported":1779295424,"current_range_meters":7200,"station_id":"ce4bgih2rcd13ifvqba0","pricing_plan_id":"cebpf4jnsgd1na2vs0mg"},{"bike_id":"4b3bfce2-f33c-459e-9c1c-d33081537173","system_id":"levelo_inurba_marseille","lat":43.2994,"lon":5.36506,"is_reserved":false,"is_disabled":false,"rental_uris":{"android":"levelo://app?vid=4b3bfce2-f33c-459e-9c1c-d33081537173","ios":"levelo://app?vid=4b3bfce2-f33c-459e-9c1c-d33081537173"},"vehicle_type_id":"4","last_reported":1779295424,"current_range_meters":7200,"station_id":"ce4bgm92rcd13ifvqbr0","pricing_plan_id":"cebpf4jnsgd1na2vs0mg"},{"bike_id":"e1ae8f50-abf3-447b-8315-993e1558d679","system_id":"levelo_inurba_marseille","lat":43.27904,"lon":5.38015,"is_reserved":false,"is_disabled":false,"rental_uris":{"android":"levelo://app?vid=e1ae8f50-abf3-447b-8315-993e1558d679","ios":"levelo://app?vid=e1ae8f50-abf3-447b-8315-993e1558d679"},"vehicle_type_id":"4","last_reported":1779295424,"current_range_meters":7200,"station_id":"ce4bhf92rcd13ifvqf50","pricing_plan_id":"cebpf4jnsgd1na2vs0mg"},{"bike_id":"89c27368-60df-46ea-b367-cef386a76f70","system_id":"levelo_inurba_marseille","lat":43.28937,"lon":5.38385,"is_reserved":false,"is_disabled":false,"rental_uris":{"android":"levelo://app?vid=89c27368-60df-46ea-b367-cef386a76f70","ios":"levelo://app?vid=89c27368-60df-46ea-b367-cef386a76f70"},"vehicle_type_id":"4","last_reported":1779295424,"current_range_meters":7200,"station_id":"ce4bh612rcd13ifvqe6g","pricing_plan_id":"cebpf4jnsgd1na2vs0mg"},{"bike_id":"a27e098e-1a24-4d08-9b60-4d13b518338e","system_id":"levelo_inurba_marseille","lat":43.2823,"lon":5.35022,"is_reserved":false,"is_disabled":false,"rental_uris":{"android":"levelo://app?vid=a27e098e-1a24-4d08-9b60-4d13b518338e","ios":"levelo://app?vid=a27e098e-1a24-4d08-9b60-4d13b518338e"},"vehicle_type_id":"4","last_reported":1779295424,"current_range_meters":7200,"station_id":"","pricing_plan_id":"cebpf4jnsgd1na2vs0mg"},{"bike_id":"b0f1837a-ba23-48f3-a7c9-fe91ecd3237b","system_id":"levelo_inurba_marseille","lat":43.26052,"lon":5.39391,"is_reserved":false,"is_disabled":false,"rental_uris":{"android":"levelo://app?vid=b0f1837a-ba23-48f3-a7c9-fe91ecd3237b","ios":"levelo://app?vid=b0f1837a-ba23-48f3-a7c9-fe91ecd3237b"},"vehicle_type_id":"4","last_reported":1779295424,"current_range_meters":7200,"station_id":"ce4bhh92rcd13ifvqfj0","pricing_plan_id":"cebpf4jnsgd1na2vs0mg"},{"bike_id":"463a5a68-47df-4d0f-b313-5742d6e23c33","system_id":"levelo_inurba_marseille","lat":43.31113,"lon":5.37769,"is_reserved":false,"is_disabled":false,"rental_uris":{"android":"levelo://app?vid=463a5a68-47df-4d0f-b313-5742d6e23c33","ios":"levelo://app?vid=463a5a68-47df-4d0f-b313-5742d6e23c33"},"vehicle_type_id":"4","last_reported":1779295424,"current_range_meters":7200,"station_id":"ce4bgt92rcd13ifvqcg0","pricing_plan_id":"cebpf4jnsgd1na2vs0mg"},{"bike_id":"47c9cb97-371d-4e9f-9c20-83aba40029f7","system_id":"levelo_inurba_marseille","lat":43.225321,"lon":5.348338,"is_reserved":false,"is_disabled":false,"rental_uris":{"android":"levelo://app?vid=47c9cb97-371d-4e9f-9c20-83aba40029f7","ios":"levelo://app?vid=47c9cb97-371d-4e9f-9c20-83aba40029f7"},"vehicle_type_id":"4","last_reported":1779295424,"current_range_meters":7200,"station_id":"st_cvj5dfep6f1abm77gieg","pricing_plan_id":"cebpf4jnsgd1na2vs0mg"},{"bike_id":"e200c993-54b9-4000-bb4d-5382cc2d9d1f","system_id":"levelo_inurba_marseille","lat":43.28695,"lon":5.37386,"is_reserved":false,"is_disabled":false,"rental_uris":{"android":"levelo://app?vid=e200c993-54b9-4000-bb4d-5382cc2d9d1f","ios":"levelo://app?vid=e200c993-54b9-4000-bb4d-5382cc2d9d1f"},"vehicle_type_id":"4","last_reported":1779295424,"current_range_meters":7200,"station_id":"ce4bh3p2rcd13ifvqdq0","pricing_plan_id":"cebpf4jnsgd1na2vs0mg"},{"bike_id":"cc4d7ae3-c5f7-4b04-bb34-9909f7f7970d","system_id":"levelo_inurba_marseille","lat":43.2927,"lon":5.40922,"is_reserved":false,"is_disabled":true,"rental_uris":{"android":"levelo://app?vid=cc4d7ae3-c5f7-4b04-bb34-9909f7f7970d","ios":"levelo://app?vid=cc4d7ae3-c5f7-4b04-bb34-9909f7f7970d"},"vehicle_type_id":"4","last_reported":1779295424,"current_range_meters":7200,"station_id":"ce4bh192rcd13ifvqdc0","pricing_plan_id":"cebpf4jnsgd1na2vs0mg"},{"bike_id":"8929d48b-9ea7-43b6-ac87-fae40bb46e3e","system_id":"levelo_inurba_marseille","lat":43.29906,"lon":5.38137,"is_reserved":false,"is_disabled":false,"rental_uris":{"android":"levelo://app?vid=8929d48b-9ea7-43b6-ac87-fae40bb46e3e","ios":"levelo://app?vid=8929d48b-9ea7-43b6-ac87-fae40bb46e3e"},"vehicle_type_id":"4","last_reported":1779295424,"current_range_meters":7200,"station_id":"ce4bgj12rcd13ifvqbc0","pricing_plan_id":"cebpf4jnsgd1na2vs0mg"},{"bike_id":"f866df32-1984-464f-b169-bf63661abae8","system_id":"levelo_inurba_marseille","lat":43.27214,"lon":5.40955,"is_reserved":false,"is_disabled":false,"rental_uris":{"android":"levelo://app?vid=f866df32-1984-464f-b169-bf63661abae8","ios":"levelo://app?vid=f866df32-1984-464f-b169-bf63661abae8"},"vehicle_type_id":"4","last_reported":1779295424,"current_range_meters":7200,"station_id":"","pricing_plan_id":"cebpf4jnsgd1na2vs0mg"},{"bike_id":"70d97369-5ce6-49b4-bb74-c45c930c9e3c","system_id":"levelo_inurba_marseille","lat":43.2842,"lon":5.34988,"is_reserved":false,"is_disabled":false,"rental_uris":{"android":"levelo://app?vid=70d97369-5ce6-49b4-bb74-c45c930c9e3c","ios":"levelo://app?vid=70d97369-5ce6-49b4-bb74-c45c930c9e3c"},"vehicle_type_id":"4","last_reported":1779295424,"current_range_meters":7200,"station_id":"ce4bhbh2rcd13ifvqepg","pricing_plan_id":"cebpf4jnsgd1na2vs0mg"},{"bike_id":"74b83ce7-0a08-4f2b-ae39-d47117cae587","system_id":"levelo_inurba_marseille","lat":43.29726,"lon":5.36589,"is_reserved":false,"is_disabled":false,"rental_uris":{"android":"levelo://app?vid=74b83ce7-0a08-4f2b-ae39-d47117cae587","ios":"levelo://app?vid=74b83ce7-0a08-4f2b-ae39-d47117cae587"},"vehicle_type_id":"4","last_reported":1779295424,"current_range_meters":7200,"station_id":"ce4bgn12rcd13ifvqbt0","pricing_plan_id":"cebpf4jnsgd1na2vs0mg"},{"bike_id":"673ba54f-9f28-4bf6-9418-5a9d9b7e918e","system_id":"levelo_inurba_marseille","lat":43.28398,"lon":5.34979,"is_reserved":false,"is_disabled":false,"rental_uris":{"android":"levelo://app?vid=673ba54f-9f28-4bf6-9418-5a9d9b7e918e","ios":"levelo://app?vid=673ba54f-9f28-4bf6-9418-5a9d9b7e918e"},"vehicle_type_id":"4","last_reported":1779295424,"current_range_meters":7200,"station_id":"ce4bhbh2rcd13ifvqepg","pricing_plan_id":"cebpf4jnsgd1na2vs0mg"},{"bike_id":"81039ed5-6752-4423-9e2f-1e0b45b02caa","system_id":"levelo_inurba_marseille","lat":43.29225,"lon":5.36066,"is_reserved":false,"is_disabled":false,"rental_uris":{"android":"levelo://app?vid=81039ed5-6752-4423-9e2f-1e0b45b02caa","ios":"levelo://app?vid=81039ed5-6752-4423-9e2f-1e0b45b02caa"},"vehicle_type_id":"4","last_reported":1779295424,"current_range_meters":7200,"station_id":"ce4bhbh2rcd13ifvqeqg","pricing_plan_id":"cebpf4jnsgd1na2vs0mg"},{"bike_id":"05a0e094-9968-4236-ba2c-6b3d7bee47a8","system_id":"levelo_inurba_marseille","lat":43.28416,"lon":5.34979,"is_reserved":false,"is_disabled":false,"rental_uris":{"android":"levelo://app?vid=05a0e094-9968-4236-ba2c-6b3d7bee47a8","ios":"levelo://app?vid=05a0e094-9968-4236-ba2c-6b3d7bee47a8"},"vehicle_type_id":"4","last_reported":1779295424,"current_range_meters":7200,"station_id":"ce4bhbh2rcd13ifvqepg","pricing_plan_id":"cebpf4jnsgd1na2vs0mg"},{"bike_id":"2412807c-9d23-4d7f-9ccc-eb716bda0d74","system_id":"levelo_inurba_marseille","lat":43.30953,"lon":5.39028,"is_reserved":false,"is_disabled":false,"rental_uris":{"android":"levelo://app?vid=2412807c-9d23-4d7f-9ccc-eb716bda0d74","ios":"levelo://app?vid=2412807c-9d23-4d7f-9ccc-eb716bda0d74"},"vehicle_type_id":"4","last_reported":1779295424,"current_range_meters":7200,"station_id":"ce4bgup2rcd13ifvqco0","pricing_plan_id":"cebpf4jnsgd1na2vs0mg"},{"bike_id":"df018136-253c-467a-8d5d-c5b99ece5700","system_id":"levelo_inurba_marseille","lat":43.288574,"lon":5.358534,"is_reserved":false,"is_disabled":false,"rental_uris":{"android":"levelo://app?vid=df018136-253c-467a-8d5d-c5b99ece5700","ios":"levelo://app?vid=df018136-253c-467a-8d5d-c5b99ece5700"},"vehicle_type_id":"4","last_reported":1779295424,"current_range_meters":7200,"station_id":"ce4bhb12rcd13ifvqem0","pricing_plan_id":"cebpf4jnsgd1na2vs0mg"},{"bike_id":"d6e4b008-8bae-4678-b99b-57454b75c645","system_id":"levelo_inurba_marseille","lat":43.322901,"lon":5.382739,"is_reserved":false,"is_disabled":false,"rental_uris":{"android":"levelo://app?vid=d6e4b008-8bae-4678-b99b-57454b75c645","ios":"levelo://app?vid=d6e4b008-8bae-4678-b99b-57454b75c645"},"vehicle_type_id":"4","last_reported":1779295424,"current_range_meters":7200,"station_id":"ce4bhr12rcd13ifvqhqg","pricing_plan_id":"cebpf4jnsgd1na2vs0mg"},{"bike_id":"c100a976-f895-4ae4-8fb3-712533b6cf19","system_id":"levelo_inurba_marseille","lat":43.29006,"lon":5.3561,"is_reserved":false,"is_disabled":false,"rental_uris":{"android":"levelo://app?vid=c100a976-f895-4ae4-8fb3-712533b6cf19","ios":"levelo://app?vid=c100a976-f895-4ae4-8fb3-712533b6cf19"},"vehicle_type_id":"4","last_reported":1779295424,"current_range_meters":7200,"station_id":"ce4bhb92rcd13ifvqen0","pricing_plan_id":"cebpf4jnsgd1na2vs0mg"},{"bike_id":"24139e48-8c49-4fdb-9fc9-c31c6a2c8ea7","system_id":"levelo_inurba_marseille","lat":43.24632,"lon":5.38881,"is_reserved":false,"is_disabled":false,"rental_uris":{"android":"levelo://app?vid=24139e48-8c49-4fdb-9fc9-c31c6a2c8ea7","ios":"levelo://app?vid=24139e48-8c49-4fdb-9fc9-c31c6a2c8ea7"},"vehicle_type_id":"4","last_reported":1779295424,"current_range_meters":7200,"station_id":"ce4bhg12rcd13ifvqf60","pricing_plan_id":"cebpf4jnsgd1na2vs0mg"},{"bike_id":"4a8c9430-0022-4450-bb47-510146875887","system_id":"levelo_inurba_marseille","lat":43.27622,"lon":5.36101,"is_reserved":false,"is_disabled":false,"rental_uris":{"android":"levelo://app?vid=4a8c9430-0022-4450-bb47-510146875887","ios":"levelo://app?vid=4a8c9430-0022-4450-bb47-510146875887"},"vehicle_type_id":"4","last_reported":1779295424,"current_range_meters":7200,"station_id":"ce4bgj92rcd13ifvqbe0","pricing_plan_id":"cebpf4jnsgd1na2vs0mg"},{"bike_id":"ddfa1b70-6b71-4d7a-b7f8-3c27847ec2fc","system_id":"levelo_inurba_marseille","lat":43.25889,"lon":5.39901,"is_reserved":false,"is_disabled":false,"rental_uris":{"android":"levelo://app?vid=ddfa1b70-6b71-4d7a-b7f8-3c27847ec2fc","ios":"levelo://app?vid=ddfa1b70-6b71-4d7a-b7f8-3c27847ec2fc"},"vehicle_type_id":"4","last_reported":1779295424,"current_range_meters":8000,"station_id":"ce4bhl92rcd13ifvqghg","pricing_plan_id":"cebpf4jnsgd1na2vs0mg"},{"bike_id":"430f6173-5908-4788-92fc-7a70afb37ecc","system_id":"levelo_inurba_marseille","lat":43.28394,"lon":5.34995,"is_reserved":false,"is_disabled":false,"rental_uris":{"android":"levelo://app?vid=430f6173-5908-4788-92fc-7a70afb37ecc","ios":"levelo://app?vid=430f6173-5908-4788-92fc-7a70afb37ecc"},"vehicle_type_id":"4","last_reported":1779295424,"current_range_meters":8000,"station_id":"ce4bhbh2rcd13ifvqepg","pricing_plan_id":"cebpf4jnsgd1na2vs0mg"},{"bike_id":"c5e693a5-5aee-4f2f-b3d3-ad6fe1a5da64","system_id":"levelo_inurba_marseille","lat":43.3246,"lon":5.36574,"is_reserved":false,"is_disabled":false,"rental_uris":{"android":"levelo://app?vid=c5e693a5-5aee-4f2f-b3d3-ad6fe1a5da64","ios":"levelo://app?vid=c5e693a5-5aee-4f2f-b3d3-ad6fe1a5da64"},"vehicle_type_id":"4","last_reported":1779295424,"current_range_meters":8000,"station_id":"ce4bhs12rcd13ifvqhvg","pricing_plan_id":"cebpf4jnsgd1na2vs0mg"},{"bike_id":"099da5e5-2320-45f9-9264-c27168be2d36","system_id":"levelo_inurba_marseille","lat":43.29255,"lon":5.3685,"is_reserved":false,"is_disabled":false,"rental_uris":{"android":"levelo://app?vid=099da5e5-2320-45f9-9264-c27168be2d36","ios":"levelo://app?vid=099da5e5-2320-45f9-9264-c27168be2d36"},"vehicle_type_id":"4","last_reported":1779295424,"current_range_meters":8000,"station_id":"ce4bhbp2rcd13ifvqesg","pricing_plan_id":"cebpf4jnsgd1na2vs0mg"},{"bike_id":"e38caa21-a14a-4197-88a1-db68aad57c56","system_id":"levelo_inurba_marseille","lat":43.28699,"lon":5.46687,"is_reserved":false,"is_disabled":false,"rental_uris":{"android":"levelo://app?vid=e38caa21-a14a-4197-88a1-db68aad57c56","ios":"levelo://app?vid=e38caa21-a14a-4197-88a1-db68aad57c56"},"vehicle_type_id":"4","last_reported":1779295424,"current_range_meters":8000,"station_id":"st_d6tc3vkotcvc738tfjhg","pricing_plan_id":"cebpf4jnsgd1na2vs0mg"},{"bike_id":"a90b6ba1-ebd3-4839-af08-7ada652cf8c2","system_id":"levelo_inurba_marseille","lat":43.28682,"lon":5.36333,"is_reserved":false,"is_disabled":false,"rental_uris":{"android":"levelo://app?vid=a90b6ba1-ebd3-4839-af08-7ada652cf8c2","ios":"levelo://app?vid=a90b6ba1-ebd3-4839-af08-7ada652cf8c2"},"vehicle_type_id":"4","last_reported":1779295424,"current_range_meters":8000,"station_id":"ce4bhah2rcd13ifvqej0","pricing_plan_id":"cebpf4jnsgd1na2vs0mg"},{"bike_id":"381a1687-3b4c-4e43-ada7-0b296f458493","system_id":"levelo_inurba_marseille","lat":43.28746,"lon":5.46708,"is_reserved":false,"is_disabled":false,"rental_uris":{"android":"levelo://app?vid=381a1687-3b4c-4e43-ada7-0b296f458493","ios":"levelo://app?vid=381a1687-3b4c-4e43-ada7-0b296f458493"},"vehicle_type_id":"4","last_reported":1779295424,"current_range_meters":8000,"station_id":"","pricing_plan_id":"cebpf4jnsgd1na2vs0mg"},{"bike_id":"85b800c6-0110-4980-ad9d-bf1f84816e78","system_id":"levelo_inurba_marseille","lat":43.28408,"lon":5.34994,"is_reserved":false,"is_disabled":false,"rental_uris":{"android":"levelo://app?vid=85b800c6-0110-4980-ad9d-bf1f84816e78","ios":"levelo://app?vid=85b800c6-0110-4980-ad9d-bf1f84816e78"},"vehicle_type_id":"4","last_reported":1779295424,"current_range_meters":8000,"station_id":"ce4bhbh2rcd13ifvqepg","pricing_plan_id":"cebpf4jnsgd1na2vs0mg"},{"bike_id":"6ee58c32-471e-49ce-82c8-4578d93b5254","system_id":"levelo_inurba_marseille","lat":43.31169,"lon":5.36844,"is_reserved":false,"is_disabled":false,"rental_uris":{"android":"levelo://app?vid=6ee58c32-471e-49ce-82c8-4578d93b5254","ios":"levelo://app?vid=6ee58c32-471e-49ce-82c8-4578d93b5254"},"vehicle_type_id":"4","last_reported":1779295424,"current_range_meters":8000,"station_id":"ce4bgl92rcd13ifvqbq0","pricing_plan_id":"cebpf4jnsgd1na2vs0mg"},{"bike_id":"32a77a19-44eb-4dff-963f-ea5fbbad7582","system_id":"levelo_inurba_marseille","lat":43.28691,"lon":5.37397,"is_reserved":false,"is_disabled":false,"rental_uris":{"android":"levelo://app?vid=32a77a19-44eb-4dff-963f-ea5fbbad7582","ios":"levelo://app?vid=32a77a19-44eb-4dff-963f-ea5fbbad7582"},"vehicle_type_id":"4","last_reported":1779295424,"current_range_meters":8000,"station_id":"ce4bh3p2rcd13ifvqdq0","pricing_plan_id":"cebpf4jnsgd1na2vs0mg"},{"bike_id":"72bee0bb-8dc4-495d-b327-1c8db4123867","system_id":"levelo_inurba_marseille","lat":43.26798,"lon":5.40256,"is_reserved":false,"is_disabled":false,"rental_uris":{"android":"levelo://app?vid=72bee0bb-8dc4-495d-b327-1c8db4123867","ios":"levelo://app?vid=72bee0bb-8dc4-495d-b327-1c8db4123867"},"vehicle_type_id":"4","last_reported":1779295424,"current_range_meters":8000,"station_id":"ce501612rcd8frsf0b60","pricing_plan_id":"cebpf4jnsgd1na2vs0mg"},{"bike_id":"c65c6f20-0e53-4531-a63d-94fe5193664a","system_id":"levelo_inurba_marseille","lat":43.28699,"lon":5.399848,"is_reserved":false,"is_disabled":false,"rental_uris":{"android":"levelo://app?vid=c65c6f20-0e53-4531-a63d-94fe5193664a","ios":"levelo://app?vid=c65c6f20-0e53-4531-a63d-94fe5193664a"},"vehicle_type_id":"4","last_reported":1779295424,"current_range_meters":8000,"station_id":"ce4bho92rcd13ifvqh3g","pricing_plan_id":"cebpf4jnsgd1na2vs0mg"},{"bike_id":"896dc6e7-8c36-43ba-a207-b3539914dff3","system_id":"levelo_inurba_marseille","lat":43.30792,"lon":5.38157,"is_reserved":false,"is_disabled":false,"rental_uris":{"android":"levelo://app?vid=896dc6e7-8c36-43ba-a207-b3539914dff3","ios":"levelo://app?vid=896dc6e7-8c36-43ba-a207-b3539914dff3"},"vehicle_type_id":"4","last_reported":1779295424,"current_range_meters":8000,"station_id":"ce4bgt12rcd13ifvqce0","pricing_plan_id":"cebpf4jnsgd1na2vs0mg"},{"bike_id":"8d6d2105-e396-4aec-b4d9-c1171868783a","system_id":"levelo_inurba_marseille","lat":43.29523,"lon":5.39029,"is_reserved":false,"is_disabled":false,"rental_uris":{"android":"levelo://app?vid=8d6d2105-e396-4aec-b4d9-c1171868783a","ios":"levelo://app?vid=8d6d2105-e396-4aec-b4d9-c1171868783a"},"vehicle_type_id":"4","last_reported":1779295424,"current_range_meters":8000,"station_id":"ce4bh3p2rcd13ifvqdp0","pricing_plan_id":"cebpf4jnsgd1na2vs0mg"},{"bike_id":"806dd27a-d25b-4e18-a96e-de3665778e3e","system_id":"levelo_inurba_marseille","lat":43.26057,"lon":5.39396,"is_reserved":false,"is_disabled":false,"rental_uris":{"android":"levelo://app?vid=806dd27a-d25b-4e18-a96e-de3665778e3e","ios":"levelo://app?vid=806dd27a-d25b-4e18-a96e-de3665778e3e"},"vehicle_type_id":"4","last_reported":1779295424,"current_range_meters":8000,"station_id":"ce4bhh92rcd13ifvqfj0","pricing_plan_id":"cebpf4jnsgd1na2vs0mg"},{"bike_id":"85aa7030-1d2d-4efc-851d-09155d499f3c","system_id":"levelo_inurba_marseille","lat":43.32085,"lon":5.41776,"is_reserved":false,"is_disabled":false,"rental_uris":{"android":"levelo://app?vid=85aa7030-1d2d-4efc-851d-09155d499f3c","ios":"levelo://app?vid=85aa7030-1d2d-4efc-851d-09155d499f3c"},"vehicle_type_id":"4","last_reported":1779295424,"current_range_meters":8000,"station_id":"","pricing_plan_id":"cebpf4jnsgd1na2vs0mg"},{"bike_id":"2ca7b8fb-98ca-45d4-80fb-36997f3b8947","system_id":"levelo_inurba_marseille","lat":43.26583,"lon":5.3907,"is_reserved":false,"is_disabled":false,"rental_uris":{"android":"levelo://app?vid=2ca7b8fb-98ca-45d4-80fb-36997f3b8947","ios":"levelo://app?vid=2ca7b8fb-98ca-45d4-80fb-36997f3b8947"},"vehicle_type_id":"4","last_reported":1779295424,"current_range_meters":8000,"station_id":"","pricing_plan_id":"cebpf4jnsgd1na2vs0mg"},{"bike_id":"8a903558-4073-4bc9-87ae-8f6cf604040d","system_id":"levelo_inurba_marseille","lat":43.25825,"lon":5.39437,"is_reserved":false,"is_disabled":false,"rental_uris":{"android":"levelo://app?vid=8a903558-4073-4bc9-87ae-8f6cf604040d","ios":"levelo://app?vid=8a903558-4073-4bc9-87ae-8f6cf604040d"},"vehicle_type_id":"4","last_reported":1779295424,"current_range_meters":8000,"station_id":"ce4bhip2rcd13ifvqft0","pricing_plan_id":"cebpf4jnsgd1na2vs0mg"},{"bike_id":"1473890e-d52c-40ad-9431-7d66cf7ab6e8","system_id":"levelo_inurba_marseille","lat":43.28032,"lon":5.36935,"is_reserved":false,"is_disabled":false,"rental_uris":{"android":"levelo://app?vid=1473890e-d52c-40ad-9431-7d66cf7ab6e8","ios":"levelo://app?vid=1473890e-d52c-40ad-9431-7d66cf7ab6e8"},"vehicle_type_id":"4","last_reported":1779295424,"current_range_meters":8000,"station_id":"ce4bha12rcd13ifvqef0","pricing_plan_id":"cebpf4jnsgd1na2vs0mg"},{"bike_id":"f700b1da-af38-4d5f-ad87-e4d046ffd9a3","system_id":"levelo_inurba_marseille","lat":43.24069,"lon":5.37763,"is_reserved":false,"is_disabled":false,"rental_uris":{"android":"levelo://app?vid=f700b1da-af38-4d5f-ad87-e4d046ffd9a3","ios":"levelo://app?vid=f700b1da-af38-4d5f-ad87-e4d046ffd9a3"},"vehicle_type_id":"4","last_reported":1779295424,"current_range_meters":8000,"station_id":"ce4bhnp2rcd13ifvqgvg","pricing_plan_id":"cebpf4jnsgd1na2vs0mg"},{"bike_id":"6b296ae8-99fd-4bf7-b05b-1ecc2aeefea9","system_id":"levelo_inurba_marseille","lat":43.2657,"lon":5.39041,"is_reserved":false,"is_disabled":false,"rental_uris":{"android":"levelo://app?vid=6b296ae8-99fd-4bf7-b05b-1ecc2aeefea9","ios":"levelo://app?vid=6b296ae8-99fd-4bf7-b05b-1ecc2aeefea9"},"vehicle_type_id":"4","last_reported":1779295424,"current_range_meters":8000,"station_id":"ce4bhe12rcd13ifvqf30","pricing_plan_id":"cebpf4jnsgd1na2vs0mg"},{"bike_id":"7c05f3cc-7a76-47a1-a344-eee8b254de7f","system_id":"levelo_inurba_marseille","lat":43.28537,"lon":5.39492,"is_reserved":false,"is_disabled":false,"rental_uris":{"android":"levelo://app?vid=7c05f3cc-7a76-47a1-a344-eee8b254de7f","ios":"levelo://app?vid=7c05f3cc-7a76-47a1-a344-eee8b254de7f"},"vehicle_type_id":"4","last_reported":1779295424,"current_range_meters":8400,"station_id":"ce4bh292rcd13ifvqdg0","pricing_plan_id":"cebpf4jnsgd1na2vs0mg"},{"bike_id":"36a836a9-c4b7-48ee-a4fb-e988674aec43","system_id":"levelo_inurba_marseille","lat":43.30237,"lon":5.40036,"is_reserved":false,"is_disabled":false,"rental_uris":{"android":"levelo://app?vid=36a836a9-c4b7-48ee-a4fb-e988674aec43","ios":"levelo://app?vid=36a836a9-c4b7-48ee-a4fb-e988674aec43"},"vehicle_type_id":"4","last_reported":1779295424,"current_range_meters":8400,"station_id":"","pricing_plan_id":"cebpf4jnsgd1na2vs0mg"},{"bike_id":"dd5bca8d-4a0a-4bc1-8cec-b991e57c6089","system_id":"levelo_inurba_marseille","lat":43.24167,"lon":5.36389,"is_reserved":false,"is_disabled":false,"rental_uris":{"android":"levelo://app?vid=dd5bca8d-4a0a-4bc1-8cec-b991e57c6089","ios":"levelo://app?vid=dd5bca8d-4a0a-4bc1-8cec-b991e57c6089"},"vehicle_type_id":"4","last_reported":1779295424,"current_range_meters":8400,"station_id":"cpo36qri1sfpv3e86is0","pricing_plan_id":"cebpf4jnsgd1na2vs0mg"},{"bike_id":"5240a5f6-9271-48c6-b2b8-4861fa100d4d","system_id":"levelo_inurba_marseille","lat":43.25587,"lon":5.38221,"is_reserved":false,"is_disabled":false,"rental_uris":{"android":"levelo://app?vid=5240a5f6-9271-48c6-b2b8-4861fa100d4d","ios":"levelo://app?vid=5240a5f6-9271-48c6-b2b8-4861fa100d4d"},"vehicle_type_id":"4","last_reported":1779295424,"current_range_meters":8400,"station_id":"ce4bhih2rcd13ifvqfs0","pricing_plan_id":"cebpf4jnsgd1na2vs0mg"},{"bike_id":"eb0f425e-4651-461b-803b-54eec489b7e8","system_id":"levelo_inurba_marseille","lat":43.24478,"lon":5.42547,"is_reserved":false,"is_disabled":false,"rental_uris":{"android":"levelo://app?vid=eb0f425e-4651-461b-803b-54eec489b7e8","ios":"levelo://app?vid=eb0f425e-4651-461b-803b-54eec489b7e8"},"vehicle_type_id":"4","last_reported":1779295424,"current_range_meters":8400,"station_id":"st_d4a3vfp97mjs738cd8kg","pricing_plan_id":"cebpf4jnsgd1na2vs0mg"},{"bike_id":"a3071a58-220a-49d7-933f-639eaa20dffd","system_id":"levelo_inurba_marseille","lat":43.28716,"lon":5.42718,"is_reserved":false,"is_disabled":false,"rental_uris":{"android":"levelo://app?vid=a3071a58-220a-49d7-933f-639eaa20dffd","ios":"levelo://app?vid=a3071a58-220a-49d7-933f-639eaa20dffd"},"vehicle_type_id":"4","last_reported":1779295424,"current_range_meters":8400,"station_id":"","pricing_plan_id":"cebpf4jnsgd1na2vs0mg"},{"bike_id":"86a0fb52-613b-4a6c-942d-1abbde400b19","system_id":"levelo_inurba_marseille","lat":43.28429,"lon":5.34987,"is_reserved":false,"is_disabled":true,"rental_uris":{"android":"levelo://app?vid=86a0fb52-613b-4a6c-942d-1abbde400b19","ios":"levelo://app?vid=86a0fb52-613b-4a6c-942d-1abbde400b19"},"vehicle_type_id":"4","last_reported":1779295424,"current_range_meters":8400,"station_id":"ce4bhbh2rcd13ifvqepg","pricing_plan_id":"cebpf4jnsgd1na2vs0mg"},{"bike_id":"31f05c54-77d3-48ef-b11c-8625870396c3","system_id":"levelo_inurba_marseille","lat":43.28197,"lon":5.39067,"is_reserved":false,"is_disabled":false,"rental_uris":{"android":"levelo://app?vid=31f05c54-77d3-48ef-b11c-8625870396c3","ios":"levelo://app?vid=31f05c54-77d3-48ef-b11c-8625870396c3"},"vehicle_type_id":"4","last_reported":1779295424,"current_range_meters":8400,"station_id":"ce4bhn92rcd13ifvqgsg","pricing_plan_id":"cebpf4jnsgd1na2vs0mg"},{"bike_id":"faed9e98-8b71-42e4-8b75-2d0412995e9c","system_id":"levelo_inurba_marseille","lat":43.2466,"lon":5.40091,"is_reserved":false,"is_disabled":false,"rental_uris":{"android":"levelo://app?vid=faed9e98-8b71-42e4-8b75-2d0412995e9c","ios":"levelo://app?vid=faed9e98-8b71-42e4-8b75-2d0412995e9c"},"vehicle_type_id":"4","last_reported":1779295424,"current_range_meters":8400,"station_id":"","pricing_plan_id":"cebpf4jnsgd1na2vs0mg"},{"bike_id":"4fdd8c15-1bcb-4fa5-b5bd-d33affd8bbad","system_id":"levelo_inurba_marseille","lat":43.30189,"lon":5.3996,"is_reserved":false,"is_disabled":false,"rental_uris":{"android":"levelo://app?vid=4fdd8c15-1bcb-4fa5-b5bd-d33affd8bbad","ios":"levelo://app?vid=4fdd8c15-1bcb-4fa5-b5bd-d33affd8bbad"},"vehicle_type_id":"4","last_reported":1779295424,"current_range_meters":8400,"station_id":"","pricing_plan_id":"cebpf4jnsgd1na2vs0mg"},{"bike_id":"e090a958-9a7a-4b5c-9036-7f107cdb77c2","system_id":"levelo_inurba_marseille","lat":43.29537,"lon":5.3903,"is_reserved":false,"is_disabled":false,"rental_uris":{"android":"levelo://app?vid=e090a958-9a7a-4b5c-9036-7f107cdb77c2","ios":"levelo://app?vid=e090a958-9a7a-4b5c-9036-7f107cdb77c2"},"vehicle_type_id":"4","last_reported":1779295424,"current_range_meters":8400,"station_id":"ce4bh3p2rcd13ifvqdp0","pricing_plan_id":"cebpf4jnsgd1na2vs0mg"},{"bike_id":"6702404f-3d73-4e9a-9bcb-44becf07581c","system_id":"levelo_inurba_marseille","lat":43.26207,"lon":5.37447,"is_reserved":false,"is_disabled":false,"rental_uris":{"android":"levelo://app?vid=6702404f-3d73-4e9a-9bcb-44becf07581c","ios":"levelo://app?vid=6702404f-3d73-4e9a-9bcb-44becf07581c"},"vehicle_type_id":"4","last_reported":1779295424,"current_range_meters":8400,"station_id":"ce4bhgp2rcd13ifvqfc0","pricing_plan_id":"cebpf4jnsgd1na2vs0mg"},{"bike_id":"3fe79c1b-5d10-47b3-9f12-e7eaddf67a85","system_id":"levelo_inurba_marseille","lat":43.26252,"lon":5.38742,"is_reserved":false,"is_disabled":false,"rental_uris":{"android":"levelo://app?vid=3fe79c1b-5d10-47b3-9f12-e7eaddf67a85","ios":"levelo://app?vid=3fe79c1b-5d10-47b3-9f12-e7eaddf67a85"},"vehicle_type_id":"4","last_reported":1779295424,"current_range_meters":8400,"station_id":"","pricing_plan_id":"cebpf4jnsgd1na2vs0mg"},{"bike_id":"1aed5c70-e358-4d9d-8c27-b28081084d8f","system_id":"levelo_inurba_marseille","lat":43.2762,"lon":5.36118,"is_reserved":false,"is_disabled":false,"rental_uris":{"android":"levelo://app?vid=1aed5c70-e358-4d9d-8c27-b28081084d8f","ios":"levelo://app?vid=1aed5c70-e358-4d9d-8c27-b28081084d8f"},"vehicle_type_id":"4","last_reported":1779295424,"current_range_meters":8400,"station_id":"ce4bgj92rcd13ifvqbe0","pricing_plan_id":"cebpf4jnsgd1na2vs0mg"},{"bike_id":"76d9f01a-7981-4ce9-bf0b-7ca3e26a009c","system_id":"levelo_inurba_marseille","lat":43.29017,"lon":5.37822,"is_reserved":false,"is_disabled":true,"rental_uris":{"android":"levelo://app?vid=76d9f01a-7981-4ce9-bf0b-7ca3e26a009c","ios":"levelo://app?vid=76d9f01a-7981-4ce9-bf0b-7ca3e26a009c"},"vehicle_type_id":"4","last_reported":1779295424,"current_range_meters":8400,"station_id":"ce4bh9p2rcd13ifvqed0","pricing_plan_id":"cebpf4jnsgd1na2vs0mg"},{"bike_id":"7e7baf03-24b6-4996-8b95-34d4e5760aba","system_id":"levelo_inurba_marseille","lat":43.29029,"lon":5.38647,"is_reserved":false,"is_disabled":true,"rental_uris":{"android":"levelo://app?vid=7e7baf03-24b6-4996-8b95-34d4e5760aba","ios":"levelo://app?vid=7e7baf03-24b6-4996-8b95-34d4e5760aba"},"vehicle_type_id":"4","last_reported":1779295424,"current_range_meters":8400,"station_id":"ce4bh4p2rcd13ifvqe0g","pricing_plan_id":"cebpf4jnsgd1na2vs0mg"},{"bike_id":"8c39b6dd-b754-48e2-823c-6f28d51803e0","system_id":"levelo_inurba_marseille","lat":43.29288,"lon":5.39829,"is_reserved":false,"is_disabled":false,"rental_uris":{"android":"levelo://app?vid=8c39b6dd-b754-48e2-823c-6f28d51803e0","ios":"levelo://app?vid=8c39b6dd-b754-48e2-823c-6f28d51803e0"},"vehicle_type_id":"4","last_reported":1779295424,"current_range_meters":8400,"station_id":"","pricing_plan_id":"cebpf4jnsgd1na2vs0mg"},{"bike_id":"04e4eeef-342b-492f-8ebb-4dc968f02dd1","system_id":"levelo_inurba_marseille","lat":43.28269,"lon":5.35058,"is_reserved":false,"is_disabled":false,"rental_uris":{"android":"levelo://app?vid=04e4eeef-342b-492f-8ebb-4dc968f02dd1","ios":"levelo://app?vid=04e4eeef-342b-492f-8ebb-4dc968f02dd1"},