{"last_updated":1683320732,"ttl":30,"version":"2.2","data":{"bikes":[{"bike_id":"2d7cf203-56a1-4fa2-856f-44b49ed45750","system_id":"levelo_inurba_marseille","lat":43.31341,"lon":5.367098,"is_reserved":false,"is_disabled":false,"rental_uris":{"android":"levelo://app?vid=2d7cf203-56a1-4fa2-856f-44b49ed45750","ios":"levelo://app?vid=2d7cf203-56a1-4fa2-856f-44b49ed45750"},"vehicle_type_id":"4","last_reported":1683320733,"current_range_meters":19600,"station_id":"ce4bgr92rcd13ifvqc6g","pricing_plan_id":"free"},{"bike_id":"ddf4fa75-1830-4b76-9606-b4da80a2cae6","system_id":"levelo_inurba_marseille","lat":43.313391,"lon":5.36706,"is_reserved":false,"is_disabled":false,"rental_uris":{"android":"levelo://app?vid=ddf4fa75-1830-4b76-9606-b4da80a2cae6","ios":"levelo://app?vid=ddf4fa75-1830-4b76-9606-b4da80a2cae6"},"vehicle_type_id":"4","last_reported":1683320733,"current_range_meters":13200,"station_id":"ce4bgr92rcd13ifvqc6g","pricing_plan_id":"free"},{"bike_id":"6acf8c88-f447-41be-86bd-4127fbf4629a","system_id":"levelo_inurba_marseille","lat":43.31341,"lon":5.367098,"is_reserved":false,"is_disabled":false,"rental_uris":{"android":"levelo://app?vid=6acf8c88-f447-41be-86bd-4127fbf4629a","ios":"levelo://app?vid=6acf8c88-f447-41be-86bd-4127fbf4629a"},"vehicle_type_id":"4","last_reported":1683320733,"current_range_meters":10400,"station_id":"ce4bgr92rcd13ifvqc6g","pricing_plan_id":"free"},{"bike_id":"ac955a2f-0eed-4ecf-81b3-de19073a212d","system_id":"levelo_inurba_marseille","lat":43.312239,"lon":5.368562,"is_reserved":false,"is_disabled":false,"rental_uris":{"android":"levelo://app?vid=ac955a2f-0eed-4ecf-81b3-de19073a212d","ios":"levelo://app?vid=ac955a2f-0eed-4ecf-81b3-de19073a212d"},"vehicle_type_id":"4","last_reported":1683320733,"current_range_meters":27200,"station_id":"ce4bgl92rcd13ifvqbq0","pricing_plan_id":"free"},{"bike_id":"bb568394-42b9-46ab-8803-ee22c5703ae7","system_id":"levelo_inurba_marseille","lat":43.312239,"lon":5.368562,"is_reserved":false,"is_disabled":false,"rental_uris":{"android":"levelo://app?vid=bb568394-42b9-46ab-8803-ee22c5703ae7","ios":"levelo://app?vid=bb568394-42b9-46ab-8803-ee22c5703ae7"},"vehicle_type_id":"4","last_reported":1683320733,"current_range_meters":28800,"station_id":"ce4bgl92rcd13ifvqbq0","pricing_plan_id":"free"},{"bike_id":"1ad9d66e-a406-4536-ac42-430aa68fdfcb","system_id":"levelo_inurba_marseille","lat":43.312239,"lon":5.368562,"is_reserved":false,"is_disabled":false,"rental_uris":{"android":"levelo://app?vid=1ad9d66e-a406-4536-ac42-430aa68fdfcb","ios":"levelo://app?vid=1ad9d66e-a406-4536-ac42-430aa68fdfcb"},"vehicle_type_id":"4","last_reported":1683320733,"current_range_meters":17600,"station_id":"ce4bgl92rcd13ifvqbq0","pricing_plan_id":"free"},{"bike_id":"c7f5d670-55b4-46e6-a645-f39184bf4a98","system_id":"levelo_inurba_marseille","lat":43.312239,"lon":5.368562,"is_reserved":false,"is_disabled":false,"rental_uris":{"android":"levelo://app?vid=c7f5d670-55b4-46e6-a645-f39184bf4a98","ios":"levelo://app?vid=c7f5d670-55b4-46e6-a645-f39184bf4a98"},"vehicle_type_id":"4","last_reported":1683320733,"current_range_meters":25600,"station_id":"ce4bgl92rcd13ifvqbq0","pricing_plan_id":"free"},{"bike_id":"e42d6016-30b9-4cac-8294-0c066258d5a0","system_id":"levelo_inurba_marseille","lat":43.312239,"lon":5.368562,"is_reserved":false,"is_disabled":false,"rental_uris":{"android":"levelo://app?vid=e42d6016-30b9-4cac-8294-0c066258d5a0","ios":"levelo://app?vid=e42d6016-30b9-4cac-8294-0c066258d5a0"},"vehicle_type_id":"4","last_reported":1683320733,"current_range_meters":3600,"station_id":"ce4bgl92rcd13ifvqbq0","pricing_plan_id":"free"},{"bike_id":"ff2ddb45-b3b7-4ee4-a760-a2f8689110a1","system_id":"levelo_inurba_marseille","lat":43.312239,"lon":5.368562,"is_reserved":false,"is_disabled":false,"rental_uris":{"android":"levelo://app?vid=ff2ddb45-b3b7-4ee4-a760-a2f8689110a1","ios":"levelo://app?vid=ff2ddb45-b3b7-4ee4-a760-a2f8689110a1"},"vehicle_type_id":"4","last_reported":1683320733,"current_range_meters":10800,"station_id":"ce4bgl92rcd13ifvqbq0","pricing_plan_id":"free"},{"bike_id":"9f3a22c1-d25f-42a6-98e0-371109874fb1","system_id":"levelo_inurba_marseille","lat":43.312239,"lon":5.368562,"is_reserved":false,"is_disabled":false,"rental_uris":{"android":"levelo://app?vid=9f3a22c1-d25f-42a6-98e0-371109874fb1","ios":"levelo://app?vid=9f3a22c1-d25f-42a6-98e0-371109874fb1"},"vehicle_type_id":"4","last_reported":1683320733,"current_range_meters":31600,"station_id":"ce4bgl92rcd13ifvqbq0","pricing_plan_id":"free"},{"bike_id":"416ed621-5dcc-411b-af7a-78886df8b686","system_id":"levelo_inurba_marseille","lat":43.312239,"lon":5.368562,"is_reserved":false,"is_disabled":false,"rental_uris":{"android":"levelo://app?vid=416ed621-5dcc-411b-af7a-78886df8b686","ios":"levelo://app?vid=416ed621-5dcc-411b-af7a-78886df8b686"},"vehicle_type_id":"4","last_reported":1683320733,"current_range_meters":30400,"station_id":"ce4bgl92rcd13ifvqbq0","pricing_plan_id":"free"},{"bike_id":"6592fbb7-bf54-4a16-8e53-b0529f3dd343","system_id":"levelo_inurba_marseille","lat":43.309076,"lon":5.368465,"is_reserved":false,"is_disabled":false,"rental_uris":{"android":"levelo://app?vid=6592fbb7-bf54-4a16-8e53-b0529f3dd343","ios":"levelo://app?vid=6592fbb7-bf54-4a16-8e53-b0529f3dd343"},"vehicle_type_id":"4","last_reported":1683320733,"current_range_meters":28400,"station_id":"ce4bgn92rcd13ifvqbvg","pricing_plan_id":"free"},{"bike_id":"c5d9a6d2-9be9-4018-b369-f176440792a5","system_id":"levelo_inurba_marseille","lat":43.309076,"lon":5.368465,"is_reserved":false,"is_disabled":false,"rental_uris":{"android":"levelo://app?vid=c5d9a6d2-9be9-4018-b369-f176440792a5","ios":"levelo://app?vid=c5d9a6d2-9be9-4018-b369-f176440792a5"},"vehicle_type_id":"4","last_reported":1683320733,"current_range_meters":31200,"station_id":"ce4bgn92rcd13ifvqbvg","pricing_plan_id":"free"},{"bike_id":"85db9227-8cd4-437f-9613-3a570ff31ea6","system_id":"levelo_inurba_marseille","lat":43.314811,"lon":5.373104,"is_reserved":false,"is_disabled":false,"rental_uris":{"android":"levelo://app?vid=85db9227-8cd4-437f-9613-3a570ff31ea6","ios":"levelo://app?vid=85db9227-8cd4-437f-9613-3a570ff31ea6"},"vehicle_type_id":"4","last_reported":1683320733,"current_range_meters":12000,"station_id":"ce4bgt12rcd13ifvqcd0","pricing_plan_id":"free"},{"bike_id":"91060a43-7b9f-440c-baab-f9f69dfeacf5","system_id":"levelo_inurba_marseille","lat":43.314811,"lon":5.373103,"is_reserved":false,"is_disabled":false,"rental_uris":{"android":"levelo://app?vid=91060a43-7b9f-440c-baab-f9f69dfeacf5","ios":"levelo://app?vid=91060a43-7b9f-440c-baab-f9f69dfeacf5"},"vehicle_type_id":"4","last_reported":1683320733,"current_range_meters":27600,"station_id":"ce4bgt12rcd13ifvqcd0","pricing_plan_id":"free"},{"bike_id":"e477e065-e784-47d2-af8f-155df7f80c89","system_id":"levelo_inurba_marseille","lat":43.314811,"lon":5.373103,"is_reserved":false,"is_disabled":false,"rental_uris":{"android":"levelo://app?vid=e477e065-e784-47d2-af8f-155df7f80c89","ios":"levelo://app?vid=e477e065-e784-47d2-af8f-155df7f80c89"},"vehicle_type_id":"4","last_reported":1683320733,"current_range_meters":22000,"station_id":"ce4bgt12rcd13ifvqcd0","pricing_plan_id":"free"},{"bike_id":"2bf01a4c-e18d-4db8-977e-e420e84328fc","system_id":"levelo_inurba_marseille","lat":43.314811,"lon":5.373103,"is_reserved":false,"is_disabled":false,"rental_uris":{"android":"levelo://app?vid=2bf01a4c-e18d-4db8-977e-e420e84328fc","ios":"levelo://app?vid=2bf01a4c-e18d-4db8-977e-e420e84328fc"},"vehicle_type_id":"4","last_reported":1683320733,"current_range_meters":18800,"station_id":"ce4bgt12rcd13ifvqcd0","pricing_plan_id":"free"},{"bike_id":"26c8babe-fcba-4929-8132-72531cf3dcc4","system_id":"levelo_inurba_marseille","lat":43.308614,"lon":5.372098,"is_reserved":false,"is_disabled":false,"rental_uris":{"android":"levelo://app?vid=26c8babe-fcba-4929-8132-72531cf3dcc4","ios":"levelo://app?vid=26c8babe-fcba-4929-8132-72531cf3dcc4"},"vehicle_type_id":"4","last_reported":1683320733,"current_range_meters":20400,"station_id":"ce4bguh2rcd13ifvqckg","pricing_plan_id":"free"},{"bike_id":"493dd9c0-c49f-4406-8836-c423cc588ed5","system_id":"levelo_inurba_marseille","lat":43.308614,"lon":5.372098,"is_reserved":false,"is_disabled":false,"rental_uris":{"android":"levelo://app?vid=493dd9c0-c49f-4406-8836-c423cc588ed5","ios":"levelo://app?vid=493dd9c0-c49f-4406-8836-c423cc588ed5"},"vehicle_type_id":"4","last_reported":1683320733,"current_range_meters":28400,"station_id":"ce4bguh2rcd13ifvqckg","pricing_plan_id":"free"},{"bike_id":"11236616-13b1-4d37-ab5e-f3f69064131a","system_id":"levelo_inurba_marseille","lat":43.308614,"lon":5.372098,"is_reserved":false,"is_disabled":false,"rental_uris":{"android":"levelo://app?vid=11236616-13b1-4d37-ab5e-f3f69064131a","ios":"levelo://app?vid=11236616-13b1-4d37-ab5e-f3f69064131a"},"vehicle_type_id":"4","last_reported":1683320733,"current_range_meters":30400,"station_id":"ce4bguh2rcd13ifvqckg","pricing_plan_id":"free"},{"bike_id":"f4832e3a-8042-4982-8bce-4d581074892c","system_id":"levelo_inurba_marseille","lat":43.308614,"lon":5.372098,"is_reserved":false,"is_disabled":false,"rental_uris":{"android":"levelo://app?vid=f4832e3a-8042-4982-8bce-4d581074892c","ios":"levelo://app?vid=f4832e3a-8042-4982-8bce-4d581074892c"},"vehicle_type_id":"4","last_reported":1683320733,"current_range_meters":28800,"station_id":"ce4bguh2rcd13ifvqckg","pricing_plan_id":"free"},{"bike_id":"5c21fbf5-ae6b-4172-9b9f-9966c555ae73","system_id":"levelo_inurba_marseille","lat":43.308614,"lon":5.372098,"is_reserved":false,"is_disabled":false,"rental_uris":{"android":"levelo://app?vid=5c21fbf5-ae6b-4172-9b9f-9966c555ae73","ios":"levelo://app?vid=5c21fbf5-ae6b-4172-9b9f-9966c555ae73"},"vehicle_type_id":"4","last_reported":1683320733,"current_range_meters":0,"station_id":"ce4bguh2rcd13ifvqckg","pricing_plan_id":"free"},{"bike_id":"611accda-3a05-4735-ae96-3bfb160a30ce","system_id":"levelo_inurba_marseille","lat":43.308614,"lon":5.372098,"is_reserved":false,"is_disabled":false,"rental_uris":{"android":"levelo://app?vid=611accda-3a05-4735-ae96-3bfb160a30ce","ios":"levelo://app?vid=611accda-3a05-4735-ae96-3bfb160a30ce"},"vehicle_type_id":"4","last_reported":1683320733,"current_range_meters":28400,"station_id":"ce4bguh2rcd13ifvqckg","pricing_plan_id":"free"},{"bike_id":"dc0554a0-c5e3-45a6-b3e9-9681212a3094","system_id":"levelo_inurba_marseille","lat":43.308614,"lon":5.372098,"is_reserved":false,"is_disabled":false,"rental_uris":{"android":"levelo://app?vid=dc0554a0-c5e3-45a6-b3e9-9681212a3094","ios":"levelo://app?vid=dc0554a0-c5e3-45a6-b3e9-9681212a3094"},"vehicle_type_id":"4","last_reported":1683320733,"current_range_meters":0,"station_id":"ce4bguh2rcd13ifvqckg","pricing_plan_id":"free"},{"bike_id":"caea2489-5a5d-4f00-8e78-8c319f8ed68e","system_id":"levelo_inurba_marseille","lat":43.3057,"lon":5.36553,"is_reserved":false,"is_disabled":false,"rental_uris":{"android":"levelo://app?vid=caea2489-5a5d-4f00-8e78-8c319f8ed68e","ios":"levelo://app?vid=caea2489-5a5d-4f00-8e78-8c319f8ed68e"},"vehicle_type_id":"4","last_reported":1683320733,"current_range_meters":10400,"station_id":"","pricing_plan_id":"free"},{"bike_id":"7e003446-da45-40f5-b9d0-747be9205c94","system_id":"levelo_inurba_marseille","lat":43.305706,"lon":5.365654,"is_reserved":false,"is_disabled":false,"rental_uris":{"android":"levelo://app?vid=7e003446-da45-40f5-b9d0-747be9205c94","ios":"levelo://app?vid=7e003446-da45-40f5-b9d0-747be9205c94"},"vehicle_type_id":"4","last_reported":1683320733,"current_range_meters":400,"station_id":"ce4bgs12rcd13ifvqcag","pricing_plan_id":"free"},{"bike_id":"058b242f-55dd-43b1-99b5-70d14a682507","system_id":"levelo_inurba_marseille","lat":43.305714,"lon":5.365633,"is_reserved":false,"is_disabled":false,"rental_uris":{"android":"levelo://app?vid=058b242f-55dd-43b1-99b5-70d14a682507","ios":"levelo://app?vid=058b242f-55dd-43b1-99b5-70d14a682507"},"vehicle_type_id":"4","last_reported":1683320733,"current_range_meters":12800,"station_id":"ce4bgs12rcd13ifvqcag","pricing_plan_id":"free"},{"bike_id":"6ae14798-fee0-4bdb-b098-614cd9a2b8b3","system_id":"levelo_inurba_marseille","lat":43.311131,"lon":5.377651,"is_reserved":false,"is_disabled":false,"rental_uris":{"android":"levelo://app?vid=6ae14798-fee0-4bdb-b098-614cd9a2b8b3","ios":"levelo://app?vid=6ae14798-fee0-4bdb-b098-614cd9a2b8b3"},"vehicle_type_id":"4","last_reported":1683320733,"current_range_meters":18000,"station_id":"ce4bgt92rcd13ifvqcg0","pricing_plan_id":"free"},{"bike_id":"41493f0d-0963-40d9-9c83-61ab65e8adb1","system_id":"levelo_inurba_marseille","lat":43.317075,"lon":5.377367,"is_reserved":false,"is_disabled":false,"rental_uris":{"android":"levelo://app?vid=41493f0d-0963-40d9-9c83-61ab65e8adb1","ios":"levelo://app?vid=41493f0d-0963-40d9-9c83-61ab65e8adb1"},"vehicle_type_id":"4","last_reported":1683320733,"current_range_meters":1600,"station_id":"ce4bgth2rcd13ifvqch0","pricing_plan_id":"free"},{"bike_id":"4a4d6ac7-929f-4743-bf1b-c5d837398877","system_id":"levelo_inurba_marseille","lat":43.317075,"lon":5.377367,"is_reserved":false,"is_disabled":false,"rental_uris":{"android":"levelo://app?vid=4a4d6ac7-929f-4743-bf1b-c5d837398877","ios":"levelo://app?vid=4a4d6ac7-929f-4743-bf1b-c5d837398877"},"vehicle_type_id":"4","last_reported":1683320733,"current_range_meters":25200,"station_id":"ce4bgth2rcd13ifvqch0","pricing_plan_id":"free"},{"bike_id":"0ceddf03-75b7-4dff-ba07-11950b87c5d3","system_id":"levelo_inurba_marseille","lat":43.317075,"lon":5.377367,"is_reserved":false,"is_disabled":false,"rental_uris":{"android":"levelo://app?vid=0ceddf03-75b7-4dff-ba07-11950b87c5d3","ios":"levelo://app?vid=0ceddf03-75b7-4dff-ba07-11950b87c5d3"},"vehicle_type_id":"4","last_reported":1683320733,"current_range_meters":28000,"station_id":"ce4bgth2rcd13ifvqch0","pricing_plan_id":"free"},{"bike_id":"2a9ba982-b2b3-404c-9cd8-3013399dd421","system_id":"levelo_inurba_marseille","lat":43.317075,"lon":5.377367,"is_reserved":false,"is_disabled":false,"rental_uris":{"android":"levelo://app?vid=2a9ba982-b2b3-404c-9cd8-3013399dd421","ios":"levelo://app?vid=2a9ba982-b2b3-404c-9cd8-3013399dd421"},"vehicle_type_id":"4","last_reported":1683320733,"current_range_meters":25600,"station_id":"ce4bgth2rcd13ifvqch0","pricing_plan_id":"free"},{"bike_id":"8170f3b4-b1c3-4994-93d8-7121a498d044","system_id":"levelo_inurba_marseille","lat":43.31532,"lon":5.3803,"is_reserved":false,"is_disabled":false,"rental_uris":{"android":"levelo://app?vid=8170f3b4-b1c3-4994-93d8-7121a498d044","ios":"levelo://app?vid=8170f3b4-b1c3-4994-93d8-7121a498d044"},"vehicle_type_id":"4","last_reported":1683320733,"current_range_meters":10400,"station_id":"ce4bhsp2rcd13ifvqi50","pricing_plan_id":"free"},{"bike_id":"6646f385-7df2-4aa2-8f2d-7587e9a3c28a","system_id":"levelo_inurba_marseille","lat":43.315293,"lon":5.380349,"is_reserved":false,"is_disabled":false,"rental_uris":{"android":"levelo://app?vid=6646f385-7df2-4aa2-8f2d-7587e9a3c28a","ios":"levelo://app?vid=6646f385-7df2-4aa2-8f2d-7587e9a3c28a"},"vehicle_type_id":"4","last_reported":1683320733,"current_range_meters":27600,"station_id":"ce4bhsp2rcd13ifvqi50","pricing_plan_id":"free"},{"bike_id":"5615e51f-1f47-461e-ac11-f8d0d69e43dc","system_id":"levelo_inurba_marseille","lat":43.31528,"lon":5.38035,"is_reserved":false,"is_disabled":false,"rental_uris":{"android":"levelo://app?vid=5615e51f-1f47-461e-ac11-f8d0d69e43dc","ios":"levelo://app?vid=5615e51f-1f47-461e-ac11-f8d0d69e43dc"},"vehicle_type_id":"4","last_reported":1683320733,"current_range_meters":0,"station_id":"ce4bhsp2rcd13ifvqi50","pricing_plan_id":"free"},{"bike_id":"d44ef1b5-aa87-494f-b80b-d91982363150","system_id":"levelo_inurba_marseille","lat":43.31531,"lon":5.38035,"is_reserved":false,"is_disabled":false,"rental_uris":{"android":"levelo://app?vid=d44ef1b5-aa87-494f-b80b-d91982363150","ios":"levelo://app?vid=d44ef1b5-aa87-494f-b80b-d91982363150"},"vehicle_type_id":"4","last_reported":1683320733,"current_range_meters":29600,"station_id":"ce4bhsp2rcd13ifvqi50","pricing_plan_id":"free"},{"bike_id":"8799effd-94fc-4e45-bb2c-9482b423ca9f","system_id":"levelo_inurba_marseille","lat":43.30304,"lon":5.368987,"is_reserved":false,"is_disabled":false,"rental_uris":{"android":"levelo://app?vid=8799effd-94fc-4e45-bb2c-9482b423ca9f","ios":"levelo://app?vid=8799effd-94fc-4e45-bb2c-9482b423ca9f"},"vehicle_type_id":"4","last_reported":1683320733,"current_range_meters":20800,"station_id":"ce4bgqh2rcd13ifvqc5g","pricing_plan_id":"free"},{"bike_id":"2d8f6bca-ebab-49bd-8b3a-d31207005f8c","system_id":"levelo_inurba_marseille","lat":43.308012,"lon":5.381511,"is_reserved":false,"is_disabled":false,"rental_uris":{"android":"levelo://app?vid=2d8f6bca-ebab-49bd-8b3a-d31207005f8c","ios":"levelo://app?vid=2d8f6bca-ebab-49bd-8b3a-d31207005f8c"},"vehicle_type_id":"4","last_reported":1683320733,"current_range_meters":17200,"station_id":"ce4bgt12rcd13ifvqce0","pricing_plan_id":"free"},{"bike_id":"d9cd3fa3-7bf5-4ba2-9481-c460f2ca01c2","system_id":"levelo_inurba_marseille","lat":43.308012,"lon":5.381511,"is_reserved":false,"is_disabled":false,"rental_uris":{"android":"levelo://app?vid=d9cd3fa3-7bf5-4ba2-9481-c460f2ca01c2","ios":"levelo://app?vid=d9cd3fa3-7bf5-4ba2-9481-c460f2ca01c2"},"vehicle_type_id":"4","last_reported":1683320733,"current_range_meters":7600,"station_id":"ce4bgt12rcd13ifvqce0","pricing_plan_id":"free"},{"bike_id":"fc6aa3d5-e6f2-4772-81d5-167cdfc94a12","system_id":"levelo_inurba_marseille","lat":43.308012,"lon":5.381511,"is_reserved":false,"is_disabled":false,"rental_uris":{"android":"levelo://app?vid=fc6aa3d5-e6f2-4772-81d5-167cdfc94a12","ios":"levelo://app?vid=fc6aa3d5-e6f2-4772-81d5-167cdfc94a12"},"vehicle_type_id":"4","last_reported":1683320733,"current_range_meters":800,"station_id":"ce4bgt12rcd13ifvqce0","pricing_plan_id":"free"},{"bike_id":"804017c5-9178-42e2-940d-95c73c0fe108","system_id":"levelo_inurba_marseille","lat":43.30807,"lon":5.38156,"is_reserved":false,"is_disabled":false,"rental_uris":{"android":"levelo://app?vid=804017c5-9178-42e2-940d-95c73c0fe108","ios":"levelo://app?vid=804017c5-9178-42e2-940d-95c73c0fe108"},"vehicle_type_id":"4","last_reported":1683320733,"current_range_meters":15200,"station_id":"ce4bgt12rcd13ifvqce0","pricing_plan_id":"free"},{"bike_id":"47f0fad8-37c6-441f-b45b-d68786382468","system_id":"levelo_inurba_marseille","lat":43.308012,"lon":5.381511,"is_reserved":false,"is_disabled":false,"rental_uris":{"android":"levelo://app?vid=47f0fad8-37c6-441f-b45b-d68786382468","ios":"levelo://app?vid=47f0fad8-37c6-441f-b45b-d68786382468"},"vehicle_type_id":"4","last_reported":1683320733,"current_range_meters":30000,"station_id":"ce4bgt12rcd13ifvqce0","pricing_plan_id":"free"},{"bike_id":"6c987525-6d92-4548-8b2d-42fbad376574","system_id":"levelo_inurba_marseille","lat":43.308012,"lon":5.381511,"is_reserved":false,"is_disabled":false,"rental_uris":{"android":"levelo://app?vid=6c987525-6d92-4548-8b2d-42fbad376574","ios":"levelo://app?vid=6c987525-6d92-4548-8b2d-42fbad376574"},"vehicle_type_id":"4","last_reported":1683320733,"current_range_meters":21200,"station_id":"ce4bgt12rcd13ifvqce0","pricing_plan_id":"free"},{"bike_id":"338b7574-c2ea-40ec-81bf-1210dbc71e57","system_id":"levelo_inurba_marseille","lat":43.308012,"lon":5.381511,"is_reserved":false,"is_disabled":false,"rental_uris":{"android":"levelo://app?vid=338b7574-c2ea-40ec-81bf-1210dbc71e57","ios":"levelo://app?vid=338b7574-c2ea-40ec-81bf-1210dbc71e57"},"vehicle_type_id":"4","last_reported":1683320733,"current_range_meters":26400,"station_id":"ce4bgt12rcd13ifvqce0","pricing_plan_id":"free"},{"bike_id":"0d921131-f37e-42d3-a942-d82477716baa","system_id":"levelo_inurba_marseille","lat":43.308012,"lon":5.381511,"is_reserved":false,"is_disabled":false,"rental_uris":{"android":"levelo://app?vid=0d921131-f37e-42d3-a942-d82477716baa","ios":"levelo://app?vid=0d921131-f37e-42d3-a942-d82477716baa"},"vehicle_type_id":"4","last_reported":1683320733,"current_range_meters":0,"station_id":"ce4bgt12rcd13ifvqce0","pricing_plan_id":"free"},{"bike_id":"6f30232b-71f0-4a6d-8f25-a914610744bc","system_id":"levelo_inurba_marseille","lat":43.308012,"lon":5.381511,"is_reserved":false,"is_disabled":false,"rental_uris":{"android":"levelo://app?vid=6f30232b-71f0-4a6d-8f25-a914610744bc","ios":"levelo://app?vid=6f30232b-71f0-4a6d-8f25-a914610744bc"},"vehicle_type_id":"4","last_reported":1683320733,"current_range_meters":6400,"station_id":"ce4bgt12rcd13ifvqce0","pricing_plan_id":"free"},{"bike_id":"073ddd54-3b15-4860-871f-2e4b719fb946","system_id":"levelo_inurba_marseille","lat":43.308012,"lon":5.381511,"is_reserved":false,"is_disabled":false,"rental_uris":{"android":"levelo://app?vid=073ddd54-3b15-4860-871f-2e4b719fb946","ios":"levelo://app?vid=073ddd54-3b15-4860-871f-2e4b719fb946"},"vehicle_type_id":"4","last_reported":1683320733,"current_range_meters":12400,"station_id":"ce4bgt12rcd13ifvqce0","pricing_plan_id":"free"},{"bike_id":"79263cf6-31b5-4b40-823d-469908402719","system_id":"levelo_inurba_marseille","lat":43.308012,"lon":5.381511,"is_reserved":false,"is_disabled":false,"rental_uris":{"android":"levelo://app?vid=79263cf6-31b5-4b40-823d-469908402719","ios":"levelo://app?vid=79263cf6-31b5-4b40-823d-469908402719"},"vehicle_type_id":"4","last_reported":1683320733,"current_range_meters":26800,"station_id":"ce4bgt12rcd13ifvqce0","pricing_plan_id":"free"},{"bike_id":"b45ce686-f825-4064-a3a7-e135d4b6cc10","system_id":"levelo_inurba_marseille","lat":43.308012,"lon":5.381511,"is_reserved":false,"is_disabled":false,"rental_uris":{"android":"levelo://app?vid=b45ce686-f825-4064-a3a7-e135d4b6cc10","ios":"levelo://app?vid=b45ce686-f825-4064-a3a7-e135d4b6cc10"},"vehicle_type_id":"4","last_reported":1683320733,"current_range_meters":22400,"station_id":"ce4bgt12rcd13ifvqce0","pricing_plan_id":"free"},{"bike_id":"973c3a0a-aeab-4f35-84a6-afbfd9749cbc","system_id":"levelo_inurba_marseille","lat":43.30143,"lon":5.37413,"is_reserved":false,"is_disabled":false,"rental_uris":{"android":"levelo://app?vid=973c3a0a-aeab-4f35-84a6-afbfd9749cbc","ios":"levelo://app?vid=973c3a0a-aeab-4f35-84a6-afbfd9749cbc"},"vehicle_type_id":"4","last_reported":1683320733,"current_range_meters":31200,"station_id":"ce4bgs92rcd13ifvqcc0","pricing_plan_id":"free"},{"bike_id":"4f897fe7-c544-4bc0-a561-8ec3d68a1213","system_id":"levelo_inurba_marseille","lat":43.30143,"lon":5.37413,"is_reserved":false,"is_disabled":false,"rental_uris":{"android":"levelo://app?vid=4f897fe7-c544-4bc0-a561-8ec3d68a1213","ios":"levelo://app?vid=4f897fe7-c544-4bc0-a561-8ec3d68a1213"},"vehicle_type_id":"4","last_reported":1683320733,"current_range_meters":31200,"station_id":"ce4bgs92rcd13ifvqcc0","pricing_plan_id":"free"},{"bike_id":"ef7f11df-80f0-499a-9e96-036dada902df","system_id":"levelo_inurba_marseille","lat":43.30143,"lon":5.37413,"is_reserved":false,"is_disabled":false,"rental_uris":{"android":"levelo://app?vid=ef7f11df-80f0-499a-9e96-036dada902df","ios":"levelo://app?vid=ef7f11df-80f0-499a-9e96-036dada902df"},"vehicle_type_id":"4","last_reported":1683320733,"current_range_meters":31200,"station_id":"ce4bgs92rcd13ifvqcc0","pricing_plan_id":"free"},{"bike_id":"637c92c6-458a-426d-9619-9305ad9b1431","system_id":"levelo_inurba_marseille","lat":43.30144,"lon":5.37418,"is_reserved":false,"is_disabled":false,"rental_uris":{"android":"levelo://app?vid=637c92c6-458a-426d-9619-9305ad9b1431","ios":"levelo://app?vid=637c92c6-458a-426d-9619-9305ad9b1431"},"vehicle_type_id":"4","last_reported":1683320733,"current_range_meters":26000,"station_id":"ce4bgs92rcd13ifvqcc0","pricing_plan_id":"free"},{"bike_id":"391a92fb-b3a2-4bdf-8a8f-149adc1e20f7","system_id":"levelo_inurba_marseille","lat":43.30143,"lon":5.37413,"is_reserved":false,"is_disabled":false,"rental_uris":{"android":"levelo://app?vid=391a92fb-b3a2-4bdf-8a8f-149adc1e20f7","ios":"levelo://app?vid=391a92fb-b3a2-4bdf-8a8f-149adc1e20f7"},"vehicle_type_id":"4","last_reported":1683320733,"current_range_meters":31200,"station_id":"ce4bgs92rcd13ifvqcc0","pricing_plan_id":"free"},{"bike_id":"08cb81fe-9249-4d57-84de-c58e1d51d56f","system_id":"levelo_inurba_marseille","lat":43.313571,"lon":5.384829,"is_reserved":false,"is_disabled":false,"rental_uris":{"android":"levelo://app?vid=08cb81fe-9249-4d57-84de-c58e1d51d56f","ios":"levelo://app?vid=08cb81fe-9249-4d57-84de-c58e1d51d56f"},"vehicle_type_id":"4","last_reported":1683320733,"current_range_meters":14000,"station_id":"ce4bgt92rcd13ifvqcf0","pricing_plan_id":"free"},{"bike_id":"ed823ae8-e73d-41df-b709-72e0e301e341","system_id":"levelo_inurba_marseille","lat":43.313571,"lon":5.384829,"is_reserved":false,"is_disabled":false,"rental_uris":{"android":"levelo://app?vid=ed823ae8-e73d-41df-b709-72e0e301e341","ios":"levelo://app?vid=ed823ae8-e73d-41df-b709-72e0e301e341"},"vehicle_type_id":"4","last_reported":1683320733,"current_range_meters":31200,"station_id":"ce4bgt92rcd13ifvqcf0","pricing_plan_id":"free"},{"bike_id":"bcf12486-4d40-4884-969b-2c19f244a968","system_id":"levelo_inurba_marseille","lat":43.29889,"lon":5.367,"is_reserved":false,"is_disabled":false,"rental_uris":{"android":"levelo://app?vid=bcf12486-4d40-4884-969b-2c19f244a968","ios":"levelo://app?vid=bcf12486-4d40-4884-969b-2c19f244a968"},"vehicle_type_id":"4","last_reported":1683320733,"current_range_meters":2800,"station_id":"","pricing_plan_id":"free"},{"bike_id":"4daa72cb-deeb-4ed9-87ca-5fcfed3ab0fd","system_id":"levelo_inurba_marseille","lat":43.298433,"lon":5.362774,"is_reserved":false,"is_disabled":false,"rental_uris":{"android":"levelo://app?vid=4daa72cb-deeb-4ed9-87ca-5fcfed3ab0fd","ios":"levelo://app?vid=4daa72cb-deeb-4ed9-87ca-5fcfed3ab0fd"},"vehicle_type_id":"4","last_reported":1683320733,"current_range_meters":2800,"station_id":"ce4bgpp2rcd13ifvqc3g","pricing_plan_id":"free"},{"bike_id":"0a74082c-4f10-4758-a5f7-731d2a55c2c9","system_id":"levelo_inurba_marseille","lat":43.31174,"lon":5.38715,"is_reserved":false,"is_disabled":false,"rental_uris":{"android":"levelo://app?vid=0a74082c-4f10-4758-a5f7-731d2a55c2c9","ios":"levelo://app?vid=0a74082c-4f10-4758-a5f7-731d2a55c2c9"},"vehicle_type_id":"4","last_reported":1683320733,"current_range_meters":8400,"station_id":"ce4bgv12rcd13ifvqcp0","pricing_plan_id":"free"},{"bike_id":"c2dcf690-7922-4016-adc2-261fdc127cf2","system_id":"levelo_inurba_marseille","lat":43.3117,"lon":5.38715,"is_reserved":false,"is_disabled":false,"rental_uris":{"android":"levelo://app?vid=c2dcf690-7922-4016-adc2-261fdc127cf2","ios":"levelo://app?vid=c2dcf690-7922-4016-adc2-261fdc127cf2"},"vehicle_type_id":"4","last_reported":1683320733,"current_range_meters":22400,"station_id":"ce4bgv12rcd13ifvqcp0","pricing_plan_id":"free"},{"bike_id":"1b9b8155-a30f-4fec-93bb-7591d06a9a6f","system_id":"levelo_inurba_marseille","lat":43.311722,"lon":5.387247,"is_reserved":false,"is_disabled":false,"rental_uris":{"android":"levelo://app?vid=1b9b8155-a30f-4fec-93bb-7591d06a9a6f","ios":"levelo://app?vid=1b9b8155-a30f-4fec-93bb-7591d06a9a6f"},"vehicle_type_id":"4","last_reported":1683320733,"current_range_meters":18400,"station_id":"ce4bgv12rcd13ifvqcp0","pricing_plan_id":"free"},{"bike_id":"474db782-1b3c-4f73-9893-08faaf680e8c","system_id":"levelo_inurba_marseille","lat":43.311722,"lon":5.387247,"is_reserved":false,"is_disabled":false,"rental_uris":{"android":"levelo://app?vid=474db782-1b3c-4f73-9893-08faaf680e8c","ios":"levelo://app?vid=474db782-1b3c-4f73-9893-08faaf680e8c"},"vehicle_type_id":"4","last_reported":1683320733,"current_range_meters":27200,"station_id":"ce4bgv12rcd13ifvqcp0","pricing_plan_id":"free"},{"bike_id":"f134a8e7-cf01-4e56-a41c-f59a109ea558","system_id":"levelo_inurba_marseille","lat":43.31172,"lon":5.38718,"is_reserved":false,"is_disabled":false,"rental_uris":{"android":"levelo://app?vid=f134a8e7-cf01-4e56-a41c-f59a109ea558","ios":"levelo://app?vid=f134a8e7-cf01-4e56-a41c-f59a109ea558"},"vehicle_type_id":"4","last_reported":1683320733,"current_range_meters":2800,"station_id":"ce4bgv12rcd13ifvqcp0","pricing_plan_id":"free"},{"bike_id":"0ddc8f60-7680-4f69-a451-9fccdb0fb714","system_id":"levelo_inurba_marseille","lat":43.311722,"lon":5.387247,"is_reserved":false,"is_disabled":false,"rental_uris":{"android":"levelo://app?vid=0ddc8f60-7680-4f69-a451-9fccdb0fb714","ios":"levelo://app?vid=0ddc8f60-7680-4f69-a451-9fccdb0fb714"},"vehicle_type_id":"4","last_reported":1683320733,"current_range_meters":14000,"station_id":"ce4bgv12rcd13ifvqcp0","pricing_plan_id":"free"},{"bike_id":"12e8963a-3ec7-4746-8c52-252c4639d206","system_id":"levelo_inurba_marseille","lat":43.31169,"lon":5.38727,"is_reserved":false,"is_disabled":false,"rental_uris":{"android":"levelo://app?vid=12e8963a-3ec7-4746-8c52-252c4639d206","ios":"levelo://app?vid=12e8963a-3ec7-4746-8c52-252c4639d206"},"vehicle_type_id":"4","last_reported":1683320733,"current_range_meters":0,"station_id":"ce4bgv12rcd13ifvqcp0","pricing_plan_id":"free"},{"bike_id":"d934aa81-3e98-45ca-b83b-fb3c16d726df","system_id":"levelo_inurba_marseille","lat":43.311722,"lon":5.387247,"is_reserved":false,"is_disabled":false,"rental_uris":{"android":"levelo://app?vid=d934aa81-3e98-45ca-b83b-fb3c16d726df","ios":"levelo://app?vid=d934aa81-3e98-45ca-b83b-fb3c16d726df"},"vehicle_type_id":"4","last_reported":1683320733,"current_range_meters":23600,"station_id":"ce4bgv12rcd13ifvqcp0","pricing_plan_id":"free"},{"bike_id":"c40a4c6e-0f5b-4487-ac9d-0f9dd8095b6e","system_id":"levelo_inurba_marseille","lat":43.297774,"lon":5.370875,"is_reserved":false,"is_disabled":false,"rental_uris":{"android":"levelo://app?vid=c40a4c6e-0f5b-4487-ac9d-0f9dd8095b6e","ios":"levelo://app?vid=c40a4c6e-0f5b-4487-ac9d-0f9dd8095b6e"},"vehicle_type_id":"4","last_reported":1683320733,"current_range_meters":0,"station_id":"ce4bgop2rcd13ifvqc1g","pricing_plan_id":"free"},{"bike_id":"119ee909-6f75-4f7d-b6f9-5722d5519ab3","system_id":"levelo_inurba_marseille","lat":43.297774,"lon":5.370875,"is_reserved":false,"is_disabled":false,"rental_uris":{"android":"levelo://app?vid=119ee909-6f75-4f7d-b6f9-5722d5519ab3","ios":"levelo://app?vid=119ee909-6f75-4f7d-b6f9-5722d5519ab3"},"vehicle_type_id":"4","last_reported":1683320733,"current_range_meters":6000,"station_id":"ce4bgop2rcd13ifvqc1g","pricing_plan_id":"free"},{"bike_id":"224135a3-6eaa-467f-9064-55351b7b89c1","system_id":"levelo_inurba_marseille","lat":43.328371,"lon":5.366909,"is_reserved":false,"is_disabled":false,"rental_uris":{"android":"levelo://app?vid=224135a3-6eaa-467f-9064-55351b7b89c1","ios":"levelo://app?vid=224135a3-6eaa-467f-9064-55351b7b89c1"},"vehicle_type_id":"4","last_reported":1683320733,"current_range_meters":25600,"station_id":"ce4bhs92rcd13ifvqi0g","pricing_plan_id":"free"},{"bike_id":"2b50b170-0df6-406d-bea0-202c3e023fe5","system_id":"levelo_inurba_marseille","lat":43.328371,"lon":5.366909,"is_reserved":false,"is_disabled":false,"rental_uris":{"android":"levelo://app?vid=2b50b170-0df6-406d-bea0-202c3e023fe5","ios":"levelo://app?vid=2b50b170-0df6-406d-bea0-202c3e023fe5"},"vehicle_type_id":"4","last_reported":1683320733,"current_range_meters":20000,"station_id":"ce4bhs92rcd13ifvqi0g","pricing_plan_id":"free"},{"bike_id":"0fee376e-5082-4f27-830e-e15801b2e6d9","system_id":"levelo_inurba_marseille","lat":43.328371,"lon":5.366909,"is_reserved":false,"is_disabled":false,"rental_uris":{"android":"levelo://app?vid=0fee376e-5082-4f27-830e-e15801b2e6d9","ios":"levelo://app?vid=0fee376e-5082-4f27-830e-e15801b2e6d9"},"vehicle_type_id":"4","last_reported":1683320733,"current_range_meters":16400,"station_id":"ce4bhs92rcd13ifvqi0g","pricing_plan_id":"free"},{"bike_id":"f01ec473-7fe9-47ec-852c-f195da583b5a","system_id":"levelo_inurba_marseille","lat":43.328371,"lon":5.366909,"is_reserved":false,"is_disabled":false,"rental_uris":{"android":"levelo://app?vid=f01ec473-7fe9-47ec-852c-f195da583b5a","ios":"levelo://app?vid=f01ec473-7fe9-47ec-852c-f195da583b5a"},"vehicle_type_id":"4","last_reported":1683320733,"current_range_meters":21600,"station_id":"ce4bhs92rcd13ifvqi0g","pricing_plan_id":"free"},{"bike_id":"68fae7dd-9127-45ab-af87-1d51dc8bb480","system_id":"levelo_inurba_marseille","lat":43.328371,"lon":5.366909,"is_reserved":false,"is_disabled":false,"rental_uris":{"android":"levelo://app?vid=68fae7dd-9127-45ab-af87-1d51dc8bb480","ios":"levelo://app?vid=68fae7dd-9127-45ab-af87-1d51dc8bb480"},"vehicle_type_id":"4","last_reported":1683320733,"current_range_meters":0,"station_id":"ce4bhs92rcd13ifvqi0g","pricing_plan_id":"free"},{"bike_id":"1d0eeaa9-db5d-4f28-a7db-62a763b0e15d","system_id":"levelo_inurba_marseille","lat":43.328371,"lon":5.366909,"is_reserved":false,"is_disabled":false,"rental_uris":{"android":"levelo://app?vid=1d0eeaa9-db5d-4f28-a7db-62a763b0e15d","ios":"levelo://app?vid=1d0eeaa9-db5d-4f28-a7db-62a763b0e15d"},"vehicle_type_id":"4","last_reported":1683320733,"current_range_meters":2000,"station_id":"ce4bhs92rcd13ifvqi0g","pricing_plan_id":"free"},{"bike_id":"c12b52c7-19df-457a-99ab-88af59087865","system_id":"levelo_inurba_marseille","lat":43.3128,"lon":5.38867,"is_reserved":false,"is_disabled":false,"rental_uris":{"android":"levelo://app?vid=c12b52c7-19df-457a-99ab-88af59087865","ios":"levelo://app?vid=c12b52c7-19df-457a-99ab-88af59087865"},"vehicle_type_id":"4","last_reported":1683320733,"current_range_meters":0,"station_id":"","pricing_plan_id":"free"},{"bike_id":"aafcc005-5e38-4c52-a10d-6d0f89f0012b","system_id":"levelo_inurba_marseille","lat":43.302008,"lon":5.394694,"is_reserved":false,"is_disabled":false,"rental_uris":{"android":"levelo://app?vid=aafcc005-5e38-4c52-a10d-6d0f89f0012b","ios":"levelo://app?vid=aafcc005-5e38-4c52-a10d-6d0f89f0012b"},"vehicle_type_id":"4","last_reported":1683320733,"current_range_meters":7600,"station_id":"ce4bh0p2rcd13ifvqd70","pricing_plan_id":"free"},{"bike_id":"eefa32cf-c042-4fdf-9a6a-3c4b377c1659","system_id":"levelo_inurba_marseille","lat":43.29573,"lon":5.367355,"is_reserved":false,"is_disabled":false,"rental_uris":{"android":"levelo://app?vid=eefa32cf-c042-4fdf-9a6a-3c4b377c1659","ios":"levelo://app?vid=eefa32cf-c042-4fdf-9a6a-3c4b377c1659"},"vehicle_type_id":"4","last_reported":1683320733,"current_range_meters":6800,"station_id":"ce4bgph2rcd13ifvqc2g","pricing_plan_id":"free"},{"bike_id":"841d447c-0e92-4ced-94ec-97ccece655ad","system_id":"levelo_inurba_marseille","lat":43.299028,"lon":5.381509,"is_reserved":false,"is_disabled":false,"rental_uris":{"android":"levelo://app?vid=841d447c-0e92-4ced-94ec-97ccece655ad","ios":"levelo://app?vid=841d447c-0e92-4ced-94ec-97ccece655ad"},"vehicle_type_id":"4","last_reported":1683320733,"current_range_meters":29600,"station_id":"ce4bgj12rcd13ifvqbc0","pricing_plan_id":"free"},{"bike_id":"5fb19b9f-7476-446b-b5b8-b0c4c464fb2e","system_id":"levelo_inurba_marseille","lat":43.30956,"lon":5.39023,"is_reserved":false,"is_disabled":false,"rental_uris":{"android":"levelo://app?vid=5fb19b9f-7476-446b-b5b8-b0c4c464fb2e","ios":"levelo://app?vid=5fb19b9f-7476-446b-b5b8-b0c4c464fb2e"},"vehicle_type_id":"4","last_reported":1683320733,"current_range_meters":12800,"station_id":"ce4bgup2rcd13ifvqco0","pricing_plan_id":"free"},{"bike_id":"8731013f-9e7e-4153-aa7b-952d865b8089","system_id":"levelo_inurba_marseille","lat":43.309589,"lon":5.390258,"is_reserved":false,"is_disabled":false,"rental_uris":{"android":"levelo://app?vid=8731013f-9e7e-4153-aa7b-952d865b8089","ios":"levelo://app?vid=8731013f-9e7e-4153-aa7b-952d865b8089"},"vehicle_type_id":"4","last_reported":1683320733,"current_range_meters":2800,"station_id":"ce4bgup2rcd13ifvqco0","pricing_plan_id":"free"},{"bike_id":"8a030051-1d2d-48c6-b600-8ae676f964c6","system_id":"levelo_inurba_marseille","lat":43.309589,"lon":5.390258,"is_reserved":false,"is_disabled":false,"rental_uris":{"android":"levelo://app?vid=8a030051-1d2d-48c6-b600-8ae676f964c6","ios":"levelo://app?vid=8a030051-1d2d-48c6-b600-8ae676f964c6"},"vehicle_type_id":"4","last_reported":1683320733,"current_range_meters":30800,"station_id":"ce4bgup2rcd13ifvqco0","pricing_plan_id":"free"},{"bike_id":"3da7b12f-e4f1-4d87-b679-aa684e1f32b9","system_id":"levelo_inurba_marseille","lat":43.299028,"lon":5.381509,"is_reserved":false,"is_disabled":false,"rental_uris":{"android":"levelo://app?vid=3da7b12f-e4f1-4d87-b679-aa684e1f32b9","ios":"levelo://app?vid=3da7b12f-e4f1-4d87-b679-aa684e1f32b9"},"vehicle_type_id":"4","last_reported":1683320733,"current_range_meters":0,"station_id":"ce4bgj12rcd13ifvqbc0","pricing_plan_id":"free"},{"bike_id":"e60465b8-46bf-4447-a358-72384244b77c","system_id":"levelo_inurba_marseille","lat":43.309589,"lon":5.390258,"is_reserved":false,"is_disabled":false,"rental_uris":{"android":"levelo://app?vid=e60465b8-46bf-4447-a358-72384244b77c","ios":"levelo://app?vid=e60465b8-46bf-4447-a358-72384244b77c"},"vehicle_type_id":"4","last_reported":1683320733,"current_range_meters":15200,"station_id":"ce4bgup2rcd13ifvqco0","pricing_plan_id":"free"},{"bike_id":"7a448c15-a0a9-4f2c-a11f-e13d702f0384","system_id":"levelo_inurba_marseille","lat":43.309589,"lon":5.390258,"is_reserved":false,"is_disabled":false,"rental_uris":{"android":"levelo://app?vid=7a448c15-a0a9-4f2c-a11f-e13d702f0384","ios":"levelo://app?vid=7a448c15-a0a9-4f2c-a11f-e13d702f0384"},"vehicle_type_id":"4","last_reported":1683320733,"current_range_meters":18000,"station_id":"ce4bgup2rcd13ifvqco0","pricing_plan_id":"free"},{"bike_id":"c231a3ca-c983-4e83-b6af-bb3e6998f994","system_id":"levelo_inurba_marseille","lat":43.29898,"lon":5.38149,"is_reserved":false,"is_disabled":false,"rental_uris":{"android":"levelo://app?vid=c231a3ca-c983-4e83-b6af-bb3e6998f994","ios":"levelo://app?vid=c231a3ca-c983-4e83-b6af-bb3e6998f994"},"vehicle_type_id":"4","last_reported":1683320733,"current_range_meters":10800,"station_id":"ce4bgj12rcd13ifvqbc0","pricing_plan_id":"free"},{"bike_id":"9611f325-71c9-4047-8e9c-9140b046dceb","system_id":"levelo_inurba_marseille","lat":43.3095,"lon":5.39038,"is_reserved":false,"is_disabled":false,"rental_uris":{"android":"levelo://app?vid=9611f325-71c9-4047-8e9c-9140b046dceb","ios":"levelo://app?vid=9611f325-71c9-4047-8e9c-9140b046dceb"},"vehicle_type_id":"4","last_reported":1683320733,"current_range_meters":1600,"station_id":"ce4bgup2rcd13ifvqco0","pricing_plan_id":"free"},{"bike_id":"a296c7dd-caae-48f1-87b6-407954e32e4f","system_id":"levelo_inurba_marseille","lat":43.309589,"lon":5.390258,"is_reserved":false,"is_disabled":false,"rental_uris":{"android":"levelo://app?vid=a296c7dd-caae-48f1-87b6-407954e32e4f","ios":"levelo://app?vid=a296c7dd-caae-48f1-87b6-407954e32e4f"},"vehicle_type_id":"4","last_reported":1683320733,"current_range_meters":4400,"station_id":"ce4bgup2rcd13ifvqco0","pricing_plan_id":"free"},{"bike_id":"fc664ecd-283b-4ad5-b8d8-fe7518401503","system_id":"levelo_inurba_marseille","lat":43.317557,"lon":5.390173,"is_reserved":false,"is_disabled":false,"rental_uris":{"android":"levelo://app?vid=fc664ecd-283b-4ad5-b8d8-fe7518401503","ios":"levelo://app?vid=fc664ecd-283b-4ad5-b8d8-fe7518401503"},"vehicle_type_id":"4","last_reported":1683320733,"current_range_meters":30800,"station_id":"ce4bhqp2rcd13ifvqhng","pricing_plan_id":"free"},{"bike_id":"55e81a5c-dc18-4625-89aa-fe6acd3ab9fd","system_id":"levelo_inurba_marseille","lat":43.31761,"lon":5.39013,"is_reserved":false,"is_disabled":false,"rental_uris":{"android":"levelo://app?vid=55e81a5c-dc18-4625-89aa-fe6acd3ab9fd","ios":"levelo://app?vid=55e81a5c-dc18-4625-89aa-fe6acd3ab9fd"},"vehicle_type_id":"4","last_reported":1683320733,"current_range_meters":14000,"station_id":"ce4bhqp2rcd13ifvqhng","pricing_plan_id":"free"},{"bike_id":"d3bded05-295a-4e27-816d-28fd9af6ceed","system_id":"levelo_inurba_marseille","lat":43.317557,"lon":5.390173,"is_reserved":false,"is_disabled":false,"rental_uris":{"android":"levelo://app?vid=d3bded05-295a-4e27-816d-28fd9af6ceed","ios":"levelo://app?vid=d3bded05-295a-4e27-816d-28fd9af6ceed"},"vehicle_type_id":"4","last_reported":1683320733,"current_range_meters":29600,"station_id":"ce4bhqp2rcd13ifvqhng","pricing_plan_id":"free"},{"bike_id":"77f34d79-51d0-4db3-ab3a-5aec4d75e78b","system_id":"levelo_inurba_marseille","lat":43.317557,"lon":5.390173,"is_reserved":false,"is_disabled":false,"rental_uris":{"android":"levelo://app?vid=77f34d79-51d0-4db3-ab3a-5aec4d75e78b","ios":"levelo://app?vid=77f34d79-51d0-4db3-ab3a-5aec4d75e78b"},"vehicle_type_id":"4","last_reported":1683320733,"current_range_meters":21200,"station_id":"ce4bhqp2rcd13ifvqhng","pricing_plan_id":"free"},{"bike_id":"60ef946b-9459-4a60-b71e-9a93871770e0","system_id":"levelo_inurba_marseille","lat":43.31757,"lon":5.39027,"is_reserved":false,"is_disabled":false,"rental_uris":{"android":"levelo://app?vid=60ef946b-9459-4a60-b71e-9a93871770e0","ios":"levelo://app?vid=60ef946b-9459-4a60-b71e-9a93871770e0"},"vehicle_type_id":"4","last_reported":1683320733,"current_range_meters":30800,"station_id":"ce4bhqp2rcd13ifvqhng","pricing_plan_id":"free"},{"bike_id":"75083129-cb37-4ae1-868b-cd09b5374176","system_id":"levelo_inurba_marseille","lat":43.31758,"lon":5.39027,"is_reserved":false,"is_disabled":false,"rental_uris":{"android":"levelo://app?vid=75083129-cb37-4ae1-868b-cd09b5374176","ios":"levelo://app?vid=75083129-cb37-4ae1-868b-cd09b5374176"},"vehicle_type_id":"4","last_reported":1683320733,"current_range_meters":17600,"station_id":"ce4bhqp2rcd13ifvqhng","pricing_plan_id":"free"},{"bike_id":"e00888f6-99e1-4c69-986f-1e3669edea53","system_id":"levelo_inurba_marseille","lat":43.317557,"lon":5.390173,"is_reserved":false,"is_disabled":false,"rental_uris":{"android":"levelo://app?vid=e00888f6-99e1-4c69-986f-1e3669edea53","ios":"levelo://app?vid=e00888f6-99e1-4c69-986f-1e3669edea53"},"vehicle_type_id":"4","last_reported":1683320733,"current_range_meters":18800,"station_id":"ce4bhqp2rcd13ifvqhng","pricing_plan_id":"free"},{"bike_id":"3ca6f383-83d5-438e-8826-78664b89ea22","system_id":"levelo_inurba_marseille","lat":43.29824,"lon":5.3811,"is_reserved":false,"is_disabled":false,"rental_uris":{"android":"levelo://app?vid=3ca6f383-83d5-438e-8826-78664b89ea22","ios":"levelo://app?vid=3ca6f383-83d5-438e-8826-78664b89ea22"},"vehicle_type_id":"4","last_reported":1683320733,"current_range_meters":400,"station_id":"","pricing_plan_id":"free"},{"bike_id":"64bce105-3955-4118-b6dc-b890d2560515","system_id":"levelo_inurba_marseille","lat":43.295748,"lon":5.37522,"is_reserved":false,"is_disabled":false,"rental_uris":{"android":"levelo://app?vid=64bce105-3955-4118-b6dc-b890d2560515","ios":"levelo://app?vid=64bce105-3955-4118-b6dc-b890d2560515"},"vehicle_type_id":"4","last_reported":1683320733,"current_range_meters":18800,"station_id":"ce4bgh92rcd13ifvqb50","pricing_plan_id":"free"},{"bike_id":"07463b46-c47f-489c-9c27-a6fb2c473c78","system_id":"levelo_inurba_marseille","lat":43.31466,"lon":5.39153,"is_reserved":false,"is_disabled":false,"rental_uris":{"android":"levelo://app?vid=07463b46-c47f-489c-9c27-a6fb2c473c78","ios":"levelo://app?vid=07463b46-c47f-489c-9c27-a6fb2c473c78"},"vehicle_type_id":"4","last_reported":1683320733,"current_range_meters":4000,"station_id":"","pricing_plan_id":"free"},{"bike_id":"dd26d0ef-c3c7-4eee-adda-4b3810ee51bf","system_id":"levelo_inurba_marseille","lat":43.304278,"lon":5.388868,"is_reserved":false,"is_disabled":false,"rental_uris":{"android":"levelo://app?vid=dd26d0ef-c3c7-4eee-adda-4b3810ee51bf","ios":"levelo://app?vid=dd26d0ef-c3c7-4eee-adda-4b3810ee51bf"},"vehicle_type_id":"4","last_reported":1683320733,"current_range_meters":16400,"station_id":"ce4bgk12rcd13ifvqbi0","pricing_plan_id":"free"},{"bike_id":"2c713210-6529-4fe2-968b-b79fc64bfa39","system_id":"levelo_inurba_marseille","lat":43.29801,"lon":5.38232,"is_reserved":false,"is_disabled":false,"rental_uris":{"android":"levelo://app?vid=2c713210-6529-4fe2-968b-b79fc64bfa39","ios":"levelo://app?vid=2c713210-6529-4fe2-968b-b79fc64bfa39"},"vehicle_type_id":"4","last_reported":1683320733,"current_range_meters":8400,"station_id":"","pricing_plan_id":"free"},{"bike_id":"3ee063d3-f860-4d5e-9f40-98facef5b45c","system_id":"levelo_inurba_marseille","lat":43.299724,"lon":5.384848,"is_reserved":false,"is_disabled":false,"rental_uris":{"android":"levelo://app?vid=3ee063d3-f860-4d5e-9f40-98facef5b45c","ios":"levelo://app?vid=3ee063d3-f860-4d5e-9f40-98facef5b45c"},"vehicle_type_id":"4","last_reported":1683320733,"current_range_meters":14800,"station_id":"ce4bgj92rcd13ifvqbd0","pricing_plan_id":"free"},{"bike_id":"1dd06c98-c200-4a3d-afc9-e5fd057d158b","system_id":"levelo_inurba_marseille","lat":43.3046,"lon":5.39057,"is_reserved":false,"is_disabled":false,"rental_uris":{"android":"levelo://app?vid=1dd06c98-c200-4a3d-afc9-e5fd057d158b","ios":"levelo://app?vid=1dd06c98-c200-4a3d-afc9-e5fd057d158b"},"vehicle_type_id":"4","last_reported":1683320733,"current_range_meters":16800,"station_id":"","pricing_plan_id":"free"},{"bike_id":"d12317f6-5e43-43d3-a282-57e40f56ad4e","system_id":"levelo_inurba_marseille","lat":43.29606,"lon":5.38016,"is_reserved":false,"is_disabled":false,"rental_uris":{"android":"levelo://app?vid=d12317f6-5e43-43d3-a282-57e40f56ad4e","ios":"levelo://app?vid=d12317f6-5e43-43d3-a282-57e40f56ad4e"},"vehicle_type_id":"4","last_reported":1683320733,"current_range_meters":9600,"station_id":"","pricing_plan_id":"free"},{"bike_id":"5560fb30-b37d-47e3-a3d2-a577e19f5f0a","system_id":"levelo_inurba_marseille","lat":43.3237,"lon":5.38896,"is_reserved":false,"is_disabled":false,"rental_uris":{"android":"levelo://app?vid=5560fb30-b37d-47e3-a3d2-a577e19f5f0a","ios":"levelo://app?vid=5560fb30-b37d-47e3-a3d2-a577e19f5f0a"},"vehicle_type_id":"4","last_reported":1683320733,"current_range_meters":17200,"station_id":"","pricing_plan_id":"free"},{"bike_id":"403adb44-a530-40c6-8437-97dc9830401d","system_id":"levelo_inurba_marseille","lat":43.29602,"lon":5.381084,"is_reserved":false,"is_disabled":false,"rental_uris":{"android":"levelo://app?vid=403adb44-a530-40c6-8437-97dc9830401d","ios":"levelo://app?vid=403adb44-a530-40c6-8437-97dc9830401d"},"vehicle_type_id":"4","last_reported":1683320733,"current_range_meters":2000,"station_id":"ce4bgl12rcd13ifvqbo0","pricing_plan_id":"free"},{"bike_id":"d2c0e2db-b27f-4114-baa9-485a24d516f6","system_id":"levelo_inurba_marseille","lat":43.29601,"lon":5.381084,"is_reserved":false,"is_disabled":false,"rental_uris":{"android":"levelo://app?vid=d2c0e2db-b27f-4114-baa9-485a24d516f6","ios":"levelo://app?vid=d2c0e2db-b27f-4114-baa9-485a24d516f6"},"vehicle_type_id":"4","last_reported":1683320733,"current_range_meters":24400,"station_id":"ce4bgl12rcd13ifvqbo0","pricing_plan_id":"free"},{"bike_id":"811adafb-f81f-416d-ada5-ab8d233347fd","system_id":"levelo_inurba_marseille","lat":43.29602,"lon":5.381084,"is_reserved":false,"is_disabled":false,"rental_uris":{"android":"levelo://app?vid=811adafb-f81f-416d-ada5-ab8d233347fd","ios":"levelo://app?vid=811adafb-f81f-416d-ada5-ab8d233347fd"},"vehicle_type_id":"4","last_reported":1683320733,"current_range_meters":0,"station_id":"ce4bgl12rcd13ifvqbo0","pricing_plan_id":"free"},{"bike_id":"7ce6fa42-8bb9-4850-9fbf-0272f547988f","system_id":"levelo_inurba_marseille","lat":43.2933,"lon":5.37124,"is_reserved":false,"is_disabled":false,"rental_uris":{"android":"levelo://app?vid=7ce6fa42-8bb9-4850-9fbf-0272f547988f","ios":"levelo://app?vid=7ce6fa42-8bb9-4850-9fbf-0272f547988f"},"vehicle_type_id":"4","last_reported":1683320733,"current_range_meters":12400,"station_id":"","pricing_plan_id":"free"},{"bike_id":"2da36c63-765e-486e-b05e-d53d71d82b70","system_id":"levelo_inurba_marseille","lat":43.29601,"lon":5.381084,"is_reserved":false,"is_disabled":false,"rental_uris":{"android":"levelo://app?vid=2da36c63-765e-486e-b05e-d53d71d82b70","ios":"levelo://app?vid=2da36c63-765e-486e-b05e-d53d71d82b70"},"vehicle_type_id":"4","last_reported":1683320733,"current_range_meters":2000,"station_id":"ce4bgl12rcd13ifvqbo0","pricing_plan_id":"free"},{"bike_id":"49b6c107-5344-4756-bebd-937eaa3b476a","system_id":"levelo_inurba_marseille","lat":43.2931,"lon":5.37168,"is_reserved":false,"is_disabled":false,"rental_uris":{"android":"levelo://app?vid=49b6c107-5344-4756-bebd-937eaa3b476a","ios":"levelo://app?vid=49b6c107-5344-4756-bebd-937eaa3b476a"},"vehicle_type_id":"4","last_reported":1683320733,"current_range_meters":22000,"station_id":"ce4bgh92rcd13ifvqb40","pricing_plan_id":"free"},{"bike_id":"a5a32882-545c-4952-806a-df13d1c64c47","system_id":"levelo_inurba_marseille","lat":43.29309,"lon":5.37174,"is_reserved":false,"is_disabled":false,"rental_uris":{"android":"levelo://app?vid=a5a32882-545c-4952-806a-df13d1c64c47","ios":"levelo://app?vid=a5a32882-545c-4952-806a-df13d1c64c47"},"vehicle_type_id":"4","last_reported":1683320733,"current_range_meters":11200,"station_id":"ce4bgh92rcd13ifvqb40","pricing_plan_id":"free"},{"bike_id":"eed393b1-396b-4629-9904-4f7a028cdd1e","system_id":"levelo_inurba_marseille","lat":43.293249,"lon":5.371578,"is_reserved":false,"is_disabled":false,"rental_uris":{"android":"levelo://app?vid=eed393b1-396b-4629-9904-4f7a028cdd1e","ios":"levelo://app?vid=eed393b1-396b-4629-9904-4f7a028cdd1e"},"vehicle_type_id":"4","last_reported":1683320733,"current_range_meters":18000,"station_id":"ce4bgh92rcd13ifvqb40","pricing_plan_id":"free"},{"bike_id":"5cadacca-4bbe-493a-9438-96b17c28a3a8","system_id":"levelo_inurba_marseille","lat":43.29304,"lon":5.3717,"is_reserved":false,"is_disabled":false,"rental_uris":{"android":"levelo://app?vid=5cadacca-4bbe-493a-9438-96b17c28a3a8","ios":"levelo://app?vid=5cadacca-4bbe-493a-9438-96b17c28a3a8"},"vehicle_type_id":"4","last_reported":1683320733,"current_range_meters":20000,"station_id":"ce4bgh92rcd13ifvqb40","pricing_plan_id":"free"},{"bike_id":"27e99b03-593a-410b-b11b-c8fbeda9177e","system_id":"levelo_inurba_marseille","lat":43.292749,"lon":5.368402,"is_reserved":false,"is_disabled":false,"rental_uris":{"android":"levelo://app?vid=27e99b03-593a-410b-b11b-c8fbeda9177e","ios":"levelo://app?vid=27e99b03-593a-410b-b11b-c8fbeda9177e"},"vehicle_type_id":"4","last_reported":1683320733,"current_range_meters":2400,"station_id":"ce4bhbp2rcd13ifvqesg","pricing_plan_id":"free"},{"bike_id":"b6d1dca3-bbca-425d-8816-e39efb7c6c51","system_id":"levelo_inurba_marseille","lat":43.293009,"lon":5.374584,"is_reserved":false,"is_disabled":false,"rental_uris":{"android":"levelo://app?vid=b6d1dca3-bbca-425d-8816-e39efb7c6c51","ios":"levelo://app?vid=b6d1dca3-bbca-425d-8816-e39efb7c6c51"},"vehicle_type_id":"4","last_reported":1683320733,"current_range_meters":2400,"station_id":"ce4bgi12rcd13ifvqb70","pricing_plan_id":"free"},{"bike_id":"e49cbe2b-0564-4e1a-9fad-ce29782900d2","system_id":"levelo_inurba_marseille","lat":43.305994,"lon":5.393687,"is_reserved":false,"is_disabled":false,"rental_uris":{"android":"levelo://app?vid=e49cbe2b-0564-4e1a-9fad-ce29782900d2","ios":"levelo://app?vid=e49cbe2b-0564-4e1a-9fad-ce29782900d2"},"vehicle_type_id":"4","last_reported":1683320733,"current_range_meters":12800,"station_id":"ce4bh0p2rcd13ifvqd80","pricing_plan_id":"free"},{"bike_id":"c7175043-c2e9-4e96-89b9-fe3a07ace1a7","system_id":"levelo_inurba_marseille","lat":43.30598,"lon":5.39363,"is_reserved":false,"is_disabled":false,"rental_uris":{"android":"levelo://app?vid=c7175043-c2e9-4e96-89b9-fe3a07ace1a7","ios":"levelo://app?vid=c7175043-c2e9-4e96-89b9-fe3a07ace1a7"},"vehicle_type_id":"4","last_reported":1683320733,"current_range_meters":24800,"station_id":"ce4bh0p2rcd13ifvqd80","pricing_plan_id":"free"},{"bike_id":"087fb1e0-44f5-4340-9813-eac3d97b8b36","system_id":"levelo_inurba_marseille","lat":43.305994,"lon":5.393687,"is_reserved":false,"is_disabled":false,"rental_uris":{"android":"levelo://app?vid=087fb1e0-44f5-4340-9813-eac3d97b8b36","ios":"levelo://app?vid=087fb1e0-44f5-4340-9813-eac3d97b8b36"},"vehicle_type_id":"4","last_reported":1683320733,"current_range_meters":30000,"station_id":"ce4bh0p2rcd13ifvqd80","pricing_plan_id":"free"},{"bike_id":"0deba04b-ab44-470e-8914-545d05d90902","system_id":"levelo_inurba_marseille","lat":43.302992,"lon":5.392136,"is_reserved":false,"is_disabled":false,"rental_uris":{"android":"levelo://app?vid=0deba04b-ab44-470e-8914-545d05d90902","ios":"levelo://app?vid=0deba04b-ab44-470e-8914-545d05d90902"},"vehicle_type_id":"4","last_reported":1683320733,"current_range_meters":26800,"station_id":"ce4bgkh2rcd13ifvqbk0","pricing_plan_id":"free"},{"bike_id":"faab5a62-cbab-41d5-9a5f-60c32434b02a","system_id":"levelo_inurba_marseille","lat":43.29156,"lon":5.37076,"is_reserved":false,"is_disabled":false,"rental_uris":{"android":"levelo://app?vid=faab5a62-cbab-41d5-9a5f-60c32434b02a","ios":"levelo://app?vid=faab5a62-cbab-41d5-9a5f-60c32434b02a"},"vehicle_type_id":"4","last_reported":1683320733,"current_range_meters":14400,"station_id":"","pricing_plan_id":"free"},{"bike_id":"90a9296b-5d4e-4626-81d3-59df5d09306d","system_id":"levelo_inurba_marseille","lat":43.2973,"lon":5.38743,"is_reserved":false,"is_disabled":false,"rental_uris":{"android":"levelo://app?vid=90a9296b-5d4e-4626-81d3-59df5d09306d","ios":"levelo://app?vid=90a9296b-5d4e-4626-81d3-59df5d09306d"},"vehicle_type_id":"4","last_reported":1683320733,"current_range_meters":14400,"station_id":"","pricing_plan_id":"free"},{"bike_id":"b9bc60c0-ef2a-4ae0-bc22-2b070a0daa16","system_id":"levelo_inurba_marseille","lat":43.309038,"lon":5.396546,"is_reserved":false,"is_disabled":false,"rental_uris":{"android":"levelo://app?vid=b9bc60c0-ef2a-4ae0-bc22-2b070a0daa16","ios":"levelo://app?vid=b9bc60c0-ef2a-4ae0-bc22-2b070a0daa16"},"vehicle_type_id":"4","last_reported":1683320733,"current_range_meters":16400,"station_id":"ce4bh012rcd13ifvqcv0","pricing_plan_id":"free"},{"bike_id":"9c77c3d5-e975-4d49-aedd-2a7f37b15b5e","system_id":"levelo_inurba_marseille","lat":43.309038,"lon":5.396546,"is_reserved":false,"is_disabled":false,"rental_uris":{"android":"levelo://app?vid=9c77c3d5-e975-4d49-aedd-2a7f37b15b5e","ios":"levelo://app?vid=9c77c3d5-e975-4d49-aedd-2a7f37b15b5e"},"vehicle_type_id":"4","last_reported":1683320733,"current_range_meters":8000,"station_id":"ce4bh012rcd13ifvqcv0","pricing_plan_id":"free"},{"bike_id":"c96b837c-2477-48dc-a9e1-786e82954547","system_id":"levelo_inurba_marseille","lat":43.309038,"lon":5.396546,"is_reserved":false,"is_disabled":false,"rental_uris":{"android":"levelo://app?vid=c96b837c-2477-48dc-a9e1-786e82954547","ios":"levelo://app?vid=c96b837c-2477-48dc-a9e1-786e82954547"},"vehicle_type_id":"4","last_reported":1683320733,"current_range_meters":21200,"station_id":"ce4bh012rcd13ifvqcv0","pricing_plan_id":"free"},{"bike_id":"0e3932e6-6afc-4620-a5f3-f34cce9c3f6b","system_id":"levelo_inurba_marseille","lat":43.309038,"lon":5.396546,"is_reserved":false,"is_disabled":false,"rental_uris":{"android":"levelo://app?vid=0e3932e6-6afc-4620-a5f3-f34cce9c3f6b","ios":"levelo://app?vid=0e3932e6-6afc-4620-a5f3-f34cce9c3f6b"},"vehicle_type_id":"4","last_reported":1683320733,"current_range_meters":13200,"station_id":"ce4bh012rcd13ifvqcv0","pricing_plan_id":"free"},{"bike_id":"5b5bff3a-b5ca-4fe4-b3b2-9778142ed1d0","system_id":"levelo_inurba_marseille","lat":43.313291,"lon":5.396838,"is_reserved":false,"is_disabled":false,"rental_uris":{"android":"levelo://app?vid=5b5bff3a-b5ca-4fe4-b3b2-9778142ed1d0","ios":"levelo://app?vid=5b5bff3a-b5ca-4fe4-b3b2-9778142ed1d0"},"vehicle_type_id":"4","last_reported":1683320733,"current_range_meters":14800,"station_id":"ce4bgvp2rcd13ifvqcu0","pricing_plan_id":"free"},{"bike_id":"a9c6e4fd-3ae1-46d7-b246-0ac0d6a11056","system_id":"levelo_inurba_marseille","lat":43.313291,"lon":5.396838,"is_reserved":false,"is_disabled":false,"rental_uris":{"android":"levelo://app?vid=a9c6e4fd-3ae1-46d7-b246-0ac0d6a11056","ios":"levelo://app?vid=a9c6e4fd-3ae1-46d7-b246-0ac0d6a11056"},"vehicle_type_id":"4","last_reported":1683320733,"current_range_meters":11600,"station_id":"ce4bgvp2rcd13ifvqcu0","pricing_plan_id":"free"},{"bike_id":"12d550f2-61eb-40a9-80f4-fdab2578764c","system_id":"levelo_inurba_marseille","lat":43.30875,"lon":5.39654,"is_reserved":false,"is_disabled":false,"rental_uris":{"android":"levelo://app?vid=12d550f2-61eb-40a9-80f4-fdab2578764c","ios":"levelo://app?vid=12d550f2-61eb-40a9-80f4-fdab2578764c"},"vehicle_type_id":"4","last_reported":1683320733,"current_range_meters":0,"station_id":"","pricing_plan_id":"free"},{"bike_id":"b0d5d094-4184-48be-a5a9-f7fba3dc226a","system_id":"levelo_inurba_marseille","lat":43.29529,"lon":5.385581,"is_reserved":false,"is_disabled":false,"rental_uris":{"android":"levelo://app?vid=b0d5d094-4184-48be-a5a9-f7fba3dc226a","ios":"levelo://app?vid=b0d5d094-4184-48be-a5a9-f7fba3dc226a"},"vehicle_type_id":"4","last_reported":1683320733,"current_range_meters":22000,"station_id":"ce4bgih2rcd13ifvqba0","pricing_plan_id":"free"},{"bike_id":"a86adabf-2e56-49f2-b1eb-17908d955d22","system_id":"levelo_inurba_marseille","lat":43.29529,"lon":5.385581,"is_reserved":false,"is_disabled":false,"rental_uris":{"android":"levelo://app?vid=a86adabf-2e56-49f2-b1eb-17908d955d22","ios":"levelo://app?vid=a86adabf-2e56-49f2-b1eb-17908d955d22"},"vehicle_type_id":"4","last_reported":1683320733,"current_range_meters":5600,"station_id":"ce4bgih2rcd13ifvqba0","pricing_plan_id":"free"},{"bike_id":"ae28b580-cbb9-4831-873b-e6110f2a1c40","system_id":"levelo_inurba_marseille","lat":43.29529,"lon":5.385581,"is_reserved":false,"is_disabled":false,"rental_uris":{"android":"levelo://app?vid=ae28b580-cbb9-4831-873b-e6110f2a1c40","ios":"levelo://app?vid=ae28b580-cbb9-4831-873b-e6110f2a1c40"},"vehicle_type_id":"4","last_reported":1683320733,"current_range_meters":2000,"station_id":"ce4bgih2rcd13ifvqba0","pricing_plan_id":"free"},{"bike_id":"fe1d52cb-6e1c-41b9-a32b-b204e3b16187","system_id":"levelo_inurba_marseille","lat":43.29529,"lon":5.385581,"is_reserved":false,"is_disabled":false,"rental_uris":{"android":"levelo://app?vid=fe1d52cb-6e1c-41b9-a32b-b204e3b16187","ios":"levelo://app?vid=fe1d52cb-6e1c-41b9-a32b-b204e3b16187"},"vehicle_type_id":"4","last_reported":1683320733,"current_range_meters":28000,"station_id":"ce4bgih2rcd13ifvqba0","pricing_plan_id":"free"},{"bike_id":"b9eb1160-cf41-4f4a-bf5b-9439d055ed12","system_id":"levelo_inurba_marseille","lat":43.29529,"lon":5.385581,"is_reserved":false,"is_disabled":false,"rental_uris":{"android":"levelo://app?vid=b9eb1160-cf41-4f4a-bf5b-9439d055ed12","ios":"levelo://app?vid=b9eb1160-cf41-4f4a-bf5b-9439d055ed12"},"vehicle_type_id":"4","last_reported":1683320733,"current_range_meters":4400,"station_id":"ce4bgih2rcd13ifvqba0","pricing_plan_id":"free"},{"bike_id":"dcb6f6c0-f8e3-4ab7-8375-e857a132a91a","system_id":"levelo_inurba_marseille","lat":43.29529,"lon":5.385581,"is_reserved":false,"is_disabled":false,"rental_uris":{"android":"levelo://app?vid=dcb6f6c0-f8e3-4ab7-8375-e857a132a91a","ios":"levelo://app?vid=dcb6f6c0-f8e3-4ab7-8375-e857a132a91a"},"vehicle_type_id":"4","last_reported":1683320733,"current_range_meters":19200,"station_id":"ce4bgih2rcd13ifvqba0","pricing_plan_id":"free"},{"bike_id":"6be430b0-2adf-4b58-92ff-56058f024d5f","system_id":"levelo_inurba_marseille","lat":43.29529,"lon":5.385581,"is_reserved":false,"is_disabled":false,"rental_uris":{"android":"levelo://app?vid=6be430b0-2adf-4b58-92ff-56058f024d5f","ios":"levelo://app?vid=6be430b0-2adf-4b58-92ff-56058f024d5f"},"vehicle_type_id":"4","last_reported":1683320733,"current_range_meters":1200,"station_id":"ce4bgih2rcd13ifvqba0","pricing_plan_id":"free"},{"bike_id":"002d829f-56e1-40ee-a66e-4a134abc576a","system_id":"levelo_inurba_marseille","lat":43.29529,"lon":5.385581,"is_reserved":false,"is_disabled":false,"rental_uris":{"android":"levelo://app?vid=002d829f-56e1-40ee-a66e-4a134abc576a","ios":"levelo://app?vid=002d829f-56e1-40ee-a66e-4a134abc576a"},"vehicle_type_id":"4","last_reported":1683320733,"current_range_meters":14800,"station_id":"ce4bgih2rcd13ifvqba0","pricing_plan_id":"free"},{"bike_id":"cba8f3b7-45cd-44ba-998a-e1df4023bbf4","system_id":"levelo_inurba_marseille","lat":43.29529,"lon":5.385581,"is_reserved":false,"is_disabled":false,"rental_uris":{"android":"levelo://app?vid=cba8f3b7-45cd-44ba-998a-e1df4023bbf4","ios":"levelo://app?vid=cba8f3b7-45cd-44ba-998a-e1df4023bbf4"},"vehicle_type_id":"4","last_reported":1683320733,"current_range_meters":12000,"station_id":"ce4bgih2rcd13ifvqba0","pricing_plan_id":"free"},{"bike_id":"c3172de5-4fc2-4f9d-9a8f-14cfa45ffb85","system_id":"levelo_inurba_marseille","lat":43.29529,"lon":5.385581,"is_reserved":false,"is_disabled":false,"rental_uris":{"android":"levelo://app?vid=c3172de5-4fc2-4f9d-9a8f-14cfa45ffb85","ios":"levelo://app?vid=c3172de5-4fc2-4f9d-9a8f-14cfa45ffb85"},"vehicle_type_id":"4","last_reported":1683320733,"current_range_meters":27200,"station_id":"ce4bgih2rcd13ifvqba0","pricing_plan_id":"free"},{"bike_id":"1704ea80-1b81-4cf9-bdcf-e1dcd842ba72","system_id":"levelo_inurba_marseille","lat":43.29529,"lon":5.385581,"is_reserved":false,"is_disabled":false,"rental_uris":{"android":"levelo://app?vid=1704ea80-1b81-4cf9-bdcf-e1dcd842ba72","ios":"levelo://app?vid=1704ea80-1b81-4cf9-bdcf-e1dcd842ba72"},"vehicle_type_id":"4","last_reported":1683320733,"current_range_meters":9200,"station_id":"ce4bgih2rcd13ifvqba0","pricing_plan_id":"free"},{"bike_id":"683f37e5-895e-4462-8c10-67890ebcc932","system_id":"levelo_inurba_marseille","lat":43.29529,"lon":5.385581,"is_reserved":false,"is_disabled":false,"rental_uris":{"android":"levelo://app?vid=683f37e5-895e-4462-8c10-67890ebcc932","ios":"levelo://app?vid=683f37e5-895e-4462-8c10-67890ebcc932"},"vehicle_type_id":"4","last_reported":1683320733,"current_range_meters":4400,"station_id":"ce4bgih2rcd13ifvqba0","pricing_plan_id":"free"},{"bike_id":"4d7762d8-649d-4ec0-9ee8-106e02a89e02","system_id":"levelo_inurba_marseille","lat":43.29529,"lon":5.385581,"is_reserved":false,"is_disabled":false,"rental_uris":{"android":"levelo://app?vid=4d7762d8-649d-4ec0-9ee8-106e02a89e02","ios":"levelo://app?vid=4d7762d8-649d-4ec0-9ee8-106e02a89e02"},"vehicle_type_id":"4","last_reported":1683320733,"current_range_meters":3600,"station_id":"ce4bgih2rcd13ifvqba0","pricing_plan_id":"free"},{"bike_id":"fe842130-67d5-4ded-9e45-a88dabf97722","system_id":"levelo_inurba_marseille","lat":43.29529,"lon":5.385581,"is_reserved":false,"is_disabled":false,"rental_uris":{"android":"levelo://app?vid=fe842130-67d5-4ded-9e45-a88dabf97722","ios":"levelo://app?vid=fe842130-67d5-4ded-9e45-a88dabf97722"},"vehicle_type_id":"4","last_reported":1683320733,"current_range_meters":22000,"station_id":"ce4bgih2rcd13ifvqba0","pricing_plan_id":"free"},{"bike_id":"47d10c9a-002a-4edb-b663-64d0bb2e3996","system_id":"levelo_inurba_marseille","lat":43.29529,"lon":5.385581,"is_reserved":false,"is_disabled":false,"rental_uris":{"android":"levelo://app?vid=47d10c9a-002a-4edb-b663-64d0bb2e3996","ios":"levelo://app?vid=47d10c9a-002a-4edb-b663-64d0bb2e3996"},"vehicle_type_id":"4","last_reported":1683320733,"current_range_meters":19200,"station_id":"ce4bgih2rcd13ifvqba0","pricing_plan_id":"free"},{"bike_id":"8a868eac-88af-4d8d-baba-c80cc14f7c6f","system_id":"levelo_inurba_marseille","lat":43.29529,"lon":5.385581,"is_reserved":false,"is_disabled":false,"rental_uris":{"android":"levelo://app?vid=8a868eac-88af-4d8d-baba-c80cc14f7c6f","ios":"levelo://app?vid=8a868eac-88af-4d8d-baba-c80cc14f7c6f"},"vehicle_type_id":"4","last_reported":1683320733,"current_range_meters":11200,"station_id":"ce4bgih2rcd13ifvqba0","pricing_plan_id":"free"},{"bike_id":"b2489d4b-be02-49d2-b93a-83040e3a9db6","system_id":"levelo_inurba_marseille","lat":43.29529,"lon":5.385581,"is_reserved":false,"is_disabled":false,"rental_uris":{"android":"levelo://app?vid=b2489d4b-be02-49d2-b93a-83040e3a9db6","ios":"levelo://app?vid=b2489d4b-be02-49d2-b93a-83040e3a9db6"},"vehicle_type_id":"4","last_reported":1683320733,"current_range_meters":0,"station_id":"ce4bgih2rcd13ifvqba0","pricing_plan_id":"free"},{"bike_id":"1ae7d964-1f2f-4853-8bcc-d2448fcd59cd","system_id":"levelo_inurba_marseille","lat":43.29529,"lon":5.385581,"is_reserved":false,"is_disabled":false,"rental_uris":{"android":"levelo://app?vid=1ae7d964-1f2f-4853-8bcc-d2448fcd59cd","ios":"levelo://app?vid=1ae7d964-1f2f-4853-8bcc-d2448fcd59cd"},"vehicle_type_id":"4","last_reported":1683320733,"current_range_meters":17200,"station_id":"ce4bgih2rcd13ifvqba0","pricing_plan_id":"free"},{"bike_id":"51c23370-d843-4e5d-ab27-87b45873fa93","system_id":"levelo_inurba_marseille","lat":43.29529,"lon":5.385581,"is_reserved":false,"is_disabled":false,"rental_uris":{"android":"levelo://app?vid=51c23370-d843-4e5d-ab27-87b45873fa93","ios":"levelo://app?vid=51c23370-d843-4e5d-ab27-87b45873fa93"},"vehicle_type_id":"4","last_reported":1683320733,"current_range_meters":29600,"station_id":"ce4bgih2rcd13ifvqba0","pricing_plan_id":"free"},{"bike_id":"e0ed7378-c16e-452d-86b1-1fcb8ad349ed","system_id":"levelo_inurba_marseille","lat":43.29529,"lon":5.385581,"is_reserved":false,"is_disabled":false,"rental_uris":{"android":"levelo://app?vid=e0ed7378-c16e-452d-86b1-1fcb8ad349ed","ios":"levelo://app?vid=e0ed7378-c16e-452d-86b1-1fcb8ad349ed"},"vehicle_type_id":"4","last_reported":1683320733,"current_range_meters":14800,"station_id":"ce4bgih2rcd13ifvqba0","pricing_plan_id":"free"},{"bike_id":"01488cd3-a378-4158-ac15-2cc77e84ac29","system_id":"levelo_inurba_marseille","lat":43.29529,"lon":5.385581,"is_reserved":false,"is_disabled":false,"rental_uris":{"android":"levelo://app?vid=01488cd3-a378-4158-ac15-2cc77e84ac29","ios":"levelo://app?vid=01488cd3-a378-4158-ac15-2cc77e84ac29"},"vehicle_type_id":"4","last_reported":1683320733,"current_range_meters":25200,"station_id":"ce4bgih2rcd13ifvqba0","pricing_plan_id":"free"},{"bike_id":"c6a0137f-7c07-4bfe-9515-7b753ee02e01","system_id":"levelo_inurba_marseille","lat":43.29529,"lon":5.385581,"is_reserved":false,"is_disabled":false,"rental_uris":{"android":"levelo://app?vid=c6a0137f-7c07-4bfe-9515-7b753ee02e01","ios":"levelo://app?vid=c6a0137f-7c07-4bfe-9515-7b753ee02e01"},"vehicle_type_id":"4","last_reported":1683320733,"current_range_meters":22400,"station_id":"ce4bgih2rcd13ifvqba0","pricing_plan_id":"free"},{"bike_id":"ac710655-5a64-4136-a297-0f078b58e7f7","system_id":"levelo_inurba_marseille","lat":43.29529,"lon":5.385581,"is_reserved":false,"is_disabled":false,"rental_uris":{"android":"levelo://app?vid=ac710655-5a64-4136-a297-0f078b58e7f7","ios":"levelo://app?vid=ac710655-5a64-4136-a297-0f078b58e7f7"},"vehicle_type_id":"4","last_reported":1683320733,"current_range_meters":7600,"station_id":"ce4bgih2rcd13ifvqba0","pricing_plan_id":"free"},{"bike_id":"d61cef5b-c16a-4b3d-aac1-5c6f3d63eeb4","system_id":"levelo_inurba_marseille","lat":43.29529,"lon":5.385581,"is_reserved":false,"is_disabled":false,"rental_uris":{"android":"levelo://app?vid=d61cef5b-c16a-4b3d-aac1-5c6f3d63eeb4","ios":"levelo://app?vid=d61cef5b-c16a-4b3d-aac1-5c6f3d63eeb4"},"vehicle_type_id":"4","last_reported":1683320733,"current_range_meters":1200,"station_id":"ce4bgih2rcd13ifvqba0","pricing_plan_id":"free"},{"bike_id":"75c14cfd-db7b-413a-a444-deeb1d804078","system_id":"levelo_inurba_marseille","lat":43.290779,"lon":5.371482,"is_reserved":false,"is_disabled":false,"rental_uris":{"android":"levelo://app?vid=75c14cfd-db7b-413a-a444-deeb1d804078","ios":"levelo://app?vid=75c14cfd-db7b-413a-a444-deeb1d804078"},"vehicle_type_id":"4","last_reported":1683320733,"current_range_meters":5600,"station_id":"ce4bh5p2rcd13ifvqe4g","pricing_plan_id":"free"},{"bike_id":"26823c04-e2a1-4bf9-a5e1-02d8884ea7fa","system_id":"levelo_inurba_marseille","lat":43.302008,"lon":5.394694,"is_reserved":false,"is_disabled":false,"rental_uris":{"android":"levelo://app?vid=26823c04-e2a1-4bf9-a5e1-02d8884ea7fa","ios":"levelo://app?vid=26823c04-e2a1-4bf9-a5e1-02d8884ea7fa"},"vehicle_type_id":"4","last_reported":1683320733,"current_range_meters":9200,"station_id":"ce4bh0p2rcd13ifvqd70","pricing_plan_id":"free"},{"bike_id":"3484d043-5908-44b6-993b-02fa8678c0c6","system_id":"levelo_inurba_marseille","lat":43.302008,"lon":5.394694,"is_reserved":false,"is_disabled":false,"rental_uris":{"android":"levelo://app?vid=3484d043-5908-44b6-993b-02fa8678c0c6","ios":"levelo://app?vid=3484d043-5908-44b6-993b-02fa8678c0c6"},"vehicle_type_id":"4","last_reported":1683320733,"current_range_meters":0,"station_id":"ce4bh0p2rcd13ifvqd70","pricing_plan_id":"free"},{"bike_id":"4a5bacbb-293b-44f9-b02c-4b4cafdb0cb6","system_id":"levelo_inurba_marseille","lat":43.29424,"lon":5.38618,"is_reserved":false,"is_disabled":false,"rental_uris":{"android":"levelo://app?vid=4a5bacbb-293b-44f9-b02c-4b4cafdb0cb6","ios":"levelo://app?vid=4a5bacbb-293b-44f9-b02c-4b4cafdb0cb6"},"vehicle_type_id":"4","last_reported":1683320733,"current_range_meters":28000,"station_id":"ce4bh2h2rcd13ifvqdh0","pricing_plan_id":"free"},{"bike_id":"d5ea3192-e74c-4b11-a758-7ba49f261216","system_id":"levelo_inurba_marseille","lat":43.29421,"lon":5.38618,"is_reserved":false,"is_disabled":false,"rental_uris":{"android":"levelo://app?vid=d5ea3192-e74c-4b11-a758-7ba49f261216","ios":"levelo://app?vid=d5ea3192-e74c-4b11-a758-7ba49f261216"},"vehicle_type_id":"4","last_reported":1683320733,"current_range_meters":28000,"station_id":"ce4bh2h2rcd13ifvqdh0","pricing_plan_id":"free"},{"bike_id":"ead664ab-278a-4e28-9ed9-960c9782095a","system_id":"levelo_inurba_marseille","lat":43.29422,"lon":5.38621,"is_reserved":false,"is_disabled":false,"rental_uris":{"android":"levelo://app?vid=ead664ab-278a-4e28-9ed9-960c9782095a","ios":"levelo://app?vid=ead664ab-278a-4e28-9ed9-960c9782095a"},"vehicle_type_id":"4","last_reported":1683320733,"current_range_meters":6400,"station_id":"ce4bh2h2rcd13ifvqdh0","pricing_plan_id":"free"},{"bike_id":"9f37c10f-9015-4e56-a796-583c5027c690","system_id":"levelo_inurba_marseille","lat":43.29421,"lon":5.38622,"is_reserved":false,"is_disabled":false,"rental_uris":{"android":"levelo://app?vid=9f37c10f-9015-4e56-a796-583c5027c690","ios":"levelo://app?vid=9f37c10f-9015-4e56-a796-583c5027c690"},"vehicle_type_id":"4","last_reported":1683320733,"current_range_meters":9200,"station_id":"ce4bh2h2rcd13ifvqdh0","pricing_plan_id":"free"},{"bike_id":"f048d707-f81c-4889-8592-e4801a1a142e","system_id":"levelo_inurba_marseille","lat":43.2942,"lon":5.38622,"is_reserved":false,"is_disabled":false,"rental_uris":{"android":"levelo://app?vid=f048d707-f81c-4889-8592-e4801a1a142e","ios":"levelo://app?vid=f048d707-f81c-4889-8592-e4801a1a142e"},"vehicle_type_id":"4","last_reported":1683320733,"current_range_meters":21600,"station_id":"ce4bh2h2rcd13ifvqdh0","pricing_plan_id":"free"},{"bike_id":"d5f86cfa-686e-47a5-9a8f-0ac1276a0221","system_id":"levelo_inurba_marseille","lat":43.29416,"lon":5.38618,"is_reserved":false,"is_disabled":false,"rental_uris":{"android":"levelo://app?vid=d5f86cfa-686e-47a5-9a8f-0ac1276a0221","ios":"levelo://app?vid=d5f86cfa-686e-47a5-9a8f-0ac1276a0221"},"vehicle_type_id":"4","last_reported":1683320733,"current_range_meters":18400,"station_id":"ce4bh2h2rcd13ifvqdh0","pricing_plan_id":"free"},{"bike_id":"6c5bbab2-669b-4bc7-b5ea-5eb4fc341920","system_id":"levelo_inurba_marseille","lat":43.29418,"lon":5.38622,"is_reserved":false,"is_disabled":false,"rental_uris":{"android":"levelo://app?vid=6c5bbab2-669b-4bc7-b5ea-5eb4fc341920","ios":"levelo://app?vid=6c5bbab2-669b-4bc7-b5ea-5eb4fc341920"},"vehicle_type_id":"4","last_reported":1683320733,"current_range_meters":400,"station_id":"ce4bh2h2rcd13ifvqdh0","pricing_plan_id":"free"},{"bike_id":"117fabe8-c4a4-4609-80c4-5a7e30a05c40","system_id":"levelo_inurba_marseille","lat":43.29421,"lon":5.38628,"is_reserved":false,"is_disabled":false,"rental_uris":{"android":"levelo://app?vid=117fabe8-c4a4-4609-80c4-5a7e30a05c40","ios":"levelo://app?vid=117fabe8-c4a4-4609-80c4-5a7e30a05c40"},"vehicle_type_id":"4","last_reported":1683320733,"current_range_meters":12400,"station_id":"ce4bh2h2rcd13ifvqdh0","pricing_plan_id":"free"},{"bike_id":"349f3d52-db77-420f-91ad-609e4e4c757c","system_id":"levelo_inurba_marseille","lat":43.294153,"lon":5.386305,"is_reserved":false,"is_disabled":false,"rental_uris":{"android":"levelo://app?vid=349f3d52-db77-420f-91ad-609e4e4c757c","ios":"levelo://app?vid=349f3d52-db77-420f-91ad-609e4e4c757c"},"vehicle_type_id":"4","last_reported":1683320733,"current_range_meters":30000,"station_id":"ce4bh2h2rcd13ifvqdh0","pricing_plan_id":"free"},{"bike_id":"5601b2a1-ddbe-4c6b-a79b-d22eaecfcf78","system_id":"levelo_inurba_marseille","lat":43.29421,"lon":5.38629,"is_reserved":false,"is_disabled":false,"rental_uris":{"android":"levelo://app?vid=5601b2a1-ddbe-4c6b-a79b-d22eaecfcf78","ios":"levelo://app?vid=5601b2a1-ddbe-4c6b-a79b-d22eaecfcf78"},"vehicle_type_id":"4","last_reported":1683320733,"current_range_meters":800,"station_id":"ce4bh2h2rcd13ifvqdh0","pricing_plan_id":"free"},{"bike_id":"0bc668fa-c7eb-4b07-b7d9-ff199b8ac796","system_id":"levelo_inurba_marseille","lat":43.29416,"lon":5.3862,"is_reserved":false,"is_disabled":false,"rental_uris":{"android":"levelo://app?vid=0bc668fa-c7eb-4b07-b7d9-ff199b8ac796","ios":"levelo://app?vid=0bc668fa-c7eb-4b07-b7d9-ff199b8ac796"},"vehicle_type_id":"4","last_reported":1683320733,"current_range_meters":5600,"station_id":"ce4bh2h2rcd13ifvqdh0","pricing_plan_id":"free"},{"bike_id":"cee7fff2-484d-4715-b6d5-596a5d67d9f5","system_id":"levelo_inurba_marseille","lat":43.29416,"lon":5.38621,"is_reserved":false,"is_disabled":false,"rental_uris":{"android":"levelo://app?vid=cee7fff2-484d-4715-b6d5-596a5d67d9f5","ios":"levelo://app?vid=cee7fff2-484d-4715-b6d5-596a5d67d9f5"},"vehicle_type_id":"4","last_reported":1683320733,"current_range_meters":0,"station_id":"ce4bh2h2rcd13ifvqdh0","pricing_plan_id":"free"},{"bike_id":"bcb4733f-02fb-4a7a-a7e5-96038ecffa82","system_id":"levelo_inurba_marseille","lat":43.294153,"lon":5.386305,"is_reserved":false,"is_disabled":false,"rental_uris":{"android":"levelo://app?vid=bcb4733f-02fb-4a7a-a7e5-96038ecffa82","ios":"levelo://app?vid=bcb4733f-02fb-4a7a-a7e5-96038ecffa82"},"vehicle_type_id":"4","last_reported":1683320733,"current_range_meters":10400,"station_id":"ce4bh2h2rcd13ifvqdh0","pricing_plan_id":"free"},{"bike_id":"2a41e79f-bf26-4aaa-8cb8-34e328f0a28f","system_id":"levelo_inurba_marseille","lat":43.29418,"lon":5.38625,"is_reserved":false,"is_disabled":false,"rental_uris":{"android":"levelo://app?vid=2a41e79f-bf26-4aaa-8cb8-34e328f0a28f","ios":"levelo://app?vid=2a41e79f-bf26-4aaa-8cb8-34e328f0a28f"},"vehicle_type_id":"4","last_reported":1683320733,"current_range_meters":8400,"station_id":"ce4bh2h2rcd13ifvqdh0","pricing_plan_id":"free"},{"bike_id":"aa25127c-372c-4fcc-8e00-7d0e7d039284","system_id":"levelo_inurba_marseille","lat":43.29036,"lon":5.37581,"is_reserved":false,"is_disabled":false,"rental_uris":{"android":"levelo://app?vid=aa25127c-372c-4fcc-8e00-7d0e7d039284","ios":"levelo://app?vid=aa25127c-372c-4fcc-8e00-7d0e7d039284"},"vehicle_type_id":"4","last_reported":1683320733,"current_range_meters":22000,"station_id":"ce4bh692rcd13ifvqe90","pricing_plan_id":"free"},{"bike_id":"c3862ce4-bb2b-4dad-94b0-977fe57ad1a7","system_id":"levelo_inurba_marseille","lat":43.29417,"lon":5.38626,"is_reserved":false,"is_disabled":false,"rental_uris":{"android":"levelo://app?vid=c3862ce4-bb2b-4dad-94b0-977fe57ad1a7","ios":"levelo://app?vid=c3862ce4-bb2b-4dad-94b0-977fe57ad1a7"},"vehicle_type_id":"4","last_reported":1683320733,"current_range_meters":25200,"station_id":"ce4bh2h2rcd13ifvqdh0","pricing_plan_id":"free"},{"bike_id":"bc39020e-ee84-4585-8406-503636db75ec","system_id":"levelo_inurba_marseille","lat":43.29416,"lon":5.38625,"is_reserved":false,"is_disabled":false,"rental_uris":{"android":"levelo://app?vid=bc39020e-ee84-4585-8406-503636db75ec","ios":"levelo://app?vid=bc39020e-ee84-4585-8406-503636db75ec"},"vehicle_type_id":"4","last_reported":1683320733,"current_range_meters":10000,"station_id":"ce4bh2h2rcd13ifvqdh0","pricing_plan_id":"free"},{"bike_id":"02a20e74-c691-4acc-97df-31e670832b25","system_id":"levelo_inurba_marseille","lat":43.29417,"lon":5.38627,"is_reserved":false,"is_disabled":false,"rental_uris":{"android":"levelo://app?vid=02a20e74-c691-4acc-97df-31e670832b25","ios":"levelo://app?vid=02a20e74-c691-4acc-97df-31e670832b25"},"vehicle_type_id":"4","last_reported":1683320733,"current_range_meters":0,"station_id":"ce4bh2h2rcd13ifvqdh0","pricing_plan_id":"free"},{"bike_id":"7b2331b7-5ab9-4d22-a579-6141d1c60747","system_id":"levelo_inurba_marseille","lat":43.29413,"lon":5.3862,"is_reserved":false,"is_disabled":false,"rental_uris":{"android":"levelo://app?vid=7b2331b7-5ab9-4d22-a579-6141d1c60747","ios":"levelo://app?vid=7b2331b7-5ab9-4d22-a579-6141d1c60747"},"vehicle_type_id":"4","last_reported":1683320733,"current_range_meters":400,"station_id":"ce4bh2h2rcd13ifvqdh0","pricing_plan_id":"free"},{"bike_id":"098bf7f0-5daa-4f2d-87ea-330e2b34d6d5","system_id":"levelo_inurba_marseille","lat":43.29414,"lon":5.38622,"is_reserved":false,"is_disabled":false,"rental_uris":{"android":"levelo://app?vid=098bf7f0-5daa-4f2d-87ea-330e2b34d6d5","ios":"levelo://app?vid=098bf7f0-5daa-4f2d-87ea-330e2b34d6d5"},"vehicle_type_id":"4","last_reported":1683320733,"current_range_meters":4000,"station_id":"ce4bh2h2rcd13ifvqdh0","pricing_plan_id":"free"},{"bike_id":"603f9470-7a38-47cc-8bb4-1865cef4da07","system_id":"levelo_inurba_marseille","lat":43.29418,"lon":5.3863,"is_reserved":false,"is_disabled":false,"rental_uris":{"android":"levelo://app?vid=603f9470-7a38-47cc-8bb4-1865cef4da07","ios":"levelo://app?vid=603f9470-7a38-47cc-8bb4-1865cef4da07"},"vehicle_type_id":"4","last_reported":1683320733,"current_range_meters":9600,"station_id":"ce4bh2h2rcd13ifvqdh0","pricing_plan_id":"free"},{"bike_id":"c2f18142-2c2d-42b4-858d-7aaeb66701d0","system_id":"levelo_inurba_marseille","lat":43.29417,"lon":5.38629,"is_reserved":false,"is_disabled":false,"rental_uris":{"android":"levelo://app?vid=c2f18142-2c2d-42b4-858d-7aaeb66701d0","ios":"levelo://app?vid=c2f18142-2c2d-42b4-858d-7aaeb66701d0"},"vehicle_type_id":"4","last_reported":1683320733,"current_range_meters":3600,"station_id":"ce4bh2h2rcd13ifvqdh0","pricing_plan_id":"free"},{"bike_id":"11372ef4-d4b1-4e7c-8f4f-96a8e66e86d5","system_id":"levelo_inurba_marseille","lat":43.29418,"lon":5.38632,"is_reserved":false,"is_disabled":false,"rental_uris":{"android":"levelo://app?vid=11372ef4-d4b1-4e7c-8f4f-96a8e66e86d5","ios":"levelo://app?vid=11372ef4-d4b1-4e7c-8f4f-96a8e66e86d5"},"vehicle_type_id":"4","last_reported":1683320733,"current_range_meters":8800,"station_id":"ce4bh2h2rcd13ifvqdh0","pricing_plan_id":"free"},{"bike_id":"694f6dfb-942a-4155-87a7-d5b4d2f1abb4","system_id":"levelo_inurba_marseille","lat":43.29413,"lon":5.38624,"is_reserved":false,"is_disabled":false,"rental_uris":{"android":"levelo://app?vid=694f6dfb-942a-4155-87a7-d5b4d2f1abb4","ios":"levelo://app?vid=694f6dfb-942a-4155-87a7-d5b4d2f1abb4"},"vehicle_type_id":"4","last_reported":1683320733,"current_range_meters":6000,"station_id":"ce4bh2h2rcd13ifvqdh0","pricing_plan_id":"free"},{"bike_id":"5a818488-33f5-4d8a-b929-2d13fad6e064","system_id":"levelo_inurba_marseille","lat":43.29415,"lon":5.38628,"is_reserved":false,"is_disabled":false,"rental_uris":{"android":"levelo://app?vid=5a818488-33f5-4d8a-b929-2d13fad6e064","ios":"levelo://app?vid=5a818488-33f5-4d8a-b929-2d13fad6e064"},"vehicle_type_id":"4","last_reported":1683320733,"current_range_meters":5600,"station_id":"ce4bh2h2rcd13ifvqdh0","pricing_plan_id":"free"},{"bike_id":"ae18827e-6976-4645-88c2-07bf0fc8c9b6","system_id":"levelo_inurba_marseille","lat":43.29415,"lon":5.38628,"is_reserved":false,"is_disabled":false,"rental_uris":{"android":"levelo://app?vid=ae18827e-6976-4645-88c2-07bf0fc8c9b6","ios":"levelo://app?vid=ae18827e-6976-4645-88c2-07bf0fc8c9b6"},"vehicle_type_id":"4","last_reported":1683320733,"current_range_meters":22400,"station_id":"ce4bh2h2rcd13ifvqdh0","pricing_plan_id":"free"},{"bike_id":"fc6ed387-3da2-40b4-989c-b608a888d228","system_id":"levelo_inurba_marseille","lat":43.289184,"lon":5.366408,"is_reserved":false,"is_disabled":false,"rental_uris":{"android":"levelo://app?vid=fc6ed387-3da2-40b4-989c-b608a888d228","ios":"levelo://app?vid=fc6ed387-3da2-40b4-989c-b608a888d228"},"vehicle_type_id":"4","last_reported":1683320733,"current_range_meters":11200,"station_id":"ce4bhap2rcd13ifvqek0","pricing_plan_id":"free"},{"bike_id":"33e80398-dfa8-46e4-bf81-230d61870f85","system_id":"levelo_inurba_marseille","lat":43.29413,"lon":5.38626,"is_reserved":false,"is_disabled":false,"rental_uris":{"android":"levelo://app?vid=33e80398-dfa8-46e4-bf81-230d61870f85","ios":"levelo://app?vid=33e80398-dfa8-46e4-bf81-230d61870f85"},"vehicle_type_id":"4","last_reported":1683320733,"current_range_meters":24800,"station_id":"ce4bh2h2rcd13ifvqdh0","pricing_plan_id":"free"},{"bike_id":"e3d2afce-a02f-44e4-b3bd-4c0ffda05a94","system_id":"levelo_inurba_marseille","lat":43.29413,"lon":5.38627,"is_reserved":false,"is_disabled":false,"rental_uris":{"android":"levelo://app?vid=e3d2afce-a02f-44e4-b3bd-4c0ffda05a94","ios":"levelo://app?vid=e3d2afce-a02f-44e4-b3bd-4c0ffda05a94"},"vehicle_type_id":"4","last_reported":1683320733,"current_range_meters":12800,"station_id":"ce4bh2h2rcd13ifvqdh0","pricing_plan_id":"free"},{"bike_id":"be1aa74f-1a88-4f03-8c50-9f1dd64bdb4b","system_id":"levelo_inurba_marseille","lat":43.29414,"lon":5.38632,"is_reserved":false,"is_disabled":false,"rental_uris":{"android":"levelo://app?vid=be1aa74f-1a88-4f03-8c50-9f1dd64bdb4b","ios":"levelo://app?vid=be1aa74f-1a88-4f03-8c50-9f1dd64bdb4b"},"vehicle_type_id":"4","last_reported":1683320733,"current_range_meters":21600,"station_id":"ce4bh2h2rcd13ifvqdh0","pricing_plan_id":"free"},{"bike_id":"2bfe7b28-33f6-4a4d-aacd-b880cc12ab9f","system_id":"levelo_inurba_marseille","lat":43.28937,"lon":5.36633,"is_reserved":false,"is_disabled":false,"rental_uris":{"android":"levelo://app?vid=2bfe7b28-33f6-4a4d-aacd-b880cc12ab9f","ios":"levelo://app?vid=2bfe7b28-33f6-4a4d-aacd-b880cc12ab9f"},"vehicle_type_id":"4","last_reported":1683320733,"current_range_meters":18400,"station_id":"","pricing_plan_id":"free"},{"bike_id":"807405a3-8d8d-41ca-93ab-8a6b5d03327b","system_id":"levelo_inurba_marseille","lat":43.289184,"lon":5.366408,"is_reserved":false,"is_disabled":false,"rental_uris":{"android":"levelo://app?vid=807405a3-8d8d-41ca-93ab-8a6b5d03327b","ios":"levelo://app?vid=807405a3-8d8d-41ca-93ab-8a6b5d03327b"},"vehicle_type_id":"4","last_reported":1683320733,"current_range_meters":24400,"station_id":"ce4bhap2rcd13ifvqek0","pricing_plan_id":"free"},{"bike_id":"3e4d8d3e-3a74-4649-a9e4-2580cd049b4b","system_id":"levelo_inurba_marseille","lat":43.289184,"lon":5.366408,"is_reserved":false,"is_disabled":false,"rental_uris":{"android":"levelo://app?vid=3e4d8d3e-3a74-4649-a9e4-2580cd049b4b","ios":"levelo://app?vid=3e4d8d3e-3a74-4649-a9e4-2580cd049b4b"},"vehicle_type_id":"4","last_reported":1683320733,"current_range_meters":20000,"station_id":"ce4bhap2rcd13ifvqek0","pricing_plan_id":"free"},{"bike_id":"2d0281c9-e4eb-47e4-ab66-62ca5f79c177","system_id":"levelo_inurba_marseille","lat":43.289184,"lon":5.366408,"is_reserved":false,"is_disabled":false,"rental_uris":{"android":"levelo://app?vid=2d0281c9-e4eb-47e4-ab66-62ca5f79c177","ios":"levelo://app?vid=2d0281c9-e4eb-47e4-ab66-62ca5f79c177"},"vehicle_type_id":"4","last_reported":1683320733,"current_range_meters":17600,"station_id":"ce4bhap2rcd13ifvqek0","pricing_plan_id":"free"},{"bike_id":"66ef1422-c252-4836-a243-c85268c16239","system_id":"levelo_inurba_marseille","lat":43.289468,"lon":5.363719,"is_reserved":false,"is_disabled":false,"rental_uris":{"android":"levelo://app?vid=66ef1422-c252-4836-a243-c85268c16239","ios":"levelo://app?vid=66ef1422-c252-4836-a243-c85268c16239"},"vehicle_type_id":"4","last_reported":1683320733,"current_range_meters":0,"station_id":"ce4bhc92rcd13ifvqetg","pricing_plan_id":"free"},{"bike_id":"aa613b47-a4ef-4495-a27c-5ee2c3efaba9","system_id":"levelo_inurba_marseille","lat":43.289468,"lon":5.363719,"is_reserved":false,"is_disabled":false,"rental_uris":{"android":"levelo://app?vid=aa613b47-a4ef-4495-a27c-5ee2c3efaba9","ios":"levelo://app?vid=aa613b47-a4ef-4495-a27c-5ee2c3efaba9"},"vehicle_type_id":"4","last_reported":1683320733,"current_range_meters":20800,"station_id":"ce4bhc92rcd13ifvqetg","pricing_plan_id":"free"},{"bike_id":"0d560df4-b1b8-4767-88e6-cc599ca27d0c","system_id":"levelo_inurba_marseille","lat":43.292644,"lon":5.384257,"is_reserved":false,"is_disabled":false,"rental_uris":{"android":"levelo://app?vid=0d560df4-b1b8-4767-88e6-cc599ca27d0c","ios":"levelo://app?vid=0d560df4-b1b8-4767-88e6-cc599ca27d0c"},"vehicle_type_id":"4","last_reported":1683320733,"current_range_meters":31200,"station_id":"ce4bh692rcd13ifvqea0","pricing_plan_id":"free"},{"bike_id":"ecf6b366-b11e-4429-9930-a8b6c9ccfd72","system_id":"levelo_inurba_marseille","lat":43.292644,"lon":5.384257,"is_reserved":false,"is_disabled":false,"rental_uris":{"android":"levelo://app?vid=ecf6b366-b11e-4429-9930-a8b6c9ccfd72","ios":"levelo://app?vid=ecf6b366-b11e-4429-9930-a8b6c9ccfd72"},"vehicle_type_id":"4","last_reported":1683320733,"current_range_meters":14800,"station_id":"ce4bh692rcd13ifvqea0","pricing_plan_id":"free"},{"bike_id":"58b01f0f-1fce-4a2d-83ad-87326aef01c3","system_id":"levelo_inurba_marseille","lat":43.29268,"lon":5.38431,"is_reserved":false,"is_disabled":false,"rental_uris":{"android":"levelo://app?vid=58b01f0f-1fce-4a2d-83ad-87326aef01c3","ios":"levelo://app?vid=58b01f0f-1fce-4a2d-83ad-87326aef01c3"},"vehicle_type_id":"4","last_reported":1683320733,"current_range_meters":8000,"station_id":"ce4bh692rcd13ifvqea0","pricing_plan_id":"free"},{"bike_id":"e97ac1dd-8a3b-48a0-bf2c-5044b4dfba01","system_id":"levelo_inurba_marseille","lat":43.292642,"lon":5.384254,"is_reserved":false,"is_disabled":false,"rental_uris":{"android":"levelo://app?vid=e97ac1dd-8a3b-48a0-bf2c-5044b4dfba01","ios":"levelo://app?vid=e97ac1dd-8a3b-48a0-bf2c-5044b4dfba01"},"vehicle_type_id":"4","last_reported":1683320733,"current_range_meters":28400,"station_id":"ce4bh692rcd13ifvqea0","pricing_plan_id":"free"},{"bike_id":"116e13e6-7f0f-4b74-aa7f-934363f1b6e9","system_id":"levelo_inurba_marseille","lat":43.292644,"lon":5.384257,"is_reserved":false,"is_disabled":false,"rental_uris":{"android":"levelo://app?vid=116e13e6-7f0f-4b74-aa7f-934363f1b6e9","ios":"levelo://app?vid=116e13e6-7f0f-4b74-aa7f-934363f1b6e9"},"vehicle_type_id":"4","last_reported":1683320733,"current_range_meters":22800,"station_id":"ce4bh692rcd13ifvqea0","pricing_plan_id":"free"},{"bike_id":"ad590daa-faf2-402f-8d8e-e5f1da7647e7","system_id":"levelo_inurba_marseille","lat":43.292644,"lon":5.384257,"is_reserved":false,"is_disabled":false,"rental_uris":{"android":"levelo://app?vid=ad590daa-faf2-402f-8d8e-e5f1da7647e7","ios":"levelo://app?vid=ad590daa-faf2-402f-8d8e-e5f1da7647e7"},"vehicle_type_id":"4","last_reported":1683320733,"current_range_meters":13600,"station_id":"ce4bh692rcd13ifvqea0","pricing_plan_id":"free"},{"bike_id":"3b2fd13d-9cf6-44bd-9301-4e9114110c23","system_id":"levelo_inurba_marseille","lat":43.29265,"lon":5.38437,"is_reserved":false,"is_disabled":false,"rental_uris":{"android":"levelo://app?vid=3b2fd13d-9cf6-44bd-9301-4e9114110c23","ios":"levelo://app?vid=3b2fd13d-9cf6-44bd-9301-4e9114110c23"},"vehicle_type_id":"4","last_reported":1683320733,"current_range_meters":2400,"station_id":"ce4bh692rcd13ifvqea0","pricing_plan_id":"free"},{"bike_id":"2de568bb-6759-4328-a2be-b0378235a93e","system_id":"levelo_inurba_marseille","lat":43.292644,"lon":5.384257,"is_reserved":false,"is_disabled":false,"rental_uris":{"android":"levelo://app?vid=2de568bb-6759-4328-a2be-b0378235a93e","ios":"levelo://app?vid=2de568bb-6759-4328-a2be-b0378235a93e"},"vehicle_type_id":"4","last_reported":1683320733,"current_range_meters":26000,"station_id":"ce4bh692rcd13ifvqea0","pricing_plan_id":"free"},{"bike_id":"1f16ef66-429c-49c2-9714-4d605cf7e5b9","system_id":"levelo_inurba_marseille","lat":43.29259,"lon":5.38432,"is_reserved":false,"is_disabled":false,"rental_uris":{"android":"levelo://app?vid=1f16ef66-429c-49c2-9714-4d605cf7e5b9","ios":"levelo://app?vid=1f16ef66-429c-49c2-9714-4d605cf7e5b9"},"vehicle_type_id":"4","last_reported":1683320733,"current_range_meters":10000,"station_id":"ce4bh692rcd13ifvqea0","pricing_plan_id":"free"},{"bike_id":"b142ddea-714b-4c5b-bd54-a761d67f11f8","system_id":"levelo_inurba_marseille","lat":43.2926,"lon":5.38437,"is_reserved":false,"is_disabled":false,"rental_uris":{"android":"levelo://app?vid=b142ddea-714b-4c5b-bd54-a761d67f11f8","ios":"levelo://app?vid=b142ddea-714b-4c5b-bd54-a761d67f11f8"},"vehicle_type_id":"4","last_reported":1683320733,"current_range_meters":6800,"station_id":"ce4bh692rcd13ifvqea0","pricing_plan_id":"free"},{"bike_id":"a475831e-dc7f-403c-9e94-e21da9b5ad13","system_id":"levelo_inurba_marseille","lat":43.29257,"lon":5.38431,"is_reserved":false,"is_disabled":false,"rental_uris":{"android":"levelo://app?vid=a475831e-dc7f-403c-9e94-e21da9b5ad13","ios":"levelo://app?vid=a475831e-dc7f-403c-9e94-e21da9b5ad13"},"vehicle_type_id":"4","last_reported":1683320733,"current_range_meters":25600,"station_id":"ce4bh692rcd13ifvqea0","pricing_plan_id":"free"},{"bike_id":"35df0e66-f90e-4ad4-9bfa-c2e3510248cf","system_id":"levelo_inurba_marseille","lat":43.292642,"lon":5.384254,"is_reserved":false,"is_disabled":false,"rental_uris":{"android":"levelo://app?vid=35df0e66-f90e-4ad4-9bfa-c2e3510248cf","ios":"levelo://app?vid=35df0e66-f90e-4ad4-9bfa-c2e3510248cf"},"vehicle_type_id":"4","last_reported":1683320733,"current_range_meters":12000,"station_id":"ce4bh692rcd13ifvqea0","pricing_plan_id":"free"},{"bike_id":"a1d1e480-2c8f-4fec-833a-0157abc3caf2","system_id":"levelo_inurba_marseille","lat":43.292644,"lon":5.384257,"is_reserved":false,"is_disabled":false,"rental_uris":{"android":"levelo://app?vid=a1d1e480-2c8f-4fec-833a-0157abc3caf2","ios":"levelo://app?vid=a1d1e480-2c8f-4fec-833a-0157abc3caf2"},"vehicle_type_id":"4","last_reported":1683320733,"current_range_meters":5600,"station_id":"ce4bh692rcd13ifvqea0","pricing_plan_id":"free"},{"bike_id":"7426a479-d9ff-4b8e-8b46-de15b1348c6c","system_id":"levelo_inurba_marseille","lat":43.2926,"lon":5.38442,"is_reserved":false,"is_disabled":false,"rental_uris":{"android":"levelo://app?vid=7426a479-d9ff-4b8e-8b46-de15b1348c6c","ios":"levelo://app?vid=7426a479-d9ff-4b8e-8b46-de15b1348c6c"},"vehicle_type_id":"4","last_reported":1683320733,"current_range_meters":25200,"station_id":"ce4bh692rcd13ifvqea0","pricing_plan_id":"free"},{"bike_id":"5eb65046-4bf8-47f1-98d3-320c0d04ab72","system_id":"levelo_inurba_marseille","lat":43.292644,"lon":5.384257,"is_reserved":false,"is_disabled":false,"rental_uris":{"android":"levelo://app?vid=5eb65046-4bf8-47f1-98d3-320c0d04ab72","ios":"levelo://app?vid=5eb65046-4bf8-47f1-98d3-320c0d04ab72"},"vehicle_type_id":"4","last_reported":1683320733,"current_range_meters":4000,"station_id":"ce4bh692rcd13ifvqea0","pricing_plan_id":"free"},{"bike_id":"657851a6-dea9-4415-af52-f35fc7a89147","system_id":"levelo_inurba_marseille","lat":43.29257,"lon":5.38436,"is_reserved":false,"is_disabled":false,"rental_uris":{"android":"levelo://app?vid=657851a6-dea9-4415-af52-f35fc7a89147","ios":"levelo://app?vid=657851a6-dea9-4415-af52-f35fc7a89147"},"vehicle_type_id":"4","last_reported":1683320733,"current_range_meters":16800,"station_id":"ce4bh692rcd13ifvqea0","pricing_plan_id":"free"},{"bike_id":"14a4bceb-7513-40e8-9239-c8196b0c7043","system_id":"levelo_inurba_marseille","lat":43.292644,"lon":5.384257,"is_reserved":false,"is_disabled":false,"rental_uris":{"android":"levelo://app?vid=14a4bceb-7513-40e8-9239-c8196b0c7043","ios":"levelo://app?vid=14a4bceb-7513-40e8-9239-c8196b0c7043"},"vehicle_type_id":"4","last_reported":1683320733,"current_range_meters":14000,"station_id":"ce4bh692rcd13ifvqea0","pricing_plan_id":"free"},{"bike_id":"f7b113d2-b9f5-4d46-9671-717ffb863bed","system_id":"levelo_inurba_marseille","lat":43.29257,"lon":5.38437,"is_reserved":false,"is_disabled":false,"rental_uris":{"android":"levelo://app?vid=f7b113d2-b9f5-4d46-9671-717ffb863bed","ios":"levelo://app?vid=f7b113d2-b9f5-4d46-9671-717ffb863bed"},"vehicle_type_id":"4","last_reported":1683320733,"current_range_meters":16400,"station_id":"ce4bh692rcd13ifvqea0","pricing_plan_id":"free"},{"bike_id":"e1a04bab-424e-40e2-9c7c-f7aec5749c61","system_id":"levelo_inurba_marseille","lat":43.29257,"lon":5.38443,"is_reserved":false,"is_disabled":false,"rental_uris":{"android":"levelo://app?vid=e1a04bab-424e-40e2-9c7c-f7aec5749c61","ios":"levelo://app?vid=e1a04bab-424e-40e2-9c7c-f7aec5749c61"},"vehicle_type_id":"4","last_reported":1683320733,"current_range_meters":1200,"station_id":"ce4bh692rcd13ifvqea0","pricing_plan_id":"free"},{"bike_id":"359ff587-8279-4809-89b3-53630b3cef77","system_id":"levelo_inurba_marseille","lat":43.29254,"lon":5.38437,"is_reserved":false,"is_disabled":false,"rental_uris":{"android":"levelo://app?vid=359ff587-8279-4809-89b3-53630b3cef77","ios":"levelo://app?vid=359ff587-8279-4809-89b3-53630b3cef77"},"vehicle_type_id":"4","last_reported":1683320733,"current_range_meters":21600,"station_id":"ce4bh692rcd13ifvqea0","pricing_plan_id":"free"},{"bike_id":"b8a2413a-21b7-46c0-80dd-32d4349e0437","system_id":"levelo_inurba_marseille","lat":43.292644,"lon":5.384257,"is_reserved":false,"is_disabled":false,"rental_uris":{"android":"levelo://app?vid=b8a2413a-21b7-46c0-80dd-32d4349e0437","ios":"levelo://app?vid=b8a2413a-21b7-46c0-80dd-32d4349e0437"},"vehicle_type_id":"4","last_reported":1683320733,"current_range_meters":12400,"station_id":"ce4bh692rcd13ifvqea0","pricing_plan_id":"free"},{"bike_id":"9ccd4cb4-67f8-40d1-b89a-9a79aa1802a1","system_id":"levelo_inurba_marseille","lat":43.29253,"lon":5.38446,"is_reserved":false,"is_disabled":false,"rental_uris":{"android":"levelo://app?vid=9ccd4cb4-67f8-40d1-b89a-9a79aa1802a1","ios":"levelo://app?vid=9ccd4cb4-67f8-40d1-b89a-9a79aa1802a1"},"vehicle_type_id":"4","last_reported":1683320733,"current_range_meters":6400,"station_id":"ce4bh692rcd13ifvqea0","pricing_plan_id":"free"},{"bike_id":"729606f8-a379-4f78-ad43-5f877fe4fcd2","system_id":"levelo_inurba_marseille","lat":43.292644,"lon":5.384257,"is_reserved":false,"is_disabled":false,"rental_uris":{"android":"levelo://app?vid=729606f8-a379-4f78-ad43-5f877fe4fcd2","ios":"levelo://app?vid=729606f8-a379-4f78-ad43-5f877fe4fcd2"},"vehicle_type_id":"4","last_reported":1683320733,"current_range_meters":6000,"station_id":"ce4bh692rcd13ifvqea0","pricing_plan_id":"free"},{"bike_id":"d6233f8b-531d-433b-b8e9-589e3920c098","system_id":"levelo_inurba_marseille","lat":43.3304,"lon":5.38919,"is_reserved":false,"is_disabled":false,"rental_uris":{"android":"levelo://app?vid=d6233f8b-531d-433b-b8e9-589e3920c098","ios":"levelo://app?vid=d6233f8b-531d-433b-b8e9-589e3920c098"},"vehicle_type_id":"4","last_reported":1683320733,"current_range_meters":24800,"station_id":"ce4bhr92rcd13ifvqhrg","pricing_plan_id":"free"},{"bike_id":"c6a5f3db-467c-47f5-acd9-61fe8cd674ee","system_id":"levelo_inurba_marseille","lat":43.33043,"lon":5.38917,"is_reserved":false,"is_disabled":false,"rental_uris":{"android":"levelo://app?vid=c6a5f3db-467c-47f5-acd9-61fe8cd674ee","ios":"levelo://app?vid=c6a5f3db-467c-47f5-acd9-61fe8cd674ee"},"vehicle_type_id":"4","last_reported":1683320733,"current_range_meters":26400,"station_id":"ce4bhr92rcd13ifvqhrg","pricing_plan_id":"free"},{"bike_id":"c9455a8e-920b-4e52-910e-7a1224d93dcf","system_id":"levelo_inurba_marseille","lat":43.33042,"lon":5.38919,"is_reserved":false,"is_disabled":false,"rental_uris":{"android":"levelo://app?vid=c9455a8e-920b-4e52-910e-7a1224d93dcf","ios":"levelo://app?vid=c9455a8e-920b-4e52-910e-7a1224d93dcf"},"vehicle_type_id":"4","last_reported":1683320733,"current_range_meters":24400,"station_id":"ce4bhr92rcd13ifvqhrg","pricing_plan_id":"free"},{"bike_id":"c0b39783-7886-4047-9a8d-355fea0e4444","system_id":"levelo_inurba_marseille","lat":43.33044,"lon":5.38916,"is_reserved":false,"is_disabled":false,"rental_uris":{"android":"levelo://app?vid=c0b39783-7886-4047-9a8d-355fea0e4444","ios":"levelo://app?vid=c0b39783-7886-4047-9a8d-355fea0e4444"},"vehicle_type_id":"4","last_reported":1683320733,"current_range_meters":24400,"station_id":"ce4bhr92rcd13ifvqhrg","pricing_plan_id":"free"},{"bike_id":"1f662943-fd3c-4d30-8e8d-761822cb14d2","system_id":"levelo_inurba_marseille","lat":43.33042,"lon":5.3892,"is_reserved":false,"is_disabled":false,"rental_uris":{"android":"levelo://app?vid=1f662943-fd3c-4d30-8e8d-761822cb14d2","ios":"levelo://app?vid=1f662943-fd3c-4d30-8e8d-761822cb14d2"},"vehicle_type_id":"4","last_reported":1683320733,"current_range_meters":24400,"station_id":"ce4bhr92rcd13ifvqhrg","pricing_plan_id":"free"},{"bike_id":"da86836b-d020-456b-ad95-a73c452d8db8","system_id":"levelo_inurba_marseille","lat":43.33045,"lon":5.38916,"is_reserved":false,"is_disabled":false,"rental_uris":{"android":"levelo://app?vid=da86836b-d020-456b-ad95-a73c452d8db8","ios":"levelo://app?vid=da86836b-d020-456b-ad95-a73c452d8db8"},"vehicle_type_id":"4","last_reported":1683320733,"current_range_meters":20800,"station_id":"ce4bhr92rcd13ifvqhrg","pricing_plan_id":"free"},{"bike_id":"53fe0696-8fbc-48b8-831c-c78693c5a58b","system_id":"levelo_inurba_marseille","lat":43.33046,"lon":5.38915,"is_reserved":false,"is_disabled":false,"rental_uris":{"android":"levelo://app?vid=53fe0696-8fbc-48b8-831c-c78693c5a58b","ios":"levelo://app?vid=53fe0696-8fbc-48b8-831c-c78693c5a58b"},"vehicle_type_id":"4","last_reported":1683320733,"current_range_meters":19200,"station_id":"ce4bhr92rcd13ifvqhrg","pricing_plan_id":"free"},{"bike_id":"8354f027-4ab3-43cf-aa5a-b91f8b7b635d","system_id":"levelo_inurba_marseille","lat":43.33047,"lon":5.38914,"is_reserved":false,"is_disabled":false,"rental_uris":{"android":"levelo://app?vid=8354f027-4ab3-43cf-aa5a-b91f8b7b635d","ios":"levelo://app?vid=8354f027-4ab3-43cf-aa5a-b91f8b7b635d"},"vehicle_type_id":"4","last_reported":1683320733,"current_range_meters":15200,"station_id":"ce4bhr92rcd13ifvqhrg","pricing_plan_id":"free"},{"bike_id":"f5a33f33-ed78-46e5-9438-e290d2271059","system_id":"levelo_inurba_marseille","lat":43.33046,"lon":5.38916,"is_reserved":false,"is_disabled":false,"rental_uris":{"android":"levelo://app?vid=f5a33f33-ed78-46e5-9438-e290d2271059","ios":"levelo://app?vid=f5a33f33-ed78-46e5-9438-e290d2271059"},"vehicle_type_id":"4","last_reported":1683320733,"current_range_meters":5200,"station_id":"ce4bhr92rcd13ifvqhrg","pricing_plan_id":"free"},{"bike_id":"b1e637ac-383e-4f35-827c-3188ca7e3031","system_id":"levelo_inurba_marseille","lat":43.33045,"lon":5.38918,"is_reserved":false,"is_disabled":false,"rental_uris":{"android":"levelo://app?vid=b1e637ac-383e-4f35-827c-3188ca7e3031","ios":"levelo://app?vid=b1e637ac-383e-4f35-827c-3188ca7e3031"},"vehicle_type_id":"4","last_reported":1683320733,"current_range_meters":10000,"station_id":"ce4bhr92rcd13ifvqhrg","pricing_plan_id":"free"},{"bike_id":"1cd8baf0-5550-4716-8d5e-6381fd878ebd","system_id":"levelo_inurba_marseille","lat":43.33043,"lon":5.38922,"is_reserved":false,"is_disabled":false,"rental_uris":{"android":"levelo://app?vid=1cd8baf0-5550-4716-8d5e-6381fd878ebd","ios":"levelo://app?vid=1cd8baf0-5550-4716-8d5e-6381fd878ebd"},"vehicle_type_id":"4","last_reported":1683320733,"current_range_meters":28400,"station_id":"ce4bhr92rcd13ifvqhrg","pricing_plan_id":"free"},{"bike_id":"ca24a59f-d386-41a3-bec3-cccfb35035a7","system_id":"levelo_inurba_marseille","lat":43.33045,"lon":5.38919,"is_reserved":false,"is_disabled":false,"rental_uris":{"android":"levelo://app?vid=ca24a59f-d386-41a3-bec3-cccfb35035a7","ios":"levelo://app?vid=ca24a59f-d386-41a3-bec3-cccfb35035a7"},"vehicle_type_id":"4","last_reported":1683320733,"current_range_meters":2800,"station_id":"ce4bhr92rcd13ifvqhrg","pricing_plan_id":"free"},{"bike_id":"9cc13337-a19e-40f5-b636-2bafa5380dab","system_id":"levelo_inurba_marseille","lat":43.33044,"lon":5.38921,"is_reserved":false,"is_disabled":false,"rental_uris":{"android":"levelo://app?vid=9cc13337-a19e-40f5-b636-2bafa5380dab","ios":"levelo://app?vid=9cc13337-a19e-40f5-b636-2bafa5380dab"},"vehicle_type_id":"4","last_reported":1683320733,"current_range_meters":800,"station_id":"ce4bhr92rcd13ifvqhrg","pricing_plan_id":"free"},{"bike_id":"c7d204ce-6619-491c-8812-dc4b0a6a663b","system_id":"levelo_inurba_marseille","lat":43.33046,"lon":5.38918,"is_reserved":false,"is_disabled":false,"rental_uris":{"android":"levelo://app?vid=c7d204ce-6619-491c-8812-dc4b0a6a663b","ios":"levelo://app?vid=c7d204ce-6619-491c-8812-dc4b0a6a663b"},"vehicle_type_id":"4","last_reported":1683320733,"current_range_meters":31200,"station_id":"ce4bhr92rcd13ifvqhrg","pricing_plan_id":"free"},