{"last_updated":1691525221,"ttl":30,"version":"2.2","data":{"bikes":[{"bike_id":"73c8be0c-82eb-4c80-8b66-3ca950539eaf","system_id":"levelo_inurba_marseille","lat":43.31341,"lon":5.367098,"is_reserved":false,"is_disabled":false,"rental_uris":{"android":"levelo://app?vid=73c8be0c-82eb-4c80-8b66-3ca950539eaf","ios":"levelo://app?vid=73c8be0c-82eb-4c80-8b66-3ca950539eaf"},"vehicle_type_id":"4","last_reported":1691525222,"current_range_meters":30000,"station_id":"ce4bgr92rcd13ifvqc6g","pricing_plan_id":"free"},{"bike_id":"6da73417-dee3-43ba-93c1-c6a2c2903917","system_id":"levelo_inurba_marseille","lat":43.312239,"lon":5.368562,"is_reserved":false,"is_disabled":false,"rental_uris":{"android":"levelo://app?vid=6da73417-dee3-43ba-93c1-c6a2c2903917","ios":"levelo://app?vid=6da73417-dee3-43ba-93c1-c6a2c2903917"},"vehicle_type_id":"4","last_reported":1691525222,"current_range_meters":22800,"station_id":"ce4bgl92rcd13ifvqbq0","pricing_plan_id":"free"},{"bike_id":"cb24c039-5be7-4585-b987-2a43af818f1f","system_id":"levelo_inurba_marseille","lat":43.309076,"lon":5.368465,"is_reserved":false,"is_disabled":false,"rental_uris":{"android":"levelo://app?vid=cb24c039-5be7-4585-b987-2a43af818f1f","ios":"levelo://app?vid=cb24c039-5be7-4585-b987-2a43af818f1f"},"vehicle_type_id":"4","last_reported":1691525222,"current_range_meters":21200,"station_id":"ce4bgn92rcd13ifvqbvg","pricing_plan_id":"free"},{"bike_id":"8e7b7eab-8a9e-435d-92b7-f0cacf89c268","system_id":"levelo_inurba_marseille","lat":43.309076,"lon":5.368465,"is_reserved":false,"is_disabled":false,"rental_uris":{"android":"levelo://app?vid=8e7b7eab-8a9e-435d-92b7-f0cacf89c268","ios":"levelo://app?vid=8e7b7eab-8a9e-435d-92b7-f0cacf89c268"},"vehicle_type_id":"4","last_reported":1691525222,"current_range_meters":28400,"station_id":"ce4bgn92rcd13ifvqbvg","pricing_plan_id":"free"},{"bike_id":"e164d47b-b9e0-4fcf-9569-ae20ab803805","system_id":"levelo_inurba_marseille","lat":43.309076,"lon":5.368465,"is_reserved":false,"is_disabled":false,"rental_uris":{"android":"levelo://app?vid=e164d47b-b9e0-4fcf-9569-ae20ab803805","ios":"levelo://app?vid=e164d47b-b9e0-4fcf-9569-ae20ab803805"},"vehicle_type_id":"4","last_reported":1691525222,"current_range_meters":11200,"station_id":"ce4bgn92rcd13ifvqbvg","pricing_plan_id":"free"},{"bike_id":"752d6334-27a8-440b-ab4f-06f4682fd32f","system_id":"levelo_inurba_marseille","lat":43.3091,"lon":5.36841,"is_reserved":false,"is_disabled":false,"rental_uris":{"android":"levelo://app?vid=752d6334-27a8-440b-ab4f-06f4682fd32f","ios":"levelo://app?vid=752d6334-27a8-440b-ab4f-06f4682fd32f"},"vehicle_type_id":"4","last_reported":1691525222,"current_range_meters":10400,"station_id":"ce4bgn92rcd13ifvqbvg","pricing_plan_id":"free"},{"bike_id":"151d0db6-12ca-4a0b-ad1e-6c74d5a3022a","system_id":"levelo_inurba_marseille","lat":43.30909,"lon":5.36845,"is_reserved":false,"is_disabled":false,"rental_uris":{"android":"levelo://app?vid=151d0db6-12ca-4a0b-ad1e-6c74d5a3022a","ios":"levelo://app?vid=151d0db6-12ca-4a0b-ad1e-6c74d5a3022a"},"vehicle_type_id":"4","last_reported":1691525222,"current_range_meters":0,"station_id":"ce4bgn92rcd13ifvqbvg","pricing_plan_id":"free"},{"bike_id":"1c5aafe6-234e-4ee5-82b6-f55b3d28e9fd","system_id":"levelo_inurba_marseille","lat":43.314811,"lon":5.373103,"is_reserved":false,"is_disabled":false,"rental_uris":{"android":"levelo://app?vid=1c5aafe6-234e-4ee5-82b6-f55b3d28e9fd","ios":"levelo://app?vid=1c5aafe6-234e-4ee5-82b6-f55b3d28e9fd"},"vehicle_type_id":"4","last_reported":1691525222,"current_range_meters":10800,"station_id":"ce4bgt12rcd13ifvqcd0","pricing_plan_id":"free"},{"bike_id":"18818a12-78bd-4a82-9f6d-a11bbf648899","system_id":"levelo_inurba_marseille","lat":43.309039,"lon":5.371797,"is_reserved":false,"is_disabled":false,"rental_uris":{"android":"levelo://app?vid=18818a12-78bd-4a82-9f6d-a11bbf648899","ios":"levelo://app?vid=18818a12-78bd-4a82-9f6d-a11bbf648899"},"vehicle_type_id":"4","last_reported":1691525222,"current_range_meters":18000,"station_id":"ce4bguh2rcd13ifvqckg","pricing_plan_id":"free"},{"bike_id":"b5d292cd-000a-431c-9c31-feefa826beae","system_id":"levelo_inurba_marseille","lat":43.305714,"lon":5.365633,"is_reserved":false,"is_disabled":false,"rental_uris":{"android":"levelo://app?vid=b5d292cd-000a-431c-9c31-feefa826beae","ios":"levelo://app?vid=b5d292cd-000a-431c-9c31-feefa826beae"},"vehicle_type_id":"4","last_reported":1691525222,"current_range_meters":13600,"station_id":"ce4bgs12rcd13ifvqcag","pricing_plan_id":"free"},{"bike_id":"1b655f4a-5ce8-40cd-9016-93b847aff843","system_id":"levelo_inurba_marseille","lat":43.305368,"lon":5.367343,"is_reserved":false,"is_disabled":false,"rental_uris":{"android":"levelo://app?vid=1b655f4a-5ce8-40cd-9016-93b847aff843","ios":"levelo://app?vid=1b655f4a-5ce8-40cd-9016-93b847aff843"},"vehicle_type_id":"4","last_reported":1691525222,"current_range_meters":24400,"station_id":"ce4bgrp2rcd13ifvqc9g","pricing_plan_id":"free"},{"bike_id":"2ce7a0d9-ca46-43ad-b0d9-6582a5f080f7","system_id":"levelo_inurba_marseille","lat":43.30547,"lon":5.36536,"is_reserved":false,"is_disabled":false,"rental_uris":{"android":"levelo://app?vid=2ce7a0d9-ca46-43ad-b0d9-6582a5f080f7","ios":"levelo://app?vid=2ce7a0d9-ca46-43ad-b0d9-6582a5f080f7"},"vehicle_type_id":"4","last_reported":1691525222,"current_range_meters":28000,"station_id":"ce4bgs12rcd13ifvqcag","pricing_plan_id":"free"},{"bike_id":"c4dbbf1b-390d-46a6-95b1-f4bd0e3a5010","system_id":"levelo_inurba_marseille","lat":43.30536,"lon":5.36699,"is_reserved":false,"is_disabled":false,"rental_uris":{"android":"levelo://app?vid=c4dbbf1b-390d-46a6-95b1-f4bd0e3a5010","ios":"levelo://app?vid=c4dbbf1b-390d-46a6-95b1-f4bd0e3a5010"},"vehicle_type_id":"4","last_reported":1691525222,"current_range_meters":29600,"station_id":"ce4bgrp2rcd13ifvqc9g","pricing_plan_id":"free"},{"bike_id":"868ce1a0-b713-4d8f-b917-720180b062ee","system_id":"levelo_inurba_marseille","lat":43.30536,"lon":5.36701,"is_reserved":false,"is_disabled":false,"rental_uris":{"android":"levelo://app?vid=868ce1a0-b713-4d8f-b917-720180b062ee","ios":"levelo://app?vid=868ce1a0-b713-4d8f-b917-720180b062ee"},"vehicle_type_id":"4","last_reported":1691525222,"current_range_meters":18800,"station_id":"ce4bgrp2rcd13ifvqc9g","pricing_plan_id":"free"},{"bike_id":"483e9735-c8ee-4336-9c77-cc1c6c83a1b6","system_id":"levelo_inurba_marseille","lat":43.305714,"lon":5.365633,"is_reserved":false,"is_disabled":false,"rental_uris":{"android":"levelo://app?vid=483e9735-c8ee-4336-9c77-cc1c6c83a1b6","ios":"levelo://app?vid=483e9735-c8ee-4336-9c77-cc1c6c83a1b6"},"vehicle_type_id":"4","last_reported":1691525222,"current_range_meters":5600,"station_id":"ce4bgs12rcd13ifvqcag","pricing_plan_id":"free"},{"bike_id":"f130753c-33bf-4164-9dd9-c2f1d1469706","system_id":"levelo_inurba_marseille","lat":43.305706,"lon":5.365654,"is_reserved":false,"is_disabled":false,"rental_uris":{"android":"levelo://app?vid=f130753c-33bf-4164-9dd9-c2f1d1469706","ios":"levelo://app?vid=f130753c-33bf-4164-9dd9-c2f1d1469706"},"vehicle_type_id":"4","last_reported":1691525222,"current_range_meters":14800,"station_id":"ce4bgs12rcd13ifvqcag","pricing_plan_id":"free"},{"bike_id":"c3954021-17df-4624-b435-893659ce1ae1","system_id":"levelo_inurba_marseille","lat":43.305706,"lon":5.365654,"is_reserved":false,"is_disabled":false,"rental_uris":{"android":"levelo://app?vid=c3954021-17df-4624-b435-893659ce1ae1","ios":"levelo://app?vid=c3954021-17df-4624-b435-893659ce1ae1"},"vehicle_type_id":"4","last_reported":1691525222,"current_range_meters":25200,"station_id":"ce4bgs12rcd13ifvqcag","pricing_plan_id":"free"},{"bike_id":"ac4877f7-6ec7-4291-909a-363baad844ff","system_id":"levelo_inurba_marseille","lat":43.30534,"lon":5.3671,"is_reserved":false,"is_disabled":false,"rental_uris":{"android":"levelo://app?vid=ac4877f7-6ec7-4291-909a-363baad844ff","ios":"levelo://app?vid=ac4877f7-6ec7-4291-909a-363baad844ff"},"vehicle_type_id":"4","last_reported":1691525222,"current_range_meters":4000,"station_id":"ce4bgrp2rcd13ifvqc9g","pricing_plan_id":"free"},{"bike_id":"61741d6d-4c96-42b1-b8b2-de70d1f3e6d5","system_id":"levelo_inurba_marseille","lat":43.305706,"lon":5.365654,"is_reserved":false,"is_disabled":false,"rental_uris":{"android":"levelo://app?vid=61741d6d-4c96-42b1-b8b2-de70d1f3e6d5","ios":"levelo://app?vid=61741d6d-4c96-42b1-b8b2-de70d1f3e6d5"},"vehicle_type_id":"4","last_reported":1691525222,"current_range_meters":11200,"station_id":"ce4bgs12rcd13ifvqcag","pricing_plan_id":"free"},{"bike_id":"fca90b01-39d1-4586-bd23-6e198aa55ef1","system_id":"levelo_inurba_marseille","lat":43.305706,"lon":5.365654,"is_reserved":false,"is_disabled":false,"rental_uris":{"android":"levelo://app?vid=fca90b01-39d1-4586-bd23-6e198aa55ef1","ios":"levelo://app?vid=fca90b01-39d1-4586-bd23-6e198aa55ef1"},"vehicle_type_id":"4","last_reported":1691525222,"current_range_meters":2400,"station_id":"ce4bgs12rcd13ifvqcag","pricing_plan_id":"free"},{"bike_id":"802df51c-cf4a-4b61-b8c4-4263c96ea10e","system_id":"levelo_inurba_marseille","lat":43.31117,"lon":5.37765,"is_reserved":false,"is_disabled":false,"rental_uris":{"android":"levelo://app?vid=802df51c-cf4a-4b61-b8c4-4263c96ea10e","ios":"levelo://app?vid=802df51c-cf4a-4b61-b8c4-4263c96ea10e"},"vehicle_type_id":"4","last_reported":1691525222,"current_range_meters":30000,"station_id":"ce4bgt92rcd13ifvqcg0","pricing_plan_id":"free"},{"bike_id":"b6aaf8b8-df14-40a8-b4c0-c7ec83e5046c","system_id":"levelo_inurba_marseille","lat":43.311131,"lon":5.377651,"is_reserved":false,"is_disabled":false,"rental_uris":{"android":"levelo://app?vid=b6aaf8b8-df14-40a8-b4c0-c7ec83e5046c","ios":"levelo://app?vid=b6aaf8b8-df14-40a8-b4c0-c7ec83e5046c"},"vehicle_type_id":"4","last_reported":1691525222,"current_range_meters":14000,"station_id":"ce4bgt92rcd13ifvqcg0","pricing_plan_id":"free"},{"bike_id":"1d2f1142-4cd2-4fda-b23c-3acc653dcb45","system_id":"levelo_inurba_marseille","lat":43.30315,"lon":5.36896,"is_reserved":false,"is_disabled":false,"rental_uris":{"android":"levelo://app?vid=1d2f1142-4cd2-4fda-b23c-3acc653dcb45","ios":"levelo://app?vid=1d2f1142-4cd2-4fda-b23c-3acc653dcb45"},"vehicle_type_id":"4","last_reported":1691525222,"current_range_meters":0,"station_id":"ce4bgqh2rcd13ifvqc5g","pricing_plan_id":"free"},{"bike_id":"42ade2cc-3135-4355-9453-76dbc84cbb3a","system_id":"levelo_inurba_marseille","lat":43.30309,"lon":5.36878,"is_reserved":false,"is_disabled":false,"rental_uris":{"android":"levelo://app?vid=42ade2cc-3135-4355-9453-76dbc84cbb3a","ios":"levelo://app?vid=42ade2cc-3135-4355-9453-76dbc84cbb3a"},"vehicle_type_id":"4","last_reported":1691525222,"current_range_meters":21200,"station_id":"ce4bgqh2rcd13ifvqc5g","pricing_plan_id":"free"},{"bike_id":"248600f0-a972-4702-8ee3-99ca57c1ede5","system_id":"levelo_inurba_marseille","lat":43.303046,"lon":5.368981,"is_reserved":false,"is_disabled":false,"rental_uris":{"android":"levelo://app?vid=248600f0-a972-4702-8ee3-99ca57c1ede5","ios":"levelo://app?vid=248600f0-a972-4702-8ee3-99ca57c1ede5"},"vehicle_type_id":"4","last_reported":1691525222,"current_range_meters":12800,"station_id":"ce4bgqh2rcd13ifvqc5g","pricing_plan_id":"free"},{"bike_id":"141b1d43-caa5-4391-9ad8-42ab8cca3fd9","system_id":"levelo_inurba_marseille","lat":43.31532,"lon":5.38031,"is_reserved":false,"is_disabled":false,"rental_uris":{"android":"levelo://app?vid=141b1d43-caa5-4391-9ad8-42ab8cca3fd9","ios":"levelo://app?vid=141b1d43-caa5-4391-9ad8-42ab8cca3fd9"},"vehicle_type_id":"4","last_reported":1691525222,"current_range_meters":12800,"station_id":"ce4bhsp2rcd13ifvqi50","pricing_plan_id":"free"},{"bike_id":"53ca3fee-c47b-439c-8d22-bc4f437ab9b7","system_id":"levelo_inurba_marseille","lat":43.30216,"lon":5.36918,"is_reserved":false,"is_disabled":false,"rental_uris":{"android":"levelo://app?vid=53ca3fee-c47b-439c-8d22-bc4f437ab9b7","ios":"levelo://app?vid=53ca3fee-c47b-439c-8d22-bc4f437ab9b7"},"vehicle_type_id":"4","last_reported":1691525222,"current_range_meters":5600,"station_id":"ce4bgqh2rcd13ifvqc5g","pricing_plan_id":"free"},{"bike_id":"34833fcd-84ca-44cf-b88f-d5221e9e682f","system_id":"levelo_inurba_marseille","lat":43.301939,"lon":5.366286,"is_reserved":false,"is_disabled":false,"rental_uris":{"android":"levelo://app?vid=34833fcd-84ca-44cf-b88f-d5221e9e682f","ios":"levelo://app?vid=34833fcd-84ca-44cf-b88f-d5221e9e682f"},"vehicle_type_id":"4","last_reported":1691525222,"current_range_meters":5600,"station_id":"ce4bgrh2rcd13ifvqc8g","pricing_plan_id":"free"},{"bike_id":"499065e4-b5b1-48bb-b290-6177b6f53960","system_id":"levelo_inurba_marseille","lat":43.301939,"lon":5.366286,"is_reserved":false,"is_disabled":false,"rental_uris":{"android":"levelo://app?vid=499065e4-b5b1-48bb-b290-6177b6f53960","ios":"levelo://app?vid=499065e4-b5b1-48bb-b290-6177b6f53960"},"vehicle_type_id":"4","last_reported":1691525222,"current_range_meters":0,"station_id":"ce4bgrh2rcd13ifvqc8g","pricing_plan_id":"free"},{"bike_id":"912371c2-9cb4-456d-8a0e-392879906f3f","system_id":"levelo_inurba_marseille","lat":43.301939,"lon":5.366286,"is_reserved":false,"is_disabled":false,"rental_uris":{"android":"levelo://app?vid=912371c2-9cb4-456d-8a0e-392879906f3f","ios":"levelo://app?vid=912371c2-9cb4-456d-8a0e-392879906f3f"},"vehicle_type_id":"4","last_reported":1691525222,"current_range_meters":0,"station_id":"ce4bgrh2rcd13ifvqc8g","pricing_plan_id":"free"},{"bike_id":"87b5747c-36dc-46c2-af02-fa30d9005f28","system_id":"levelo_inurba_marseille","lat":43.301939,"lon":5.366286,"is_reserved":false,"is_disabled":false,"rental_uris":{"android":"levelo://app?vid=87b5747c-36dc-46c2-af02-fa30d9005f28","ios":"levelo://app?vid=87b5747c-36dc-46c2-af02-fa30d9005f28"},"vehicle_type_id":"4","last_reported":1691525222,"current_range_meters":4000,"station_id":"ce4bgrh2rcd13ifvqc8g","pricing_plan_id":"free"},{"bike_id":"35514417-0cc8-4d69-a4e2-cbc5b3d03b99","system_id":"levelo_inurba_marseille","lat":43.301939,"lon":5.366286,"is_reserved":false,"is_disabled":false,"rental_uris":{"android":"levelo://app?vid=35514417-0cc8-4d69-a4e2-cbc5b3d03b99","ios":"levelo://app?vid=35514417-0cc8-4d69-a4e2-cbc5b3d03b99"},"vehicle_type_id":"4","last_reported":1691525222,"current_range_meters":21600,"station_id":"ce4bgrh2rcd13ifvqc8g","pricing_plan_id":"free"},{"bike_id":"c998e393-48a2-4902-ad53-441c18e60aa7","system_id":"levelo_inurba_marseille","lat":43.304606,"lon":5.379026,"is_reserved":false,"is_disabled":false,"rental_uris":{"android":"levelo://app?vid=c998e393-48a2-4902-ad53-441c18e60aa7","ios":"levelo://app?vid=c998e393-48a2-4902-ad53-441c18e60aa7"},"vehicle_type_id":"4","last_reported":1691525222,"current_range_meters":5600,"station_id":"ce4bgup2rcd13ifvqcn0","pricing_plan_id":"free"},{"bike_id":"481e9929-af33-480f-b23c-7b640cad7970","system_id":"levelo_inurba_marseille","lat":43.302784,"lon":5.377158,"is_reserved":false,"is_disabled":false,"rental_uris":{"android":"levelo://app?vid=481e9929-af33-480f-b23c-7b640cad7970","ios":"levelo://app?vid=481e9929-af33-480f-b23c-7b640cad7970"},"vehicle_type_id":"4","last_reported":1691525222,"current_range_meters":28800,"station_id":"ce4bguh2rcd13ifvqcj0","pricing_plan_id":"free"},{"bike_id":"26f07256-20d9-4797-926b-91a32981ced4","system_id":"levelo_inurba_marseille","lat":43.296935,"lon":5.376544,"is_reserved":false,"is_disabled":false,"rental_uris":{"android":"levelo://app?vid=26f07256-20d9-4797-926b-91a32981ced4","ios":"levelo://app?vid=26f07256-20d9-4797-926b-91a32981ced4"},"vehicle_type_id":"4","last_reported":1691525222,"current_range_meters":10400,"station_id":"ce4bgkh2rcd13ifvqbl0","pricing_plan_id":"free"},{"bike_id":"4eabfee5-fbf4-484f-8bcb-eeacf9a17189","system_id":"levelo_inurba_marseille","lat":43.313571,"lon":5.384829,"is_reserved":false,"is_disabled":false,"rental_uris":{"android":"levelo://app?vid=4eabfee5-fbf4-484f-8bcb-eeacf9a17189","ios":"levelo://app?vid=4eabfee5-fbf4-484f-8bcb-eeacf9a17189"},"vehicle_type_id":"4","last_reported":1691525222,"current_range_meters":24800,"station_id":"ce4bgt92rcd13ifvqcf0","pricing_plan_id":"free"},{"bike_id":"6c5e5172-36f5-45f1-8abf-11e2410c643d","system_id":"levelo_inurba_marseille","lat":43.313571,"lon":5.384829,"is_reserved":false,"is_disabled":false,"rental_uris":{"android":"levelo://app?vid=6c5e5172-36f5-45f1-8abf-11e2410c643d","ios":"levelo://app?vid=6c5e5172-36f5-45f1-8abf-11e2410c643d"},"vehicle_type_id":"4","last_reported":1691525222,"current_range_meters":20400,"station_id":"ce4bgt92rcd13ifvqcf0","pricing_plan_id":"free"},{"bike_id":"f816accd-925b-4549-970e-03b3fe444afd","system_id":"levelo_inurba_marseille","lat":43.313571,"lon":5.384829,"is_reserved":false,"is_disabled":false,"rental_uris":{"android":"levelo://app?vid=f816accd-925b-4549-970e-03b3fe444afd","ios":"levelo://app?vid=f816accd-925b-4549-970e-03b3fe444afd"},"vehicle_type_id":"4","last_reported":1691525222,"current_range_meters":26000,"station_id":"ce4bgt92rcd13ifvqcf0","pricing_plan_id":"free"},{"bike_id":"a6fbd94e-d8af-4d8c-b89a-1c267e012810","system_id":"levelo_inurba_marseille","lat":43.31373,"lon":5.38494,"is_reserved":false,"is_disabled":false,"rental_uris":{"android":"levelo://app?vid=a6fbd94e-d8af-4d8c-b89a-1c267e012810","ios":"levelo://app?vid=a6fbd94e-d8af-4d8c-b89a-1c267e012810"},"vehicle_type_id":"4","last_reported":1691525222,"current_range_meters":16800,"station_id":"ce4bgt92rcd13ifvqcf0","pricing_plan_id":"free"},{"bike_id":"a6d72680-439a-4cf8-8a07-5c5528be2d40","system_id":"levelo_inurba_marseille","lat":43.313571,"lon":5.384829,"is_reserved":false,"is_disabled":false,"rental_uris":{"android":"levelo://app?vid=a6d72680-439a-4cf8-8a07-5c5528be2d40","ios":"levelo://app?vid=a6d72680-439a-4cf8-8a07-5c5528be2d40"},"vehicle_type_id":"4","last_reported":1691525222,"current_range_meters":26800,"station_id":"ce4bgt92rcd13ifvqcf0","pricing_plan_id":"free"},{"bike_id":"7fd64405-f304-4cb6-bac7-8aebaa65416c","system_id":"levelo_inurba_marseille","lat":43.313571,"lon":5.384829,"is_reserved":false,"is_disabled":false,"rental_uris":{"android":"levelo://app?vid=7fd64405-f304-4cb6-bac7-8aebaa65416c","ios":"levelo://app?vid=7fd64405-f304-4cb6-bac7-8aebaa65416c"},"vehicle_type_id":"4","last_reported":1691525222,"current_range_meters":18000,"station_id":"ce4bgt92rcd13ifvqcf0","pricing_plan_id":"free"},{"bike_id":"d301e0ec-d25b-49d6-93a6-41012b3da408","system_id":"levelo_inurba_marseille","lat":43.313571,"lon":5.384829,"is_reserved":false,"is_disabled":false,"rental_uris":{"android":"levelo://app?vid=d301e0ec-d25b-49d6-93a6-41012b3da408","ios":"levelo://app?vid=d301e0ec-d25b-49d6-93a6-41012b3da408"},"vehicle_type_id":"4","last_reported":1691525222,"current_range_meters":18800,"station_id":"ce4bgt92rcd13ifvqcf0","pricing_plan_id":"free"},{"bike_id":"15b2f289-e8da-4c30-a721-2cf15799ace1","system_id":"levelo_inurba_marseille","lat":43.31973,"lon":5.38255,"is_reserved":false,"is_disabled":false,"rental_uris":{"android":"levelo://app?vid=15b2f289-e8da-4c30-a721-2cf15799ace1","ios":"levelo://app?vid=15b2f289-e8da-4c30-a721-2cf15799ace1"},"vehicle_type_id":"4","last_reported":1691525222,"current_range_meters":8000,"station_id":"","pricing_plan_id":"free"},{"bike_id":"50f5a4dd-25af-4e7b-ad4b-0b7dffc08567","system_id":"levelo_inurba_marseille","lat":43.29977,"lon":5.37174,"is_reserved":false,"is_disabled":false,"rental_uris":{"android":"levelo://app?vid=50f5a4dd-25af-4e7b-ad4b-0b7dffc08567","ios":"levelo://app?vid=50f5a4dd-25af-4e7b-ad4b-0b7dffc08567"},"vehicle_type_id":"4","last_reported":1691525222,"current_range_meters":18400,"station_id":"ce4bgr92rcd13ifvqc7g","pricing_plan_id":"free"},{"bike_id":"2d9f8984-21af-4701-9516-df595ea7eb37","system_id":"levelo_inurba_marseille","lat":43.29934,"lon":5.36549,"is_reserved":false,"is_disabled":false,"rental_uris":{"android":"levelo://app?vid=2d9f8984-21af-4701-9516-df595ea7eb37","ios":"levelo://app?vid=2d9f8984-21af-4701-9516-df595ea7eb37"},"vehicle_type_id":"4","last_reported":1691525222,"current_range_meters":29200,"station_id":"ce4bgm92rcd13ifvqbr0","pricing_plan_id":"free"},{"bike_id":"2719b15e-4401-4a00-aeaa-5598099860a7","system_id":"levelo_inurba_marseille","lat":43.29976,"lon":5.37183,"is_reserved":false,"is_disabled":false,"rental_uris":{"android":"levelo://app?vid=2719b15e-4401-4a00-aeaa-5598099860a7","ios":"levelo://app?vid=2719b15e-4401-4a00-aeaa-5598099860a7"},"vehicle_type_id":"4","last_reported":1691525222,"current_range_meters":19600,"station_id":"ce4bgr92rcd13ifvqc7g","pricing_plan_id":"free"},{"bike_id":"b9c9d27d-6677-453f-88b6-9e377170e214","system_id":"levelo_inurba_marseille","lat":43.299222,"lon":5.365554,"is_reserved":false,"is_disabled":false,"rental_uris":{"android":"levelo://app?vid=b9c9d27d-6677-453f-88b6-9e377170e214","ios":"levelo://app?vid=b9c9d27d-6677-453f-88b6-9e377170e214"},"vehicle_type_id":"4","last_reported":1691525222,"current_range_meters":10000,"station_id":"ce4bgm92rcd13ifvqbr0","pricing_plan_id":"free"},{"bike_id":"7d18447e-83ce-43cf-9928-e3a73e697f45","system_id":"levelo_inurba_marseille","lat":43.29973,"lon":5.37174,"is_reserved":false,"is_disabled":false,"rental_uris":{"android":"levelo://app?vid=7d18447e-83ce-43cf-9928-e3a73e697f45","ios":"levelo://app?vid=7d18447e-83ce-43cf-9928-e3a73e697f45"},"vehicle_type_id":"4","last_reported":1691525222,"current_range_meters":10000,"station_id":"ce4bgr92rcd13ifvqc7g","pricing_plan_id":"free"},{"bike_id":"573fa305-2c3b-4c98-b3e3-91e0875efced","system_id":"levelo_inurba_marseille","lat":43.298433,"lon":5.362774,"is_reserved":false,"is_disabled":false,"rental_uris":{"android":"levelo://app?vid=573fa305-2c3b-4c98-b3e3-91e0875efced","ios":"levelo://app?vid=573fa305-2c3b-4c98-b3e3-91e0875efced"},"vehicle_type_id":"4","last_reported":1691525222,"current_range_meters":4400,"station_id":"ce4bgpp2rcd13ifvqc3g","pricing_plan_id":"free"},{"bike_id":"30537d43-af02-4a10-b928-7b9b8cf633d2","system_id":"levelo_inurba_marseille","lat":43.305265,"lon":5.384239,"is_reserved":false,"is_disabled":false,"rental_uris":{"android":"levelo://app?vid=30537d43-af02-4a10-b928-7b9b8cf633d2","ios":"levelo://app?vid=30537d43-af02-4a10-b928-7b9b8cf633d2"},"vehicle_type_id":"4","last_reported":1691525222,"current_range_meters":22800,"station_id":"ce4bgg92rcd13ifvqb30","pricing_plan_id":"free"},{"bike_id":"9e8ad3e5-5105-4cac-b560-c5b7e29d4905","system_id":"levelo_inurba_marseille","lat":43.298433,"lon":5.362774,"is_reserved":false,"is_disabled":false,"rental_uris":{"android":"levelo://app?vid=9e8ad3e5-5105-4cac-b560-c5b7e29d4905","ios":"levelo://app?vid=9e8ad3e5-5105-4cac-b560-c5b7e29d4905"},"vehicle_type_id":"4","last_reported":1691525222,"current_range_meters":7200,"station_id":"ce4bgpp2rcd13ifvqc3g","pricing_plan_id":"free"},{"bike_id":"29eb9766-8f87-46dd-ac39-f87427872535","system_id":"levelo_inurba_marseille","lat":43.298433,"lon":5.362774,"is_reserved":false,"is_disabled":false,"rental_uris":{"android":"levelo://app?vid=29eb9766-8f87-46dd-ac39-f87427872535","ios":"levelo://app?vid=29eb9766-8f87-46dd-ac39-f87427872535"},"vehicle_type_id":"4","last_reported":1691525222,"current_range_meters":15200,"station_id":"ce4bgpp2rcd13ifvqc3g","pricing_plan_id":"free"},{"bike_id":"94475801-1f14-413c-8135-dd1648d4dec3","system_id":"levelo_inurba_marseille","lat":43.299243,"lon":5.37481,"is_reserved":false,"is_disabled":false,"rental_uris":{"android":"levelo://app?vid=94475801-1f14-413c-8135-dd1648d4dec3","ios":"levelo://app?vid=94475801-1f14-413c-8135-dd1648d4dec3"},"vehicle_type_id":"4","last_reported":1691525222,"current_range_meters":9600,"station_id":"ce4bgjh2rcd13ifvqbg0","pricing_plan_id":"free"},{"bike_id":"3a7458ad-92dd-4862-9701-6f64d9b0b349","system_id":"levelo_inurba_marseille","lat":43.299243,"lon":5.37481,"is_reserved":false,"is_disabled":false,"rental_uris":{"android":"levelo://app?vid=3a7458ad-92dd-4862-9701-6f64d9b0b349","ios":"levelo://app?vid=3a7458ad-92dd-4862-9701-6f64d9b0b349"},"vehicle_type_id":"4","last_reported":1691525222,"current_range_meters":22000,"station_id":"ce4bgjh2rcd13ifvqbg0","pricing_plan_id":"free"},{"bike_id":"b8707318-f39d-4932-b61c-de56df164483","system_id":"levelo_inurba_marseille","lat":43.299243,"lon":5.374807,"is_reserved":false,"is_disabled":false,"rental_uris":{"android":"levelo://app?vid=b8707318-f39d-4932-b61c-de56df164483","ios":"levelo://app?vid=b8707318-f39d-4932-b61c-de56df164483"},"vehicle_type_id":"4","last_reported":1691525222,"current_range_meters":14800,"station_id":"ce4bgjh2rcd13ifvqbg0","pricing_plan_id":"free"},{"bike_id":"601a6246-e8d7-421e-8257-0c3e8d161742","system_id":"levelo_inurba_marseille","lat":43.311722,"lon":5.387247,"is_reserved":false,"is_disabled":false,"rental_uris":{"android":"levelo://app?vid=601a6246-e8d7-421e-8257-0c3e8d161742","ios":"levelo://app?vid=601a6246-e8d7-421e-8257-0c3e8d161742"},"vehicle_type_id":"4","last_reported":1691525222,"current_range_meters":25200,"station_id":"ce4bgv12rcd13ifvqcp0","pricing_plan_id":"free"},{"bike_id":"dcac5ce6-a0a5-4c26-bcbc-c94ca7155713","system_id":"levelo_inurba_marseille","lat":43.299243,"lon":5.37481,"is_reserved":false,"is_disabled":false,"rental_uris":{"android":"levelo://app?vid=dcac5ce6-a0a5-4c26-bcbc-c94ca7155713","ios":"levelo://app?vid=dcac5ce6-a0a5-4c26-bcbc-c94ca7155713"},"vehicle_type_id":"4","last_reported":1691525222,"current_range_meters":4000,"station_id":"ce4bgjh2rcd13ifvqbg0","pricing_plan_id":"free"},{"bike_id":"b70228ee-6691-459d-b1eb-bbeaf265f554","system_id":"levelo_inurba_marseille","lat":43.311722,"lon":5.387247,"is_reserved":false,"is_disabled":false,"rental_uris":{"android":"levelo://app?vid=b70228ee-6691-459d-b1eb-bbeaf265f554","ios":"levelo://app?vid=b70228ee-6691-459d-b1eb-bbeaf265f554"},"vehicle_type_id":"4","last_reported":1691525222,"current_range_meters":28000,"station_id":"ce4bgv12rcd13ifvqcp0","pricing_plan_id":"free"},{"bike_id":"0481b73c-9660-469b-8b98-11d7deaad257","system_id":"levelo_inurba_marseille","lat":43.297794,"lon":5.370888,"is_reserved":false,"is_disabled":false,"rental_uris":{"android":"levelo://app?vid=0481b73c-9660-469b-8b98-11d7deaad257","ios":"levelo://app?vid=0481b73c-9660-469b-8b98-11d7deaad257"},"vehicle_type_id":"4","last_reported":1691525222,"current_range_meters":10400,"station_id":"ce4bgop2rcd13ifvqc1g","pricing_plan_id":"free"},{"bike_id":"3a574de3-b31f-4b53-9fcf-1545808be757","system_id":"levelo_inurba_marseille","lat":43.322872,"lon":5.382756,"is_reserved":false,"is_disabled":false,"rental_uris":{"android":"levelo://app?vid=3a574de3-b31f-4b53-9fcf-1545808be757","ios":"levelo://app?vid=3a574de3-b31f-4b53-9fcf-1545808be757"},"vehicle_type_id":"4","last_reported":1691525222,"current_range_meters":29600,"station_id":"ce4bhr12rcd13ifvqhqg","pricing_plan_id":"free"},{"bike_id":"af5f0ba3-5944-49d9-8a5e-09dfd05d27f3","system_id":"levelo_inurba_marseille","lat":43.32286,"lon":5.3827,"is_reserved":false,"is_disabled":false,"rental_uris":{"android":"levelo://app?vid=af5f0ba3-5944-49d9-8a5e-09dfd05d27f3","ios":"levelo://app?vid=af5f0ba3-5944-49d9-8a5e-09dfd05d27f3"},"vehicle_type_id":"4","last_reported":1691525222,"current_range_meters":30400,"station_id":"ce4bhr12rcd13ifvqhqg","pricing_plan_id":"free"},{"bike_id":"31fbeef0-3ea6-4181-b554-9ffe87064c33","system_id":"levelo_inurba_marseille","lat":43.322872,"lon":5.382756,"is_reserved":false,"is_disabled":false,"rental_uris":{"android":"levelo://app?vid=31fbeef0-3ea6-4181-b554-9ffe87064c33","ios":"levelo://app?vid=31fbeef0-3ea6-4181-b554-9ffe87064c33"},"vehicle_type_id":"4","last_reported":1691525222,"current_range_meters":31600,"station_id":"ce4bhr12rcd13ifvqhqg","pricing_plan_id":"free"},{"bike_id":"dd789220-e7b5-42c1-b9dc-dc4243148021","system_id":"levelo_inurba_marseille","lat":43.29716,"lon":5.36621,"is_reserved":false,"is_disabled":false,"rental_uris":{"android":"levelo://app?vid=dd789220-e7b5-42c1-b9dc-dc4243148021","ios":"levelo://app?vid=dd789220-e7b5-42c1-b9dc-dc4243148021"},"vehicle_type_id":"4","last_reported":1691525222,"current_range_meters":29200,"station_id":"ce4bgn12rcd13ifvqbt0","pricing_plan_id":"free"},{"bike_id":"4f22e466-3364-4d8b-bf8c-07650eade772","system_id":"levelo_inurba_marseille","lat":43.297163,"lon":5.365866,"is_reserved":false,"is_disabled":false,"rental_uris":{"android":"levelo://app?vid=4f22e466-3364-4d8b-bf8c-07650eade772","ios":"levelo://app?vid=4f22e466-3364-4d8b-bf8c-07650eade772"},"vehicle_type_id":"4","last_reported":1691525222,"current_range_meters":8400,"station_id":"ce4bgn12rcd13ifvqbt0","pricing_plan_id":"free"},{"bike_id":"2675ca2e-955f-40e9-b0f2-93bb745f65bb","system_id":"levelo_inurba_marseille","lat":43.296131,"lon":5.370791,"is_reserved":false,"is_disabled":false,"rental_uris":{"android":"levelo://app?vid=2675ca2e-955f-40e9-b0f2-93bb745f65bb","ios":"levelo://app?vid=2675ca2e-955f-40e9-b0f2-93bb745f65bb"},"vehicle_type_id":"4","last_reported":1691525222,"current_range_meters":19200,"station_id":"ce4bgnh2rcd13ifvqc0g","pricing_plan_id":"free"},{"bike_id":"3fc93453-f54e-48f9-b038-f14c691cbeeb","system_id":"levelo_inurba_marseille","lat":43.29573,"lon":5.367355,"is_reserved":false,"is_disabled":false,"rental_uris":{"android":"levelo://app?vid=3fc93453-f54e-48f9-b038-f14c691cbeeb","ios":"levelo://app?vid=3fc93453-f54e-48f9-b038-f14c691cbeeb"},"vehicle_type_id":"4","last_reported":1691525222,"current_range_meters":27600,"station_id":"ce4bgph2rcd13ifvqc2g","pricing_plan_id":"free"},{"bike_id":"7a005864-3a45-46e0-b606-5f85c981ddd1","system_id":"levelo_inurba_marseille","lat":43.29581,"lon":5.36753,"is_reserved":false,"is_disabled":false,"rental_uris":{"android":"levelo://app?vid=7a005864-3a45-46e0-b606-5f85c981ddd1","ios":"levelo://app?vid=7a005864-3a45-46e0-b606-5f85c981ddd1"},"vehicle_type_id":"4","last_reported":1691525222,"current_range_meters":16800,"station_id":"ce4bgph2rcd13ifvqc2g","pricing_plan_id":"free"},{"bike_id":"c1fdb04c-4947-4163-a0e2-5aa2d4af8817","system_id":"levelo_inurba_marseille","lat":43.29573,"lon":5.367355,"is_reserved":false,"is_disabled":false,"rental_uris":{"android":"levelo://app?vid=c1fdb04c-4947-4163-a0e2-5aa2d4af8817","ios":"levelo://app?vid=c1fdb04c-4947-4163-a0e2-5aa2d4af8817"},"vehicle_type_id":"4","last_reported":1691525222,"current_range_meters":24800,"station_id":"ce4bgph2rcd13ifvqc2g","pricing_plan_id":"free"},{"bike_id":"027df140-dbd7-4198-a3f7-040e0c36fe1e","system_id":"levelo_inurba_marseille","lat":43.29573,"lon":5.367355,"is_reserved":false,"is_disabled":false,"rental_uris":{"android":"levelo://app?vid=027df140-dbd7-4198-a3f7-040e0c36fe1e","ios":"levelo://app?vid=027df140-dbd7-4198-a3f7-040e0c36fe1e"},"vehicle_type_id":"4","last_reported":1691525222,"current_range_meters":9600,"station_id":"ce4bgph2rcd13ifvqc2g","pricing_plan_id":"free"},{"bike_id":"5e6c5881-3edd-45b0-a36d-77d57a01b320","system_id":"levelo_inurba_marseille","lat":43.296921,"lon":5.376579,"is_reserved":false,"is_disabled":false,"rental_uris":{"android":"levelo://app?vid=5e6c5881-3edd-45b0-a36d-77d57a01b320","ios":"levelo://app?vid=5e6c5881-3edd-45b0-a36d-77d57a01b320"},"vehicle_type_id":"4","last_reported":1691525222,"current_range_meters":10000,"station_id":"ce4bgkh2rcd13ifvqbl0","pricing_plan_id":"free"},{"bike_id":"2a9fddb1-792f-482b-b0bf-f2277f46d65b","system_id":"levelo_inurba_marseille","lat":43.29573,"lon":5.367355,"is_reserved":false,"is_disabled":false,"rental_uris":{"android":"levelo://app?vid=2a9fddb1-792f-482b-b0bf-f2277f46d65b","ios":"levelo://app?vid=2a9fddb1-792f-482b-b0bf-f2277f46d65b"},"vehicle_type_id":"4","last_reported":1691525222,"current_range_meters":4800,"station_id":"ce4bgph2rcd13ifvqc2g","pricing_plan_id":"free"},{"bike_id":"0abf4aa5-c05d-4786-8ae3-4de1ea45eb9d","system_id":"levelo_inurba_marseille","lat":43.296935,"lon":5.376544,"is_reserved":false,"is_disabled":false,"rental_uris":{"android":"levelo://app?vid=0abf4aa5-c05d-4786-8ae3-4de1ea45eb9d","ios":"levelo://app?vid=0abf4aa5-c05d-4786-8ae3-4de1ea45eb9d"},"vehicle_type_id":"4","last_reported":1691525222,"current_range_meters":5200,"station_id":"ce4bgkh2rcd13ifvqbl0","pricing_plan_id":"free"},{"bike_id":"4f4fbc40-267a-41eb-96f8-8e4e1d9067b5","system_id":"levelo_inurba_marseille","lat":43.299028,"lon":5.381509,"is_reserved":false,"is_disabled":false,"rental_uris":{"android":"levelo://app?vid=4f4fbc40-267a-41eb-96f8-8e4e1d9067b5","ios":"levelo://app?vid=4f4fbc40-267a-41eb-96f8-8e4e1d9067b5"},"vehicle_type_id":"4","last_reported":1691525222,"current_range_meters":400,"station_id":"ce4bgj12rcd13ifvqbc0","pricing_plan_id":"free"},{"bike_id":"1d062265-22ac-4cf9-bce0-d2fd482449d9","system_id":"levelo_inurba_marseille","lat":43.296921,"lon":5.376579,"is_reserved":false,"is_disabled":false,"rental_uris":{"android":"levelo://app?vid=1d062265-22ac-4cf9-bce0-d2fd482449d9","ios":"levelo://app?vid=1d062265-22ac-4cf9-bce0-d2fd482449d9"},"vehicle_type_id":"4","last_reported":1691525222,"current_range_meters":12000,"station_id":"ce4bgkh2rcd13ifvqbl0","pricing_plan_id":"free"},{"bike_id":"25d420e6-ae17-4de2-a18c-0b2d3879c9bd","system_id":"levelo_inurba_marseille","lat":43.309589,"lon":5.390258,"is_reserved":false,"is_disabled":false,"rental_uris":{"android":"levelo://app?vid=25d420e6-ae17-4de2-a18c-0b2d3879c9bd","ios":"levelo://app?vid=25d420e6-ae17-4de2-a18c-0b2d3879c9bd"},"vehicle_type_id":"4","last_reported":1691525222,"current_range_meters":30400,"station_id":"ce4bgup2rcd13ifvqco0","pricing_plan_id":"free"},{"bike_id":"6f27de8a-42d7-45b5-b5de-815bde7daf80","system_id":"levelo_inurba_marseille","lat":43.317557,"lon":5.390173,"is_reserved":false,"is_disabled":false,"rental_uris":{"android":"levelo://app?vid=6f27de8a-42d7-45b5-b5de-815bde7daf80","ios":"levelo://app?vid=6f27de8a-42d7-45b5-b5de-815bde7daf80"},"vehicle_type_id":"4","last_reported":1691525222,"current_range_meters":26000,"station_id":"ce4bhqp2rcd13ifvqhng","pricing_plan_id":"free"},{"bike_id":"09cf3900-3e08-48e3-b78e-dfcce21f5287","system_id":"levelo_inurba_marseille","lat":43.3176,"lon":5.39006,"is_reserved":false,"is_disabled":false,"rental_uris":{"android":"levelo://app?vid=09cf3900-3e08-48e3-b78e-dfcce21f5287","ios":"levelo://app?vid=09cf3900-3e08-48e3-b78e-dfcce21f5287"},"vehicle_type_id":"4","last_reported":1691525222,"current_range_meters":24800,"station_id":"","pricing_plan_id":"free"},{"bike_id":"935fb79d-6402-48a2-9869-603b36919d06","system_id":"levelo_inurba_marseille","lat":43.298037,"lon":5.381066,"is_reserved":false,"is_disabled":false,"rental_uris":{"android":"levelo://app?vid=935fb79d-6402-48a2-9869-603b36919d06","ios":"levelo://app?vid=935fb79d-6402-48a2-9869-603b36919d06"},"vehicle_type_id":"4","last_reported":1691525222,"current_range_meters":26800,"station_id":"ce4bgip2rcd13ifvqbb0","pricing_plan_id":"free"},{"bike_id":"7f0926cb-bfdb-4f7b-8a88-fe2272d6a497","system_id":"levelo_inurba_marseille","lat":43.298037,"lon":5.381066,"is_reserved":false,"is_disabled":false,"rental_uris":{"android":"levelo://app?vid=7f0926cb-bfdb-4f7b-8a88-fe2272d6a497","ios":"levelo://app?vid=7f0926cb-bfdb-4f7b-8a88-fe2272d6a497"},"vehicle_type_id":"4","last_reported":1691525222,"current_range_meters":12000,"station_id":"ce4bgip2rcd13ifvqbb0","pricing_plan_id":"free"},{"bike_id":"bc49832d-175c-4c94-969e-f27a19bec8f8","system_id":"levelo_inurba_marseille","lat":43.298037,"lon":5.381066,"is_reserved":false,"is_disabled":false,"rental_uris":{"android":"levelo://app?vid=bc49832d-175c-4c94-969e-f27a19bec8f8","ios":"levelo://app?vid=bc49832d-175c-4c94-969e-f27a19bec8f8"},"vehicle_type_id":"4","last_reported":1691525222,"current_range_meters":0,"station_id":"ce4bgip2rcd13ifvqbb0","pricing_plan_id":"free"},{"bike_id":"a4df99ce-0488-49dd-a888-94686f562e88","system_id":"levelo_inurba_marseille","lat":43.295748,"lon":5.37522,"is_reserved":false,"is_disabled":false,"rental_uris":{"android":"levelo://app?vid=a4df99ce-0488-49dd-a888-94686f562e88","ios":"levelo://app?vid=a4df99ce-0488-49dd-a888-94686f562e88"},"vehicle_type_id":"4","last_reported":1691525222,"current_range_meters":31200,"station_id":"ce4bgh92rcd13ifvqb50","pricing_plan_id":"free"},{"bike_id":"77ecac01-81b3-4f84-85e6-a61bd56b1500","system_id":"levelo_inurba_marseille","lat":43.30431,"lon":5.38894,"is_reserved":false,"is_disabled":false,"rental_uris":{"android":"levelo://app?vid=77ecac01-81b3-4f84-85e6-a61bd56b1500","ios":"levelo://app?vid=77ecac01-81b3-4f84-85e6-a61bd56b1500"},"vehicle_type_id":"4","last_reported":1691525222,"current_range_meters":17200,"station_id":"ce4bgk12rcd13ifvqbi0","pricing_plan_id":"free"},{"bike_id":"0696a05c-0b28-4d31-a659-f57a7056d5b1","system_id":"levelo_inurba_marseille","lat":43.296277,"lon":5.377108,"is_reserved":false,"is_disabled":false,"rental_uris":{"android":"levelo://app?vid=0696a05c-0b28-4d31-a659-f57a7056d5b1","ios":"levelo://app?vid=0696a05c-0b28-4d31-a659-f57a7056d5b1"},"vehicle_type_id":"4","last_reported":1691525222,"current_range_meters":27600,"station_id":"ce4bgi92rcd13ifvqb90","pricing_plan_id":"free"},{"bike_id":"e89c3ea9-6b3c-4b72-a2ba-93153e46acf5","system_id":"levelo_inurba_marseille","lat":43.32351,"lon":5.38702,"is_reserved":false,"is_disabled":false,"rental_uris":{"android":"levelo://app?vid=e89c3ea9-6b3c-4b72-a2ba-93153e46acf5","ios":"levelo://app?vid=e89c3ea9-6b3c-4b72-a2ba-93153e46acf5"},"vehicle_type_id":"4","last_reported":1691525222,"current_range_meters":2000,"station_id":"","pricing_plan_id":"free"},{"bike_id":"da437c44-9897-4062-a70f-a64790ae10e8","system_id":"levelo_inurba_marseille","lat":43.296263,"lon":5.377094,"is_reserved":false,"is_disabled":false,"rental_uris":{"android":"levelo://app?vid=da437c44-9897-4062-a70f-a64790ae10e8","ios":"levelo://app?vid=da437c44-9897-4062-a70f-a64790ae10e8"},"vehicle_type_id":"4","last_reported":1691525222,"current_range_meters":9200,"station_id":"ce4bgi92rcd13ifvqb90","pricing_plan_id":"free"},{"bike_id":"377d7882-7b10-4075-a772-46efb9f1a154","system_id":"levelo_inurba_marseille","lat":43.296263,"lon":5.377094,"is_reserved":false,"is_disabled":false,"rental_uris":{"android":"levelo://app?vid=377d7882-7b10-4075-a772-46efb9f1a154","ios":"levelo://app?vid=377d7882-7b10-4075-a772-46efb9f1a154"},"vehicle_type_id":"4","last_reported":1691525222,"current_range_meters":0,"station_id":"ce4bgi92rcd13ifvqb90","pricing_plan_id":"free"},{"bike_id":"dd3ee3c7-ec91-4822-9bf3-cb8ea9a0e41f","system_id":"levelo_inurba_marseille","lat":43.296263,"lon":5.377094,"is_reserved":false,"is_disabled":false,"rental_uris":{"android":"levelo://app?vid=dd3ee3c7-ec91-4822-9bf3-cb8ea9a0e41f","ios":"levelo://app?vid=dd3ee3c7-ec91-4822-9bf3-cb8ea9a0e41f"},"vehicle_type_id":"4","last_reported":1691525222,"current_range_meters":27200,"station_id":"ce4bgi92rcd13ifvqb90","pricing_plan_id":"free"},{"bike_id":"e76dadcf-b55f-44f4-b261-be1931c0b99f","system_id":"levelo_inurba_marseille","lat":43.299707,"lon":5.384859,"is_reserved":false,"is_disabled":false,"rental_uris":{"android":"levelo://app?vid=e76dadcf-b55f-44f4-b261-be1931c0b99f","ios":"levelo://app?vid=e76dadcf-b55f-44f4-b261-be1931c0b99f"},"vehicle_type_id":"4","last_reported":1691525222,"current_range_meters":13200,"station_id":"ce4bgj92rcd13ifvqbd0","pricing_plan_id":"free"},{"bike_id":"32b2f3a1-ccfd-452a-adc9-3ba2ea20d3f0","system_id":"levelo_inurba_marseille","lat":43.299707,"lon":5.384859,"is_reserved":false,"is_disabled":false,"rental_uris":{"android":"levelo://app?vid=32b2f3a1-ccfd-452a-adc9-3ba2ea20d3f0","ios":"levelo://app?vid=32b2f3a1-ccfd-452a-adc9-3ba2ea20d3f0"},"vehicle_type_id":"4","last_reported":1691525222,"current_range_meters":0,"station_id":"ce4bgj92rcd13ifvqbd0","pricing_plan_id":"free"},{"bike_id":"348c9251-7a8b-4c64-9a0a-1358bb5d47c6","system_id":"levelo_inurba_marseille","lat":43.29976,"lon":5.38486,"is_reserved":false,"is_disabled":false,"rental_uris":{"android":"levelo://app?vid=348c9251-7a8b-4c64-9a0a-1358bb5d47c6","ios":"levelo://app?vid=348c9251-7a8b-4c64-9a0a-1358bb5d47c6"},"vehicle_type_id":"4","last_reported":1691525222,"current_range_meters":18000,"station_id":"ce4bgj92rcd13ifvqbd0","pricing_plan_id":"free"},{"bike_id":"19f2f15f-cb9a-47f9-9a0a-1a92f553bda8","system_id":"levelo_inurba_marseille","lat":43.299707,"lon":5.384859,"is_reserved":false,"is_disabled":false,"rental_uris":{"android":"levelo://app?vid=19f2f15f-cb9a-47f9-9a0a-1a92f553bda8","ios":"levelo://app?vid=19f2f15f-cb9a-47f9-9a0a-1a92f553bda8"},"vehicle_type_id":"4","last_reported":1691525222,"current_range_meters":16400,"station_id":"ce4bgj92rcd13ifvqbd0","pricing_plan_id":"free"},{"bike_id":"7c20b070-df0f-415a-842c-9d3995a8ee69","system_id":"levelo_inurba_marseille","lat":43.299707,"lon":5.384859,"is_reserved":false,"is_disabled":false,"rental_uris":{"android":"levelo://app?vid=7c20b070-df0f-415a-842c-9d3995a8ee69","ios":"levelo://app?vid=7c20b070-df0f-415a-842c-9d3995a8ee69"},"vehicle_type_id":"4","last_reported":1691525222,"current_range_meters":13200,"station_id":"ce4bgj92rcd13ifvqbd0","pricing_plan_id":"free"},{"bike_id":"db96a325-4fff-4ead-85b8-74b763419b45","system_id":"levelo_inurba_marseille","lat":43.29969,"lon":5.38489,"is_reserved":false,"is_disabled":false,"rental_uris":{"android":"levelo://app?vid=db96a325-4fff-4ead-85b8-74b763419b45","ios":"levelo://app?vid=db96a325-4fff-4ead-85b8-74b763419b45"},"vehicle_type_id":"4","last_reported":1691525222,"current_range_meters":27600,"station_id":"ce4bgj92rcd13ifvqbd0","pricing_plan_id":"free"},{"bike_id":"7b6894eb-37d9-418b-b0a6-82330441f1c9","system_id":"levelo_inurba_marseille","lat":43.299717,"lon":5.384845,"is_reserved":false,"is_disabled":false,"rental_uris":{"android":"levelo://app?vid=7b6894eb-37d9-418b-b0a6-82330441f1c9","ios":"levelo://app?vid=7b6894eb-37d9-418b-b0a6-82330441f1c9"},"vehicle_type_id":"4","last_reported":1691525222,"current_range_meters":400,"station_id":"ce4bgj92rcd13ifvqbd0","pricing_plan_id":"free"},{"bike_id":"d343b214-9fd8-4983-9f92-5a92418f14a5","system_id":"levelo_inurba_marseille","lat":43.32363,"lon":5.38883,"is_reserved":false,"is_disabled":false,"rental_uris":{"android":"levelo://app?vid=d343b214-9fd8-4983-9f92-5a92418f14a5","ios":"levelo://app?vid=d343b214-9fd8-4983-9f92-5a92418f14a5"},"vehicle_type_id":"4","last_reported":1691525222,"current_range_meters":8000,"station_id":"ce4bhqp2rcd13ifvqhog","pricing_plan_id":"free"},{"bike_id":"89167c46-19fb-4428-be8d-a2f6f1964079","system_id":"levelo_inurba_marseille","lat":43.32364,"lon":5.38883,"is_reserved":false,"is_disabled":false,"rental_uris":{"android":"levelo://app?vid=89167c46-19fb-4428-be8d-a2f6f1964079","ios":"levelo://app?vid=89167c46-19fb-4428-be8d-a2f6f1964079"},"vehicle_type_id":"4","last_reported":1691525222,"current_range_meters":15600,"station_id":"ce4bhqp2rcd13ifvqhog","pricing_plan_id":"free"},{"bike_id":"6b7eff1a-606d-42da-bbd2-faf1d71b2833","system_id":"levelo_inurba_marseille","lat":43.32368,"lon":5.38881,"is_reserved":false,"is_disabled":false,"rental_uris":{"android":"levelo://app?vid=6b7eff1a-606d-42da-bbd2-faf1d71b2833","ios":"levelo://app?vid=6b7eff1a-606d-42da-bbd2-faf1d71b2833"},"vehicle_type_id":"4","last_reported":1691525222,"current_range_meters":27200,"station_id":"ce4bhqp2rcd13ifvqhog","pricing_plan_id":"free"},{"bike_id":"8622645b-3c96-4fdf-8cf6-da71833282c8","system_id":"levelo_inurba_marseille","lat":43.32367,"lon":5.388836,"is_reserved":false,"is_disabled":false,"rental_uris":{"android":"levelo://app?vid=8622645b-3c96-4fdf-8cf6-da71833282c8","ios":"levelo://app?vid=8622645b-3c96-4fdf-8cf6-da71833282c8"},"vehicle_type_id":"4","last_reported":1691525222,"current_range_meters":28800,"station_id":"ce4bhqp2rcd13ifvqhog","pricing_plan_id":"free"},{"bike_id":"1ea5fdc5-3897-4ff2-9a70-bf6391fccfde","system_id":"levelo_inurba_marseille","lat":43.32366,"lon":5.38884,"is_reserved":false,"is_disabled":false,"rental_uris":{"android":"levelo://app?vid=1ea5fdc5-3897-4ff2-9a70-bf6391fccfde","ios":"levelo://app?vid=1ea5fdc5-3897-4ff2-9a70-bf6391fccfde"},"vehicle_type_id":"4","last_reported":1691525222,"current_range_meters":28800,"station_id":"ce4bhqp2rcd13ifvqhog","pricing_plan_id":"free"},{"bike_id":"76c391ee-2205-4639-a6be-a8561f89affc","system_id":"levelo_inurba_marseille","lat":43.32367,"lon":5.388836,"is_reserved":false,"is_disabled":false,"rental_uris":{"android":"levelo://app?vid=76c391ee-2205-4639-a6be-a8561f89affc","ios":"levelo://app?vid=76c391ee-2205-4639-a6be-a8561f89affc"},"vehicle_type_id":"4","last_reported":1691525222,"current_range_meters":22000,"station_id":"ce4bhqp2rcd13ifvqhog","pricing_plan_id":"free"},{"bike_id":"04393ddb-228a-4341-98f6-4cd9a60e6083","system_id":"levelo_inurba_marseille","lat":43.32367,"lon":5.388836,"is_reserved":false,"is_disabled":false,"rental_uris":{"android":"levelo://app?vid=04393ddb-228a-4341-98f6-4cd9a60e6083","ios":"levelo://app?vid=04393ddb-228a-4341-98f6-4cd9a60e6083"},"vehicle_type_id":"4","last_reported":1691525222,"current_range_meters":25200,"station_id":"ce4bhqp2rcd13ifvqhog","pricing_plan_id":"free"},{"bike_id":"74dadc79-5b09-46d4-b1f2-8afef6601364","system_id":"levelo_inurba_marseille","lat":43.32372,"lon":5.38883,"is_reserved":false,"is_disabled":false,"rental_uris":{"android":"levelo://app?vid=74dadc79-5b09-46d4-b1f2-8afef6601364","ios":"levelo://app?vid=74dadc79-5b09-46d4-b1f2-8afef6601364"},"vehicle_type_id":"4","last_reported":1691525222,"current_range_meters":29600,"station_id":"ce4bhqp2rcd13ifvqhog","pricing_plan_id":"free"},{"bike_id":"ad1699d4-ab13-440b-9a4e-1687c2d3524b","system_id":"levelo_inurba_marseille","lat":43.29602,"lon":5.381084,"is_reserved":false,"is_disabled":false,"rental_uris":{"android":"levelo://app?vid=ad1699d4-ab13-440b-9a4e-1687c2d3524b","ios":"levelo://app?vid=ad1699d4-ab13-440b-9a4e-1687c2d3524b"},"vehicle_type_id":"4","last_reported":1691525222,"current_range_meters":8800,"station_id":"ce4bgl12rcd13ifvqbo0","pricing_plan_id":"free"},{"bike_id":"7dfba80e-1538-461a-8e2b-40c497ef1a70","system_id":"levelo_inurba_marseille","lat":43.29602,"lon":5.381084,"is_reserved":false,"is_disabled":false,"rental_uris":{"android":"levelo://app?vid=7dfba80e-1538-461a-8e2b-40c497ef1a70","ios":"levelo://app?vid=7dfba80e-1538-461a-8e2b-40c497ef1a70"},"vehicle_type_id":"4","last_reported":1691525222,"current_range_meters":19200,"station_id":"ce4bgl12rcd13ifvqbo0","pricing_plan_id":"free"},{"bike_id":"43c8fde7-3054-459c-a580-ba570d08992c","system_id":"levelo_inurba_marseille","lat":43.292749,"lon":5.368402,"is_reserved":false,"is_disabled":false,"rental_uris":{"android":"levelo://app?vid=43c8fde7-3054-459c-a580-ba570d08992c","ios":"levelo://app?vid=43c8fde7-3054-459c-a580-ba570d08992c"},"vehicle_type_id":"4","last_reported":1691525222,"current_range_meters":11600,"station_id":"ce4bhbp2rcd13ifvqesg","pricing_plan_id":"free"},{"bike_id":"a804f8ac-bdb1-412b-a874-68186ee8dae5","system_id":"levelo_inurba_marseille","lat":43.292749,"lon":5.368402,"is_reserved":false,"is_disabled":false,"rental_uris":{"android":"levelo://app?vid=a804f8ac-bdb1-412b-a874-68186ee8dae5","ios":"levelo://app?vid=a804f8ac-bdb1-412b-a874-68186ee8dae5"},"vehicle_type_id":"4","last_reported":1691525222,"current_range_meters":4000,"station_id":"ce4bhbp2rcd13ifvqesg","pricing_plan_id":"free"},{"bike_id":"cd794a50-e24c-4fe4-9f74-65c8c39a503b","system_id":"levelo_inurba_marseille","lat":43.293249,"lon":5.371578,"is_reserved":false,"is_disabled":false,"rental_uris":{"android":"levelo://app?vid=cd794a50-e24c-4fe4-9f74-65c8c39a503b","ios":"levelo://app?vid=cd794a50-e24c-4fe4-9f74-65c8c39a503b"},"vehicle_type_id":"4","last_reported":1691525222,"current_range_meters":2000,"station_id":"ce4bgh92rcd13ifvqb40","pricing_plan_id":"free"},{"bike_id":"93b59529-3cbc-4763-83ff-a515d25a1a58","system_id":"levelo_inurba_marseille","lat":43.29302,"lon":5.37175,"is_reserved":false,"is_disabled":false,"rental_uris":{"android":"levelo://app?vid=93b59529-3cbc-4763-83ff-a515d25a1a58","ios":"levelo://app?vid=93b59529-3cbc-4763-83ff-a515d25a1a58"},"vehicle_type_id":"4","last_reported":1691525222,"current_range_meters":10400,"station_id":"ce4bgh92rcd13ifvqb40","pricing_plan_id":"free"},{"bike_id":"2fa9d006-cf14-4cc4-8655-3a34d1a78f2e","system_id":"levelo_inurba_marseille","lat":43.292749,"lon":5.368398,"is_reserved":false,"is_disabled":false,"rental_uris":{"android":"levelo://app?vid=2fa9d006-cf14-4cc4-8655-3a34d1a78f2e","ios":"levelo://app?vid=2fa9d006-cf14-4cc4-8655-3a34d1a78f2e"},"vehicle_type_id":"4","last_reported":1691525222,"current_range_meters":19200,"station_id":"ce4bhbp2rcd13ifvqesg","pricing_plan_id":"free"},{"bike_id":"dbe406a0-e31d-4174-932b-0d8d584d17c2","system_id":"levelo_inurba_marseille","lat":43.292749,"lon":5.368398,"is_reserved":false,"is_disabled":false,"rental_uris":{"android":"levelo://app?vid=dbe406a0-e31d-4174-932b-0d8d584d17c2","ios":"levelo://app?vid=dbe406a0-e31d-4174-932b-0d8d584d17c2"},"vehicle_type_id":"4","last_reported":1691525222,"current_range_meters":31600,"station_id":"ce4bhbp2rcd13ifvqesg","pricing_plan_id":"free"},{"bike_id":"1339e2ef-f4e0-4faa-837b-1f8f4c4ffbdf","system_id":"levelo_inurba_marseille","lat":43.29569,"lon":5.38155,"is_reserved":false,"is_disabled":false,"rental_uris":{"android":"levelo://app?vid=1339e2ef-f4e0-4faa-837b-1f8f4c4ffbdf","ios":"levelo://app?vid=1339e2ef-f4e0-4faa-837b-1f8f4c4ffbdf"},"vehicle_type_id":"4","last_reported":1691525222,"current_range_meters":5200,"station_id":"","pricing_plan_id":"free"},{"bike_id":"8be5c97d-7acc-4889-8f9c-4b2e0ebbfb07","system_id":"levelo_inurba_marseille","lat":43.305994,"lon":5.393687,"is_reserved":false,"is_disabled":false,"rental_uris":{"android":"levelo://app?vid=8be5c97d-7acc-4889-8f9c-4b2e0ebbfb07","ios":"levelo://app?vid=8be5c97d-7acc-4889-8f9c-4b2e0ebbfb07"},"vehicle_type_id":"4","last_reported":1691525222,"current_range_meters":18400,"station_id":"ce4bh0p2rcd13ifvqd80","pricing_plan_id":"free"},{"bike_id":"0a7abb3c-059e-470b-8008-212cd45fb820","system_id":"levelo_inurba_marseille","lat":43.293009,"lon":5.374584,"is_reserved":false,"is_disabled":false,"rental_uris":{"android":"levelo://app?vid=0a7abb3c-059e-470b-8008-212cd45fb820","ios":"levelo://app?vid=0a7abb3c-059e-470b-8008-212cd45fb820"},"vehicle_type_id":"4","last_reported":1691525222,"current_range_meters":13600,"station_id":"ce4bgi12rcd13ifvqb70","pricing_plan_id":"free"},{"bike_id":"f79c4f6c-39e6-4a7d-840a-d15378bfb534","system_id":"levelo_inurba_marseille","lat":43.305994,"lon":5.393687,"is_reserved":false,"is_disabled":false,"rental_uris":{"android":"levelo://app?vid=f79c4f6c-39e6-4a7d-840a-d15378bfb534","ios":"levelo://app?vid=f79c4f6c-39e6-4a7d-840a-d15378bfb534"},"vehicle_type_id":"4","last_reported":1691525222,"current_range_meters":6000,"station_id":"ce4bh0p2rcd13ifvqd80","pricing_plan_id":"free"},{"bike_id":"7e06e1c4-631d-4726-8d31-6f5150c3403e","system_id":"levelo_inurba_marseille","lat":43.30598,"lon":5.39361,"is_reserved":false,"is_disabled":false,"rental_uris":{"android":"levelo://app?vid=7e06e1c4-631d-4726-8d31-6f5150c3403e","ios":"levelo://app?vid=7e06e1c4-631d-4726-8d31-6f5150c3403e"},"vehicle_type_id":"4","last_reported":1691525222,"current_range_meters":10000,"station_id":"ce4bh0p2rcd13ifvqd80","pricing_plan_id":"free"},{"bike_id":"ea8f3158-bc4b-4dd5-9945-b3cd33323950","system_id":"levelo_inurba_marseille","lat":43.305994,"lon":5.393687,"is_reserved":false,"is_disabled":false,"rental_uris":{"android":"levelo://app?vid=ea8f3158-bc4b-4dd5-9945-b3cd33323950","ios":"levelo://app?vid=ea8f3158-bc4b-4dd5-9945-b3cd33323950"},"vehicle_type_id":"4","last_reported":1691525222,"current_range_meters":9200,"station_id":"ce4bh0p2rcd13ifvqd80","pricing_plan_id":"free"},{"bike_id":"b65647ab-fa6e-43f3-b9c1-8f9782092e7a","system_id":"levelo_inurba_marseille","lat":43.305994,"lon":5.393687,"is_reserved":false,"is_disabled":false,"rental_uris":{"android":"levelo://app?vid=b65647ab-fa6e-43f3-b9c1-8f9782092e7a","ios":"levelo://app?vid=b65647ab-fa6e-43f3-b9c1-8f9782092e7a"},"vehicle_type_id":"4","last_reported":1691525222,"current_range_meters":15600,"station_id":"ce4bh0p2rcd13ifvqd80","pricing_plan_id":"free"},{"bike_id":"e3797deb-a4e3-4704-bc8b-dc857ae47aec","system_id":"levelo_inurba_marseille","lat":43.305994,"lon":5.393687,"is_reserved":false,"is_disabled":false,"rental_uris":{"android":"levelo://app?vid=e3797deb-a4e3-4704-bc8b-dc857ae47aec","ios":"levelo://app?vid=e3797deb-a4e3-4704-bc8b-dc857ae47aec"},"vehicle_type_id":"4","last_reported":1691525222,"current_range_meters":29600,"station_id":"ce4bh0p2rcd13ifvqd80","pricing_plan_id":"free"},{"bike_id":"61a3ff16-0bca-4b57-9188-703a5c3546bc","system_id":"levelo_inurba_marseille","lat":43.30594,"lon":5.39364,"is_reserved":false,"is_disabled":false,"rental_uris":{"android":"levelo://app?vid=61a3ff16-0bca-4b57-9188-703a5c3546bc","ios":"levelo://app?vid=61a3ff16-0bca-4b57-9188-703a5c3546bc"},"vehicle_type_id":"4","last_reported":1691525222,"current_range_meters":13600,"station_id":"ce4bh0p2rcd13ifvqd80","pricing_plan_id":"free"},{"bike_id":"751043e7-c1ac-4f0b-ba9a-838890f7eb4c","system_id":"levelo_inurba_marseille","lat":43.298764,"lon":5.388973,"is_reserved":false,"is_disabled":false,"rental_uris":{"android":"levelo://app?vid=751043e7-c1ac-4f0b-ba9a-838890f7eb4c","ios":"levelo://app?vid=751043e7-c1ac-4f0b-ba9a-838890f7eb4c"},"vehicle_type_id":"4","last_reported":1691525222,"current_range_meters":20800,"station_id":"ce4bh392rcd13ifvqdl0","pricing_plan_id":"free"},{"bike_id":"c3f6a422-f190-498d-b0e7-8af3110e617c","system_id":"levelo_inurba_marseille","lat":43.29886,"lon":5.38895,"is_reserved":false,"is_disabled":false,"rental_uris":{"android":"levelo://app?vid=c3f6a422-f190-498d-b0e7-8af3110e617c","ios":"levelo://app?vid=c3f6a422-f190-498d-b0e7-8af3110e617c"},"vehicle_type_id":"4","last_reported":1691525222,"current_range_meters":28000,"station_id":"ce4bh392rcd13ifvqdl0","pricing_plan_id":"free"},{"bike_id":"a9d43961-4c81-4a4c-8371-c2e4f13b2c81","system_id":"levelo_inurba_marseille","lat":43.29892,"lon":5.38903,"is_reserved":false,"is_disabled":false,"rental_uris":{"android":"levelo://app?vid=a9d43961-4c81-4a4c-8371-c2e4f13b2c81","ios":"levelo://app?vid=a9d43961-4c81-4a4c-8371-c2e4f13b2c81"},"vehicle_type_id":"4","last_reported":1691525222,"current_range_meters":6400,"station_id":"ce4bh392rcd13ifvqdl0","pricing_plan_id":"free"},{"bike_id":"77ca8736-70b8-4f6c-88c5-05f4993f37c1","system_id":"levelo_inurba_marseille","lat":43.29888,"lon":5.38914,"is_reserved":false,"is_disabled":false,"rental_uris":{"android":"levelo://app?vid=77ca8736-70b8-4f6c-88c5-05f4993f37c1","ios":"levelo://app?vid=77ca8736-70b8-4f6c-88c5-05f4993f37c1"},"vehicle_type_id":"4","last_reported":1691525222,"current_range_meters":8800,"station_id":"ce4bh392rcd13ifvqdl0","pricing_plan_id":"free"},{"bike_id":"2aea0df4-5766-4bde-8f1f-39bcb115698c","system_id":"levelo_inurba_marseille","lat":43.30886,"lon":5.39632,"is_reserved":false,"is_disabled":false,"rental_uris":{"android":"levelo://app?vid=2aea0df4-5766-4bde-8f1f-39bcb115698c","ios":"levelo://app?vid=2aea0df4-5766-4bde-8f1f-39bcb115698c"},"vehicle_type_id":"4","last_reported":1691525222,"current_range_meters":0,"station_id":"ce4bh012rcd13ifvqcv0","pricing_plan_id":"free"},{"bike_id":"256e868b-cff3-45d1-a1c5-853916804617","system_id":"levelo_inurba_marseille","lat":43.309038,"lon":5.396546,"is_reserved":false,"is_disabled":false,"rental_uris":{"android":"levelo://app?vid=256e868b-cff3-45d1-a1c5-853916804617","ios":"levelo://app?vid=256e868b-cff3-45d1-a1c5-853916804617"},"vehicle_type_id":"4","last_reported":1691525222,"current_range_meters":0,"station_id":"ce4bh012rcd13ifvqcv0","pricing_plan_id":"free"},{"bike_id":"a6bd0c20-b48a-4fd8-83dd-99401d1d33e4","system_id":"levelo_inurba_marseille","lat":43.313291,"lon":5.396838,"is_reserved":false,"is_disabled":false,"rental_uris":{"android":"levelo://app?vid=a6bd0c20-b48a-4fd8-83dd-99401d1d33e4","ios":"levelo://app?vid=a6bd0c20-b48a-4fd8-83dd-99401d1d33e4"},"vehicle_type_id":"4","last_reported":1691525222,"current_range_meters":10800,"station_id":"ce4bgvp2rcd13ifvqcu0","pricing_plan_id":"free"},{"bike_id":"47d38a04-d49d-4532-8988-eabdfc685df9","system_id":"levelo_inurba_marseille","lat":43.30885,"lon":5.3964,"is_reserved":false,"is_disabled":false,"rental_uris":{"android":"levelo://app?vid=47d38a04-d49d-4532-8988-eabdfc685df9","ios":"levelo://app?vid=47d38a04-d49d-4532-8988-eabdfc685df9"},"vehicle_type_id":"4","last_reported":1691525222,"current_range_meters":4800,"station_id":"ce4bh012rcd13ifvqcv0","pricing_plan_id":"free"},{"bike_id":"68312dd1-5f01-49ab-b720-af5aceabd138","system_id":"levelo_inurba_marseille","lat":43.31329,"lon":5.39688,"is_reserved":false,"is_disabled":false,"rental_uris":{"android":"levelo://app?vid=68312dd1-5f01-49ab-b720-af5aceabd138","ios":"levelo://app?vid=68312dd1-5f01-49ab-b720-af5aceabd138"},"vehicle_type_id":"4","last_reported":1691525222,"current_range_meters":14000,"station_id":"ce4bgvp2rcd13ifvqcu0","pricing_plan_id":"free"},{"bike_id":"a17c12ac-b6dd-4e4b-949d-cb9f91ce75dc","system_id":"levelo_inurba_marseille","lat":43.30881,"lon":5.39642,"is_reserved":false,"is_disabled":false,"rental_uris":{"android":"levelo://app?vid=a17c12ac-b6dd-4e4b-949d-cb9f91ce75dc","ios":"levelo://app?vid=a17c12ac-b6dd-4e4b-949d-cb9f91ce75dc"},"vehicle_type_id":"4","last_reported":1691525222,"current_range_meters":2400,"station_id":"ce4bh012rcd13ifvqcv0","pricing_plan_id":"free"},{"bike_id":"0233a25d-89c3-4f28-bf5e-502b6ab694b0","system_id":"levelo_inurba_marseille","lat":43.30889,"lon":5.39644,"is_reserved":false,"is_disabled":false,"rental_uris":{"android":"levelo://app?vid=0233a25d-89c3-4f28-bf5e-502b6ab694b0","ios":"levelo://app?vid=0233a25d-89c3-4f28-bf5e-502b6ab694b0"},"vehicle_type_id":"4","last_reported":1691525222,"current_range_meters":14400,"station_id":"ce4bh012rcd13ifvqcv0","pricing_plan_id":"free"},{"bike_id":"2282c425-6055-4414-b21f-9fa61eaba595","system_id":"levelo_inurba_marseille","lat":43.3088,"lon":5.39642,"is_reserved":false,"is_disabled":false,"rental_uris":{"android":"levelo://app?vid=2282c425-6055-4414-b21f-9fa61eaba595","ios":"levelo://app?vid=2282c425-6055-4414-b21f-9fa61eaba595"},"vehicle_type_id":"4","last_reported":1691525222,"current_range_meters":0,"station_id":"ce4bh012rcd13ifvqcv0","pricing_plan_id":"free"},{"bike_id":"4aab9beb-18da-4f14-85e9-ecc3a1a05426","system_id":"levelo_inurba_marseille","lat":43.31332,"lon":5.39691,"is_reserved":false,"is_disabled":false,"rental_uris":{"android":"levelo://app?vid=4aab9beb-18da-4f14-85e9-ecc3a1a05426","ios":"levelo://app?vid=4aab9beb-18da-4f14-85e9-ecc3a1a05426"},"vehicle_type_id":"4","last_reported":1691525222,"current_range_meters":12000,"station_id":"ce4bgvp2rcd13ifvqcu0","pricing_plan_id":"free"},{"bike_id":"a107e557-da8b-4a19-96b3-52864a96661c","system_id":"levelo_inurba_marseille","lat":43.313291,"lon":5.396838,"is_reserved":false,"is_disabled":false,"rental_uris":{"android":"levelo://app?vid=a107e557-da8b-4a19-96b3-52864a96661c","ios":"levelo://app?vid=a107e557-da8b-4a19-96b3-52864a96661c"},"vehicle_type_id":"4","last_reported":1691525222,"current_range_meters":15600,"station_id":"ce4bgvp2rcd13ifvqcu0","pricing_plan_id":"free"},{"bike_id":"f7732203-d8c9-4c80-8428-794c762446dc","system_id":"levelo_inurba_marseille","lat":43.313291,"lon":5.396838,"is_reserved":false,"is_disabled":false,"rental_uris":{"android":"levelo://app?vid=f7732203-d8c9-4c80-8428-794c762446dc","ios":"levelo://app?vid=f7732203-d8c9-4c80-8428-794c762446dc"},"vehicle_type_id":"4","last_reported":1691525222,"current_range_meters":3600,"station_id":"ce4bgvp2rcd13ifvqcu0","pricing_plan_id":"free"},{"bike_id":"5abd289d-67d9-4f48-9c35-b7724bd69927","system_id":"levelo_inurba_marseille","lat":43.309053,"lon":5.396517,"is_reserved":false,"is_disabled":false,"rental_uris":{"android":"levelo://app?vid=5abd289d-67d9-4f48-9c35-b7724bd69927","ios":"levelo://app?vid=5abd289d-67d9-4f48-9c35-b7724bd69927"},"vehicle_type_id":"4","last_reported":1691525222,"current_range_meters":0,"station_id":"","pricing_plan_id":"free"},{"bike_id":"9a248834-d547-41dc-aa3f-dbf78e536a43","system_id":"levelo_inurba_marseille","lat":43.309038,"lon":5.396546,"is_reserved":false,"is_disabled":false,"rental_uris":{"android":"levelo://app?vid=9a248834-d547-41dc-aa3f-dbf78e536a43","ios":"levelo://app?vid=9a248834-d547-41dc-aa3f-dbf78e536a43"},"vehicle_type_id":"4","last_reported":1691525222,"current_range_meters":7600,"station_id":"ce4bh012rcd13ifvqcv0","pricing_plan_id":"free"},{"bike_id":"8fb212c8-1dfe-4c70-af5a-805f93afcfb4","system_id":"levelo_inurba_marseille","lat":43.30885,"lon":5.39649,"is_reserved":false,"is_disabled":false,"rental_uris":{"android":"levelo://app?vid=8fb212c8-1dfe-4c70-af5a-805f93afcfb4","ios":"levelo://app?vid=8fb212c8-1dfe-4c70-af5a-805f93afcfb4"},"vehicle_type_id":"4","last_reported":1691525222,"current_range_meters":10800,"station_id":"ce4bh012rcd13ifvqcv0","pricing_plan_id":"free"},{"bike_id":"4b597256-ad52-4164-8962-80ecfe5bf44f","system_id":"levelo_inurba_marseille","lat":43.292749,"lon":5.368402,"is_reserved":false,"is_disabled":false,"rental_uris":{"android":"levelo://app?vid=4b597256-ad52-4164-8962-80ecfe5bf44f","ios":"levelo://app?vid=4b597256-ad52-4164-8962-80ecfe5bf44f"},"vehicle_type_id":"4","last_reported":1691525222,"current_range_meters":27600,"station_id":"ce4bhbp2rcd13ifvqesg","pricing_plan_id":"free"},{"bike_id":"9e9f7c09-fbf6-47c0-ad3e-50420d06d646","system_id":"levelo_inurba_marseille","lat":43.30891,"lon":5.39654,"is_reserved":false,"is_disabled":false,"rental_uris":{"android":"levelo://app?vid=9e9f7c09-fbf6-47c0-ad3e-50420d06d646","ios":"levelo://app?vid=9e9f7c09-fbf6-47c0-ad3e-50420d06d646"},"vehicle_type_id":"4","last_reported":1691525222,"current_range_meters":25600,"station_id":"ce4bh012rcd13ifvqcv0","pricing_plan_id":"free"},{"bike_id":"adb48363-b52b-4c2f-b300-f07120988924","system_id":"levelo_inurba_marseille","lat":43.31347,"lon":5.39701,"is_reserved":false,"is_disabled":false,"rental_uris":{"android":"levelo://app?vid=adb48363-b52b-4c2f-b300-f07120988924","ios":"levelo://app?vid=adb48363-b52b-4c2f-b300-f07120988924"},"vehicle_type_id":"4","last_reported":1691525222,"current_range_meters":7200,"station_id":"ce4bgvp2rcd13ifvqcu0","pricing_plan_id":"free"},{"bike_id":"9578fb38-c57d-471b-aef7-027ab8817435","system_id":"levelo_inurba_marseille","lat":43.30888,"lon":5.39657,"is_reserved":false,"is_disabled":false,"rental_uris":{"android":"levelo://app?vid=9578fb38-c57d-471b-aef7-027ab8817435","ios":"levelo://app?vid=9578fb38-c57d-471b-aef7-027ab8817435"},"vehicle_type_id":"4","last_reported":1691525222,"current_range_meters":16800,"station_id":"ce4bh012rcd13ifvqcv0","pricing_plan_id":"free"},{"bike_id":"65b06b22-2ac8-4fce-8740-e21cd2df0182","system_id":"levelo_inurba_marseille","lat":43.30885,"lon":5.39657,"is_reserved":false,"is_disabled":false,"rental_uris":{"android":"levelo://app?vid=65b06b22-2ac8-4fce-8740-e21cd2df0182","ios":"levelo://app?vid=65b06b22-2ac8-4fce-8740-e21cd2df0182"},"vehicle_type_id":"4","last_reported":1691525222,"current_range_meters":13200,"station_id":"ce4bh012rcd13ifvqcv0","pricing_plan_id":"free"},{"bike_id":"0b9f5089-95cb-490b-b2fd-b90b781913b7","system_id":"levelo_inurba_marseille","lat":43.308903,"lon":5.396599,"is_reserved":false,"is_disabled":false,"rental_uris":{"android":"levelo://app?vid=0b9f5089-95cb-490b-b2fd-b90b781913b7","ios":"levelo://app?vid=0b9f5089-95cb-490b-b2fd-b90b781913b7"},"vehicle_type_id":"4","last_reported":1691525222,"current_range_meters":23200,"station_id":"","pricing_plan_id":"free"},{"bike_id":"b8d0226b-60e5-479c-af56-eb2ce8191d3e","system_id":"levelo_inurba_marseille","lat":43.29529,"lon":5.385581,"is_reserved":false,"is_disabled":false,"rental_uris":{"android":"levelo://app?vid=b8d0226b-60e5-479c-af56-eb2ce8191d3e","ios":"levelo://app?vid=b8d0226b-60e5-479c-af56-eb2ce8191d3e"},"vehicle_type_id":"4","last_reported":1691525222,"current_range_meters":8400,"station_id":"ce4bgih2rcd13ifvqba0","pricing_plan_id":"free"},{"bike_id":"71012dd2-dba5-4500-a396-a5ca1d8a9b66","system_id":"levelo_inurba_marseille","lat":43.29529,"lon":5.385581,"is_reserved":false,"is_disabled":false,"rental_uris":{"android":"levelo://app?vid=71012dd2-dba5-4500-a396-a5ca1d8a9b66","ios":"levelo://app?vid=71012dd2-dba5-4500-a396-a5ca1d8a9b66"},"vehicle_type_id":"4","last_reported":1691525222,"current_range_meters":14800,"station_id":"ce4bgih2rcd13ifvqba0","pricing_plan_id":"free"},{"bike_id":"62ac7096-d172-449e-b413-b1c37cb06bff","system_id":"levelo_inurba_marseille","lat":43.29529,"lon":5.385581,"is_reserved":false,"is_disabled":false,"rental_uris":{"android":"levelo://app?vid=62ac7096-d172-449e-b413-b1c37cb06bff","ios":"levelo://app?vid=62ac7096-d172-449e-b413-b1c37cb06bff"},"vehicle_type_id":"4","last_reported":1691525222,"current_range_meters":22400,"station_id":"ce4bgih2rcd13ifvqba0","pricing_plan_id":"free"},{"bike_id":"aee80691-1c64-4e0e-b9e8-f707a29e6412","system_id":"levelo_inurba_marseille","lat":43.29529,"lon":5.385581,"is_reserved":false,"is_disabled":false,"rental_uris":{"android":"levelo://app?vid=aee80691-1c64-4e0e-b9e8-f707a29e6412","ios":"levelo://app?vid=aee80691-1c64-4e0e-b9e8-f707a29e6412"},"vehicle_type_id":"4","last_reported":1691525222,"current_range_meters":21200,"station_id":"ce4bgih2rcd13ifvqba0","pricing_plan_id":"free"},{"bike_id":"2c8e7bc6-b2a3-45f5-8a71-e365106189a0","system_id":"levelo_inurba_marseille","lat":43.29529,"lon":5.385581,"is_reserved":false,"is_disabled":false,"rental_uris":{"android":"levelo://app?vid=2c8e7bc6-b2a3-45f5-8a71-e365106189a0","ios":"levelo://app?vid=2c8e7bc6-b2a3-45f5-8a71-e365106189a0"},"vehicle_type_id":"4","last_reported":1691525222,"current_range_meters":1200,"station_id":"ce4bgih2rcd13ifvqba0","pricing_plan_id":"free"},{"bike_id":"03b8e065-47f5-4637-8827-f17def758c3d","system_id":"levelo_inurba_marseille","lat":43.29529,"lon":5.385581,"is_reserved":false,"is_disabled":false,"rental_uris":{"android":"levelo://app?vid=03b8e065-47f5-4637-8827-f17def758c3d","ios":"levelo://app?vid=03b8e065-47f5-4637-8827-f17def758c3d"},"vehicle_type_id":"4","last_reported":1691525222,"current_range_meters":8800,"station_id":"ce4bgih2rcd13ifvqba0","pricing_plan_id":"free"},{"bike_id":"d6d9c4db-4c27-4aaa-a466-ec37e79c3d80","system_id":"levelo_inurba_marseille","lat":43.29076,"lon":5.37163,"is_reserved":false,"is_disabled":false,"rental_uris":{"android":"levelo://app?vid=d6d9c4db-4c27-4aaa-a466-ec37e79c3d80","ios":"levelo://app?vid=d6d9c4db-4c27-4aaa-a466-ec37e79c3d80"},"vehicle_type_id":"4","last_reported":1691525222,"current_range_meters":0,"station_id":"ce4bh5p2rcd13ifvqe4g","pricing_plan_id":"free"},{"bike_id":"f947d5c6-7a89-466b-9fb2-c48b20914279","system_id":"levelo_inurba_marseille","lat":43.290779,"lon":5.371482,"is_reserved":false,"is_disabled":false,"rental_uris":{"android":"levelo://app?vid=f947d5c6-7a89-466b-9fb2-c48b20914279","ios":"levelo://app?vid=f947d5c6-7a89-466b-9fb2-c48b20914279"},"vehicle_type_id":"4","last_reported":1691525222,"current_range_meters":29200,"station_id":"ce4bh5p2rcd13ifvqe4g","pricing_plan_id":"free"},{"bike_id":"1a64b934-66d4-42f7-b49a-837e3f098f18","system_id":"levelo_inurba_marseille","lat":43.275625,"lon":5.384392,"is_reserved":false,"is_disabled":false,"rental_uris":{"android":"levelo://app?vid=1a64b934-66d4-42f7-b49a-837e3f098f18","ios":"levelo://app?vid=1a64b934-66d4-42f7-b49a-837e3f098f18"},"vehicle_type_id":"4","last_reported":1691525222,"current_range_meters":22400,"station_id":"ce4bhh92rcd13ifvqfi0","pricing_plan_id":"free"},{"bike_id":"325e1ca8-0ae6-409d-bf68-517f326cad43","system_id":"levelo_inurba_marseille","lat":43.294162,"lon":5.386292,"is_reserved":false,"is_disabled":false,"rental_uris":{"android":"levelo://app?vid=325e1ca8-0ae6-409d-bf68-517f326cad43","ios":"levelo://app?vid=325e1ca8-0ae6-409d-bf68-517f326cad43"},"vehicle_type_id":"4","last_reported":1691525222,"current_range_meters":24800,"station_id":"ce4bh2h2rcd13ifvqdh0","pricing_plan_id":"free"},{"bike_id":"75c774ef-14b4-4d8b-8c88-97c13bbf7504","system_id":"levelo_inurba_marseille","lat":43.29416,"lon":5.38629,"is_reserved":false,"is_disabled":false,"rental_uris":{"android":"levelo://app?vid=75c774ef-14b4-4d8b-8c88-97c13bbf7504","ios":"levelo://app?vid=75c774ef-14b4-4d8b-8c88-97c13bbf7504"},"vehicle_type_id":"4","last_reported":1691525222,"current_range_meters":800,"station_id":"ce4bh2h2rcd13ifvqdh0","pricing_plan_id":"free"},{"bike_id":"43b0a00b-a5d9-4df3-9df8-c9bb06514d73","system_id":"levelo_inurba_marseille","lat":43.289184,"lon":5.366408,"is_reserved":false,"is_disabled":false,"rental_uris":{"android":"levelo://app?vid=43b0a00b-a5d9-4df3-9df8-c9bb06514d73","ios":"levelo://app?vid=43b0a00b-a5d9-4df3-9df8-c9bb06514d73"},"vehicle_type_id":"4","last_reported":1691525222,"current_range_meters":1600,"station_id":"ce4bhap2rcd13ifvqek0","pricing_plan_id":"free"},{"bike_id":"85c772b7-275a-4cdf-9796-59d80d241732","system_id":"levelo_inurba_marseille","lat":43.294153,"lon":5.386305,"is_reserved":false,"is_disabled":false,"rental_uris":{"android":"levelo://app?vid=85c772b7-275a-4cdf-9796-59d80d241732","ios":"levelo://app?vid=85c772b7-275a-4cdf-9796-59d80d241732"},"vehicle_type_id":"4","last_reported":1691525222,"current_range_meters":5200,"station_id":"ce4bh2h2rcd13ifvqdh0","pricing_plan_id":"free"},{"bike_id":"4a85143e-28f6-4627-b9a0-8cd1aafd2f87","system_id":"levelo_inurba_marseille","lat":43.29269,"lon":5.38437,"is_reserved":false,"is_disabled":false,"rental_uris":{"android":"levelo://app?vid=4a85143e-28f6-4627-b9a0-8cd1aafd2f87","ios":"levelo://app?vid=4a85143e-28f6-4627-b9a0-8cd1aafd2f87"},"vehicle_type_id":"4","last_reported":1691525222,"current_range_meters":27200,"station_id":"ce4bh692rcd13ifvqea0","pricing_plan_id":"free"},{"bike_id":"dad339e0-a741-44e5-ad24-af2f61d8afdb","system_id":"levelo_inurba_marseille","lat":43.29269,"lon":5.38437,"is_reserved":false,"is_disabled":false,"rental_uris":{"android":"levelo://app?vid=dad339e0-a741-44e5-ad24-af2f61d8afdb","ios":"levelo://app?vid=dad339e0-a741-44e5-ad24-af2f61d8afdb"},"vehicle_type_id":"4","last_reported":1691525222,"current_range_meters":6800,"station_id":"ce4bh692rcd13ifvqea0","pricing_plan_id":"free"},{"bike_id":"63c5950e-a081-48e3-80c3-1280b8ac4fa8","system_id":"levelo_inurba_marseille","lat":43.29267,"lon":5.3844,"is_reserved":false,"is_disabled":false,"rental_uris":{"android":"levelo://app?vid=63c5950e-a081-48e3-80c3-1280b8ac4fa8","ios":"levelo://app?vid=63c5950e-a081-48e3-80c3-1280b8ac4fa8"},"vehicle_type_id":"4","last_reported":1691525222,"current_range_meters":14000,"station_id":"ce4bh692rcd13ifvqea0","pricing_plan_id":"free"},{"bike_id":"0a80ecf2-0771-4c86-91f0-59f1b6091432","system_id":"levelo_inurba_marseille","lat":43.29263,"lon":5.38433,"is_reserved":false,"is_disabled":false,"rental_uris":{"android":"levelo://app?vid=0a80ecf2-0771-4c86-91f0-59f1b6091432","ios":"levelo://app?vid=0a80ecf2-0771-4c86-91f0-59f1b6091432"},"vehicle_type_id":"4","last_reported":1691525222,"current_range_meters":7200,"station_id":"ce4bh692rcd13ifvqea0","pricing_plan_id":"free"},{"bike_id":"3abea093-da60-4371-a9b7-a176e4c8e502","system_id":"levelo_inurba_marseille","lat":43.29265,"lon":5.38441,"is_reserved":false,"is_disabled":false,"rental_uris":{"android":"levelo://app?vid=3abea093-da60-4371-a9b7-a176e4c8e502","ios":"levelo://app?vid=3abea093-da60-4371-a9b7-a176e4c8e502"},"vehicle_type_id":"4","last_reported":1691525222,"current_range_meters":800,"station_id":"ce4bh692rcd13ifvqea0","pricing_plan_id":"free"},{"bike_id":"16b9fd5a-c0cc-44a7-9bce-6984dc238e68","system_id":"levelo_inurba_marseille","lat":43.29041,"lon":5.399634,"is_reserved":false,"is_disabled":false,"rental_uris":{"android":"levelo://app?vid=16b9fd5a-c0cc-44a7-9bce-6984dc238e68","ios":"levelo://app?vid=16b9fd5a-c0cc-44a7-9bce-6984dc238e68"},"vehicle_type_id":"4","last_reported":1691525222,"current_range_meters":13200,"station_id":"ce4bh392rcd13ifvqdm0","pricing_plan_id":"free"},{"bike_id":"fde30e94-4bd0-4008-aeb7-e52eb9b5c24c","system_id":"levelo_inurba_marseille","lat":43.292659,"lon":5.384469,"is_reserved":false,"is_disabled":false,"rental_uris":{"android":"levelo://app?vid=fde30e94-4bd0-4008-aeb7-e52eb9b5c24c","ios":"levelo://app?vid=fde30e94-4bd0-4008-aeb7-e52eb9b5c24c"},"vehicle_type_id":"4","last_reported":1691525222,"current_range_meters":23200,"station_id":"","pricing_plan_id":"free"},{"bike_id":"13fc8c35-fd12-4fb6-a24a-a6b5b1a6dafa","system_id":"levelo_inurba_marseille","lat":43.292642,"lon":5.384254,"is_reserved":false,"is_disabled":false,"rental_uris":{"android":"levelo://app?vid=13fc8c35-fd12-4fb6-a24a-a6b5b1a6dafa","ios":"levelo://app?vid=13fc8c35-fd12-4fb6-a24a-a6b5b1a6dafa"},"vehicle_type_id":"4","last_reported":1691525222,"current_range_meters":4800,"station_id":"ce4bh692rcd13ifvqea0","pricing_plan_id":"free"},{"bike_id":"42b8cac6-3d77-4164-aa68-d91e51f9cddd","system_id":"levelo_inurba_marseille","lat":43.304274,"lon":5.397513,"is_reserved":false,"is_disabled":false,"rental_uris":{"android":"levelo://app?vid=42b8cac6-3d77-4164-aa68-d91e51f9cddd","ios":"levelo://app?vid=42b8cac6-3d77-4164-aa68-d91e51f9cddd"},"vehicle_type_id":"4","last_reported":1691525222,"current_range_meters":28400,"station_id":"ce4bh092rcd13ifvqd20","pricing_plan_id":"free"},{"bike_id":"a566d503-20a5-492c-9b9e-f0f6164883ca","system_id":"levelo_inurba_marseille","lat":43.290104,"lon":5.356111,"is_reserved":false,"is_disabled":false,"rental_uris":{"android":"levelo://app?vid=a566d503-20a5-492c-9b9e-f0f6164883ca","ios":"levelo://app?vid=a566d503-20a5-492c-9b9e-f0f6164883ca"},"vehicle_type_id":"4","last_reported":1691525222,"current_range_meters":25200,"station_id":"ce4bhb92rcd13ifvqen0","pricing_plan_id":"free"},{"bike_id":"389d1175-4a9d-40bc-a61c-5c5f0da54622","system_id":"levelo_inurba_marseille","lat":43.33043,"lon":5.38913,"is_reserved":false,"is_disabled":false,"rental_uris":{"android":"levelo://app?vid=389d1175-4a9d-40bc-a61c-5c5f0da54622","ios":"levelo://app?vid=389d1175-4a9d-40bc-a61c-5c5f0da54622"},"vehicle_type_id":"4","last_reported":1691525222,"current_range_meters":400,"station_id":"ce4bhr92rcd13ifvqhrg","pricing_plan_id":"free"},{"bike_id":"7b78d55e-e99c-4fa7-968a-c672d6912f00","system_id":"levelo_inurba_marseille","lat":43.290103,"lon":5.356114,"is_reserved":false,"is_disabled":false,"rental_uris":{"android":"levelo://app?vid=7b78d55e-e99c-4fa7-968a-c672d6912f00","ios":"levelo://app?vid=7b78d55e-e99c-4fa7-968a-c672d6912f00"},"vehicle_type_id":"4","last_reported":1691525222,"current_range_meters":31200,"station_id":"ce4bhb92rcd13ifvqen0","pricing_plan_id":"free"},{"bike_id":"d92191b5-3897-428d-989c-4b986c7a7e64","system_id":"levelo_inurba_marseille","lat":43.29001,"lon":5.35607,"is_reserved":false,"is_disabled":false,"rental_uris":{"android":"levelo://app?vid=d92191b5-3897-428d-989c-4b986c7a7e64","ios":"levelo://app?vid=d92191b5-3897-428d-989c-4b986c7a7e64"},"vehicle_type_id":"4","last_reported":1691525222,"current_range_meters":8000,"station_id":"ce4bhb92rcd13ifvqen0","pricing_plan_id":"free"},{"bike_id":"7c4b8e3a-0250-49ed-9012-6b8bb56c9701","system_id":"levelo_inurba_marseille","lat":43.29102,"lon":5.38141,"is_reserved":false,"is_disabled":false,"rental_uris":{"android":"levelo://app?vid=7c4b8e3a-0250-49ed-9012-6b8bb56c9701","ios":"levelo://app?vid=7c4b8e3a-0250-49ed-9012-6b8bb56c9701"},"vehicle_type_id":"4","last_reported":1691525222,"current_range_meters":0,"station_id":"ce4bh512rcd13ifvqe2g","pricing_plan_id":"free"},{"bike_id":"80f0b1f7-0bc4-422c-a44d-6497ec3b2db8","system_id":"levelo_inurba_marseille","lat":43.297815,"lon":5.393548,"is_reserved":false,"is_disabled":false,"rental_uris":{"android":"levelo://app?vid=80f0b1f7-0bc4-422c-a44d-6497ec3b2db8","ios":"levelo://app?vid=80f0b1f7-0bc4-422c-a44d-6497ec3b2db8"},"vehicle_type_id":"4","last_reported":1691525222,"current_range_meters":8800,"station_id":"chh1huq6cuj3fo74tm60","pricing_plan_id":"free"},{"bike_id":"9378e62b-e923-4eda-a9ac-0db9b2161150","system_id":"levelo_inurba_marseille","lat":43.297815,"lon":5.393548,"is_reserved":false,"is_disabled":false,"rental_uris":{"android":"levelo://app?vid=9378e62b-e923-4eda-a9ac-0db9b2161150","ios":"levelo://app?vid=9378e62b-e923-4eda-a9ac-0db9b2161150"},"vehicle_type_id":"4","last_reported":1691525222,"current_range_meters":24400,"station_id":"chh1huq6cuj3fo74tm60","pricing_plan_id":"free"},{"bike_id":"3316aff6-55da-4fd6-9cff-89a67cf69ed2","system_id":"levelo_inurba_marseille","lat":43.295169,"lon":5.390426,"is_reserved":false,"is_disabled":false,"rental_uris":{"android":"levelo://app?vid=3316aff6-55da-4fd6-9cff-89a67cf69ed2","ios":"levelo://app?vid=3316aff6-55da-4fd6-9cff-89a67cf69ed2"},"vehicle_type_id":"4","last_reported":1691525222,"current_range_meters":22000,"station_id":"ce4bh3p2rcd13ifvqdp0","pricing_plan_id":"free"},{"bike_id":"8b2f2e55-1420-446c-a06c-d8fd3764fc3f","system_id":"levelo_inurba_marseille","lat":43.29023,"lon":5.38132,"is_reserved":false,"is_disabled":false,"rental_uris":{"android":"levelo://app?vid=8b2f2e55-1420-446c-a06c-d8fd3764fc3f","ios":"levelo://app?vid=8b2f2e55-1420-446c-a06c-d8fd3764fc3f"},"vehicle_type_id":"4","last_reported":1691525222,"current_range_meters":15200,"station_id":"ce4bh4p2rcd13ifvqe1g","pricing_plan_id":"free"},{"bike_id":"44a0e7a4-275d-41f2-89ec-265d0aa86840","system_id":"levelo_inurba_marseille","lat":43.28866,"lon":5.35848,"is_reserved":false,"is_disabled":false,"rental_uris":{"android":"levelo://app?vid=44a0e7a4-275d-41f2-89ec-265d0aa86840","ios":"levelo://app?vid=44a0e7a4-275d-41f2-89ec-265d0aa86840"},"vehicle_type_id":"4","last_reported":1691525222,"current_range_meters":20000,"station_id":"","pricing_plan_id":"free"},{"bike_id":"1c6ec032-0d89-468f-afe6-5f2254c7a0e5","system_id":"levelo_inurba_marseille","lat":43.28856,"lon":5.358371,"is_reserved":false,"is_disabled":false,"rental_uris":{"android":"levelo://app?vid=1c6ec032-0d89-468f-afe6-5f2254c7a0e5","ios":"levelo://app?vid=1c6ec032-0d89-468f-afe6-5f2254c7a0e5"},"vehicle_type_id":"4","last_reported":1691525222,"current_range_meters":18400,"station_id":"ce4bhb12rcd13ifvqem0","pricing_plan_id":"free"},{"bike_id":"075d1cb8-b477-4654-8f11-9b330daaead8","system_id":"levelo_inurba_marseille","lat":43.31266,"lon":5.40161,"is_reserved":false,"is_disabled":false,"rental_uris":{"android":"levelo://app?vid=075d1cb8-b477-4654-8f11-9b330daaead8","ios":"levelo://app?vid=075d1cb8-b477-4654-8f11-9b330daaead8"},"vehicle_type_id":"4","last_reported":1691525222,"current_range_meters":7200,"station_id":"ce4bh092rcd13ifvqd30","pricing_plan_id":"free"},{"bike_id":"7ccfd2f8-3c21-431a-adf8-948bbc576217","system_id":"levelo_inurba_marseille","lat":43.33019,"lon":5.39199,"is_reserved":false,"is_disabled":false,"rental_uris":{"android":"levelo://app?vid=7ccfd2f8-3c21-431a-adf8-948bbc576217","ios":"levelo://app?vid=7ccfd2f8-3c21-431a-adf8-948bbc576217"},"vehicle_type_id":"4","last_reported":1691525222,"current_range_meters":27600,"station_id":"","pricing_plan_id":"free"},{"bike_id":"c78d6954-8c24-4503-bc83-ea7af48228fd","system_id":"levelo_inurba_marseille","lat":43.309371,"lon":5.401449,"is_reserved":false,"is_disabled":false,"rental_uris":{"android":"levelo://app?vid=c78d6954-8c24-4503-bc83-ea7af48228fd","ios":"levelo://app?vid=c78d6954-8c24-4503-bc83-ea7af48228fd"},"vehicle_type_id":"4","last_reported":1691525222,"current_range_meters":26400,"station_id":"ce4bgvp2rcd13ifvqct0","pricing_plan_id":"free"},{"bike_id":"326458cc-6230-41a2-9f0b-099d7b4f1f04","system_id":"levelo_inurba_marseille","lat":43.30937,"lon":5.40145,"is_reserved":false,"is_disabled":false,"rental_uris":{"android":"levelo://app?vid=326458cc-6230-41a2-9f0b-099d7b4f1f04","ios":"levelo://app?vid=326458cc-6230-41a2-9f0b-099d7b4f1f04"},"vehicle_type_id":"4","last_reported":1691525222,"current_range_meters":10400,"station_id":"ce4bgvp2rcd13ifvqct0","pricing_plan_id":"free"},{"bike_id":"d41466e4-2f56-4759-8508-989473e4c54b","system_id":"levelo_inurba_marseille","lat":43.30939,"lon":5.40146,"is_reserved":false,"is_disabled":false,"rental_uris":{"android":"levelo://app?vid=d41466e4-2f56-4759-8508-989473e4c54b","ios":"levelo://app?vid=d41466e4-2f56-4759-8508-989473e4c54b"},"vehicle_type_id":"4","last_reported":1691525222,"current_range_meters":5200,"station_id":"ce4bgvp2rcd13ifvqct0","pricing_plan_id":"free"},{"bike_id":"d783d2c7-b4c1-4ee6-a590-96f0d12feacf","system_id":"levelo_inurba_marseille","lat":43.30645,"lon":5.40098,"is_reserved":false,"is_disabled":false,"rental_uris":{"android":"levelo://app?vid=d783d2c7-b4c1-4ee6-a590-96f0d12feacf","ios":"levelo://app?vid=d783d2c7-b4c1-4ee6-a590-96f0d12feacf"},"vehicle_type_id":"4","last_reported":1691525222,"current_range_meters":7200,"station_id":"ce4bh112rcd13ifvqda0","pricing_plan_id":"free"},{"bike_id":"872ced31-4618-4f3d-9928-9ec7f5db1b16","system_id":"levelo_inurba_marseille","lat":43.3065,"lon":5.40105,"is_reserved":false,"is_disabled":false,"rental_uris":{"android":"levelo://app?vid=872ced31-4618-4f3d-9928-9ec7f5db1b16","ios":"levelo://app?vid=872ced31-4618-4f3d-9928-9ec7f5db1b16"},"vehicle_type_id":"4","last_reported":1691525222,"current_range_meters":5600,"station_id":"ce4bh112rcd13ifvqda0","pricing_plan_id":"free"},{"bike_id":"3585088c-1fad-4eca-b223-780202197d91","system_id":"levelo_inurba_marseille","lat":43.33025,"lon":5.39264,"is_reserved":false,"is_disabled":false,"rental_uris":{"android":"levelo://app?vid=3585088c-1fad-4eca-b223-780202197d91","ios":"levelo://app?vid=3585088c-1fad-4eca-b223-780202197d91"},"vehicle_type_id":"4","last_reported":1691525222,"current_range_meters":12000,"station_id":"","pricing_plan_id":"free"},{"bike_id":"42b139f9-0b2e-4ce4-8b34-e401bb18060d","system_id":"levelo_inurba_marseille","lat":43.298681,"lon":5.397225,"is_reserved":false,"is_disabled":false,"rental_uris":{"android":"levelo://app?vid=42b139f9-0b2e-4ce4-8b34-e401bb18060d","ios":"levelo://app?vid=42b139f9-0b2e-4ce4-8b34-e401bb18060d"},"vehicle_type_id":"4","last_reported":1691525222,"current_range_meters":2400,"station_id":"ce4bh0h2rcd13ifvqd50","pricing_plan_id":"free"},{"bike_id":"7bd66a0f-1b6d-4228-b7dd-6db81ce90114","system_id":"levelo_inurba_marseille","lat":43.286961,"lon":5.373785,"is_reserved":false,"is_disabled":false,"rental_uris":{"android":"levelo://app?vid=7bd66a0f-1b6d-4228-b7dd-6db81ce90114","ios":"levelo://app?vid=7bd66a0f-1b6d-4228-b7dd-6db81ce90114"},"vehicle_type_id":"4","last_reported":1691525222,"current_range_meters":15600,"station_id":"ce4bh3p2rcd13ifvqdq0","pricing_plan_id":"free"},{"bike_id":"d466e233-dc5d-4f30-92da-328d639a63c2","system_id":"levelo_inurba_marseille","lat":43.28706,"lon":5.37395,"is_reserved":false,"is_disabled":false,"rental_uris":{"android":"levelo://app?vid=d466e233-dc5d-4f30-92da-328d639a63c2","ios":"levelo://app?vid=d466e233-dc5d-4f30-92da-328d639a63c2"},"vehicle_type_id":"4","last_reported":1691525222,"current_range_meters":21200,"station_id":"ce4bh3p2rcd13ifvqdq0","pricing_plan_id":"free"},{"bike_id":"500befe4-1b9a-4031-90f8-29477093c232","system_id":"levelo_inurba_marseille","lat":43.295196,"lon":5.39397,"is_reserved":false,"is_disabled":false,"rental_uris":{"android":"levelo://app?vid=500befe4-1b9a-4031-90f8-29477093c232","ios":"levelo://app?vid=500befe4-1b9a-4031-90f8-29477093c232"},"vehicle_type_id":"4","last_reported":1691525222,"current_range_meters":30400,"station_id":"ce4bh292rcd13ifvqdf0","pricing_plan_id":"free"},{"bike_id":"6c8f5daa-51e7-47ca-b21a-e76b0ee0417c","system_id":"levelo_inurba_marseille","lat":43.28702,"lon":5.37398,"is_reserved":false,"is_disabled":false,"rental_uris":{"android":"levelo://app?vid=6c8f5daa-51e7-47ca-b21a-e76b0ee0417c","ios":"levelo://app?vid=6c8f5daa-51e7-47ca-b21a-e76b0ee0417c"},"vehicle_type_id":"4","last_reported":1691525222,"current_range_meters":25600,"station_id":"","pricing_plan_id":"free"},{"bike_id":"75199276-b705-4ad7-b6a9-49aeaa84628a","system_id":"levelo_inurba_marseille","lat":43.286591,"lon":5.363346,"is_reserved":false,"is_disabled":false,"rental_uris":{"android":"levelo://app?vid=75199276-b705-4ad7-b6a9-49aeaa84628a","ios":"levelo://app?vid=75199276-b705-4ad7-b6a9-49aeaa84628a"},"vehicle_type_id":"4","last_reported":1691525222,"current_range_meters":31200,"station_id":"ce4bhah2rcd13ifvqej0","pricing_plan_id":"free"},{"bike_id":"1f690a92-6583-4dcf-8c21-b1f92c04f067","system_id":"levelo_inurba_marseille","lat":43.295194,"lon":5.39397,"is_reserved":false,"is_disabled":false,"rental_uris":{"android":"levelo://app?vid=1f690a92-6583-4dcf-8c21-b1f92c04f067","ios":"levelo://app?vid=1f690a92-6583-4dcf-8c21-b1f92c04f067"},"vehicle_type_id":"4","last_reported":1691525222,"current_range_meters":18400,"station_id":"ce4bh292rcd13ifvqdf0","pricing_plan_id":"free"},{"bike_id":"161960d2-7e11-4a8a-bfd6-6f023beeba81","system_id":"levelo_inurba_marseille","lat":43.290345,"lon":5.38646,"is_reserved":false,"is_disabled":false,"rental_uris":{"android":"levelo://app?vid=161960d2-7e11-4a8a-bfd6-6f023beeba81","ios":"levelo://app?vid=161960d2-7e11-4a8a-bfd6-6f023beeba81"},"vehicle_type_id":"4","last_reported":1691525222,"current_range_meters":8000,"station_id":"ce4bh4p2rcd13ifvqe0g","pricing_plan_id":"free"},{"bike_id":"7b9e2d57-7c2f-4652-8ec0-ee4d147afe24","system_id":"levelo_inurba_marseille","lat":43.302548,"lon":5.400568,"is_reserved":false,"is_disabled":false,"rental_uris":{"android":"levelo://app?vid=7b9e2d57-7c2f-4652-8ec0-ee4d147afe24","ios":"levelo://app?vid=7b9e2d57-7c2f-4652-8ec0-ee4d147afe24"},"vehicle_type_id":"4","last_reported":1691525222,"current_range_meters":0,"station_id":"","pricing_plan_id":"free"},{"bike_id":"9507ce86-d255-4617-9153-59782551f962","system_id":"levelo_inurba_marseille","lat":43.290345,"lon":5.38646,"is_reserved":false,"is_disabled":false,"rental_uris":{"android":"levelo://app?vid=9507ce86-d255-4617-9153-59782551f962","ios":"levelo://app?vid=9507ce86-d255-4617-9153-59782551f962"},"vehicle_type_id":"4","last_reported":1691525222,"current_range_meters":4000,"station_id":"ce4bh4p2rcd13ifvqe0g","pricing_plan_id":"free"},{"bike_id":"15d9635e-54d7-4cb9-b63f-42b7c7d5a818","system_id":"levelo_inurba_marseille","lat":43.290345,"lon":5.38646,"is_reserved":false,"is_disabled":false,"rental_uris":{"android":"levelo://app?vid=15d9635e-54d7-4cb9-b63f-42b7c7d5a818","ios":"levelo://app?vid=15d9635e-54d7-4cb9-b63f-42b7c7d5a818"},"vehicle_type_id":"4","last_reported":1691525222,"current_range_meters":2400,"station_id":"ce4bh4p2rcd13ifvqe0g","pricing_plan_id":"free"},{"bike_id":"bf03198f-3988-4fb7-8a72-acd3975f6555","system_id":"levelo_inurba_marseille","lat":43.290336,"lon":5.386425,"is_reserved":false,"is_disabled":false,"rental_uris":{"android":"levelo://app?vid=bf03198f-3988-4fb7-8a72-acd3975f6555","ios":"levelo://app?vid=bf03198f-3988-4fb7-8a72-acd3975f6555"},"vehicle_type_id":"4","last_reported":1691525222,"current_range_meters":25600,"station_id":"ce4bh4p2rcd13ifvqe0g","pricing_plan_id":"free"},{"bike_id":"ae955aa1-d765-4817-bcb9-c93015b9109c","system_id":"levelo_inurba_marseille","lat":43.302759,"lon":5.400793,"is_reserved":false,"is_disabled":false,"rental_uris":{"android":"levelo://app?vid=ae955aa1-d765-4817-bcb9-c93015b9109c","ios":"levelo://app?vid=ae955aa1-d765-4817-bcb9-c93015b9109c"},"vehicle_type_id":"4","last_reported":1691525222,"current_range_meters":31200,"station_id":"ce4bgvh2rcd13ifvqcs0","pricing_plan_id":"free"},{"bike_id":"5eea571a-27ef-4ce1-bc7e-95ab7f0a8554","system_id":"levelo_inurba_marseille","lat":43.30248,"lon":5.40082,"is_reserved":false,"is_disabled":false,"rental_uris":{"android":"levelo://app?vid=5eea571a-27ef-4ce1-bc7e-95ab7f0a8554","ios":"levelo://app?vid=5eea571a-27ef-4ce1-bc7e-95ab7f0a8554"},"vehicle_type_id":"4","last_reported":1691525222,"current_range_meters":28800,"station_id":"ce4bgvh2rcd13ifvqcs0","pricing_plan_id":"free"},{"bike_id":"a4e9e027-01c1-4d50-b0e6-52ade52af8ba","system_id":"levelo_inurba_marseille","lat":43.28612,"lon":5.37056,"is_reserved":false,"is_disabled":false,"rental_uris":{"android":"levelo://app?vid=a4e9e027-01c1-4d50-b0e6-52ade52af8ba","ios":"levelo://app?vid=a4e9e027-01c1-4d50-b0e6-52ade52af8ba"},"vehicle_type_id":"4","last_reported":1691525222,"current_range_meters":21200,"station_id":"ce4bht12rcd13ifvqi60","pricing_plan_id":"free"},{"bike_id":"ce2e1f2a-26d1-48ab-9f18-0d221b2d5791","system_id":"levelo_inurba_marseille","lat":43.28609,"lon":5.37064,"is_reserved":false,"is_disabled":false,"rental_uris":{"android":"levelo://app?vid=ce2e1f2a-26d1-48ab-9f18-0d221b2d5791","ios":"levelo://app?vid=ce2e1f2a-26d1-48ab-9f18-0d221b2d5791"},"vehicle_type_id":"4","last_reported":1691525222,"current_range_meters":16400,"station_id":"ce4bht12rcd13ifvqi60","pricing_plan_id":"free"},{"bike_id":"96f4aaee-96ea-45ae-be0e-f2cd8c7529bb","system_id":"levelo_inurba_marseille","lat":43.28608,"lon":5.37061,"is_reserved":false,"is_disabled":false,"rental_uris":{"android":"levelo://app?vid=96f4aaee-96ea-45ae-be0e-f2cd8c7529bb","ios":"levelo://app?vid=96f4aaee-96ea-45ae-be0e-f2cd8c7529bb"},"vehicle_type_id":"4","last_reported":1691525222,"current_range_meters":18800,"station_id":"ce4bht12rcd13ifvqi60","pricing_plan_id":"free"},{"bike_id":"f73b60c3-ea6d-421b-988f-134a64a3fbac","system_id":"levelo_inurba_marseille","lat":43.286039,"lon":5.370679,"is_reserved":false,"is_disabled":false,"rental_uris":{"android":"levelo://app?vid=f73b60c3-ea6d-421b-988f-134a64a3fbac","ios":"levelo://app?vid=f73b60c3-ea6d-421b-988f-134a64a3fbac"},"vehicle_type_id":"4","last_reported":1691525222,"current_range_meters":31200,"station_id":"ce4bht12rcd13ifvqi60","pricing_plan_id":"free"},{"bike_id":"f71b3cab-3819-4e5c-9c5c-460af0139094","system_id":"levelo_inurba_marseille","lat":43.28731,"lon":5.37924,"is_reserved":false,"is_disabled":false,"rental_uris":{"android":"levelo://app?vid=f71b3cab-3819-4e5c-9c5c-460af0139094","ios":"levelo://app?vid=f71b3cab-3819-4e5c-9c5c-460af0139094"},"vehicle_type_id":"4","last_reported":1691525222,"current_range_meters":20800,"station_id":"ce4bh9p2rcd13ifvqec0","pricing_plan_id":"free"},{"bike_id":"89bdb2cf-b281-41cc-8f09-1125dc4b3839","system_id":"levelo_inurba_marseille","lat":43.28729,"lon":5.37936,"is_reserved":false,"is_disabled":false,"rental_uris":{"android":"levelo://app?vid=89bdb2cf-b281-41cc-8f09-1125dc4b3839","ios":"levelo://app?vid=89bdb2cf-b281-41cc-8f09-1125dc4b3839"},"vehicle_type_id":"4","last_reported":1691525222,"current_range_meters":8400,"station_id":"ce4bh9p2rcd13ifvqec0","pricing_plan_id":"free"},{"bike_id":"1c125414-5959-48a3-8dc4-3654bb01dc66","system_id":"levelo_inurba_marseille","lat":43.31642,"lon":5.40435,"is_reserved":false,"is_disabled":false,"rental_uris":{"android":"levelo://app?vid=1c125414-5959-48a3-8dc4-3654bb01dc66","ios":"levelo://app?vid=1c125414-5959-48a3-8dc4-3654bb01dc66"},"vehicle_type_id":"4","last_reported":1691525222,"current_range_meters":14000,"station_id":"ce4bh012rcd13ifvqd00","pricing_plan_id":"free"},{"bike_id":"60c606eb-bd08-48c0-9ed3-077c2ab9bb0b","system_id":"levelo_inurba_marseille","lat":43.291994,"lon":5.392907,"is_reserved":false,"is_disabled":false,"rental_uris":{"android":"levelo://app?vid=60c606eb-bd08-48c0-9ed3-077c2ab9bb0b","ios":"levelo://app?vid=60c606eb-bd08-48c0-9ed3-077c2ab9bb0b"},"vehicle_type_id":"4","last_reported":1691525222,"current_range_meters":3200,"station_id":"ce4bh192rcd13ifvqdd0","pricing_plan_id":"free"},{"bike_id":"e59cde8b-492b-4643-8993-f3a8bd7dede4","system_id":"levelo_inurba_marseille","lat":43.29201,"lon":5.39322,"is_reserved":false,"is_disabled":false,"rental_uris":{"android":"levelo://app?vid=e59cde8b-492b-4643-8993-f3a8bd7dede4","ios":"levelo://app?vid=e59cde8b-492b-4643-8993-f3a8bd7dede4"},"vehicle_type_id":"4","last_reported":1691525222,"current_range_meters":22400,"station_id":"ce4bh192rcd13ifvqdd0","pricing_plan_id":"free"},{"bike_id":"0573659b-ae43-48a9-94d8-c03faeb1ead8","system_id":"levelo_inurba_marseille","lat":43.291994,"lon":5.392907,"is_reserved":false,"is_disabled":false,"rental_uris":{"android":"levelo://app?vid=0573659b-ae43-48a9-94d8-c03faeb1ead8","ios":"levelo://app?vid=0573659b-ae43-48a9-94d8-c03faeb1ead8"},"vehicle_type_id":"4","last_reported":1691525222,"current_range_meters":20400,"station_id":"ce4bh192rcd13ifvqdd0","pricing_plan_id":"free"},{"bike_id":"ebc05f8f-2b8f-40be-99f0-31067482730d","system_id":"levelo_inurba_marseille","lat":43.291957,"lon":5.393194,"is_reserved":false,"is_disabled":false,"rental_uris":{"android":"levelo://app?vid=ebc05f8f-2b8f-40be-99f0-31067482730d","ios":"levelo://app?vid=ebc05f8f-2b8f-40be-99f0-31067482730d"},"vehicle_type_id":"4","last_reported":1691525222,"current_range_meters":0,"station_id":"ce4bh192rcd13ifvqdd0","pricing_plan_id":"free"},{"bike_id":"96946ea1-e91d-4a89-8237-33b202af0026","system_id":"levelo_inurba_marseille","lat":43.291994,"lon":5.392907,"is_reserved":false,"is_disabled":false,"rental_uris":{"android":"levelo://app?vid=96946ea1-e91d-4a89-8237-33b202af0026","ios":"levelo://app?vid=96946ea1-e91d-4a89-8237-33b202af0026"},"vehicle_type_id":"4","last_reported":1691525222,"current_range_meters":23600,"station_id":"ce4bh192rcd13ifvqdd0","pricing_plan_id":"free"},{"bike_id":"843be686-a1ea-42a6-98ea-c62b4bed7eda","system_id":"levelo_inurba_marseille","lat":43.29195,"lon":5.39336,"is_reserved":false,"is_disabled":false,"rental_uris":{"android":"levelo://app?vid=843be686-a1ea-42a6-98ea-c62b4bed7eda","ios":"levelo://app?vid=843be686-a1ea-42a6-98ea-c62b4bed7eda"},"vehicle_type_id":"4","last_reported":1691525222,"current_range_meters":22000,"station_id":"ce4bh192rcd13ifvqdd0","pricing_plan_id":"free"},{"bike_id":"89a45cc8-8922-4862-b595-a3826be16a7a","system_id":"levelo_inurba_marseille","lat":43.284538,"lon":5.358657,"is_reserved":false,"is_disabled":false,"rental_uris":{"android":"levelo://app?vid=89a45cc8-8922-4862-b595-a3826be16a7a","ios":"levelo://app?vid=89a45cc8-8922-4862-b595-a3826be16a7a"},"vehicle_type_id":"4","last_reported":1691525222,"current_range_meters":11200,"station_id":"ce4bhah2rcd13ifvqei0","pricing_plan_id":"free"},{"bike_id":"f9c6cf06-7158-423d-afe2-15a0a13b9f85","system_id":"levelo_inurba_marseille","lat":43.284538,"lon":5.358657,"is_reserved":false,"is_disabled":false,"rental_uris":{"android":"levelo://app?vid=f9c6cf06-7158-423d-afe2-15a0a13b9f85","ios":"levelo://app?vid=f9c6cf06-7158-423d-afe2-15a0a13b9f85"},"vehicle_type_id":"4","last_reported":1691525222,"current_range_meters":3600,"station_id":"ce4bhah2rcd13ifvqei0","pricing_plan_id":"free"},{"bike_id":"d999c3d6-f31f-4d7c-87e9-efece363a51d","system_id":"levelo_inurba_marseille","lat":43.284538,"lon":5.358657,"is_reserved":false,"is_disabled":false,"rental_uris":{"android":"levelo://app?vid=d999c3d6-f31f-4d7c-87e9-efece363a51d","ios":"levelo://app?vid=d999c3d6-f31f-4d7c-87e9-efece363a51d"},"vehicle_type_id":"4","last_reported":1691525222,"current_range_meters":17600,"station_id":"ce4bhah2rcd13ifvqei0","pricing_plan_id":"free"},{"bike_id":"208e4a32-0ba7-48fa-82b3-1714ab6e2b1b","system_id":"levelo_inurba_marseille","lat":43.28458,"lon":5.35895,"is_reserved":false,"is_disabled":false,"rental_uris":{"android":"levelo://app?vid=208e4a32-0ba7-48fa-82b3-1714ab6e2b1b","ios":"levelo://app?vid=208e4a32-0ba7-48fa-82b3-1714ab6e2b1b"},"vehicle_type_id":"4","last_reported":1691525222,"current_range_meters":10800,"station_id":"ce4bhah2rcd13ifvqei0","pricing_plan_id":"free"},{"bike_id":"9c29a799-aeed-41e7-96c0-226f062ddc46","system_id":"levelo_inurba_marseille","lat":43.29449,"lon":5.39754,"is_reserved":false,"is_disabled":false,"rental_uris":{"android":"levelo://app?vid=9c29a799-aeed-41e7-96c0-226f062ddc46","ios":"levelo://app?vid=9c29a799-aeed-41e7-96c0-226f062ddc46"},"vehicle_type_id":"4","last_reported":1691525222,"current_range_meters":800,"station_id":"ce4bh3h2rcd13ifvqdo0","pricing_plan_id":"free"},{"bike_id":"fd016b28-d187-4ff1-9f8e-3217f72ea0f8","system_id":"levelo_inurba_marseille","lat":43.28614,"lon":5.35104,"is_reserved":false,"is_disabled":false,"rental_uris":{"android":"levelo://app?vid=fd016b28-d187-4ff1-9f8e-3217f72ea0f8","ios":"levelo://app?vid=fd016b28-d187-4ff1-9f8e-3217f72ea0f8"},"vehicle_type_id":"4","last_reported":1691525222,"current_range_meters":7600,"station_id":"ce4bhch2rcd13ifvqeug","pricing_plan_id":"free"},{"bike_id":"74869cd0-1a8c-41a1-aa85-0996725c5de1","system_id":"levelo_inurba_marseille","lat":43.28428,"lon":5.37519,"is_reserved":false,"is_disabled":false,"rental_uris":{"android":"levelo://app?vid=74869cd0-1a8c-41a1-aa85-0996725c5de1","ios":"levelo://app?vid=74869cd0-1a8c-41a1-aa85-0996725c5de1"},"vehicle_type_id":"4","last_reported":1691525222,"current_range_meters":23200,"station_id":"ce4bh412rcd13ifvqds0","pricing_plan_id":"free"},{"bike_id":"071cd34f-e655-45b6-91f4-a171ac050e5b","system_id":"levelo_inurba_marseille","lat":43.28424,"lon":5.37505,"is_reserved":false,"is_disabled":false,"rental_uris":{"android":"levelo://app?vid=071cd34f-e655-45b6-91f4-a171ac050e5b","ios":"levelo://app?vid=071cd34f-e655-45b6-91f4-a171ac050e5b"},"vehicle_type_id":"4","last_reported":1691525222,"current_range_meters":4800,"station_id":"ce4bh412rcd13ifvqds0","pricing_plan_id":"free"},{"bike_id":"7d357873-015f-417e-bdab-4b076284a54e","system_id":"levelo_inurba_marseille","lat":43.28424,"lon":5.37516,"is_reserved":false,"is_disabled":false,"rental_uris":{"android":"levelo://app?vid=7d357873-015f-417e-bdab-4b076284a54e","ios":"levelo://app?vid=7d357873-015f-417e-bdab-4b076284a54e"},"vehicle_type_id":"4","last_reported":1691525222,"current_range_meters":0,"station_id":"ce4bh412rcd13ifvqds0","pricing_plan_id":"free"},{"bike_id":"12d59836-e2c9-4246-8e3d-e55373e2174d","system_id":"levelo_inurba_marseille","lat":43.28419,"lon":5.37514,"is_reserved":false,"is_disabled":false,"rental_uris":{"android":"levelo://app?vid=12d59836-e2c9-4246-8e3d-e55373e2174d","ios":"levelo://app?vid=12d59836-e2c9-4246-8e3d-e55373e2174d"},"vehicle_type_id":"4","last_reported":1691525222,"current_range_meters":400,"station_id":"ce4bh412rcd13ifvqds0","pricing_plan_id":"free"},{"bike_id":"edf0a53e-8231-451c-9ca7-4deb67fbeab1","system_id":"levelo_inurba_marseille","lat":43.28419,"lon":5.37521,"is_reserved":false,"is_disabled":false,"rental_uris":{"android":"levelo://app?vid=edf0a53e-8231-451c-9ca7-4deb67fbeab1","ios":"levelo://app?vid=edf0a53e-8231-451c-9ca7-4deb67fbeab1"},"vehicle_type_id":"4","last_reported":1691525222,"current_range_meters":23200,"station_id":"ce4bh412rcd13ifvqds0","pricing_plan_id":"free"},{"bike_id":"d1046bd0-b28c-43bd-96a9-79fb249a0f0c","system_id":"levelo_inurba_marseille","lat":43.283998,"lon":5.375062,"is_reserved":false,"is_disabled":false,"rental_uris":{"android":"levelo://app?vid=d1046bd0-b28c-43bd-96a9-79fb249a0f0c","ios":"levelo://app?vid=d1046bd0-b28c-43bd-96a9-79fb249a0f0c"},"vehicle_type_id":"4","last_reported":1691525222,"current_range_meters":17600,"station_id":"ce4bh412rcd13ifvqds0","pricing_plan_id":"free"},{"bike_id":"27ba3a6e-fcb3-41f3-a218-01f1bb2a8245","system_id":"levelo_inurba_marseille","lat":43.283998,"lon":5.375062,"is_reserved":false,"is_disabled":false,"rental_uris":{"android":"levelo://app?vid=27ba3a6e-fcb3-41f3-a218-01f1bb2a8245","ios":"levelo://app?vid=27ba3a6e-fcb3-41f3-a218-01f1bb2a8245"},"vehicle_type_id":"4","last_reported":1691525222,"current_range_meters":30800,"station_id":"ce4bh412rcd13ifvqds0","pricing_plan_id":"free"},{"bike_id":"7feb13d3-4b80-4fb8-b30c-621184b6bf00","system_id":"levelo_inurba_marseille","lat":43.28669,"lon":5.38666,"is_reserved":false,"is_disabled":false,"rental_uris":{"android":"levelo://app?vid=7feb13d3-4b80-4fb8-b30c-621184b6bf00","ios":"levelo://app?vid=7feb13d3-4b80-4fb8-b30c-621184b6bf00"},"vehicle_type_id":"4","last_reported":1691525222,"current_range_meters":7600,"station_id":"ce4bh492rcd13ifvqdug","pricing_plan_id":"free"},{"bike_id":"f9553fab-da8a-40f6-ac75-eac9a93c1399","system_id":"levelo_inurba_marseille","lat":43.337168,"lon":5.391825,"is_reserved":false,"is_disabled":false,"rental_uris":{"android":"levelo://app?vid=f9553fab-da8a-40f6-ac75-eac9a93c1399","ios":"levelo://app?vid=f9553fab-da8a-40f6-ac75-eac9a93c1399"},"vehicle_type_id":"4","last_reported":1691525222,"current_range_meters":20400,"station_id":"ce4bhr92rcd13ifvqhsg","pricing_plan_id":"free"},{"bike_id":"baaca672-c198-461c-ba32-114a8a294884","system_id":"levelo_inurba_marseille","lat":43.3372,"lon":5.3917,"is_reserved":false,"is_disabled":false,"rental_uris":{"android":"levelo://app?vid=baaca672-c198-461c-ba32-114a8a294884","ios":"levelo://app?vid=baaca672-c198-461c-ba32-114a8a294884"},