{"last_updated":1769109413,"ttl":60,"version":"2.2","data":{"bikes":[{"bike_id":"5eaf03ad-8436-449a-bded-fe922f662081","system_id":"levelo_inurba_marseille","lat":43.2535,"lon":5.42171,"is_reserved":false,"is_disabled":false,"rental_uris":{"android":"levelo://app?vid=5eaf03ad-8436-449a-bded-fe922f662081","ios":"levelo://app?vid=5eaf03ad-8436-449a-bded-fe922f662081"},"vehicle_type_id":"4","last_reported":1769109414,"current_range_meters":2800,"station_id":"st_d2m65c5bi1j21697t3ng","pricing_plan_id":"cebpf4jnsgd1na2vs0mg"},{"bike_id":"6a834cca-1107-46ce-a852-97045d1233df","system_id":"levelo_inurba_marseille","lat":43.2502,"lon":5.38917,"is_reserved":false,"is_disabled":false,"rental_uris":{"android":"levelo://app?vid=6a834cca-1107-46ce-a852-97045d1233df","ios":"levelo://app?vid=6a834cca-1107-46ce-a852-97045d1233df"},"vehicle_type_id":"4","last_reported":1769109414,"current_range_meters":2800,"station_id":"ce4bhgp2rcd13ifvqfd0","pricing_plan_id":"cebpf4jnsgd1na2vs0mg"},{"bike_id":"eec4ddff-d8c2-415a-982e-b6471c267aba","system_id":"levelo_inurba_marseille","lat":43.28223,"lon":5.36109,"is_reserved":false,"is_disabled":false,"rental_uris":{"android":"levelo://app?vid=eec4ddff-d8c2-415a-982e-b6471c267aba","ios":"levelo://app?vid=eec4ddff-d8c2-415a-982e-b6471c267aba"},"vehicle_type_id":"4","last_reported":1769109414,"current_range_meters":2800,"station_id":"","pricing_plan_id":"cebpf4jnsgd1na2vs0mg"},{"bike_id":"d732189c-4945-43d4-b5ab-31ed791b37ad","system_id":"levelo_inurba_marseille","lat":43.28965,"lon":5.36408,"is_reserved":false,"is_disabled":false,"rental_uris":{"android":"levelo://app?vid=d732189c-4945-43d4-b5ab-31ed791b37ad","ios":"levelo://app?vid=d732189c-4945-43d4-b5ab-31ed791b37ad"},"vehicle_type_id":"4","last_reported":1769109414,"current_range_meters":2800,"station_id":"ce4bhc92rcd13ifvqetg","pricing_plan_id":"cebpf4jnsgd1na2vs0mg"},{"bike_id":"488d3d36-c3f0-4390-80be-f0194a76248a","system_id":"levelo_inurba_marseille","lat":43.25589,"lon":5.40425,"is_reserved":false,"is_disabled":false,"rental_uris":{"android":"levelo://app?vid=488d3d36-c3f0-4390-80be-f0194a76248a","ios":"levelo://app?vid=488d3d36-c3f0-4390-80be-f0194a76248a"},"vehicle_type_id":"4","last_reported":1769109414,"current_range_meters":2800,"station_id":"","pricing_plan_id":"cebpf4jnsgd1na2vs0mg"},{"bike_id":"ee33ab3a-e3bc-40d4-a67a-4cd737f87d9a","system_id":"levelo_inurba_marseille","lat":43.2991,"lon":5.37454,"is_reserved":false,"is_disabled":false,"rental_uris":{"android":"levelo://app?vid=ee33ab3a-e3bc-40d4-a67a-4cd737f87d9a","ios":"levelo://app?vid=ee33ab3a-e3bc-40d4-a67a-4cd737f87d9a"},"vehicle_type_id":"4","last_reported":1769109414,"current_range_meters":2800,"station_id":"ce4bgjh2rcd13ifvqbg0","pricing_plan_id":"cebpf4jnsgd1na2vs0mg"},{"bike_id":"78b38b5a-d1e4-4403-ac45-fc557534fffc","system_id":"levelo_inurba_marseille","lat":43.269412,"lon":5.40259,"is_reserved":false,"is_disabled":false,"rental_uris":{"android":"levelo://app?vid=78b38b5a-d1e4-4403-ac45-fc557534fffc","ios":"levelo://app?vid=78b38b5a-d1e4-4403-ac45-fc557534fffc"},"vehicle_type_id":"4","last_reported":1769109414,"current_range_meters":2800,"station_id":"cjm6bp8fraef2m0cb0m0","pricing_plan_id":"cebpf4jnsgd1na2vs0mg"},{"bike_id":"206441f8-aeae-4f5a-aba6-5de70a26d57c","system_id":"levelo_inurba_marseille","lat":43.265527,"lon":5.372884,"is_reserved":false,"is_disabled":false,"rental_uris":{"android":"levelo://app?vid=206441f8-aeae-4f5a-aba6-5de70a26d57c","ios":"levelo://app?vid=206441f8-aeae-4f5a-aba6-5de70a26d57c"},"vehicle_type_id":"4","last_reported":1769109414,"current_range_meters":3200,"station_id":"ce4bhg12rcd13ifvqf70","pricing_plan_id":"cebpf4jnsgd1na2vs0mg"},{"bike_id":"fe2a828f-710f-491e-b529-f22ca09a8365","system_id":"levelo_inurba_marseille","lat":43.30741,"lon":5.40947,"is_reserved":false,"is_disabled":false,"rental_uris":{"android":"levelo://app?vid=fe2a828f-710f-491e-b529-f22ca09a8365","ios":"levelo://app?vid=fe2a828f-710f-491e-b529-f22ca09a8365"},"vehicle_type_id":"4","last_reported":1769109414,"current_range_meters":3200,"station_id":"","pricing_plan_id":"cebpf4jnsgd1na2vs0mg"},{"bike_id":"09376ad3-0c85-49a4-a7cc-7f8161ae7e1a","system_id":"levelo_inurba_marseille","lat":43.28265,"lon":5.35066,"is_reserved":false,"is_disabled":false,"rental_uris":{"android":"levelo://app?vid=09376ad3-0c85-49a4-a7cc-7f8161ae7e1a","ios":"levelo://app?vid=09376ad3-0c85-49a4-a7cc-7f8161ae7e1a"},"vehicle_type_id":"4","last_reported":1769109414,"current_range_meters":3200,"station_id":"ce4bhbp2rcd13ifvqerg","pricing_plan_id":"cebpf4jnsgd1na2vs0mg"},{"bike_id":"163fe388-e9fe-4fba-afd0-5e5bfaa50489","system_id":"levelo_inurba_marseille","lat":43.29434,"lon":5.39762,"is_reserved":false,"is_disabled":false,"rental_uris":{"android":"levelo://app?vid=163fe388-e9fe-4fba-afd0-5e5bfaa50489","ios":"levelo://app?vid=163fe388-e9fe-4fba-afd0-5e5bfaa50489"},"vehicle_type_id":"4","last_reported":1769109414,"current_range_meters":3200,"station_id":"ce4bh3h2rcd13ifvqdo0","pricing_plan_id":"cebpf4jnsgd1na2vs0mg"},{"bike_id":"2faa9769-4266-4c72-8541-5804fbbf8cb8","system_id":"levelo_inurba_marseille","lat":43.29302,"lon":5.37454,"is_reserved":false,"is_disabled":false,"rental_uris":{"android":"levelo://app?vid=2faa9769-4266-4c72-8541-5804fbbf8cb8","ios":"levelo://app?vid=2faa9769-4266-4c72-8541-5804fbbf8cb8"},"vehicle_type_id":"4","last_reported":1769109414,"current_range_meters":3200,"station_id":"ce4bgi12rcd13ifvqb70","pricing_plan_id":"cebpf4jnsgd1na2vs0mg"},{"bike_id":"a635a64b-7b87-424a-a452-083ad45beff1","system_id":"levelo_inurba_marseille","lat":43.265813,"lon":5.395509,"is_reserved":false,"is_disabled":false,"rental_uris":{"android":"levelo://app?vid=a635a64b-7b87-424a-a452-083ad45beff1","ios":"levelo://app?vid=a635a64b-7b87-424a-a452-083ad45beff1"},"vehicle_type_id":"4","last_reported":1769109414,"current_range_meters":3200,"station_id":"ce4bhh12rcd13ifvqfg0","pricing_plan_id":"cebpf4jnsgd1na2vs0mg"},{"bike_id":"a12a0591-b5fa-4788-bed5-a0baf2dfdcab","system_id":"levelo_inurba_marseille","lat":43.29183,"lon":5.35798,"is_reserved":false,"is_disabled":false,"rental_uris":{"android":"levelo://app?vid=a12a0591-b5fa-4788-bed5-a0baf2dfdcab","ios":"levelo://app?vid=a12a0591-b5fa-4788-bed5-a0baf2dfdcab"},"vehicle_type_id":"4","last_reported":1769109414,"current_range_meters":3200,"station_id":"ce4bhb12rcd13ifvqel0","pricing_plan_id":"cebpf4jnsgd1na2vs0mg"},{"bike_id":"5d604095-4af0-4383-a0a9-cc9b9d505183","system_id":"levelo_inurba_marseille","lat":43.3088,"lon":5.39648,"is_reserved":false,"is_disabled":false,"rental_uris":{"android":"levelo://app?vid=5d604095-4af0-4383-a0a9-cc9b9d505183","ios":"levelo://app?vid=5d604095-4af0-4383-a0a9-cc9b9d505183"},"vehicle_type_id":"4","last_reported":1769109414,"current_range_meters":3200,"station_id":"ce4bh012rcd13ifvqcv0","pricing_plan_id":"cebpf4jnsgd1na2vs0mg"},{"bike_id":"94d782ce-d646-4a15-909c-4c48f4840c8d","system_id":"levelo_inurba_marseille","lat":43.25813,"lon":5.39428,"is_reserved":false,"is_disabled":false,"rental_uris":{"android":"levelo://app?vid=94d782ce-d646-4a15-909c-4c48f4840c8d","ios":"levelo://app?vid=94d782ce-d646-4a15-909c-4c48f4840c8d"},"vehicle_type_id":"4","last_reported":1769109414,"current_range_meters":3200,"station_id":"ce4bhip2rcd13ifvqft0","pricing_plan_id":"cebpf4jnsgd1na2vs0mg"},{"bike_id":"713c6557-8476-4835-9f03-3f916372514d","system_id":"levelo_inurba_marseille","lat":43.29029,"lon":5.38627,"is_reserved":false,"is_disabled":false,"rental_uris":{"android":"levelo://app?vid=713c6557-8476-4835-9f03-3f916372514d","ios":"levelo://app?vid=713c6557-8476-4835-9f03-3f916372514d"},"vehicle_type_id":"4","last_reported":1769109414,"current_range_meters":3200,"station_id":"ce4bh4p2rcd13ifvqe0g","pricing_plan_id":"cebpf4jnsgd1na2vs0mg"},{"bike_id":"91c6b80f-ebf8-40dd-9043-2f1efcca7d75","system_id":"levelo_inurba_marseille","lat":43.29534,"lon":5.385419,"is_reserved":false,"is_disabled":true,"rental_uris":{"android":"levelo://app?vid=91c6b80f-ebf8-40dd-9043-2f1efcca7d75","ios":"levelo://app?vid=91c6b80f-ebf8-40dd-9043-2f1efcca7d75"},"vehicle_type_id":"4","last_reported":1769109414,"current_range_meters":3200,"station_id":"ce4bgih2rcd13ifvqba0","pricing_plan_id":"cebpf4jnsgd1na2vs0mg"},{"bike_id":"f6acf5b0-d1d0-4055-8019-38dbcd544c36","system_id":"levelo_inurba_marseille","lat":43.258303,"lon":5.394457,"is_reserved":false,"is_disabled":false,"rental_uris":{"android":"levelo://app?vid=f6acf5b0-d1d0-4055-8019-38dbcd544c36","ios":"levelo://app?vid=f6acf5b0-d1d0-4055-8019-38dbcd544c36"},"vehicle_type_id":"4","last_reported":1769109414,"current_range_meters":3200,"station_id":"ce4bhip2rcd13ifvqft0","pricing_plan_id":"cebpf4jnsgd1na2vs0mg"},{"bike_id":"3a86c55a-2f60-41ec-b5de-04c4359e8f2d","system_id":"levelo_inurba_marseille","lat":43.28441,"lon":5.39152,"is_reserved":false,"is_disabled":false,"rental_uris":{"android":"levelo://app?vid=3a86c55a-2f60-41ec-b5de-04c4359e8f2d","ios":"levelo://app?vid=3a86c55a-2f60-41ec-b5de-04c4359e8f2d"},"vehicle_type_id":"4","last_reported":1769109414,"current_range_meters":3600,"station_id":"ce4bhoh2rcd13ifvqh5g","pricing_plan_id":"cebpf4jnsgd1na2vs0mg"},{"bike_id":"99d65f09-c0e6-4f0f-b72f-6e110c0f1bd4","system_id":"levelo_inurba_marseille","lat":43.28993,"lon":5.37584,"is_reserved":false,"is_disabled":false,"rental_uris":{"android":"levelo://app?vid=99d65f09-c0e6-4f0f-b72f-6e110c0f1bd4","ios":"levelo://app?vid=99d65f09-c0e6-4f0f-b72f-6e110c0f1bd4"},"vehicle_type_id":"4","last_reported":1769109414,"current_range_meters":3600,"station_id":"ce4bh692rcd13ifvqe90","pricing_plan_id":"cebpf4jnsgd1na2vs0mg"},{"bike_id":"f3a01c85-86e9-4a7c-837b-602faf4bbfde","system_id":"levelo_inurba_marseille","lat":43.27999,"lon":5.3869,"is_reserved":false,"is_disabled":false,"rental_uris":{"android":"levelo://app?vid=f3a01c85-86e9-4a7c-837b-602faf4bbfde","ios":"levelo://app?vid=f3a01c85-86e9-4a7c-837b-602faf4bbfde"},"vehicle_type_id":"4","last_reported":1769109414,"current_range_meters":3600,"station_id":"","pricing_plan_id":"cebpf4jnsgd1na2vs0mg"},{"bike_id":"24da7d1f-4c31-464c-8591-7c8451c98bcf","system_id":"levelo_inurba_marseille","lat":43.23138,"lon":5.43718,"is_reserved":false,"is_disabled":false,"rental_uris":{"android":"levelo://app?vid=24da7d1f-4c31-464c-8591-7c8451c98bcf","ios":"levelo://app?vid=24da7d1f-4c31-464c-8591-7c8451c98bcf"},"vehicle_type_id":"4","last_reported":1769109414,"current_range_meters":3600,"station_id":"ce4bhmp2rcd13ifvqgog","pricing_plan_id":"cebpf4jnsgd1na2vs0mg"},{"bike_id":"6c4e672c-68ac-448f-be9f-20bcb8c02f5c","system_id":"levelo_inurba_marseille","lat":43.23967,"lon":5.36621,"is_reserved":false,"is_disabled":false,"rental_uris":{"android":"levelo://app?vid=6c4e672c-68ac-448f-be9f-20bcb8c02f5c","ios":"levelo://app?vid=6c4e672c-68ac-448f-be9f-20bcb8c02f5c"},"vehicle_type_id":"4","last_reported":1769109414,"current_range_meters":3600,"station_id":"ce4bhi12rcd13ifvqfp0","pricing_plan_id":"cebpf4jnsgd1na2vs0mg"},{"bike_id":"dde7b0e0-bbd1-44de-82f6-999f8e69694c","system_id":"levelo_inurba_marseille","lat":43.25511,"lon":5.37643,"is_reserved":false,"is_disabled":false,"rental_uris":{"android":"levelo://app?vid=dde7b0e0-bbd1-44de-82f6-999f8e69694c","ios":"levelo://app?vid=dde7b0e0-bbd1-44de-82f6-999f8e69694c"},"vehicle_type_id":"4","last_reported":1769109414,"current_range_meters":3600,"station_id":"ce4bhh12rcd13ifvqff0","pricing_plan_id":"cebpf4jnsgd1na2vs0mg"},{"bike_id":"63b039c4-6e26-4734-9555-31e6647d566a","system_id":"levelo_inurba_marseille","lat":43.30799,"lon":5.38159,"is_reserved":false,"is_disabled":false,"rental_uris":{"android":"levelo://app?vid=63b039c4-6e26-4734-9555-31e6647d566a","ios":"levelo://app?vid=63b039c4-6e26-4734-9555-31e6647d566a"},"vehicle_type_id":"4","last_reported":1769109414,"current_range_meters":3600,"station_id":"ce4bgt12rcd13ifvqce0","pricing_plan_id":"cebpf4jnsgd1na2vs0mg"},{"bike_id":"545e4f83-e51a-49da-ad95-1c0f7558160f","system_id":"levelo_inurba_marseille","lat":43.24795,"lon":5.37452,"is_reserved":false,"is_disabled":false,"rental_uris":{"android":"levelo://app?vid=545e4f83-e51a-49da-ad95-1c0f7558160f","ios":"levelo://app?vid=545e4f83-e51a-49da-ad95-1c0f7558160f"},"vehicle_type_id":"4","last_reported":1769109414,"current_range_meters":3600,"station_id":"ce4bhgh2rcd13ifvqfb0","pricing_plan_id":"cebpf4jnsgd1na2vs0mg"},{"bike_id":"70942bdb-cce8-4766-ba54-c7a8cb5b950f","system_id":"levelo_inurba_marseille","lat":43.25569,"lon":5.38235,"is_reserved":false,"is_disabled":false,"rental_uris":{"android":"levelo://app?vid=70942bdb-cce8-4766-ba54-c7a8cb5b950f","ios":"levelo://app?vid=70942bdb-cce8-4766-ba54-c7a8cb5b950f"},"vehicle_type_id":"4","last_reported":1769109414,"current_range_meters":3600,"station_id":"ce4bhih2rcd13ifvqfs0","pricing_plan_id":"cebpf4jnsgd1na2vs0mg"},{"bike_id":"41e11cca-6914-408b-9e0c-c3b0a2c93539","system_id":"levelo_inurba_marseille","lat":43.29964,"lon":5.38495,"is_reserved":false,"is_disabled":false,"rental_uris":{"android":"levelo://app?vid=41e11cca-6914-408b-9e0c-c3b0a2c93539","ios":"levelo://app?vid=41e11cca-6914-408b-9e0c-c3b0a2c93539"},"vehicle_type_id":"4","last_reported":1769109414,"current_range_meters":3600,"station_id":"ce4bgj92rcd13ifvqbd0","pricing_plan_id":"cebpf4jnsgd1na2vs0mg"},{"bike_id":"b1976e7f-f8b8-4864-9e87-b9955da362dc","system_id":"levelo_inurba_marseille","lat":43.28678,"lon":5.38948,"is_reserved":false,"is_disabled":false,"rental_uris":{"android":"levelo://app?vid=b1976e7f-f8b8-4864-9e87-b9955da362dc","ios":"levelo://app?vid=b1976e7f-f8b8-4864-9e87-b9955da362dc"},"vehicle_type_id":"4","last_reported":1769109414,"current_range_meters":3600,"station_id":"","pricing_plan_id":"cebpf4jnsgd1na2vs0mg"},{"bike_id":"99c4d33e-a334-4bcb-904f-4b07c1407b59","system_id":"levelo_inurba_marseille","lat":43.25401,"lon":5.41892,"is_reserved":false,"is_disabled":false,"rental_uris":{"android":"levelo://app?vid=99c4d33e-a334-4bcb-904f-4b07c1407b59","ios":"levelo://app?vid=99c4d33e-a334-4bcb-904f-4b07c1407b59"},"vehicle_type_id":"4","last_reported":1769109414,"current_range_meters":3600,"station_id":"","pricing_plan_id":"cebpf4jnsgd1na2vs0mg"},{"bike_id":"ef6fae58-91e5-4bb7-aaac-7e9985256503","system_id":"levelo_inurba_marseille","lat":43.29237,"lon":5.40893,"is_reserved":false,"is_disabled":false,"rental_uris":{"android":"levelo://app?vid=ef6fae58-91e5-4bb7-aaac-7e9985256503","ios":"levelo://app?vid=ef6fae58-91e5-4bb7-aaac-7e9985256503"},"vehicle_type_id":"4","last_reported":1769109414,"current_range_meters":3600,"station_id":"ce4bh192rcd13ifvqdc0","pricing_plan_id":"cebpf4jnsgd1na2vs0mg"},{"bike_id":"a4d44896-ca37-4d0e-8595-a2aee6d5f8ab","system_id":"levelo_inurba_marseille","lat":43.3209,"lon":5.36784,"is_reserved":false,"is_disabled":false,"rental_uris":{"android":"levelo://app?vid=a4d44896-ca37-4d0e-8595-a2aee6d5f8ab","ios":"levelo://app?vid=a4d44896-ca37-4d0e-8595-a2aee6d5f8ab"},"vehicle_type_id":"4","last_reported":1769109414,"current_range_meters":3600,"station_id":"ce4bhrh2rcd13ifvqhug","pricing_plan_id":"cebpf4jnsgd1na2vs0mg"},{"bike_id":"978a497d-8e29-471e-9db4-0f6c152c2e71","system_id":"levelo_inurba_marseille","lat":43.29172,"lon":5.37147,"is_reserved":false,"is_disabled":false,"rental_uris":{"android":"levelo://app?vid=978a497d-8e29-471e-9db4-0f6c152c2e71","ios":"levelo://app?vid=978a497d-8e29-471e-9db4-0f6c152c2e71"},"vehicle_type_id":"4","last_reported":1769109414,"current_range_meters":3600,"station_id":"ce4bha92rcd13ifvqeh0","pricing_plan_id":"cebpf4jnsgd1na2vs0mg"},{"bike_id":"bf22db13-58cd-4393-9cf1-d411f7c0b6e4","system_id":"levelo_inurba_marseille","lat":43.29888,"lon":5.39754,"is_reserved":false,"is_disabled":false,"rental_uris":{"android":"levelo://app?vid=bf22db13-58cd-4393-9cf1-d411f7c0b6e4","ios":"levelo://app?vid=bf22db13-58cd-4393-9cf1-d411f7c0b6e4"},"vehicle_type_id":"4","last_reported":1769109414,"current_range_meters":3600,"station_id":"ce4bh0h2rcd13ifvqd50","pricing_plan_id":"cebpf4jnsgd1na2vs0mg"},{"bike_id":"1f374d1d-5345-4f57-ac3a-925f20df0c7e","system_id":"levelo_inurba_marseille","lat":43.22553,"lon":5.41621,"is_reserved":false,"is_disabled":false,"rental_uris":{"android":"levelo://app?vid=1f374d1d-5345-4f57-ac3a-925f20df0c7e","ios":"levelo://app?vid=1f374d1d-5345-4f57-ac3a-925f20df0c7e"},"vehicle_type_id":"4","last_reported":1769109414,"current_range_meters":4000,"station_id":"st_d2o4gvlbi1j2169b742g","pricing_plan_id":"cebpf4jnsgd1na2vs0mg"},{"bike_id":"ebc59118-e1a4-482d-84d0-eafb34b0b9ea","system_id":"levelo_inurba_marseille","lat":43.23774,"lon":5.36633,"is_reserved":false,"is_disabled":false,"rental_uris":{"android":"levelo://app?vid=ebc59118-e1a4-482d-84d0-eafb34b0b9ea","ios":"levelo://app?vid=ebc59118-e1a4-482d-84d0-eafb34b0b9ea"},"vehicle_type_id":"4","last_reported":1769109414,"current_range_meters":4000,"station_id":"st_d3nk18o9ro0c73en2l3g","pricing_plan_id":"cebpf4jnsgd1na2vs0mg"},{"bike_id":"092d7fea-e7a2-4278-89f1-4598b2c3628d","system_id":"levelo_inurba_marseille","lat":43.30118,"lon":5.37418,"is_reserved":false,"is_disabled":true,"rental_uris":{"android":"levelo://app?vid=092d7fea-e7a2-4278-89f1-4598b2c3628d","ios":"levelo://app?vid=092d7fea-e7a2-4278-89f1-4598b2c3628d"},"vehicle_type_id":"4","last_reported":1769109414,"current_range_meters":4000,"station_id":"ce4bgs92rcd13ifvqcc0","pricing_plan_id":"cebpf4jnsgd1na2vs0mg"},{"bike_id":"b46fe261-a5bd-4f08-891f-2f97b5d4e733","system_id":"levelo_inurba_marseille","lat":43.299186,"lon":5.374606,"is_reserved":false,"is_disabled":false,"rental_uris":{"android":"levelo://app?vid=b46fe261-a5bd-4f08-891f-2f97b5d4e733","ios":"levelo://app?vid=b46fe261-a5bd-4f08-891f-2f97b5d4e733"},"vehicle_type_id":"4","last_reported":1769109414,"current_range_meters":4000,"station_id":"ce4bgjh2rcd13ifvqbg0","pricing_plan_id":"cebpf4jnsgd1na2vs0mg"},{"bike_id":"607c435d-5fb0-4f63-b221-a58bdcfdc9c2","system_id":"levelo_inurba_marseille","lat":43.250013,"lon":5.389257,"is_reserved":false,"is_disabled":false,"rental_uris":{"android":"levelo://app?vid=607c435d-5fb0-4f63-b221-a58bdcfdc9c2","ios":"levelo://app?vid=607c435d-5fb0-4f63-b221-a58bdcfdc9c2"},"vehicle_type_id":"4","last_reported":1769109414,"current_range_meters":4000,"station_id":"ce4bhgp2rcd13ifvqfd0","pricing_plan_id":"cebpf4jnsgd1na2vs0mg"},{"bike_id":"a0846daa-a8a2-4372-a16e-0ccd0ab2b1a5","system_id":"levelo_inurba_marseille","lat":43.28998,"lon":5.37853,"is_reserved":false,"is_disabled":false,"rental_uris":{"android":"levelo://app?vid=a0846daa-a8a2-4372-a16e-0ccd0ab2b1a5","ios":"levelo://app?vid=a0846daa-a8a2-4372-a16e-0ccd0ab2b1a5"},"vehicle_type_id":"4","last_reported":1769109414,"current_range_meters":4000,"station_id":"ce4bh9p2rcd13ifvqed0","pricing_plan_id":"cebpf4jnsgd1na2vs0mg"},{"bike_id":"d8f34b5e-d831-4a3d-8643-93f2f2dfecae","system_id":"levelo_inurba_marseille","lat":43.241713,"lon":5.363973,"is_reserved":false,"is_disabled":false,"rental_uris":{"android":"levelo://app?vid=d8f34b5e-d831-4a3d-8643-93f2f2dfecae","ios":"levelo://app?vid=d8f34b5e-d831-4a3d-8643-93f2f2dfecae"},"vehicle_type_id":"4","last_reported":1769109414,"current_range_meters":4000,"station_id":"cpo36qri1sfpv3e86is0","pricing_plan_id":"cebpf4jnsgd1na2vs0mg"},{"bike_id":"3998b630-1550-4129-b95e-2d12a38501a1","system_id":"levelo_inurba_marseille","lat":43.255713,"lon":5.382288,"is_reserved":false,"is_disabled":false,"rental_uris":{"android":"levelo://app?vid=3998b630-1550-4129-b95e-2d12a38501a1","ios":"levelo://app?vid=3998b630-1550-4129-b95e-2d12a38501a1"},"vehicle_type_id":"4","last_reported":1769109414,"current_range_meters":4000,"station_id":"ce4bhih2rcd13ifvqfs0","pricing_plan_id":"cebpf4jnsgd1na2vs0mg"},{"bike_id":"6506f395-aeb6-40f1-aa0c-e7dab94b318d","system_id":"levelo_inurba_marseille","lat":43.311181,"lon":5.377684,"is_reserved":false,"is_disabled":false,"rental_uris":{"android":"levelo://app?vid=6506f395-aeb6-40f1-aa0c-e7dab94b318d","ios":"levelo://app?vid=6506f395-aeb6-40f1-aa0c-e7dab94b318d"},"vehicle_type_id":"4","last_reported":1769109414,"current_range_meters":4000,"station_id":"ce4bgh92rcd13ifvqb40","pricing_plan_id":"cebpf4jnsgd1na2vs0mg"},{"bike_id":"133dd31b-7e8b-494a-b027-d9d75407821f","system_id":"levelo_inurba_marseille","lat":43.32478,"lon":5.36527,"is_reserved":false,"is_disabled":false,"rental_uris":{"android":"levelo://app?vid=133dd31b-7e8b-494a-b027-d9d75407821f","ios":"levelo://app?vid=133dd31b-7e8b-494a-b027-d9d75407821f"},"vehicle_type_id":"4","last_reported":1769109414,"current_range_meters":4000,"station_id":"ce4bhs12rcd13ifvqhvg","pricing_plan_id":"cebpf4jnsgd1na2vs0mg"},{"bike_id":"b05d35a6-a4b1-4f68-ab22-eac501a6370f","system_id":"levelo_inurba_marseille","lat":43.32312,"lon":5.36723,"is_reserved":false,"is_disabled":false,"rental_uris":{"android":"levelo://app?vid=b05d35a6-a4b1-4f68-ab22-eac501a6370f","ios":"levelo://app?vid=b05d35a6-a4b1-4f68-ab22-eac501a6370f"},"vehicle_type_id":"4","last_reported":1769109414,"current_range_meters":4000,"station_id":"ce4bhsh2rcd13ifvqi2g","pricing_plan_id":"cebpf4jnsgd1na2vs0mg"},{"bike_id":"4b64b372-e92e-4b0a-9fdc-10a99889c121","system_id":"levelo_inurba_marseille","lat":43.26542,"lon":5.37298,"is_reserved":false,"is_disabled":false,"rental_uris":{"android":"levelo://app?vid=4b64b372-e92e-4b0a-9fdc-10a99889c121","ios":"levelo://app?vid=4b64b372-e92e-4b0a-9fdc-10a99889c121"},"vehicle_type_id":"4","last_reported":1769109414,"current_range_meters":4000,"station_id":"ce4bhg12rcd13ifvqf70","pricing_plan_id":"cebpf4jnsgd1na2vs0mg"},{"bike_id":"50ac1084-fb68-4703-ba12-9e94054663ee","system_id":"levelo_inurba_marseille","lat":43.29524,"lon":5.39016,"is_reserved":false,"is_disabled":false,"rental_uris":{"android":"levelo://app?vid=50ac1084-fb68-4703-ba12-9e94054663ee","ios":"levelo://app?vid=50ac1084-fb68-4703-ba12-9e94054663ee"},"vehicle_type_id":"4","last_reported":1769109414,"current_range_meters":4000,"station_id":"ce4bh3p2rcd13ifvqdp0","pricing_plan_id":"cebpf4jnsgd1na2vs0mg"},{"bike_id":"c51139f6-7e60-4a58-9b11-4557a31ee89e","system_id":"levelo_inurba_marseille","lat":43.28403,"lon":5.37521,"is_reserved":false,"is_disabled":false,"rental_uris":{"android":"levelo://app?vid=c51139f6-7e60-4a58-9b11-4557a31ee89e","ios":"levelo://app?vid=c51139f6-7e60-4a58-9b11-4557a31ee89e"},"vehicle_type_id":"4","last_reported":1769109414,"current_range_meters":4000,"station_id":"ce4bh412rcd13ifvqds0","pricing_plan_id":"cebpf4jnsgd1na2vs0mg"},{"bike_id":"6e5945d3-4381-4918-a229-f818950efa50","system_id":"levelo_inurba_marseille","lat":43.24065,"lon":5.37748,"is_reserved":false,"is_disabled":false,"rental_uris":{"android":"levelo://app?vid=6e5945d3-4381-4918-a229-f818950efa50","ios":"levelo://app?vid=6e5945d3-4381-4918-a229-f818950efa50"},"vehicle_type_id":"4","last_reported":1769109414,"current_range_meters":4000,"station_id":"ce4bhnp2rcd13ifvqgvg","pricing_plan_id":"cebpf4jnsgd1na2vs0mg"},{"bike_id":"6327ee48-c483-4513-854a-267a753affd9","system_id":"levelo_inurba_marseille","lat":43.28478,"lon":5.48395,"is_reserved":false,"is_disabled":false,"rental_uris":{"android":"levelo://app?vid=6327ee48-c483-4513-854a-267a753affd9","ios":"levelo://app?vid=6327ee48-c483-4513-854a-267a753affd9"},"vehicle_type_id":"4","last_reported":1769109414,"current_range_meters":4000,"station_id":"st_d3svhcjqgbts73a3dn0g","pricing_plan_id":"cebpf4jnsgd1na2vs0mg"},{"bike_id":"b0b89150-8069-42ef-81fb-775d39cd82f4","system_id":"levelo_inurba_marseille","lat":43.26567,"lon":5.39002,"is_reserved":false,"is_disabled":false,"rental_uris":{"android":"levelo://app?vid=b0b89150-8069-42ef-81fb-775d39cd82f4","ios":"levelo://app?vid=b0b89150-8069-42ef-81fb-775d39cd82f4"},"vehicle_type_id":"4","last_reported":1769109414,"current_range_meters":4000,"station_id":"ce4bhe12rcd13ifvqf30","pricing_plan_id":"cebpf4jnsgd1na2vs0mg"},{"bike_id":"a7427b0f-7e85-43b0-9b85-c9697e38edaf","system_id":"levelo_inurba_marseille","lat":43.292047,"lon":5.38165,"is_reserved":false,"is_disabled":false,"rental_uris":{"android":"levelo://app?vid=a7427b0f-7e85-43b0-9b85-c9697e38edaf","ios":"levelo://app?vid=a7427b0f-7e85-43b0-9b85-c9697e38edaf"},"vehicle_type_id":"4","last_reported":1769109414,"current_range_meters":4400,"station_id":"ce4bhs12rcd13ifvqhvg","pricing_plan_id":"cebpf4jnsgd1na2vs0mg"},{"bike_id":"d0311c2d-b6fc-4ebc-98d5-ed1a13875774","system_id":"levelo_inurba_marseille","lat":43.2749,"lon":5.42445,"is_reserved":false,"is_disabled":false,"rental_uris":{"android":"levelo://app?vid=d0311c2d-b6fc-4ebc-98d5-ed1a13875774","ios":"levelo://app?vid=d0311c2d-b6fc-4ebc-98d5-ed1a13875774"},"vehicle_type_id":"4","last_reported":1769109414,"current_range_meters":4400,"station_id":"ce4bhn92rcd13ifvqgrg","pricing_plan_id":"cebpf4jnsgd1na2vs0mg"},{"bike_id":"bd3222b3-dffe-4214-a25c-da1b23e1c71b","system_id":"levelo_inurba_marseille","lat":43.32303,"lon":5.36769,"is_reserved":false,"is_disabled":false,"rental_uris":{"android":"levelo://app?vid=bd3222b3-dffe-4214-a25c-da1b23e1c71b","ios":"levelo://app?vid=bd3222b3-dffe-4214-a25c-da1b23e1c71b"},"vehicle_type_id":"4","last_reported":1769109414,"current_range_meters":4400,"station_id":"ce4bhsh2rcd13ifvqi2g","pricing_plan_id":"cebpf4jnsgd1na2vs0mg"},{"bike_id":"1b08a942-2c69-4e01-bc42-2d47d9de5a32","system_id":"levelo_inurba_marseille","lat":43.26564,"lon":5.39032,"is_reserved":false,"is_disabled":false,"rental_uris":{"android":"levelo://app?vid=1b08a942-2c69-4e01-bc42-2d47d9de5a32","ios":"levelo://app?vid=1b08a942-2c69-4e01-bc42-2d47d9de5a32"},"vehicle_type_id":"4","last_reported":1769109414,"current_range_meters":4400,"station_id":"ce4bhe12rcd13ifvqf30","pricing_plan_id":"cebpf4jnsgd1na2vs0mg"},{"bike_id":"3e13f48c-d8db-48f2-a8d2-6e314da3eb54","system_id":"levelo_inurba_marseille","lat":43.27912,"lon":5.39585,"is_reserved":false,"is_disabled":false,"rental_uris":{"android":"levelo://app?vid=3e13f48c-d8db-48f2-a8d2-6e314da3eb54","ios":"levelo://app?vid=3e13f48c-d8db-48f2-a8d2-6e314da3eb54"},"vehicle_type_id":"4","last_reported":1769109414,"current_range_meters":4400,"station_id":"ce4bhf92rcd13ifvqf40","pricing_plan_id":"cebpf4jnsgd1na2vs0mg"},{"bike_id":"811e4109-4554-441e-908e-4c588b5c7adf","system_id":"levelo_inurba_marseille","lat":43.29735,"lon":5.36876,"is_reserved":false,"is_disabled":false,"rental_uris":{"android":"levelo://app?vid=811e4109-4554-441e-908e-4c588b5c7adf","ios":"levelo://app?vid=811e4109-4554-441e-908e-4c588b5c7adf"},"vehicle_type_id":"4","last_reported":1769109414,"current_range_meters":4400,"station_id":"","pricing_plan_id":"cebpf4jnsgd1na2vs0mg"},{"bike_id":"8d51da67-a56b-4de5-8f4b-74de1e7e7ab7","system_id":"levelo_inurba_marseille","lat":43.26373,"lon":5.41079,"is_reserved":false,"is_disabled":false,"rental_uris":{"android":"levelo://app?vid=8d51da67-a56b-4de5-8f4b-74de1e7e7ab7","ios":"levelo://app?vid=8d51da67-a56b-4de5-8f4b-74de1e7e7ab7"},"vehicle_type_id":"4","last_reported":1769109414,"current_range_meters":4400,"station_id":"st_d4e5ca6na9uc73bfl5fg","pricing_plan_id":"cebpf4jnsgd1na2vs0mg"},{"bike_id":"ddac16df-da7b-4c1e-8c96-25bd2dbc1226","system_id":"levelo_inurba_marseille","lat":43.32348,"lon":5.3672,"is_reserved":false,"is_disabled":false,"rental_uris":{"android":"levelo://app?vid=ddac16df-da7b-4c1e-8c96-25bd2dbc1226","ios":"levelo://app?vid=ddac16df-da7b-4c1e-8c96-25bd2dbc1226"},"vehicle_type_id":"4","last_reported":1769109414,"current_range_meters":4400,"station_id":"ce4bhsh2rcd13ifvqi2g","pricing_plan_id":"cebpf4jnsgd1na2vs0mg"},{"bike_id":"aec5c08c-9f05-47e9-bb02-2d63b83fc483","system_id":"levelo_inurba_marseille","lat":43.26753,"lon":5.39236,"is_reserved":false,"is_disabled":false,"rental_uris":{"android":"levelo://app?vid=aec5c08c-9f05-47e9-bb02-2d63b83fc483","ios":"levelo://app?vid=aec5c08c-9f05-47e9-bb02-2d63b83fc483"},"vehicle_type_id":"4","last_reported":1769109414,"current_range_meters":4400,"station_id":"","pricing_plan_id":"cebpf4jnsgd1na2vs0mg"},{"bike_id":"0cf10c45-e9bb-4cdc-a3ca-bdcd22336018","system_id":"levelo_inurba_marseille","lat":43.30874,"lon":5.3964,"is_reserved":false,"is_disabled":false,"rental_uris":{"android":"levelo://app?vid=0cf10c45-e9bb-4cdc-a3ca-bdcd22336018","ios":"levelo://app?vid=0cf10c45-e9bb-4cdc-a3ca-bdcd22336018"},"vehicle_type_id":"4","last_reported":1769109414,"current_range_meters":4400,"station_id":"ce4bh012rcd13ifvqcv0","pricing_plan_id":"cebpf4jnsgd1na2vs0mg"},{"bike_id":"737cdf6e-8c2e-4b43-8e7d-478c69e4c6a4","system_id":"levelo_inurba_marseille","lat":43.33116,"lon":5.39042,"is_reserved":false,"is_disabled":false,"rental_uris":{"android":"levelo://app?vid=737cdf6e-8c2e-4b43-8e7d-478c69e4c6a4","ios":"levelo://app?vid=737cdf6e-8c2e-4b43-8e7d-478c69e4c6a4"},"vehicle_type_id":"4","last_reported":1769109414,"current_range_meters":4400,"station_id":"","pricing_plan_id":"cebpf4jnsgd1na2vs0mg"},{"bike_id":"fc5d102e-6a36-4a5b-99d5-23cf30eec9b5","system_id":"levelo_inurba_marseille","lat":43.23195,"lon":5.35552,"is_reserved":false,"is_disabled":false,"rental_uris":{"android":"levelo://app?vid=fc5d102e-6a36-4a5b-99d5-23cf30eec9b5","ios":"levelo://app?vid=fc5d102e-6a36-4a5b-99d5-23cf30eec9b5"},"vehicle_type_id":"4","last_reported":1769109414,"current_range_meters":4800,"station_id":"ce4bhu92rcd13ifvqi70","pricing_plan_id":"cebpf4jnsgd1na2vs0mg"},{"bike_id":"bf8122b8-b4db-4f29-a941-c238456e60da","system_id":"levelo_inurba_marseille","lat":43.29168,"lon":5.37156,"is_reserved":false,"is_disabled":false,"rental_uris":{"android":"levelo://app?vid=bf8122b8-b4db-4f29-a941-c238456e60da","ios":"levelo://app?vid=bf8122b8-b4db-4f29-a941-c238456e60da"},"vehicle_type_id":"4","last_reported":1769109414,"current_range_meters":4800,"station_id":"ce4bha92rcd13ifvqeh0","pricing_plan_id":"cebpf4jnsgd1na2vs0mg"},{"bike_id":"7317348a-ea7d-4b51-be03-a643e6e01753","system_id":"levelo_inurba_marseille","lat":43.29972,"lon":5.38504,"is_reserved":false,"is_disabled":false,"rental_uris":{"android":"levelo://app?vid=7317348a-ea7d-4b51-be03-a643e6e01753","ios":"levelo://app?vid=7317348a-ea7d-4b51-be03-a643e6e01753"},"vehicle_type_id":"4","last_reported":1769109414,"current_range_meters":4800,"station_id":"ce4bgj92rcd13ifvqbd0","pricing_plan_id":"cebpf4jnsgd1na2vs0mg"},{"bike_id":"ef2bad25-e21e-4331-9ced-740ab233247f","system_id":"levelo_inurba_marseille","lat":43.29528,"lon":5.38542,"is_reserved":false,"is_disabled":false,"rental_uris":{"android":"levelo://app?vid=ef2bad25-e21e-4331-9ced-740ab233247f","ios":"levelo://app?vid=ef2bad25-e21e-4331-9ced-740ab233247f"},"vehicle_type_id":"4","last_reported":1769109414,"current_range_meters":4800,"station_id":"ce4bgih2rcd13ifvqba0","pricing_plan_id":"cebpf4jnsgd1na2vs0mg"},{"bike_id":"5f4c7ac4-6b5a-4640-bf71-a81a7db3c254","system_id":"levelo_inurba_marseille","lat":43.29283,"lon":5.40108,"is_reserved":false,"is_disabled":false,"rental_uris":{"android":"levelo://app?vid=5f4c7ac4-6b5a-4640-bf71-a81a7db3c254","ios":"levelo://app?vid=5f4c7ac4-6b5a-4640-bf71-a81a7db3c254"},"vehicle_type_id":"4","last_reported":1769109414,"current_range_meters":4800,"station_id":"ce4bh312rcd13ifvqdk0","pricing_plan_id":"cebpf4jnsgd1na2vs0mg"},{"bike_id":"7220f2e0-b70f-4cfb-873e-ef206426c08d","system_id":"levelo_inurba_marseille","lat":43.303182,"lon":5.404592,"is_reserved":false,"is_disabled":false,"rental_uris":{"android":"levelo://app?vid=7220f2e0-b70f-4cfb-873e-ef206426c08d","ios":"levelo://app?vid=7220f2e0-b70f-4cfb-873e-ef206426c08d"},"vehicle_type_id":"4","last_reported":1769109414,"current_range_meters":4800,"station_id":"ce4bh012rcd13ifvqd10","pricing_plan_id":"cebpf4jnsgd1na2vs0mg"},{"bike_id":"27677e2d-3c4b-4fc1-8023-993656695abf","system_id":"levelo_inurba_marseille","lat":43.30208,"lon":5.39468,"is_reserved":false,"is_disabled":false,"rental_uris":{"android":"levelo://app?vid=27677e2d-3c4b-4fc1-8023-993656695abf","ios":"levelo://app?vid=27677e2d-3c4b-4fc1-8023-993656695abf"},"vehicle_type_id":"4","last_reported":1769109414,"current_range_meters":4800,"station_id":"ce4bh0p2rcd13ifvqd70","pricing_plan_id":"cebpf4jnsgd1na2vs0mg"},{"bike_id":"d7a66618-8b2e-466d-b773-83bae00d870c","system_id":"levelo_inurba_marseille","lat":43.237895,"lon":5.366347,"is_reserved":false,"is_disabled":false,"rental_uris":{"android":"levelo://app?vid=d7a66618-8b2e-466d-b773-83bae00d870c","ios":"levelo://app?vid=d7a66618-8b2e-466d-b773-83bae00d870c"},"vehicle_type_id":"4","last_reported":1769109414,"current_range_meters":4800,"station_id":"st_d3nk18o9ro0c73en2l3g","pricing_plan_id":"cebpf4jnsgd1na2vs0mg"},{"bike_id":"a7dca984-2a89-4f7d-a4b2-c4b75083a65d","system_id":"levelo_inurba_marseille","lat":43.24641,"lon":5.38874,"is_reserved":false,"is_disabled":false,"rental_uris":{"android":"levelo://app?vid=a7dca984-2a89-4f7d-a4b2-c4b75083a65d","ios":"levelo://app?vid=a7dca984-2a89-4f7d-a4b2-c4b75083a65d"},"vehicle_type_id":"4","last_reported":1769109414,"current_range_meters":4800,"station_id":"ce4bh392rcd13ifvqdl0","pricing_plan_id":"cebpf4jnsgd1na2vs0mg"},{"bike_id":"c0969b4f-ec39-4b3a-8439-b78f56b59286","system_id":"levelo_inurba_marseille","lat":43.31102,"lon":5.3848,"is_reserved":false,"is_disabled":false,"rental_uris":{"android":"levelo://app?vid=c0969b4f-ec39-4b3a-8439-b78f56b59286","ios":"levelo://app?vid=c0969b4f-ec39-4b3a-8439-b78f56b59286"},"vehicle_type_id":"4","last_reported":1769109414,"current_range_meters":4800,"station_id":"","pricing_plan_id":"cebpf4jnsgd1na2vs0mg"},{"bike_id":"af3e4ec7-913b-43cf-991c-29cf9d90a50c","system_id":"levelo_inurba_marseille","lat":43.31089,"lon":5.37157,"is_reserved":false,"is_disabled":false,"rental_uris":{"android":"levelo://app?vid=af3e4ec7-913b-43cf-991c-29cf9d90a50c","ios":"levelo://app?vid=af3e4ec7-913b-43cf-991c-29cf9d90a50c"},"vehicle_type_id":"4","last_reported":1769109414,"current_range_meters":4800,"station_id":"st_d4kl2rp97mjs73e7tdfg","pricing_plan_id":"cebpf4jnsgd1na2vs0mg"},{"bike_id":"f909883c-4edd-4352-ba22-83e48def0e80","system_id":"levelo_inurba_marseille","lat":43.3091,"lon":5.4017,"is_reserved":false,"is_disabled":false,"rental_uris":{"android":"levelo://app?vid=f909883c-4edd-4352-ba22-83e48def0e80","ios":"levelo://app?vid=f909883c-4edd-4352-ba22-83e48def0e80"},"vehicle_type_id":"4","last_reported":1769109414,"current_range_meters":4800,"station_id":"ce4bgvp2rcd13ifvqct0","pricing_plan_id":"cebpf4jnsgd1na2vs0mg"},{"bike_id":"5a0b5ced-2864-4e44-a912-b5c12eabb027","system_id":"levelo_inurba_marseille","lat":43.25725,"lon":5.4112,"is_reserved":false,"is_disabled":false,"rental_uris":{"android":"levelo://app?vid=5a0b5ced-2864-4e44-a912-b5c12eabb027","ios":"levelo://app?vid=5a0b5ced-2864-4e44-a912-b5c12eabb027"},"vehicle_type_id":"4","last_reported":1769109414,"current_range_meters":5600,"station_id":"ce4bhkp2rcd13ifvqgd0","pricing_plan_id":"cebpf4jnsgd1na2vs0mg"},{"bike_id":"68226070-db87-4f3a-bcca-d8c5e4b321f8","system_id":"levelo_inurba_marseille","lat":43.30197,"lon":5.37796,"is_reserved":false,"is_disabled":false,"rental_uris":{"android":"levelo://app?vid=68226070-db87-4f3a-bcca-d8c5e4b321f8","ios":"levelo://app?vid=68226070-db87-4f3a-bcca-d8c5e4b321f8"},"vehicle_type_id":"4","last_reported":1769109414,"current_range_meters":5600,"station_id":"","pricing_plan_id":"cebpf4jnsgd1na2vs0mg"},{"bike_id":"f6eb85c1-f53f-4dc1-8797-0471cff4e32e","system_id":"levelo_inurba_marseille","lat":43.28551,"lon":5.39104,"is_reserved":false,"is_disabled":false,"rental_uris":{"android":"levelo://app?vid=f6eb85c1-f53f-4dc1-8797-0471cff4e32e","ios":"levelo://app?vid=f6eb85c1-f53f-4dc1-8797-0471cff4e32e"},"vehicle_type_id":"4","last_reported":1769109414,"current_range_meters":5600,"station_id":"","pricing_plan_id":"cebpf4jnsgd1na2vs0mg"},{"bike_id":"2ff3fdc1-d72f-46a0-9897-afa495a44533","system_id":"levelo_inurba_marseille","lat":43.24163,"lon":5.397,"is_reserved":false,"is_disabled":false,"rental_uris":{"android":"levelo://app?vid=2ff3fdc1-d72f-46a0-9897-afa495a44533","ios":"levelo://app?vid=2ff3fdc1-d72f-46a0-9897-afa495a44533"},"vehicle_type_id":"4","last_reported":1769109414,"current_range_meters":5600,"station_id":"ce4bhn12rcd13ifvqgpg","pricing_plan_id":"cebpf4jnsgd1na2vs0mg"},{"bike_id":"e650fd1b-0212-42d3-ad1a-f0a421e763fb","system_id":"levelo_inurba_marseille","lat":43.29058,"lon":5.37153,"is_reserved":false,"is_disabled":false,"rental_uris":{"android":"levelo://app?vid=e650fd1b-0212-42d3-ad1a-f0a421e763fb","ios":"levelo://app?vid=e650fd1b-0212-42d3-ad1a-f0a421e763fb"},"vehicle_type_id":"4","last_reported":1769109414,"current_range_meters":5600,"station_id":"ce4bh5p2rcd13ifvqe4g","pricing_plan_id":"cebpf4jnsgd1na2vs0mg"},{"bike_id":"9fe60a77-1f5b-492d-8b7b-2a8d7a3b8c64","system_id":"levelo_inurba_marseille","lat":43.2953,"lon":5.37505,"is_reserved":false,"is_disabled":false,"rental_uris":{"android":"levelo://app?vid=9fe60a77-1f5b-492d-8b7b-2a8d7a3b8c64","ios":"levelo://app?vid=9fe60a77-1f5b-492d-8b7b-2a8d7a3b8c64"},"vehicle_type_id":"4","last_reported":1769109414,"current_range_meters":5600,"station_id":"ce4bgkp2rcd13ifvqbmg","pricing_plan_id":"cebpf4jnsgd1na2vs0mg"},{"bike_id":"f459be51-84ed-4a2a-8367-a5a81505604e","system_id":"levelo_inurba_marseille","lat":43.29176,"lon":5.37156,"is_reserved":false,"is_disabled":false,"rental_uris":{"android":"levelo://app?vid=f459be51-84ed-4a2a-8367-a5a81505604e","ios":"levelo://app?vid=f459be51-84ed-4a2a-8367-a5a81505604e"},"vehicle_type_id":"4","last_reported":1769109414,"current_range_meters":5600,"station_id":"ce4bha92rcd13ifvqeh0","pricing_plan_id":"cebpf4jnsgd1na2vs0mg"},{"bike_id":"4ad9a7dd-c8ce-4335-a6c9-a76193d97d97","system_id":"levelo_inurba_marseille","lat":43.29535,"lon":5.39393,"is_reserved":false,"is_disabled":false,"rental_uris":{"android":"levelo://app?vid=4ad9a7dd-c8ce-4335-a6c9-a76193d97d97","ios":"levelo://app?vid=4ad9a7dd-c8ce-4335-a6c9-a76193d97d97"},"vehicle_type_id":"4","last_reported":1769109414,"current_range_meters":5600,"station_id":"ce4bh292rcd13ifvqdf0","pricing_plan_id":"cebpf4jnsgd1na2vs0mg"},{"bike_id":"b8bf0a3b-b8eb-48e8-9567-f4364864492f","system_id":"levelo_inurba_marseille","lat":43.311762,"lon":5.387142,"is_reserved":false,"is_disabled":false,"rental_uris":{"android":"levelo://app?vid=b8bf0a3b-b8eb-48e8-9567-f4364864492f","ios":"levelo://app?vid=b8bf0a3b-b8eb-48e8-9567-f4364864492f"},"vehicle_type_id":"4","last_reported":1769109414,"current_range_meters":5600,"station_id":"ce4bgv12rcd13ifvqcp0","pricing_plan_id":"cebpf4jnsgd1na2vs0mg"},{"bike_id":"c4a24615-9239-487a-978b-f35f0b81486e","system_id":"levelo_inurba_marseille","lat":43.28411,"lon":5.37527,"is_reserved":false,"is_disabled":false,"rental_uris":{"android":"levelo://app?vid=c4a24615-9239-487a-978b-f35f0b81486e","ios":"levelo://app?vid=c4a24615-9239-487a-978b-f35f0b81486e"},"vehicle_type_id":"4","last_reported":1769109414,"current_range_meters":5600,"station_id":"ce4bh412rcd13ifvqds0","pricing_plan_id":"cebpf4jnsgd1na2vs0mg"},{"bike_id":"8aedde56-ec30-4ed0-8472-f98f086de579","system_id":"levelo_inurba_marseille","lat":43.30449,"lon":5.37534,"is_reserved":false,"is_disabled":false,"rental_uris":{"android":"levelo://app?vid=8aedde56-ec30-4ed0-8472-f98f086de579","ios":"levelo://app?vid=8aedde56-ec30-4ed0-8472-f98f086de579"},"vehicle_type_id":"4","last_reported":1769109414,"current_range_meters":5600,"station_id":"","pricing_plan_id":"cebpf4jnsgd1na2vs0mg"},{"bike_id":"62931247-4aff-4f68-9011-cb1aa7863151","system_id":"levelo_inurba_marseille","lat":43.25589,"lon":5.38232,"is_reserved":false,"is_disabled":false,"rental_uris":{"android":"levelo://app?vid=62931247-4aff-4f68-9011-cb1aa7863151","ios":"levelo://app?vid=62931247-4aff-4f68-9011-cb1aa7863151"},"vehicle_type_id":"4","last_reported":1769109414,"current_range_meters":5600,"station_id":"ce4bhih2rcd13ifvqfs0","pricing_plan_id":"cebpf4jnsgd1na2vs0mg"},{"bike_id":"3206456b-45fe-4b57-ad6e-10515c2f78b7","system_id":"levelo_inurba_marseille","lat":43.24471,"lon":5.42536,"is_reserved":false,"is_disabled":false,"rental_uris":{"android":"levelo://app?vid=3206456b-45fe-4b57-ad6e-10515c2f78b7","ios":"levelo://app?vid=3206456b-45fe-4b57-ad6e-10515c2f78b7"},"vehicle_type_id":"4","last_reported":1769109414,"current_range_meters":5600,"station_id":"st_d4a3vfp97mjs738cd8kg","pricing_plan_id":"cebpf4jnsgd1na2vs0mg"},{"bike_id":"20cc351b-8d83-4f18-8bcf-d6d8cdb86d17","system_id":"levelo_inurba_marseille","lat":43.29253,"lon":5.38446,"is_reserved":false,"is_disabled":false,"rental_uris":{"android":"levelo://app?vid=20cc351b-8d83-4f18-8bcf-d6d8cdb86d17","ios":"levelo://app?vid=20cc351b-8d83-4f18-8bcf-d6d8cdb86d17"},"vehicle_type_id":"4","last_reported":1769109414,"current_range_meters":5600,"station_id":"ce4bh692rcd13ifvqea0","pricing_plan_id":"cebpf4jnsgd1na2vs0mg"},{"bike_id":"8293963f-3f4a-4a79-ad33-d56ccdfdb8ee","system_id":"levelo_inurba_marseille","lat":43.296,"lon":5.38092,"is_reserved":false,"is_disabled":false,"rental_uris":{"android":"levelo://app?vid=8293963f-3f4a-4a79-ad33-d56ccdfdb8ee","ios":"levelo://app?vid=8293963f-3f4a-4a79-ad33-d56ccdfdb8ee"},"vehicle_type_id":"4","last_reported":1769109414,"current_range_meters":6000,"station_id":"ce4bgl12rcd13ifvqbo0","pricing_plan_id":"cebpf4jnsgd1na2vs0mg"},{"bike_id":"c11faaac-eca6-4ce6-8839-b7eb66c57162","system_id":"levelo_inurba_marseille","lat":43.28147,"lon":5.42639,"is_reserved":false,"is_disabled":false,"rental_uris":{"android":"levelo://app?vid=c11faaac-eca6-4ce6-8839-b7eb66c57162","ios":"levelo://app?vid=c11faaac-eca6-4ce6-8839-b7eb66c57162"},"vehicle_type_id":"4","last_reported":1769109414,"current_range_meters":6000,"station_id":"ce4bhnh2rcd13ifvqgug","pricing_plan_id":"cebpf4jnsgd1na2vs0mg"},{"bike_id":"d8344329-153b-4a08-9de8-fc84530e10b9","system_id":"levelo_inurba_marseille","lat":43.23801,"lon":5.36619,"is_reserved":false,"is_disabled":false,"rental_uris":{"android":"levelo://app?vid=d8344329-153b-4a08-9de8-fc84530e10b9","ios":"levelo://app?vid=d8344329-153b-4a08-9de8-fc84530e10b9"},"vehicle_type_id":"4","last_reported":1769109414,"current_range_meters":6000,"station_id":"st_d3nk18o9ro0c73en2l3g","pricing_plan_id":"cebpf4jnsgd1na2vs0mg"},{"bike_id":"c1bbfc44-868e-41cc-a3f9-f190df3e03a4","system_id":"levelo_inurba_marseille","lat":43.29613,"lon":5.3771,"is_reserved":false,"is_disabled":false,"rental_uris":{"android":"levelo://app?vid=c1bbfc44-868e-41cc-a3f9-f190df3e03a4","ios":"levelo://app?vid=c1bbfc44-868e-41cc-a3f9-f190df3e03a4"},"vehicle_type_id":"4","last_reported":1769109414,"current_range_meters":6000,"station_id":"ce4bgi92rcd13ifvqb90","pricing_plan_id":"cebpf4jnsgd1na2vs0mg"},{"bike_id":"db52c014-7507-43f9-8010-c9eb4d059d84","system_id":"levelo_inurba_marseille","lat":43.25085,"lon":5.395236,"is_reserved":false,"is_disabled":false,"rental_uris":{"android":"levelo://app?vid=db52c014-7507-43f9-8010-c9eb4d059d84","ios":"levelo://app?vid=db52c014-7507-43f9-8010-c9eb4d059d84"},"vehicle_type_id":"4","last_reported":1769109414,"current_range_meters":6000,"station_id":"ce4bhm12rcd13ifvqgkg","pricing_plan_id":"cebpf4jnsgd1na2vs0mg"},{"bike_id":"55c31193-5a38-4c12-b181-254d504a975b","system_id":"levelo_inurba_marseille","lat":43.30126,"lon":5.43116,"is_reserved":false,"is_disabled":false,"rental_uris":{"android":"levelo://app?vid=55c31193-5a38-4c12-b181-254d504a975b","ios":"levelo://app?vid=55c31193-5a38-4c12-b181-254d504a975b"},"vehicle_type_id":"4","last_reported":1769109414,"current_range_meters":6000,"station_id":"st_d3js3co5814s73ftftug","pricing_plan_id":"cebpf4jnsgd1na2vs0mg"},{"bike_id":"f98220fc-889d-44fd-83c4-b74d36c9d0de","system_id":"levelo_inurba_marseille","lat":43.30122,"lon":5.43108,"is_reserved":false,"is_disabled":false,"rental_uris":{"android":"levelo://app?vid=f98220fc-889d-44fd-83c4-b74d36c9d0de","ios":"levelo://app?vid=f98220fc-889d-44fd-83c4-b74d36c9d0de"},"vehicle_type_id":"4","last_reported":1769109414,"current_range_meters":6000,"station_id":"st_d3js3co5814s73ftftug","pricing_plan_id":"cebpf4jnsgd1na2vs0mg"},{"bike_id":"9442084c-3381-47e8-b2dc-95ca76f97342","system_id":"levelo_inurba_marseille","lat":43.24997,"lon":5.38921,"is_reserved":false,"is_disabled":false,"rental_uris":{"android":"levelo://app?vid=9442084c-3381-47e8-b2dc-95ca76f97342","ios":"levelo://app?vid=9442084c-3381-47e8-b2dc-95ca76f97342"},"vehicle_type_id":"4","last_reported":1769109414,"current_range_meters":6000,"station_id":"ce4bhgp2rcd13ifvqfd0","pricing_plan_id":"cebpf4jnsgd1na2vs0mg"},{"bike_id":"f39628e7-f451-4af8-80af-ee31b074b0b2","system_id":"levelo_inurba_marseille","lat":43.28536,"lon":5.4409,"is_reserved":false,"is_disabled":false,"rental_uris":{"android":"levelo://app?vid=f39628e7-f451-4af8-80af-ee31b074b0b2","ios":"levelo://app?vid=f39628e7-f451-4af8-80af-ee31b074b0b2"},"vehicle_type_id":"4","last_reported":1769109414,"current_range_meters":6000,"station_id":"st_d3j3df2ikq2c7380ej80","pricing_plan_id":"cebpf4jnsgd1na2vs0mg"},{"bike_id":"66b52710-c980-4dbe-934a-c3e8ffc0f9e1","system_id":"levelo_inurba_marseille","lat":43.331621,"lon":5.376826,"is_reserved":false,"is_disabled":false,"rental_uris":{"android":"levelo://app?vid=66b52710-c980-4dbe-934a-c3e8ffc0f9e1","ios":"levelo://app?vid=66b52710-c980-4dbe-934a-c3e8ffc0f9e1"},"vehicle_type_id":"4","last_reported":1769109414,"current_range_meters":6000,"station_id":"st_d46cu089ee8s73dldbu0","pricing_plan_id":"cebpf4jnsgd1na2vs0mg"},{"bike_id":"d266ded5-1eac-4edc-a34e-2b3f93037bbe","system_id":"levelo_inurba_marseille","lat":43.29255,"lon":5.38451,"is_reserved":false,"is_disabled":false,"rental_uris":{"android":"levelo://app?vid=d266ded5-1eac-4edc-a34e-2b3f93037bbe","ios":"levelo://app?vid=d266ded5-1eac-4edc-a34e-2b3f93037bbe"},"vehicle_type_id":"4","last_reported":1769109414,"current_range_meters":6000,"station_id":"ce4bh692rcd13ifvqea0","pricing_plan_id":"cebpf4jnsgd1na2vs0mg"},{"bike_id":"ff0646e7-ee67-4600-a0c5-0f1fe4c2e5b7","system_id":"levelo_inurba_marseille","lat":43.30212,"lon":5.39466,"is_reserved":false,"is_disabled":false,"rental_uris":{"android":"levelo://app?vid=ff0646e7-ee67-4600-a0c5-0f1fe4c2e5b7","ios":"levelo://app?vid=ff0646e7-ee67-4600-a0c5-0f1fe4c2e5b7"},"vehicle_type_id":"4","last_reported":1769109414,"current_range_meters":6000,"station_id":"ce4bh0p2rcd13ifvqd70","pricing_plan_id":"cebpf4jnsgd1na2vs0mg"},{"bike_id":"da5e0868-b993-4f26-a633-c0545dd0f17e","system_id":"levelo_inurba_marseille","lat":43.24942,"lon":5.40495,"is_reserved":false,"is_disabled":false,"rental_uris":{"android":"levelo://app?vid=da5e0868-b993-4f26-a633-c0545dd0f17e","ios":"levelo://app?vid=da5e0868-b993-4f26-a633-c0545dd0f17e"},"vehicle_type_id":"4","last_reported":1769109414,"current_range_meters":6000,"station_id":"st_d2ngiaodas8pm72gd1h0","pricing_plan_id":"cebpf4jnsgd1na2vs0mg"},{"bike_id":"5b8789d8-8a74-46cb-9a03-3650cf54c996","system_id":"levelo_inurba_marseille","lat":43.24657,"lon":5.43138,"is_reserved":false,"is_disabled":false,"rental_uris":{"android":"levelo://app?vid=5b8789d8-8a74-46cb-9a03-3650cf54c996","ios":"levelo://app?vid=5b8789d8-8a74-46cb-9a03-3650cf54c996"},"vehicle_type_id":"4","last_reported":1769109414,"current_range_meters":6000,"station_id":"st_d2m6c4gdas8pm72e190g","pricing_plan_id":"cebpf4jnsgd1na2vs0mg"},{"bike_id":"020cfd6a-f32a-46f1-8621-8c0d452c270c","system_id":"levelo_inurba_marseille","lat":43.29014,"lon":5.37585,"is_reserved":false,"is_disabled":false,"rental_uris":{"android":"levelo://app?vid=020cfd6a-f32a-46f1-8621-8c0d452c270c","ios":"levelo://app?vid=020cfd6a-f32a-46f1-8621-8c0d452c270c"},"vehicle_type_id":"4","last_reported":1769109414,"current_range_meters":6400,"station_id":"ce4bh692rcd13ifvqe90","pricing_plan_id":"cebpf4jnsgd1na2vs0mg"},{"bike_id":"bc155171-5926-4120-a41f-255ec3666b8f","system_id":"levelo_inurba_marseille","lat":43.30141,"lon":5.38104,"is_reserved":false,"is_disabled":false,"rental_uris":{"android":"levelo://app?vid=bc155171-5926-4120-a41f-255ec3666b8f","ios":"levelo://app?vid=bc155171-5926-4120-a41f-255ec3666b8f"},"vehicle_type_id":"4","last_reported":1769109414,"current_range_meters":6400,"station_id":"ce4bgjp2rcd13ifvqbh0","pricing_plan_id":"cebpf4jnsgd1na2vs0mg"},{"bike_id":"5de8b9da-2c88-4e3a-a104-4260d4935bc7","system_id":"levelo_inurba_marseille","lat":43.3093,"lon":5.4015,"is_reserved":false,"is_disabled":false,"rental_uris":{"android":"levelo://app?vid=5de8b9da-2c88-4e3a-a104-4260d4935bc7","ios":"levelo://app?vid=5de8b9da-2c88-4e3a-a104-4260d4935bc7"},"vehicle_type_id":"4","last_reported":1769109414,"current_range_meters":6400,"station_id":"ce4bgvp2rcd13ifvqct0","pricing_plan_id":"cebpf4jnsgd1na2vs0mg"},{"bike_id":"9d86a94f-f259-4bff-8fc3-bc1bf1b477e4","system_id":"levelo_inurba_marseille","lat":43.25872,"lon":5.41823,"is_reserved":false,"is_disabled":false,"rental_uris":{"android":"levelo://app?vid=9d86a94f-f259-4bff-8fc3-bc1bf1b477e4","ios":"levelo://app?vid=9d86a94f-f259-4bff-8fc3-bc1bf1b477e4"},"vehicle_type_id":"4","last_reported":1769109414,"current_range_meters":6400,"station_id":"","pricing_plan_id":"cebpf4jnsgd1na2vs0mg"},{"bike_id":"f9143ecb-aade-4bb9-990c-9859476787e9","system_id":"levelo_inurba_marseille","lat":43.23765,"lon":5.36626,"is_reserved":false,"is_disabled":false,"rental_uris":{"android":"levelo://app?vid=f9143ecb-aade-4bb9-990c-9859476787e9","ios":"levelo://app?vid=f9143ecb-aade-4bb9-990c-9859476787e9"},"vehicle_type_id":"4","last_reported":1769109414,"current_range_meters":6400,"station_id":"st_d3nk18o9ro0c73en2l3g","pricing_plan_id":"cebpf4jnsgd1na2vs0mg"},{"bike_id":"6fedd87d-43f4-49d4-8c29-92430be6252f","system_id":"levelo_inurba_marseille","lat":43.281,"lon":5.36657,"is_reserved":false,"is_disabled":false,"rental_uris":{"android":"levelo://app?vid=6fedd87d-43f4-49d4-8c29-92430be6252f","ios":"levelo://app?vid=6fedd87d-43f4-49d4-8c29-92430be6252f"},"vehicle_type_id":"4","last_reported":1769109414,"current_range_meters":6400,"station_id":"","pricing_plan_id":"cebpf4jnsgd1na2vs0mg"},{"bike_id":"3b364841-63d1-4d4f-bb34-83c89b251a49","system_id":"levelo_inurba_marseille","lat":43.308905,"lon":5.372013,"is_reserved":false,"is_disabled":false,"rental_uris":{"android":"levelo://app?vid=3b364841-63d1-4d4f-bb34-83c89b251a49","ios":"levelo://app?vid=3b364841-63d1-4d4f-bb34-83c89b251a49"},"vehicle_type_id":"4","last_reported":1769109414,"current_range_meters":6400,"station_id":"ce4bguh2rcd13ifvqckg","pricing_plan_id":"cebpf4jnsgd1na2vs0mg"},{"bike_id":"33299776-2c9b-4959-8c33-6a412a8deb29","system_id":"levelo_inurba_marseille","lat":43.23121,"lon":5.43717,"is_reserved":false,"is_disabled":false,"rental_uris":{"android":"levelo://app?vid=33299776-2c9b-4959-8c33-6a412a8deb29","ios":"levelo://app?vid=33299776-2c9b-4959-8c33-6a412a8deb29"},"vehicle_type_id":"4","last_reported":1769109414,"current_range_meters":6400,"station_id":"ce4bhmp2rcd13ifvqgog","pricing_plan_id":"cebpf4jnsgd1na2vs0mg"},{"bike_id":"513168dc-8a13-41ea-8994-991b9739c1c6","system_id":"levelo_inurba_marseille","lat":43.26552,"lon":5.39019,"is_reserved":false,"is_disabled":false,"rental_uris":{"android":"levelo://app?vid=513168dc-8a13-41ea-8994-991b9739c1c6","ios":"levelo://app?vid=513168dc-8a13-41ea-8994-991b9739c1c6"},"vehicle_type_id":"4","last_reported":1769109414,"current_range_meters":6400,"station_id":"ce4bhe12rcd13ifvqf30","pricing_plan_id":"cebpf4jnsgd1na2vs0mg"},{"bike_id":"22bc6d8e-7e0c-4234-afe0-c88e2589ac70","system_id":"levelo_inurba_marseille","lat":43.27072,"lon":5.399,"is_reserved":false,"is_disabled":false,"rental_uris":{"android":"levelo://app?vid=22bc6d8e-7e0c-4234-afe0-c88e2589ac70","ios":"levelo://app?vid=22bc6d8e-7e0c-4234-afe0-c88e2589ac70"},"vehicle_type_id":"4","last_reported":1769109414,"current_range_meters":6400,"station_id":"","pricing_plan_id":"cebpf4jnsgd1na2vs0mg"},{"bike_id":"861bb7de-0e5d-4b2e-aab7-e5d1b3a5eab9","system_id":"levelo_inurba_marseille","lat":43.23168,"lon":5.43644,"is_reserved":false,"is_disabled":false,"rental_uris":{"android":"levelo://app?vid=861bb7de-0e5d-4b2e-aab7-e5d1b3a5eab9","ios":"levelo://app?vid=861bb7de-0e5d-4b2e-aab7-e5d1b3a5eab9"},"vehicle_type_id":"4","last_reported":1769109414,"current_range_meters":6400,"station_id":"ce4bhmp2rcd13ifvqgog","pricing_plan_id":"cebpf4jnsgd1na2vs0mg"},{"bike_id":"54bfc790-128d-4597-891a-bb79b72a169b","system_id":"levelo_inurba_marseille","lat":43.31502,"lon":5.37291,"is_reserved":false,"is_disabled":false,"rental_uris":{"android":"levelo://app?vid=54bfc790-128d-4597-891a-bb79b72a169b","ios":"levelo://app?vid=54bfc790-128d-4597-891a-bb79b72a169b"},"vehicle_type_id":"4","last_reported":1769109414,"current_range_meters":6400,"station_id":"ce4bgt12rcd13ifvqcd0","pricing_plan_id":"cebpf4jnsgd1na2vs0mg"},{"bike_id":"596c41c7-2beb-4c3c-8922-aa97d708cd66","system_id":"levelo_inurba_marseille","lat":43.32318,"lon":5.3678,"is_reserved":false,"is_disabled":false,"rental_uris":{"android":"levelo://app?vid=596c41c7-2beb-4c3c-8922-aa97d708cd66","ios":"levelo://app?vid=596c41c7-2beb-4c3c-8922-aa97d708cd66"},"vehicle_type_id":"4","last_reported":1769109414,"current_range_meters":6400,"station_id":"ce4bhsh2rcd13ifvqi2g","pricing_plan_id":"cebpf4jnsgd1na2vs0mg"},{"bike_id":"388b114a-8850-48cb-a6c0-9e3ca0916a10","system_id":"levelo_inurba_marseille","lat":43.26576,"lon":5.38991,"is_reserved":false,"is_disabled":false,"rental_uris":{"android":"levelo://app?vid=388b114a-8850-48cb-a6c0-9e3ca0916a10","ios":"levelo://app?vid=388b114a-8850-48cb-a6c0-9e3ca0916a10"},"vehicle_type_id":"4","last_reported":1769109414,"current_range_meters":6400,"station_id":"ce4bhe12rcd13ifvqf30","pricing_plan_id":"cebpf4jnsgd1na2vs0mg"},{"bike_id":"dfb6b791-badd-4621-9306-ea3c833e2455","system_id":"levelo_inurba_marseille","lat":43.32725,"lon":5.40885,"is_reserved":false,"is_disabled":false,"rental_uris":{"android":"levelo://app?vid=dfb6b791-badd-4621-9306-ea3c833e2455","ios":"levelo://app?vid=dfb6b791-badd-4621-9306-ea3c833e2455"},"vehicle_type_id":"4","last_reported":1769109414,"current_range_meters":6400,"station_id":"","pricing_plan_id":"cebpf4jnsgd1na2vs0mg"},{"bike_id":"09299833-1cab-4d88-9fd7-ec3ed736bdf9","system_id":"levelo_inurba_marseille","lat":43.25716,"lon":5.42238,"is_reserved":false,"is_disabled":false,"rental_uris":{"android":"levelo://app?vid=09299833-1cab-4d88-9fd7-ec3ed736bdf9","ios":"levelo://app?vid=09299833-1cab-4d88-9fd7-ec3ed736bdf9"},"vehicle_type_id":"4","last_reported":1769109414,"current_range_meters":6400,"station_id":"","pricing_plan_id":"cebpf4jnsgd1na2vs0mg"},{"bike_id":"5b94d29f-9636-4aaa-b03f-06ecb5d9af2a","system_id":"levelo_inurba_marseille","lat":43.26062,"lon":5.39394,"is_reserved":false,"is_disabled":false,"rental_uris":{"android":"levelo://app?vid=5b94d29f-9636-4aaa-b03f-06ecb5d9af2a","ios":"levelo://app?vid=5b94d29f-9636-4aaa-b03f-06ecb5d9af2a"},"vehicle_type_id":"4","last_reported":1769109414,"current_range_meters":6800,"station_id":"ce4bhh92rcd13ifvqfj0","pricing_plan_id":"cebpf4jnsgd1na2vs0mg"},{"bike_id":"754d8b82-ea0d-48ed-b260-8e13f8147c2f","system_id":"levelo_inurba_marseille","lat":43.30207,"lon":5.3947,"is_reserved":false,"is_disabled":false,"rental_uris":{"android":"levelo://app?vid=754d8b82-ea0d-48ed-b260-8e13f8147c2f","ios":"levelo://app?vid=754d8b82-ea0d-48ed-b260-8e13f8147c2f"},"vehicle_type_id":"4","last_reported":1769109414,"current_range_meters":6800,"station_id":"ce4bh0p2rcd13ifvqd70","pricing_plan_id":"cebpf4jnsgd1na2vs0mg"},{"bike_id":"7877d9c7-59ee-4390-bb00-aaef4ca7cd0d","system_id":"levelo_inurba_marseille","lat":43.29198,"lon":5.35784,"is_reserved":false,"is_disabled":false,"rental_uris":{"android":"levelo://app?vid=7877d9c7-59ee-4390-bb00-aaef4ca7cd0d","ios":"levelo://app?vid=7877d9c7-59ee-4390-bb00-aaef4ca7cd0d"},"vehicle_type_id":"4","last_reported":1769109414,"current_range_meters":6800,"station_id":"ce4bhb12rcd13ifvqel0","pricing_plan_id":"cebpf4jnsgd1na2vs0mg"},{"bike_id":"7b6f35b3-5a17-462f-ba3b-47fca9a5daaa","system_id":"levelo_inurba_marseille","lat":43.29267,"lon":5.38441,"is_reserved":false,"is_disabled":false,"rental_uris":{"android":"levelo://app?vid=7b6f35b3-5a17-462f-ba3b-47fca9a5daaa","ios":"levelo://app?vid=7b6f35b3-5a17-462f-ba3b-47fca9a5daaa"},"vehicle_type_id":"4","last_reported":1769109414,"current_range_meters":6800,"station_id":"ce4bh692rcd13ifvqea0","pricing_plan_id":"cebpf4jnsgd1na2vs0mg"},{"bike_id":"761cc69d-6626-4d81-be9f-54397f4d034c","system_id":"levelo_inurba_marseille","lat":43.31124,"lon":5.37759,"is_reserved":false,"is_disabled":false,"rental_uris":{"android":"levelo://app?vid=761cc69d-6626-4d81-be9f-54397f4d034c","ios":"levelo://app?vid=761cc69d-6626-4d81-be9f-54397f4d034c"},"vehicle_type_id":"4","last_reported":1769109414,"current_range_meters":6800,"station_id":"ce4bgt92rcd13ifvqcg0","pricing_plan_id":"cebpf4jnsgd1na2vs0mg"},{"bike_id":"dfcfc4a8-8e09-4424-b3dc-2fa1e321a95c","system_id":"levelo_inurba_marseille","lat":43.2848,"lon":5.38403,"is_reserved":false,"is_disabled":false,"rental_uris":{"android":"levelo://app?vid=dfcfc4a8-8e09-4424-b3dc-2fa1e321a95c","ios":"levelo://app?vid=dfcfc4a8-8e09-4424-b3dc-2fa1e321a95c"},"vehicle_type_id":"4","last_reported":1769109414,"current_range_meters":6800,"station_id":"ce4bh512rcd13ifvqe3g","pricing_plan_id":"cebpf4jnsgd1na2vs0mg"},{"bike_id":"c808d22f-bfbf-45b2-8e82-64886a1b6908","system_id":"levelo_inurba_marseille","lat":43.29255,"lon":5.38436,"is_reserved":false,"is_disabled":false,"rental_uris":{"android":"levelo://app?vid=c808d22f-bfbf-45b2-8e82-64886a1b6908","ios":"levelo://app?vid=c808d22f-bfbf-45b2-8e82-64886a1b6908"},"vehicle_type_id":"4","last_reported":1769109414,"current_range_meters":6800,"station_id":"ce4bh692rcd13ifvqea0","pricing_plan_id":"cebpf4jnsgd1na2vs0mg"},{"bike_id":"bfb393b2-23ff-41fa-960f-ead817f6b5c8","system_id":"levelo_inurba_marseille","lat":43.24553,"lon":5.39516,"is_reserved":false,"is_disabled":false,"rental_uris":{"android":"levelo://app?vid=bfb393b2-23ff-41fa-960f-ead817f6b5c8","ios":"levelo://app?vid=bfb393b2-23ff-41fa-960f-ead817f6b5c8"},"vehicle_type_id":"4","last_reported":1769109414,"current_range_meters":6800,"station_id":"ce4bhlp2rcd13ifvqgjg","pricing_plan_id":"cebpf4jnsgd1na2vs0mg"},{"bike_id":"6cde08db-2d60-4fc0-a7d5-505f4f93c6d4","system_id":"levelo_inurba_marseille","lat":43.33547,"lon":5.37458,"is_reserved":false,"is_disabled":false,"rental_uris":{"android":"levelo://app?vid=6cde08db-2d60-4fc0-a7d5-505f4f93c6d4","ios":"levelo://app?vid=6cde08db-2d60-4fc0-a7d5-505f4f93c6d4"},"vehicle_type_id":"4","last_reported":1769109414,"current_range_meters":6800,"station_id":"","pricing_plan_id":"cebpf4jnsgd1na2vs0mg"},{"bike_id":"2bd7b052-198e-4662-8aa6-61b0cac79738","system_id":"levelo_inurba_marseille","lat":43.27227,"lon":5.39037,"is_reserved":false,"is_disabled":false,"rental_uris":{"android":"levelo://app?vid=2bd7b052-198e-4662-8aa6-61b0cac79738","ios":"levelo://app?vid=2bd7b052-198e-4662-8aa6-61b0cac79738"},"vehicle_type_id":"4","last_reported":1769109414,"current_range_meters":6800,"station_id":"","pricing_plan_id":"cebpf4jnsgd1na2vs0mg"},{"bike_id":"e424e9fc-65e8-494a-b965-9d5ec24de2d7","system_id":"levelo_inurba_marseille","lat":43.30883,"lon":5.39628,"is_reserved":false,"is_disabled":false,"rental_uris":{"android":"levelo://app?vid=e424e9fc-65e8-494a-b965-9d5ec24de2d7","ios":"levelo://app?vid=e424e9fc-65e8-494a-b965-9d5ec24de2d7"},"vehicle_type_id":"4","last_reported":1769109414,"current_range_meters":7200,"station_id":"ce4bh012rcd13ifvqcv0","pricing_plan_id":"cebpf4jnsgd1na2vs0mg"},{"bike_id":"12d65139-8fbd-418b-8523-1b0952363e37","system_id":"levelo_inurba_marseille","lat":43.24653,"lon":5.3888,"is_reserved":false,"is_disabled":false,"rental_uris":{"android":"levelo://app?vid=12d65139-8fbd-418b-8523-1b0952363e37","ios":"levelo://app?vid=12d65139-8fbd-418b-8523-1b0952363e37"},"vehicle_type_id":"4","last_reported":1769109414,"current_range_meters":7200,"station_id":"ce4bhg12rcd13ifvqf60","pricing_plan_id":"cebpf4jnsgd1na2vs0mg"},{"bike_id":"733d2f54-cd81-4838-963b-331436b0807a","system_id":"levelo_inurba_marseille","lat":43.28149,"lon":5.4264,"is_reserved":false,"is_disabled":false,"rental_uris":{"android":"levelo://app?vid=733d2f54-cd81-4838-963b-331436b0807a","ios":"levelo://app?vid=733d2f54-cd81-4838-963b-331436b0807a"},"vehicle_type_id":"4","last_reported":1769109414,"current_range_meters":7200,"station_id":"ce4bhnh2rcd13ifvqgug","pricing_plan_id":"cebpf4jnsgd1na2vs0mg"},{"bike_id":"041b9bc3-247d-402a-a65e-249bd6bd6d84","system_id":"levelo_inurba_marseille","lat":43.28473,"lon":5.35852,"is_reserved":false,"is_disabled":false,"rental_uris":{"android":"levelo://app?vid=041b9bc3-247d-402a-a65e-249bd6bd6d84","ios":"levelo://app?vid=041b9bc3-247d-402a-a65e-249bd6bd6d84"},"vehicle_type_id":"4","last_reported":1769109414,"current_range_meters":7200,"station_id":"ce4bhah2rcd13ifvqei0","pricing_plan_id":"cebpf4jnsgd1na2vs0mg"},{"bike_id":"21dfa8a3-e203-4e9a-b1e2-5d984980663c","system_id":"levelo_inurba_marseille","lat":43.30188,"lon":5.38074,"is_reserved":false,"is_disabled":false,"rental_uris":{"android":"levelo://app?vid=21dfa8a3-e203-4e9a-b1e2-5d984980663c","ios":"levelo://app?vid=21dfa8a3-e203-4e9a-b1e2-5d984980663c"},"vehicle_type_id":"4","last_reported":1769109414,"current_range_meters":7200,"station_id":"","pricing_plan_id":"cebpf4jnsgd1na2vs0mg"},{"bike_id":"090da4bf-e1ff-427c-b741-8d3293006606","system_id":"levelo_inurba_marseille","lat":43.23194,"lon":5.35545,"is_reserved":false,"is_disabled":false,"rental_uris":{"android":"levelo://app?vid=090da4bf-e1ff-427c-b741-8d3293006606","ios":"levelo://app?vid=090da4bf-e1ff-427c-b741-8d3293006606"},"vehicle_type_id":"4","last_reported":1769109414,"current_range_meters":7200,"station_id":"ce4bhu92rcd13ifvqi70","pricing_plan_id":"cebpf4jnsgd1na2vs0mg"},{"bike_id":"541d5a44-dde4-426d-8d84-9ca52b8319ea","system_id":"levelo_inurba_marseille","lat":43.32056,"lon":5.415503,"is_reserved":false,"is_disabled":false,"rental_uris":{"android":"levelo://app?vid=541d5a44-dde4-426d-8d84-9ca52b8319ea","ios":"levelo://app?vid=541d5a44-dde4-426d-8d84-9ca52b8319ea"},"vehicle_type_id":"4","last_reported":1769109414,"current_range_meters":7200,"station_id":"ce4bhq92rcd13ifvqhkg","pricing_plan_id":"cebpf4jnsgd1na2vs0mg"},{"bike_id":"ae72a7f7-0a78-43a1-a80c-a2893de3e9bb","system_id":"levelo_inurba_marseille","lat":43.2481,"lon":5.37461,"is_reserved":false,"is_disabled":false,"rental_uris":{"android":"levelo://app?vid=ae72a7f7-0a78-43a1-a80c-a2893de3e9bb","ios":"levelo://app?vid=ae72a7f7-0a78-43a1-a80c-a2893de3e9bb"},"vehicle_type_id":"4","last_reported":1769109414,"current_range_meters":7200,"station_id":"ce4bhgh2rcd13ifvqfb0","pricing_plan_id":"cebpf4jnsgd1na2vs0mg"},{"bike_id":"983dfa04-9e71-401d-b498-feaefa1c2d24","system_id":"levelo_inurba_marseille","lat":43.27002,"lon":5.39218,"is_reserved":false,"is_disabled":false,"rental_uris":{"android":"levelo://app?vid=983dfa04-9e71-401d-b498-feaefa1c2d24","ios":"levelo://app?vid=983dfa04-9e71-401d-b498-feaefa1c2d24"},"vehicle_type_id":"4","last_reported":1769109414,"current_range_meters":7200,"station_id":"","pricing_plan_id":"cebpf4jnsgd1na2vs0mg"},{"bike_id":"5774ccfd-14a6-43af-ad10-c65f799a2b31","system_id":"levelo_inurba_marseille","lat":43.28403,"lon":5.37508,"is_reserved":false,"is_disabled":false,"rental_uris":{"android":"levelo://app?vid=5774ccfd-14a6-43af-ad10-c65f799a2b31","ios":"levelo://app?vid=5774ccfd-14a6-43af-ad10-c65f799a2b31"},"vehicle_type_id":"4","last_reported":1769109414,"current_range_meters":7200,"station_id":"ce4bh412rcd13ifvqds0","pricing_plan_id":"cebpf4jnsgd1na2vs0mg"},{"bike_id":"244ba49e-8c8d-4915-a844-2107d9366d7f","system_id":"levelo_inurba_marseille","lat":43.29698,"lon":5.36614,"is_reserved":false,"is_disabled":false,"rental_uris":{"android":"levelo://app?vid=244ba49e-8c8d-4915-a844-2107d9366d7f","ios":"levelo://app?vid=244ba49e-8c8d-4915-a844-2107d9366d7f"},"vehicle_type_id":"4","last_reported":1769109414,"current_range_meters":7200,"station_id":"ce4bgn12rcd13ifvqbt0","pricing_plan_id":"cebpf4jnsgd1na2vs0mg"},{"bike_id":"26b75af5-7ae4-4c9e-852d-f4607cbb3b5b","system_id":"levelo_inurba_marseille","lat":43.245456,"lon":5.395093,"is_reserved":false,"is_disabled":false,"rental_uris":{"android":"levelo://app?vid=26b75af5-7ae4-4c9e-852d-f4607cbb3b5b","ios":"levelo://app?vid=26b75af5-7ae4-4c9e-852d-f4607cbb3b5b"},"vehicle_type_id":"4","last_reported":1769109414,"current_range_meters":7200,"station_id":"ce4bhlp2rcd13ifvqgjg","pricing_plan_id":"cebpf4jnsgd1na2vs0mg"},{"bike_id":"b89f63f1-9dff-47d6-8359-257301684283","system_id":"levelo_inurba_marseille","lat":43.29288,"lon":5.40899,"is_reserved":false,"is_disabled":false,"rental_uris":{"android":"levelo://app?vid=b89f63f1-9dff-47d6-8359-257301684283","ios":"levelo://app?vid=b89f63f1-9dff-47d6-8359-257301684283"},"vehicle_type_id":"4","last_reported":1769109414,"current_range_meters":7200,"station_id":"ce4bh192rcd13ifvqdc0","pricing_plan_id":"cebpf4jnsgd1na2vs0mg"},{"bike_id":"0778e492-acc3-42fb-a1ee-b55e9a064825","system_id":"levelo_inurba_marseille","lat":43.288417,"lon":5.358396,"is_reserved":false,"is_disabled":false,"rental_uris":{"android":"levelo://app?vid=0778e492-acc3-42fb-a1ee-b55e9a064825","ios":"levelo://app?vid=0778e492-acc3-42fb-a1ee-b55e9a064825"},"vehicle_type_id":"4","last_reported":1769109414,"current_range_meters":7200,"station_id":"ce4bhb12rcd13ifvqem0","pricing_plan_id":"cebpf4jnsgd1na2vs0mg"},{"bike_id":"4d411178-c960-4b5e-8ec9-2806b8ffffbe","system_id":"levelo_inurba_marseille","lat":43.29246,"lon":5.4013,"is_reserved":false,"is_disabled":false,"rental_uris":{"android":"levelo://app?vid=4d411178-c960-4b5e-8ec9-2806b8ffffbe","ios":"levelo://app?vid=4d411178-c960-4b5e-8ec9-2806b8ffffbe"},"vehicle_type_id":"4","last_reported":1769109414,"current_range_meters":7200,"station_id":"ce4bh312rcd13ifvqdk0","pricing_plan_id":"cebpf4jnsgd1na2vs0mg"},{"bike_id":"2fa28398-73c6-40b0-abd2-13b571db7bc0","system_id":"levelo_inurba_marseille","lat":43.26209,"lon":5.37903,"is_reserved":false,"is_disabled":false,"rental_uris":{"android":"levelo://app?vid=2fa28398-73c6-40b0-abd2-13b571db7bc0","ios":"levelo://app?vid=2fa28398-73c6-40b0-abd2-13b571db7bc0"},"vehicle_type_id":"4","last_reported":1769109414,"current_range_meters":7200,"station_id":"ce4bhjp2rcd13ifvqg90","pricing_plan_id":"cebpf4jnsgd1na2vs0mg"},{"bike_id":"fb3ff625-62fd-4ae8-9254-8c4981e04e71","system_id":"levelo_inurba_marseille","lat":43.33164,"lon":5.3767,"is_reserved":false,"is_disabled":false,"rental_uris":{"android":"levelo://app?vid=fb3ff625-62fd-4ae8-9254-8c4981e04e71","ios":"levelo://app?vid=fb3ff625-62fd-4ae8-9254-8c4981e04e71"},"vehicle_type_id":"4","last_reported":1769109414,"current_range_meters":7200,"station_id":"st_d46cu089ee8s73dldbu0","pricing_plan_id":"cebpf4jnsgd1na2vs0mg"},{"bike_id":"3ceb4388-6cc5-4ff4-b32c-76f5f4981409","system_id":"levelo_inurba_marseille","lat":43.23182,"lon":5.3998,"is_reserved":false,"is_disabled":false,"rental_uris":{"android":"levelo://app?vid=3ceb4388-6cc5-4ff4-b32c-76f5f4981409","ios":"levelo://app?vid=3ceb4388-6cc5-4ff4-b32c-76f5f4981409"},"vehicle_type_id":"4","last_reported":1769109414,"current_range_meters":7200,"station_id":"ce4bhn12rcd13ifvqgqg","pricing_plan_id":"cebpf4jnsgd1na2vs0mg"},{"bike_id":"dc46bf46-763d-4b7a-9b3b-47e7a09bc6be","system_id":"levelo_inurba_marseille","lat":43.32183,"lon":5.40578,"is_reserved":false,"is_disabled":false,"rental_uris":{"android":"levelo://app?vid=dc46bf46-763d-4b7a-9b3b-47e7a09bc6be","ios":"levelo://app?vid=dc46bf46-763d-4b7a-9b3b-47e7a09bc6be"},"vehicle_type_id":"4","last_reported":1769109414,"current_range_meters":7200,"station_id":"","pricing_plan_id":"cebpf4jnsgd1na2vs0mg"},{"bike_id":"cbd6d55e-5809-4853-9878-dbbf6af6a148","system_id":"levelo_inurba_marseille","lat":43.28869,"lon":5.42539,"is_reserved":false,"is_disabled":false,"rental_uris":{"android":"levelo://app?vid=cbd6d55e-5809-4853-9878-dbbf6af6a148","ios":"levelo://app?vid=cbd6d55e-5809-4853-9878-dbbf6af6a148"},"vehicle_type_id":"4","last_reported":1769109414,"current_range_meters":8000,"station_id":"st_d3b462108ojc7389ooeg","pricing_plan_id":"cebpf4jnsgd1na2vs0mg"},{"bike_id":"3e2deb9e-e71a-4d11-940d-76cd444019bd","system_id":"levelo_inurba_marseille","lat":43.30108,"lon":5.43105,"is_reserved":false,"is_disabled":false,"rental_uris":{"android":"levelo://app?vid=3e2deb9e-e71a-4d11-940d-76cd444019bd","ios":"levelo://app?vid=3e2deb9e-e71a-4d11-940d-76cd444019bd"},"vehicle_type_id":"4","last_reported":1769109414,"current_range_meters":8000,"station_id":"st_d3js3co5814s73ftftug","pricing_plan_id":"cebpf4jnsgd1na2vs0mg"},{"bike_id":"6055bb6e-3d5f-4359-bcc3-e96115ee8c1f","system_id":"levelo_inurba_marseille","lat":43.25588,"lon":5.3823,"is_reserved":false,"is_disabled":false,"rental_uris":{"android":"levelo://app?vid=6055bb6e-3d5f-4359-bcc3-e96115ee8c1f","ios":"levelo://app?vid=6055bb6e-3d5f-4359-bcc3-e96115ee8c1f"},"vehicle_type_id":"4","last_reported":1769109414,"current_range_meters":8000,"station_id":"ce4bhih2rcd13ifvqfs0","pricing_plan_id":"cebpf4jnsgd1na2vs0mg"},{"bike_id":"fd925f8e-899e-40ec-9287-4e65251eafb1","system_id":"levelo_inurba_marseille","lat":43.26843,"lon":5.38499,"is_reserved":false,"is_disabled":false,"rental_uris":{"android":"levelo://app?vid=fd925f8e-899e-40ec-9287-4e65251eafb1","ios":"levelo://app?vid=fd925f8e-899e-40ec-9287-4e65251eafb1"},"vehicle_type_id":"4","last_reported":1769109414,"current_range_meters":8000,"station_id":"","pricing_plan_id":"cebpf4jnsgd1na2vs0mg"},{"bike_id":"ddcb7194-82dc-49b9-9531-85c1db3d6fc4","system_id":"levelo_inurba_marseille","lat":43.24631,"lon":5.38889,"is_reserved":false,"is_disabled":true,"rental_uris":{"android":"levelo://app?vid=ddcb7194-82dc-49b9-9531-85c1db3d6fc4","ios":"levelo://app?vid=ddcb7194-82dc-49b9-9531-85c1db3d6fc4"},"vehicle_type_id":"4","last_reported":1769109414,"current_range_meters":8000,"station_id":"ce4bhg12rcd13ifvqf60","pricing_plan_id":"cebpf4jnsgd1na2vs0mg"},{"bike_id":"1f9a03a0-ee17-4992-986f-61169fc6fa54","system_id":"levelo_inurba_marseille","lat":43.30136,"lon":5.39863,"is_reserved":false,"is_disabled":false,"rental_uris":{"android":"levelo://app?vid=1f9a03a0-ee17-4992-986f-61169fc6fa54","ios":"levelo://app?vid=1f9a03a0-ee17-4992-986f-61169fc6fa54"},"vehicle_type_id":"4","last_reported":1769109414,"current_range_meters":8000,"station_id":"ce4bh0h2rcd13ifvqd40","pricing_plan_id":"cebpf4jnsgd1na2vs0mg"},{"bike_id":"a1cf0267-a9c6-4cb7-b49a-598a4cc67209","system_id":"levelo_inurba_marseille","lat":43.23204,"lon":5.3556,"is_reserved":false,"is_disabled":false,"rental_uris":{"android":"levelo://app?vid=a1cf0267-a9c6-4cb7-b49a-598a4cc67209","ios":"levelo://app?vid=a1cf0267-a9c6-4cb7-b49a-598a4cc67209"},"vehicle_type_id":"4","last_reported":1769109414,"current_range_meters":8000,"station_id":"ce4bhu92rcd13ifvqi70","pricing_plan_id":"cebpf4jnsgd1na2vs0mg"},{"bike_id":"9864eb71-e1a9-41e3-a300-f80070833647","system_id":"levelo_inurba_marseille","lat":43.26558,"lon":5.40316,"is_reserved":false,"is_disabled":false,"rental_uris":{"android":"levelo://app?vid=9864eb71-e1a9-41e3-a300-f80070833647","ios":"levelo://app?vid=9864eb71-e1a9-41e3-a300-f80070833647"},"vehicle_type_id":"4","last_reported":1769109414,"current_range_meters":8000,"station_id":"ce4bhmp2rcd13ifvqgng","pricing_plan_id":"cebpf4jnsgd1na2vs0mg"},{"bike_id":"65808b18-3604-4fd3-9b1d-c1fd09908835","system_id":"levelo_inurba_marseille","lat":43.25335,"lon":5.42174,"is_reserved":false,"is_disabled":false,"rental_uris":{"android":"levelo://app?vid=65808b18-3604-4fd3-9b1d-c1fd09908835","ios":"levelo://app?vid=65808b18-3604-4fd3-9b1d-c1fd09908835"},"vehicle_type_id":"4","last_reported":1769109414,"current_range_meters":8000,"station_id":"st_d2m65c5bi1j21697t3ng","pricing_plan_id":"cebpf4jnsgd1na2vs0mg"},{"bike_id":"c858963e-174c-4de6-a8e9-7bd8f29fee6e","system_id":"levelo_inurba_marseille","lat":43.29514,"lon":5.39406,"is_reserved":false,"is_disabled":false,"rental_uris":{"android":"levelo://app?vid=c858963e-174c-4de6-a8e9-7bd8f29fee6e","ios":"levelo://app?vid=c858963e-174c-4de6-a8e9-7bd8f29fee6e"},"vehicle_type_id":"4","last_reported":1769109414,"current_range_meters":8000,"station_id":"ce4bh292rcd13ifvqdf0","pricing_plan_id":"cebpf4jnsgd1na2vs0mg"},{"bike_id":"89bb703e-1fd9-403b-abd6-798f35ab61ac","system_id":"levelo_inurba_marseille","lat":43.30123,"lon":5.39859,"is_reserved":false,"is_disabled":false,"rental_uris":{"android":"levelo://app?vid=89bb703e-1fd9-403b-abd6-798f35ab61ac","ios":"levelo://app?vid=89bb703e-1fd9-403b-abd6-798f35ab61ac"},"vehicle_type_id":"4","last_reported":1769109414,"current_range_meters":8000,"station_id":"ce4bh0h2rcd13ifvqd40","pricing_plan_id":"cebpf4jnsgd1na2vs0mg"},{"bike_id":"cc9f4717-497d-46b4-8770-89f5df0571cd","system_id":"levelo_inurba_marseille","lat":43.24403,"lon":5.37076,"is_reserved":false,"is_disabled":false,"rental_uris":{"android":"levelo://app?vid=cc9f4717-497d-46b4-8770-89f5df0571cd","ios":"levelo://app?vid=cc9f4717-497d-46b4-8770-89f5df0571cd"},"vehicle_type_id":"4","last_reported":1769109414,"current_range_meters":8000,"station_id":"ce4bhhh2rcd13ifvqfk0","pricing_plan_id":"cebpf4jnsgd1na2vs0mg"},{"bike_id":"c462c4a3-3f5e-4fd1-8a2f-56615210c468","system_id":"levelo_inurba_marseille","lat":43.25823,"lon":5.38603,"is_reserved":false,"is_disabled":false,"rental_uris":{"android":"levelo://app?vid=c462c4a3-3f5e-4fd1-8a2f-56615210c468","ios":"levelo://app?vid=c462c4a3-3f5e-4fd1-8a2f-56615210c468"},"vehicle_type_id":"4","last_reported":1769109414,"current_range_meters":8000,"station_id":"","pricing_plan_id":"cebpf4jnsgd1na2vs0mg"},{"bike_id":"16c7dbf1-0dee-4524-b5b5-b3c16b297eba","system_id":"levelo_inurba_marseille","lat":43.3129,"lon":5.40136,"is_reserved":false,"is_disabled":false,"rental_uris":{"android":"levelo://app?vid=16c7dbf1-0dee-4524-b5b5-b3c16b297eba","ios":"levelo://app?vid=16c7dbf1-0dee-4524-b5b5-b3c16b297eba"},"vehicle_type_id":"4","last_reported":1769109414,"current_range_meters":8000,"station_id":"ce4bh092rcd13ifvqd30","pricing_plan_id":"cebpf4jnsgd1na2vs0mg"},{"bike_id":"249a4cf7-06f6-4fea-96cc-c9c6b750c37f","system_id":"levelo_inurba_marseille","lat":43.24168,"lon":5.36389,"is_reserved":false,"is_disabled":false,"rental_uris":{"android":"levelo://app?vid=249a4cf7-06f6-4fea-96cc-c9c6b750c37f","ios":"levelo://app?vid=249a4cf7-06f6-4fea-96cc-c9c6b750c37f"},"vehicle_type_id":"4","last_reported":1769109414,"current_range_meters":8000,"station_id":"cpo36qri1sfpv3e86is0","pricing_plan_id":"cebpf4jnsgd1na2vs0mg"},{"bike_id":"9bcc74ff-bb21-459b-8c89-b1049e46743c","system_id":"levelo_inurba_marseille","lat":43.2462,"lon":5.43151,"is_reserved":false,"is_disabled":false,"rental_uris":{"android":"levelo://app?vid=9bcc74ff-bb21-459b-8c89-b1049e46743c","ios":"levelo://app?vid=9bcc74ff-bb21-459b-8c89-b1049e46743c"},"vehicle_type_id":"4","last_reported":1769109414,"current_range_meters":8000,"station_id":"st_d2m6c4gdas8pm72e190g","pricing_plan_id":"cebpf4jnsgd1na2vs0mg"},{"bike_id":"76c35779-008a-4542-847a-b15bc71b9b71","system_id":"levelo_inurba_marseille","lat":43.2465,"lon":5.38885,"is_reserved":false,"is_disabled":false,"rental_uris":{"android":"levelo://app?vid=76c35779-008a-4542-847a-b15bc71b9b71","ios":"levelo://app?vid=76c35779-008a-4542-847a-b15bc71b9b71"},"vehicle_type_id":"4","last_reported":1769109414,"current_range_meters":8000,"station_id":"ce4bhg12rcd13ifvqf60","pricing_plan_id":"cebpf4jnsgd1na2vs0mg"},{"bike_id":"40e5e2c7-0e64-4220-a47b-eba55999faf7","system_id":"levelo_inurba_marseille","lat":43.22562,"lon":5.41639,"is_reserved":false,"is_disabled":false,"rental_uris":{"android":"levelo://app?vid=40e5e2c7-0e64-4220-a47b-eba55999faf7","ios":"levelo://app?vid=40e5e2c7-0e64-4220-a47b-eba55999faf7"},"vehicle_type_id":"4","last_reported":1769109414,"current_range_meters":8000,"station_id":"st_d2o4gvlbi1j2169b742g","pricing_plan_id":"cebpf4jnsgd1na2vs0mg"},{"bike_id":"c9c91417-1c93-40bd-ac7d-c76d147f675b","system_id":"levelo_inurba_marseille","lat":43.25,"lon":5.38934,"is_reserved":false,"is_disabled":false,"rental_uris":{"android":"levelo://app?vid=c9c91417-1c93-40bd-ac7d-c76d147f675b","ios":"levelo://app?vid=c9c91417-1c93-40bd-ac7d-c76d147f675b"},"vehicle_type_id":"4","last_reported":1769109414,"current_range_meters":8000,"station_id":"ce4bhgp2rcd13ifvqfd0","pricing_plan_id":"cebpf4jnsgd1na2vs0mg"},{"bike_id":"52324e19-023b-48fb-8087-dd5cc8dd26f9","system_id":"levelo_inurba_marseille","lat":43.29262,"lon":5.38432,"is_reserved":false,"is_disabled":false,"rental_uris":{"android":"levelo://app?vid=52324e19-023b-48fb-8087-dd5cc8dd26f9","ios":"levelo://app?vid=52324e19-023b-48fb-8087-dd5cc8dd26f9"},"vehicle_type_id":"4","last_reported":1769109414,"current_range_meters":8000,"station_id":"ce4bh692rcd13ifvqea0","pricing_plan_id":"cebpf4jnsgd1na2vs0mg"},{"bike_id":"0f3ab52f-5900-407d-adf2-c47497925b64","system_id":"levelo_inurba_marseille","lat":43.265678,"lon":5.372832,"is_reserved":false,"is_disabled":false,"rental_uris":{"android":"levelo://app?vid=0f3ab52f-5900-407d-adf2-c47497925b64","ios":"levelo://app?vid=0f3ab52f-5900-407d-adf2-c47497925b64"},"vehicle_type_id":"4","last_reported":1769109414,"current_range_meters":8000,"station_id":"ce4bhg12rcd13ifvqf70","pricing_plan_id":"cebpf4jnsgd1na2vs0mg"},{"bike_id":"07eceb74-6a95-40d2-bb91-34d09033e737","system_id":"levelo_inurba_marseille","lat":43.27364,"lon":5.36262,"is_reserved":false,"is_disabled":false,"rental_uris":{"android":"levelo://app?vid=07eceb74-6a95-40d2-bb91-34d09033e737","ios":"levelo://app?vid=07eceb74-6a95-40d2-bb91-34d09033e737"},"vehicle_type_id":"4","last_reported":1769109414,"current_range_meters":8000,"station_id":"ce4bhbh2rcd13ifvqeo0","pricing_plan_id":"cebpf4jnsgd1na2vs0mg"},{"bike_id":"92c9c3a8-e4be-4529-9e45-499f497fe286","system_id":"levelo_inurba_marseille","lat":43.31109,"lon":5.37775,"is_reserved":false,"is_disabled":false,"rental_uris":{"android":"levelo://app?vid=92c9c3a8-e4be-4529-9e45-499f497fe286","ios":"levelo://app?vid=92c9c3a8-e4be-4529-9e45-499f497fe286"},"vehicle_type_id":"4","last_reported":1769109414,"current_range_meters":8000,"station_id":"ce4bgt92rcd13ifvqcg0","pricing_plan_id":"cebpf4jnsgd1na2vs0mg"},{"bike_id":"436a31be-69ae-46d2-9f22-806921ec8f8a","system_id":"levelo_inurba_marseille","lat":43.23202,"lon":5.39996,"is_reserved":false,"is_disabled":false,"rental_uris":{"android":"levelo://app?vid=436a31be-69ae-46d2-9f22-806921ec8f8a","ios":"levelo://app?vid=436a31be-69ae-46d2-9f22-806921ec8f8a"},"vehicle_type_id":"4","last_reported":1769109414,"current_range_meters":8000,"station_id":"ce4bhn12rcd13ifvqgqg","pricing_plan_id":"cebpf4jnsgd1na2vs0mg"},{"bike_id":"a8bc38a5-32d2-4fb9-8b3f-cd01c856c19f","system_id":"levelo_inurba_marseille","lat":43.278077,"lon":5.407084,"is_reserved":false,"is_disabled":false,"rental_uris":{"android":"levelo://app?vid=a8bc38a5-32d2-4fb9-8b3f-cd01c856c19f","ios":"levelo://app?vid=a8bc38a5-32d2-4fb9-8b3f-cd01c856c19f"},"vehicle_type_id":"4","last_reported":1769109414,"current_range_meters":8000,"station_id":"ce4bhnh2rcd13ifvqgtg","pricing_plan_id":"cebpf4jnsgd1na2vs0mg"},{"bike_id":"20c1cc69-3a0d-4679-b45c-9954ef47fca5","system_id":"levelo_inurba_marseille","lat":43.23067,"lon":5.35508,"is_reserved":false,"is_disabled":false,"rental_uris":{"android":"levelo://app?vid=20c1cc69-3a0d-4679-b45c-9954ef47fca5","ios":"levelo://app?vid=20c1cc69-3a0d-4679-b45c-9954ef47fca5"},"vehicle_type_id":"4","last_reported":1769109414,"current_range_meters":8000,"station_id":"cpo3342slgdg3j2ifvpg","pricing_plan_id":"cebpf4jnsgd1na2vs0mg"},{"bike_id":"3d5f4b0c-7332-4168-a551-64cc0bf5ed08","system_id":"levelo_inurba_marseille","lat":43.31364,"lon":5.38493,"is_reserved":false,"is_disabled":false,"rental_uris":{"android":"levelo://app?vid=3d5f4b0c-7332-4168-a551-64cc0bf5ed08","ios":"levelo://app?vid=3d5f4b0c-7332-4168-a551-64cc0bf5ed08"},"vehicle_type_id":"4","last_reported":1769109414,"current_range_meters":8000,"station_id":"ce4bgt92rcd13ifvqcf0","pricing_plan_id":"cebpf4jnsgd1na2vs0mg"},{"bike_id":"7cd895eb-8913-49b8-bfc1-4289a426b216","system_id":"levelo_inurba_marseille","lat":43.28502,"lon":5.38431,"is_reserved":false,"is_disabled":false,"rental_uris":{"android":"levelo://app?vid=7cd895eb-8913-49b8-bfc1-4289a426b216","ios":"levelo://app?vid=7cd895eb-8913-49b8-bfc1-4289a426b216"},"vehicle_type_id":"4","last_reported":1769109414,"current_range_meters":8000,"station_id":"ce4bh512rcd13ifvqe3g","pricing_plan_id":"cebpf4jnsgd1na2vs0mg"},{"bike_id":"7a44288c-76ef-42bd-aa63-09fedbfa4f09","system_id":"levelo_inurba_marseille","lat":43.244645,"lon":5.425335,"is_reserved":false,"is_disabled":false,"rental_uris":{"android":"levelo://app?vid=7a44288c-76ef-42bd-aa63-09fedbfa4f09","ios":"levelo://app?vid=7a44288c-76ef-42bd-aa63-09fedbfa4f09"},"vehicle_type_id":"4","last_reported":1769109414,"current_range_meters":8000,"station_id":"st_d4a3vfp97mjs738cd8kg","pricing_plan_id":"cebpf4jnsgd1na2vs0mg"},{"bike_id":"5624fca0-ed3f-471c-9e6d-3f26c2821af0","system_id":"levelo_inurba_marseille","lat":43.29022,"lon":5.38635,"is_reserved":false,"is_disabled":false,"rental_uris":{"android":"levelo://app?vid=5624fca0-ed3f-471c-9e6d-3f26c2821af0","ios":"levelo://app?vid=5624fca0-ed3f-471c-9e6d-3f26c2821af0"},"vehicle_type_id":"4","last_reported":1769109414,"current_range_meters":8400,"station_id":"ce4bh4p2rcd13ifvqe0g","pricing_plan_id":"cebpf4jnsgd1na2vs0mg"},{"bike_id":"68e91371-ec19-4980-808d-6b1e83d2095c","system_id":"levelo_inurba_marseille","lat":43.2792,"lon":5.3958,"is_reserved":false,"is_disabled":false,"rental_uris":{"android":"levelo://app?vid=68e91371-ec19-4980-808d-6b1e83d2095c","ios":"levelo://app?vid=68e91371-ec19-4980-808d-6b1e83d2095c"},"vehicle_type_id":"4","last_reported":1769109414,"current_range_meters":8400,"station_id":"ce4bhf92rcd13ifvqf40","pricing_plan_id":"cebpf4jnsgd1na2vs0mg"},{"bike_id":"c810b0da-c681-48b0-962c-29a278949d7e","system_id":"levelo_inurba_marseille","lat":43.229385,"lon":5.353642,"is_reserved":false,"is_disabled":false,"rental_uris":{"android":"levelo://app?vid=c810b0da-c681-48b0-962c-29a278949d7e","ios":"levelo://app?vid=c810b0da-c681-48b0-962c-29a278949d7e"},"vehicle_type_id":"4","last_reported":1769109414,"current_range_meters":8400,"station_id":"cpo3532slgdg3j2ikp40","pricing_plan_id":"cebpf4jnsgd1na2vs0mg"},{"bike_id":"4289f0cf-d95b-41d5-8ced-ea98ca673e4a","system_id":"levelo_inurba_marseille","lat":43.24721,"lon":5.38153,"is_reserved":false,"is_disabled":false,"rental_uris":{"android":"levelo://app?vid=4289f0cf-d95b-41d5-8ced-ea98ca673e4a","ios":"levelo://app?vid=4289f0cf-d95b-41d5-8ced-ea98ca673e4a"},"vehicle_type_id":"4","last_reported":1769109414,"current_range_meters":8400,"station_id":"","pricing_plan_id":"cebpf4jnsgd1na2vs0mg"},{"bike_id":"8a6e1cee-f429-4937-8c7b-4558474c0c3b","system_id":"levelo_inurba_marseille","lat":43.3054,"lon":5.36507,"is_reserved":false,"is_disabled":false,"rental_uris":{"android":"levelo://app?vid=8a6e1cee-f429-4937-8c7b-4558474c0c3b","ios":"levelo://app?vid=8a6e1cee-f429-4937-8c7b-4558474c0c3b"},"vehicle_type_id":"4","last_reported":1769109414,"current_range_meters":8400,"station_id":"","pricing_plan_id":"cebpf4jnsgd1na2vs0mg"},{"bike_id":"acd9753d-26e3-4f04-bd58-d34a3f6a0ad6","system_id":"levelo_inurba_marseille","lat":43.32497,"lon":5.36568,"is_reserved":false,"is_disabled":false,"rental_uris":{"android":"levelo://app?vid=acd9753d-26e3-4f04-bd58-d34a3f6a0ad6","ios":"levelo://app?vid=acd9753d-26e3-4f04-bd58-d34a3f6a0ad6"},"vehicle_type_id":"4","last_reported":1769109414,"current_range_meters":8400,"station_id":"ce4bhs12rcd13ifvqhvg","pricing_plan_id":"cebpf4jnsgd1na2vs0mg"},{"bike_id":"7f8b115f-437f-48ac-a2b5-2ea2826153f9","system_id":"levelo_inurba_marseille","lat":43.3126,"lon":5.40184,"is_reserved":false,"is_disabled":false,"rental_uris":{"android":"levelo://app?vid=7f8b115f-437f-48ac-a2b5-2ea2826153f9","ios":"levelo://app?vid=7f8b115f-437f-48ac-a2b5-2ea2826153f9"},"vehicle_type_id":"4","last_reported":1769109414,"current_range_meters":8400,"station_id":"ce4bh092rcd13ifvqd30","pricing_plan_id":"cebpf4jnsgd1na2vs0mg"},{"bike_id":"f2413f15-e0b6-4f03-bb3a-1e94b23daeef","system_id":"levelo_inurba_marseille","lat":43.24666,"lon":5.38149,"is_reserved":false,"is_disabled":false,"rental_uris":{"android":"levelo://app?vid=f2413f15-e0b6-4f03-bb3a-1e94b23daeef","ios":"levelo://app?vid=f2413f15-e0b6-4f03-bb3a-1e94b23daeef"},"vehicle_type_id":"4","last_reported":1769109414,"current_range_meters":8400,"station_id":"ce4bhih2rcd13ifvqfr0","pricing_plan_id":"cebpf4jnsgd1na2vs0mg"},{"bike_id":"15015e57-ac59-4038-bc9a-c0a8b0cb2f03","system_id":"levelo_inurba_marseille","lat":43.29295,"lon":5.37445,"is_reserved":false,"is_disabled":false,"rental_uris":{"android":"levelo://app?vid=15015e57-ac59-4038-bc9a-c0a8b0cb2f03","ios":"levelo://app?vid=15015e57-ac59-4038-bc9a-c0a8b0cb2f03"},"vehicle_type_id":"4","last_reported":1769109414,"current_range_meters":8400,"station_id":"ce4bgi12rcd13ifvqb70","pricing_plan_id":"cebpf4jnsgd1na2vs0mg"},{"bike_id":"2403f0bf-de39-4f6c-b1d8-f725bb90dee3","system_id":"levelo_inurba_marseille","lat":43.24168,"lon":5.36385,"is_reserved":false,"is_disabled":false,"rental_uris":{"android":"levelo://app?vid=2403f0bf-de39-4f6c-b1d8-f725bb90dee3","ios":"levelo://app?vid=2403f0bf-de39-4f6c-b1d8-f725bb90dee3"},"vehicle_type_id":"4","last_reported":1769109414,"current_range_meters":8400,"station_id":"cpo36qri1sfpv3e86is0","pricing_plan_id":"cebpf4jnsgd1na2vs0mg"},{"bike_id":"05d6e816-c599-4137-a30a-5127b06dbfc0","system_id":"levelo_inurba_marseille","lat":43.28175,"lon":5.4265,"is_reserved":false,"is_disabled":false,"rental_uris":{"android":"levelo://app?vid=05d6e816-c599-4137-a30a-5127b06dbfc0","ios":"levelo://app?vid=05d6e816-c599-4137-a30a-5127b06dbfc0"},"vehicle_type_id":"4","last_reported":1769109414,"current_range_meters":8400,"station_id":"ce4bhnh2rcd13ifvqgug","pricing_plan_id":"cebpf4jnsgd1na2vs0mg"},{"bike_id":"945b75a6-cb60-4db3-b411-8a275b15016e","system_id":"levelo_inurba_marseille","lat":43.25016,"lon":5.38946,"is_reserved":false,"is_disabled":false,"rental_uris":{"android":"levelo://app?vid=945b75a6-cb60-4db3-b411-8a275b15016e","ios":"levelo://app?vid=945b75a6-cb60-4db3-b411-8a275b15016e"},"vehicle_type_id":"4","last_reported":1769109414,"current_range_meters":8400,"station_id":"ce4bhgp2rcd13ifvqfd0","pricing_plan_id":"cebpf4jnsgd1na2vs0mg"},{"bike_id":"7ba23323-6ddc-445c-8627-b0bc6c465bc3","system_id":"levelo_inurba_marseille","lat":43.324827,"lon":5.365637,"is_reserved":false,"is_disabled":false,"rental_uris":{"android":"levelo://app?vid=7ba23323-6ddc-445c-8627-b0bc6c465bc3","ios":"levelo://app?vid=7ba23323-6ddc-445c-8627-b0bc6c465bc3"},"vehicle_type_id":"4","last_reported":1769109414,"current_range_meters":8400,"station_id":"ce4bhs12rcd13ifvqhvg","pricing_plan_id":"cebpf4jnsgd1na2vs0mg"},{"bike_id":"11e3415c-5f3b-4ead-a1ad-e801ec8c2563","system_id":"levelo_inurba_marseille","lat":43.29245,"lon":5.37614,"is_reserved":false,"is_disabled":false,"rental_uris":{"android":"levelo://app?vid=11e3415c-5f3b-4ead-a1ad-e801ec8c2563","ios":"levelo://app?vid=11e3415c-5f3b-4ead-a1ad-e801ec8c2563"},"vehicle_type_id":"4","last_reported":1769109414,"current_range_meters":8400,"station_id":"ce4bgi12rcd13ifvqb80","pricing_plan_id":"cebpf4jnsgd1na2vs0mg"},{"bike_id":"f48205a8-2171-4595-be8e-e00694a26684","system_id":"levelo_inurba_marseille","lat":43.30892,"lon":5.39628,"is_reserved":false,"is_disabled":false,"rental_uris":{"android":"levelo://app?vid=f48205a8-2171-4595-be8e-e00694a26684","ios":"levelo://app?vid=f48205a8-2171-4595-be8e-e00694a26684"},"vehicle_type_id":"4","last_reported":1769109414,"current_range_meters":8400,"station_id":"ce4bh012rcd13ifvqcv0","pricing_plan_id":"cebpf4jnsgd1na2vs0mg"},{"bike_id":"13e94721-c518-4ff0-a255-455e8cb712ba","system_id":"levelo_inurba_marseille","lat":43.30069,"lon":5.39073,"is_reserved":false,"is_disabled":false,"rental_uris":{"android":"levelo://app?vid=13e94721-c518-4ff0-a255-455e8cb712ba","ios":"levelo://app?vid=13e94721-c518-4ff0-a255-455e8cb712ba"},"vehicle_type_id":"4","last_reported":1769109414,"current_range_meters":8400,"station_id":"ce4bh192rcd13ifvqdb0","pricing_plan_id":"cebpf4jnsgd1na2vs0mg"},{"bike_id":"5af97c13-50bf-480d-9ccf-e967f679b3a6","system_id":"levelo_inurba_marseille","lat":43.28404,"lon":5.37514,"is_reserved":false,"is_disabled":false,"rental_uris":{"android":"levelo://app?vid=5af97c13-50bf-480d-9ccf-e967f679b3a6","ios":"levelo://app?vid=5af97c13-50bf-480d-9ccf-e967f679b3a6"},"vehicle_type_id":"4","last_reported":1769109414,"current_range_meters":8400,"station_id":"ce4bh412rcd13ifvqds0","pricing_plan_id":"cebpf4jnsgd1na2vs0mg"},{"bike_id":"bdd31671-a285-4496-ac9d-652c0991096a","system_id":"levelo_inurba_marseille","lat":43.30141,"lon":5.38758,"is_reserved":false,"is_disabled":false,"rental_uris":{"android":"levelo://app?vid=bdd31671-a285-4496-ac9d-652c0991096a","ios":"levelo://app?vid=bdd31671-a285-4496-ac9d-652c0991096a"},"vehicle_type_id":"4","last_reported":1769109414,"current_range_meters":8400,"station_id":"ce4bghh2rcd13ifvqb60","pricing_plan_id":"cebpf4jnsgd1na2vs0mg"},{"bike_id":"70aa8391-3c8c-41ab-8c43-1b3661572c84","system_id":"levelo_inurba_marseille","lat":43.24681,"lon":5.38135,"is_reserved":false,"is_disabled":false,"rental_uris":{"android":"levelo://app?vid=70aa8391-3c8c-41ab-8c43-1b3661572c84","ios":"levelo://app?vid=70aa8391-3c8c-41ab-8c43-1b3661572c84"},"vehicle_type_id":"4","last_reported":1769109414,"current_range_meters":8400,"station_id":"ce4bhih2rcd13ifvqfr0","pricing_plan_id":"cebpf4jnsgd1na2vs0mg"},{"bike_id":"324cd82f-1083-4204-b317-811809b2300e","system_id":"levelo_inurba_marseille","lat":43.2922,"lon":5.37309,"is_reserved":false,"is_disabled":false,"rental_uris":{"android":"levelo://app?vid=324cd82f-1083-4204-b317-811809b2300e","ios":"levelo://app?vid=324cd82f-1083-4204-b317-811809b2300e"},"vehicle_type_id":"4","last_reported":1769109414,"current_range_meters":8400,"station_id":"","pricing_plan_id":"cebpf4jnsgd1na2vs0mg"},{"bike_id":"884b714b-de31-400c-acad-491c87710532","system_id":"levelo_inurba_marseille","lat":43.299,"lon":5.43664,"is_reserved":false,"is_disabled":false,"rental_uris":{"android":"levelo://app?vid=884b714b-de31-400c-acad-491c87710532","ios":"levelo://app?vid=884b714b-de31-400c-acad-491c87710532"},"vehicle_type_id":"4","last_reported":1769109414,"current_range_meters":8400,"station_id":"ce4bhpp2rcd13ifvqhfg","pricing_plan_id":"cebpf4jnsgd1na2vs0mg"},{"bike_id":"dfd7598e-a0e7-4cbb-8bc0-69f51592cff8","system_id":"levelo_inurba_marseille","lat":43.29883,"lon":5.37566,"is_reserved":false,"is_disabled":false,"rental_uris":{"android":"levelo://app?vid=dfd7598e-a0e7-4cbb-8bc0-69f51592cff8","ios":"levelo://app?vid=dfd7598e-a0e7-4cbb-8bc0-69f51592cff8"},"vehicle_type_id":"4","last_reported":1769109414,"current_range_meters":8800,"station_id":"","pricing_plan_id":"cebpf4jnsgd1na2vs0mg"},{"bike_id":"7875bc43-910a-4950-822b-37f57971d302","system_id":"levelo_inurba_marseille","lat":43.29241,"lon":5.3844,"is_reserved":false,"is_disabled":false,"rental_uris":{"android":"levelo://app?vid=7875bc43-910a-4950-822b-37f57971d302","ios":"levelo://app?vid=7875bc43-910a-4950-822b-37f57971d302"},"vehicle_type_id":"4","last_reported":1769109414,"current_range_meters":8800,"station_id":"ce4bh692rcd13ifvqea0","pricing_plan_id":"cebpf4jnsgd1na2vs0mg"},{"bike_id":"e7f7f6ec-11a5-420f-b70e-99361cf48c63","system_id":"levelo_inurba_marseille","lat":43.29516,"lon":5.39041,"is_reserved":false,"is_disabled":false,"rental_uris":{"android":"levelo://app?vid=e7f7f6ec-11a5-420f-b70e-99361cf48c63","ios":"levelo://app?vid=e7f7f6ec-11a5-420f-b70e-99361cf48c63"},"vehicle_type_id":"4","last_reported":1769109414,"current_range_meters":8800,"station_id":"ce4bh3p2rcd13ifvqdp0","pricing_plan_id":"cebpf4jnsgd1na2vs0mg"},{"bike_id":"d2dd2bd5-35c6-4cf8-86dc-87c4bf274249","system_id":"levelo_inurba_marseille","lat":43.24651,"lon":5.38871,"is_reserved":false,"is_disabled":false,"rental_uris":{"android":"levelo://app?vid=d2dd2bd5-35c6-4cf8-86dc-87c4bf274249","ios":"levelo://app?vid=d2dd2bd5-35c6-4cf8-86dc-87c4bf274249"},"vehicle_type_id":"4","last_reported":1769109414,"current_range_meters":8800,"station_id":"ce4bhg12rcd13ifvqf60","pricing_plan_id":"cebpf4jnsgd1na2vs0mg"},{"bike_id":"dcaca286-10d8-44fb-a8e8-d4128ccf9b29","system_id":"levelo_inurba_marseille","lat":43.2318,"lon":5.39986,"is_reserved":false,"is_disabled":false,"rental_uris":{"android":"levelo://app?vid=dcaca286-10d8-44fb-a8e8-d4128ccf9b29","ios":"levelo://app?vid=dcaca286-10d8-44fb-a8e8-d4128ccf9b29"},"vehicle_type_id":"4","last_reported":1769109414,"current_range_meters":8800,"station_id":"ce4bhn12rcd13ifvqgqg","pricing_plan_id":"cebpf4jnsgd1na2vs0mg"},{"bike_id":"1936b619-1a76-4ddf-9a38-bbaea5d229fe","system_id":"levelo_inurba_marseille","lat":43.29529,"lon":5.38544,"is_reserved":false,"is_disabled":false,"rental_uris":{"android":"levelo://app?vid=1936b619-1a76-4ddf-9a38-bbaea5d229fe","ios":"levelo://app?vid=1936b619-1a76-4ddf-9a38-bbaea5d229fe"},"vehicle_type_id":"4","last_reported":1769109414,"current_range_meters":8800,"station_id":"ce4bgih2rcd13ifvqba0","pricing_plan_id":"cebpf4jnsgd1na2vs0mg"},{"bike_id":"4caa22e2-d859-4a19-bd59-4b424ef0c350","system_id":"levelo_inurba_marseille","lat":43.29308,"lon":5.38475,"is_reserved":false,"is_disabled":false,"rental_uris":{"android":"levelo://app?vid=4caa22e2-d859-4a19-bd59-4b424ef0c350","ios":"levelo://app?vid=4caa22e2-d859-4a19-bd59-4b424ef0c350"},"vehicle_type_id":"4","last_reported":1769109414,"current_range_meters":8800,"station_id":"","pricing_plan_id":"cebpf4jnsgd1na2vs0mg"},{"bike_id":"ac38a438-4179-4ac1-8c09-396dc592af6b","system_id":"levelo_inurba_marseille","lat":43.23191,"lon":5.39976,"is_reserved":false,"is_disabled":false,"rental_uris":{"android":"levelo://app?vid=ac38a438-4179-4ac1-8c09-396dc592af6b","ios":"levelo://app?vid=ac38a438-4179-4ac1-8c09-396dc592af6b"},"vehicle_type_id":"4","last_reported":1769109414,"current_range_meters":8800,"station_id":"ce4bhn12rcd13ifvqgqg","pricing_plan_id":"cebpf4jnsgd1na2vs0mg"},{"bike_id":"ba4dbbff-8d2b-4731-b2d8-2ba2461db1db","system_id":"levelo_inurba_marseille","lat":43.28864,"lon":5.42509,"is_reserved":false,"is_disabled":false,"rental_uris":{"android":"levelo://app?vid=ba4dbbff-8d2b-4731-b2d8-2ba2461db1db","ios":"levelo://app?vid=ba4dbbff-8d2b-4731-b2d8-2ba2461db1db"},"vehicle_type_id":"4","last_reported":1769109414,"current_range_meters":8800,"station_id":"st_d3b462108ojc7389ooeg","pricing_plan_id":"cebpf4jnsgd1na2vs0mg"},{"bike_id":"0cb45920-8e19-4d63-9944-61d25080fade","system_id":"levelo_inurba_marseille","lat":43.29296,"lon":5.37428,"is_reserved":false,"is_disabled":false,"rental_uris":{"android":"levelo://app?vid=0cb45920-8e19-4d63-9944-61d25080fade","ios":"levelo://app?vid=0cb45920-8e19-4d63-9944-61d25080fade"},"vehicle_type_id":"4","last_reported":1769109414,"current_range_meters":8800,"station_id":"ce4bgi12rcd13ifvqb70","pricing_plan_id":"cebpf4jnsgd1na2vs0mg"},{"bike_id":"6a7e8b47-1abf-4350-a831-a2c7f0807730","system_id":"levelo_inurba_marseille","lat":43.28609,"lon":5.351,"is_reserved":false,"is_disabled":false,"rental_uris":{"android":"levelo://app?vid=6a7e8b47-1abf-4350-a831-a2c7f0807730","ios":"levelo://app?vid=6a7e8b47-1abf-4350-a831-a2c7f0807730"},"vehicle_type_id":"4","last_reported":1769109414,"current_range_meters":8800,"station_id":"ce4bhch2rcd13ifvqeug","pricing_plan_id":"cebpf4jnsgd1na2vs0mg"},{"bike_id":"92295e8e-aa68-4e38-8fb7-fb93e0d44651","system_id":"levelo_inurba_marseille","lat":43.23197,"lon":5.35554,"is_reserved":false,"is_disabled":false,"rental_uris":{"android":"levelo://app?vid=92295e8e-aa68-4e38-8fb7-fb93e0d44651","ios":"levelo://app?vid=92295e8e-aa68-4e38-8fb7-fb93e0d44651"},"vehicle_type_id":"4","last_reported":1769109414,"current_range_meters":8800,"station_id":"ce4bhu92rcd13ifvqi70","pricing_plan_id":"cebpf4jnsgd1na2vs0mg"},{"bike_id":"24b92ae7-5464-4b77-b1a2-3b457617dd02","system_id":"levelo_inurba_marseille","lat":43.23159,"lon":5.43749,"is_reserved":false,"is_disabled":false,"rental_uris":{"android":"levelo://app?vid=24b92ae7-5464-4b77-b1a2-3b457617dd02","ios":"levelo://app?vid=24b92ae7-5464-4b77-b1a2-3b457617dd02"},"vehicle_type_id":"4","last_reported":1769109414,"current_range_meters":8800,"station_id":"ce4bhmp2rcd13ifvqgog","pricing_plan_id":"cebpf4jnsgd1na2vs0mg"},{"bike_id":"04f3de4d-e480-431e-8fba-677d088c8f75","system_id":"levelo_inurba_marseille","lat":43.29788,"lon":5.37101,"is_reserved":false,"is_disabled":false,"rental_uris":{"android":"levelo://app?vid=04f3de4d-e480-431e-8fba-677d088c8f75","ios":"levelo://app?vid=04f3de4d-e480-431e-8fba-677d088c8f75"},"vehicle_type_id":"4","last_reported":1769109414,"current_range_meters":8800,"station_id":"ce4bgop2rcd13ifvqc1g","pricing_plan_id":"cebpf4jnsgd1na2vs0mg"},{"bike_id":"16590669-22b9-475f-acf3-c7e2ee0e80fd","system_id":"levelo_inurba_marseille","lat":43.25005,"lon":5.38912,"is_reserved":false,"is_disabled":false,"rental_uris":{"android":"levelo://app?vid=16590669-22b9-475f-acf3-c7e2ee0e80fd","ios":"levelo://app?vid=16590669-22b9-475f-acf3-c7e2ee0e80fd"},"vehicle_type_id":"4","last_reported":1769109414,"current_range_meters":8800,"station_id":"ce4bhgp2rcd13ifvqfd0","pricing_plan_id":"cebpf4jnsgd1na2vs0mg"},{"bike_id":"9f9c4f85-7d9e-4e8a-9123-cbd1f8de03db","system_id":"levelo_inurba_marseille","lat":43.31801,"lon":5.3895,"is_reserved":false,"is_disabled":false,"rental_uris":{"android":"levelo://app?vid=9f9c4f85-7d9e-4e8a-9123-cbd1f8de03db","ios":"levelo://app?vid=9f9c4f85-7d9e-4e8a-9123-cbd1f8de03db"},"vehicle_type_id":"4","last_reported":1769109414,"current_range_meters":8800,"station_id":"","pricing_plan_id":"cebpf4jnsgd1na2vs0mg"},{"bike_id":"c0aa94d7-4de2-48d3-9511-5346e0a25601","system_id":"levelo_inurba_marseille","lat":43.25499,"lon":5.37635,"is_reserved":false,"is_disabled":false,"rental_uris":{"android":"levelo://app?vid=c0aa94d7-4de2-48d3-9511-5346e0a25601","ios":"levelo://app?vid=c0aa94d7-4de2-48d3-9511-5346e0a25601"},"vehicle_type_id":"4","last_reported":1769109414,"current_range_meters":8800,"station_id":"ce4bhh12rcd13ifvqff0","pricing_plan_id":"cebpf4jnsgd1na2vs0mg"},{"bike_id":"d80aa6f5-76de-4a59-9f7f-519829331219","system_id":"levelo_inurba_marseille","lat":43.29026,"lon":5.38123,"is_reserved":false,"is_disabled":false,"rental_uris":{"android":"levelo://app?vid=d80aa6f5-76de-4a59-9f7f-519829331219","ios":"levelo://app?vid=d80aa6f5-76de-4a59-9f7f-519829331219"},"vehicle_type_id":"4","last_reported":1769109414,"current_range_meters":8800,"station_id":"ce4bh4p2rcd13ifvqe1g","pricing_plan_id":"cebpf4jnsgd1na2vs0mg"},{"bike_id":"6d23284d-c0f8-4a34-8303-6e99b8e33d8d","system_id":"levelo_inurba_marseille","lat":43.24949,"lon":5.40485,"is_reserved":false,"is_disabled":false,"rental_uris":{"android":"levelo://app?vid=6d23284d-c0f8-4a34-8303-6e99b8e33d8d","ios":"levelo://app?vid=6d23284d-c0f8-4a34-8303-6e99b8e33d8d"},"vehicle_type_id":"4","last_reported":1769109414,"current_range_meters":9200,"station_id":"st_d2ngiaodas8pm72gd1h0","pricing_plan_id":"cebpf4jnsgd1na2vs0mg"},{"bike_id":"0f8f6788-d5a9-4b2e-9581-49e936277d7c","system_id":"levelo_inurba_marseille","lat":43.25337,"lon":5.42176,"is_reserved":false,"is_disabled":false,"rental_uris":{"android":"levelo://app?vid=0f8f6788-d5a9-4b2e-9581-49e936277d7c","ios":"levelo://app?vid=0f8f6788-d5a9-4b2e-9581-49e936277d7c"},"vehicle_type_id":"4","last_reported":1769109414,"current_range_meters":9200,"station_id":"st_d2m65c5bi1j21697t3ng","pricing_plan_id":"cebpf4jnsgd1na2vs0mg"},{"bike_id":"49891982-a8c8-4b0f-93e4-ab147552d545","system_id":"levelo_inurba_marseille","lat":43.28146,"lon":5.4265,"is_reserved":false,"is_disabled":false,"rental_uris":{"android":"levelo://app?vid=49891982-a8c8-4b0f-93e4-ab147552d545","ios":"levelo://app?vid=49891982-a8c8-4b0f-93e4-ab147552d545"},"vehicle_type_id":"4","last_reported":1769109414,"current_range_meters":9200,"station_id":"ce4bhnh2rcd13ifvqgug","pricing_plan_id":"cebpf4jnsgd1na2vs0mg"},{"bike_id":"0c05629b-edff-4756-8598-21d07cd96dc7","system_id":"levelo_inurba_marseille","lat":43.29525,"lon":5.39033,"is_reserved":false,"is_disabled":false,"rental_uris":{"android":"levelo://app?vid=0c05629b-edff-4756-8598-21d07cd96dc7","ios":"levelo://app?vid=0c05629b-edff-4756-8598-21d07cd96dc7"},"vehicle_type_id":"4","last_reported":1769109414,"current_range_meters":9200,"station_id":"ce4bh3p2rcd13ifvqdp0","pricing_plan_id":"cebpf4jnsgd1na2vs0mg"},