{"last_updated":1751676806,"ttl":60,"version":"2.2","data":{"bikes":[{"bike_id":"3da29fb8-fc97-44c6-b9ac-31dd456b2fd4","system_id":"levelo_inurba_marseille","lat":43.33771,"lon":5.37424,"is_reserved":false,"is_disabled":true,"rental_uris":{"android":"levelo://app?vid=3da29fb8-fc97-44c6-b9ac-31dd456b2fd4","ios":"levelo://app?vid=3da29fb8-fc97-44c6-b9ac-31dd456b2fd4"},"vehicle_type_id":"4","last_reported":1751676806,"current_range_meters":0,"station_id":"","pricing_plan_id":"cebpf4jnsgd1na2vs0mg"},{"bike_id":"01861ad8-a8d7-4be6-816e-651927c87584","system_id":"levelo_inurba_marseille","lat":43.33751,"lon":5.37456,"is_reserved":false,"is_disabled":true,"rental_uris":{"android":"levelo://app?vid=01861ad8-a8d7-4be6-816e-651927c87584","ios":"levelo://app?vid=01861ad8-a8d7-4be6-816e-651927c87584"},"vehicle_type_id":"4","last_reported":1751676806,"current_range_meters":0,"station_id":"","pricing_plan_id":"cebpf4jnsgd1na2vs0mg"},{"bike_id":"c9c1daf4-a7c2-403a-9448-2d7f40669937","system_id":"levelo_inurba_marseille","lat":43.3136,"lon":5.3849,"is_reserved":false,"is_disabled":true,"rental_uris":{"android":"levelo://app?vid=c9c1daf4-a7c2-403a-9448-2d7f40669937","ios":"levelo://app?vid=c9c1daf4-a7c2-403a-9448-2d7f40669937"},"vehicle_type_id":"4","last_reported":1751676806,"current_range_meters":0,"station_id":"ce4bgt92rcd13ifvqcf0","pricing_plan_id":"cebpf4jnsgd1na2vs0mg"},{"bike_id":"949c333c-4cc6-4f79-b499-6df800b1e4c3","system_id":"levelo_inurba_marseille","lat":43.28402,"lon":5.37529,"is_reserved":false,"is_disabled":true,"rental_uris":{"android":"levelo://app?vid=949c333c-4cc6-4f79-b499-6df800b1e4c3","ios":"levelo://app?vid=949c333c-4cc6-4f79-b499-6df800b1e4c3"},"vehicle_type_id":"4","last_reported":1751676806,"current_range_meters":0,"station_id":"ce4bh412rcd13ifvqds0","pricing_plan_id":"cebpf4jnsgd1na2vs0mg"},{"bike_id":"fb7eaa34-3090-467a-bc3a-a4c2c7cd510d","system_id":"levelo_inurba_marseille","lat":43.21746,"lon":5.34616,"is_reserved":false,"is_disabled":true,"rental_uris":{"android":"levelo://app?vid=fb7eaa34-3090-467a-bc3a-a4c2c7cd510d","ios":"levelo://app?vid=fb7eaa34-3090-467a-bc3a-a4c2c7cd510d"},"vehicle_type_id":"4","last_reported":1751676806,"current_range_meters":0,"station_id":"st_cvj6r9ubvosntc0bgbag","pricing_plan_id":"cebpf4jnsgd1na2vs0mg"},{"bike_id":"2db7de25-6c57-447b-bff5-ea01c3753780","system_id":"levelo_inurba_marseille","lat":43.21752,"lon":5.34602,"is_reserved":false,"is_disabled":true,"rental_uris":{"android":"levelo://app?vid=2db7de25-6c57-447b-bff5-ea01c3753780","ios":"levelo://app?vid=2db7de25-6c57-447b-bff5-ea01c3753780"},"vehicle_type_id":"4","last_reported":1751676806,"current_range_meters":0,"station_id":"st_cvj6r9ubvosntc0bgbag","pricing_plan_id":"cebpf4jnsgd1na2vs0mg"},{"bike_id":"5e8830ec-34e5-4f0f-b607-434b2954d153","system_id":"levelo_inurba_marseille","lat":43.2119,"lon":5.35078,"is_reserved":false,"is_disabled":true,"rental_uris":{"android":"levelo://app?vid=5e8830ec-34e5-4f0f-b607-434b2954d153","ios":"levelo://app?vid=5e8830ec-34e5-4f0f-b607-434b2954d153"},"vehicle_type_id":"4","last_reported":1751676806,"current_range_meters":0,"station_id":"st_cvj6sg6p6f1abm77japg","pricing_plan_id":"cebpf4jnsgd1na2vs0mg"},{"bike_id":"cee0b5b6-9b90-457a-85f4-540287a23b84","system_id":"levelo_inurba_marseille","lat":43.2119,"lon":5.35083,"is_reserved":false,"is_disabled":true,"rental_uris":{"android":"levelo://app?vid=cee0b5b6-9b90-457a-85f4-540287a23b84","ios":"levelo://app?vid=cee0b5b6-9b90-457a-85f4-540287a23b84"},"vehicle_type_id":"4","last_reported":1751676806,"current_range_meters":0,"station_id":"st_cvj6sg6p6f1abm77japg","pricing_plan_id":"cebpf4jnsgd1na2vs0mg"},{"bike_id":"cd2a3af2-854b-4519-92e5-1eaf70ba8a37","system_id":"levelo_inurba_marseille","lat":43.21194,"lon":5.35078,"is_reserved":false,"is_disabled":true,"rental_uris":{"android":"levelo://app?vid=cd2a3af2-854b-4519-92e5-1eaf70ba8a37","ios":"levelo://app?vid=cd2a3af2-854b-4519-92e5-1eaf70ba8a37"},"vehicle_type_id":"4","last_reported":1751676806,"current_range_meters":0,"station_id":"st_cvj6sg6p6f1abm77japg","pricing_plan_id":"cebpf4jnsgd1na2vs0mg"},{"bike_id":"11e7b8be-6254-46c8-a705-c6941c346d56","system_id":"levelo_inurba_marseille","lat":43.30126,"lon":5.37744,"is_reserved":false,"is_disabled":true,"rental_uris":{"android":"levelo://app?vid=11e7b8be-6254-46c8-a705-c6941c346d56","ios":"levelo://app?vid=11e7b8be-6254-46c8-a705-c6941c346d56"},"vehicle_type_id":"4","last_reported":1751676806,"current_range_meters":400,"station_id":"","pricing_plan_id":"cebpf4jnsgd1na2vs0mg"},{"bike_id":"232c7599-afff-41a5-b0d2-0bcec5f48bb6","system_id":"levelo_inurba_marseille","lat":43.21749,"lon":5.34595,"is_reserved":false,"is_disabled":true,"rental_uris":{"android":"levelo://app?vid=232c7599-afff-41a5-b0d2-0bcec5f48bb6","ios":"levelo://app?vid=232c7599-afff-41a5-b0d2-0bcec5f48bb6"},"vehicle_type_id":"4","last_reported":1751676806,"current_range_meters":400,"station_id":"st_cvj6r9ubvosntc0bgbag","pricing_plan_id":"cebpf4jnsgd1na2vs0mg"},{"bike_id":"ca5bbaab-42ea-4fcf-b697-2151583d3c05","system_id":"levelo_inurba_marseille","lat":43.30433,"lon":5.38899,"is_reserved":false,"is_disabled":true,"rental_uris":{"android":"levelo://app?vid=ca5bbaab-42ea-4fcf-b697-2151583d3c05","ios":"levelo://app?vid=ca5bbaab-42ea-4fcf-b697-2151583d3c05"},"vehicle_type_id":"4","last_reported":1751676806,"current_range_meters":800,"station_id":"ce4bgk12rcd13ifvqbi0","pricing_plan_id":"cebpf4jnsgd1na2vs0mg"},{"bike_id":"76537ac4-b1ab-4dbb-a058-0485a931fac9","system_id":"levelo_inurba_marseille","lat":43.29652,"lon":5.36893,"is_reserved":false,"is_disabled":true,"rental_uris":{"android":"levelo://app?vid=76537ac4-b1ab-4dbb-a058-0485a931fac9","ios":"levelo://app?vid=76537ac4-b1ab-4dbb-a058-0485a931fac9"},"vehicle_type_id":"4","last_reported":1751676806,"current_range_meters":1600,"station_id":"","pricing_plan_id":"cebpf4jnsgd1na2vs0mg"},{"bike_id":"846abd36-ab16-4883-869a-b1d86457eb74","system_id":"levelo_inurba_marseille","lat":43.3016,"lon":5.38339,"is_reserved":false,"is_disabled":true,"rental_uris":{"android":"levelo://app?vid=846abd36-ab16-4883-869a-b1d86457eb74","ios":"levelo://app?vid=846abd36-ab16-4883-869a-b1d86457eb74"},"vehicle_type_id":"4","last_reported":1751676806,"current_range_meters":1600,"station_id":"","pricing_plan_id":"cebpf4jnsgd1na2vs0mg"},{"bike_id":"76f13cd1-e5df-4ee6-b8ab-90b489ddc39b","system_id":"levelo_inurba_marseille","lat":43.29632,"lon":5.40598,"is_reserved":false,"is_disabled":true,"rental_uris":{"android":"levelo://app?vid=76f13cd1-e5df-4ee6-b8ab-90b489ddc39b","ios":"levelo://app?vid=76f13cd1-e5df-4ee6-b8ab-90b489ddc39b"},"vehicle_type_id":"4","last_reported":1751676806,"current_range_meters":1600,"station_id":"ce4bh0h2rcd13ifvqd60","pricing_plan_id":"cebpf4jnsgd1na2vs0mg"},{"bike_id":"c5b91b0a-5fc4-4165-b464-20e1a4c673fb","system_id":"levelo_inurba_marseille","lat":43.32362,"lon":5.3676,"is_reserved":false,"is_disabled":true,"rental_uris":{"android":"levelo://app?vid=c5b91b0a-5fc4-4165-b464-20e1a4c673fb","ios":"levelo://app?vid=c5b91b0a-5fc4-4165-b464-20e1a4c673fb"},"vehicle_type_id":"4","last_reported":1751676806,"current_range_meters":1600,"station_id":"ce4bhsh2rcd13ifvqi2g","pricing_plan_id":"cebpf4jnsgd1na2vs0mg"},{"bike_id":"66513763-ec3f-43e1-82f6-2d6572f41b96","system_id":"levelo_inurba_marseille","lat":43.29419,"lon":5.38625,"is_reserved":false,"is_disabled":true,"rental_uris":{"android":"levelo://app?vid=66513763-ec3f-43e1-82f6-2d6572f41b96","ios":"levelo://app?vid=66513763-ec3f-43e1-82f6-2d6572f41b96"},"vehicle_type_id":"4","last_reported":1751676806,"current_range_meters":2000,"station_id":"ce4bh2h2rcd13ifvqdh0","pricing_plan_id":"cebpf4jnsgd1na2vs0mg"},{"bike_id":"0997dafd-dd4e-47ea-99ae-55b92c6fa03c","system_id":"levelo_inurba_marseille","lat":43.283166,"lon":5.350411,"is_reserved":false,"is_disabled":true,"rental_uris":{"android":"levelo://app?vid=0997dafd-dd4e-47ea-99ae-55b92c6fa03c","ios":"levelo://app?vid=0997dafd-dd4e-47ea-99ae-55b92c6fa03c"},"vehicle_type_id":"4","last_reported":1751676806,"current_range_meters":2000,"station_id":"ce4bhbp2rcd13ifvqerg","pricing_plan_id":"cebpf4jnsgd1na2vs0mg"},{"bike_id":"aeaefcb4-383f-4002-8137-f11a83c017d4","system_id":"levelo_inurba_marseille","lat":43.31272,"lon":5.40173,"is_reserved":false,"is_disabled":false,"rental_uris":{"android":"levelo://app?vid=aeaefcb4-383f-4002-8137-f11a83c017d4","ios":"levelo://app?vid=aeaefcb4-383f-4002-8137-f11a83c017d4"},"vehicle_type_id":"4","last_reported":1751676806,"current_range_meters":2800,"station_id":"ce4bh092rcd13ifvqd30","pricing_plan_id":"cebpf4jnsgd1na2vs0mg"},{"bike_id":"38c732d6-04c6-48a5-aa8b-a37a2297ee74","system_id":"levelo_inurba_marseille","lat":43.29286,"lon":5.40121,"is_reserved":false,"is_disabled":false,"rental_uris":{"android":"levelo://app?vid=38c732d6-04c6-48a5-aa8b-a37a2297ee74","ios":"levelo://app?vid=38c732d6-04c6-48a5-aa8b-a37a2297ee74"},"vehicle_type_id":"4","last_reported":1751676806,"current_range_meters":2800,"station_id":"ce4bh312rcd13ifvqdk0","pricing_plan_id":"cebpf4jnsgd1na2vs0mg"},{"bike_id":"e89a3eab-f103-4170-aa94-671619df7c48","system_id":"levelo_inurba_marseille","lat":43.2784,"lon":5.39207,"is_reserved":false,"is_disabled":false,"rental_uris":{"android":"levelo://app?vid=e89a3eab-f103-4170-aa94-671619df7c48","ios":"levelo://app?vid=e89a3eab-f103-4170-aa94-671619df7c48"},"vehicle_type_id":"4","last_reported":1751676806,"current_range_meters":2800,"station_id":"ce4bhjp2rcd13ifvqga0","pricing_plan_id":"cebpf4jnsgd1na2vs0mg"},{"bike_id":"9958362c-734d-4a9e-bcfa-2136dc0f76c6","system_id":"levelo_inurba_marseille","lat":43.292999,"lon":5.374474,"is_reserved":false,"is_disabled":false,"rental_uris":{"android":"levelo://app?vid=9958362c-734d-4a9e-bcfa-2136dc0f76c6","ios":"levelo://app?vid=9958362c-734d-4a9e-bcfa-2136dc0f76c6"},"vehicle_type_id":"4","last_reported":1751676806,"current_range_meters":3200,"station_id":"ce4bgi12rcd13ifvqb70","pricing_plan_id":"cebpf4jnsgd1na2vs0mg"},{"bike_id":"157b3db4-5dcd-40b2-b529-9efc178eee7e","system_id":"levelo_inurba_marseille","lat":43.296992,"lon":5.376892,"is_reserved":false,"is_disabled":false,"rental_uris":{"android":"levelo://app?vid=157b3db4-5dcd-40b2-b529-9efc178eee7e","ios":"levelo://app?vid=157b3db4-5dcd-40b2-b529-9efc178eee7e"},"vehicle_type_id":"4","last_reported":1751676806,"current_range_meters":3200,"station_id":"ce4bgkh2rcd13ifvqbl0","pricing_plan_id":"cebpf4jnsgd1na2vs0mg"},{"bike_id":"f56c4fd7-02ba-45d7-9f67-fd5846fc39e6","system_id":"levelo_inurba_marseille","lat":43.292908,"lon":5.40131,"is_reserved":false,"is_disabled":false,"rental_uris":{"android":"levelo://app?vid=f56c4fd7-02ba-45d7-9f67-fd5846fc39e6","ios":"levelo://app?vid=f56c4fd7-02ba-45d7-9f67-fd5846fc39e6"},"vehicle_type_id":"4","last_reported":1751676806,"current_range_meters":3200,"station_id":"ce4bh312rcd13ifvqdk0","pricing_plan_id":"cebpf4jnsgd1na2vs0mg"},{"bike_id":"ab0d2c8e-d555-4f95-8c95-d0c8497f0cf8","system_id":"levelo_inurba_marseille","lat":43.29042,"lon":5.39966,"is_reserved":false,"is_disabled":false,"rental_uris":{"android":"levelo://app?vid=ab0d2c8e-d555-4f95-8c95-d0c8497f0cf8","ios":"levelo://app?vid=ab0d2c8e-d555-4f95-8c95-d0c8497f0cf8"},"vehicle_type_id":"4","last_reported":1751676806,"current_range_meters":3200,"station_id":"ce4bh392rcd13ifvqdm0","pricing_plan_id":"cebpf4jnsgd1na2vs0mg"},{"bike_id":"8afa7640-ebe8-4025-983a-c83f3912a2dd","system_id":"levelo_inurba_marseille","lat":43.21175,"lon":5.35041,"is_reserved":false,"is_disabled":false,"rental_uris":{"android":"levelo://app?vid=8afa7640-ebe8-4025-983a-c83f3912a2dd","ios":"levelo://app?vid=8afa7640-ebe8-4025-983a-c83f3912a2dd"},"vehicle_type_id":"4","last_reported":1751676806,"current_range_meters":3200,"station_id":"st_cvj6sg6p6f1abm77japg","pricing_plan_id":"cebpf4jnsgd1na2vs0mg"},{"bike_id":"e26ba497-efc7-4420-b8c5-9fa5e27f2ce4","system_id":"levelo_inurba_marseille","lat":43.31337,"lon":5.37069,"is_reserved":false,"is_disabled":false,"rental_uris":{"android":"levelo://app?vid=e26ba497-efc7-4420-b8c5-9fa5e27f2ce4","ios":"levelo://app?vid=e26ba497-efc7-4420-b8c5-9fa5e27f2ce4"},"vehicle_type_id":"4","last_reported":1751676806,"current_range_meters":4000,"station_id":"","pricing_plan_id":"cebpf4jnsgd1na2vs0mg"},{"bike_id":"292a8e84-2ca1-4f29-9ce5-87f882a96cc4","system_id":"levelo_inurba_marseille","lat":43.31318,"lon":5.39706,"is_reserved":false,"is_disabled":false,"rental_uris":{"android":"levelo://app?vid=292a8e84-2ca1-4f29-9ce5-87f882a96cc4","ios":"levelo://app?vid=292a8e84-2ca1-4f29-9ce5-87f882a96cc4"},"vehicle_type_id":"4","last_reported":1751676806,"current_range_meters":4000,"station_id":"ce4bgvp2rcd13ifvqcu0","pricing_plan_id":"cebpf4jnsgd1na2vs0mg"},{"bike_id":"7ba17d1d-3d49-456d-801d-29fec5dbd390","system_id":"levelo_inurba_marseille","lat":43.30308,"lon":5.4044,"is_reserved":false,"is_disabled":false,"rental_uris":{"android":"levelo://app?vid=7ba17d1d-3d49-456d-801d-29fec5dbd390","ios":"levelo://app?vid=7ba17d1d-3d49-456d-801d-29fec5dbd390"},"vehicle_type_id":"4","last_reported":1751676806,"current_range_meters":4000,"station_id":"ce4bh012rcd13ifvqd10","pricing_plan_id":"cebpf4jnsgd1na2vs0mg"},{"bike_id":"c3ae91a3-84a1-49e1-b302-b2dd0c68bce6","system_id":"levelo_inurba_marseille","lat":43.2832,"lon":5.43256,"is_reserved":false,"is_disabled":false,"rental_uris":{"android":"levelo://app?vid=c3ae91a3-84a1-49e1-b302-b2dd0c68bce6","ios":"levelo://app?vid=c3ae91a3-84a1-49e1-b302-b2dd0c68bce6"},"vehicle_type_id":"4","last_reported":1751676806,"current_range_meters":4800,"station_id":"","pricing_plan_id":"cebpf4jnsgd1na2vs0mg"},{"bike_id":"7483024e-94ab-494a-b457-54fd9cb9c338","system_id":"levelo_inurba_marseille","lat":43.31686,"lon":5.40456,"is_reserved":false,"is_disabled":false,"rental_uris":{"android":"levelo://app?vid=7483024e-94ab-494a-b457-54fd9cb9c338","ios":"levelo://app?vid=7483024e-94ab-494a-b457-54fd9cb9c338"},"vehicle_type_id":"4","last_reported":1751676806,"current_range_meters":4800,"station_id":"ce4bh012rcd13ifvqd00","pricing_plan_id":"cebpf4jnsgd1na2vs0mg"},{"bike_id":"6d3ce283-4e3a-4715-ad88-5f1bd0e84e40","system_id":"levelo_inurba_marseille","lat":43.29898,"lon":5.43672,"is_reserved":false,"is_disabled":false,"rental_uris":{"android":"levelo://app?vid=6d3ce283-4e3a-4715-ad88-5f1bd0e84e40","ios":"levelo://app?vid=6d3ce283-4e3a-4715-ad88-5f1bd0e84e40"},"vehicle_type_id":"4","last_reported":1751676806,"current_range_meters":4800,"station_id":"ce4bhpp2rcd13ifvqhfg","pricing_plan_id":"cebpf4jnsgd1na2vs0mg"},{"bike_id":"d52317ec-9d8e-4e5d-a5ef-563eb0952a26","system_id":"levelo_inurba_marseille","lat":43.31745,"lon":5.39017,"is_reserved":false,"is_disabled":false,"rental_uris":{"android":"levelo://app?vid=d52317ec-9d8e-4e5d-a5ef-563eb0952a26","ios":"levelo://app?vid=d52317ec-9d8e-4e5d-a5ef-563eb0952a26"},"vehicle_type_id":"4","last_reported":1751676806,"current_range_meters":4800,"station_id":"ce4bhqp2rcd13ifvqhng","pricing_plan_id":"cebpf4jnsgd1na2vs0mg"},{"bike_id":"9bfc7d3d-4e60-4f8a-9c32-ef3d0e77ec5b","system_id":"levelo_inurba_marseille","lat":43.21173,"lon":5.35111,"is_reserved":false,"is_disabled":false,"rental_uris":{"android":"levelo://app?vid=9bfc7d3d-4e60-4f8a-9c32-ef3d0e77ec5b","ios":"levelo://app?vid=9bfc7d3d-4e60-4f8a-9c32-ef3d0e77ec5b"},"vehicle_type_id":"4","last_reported":1751676806,"current_range_meters":6000,"station_id":"st_cvj6sg6p6f1abm77japg","pricing_plan_id":"cebpf4jnsgd1na2vs0mg"},{"bike_id":"be4e2ba2-f83c-4be6-923a-932d435bb5ce","system_id":"levelo_inurba_marseille","lat":43.28233,"lon":5.40436,"is_reserved":false,"is_disabled":false,"rental_uris":{"android":"levelo://app?vid=be4e2ba2-f83c-4be6-923a-932d435bb5ce","ios":"levelo://app?vid=be4e2ba2-f83c-4be6-923a-932d435bb5ce"},"vehicle_type_id":"4","last_reported":1751676806,"current_range_meters":6400,"station_id":"","pricing_plan_id":"cebpf4jnsgd1na2vs0mg"},{"bike_id":"6afca9bf-a7cb-425f-89e0-cd009c2e6633","system_id":"levelo_inurba_marseille","lat":43.29786,"lon":5.37128,"is_reserved":false,"is_disabled":false,"rental_uris":{"android":"levelo://app?vid=6afca9bf-a7cb-425f-89e0-cd009c2e6633","ios":"levelo://app?vid=6afca9bf-a7cb-425f-89e0-cd009c2e6633"},"vehicle_type_id":"4","last_reported":1751676806,"current_range_meters":6400,"station_id":"ce4bgop2rcd13ifvqc1g","pricing_plan_id":"cebpf4jnsgd1na2vs0mg"},{"bike_id":"31a17a5f-de88-4d37-b83e-ae5ecaa849c4","system_id":"levelo_inurba_marseille","lat":43.29542,"lon":5.39404,"is_reserved":false,"is_disabled":false,"rental_uris":{"android":"levelo://app?vid=31a17a5f-de88-4d37-b83e-ae5ecaa849c4","ios":"levelo://app?vid=31a17a5f-de88-4d37-b83e-ae5ecaa849c4"},"vehicle_type_id":"4","last_reported":1751676806,"current_range_meters":6400,"station_id":"ce4bh292rcd13ifvqdf0","pricing_plan_id":"cebpf4jnsgd1na2vs0mg"},{"bike_id":"52b4a680-bd14-4901-b9de-49f1fc020c1c","system_id":"levelo_inurba_marseille","lat":43.31899,"lon":5.40754,"is_reserved":false,"is_disabled":false,"rental_uris":{"android":"levelo://app?vid=52b4a680-bd14-4901-b9de-49f1fc020c1c","ios":"levelo://app?vid=52b4a680-bd14-4901-b9de-49f1fc020c1c"},"vehicle_type_id":"4","last_reported":1751676806,"current_range_meters":6400,"station_id":"ce4bhq12rcd13ifvqhig","pricing_plan_id":"cebpf4jnsgd1na2vs0mg"},{"bike_id":"9d35c8de-cf05-46a4-9f4b-a304e5126e37","system_id":"levelo_inurba_marseille","lat":43.30139,"lon":5.37405,"is_reserved":false,"is_disabled":false,"rental_uris":{"android":"levelo://app?vid=9d35c8de-cf05-46a4-9f4b-a304e5126e37","ios":"levelo://app?vid=9d35c8de-cf05-46a4-9f4b-a304e5126e37"},"vehicle_type_id":"4","last_reported":1751676806,"current_range_meters":6800,"station_id":"ce4bgs92rcd13ifvqcc0","pricing_plan_id":"cebpf4jnsgd1na2vs0mg"},{"bike_id":"1d1e194f-1254-4bd3-b387-4a9bc32002fa","system_id":"levelo_inurba_marseille","lat":43.29871,"lon":5.39727,"is_reserved":false,"is_disabled":false,"rental_uris":{"android":"levelo://app?vid=1d1e194f-1254-4bd3-b387-4a9bc32002fa","ios":"levelo://app?vid=1d1e194f-1254-4bd3-b387-4a9bc32002fa"},"vehicle_type_id":"4","last_reported":1751676806,"current_range_meters":6800,"station_id":"ce4bh0h2rcd13ifvqd50","pricing_plan_id":"cebpf4jnsgd1na2vs0mg"},{"bike_id":"cb0014e1-eadd-4761-a8c0-6c6c53705809","system_id":"levelo_inurba_marseille","lat":43.28441,"lon":5.39199,"is_reserved":false,"is_disabled":false,"rental_uris":{"android":"levelo://app?vid=cb0014e1-eadd-4761-a8c0-6c6c53705809","ios":"levelo://app?vid=cb0014e1-eadd-4761-a8c0-6c6c53705809"},"vehicle_type_id":"4","last_reported":1751676806,"current_range_meters":6800,"station_id":"ce4bhoh2rcd13ifvqh5g","pricing_plan_id":"cebpf4jnsgd1na2vs0mg"},{"bike_id":"4c1cea30-5d6e-4018-9408-243d0b3a97b3","system_id":"levelo_inurba_marseille","lat":43.284387,"lon":5.39203,"is_reserved":false,"is_disabled":false,"rental_uris":{"android":"levelo://app?vid=4c1cea30-5d6e-4018-9408-243d0b3a97b3","ios":"levelo://app?vid=4c1cea30-5d6e-4018-9408-243d0b3a97b3"},"vehicle_type_id":"4","last_reported":1751676806,"current_range_meters":7200,"station_id":"ce4bhoh2rcd13ifvqh5g","pricing_plan_id":"cebpf4jnsgd1na2vs0mg"},{"bike_id":"d799b321-3a7d-4201-b46e-ffe2ad124f19","system_id":"levelo_inurba_marseille","lat":43.329224,"lon":5.383753,"is_reserved":false,"is_disabled":false,"rental_uris":{"android":"levelo://app?vid=d799b321-3a7d-4201-b46e-ffe2ad124f19","ios":"levelo://app?vid=d799b321-3a7d-4201-b46e-ffe2ad124f19"},"vehicle_type_id":"4","last_reported":1751676806,"current_range_meters":8000,"station_id":"","pricing_plan_id":"cebpf4jnsgd1na2vs0mg"},{"bike_id":"18a859db-537c-44b5-877a-c870d53aac94","system_id":"levelo_inurba_marseille","lat":43.30931,"lon":5.4016,"is_reserved":false,"is_disabled":false,"rental_uris":{"android":"levelo://app?vid=18a859db-537c-44b5-877a-c870d53aac94","ios":"levelo://app?vid=18a859db-537c-44b5-877a-c870d53aac94"},"vehicle_type_id":"4","last_reported":1751676806,"current_range_meters":8000,"station_id":"ce4bgvp2rcd13ifvqct0","pricing_plan_id":"cebpf4jnsgd1na2vs0mg"},{"bike_id":"e8fad757-69ea-4959-a21b-ef0e03759894","system_id":"levelo_inurba_marseille","lat":43.29264,"lon":5.409,"is_reserved":false,"is_disabled":false,"rental_uris":{"android":"levelo://app?vid=e8fad757-69ea-4959-a21b-ef0e03759894","ios":"levelo://app?vid=e8fad757-69ea-4959-a21b-ef0e03759894"},"vehicle_type_id":"4","last_reported":1751676806,"current_range_meters":8000,"station_id":"ce4bh192rcd13ifvqdc0","pricing_plan_id":"cebpf4jnsgd1na2vs0mg"},{"bike_id":"7523ebcd-30ee-4d5e-9ab8-be9224fce5e1","system_id":"levelo_inurba_marseille","lat":43.28112,"lon":5.37831,"is_reserved":false,"is_disabled":false,"rental_uris":{"android":"levelo://app?vid=7523ebcd-30ee-4d5e-9ab8-be9224fce5e1","ios":"levelo://app?vid=7523ebcd-30ee-4d5e-9ab8-be9224fce5e1"},"vehicle_type_id":"4","last_reported":1751676806,"current_range_meters":8000,"station_id":"ce4bha12rcd13ifvqee0","pricing_plan_id":"cebpf4jnsgd1na2vs0mg"},{"bike_id":"5e811c86-824d-4978-918d-a61aa3a543ea","system_id":"levelo_inurba_marseille","lat":43.3042,"lon":5.41278,"is_reserved":false,"is_disabled":false,"rental_uris":{"android":"levelo://app?vid=5e811c86-824d-4978-918d-a61aa3a543ea","ios":"levelo://app?vid=5e811c86-824d-4978-918d-a61aa3a543ea"},"vehicle_type_id":"4","last_reported":1751676806,"current_range_meters":8000,"station_id":"ce4bhop2rcd13ifvqh8g","pricing_plan_id":"cebpf4jnsgd1na2vs0mg"},{"bike_id":"3742f0af-61ba-439a-8b24-a4f7fc1cb28b","system_id":"levelo_inurba_marseille","lat":43.29561,"lon":5.42288,"is_reserved":false,"is_disabled":false,"rental_uris":{"android":"levelo://app?vid=3742f0af-61ba-439a-8b24-a4f7fc1cb28b","ios":"levelo://app?vid=3742f0af-61ba-439a-8b24-a4f7fc1cb28b"},"vehicle_type_id":"4","last_reported":1751676806,"current_range_meters":8000,"station_id":"ce4bhph2rcd13ifvqhdg","pricing_plan_id":"cebpf4jnsgd1na2vs0mg"},{"bike_id":"f6ac2ca1-a3ac-4f58-b1a1-b74be8a76990","system_id":"levelo_inurba_marseille","lat":43.29901,"lon":5.43664,"is_reserved":false,"is_disabled":false,"rental_uris":{"android":"levelo://app?vid=f6ac2ca1-a3ac-4f58-b1a1-b74be8a76990","ios":"levelo://app?vid=f6ac2ca1-a3ac-4f58-b1a1-b74be8a76990"},"vehicle_type_id":"4","last_reported":1751676806,"current_range_meters":8000,"station_id":"ce4bhpp2rcd13ifvqhfg","pricing_plan_id":"cebpf4jnsgd1na2vs0mg"},{"bike_id":"a167da99-9bbd-4d64-b579-9fee088f6203","system_id":"levelo_inurba_marseille","lat":43.30819,"lon":5.38173,"is_reserved":false,"is_disabled":false,"rental_uris":{"android":"levelo://app?vid=a167da99-9bbd-4d64-b579-9fee088f6203","ios":"levelo://app?vid=a167da99-9bbd-4d64-b579-9fee088f6203"},"vehicle_type_id":"4","last_reported":1751676806,"current_range_meters":8400,"station_id":"ce4bgt12rcd13ifvqce0","pricing_plan_id":"cebpf4jnsgd1na2vs0mg"},{"bike_id":"dfa1c380-e619-4d58-9700-e366787f15f4","system_id":"levelo_inurba_marseille","lat":43.31072,"lon":5.38348,"is_reserved":false,"is_disabled":false,"rental_uris":{"android":"levelo://app?vid=dfa1c380-e619-4d58-9700-e366787f15f4","ios":"levelo://app?vid=dfa1c380-e619-4d58-9700-e366787f15f4"},"vehicle_type_id":"4","last_reported":1751676806,"current_range_meters":8400,"station_id":"ce4bgv92rcd13ifvqcr0","pricing_plan_id":"cebpf4jnsgd1na2vs0mg"},{"bike_id":"e3822c24-4fb4-45b7-8cd2-6e1079eeff65","system_id":"levelo_inurba_marseille","lat":43.310861,"lon":5.424281,"is_reserved":false,"is_disabled":false,"rental_uris":{"android":"levelo://app?vid=e3822c24-4fb4-45b7-8cd2-6e1079eeff65","ios":"levelo://app?vid=e3822c24-4fb4-45b7-8cd2-6e1079eeff65"},"vehicle_type_id":"4","last_reported":1751676806,"current_range_meters":8400,"station_id":"ce4bhp92rcd13ifvqhag","pricing_plan_id":"cebpf4jnsgd1na2vs0mg"},{"bike_id":"c76381fd-b6b9-4d02-a8a4-fd4e6891e706","system_id":"levelo_inurba_marseille","lat":43.30241,"lon":5.39028,"is_reserved":false,"is_disabled":false,"rental_uris":{"android":"levelo://app?vid=c76381fd-b6b9-4d02-a8a4-fd4e6891e706","ios":"levelo://app?vid=c76381fd-b6b9-4d02-a8a4-fd4e6891e706"},"vehicle_type_id":"4","last_reported":1751676806,"current_range_meters":8800,"station_id":"","pricing_plan_id":"cebpf4jnsgd1na2vs0mg"},{"bike_id":"ffc98ed0-4733-459e-949d-99aa8fb39a97","system_id":"levelo_inurba_marseille","lat":43.3503,"lon":5.35864,"is_reserved":false,"is_disabled":false,"rental_uris":{"android":"levelo://app?vid=ffc98ed0-4733-459e-949d-99aa8fb39a97","ios":"levelo://app?vid=ffc98ed0-4733-459e-949d-99aa8fb39a97"},"vehicle_type_id":"4","last_reported":1751676806,"current_range_meters":8800,"station_id":"","pricing_plan_id":"cebpf4jnsgd1na2vs0mg"},{"bike_id":"c1ba02c4-a565-4e3d-a7d3-dd9388030d20","system_id":"levelo_inurba_marseille","lat":43.31504,"lon":5.37317,"is_reserved":false,"is_disabled":false,"rental_uris":{"android":"levelo://app?vid=c1ba02c4-a565-4e3d-a7d3-dd9388030d20","ios":"levelo://app?vid=c1ba02c4-a565-4e3d-a7d3-dd9388030d20"},"vehicle_type_id":"4","last_reported":1751676806,"current_range_meters":8800,"station_id":"ce4bgt12rcd13ifvqcd0","pricing_plan_id":"cebpf4jnsgd1na2vs0mg"},{"bike_id":"e8f40f67-2123-4555-91dc-d7070bb82489","system_id":"levelo_inurba_marseille","lat":43.30263,"lon":5.40084,"is_reserved":false,"is_disabled":false,"rental_uris":{"android":"levelo://app?vid=e8f40f67-2123-4555-91dc-d7070bb82489","ios":"levelo://app?vid=e8f40f67-2123-4555-91dc-d7070bb82489"},"vehicle_type_id":"4","last_reported":1751676806,"current_range_meters":8800,"station_id":"ce4bgvh2rcd13ifvqcs0","pricing_plan_id":"cebpf4jnsgd1na2vs0mg"},{"bike_id":"9fc31a6b-4e45-4f6f-8794-f17d58440be8","system_id":"levelo_inurba_marseille","lat":43.30922,"lon":5.40156,"is_reserved":false,"is_disabled":false,"rental_uris":{"android":"levelo://app?vid=9fc31a6b-4e45-4f6f-8794-f17d58440be8","ios":"levelo://app?vid=9fc31a6b-4e45-4f6f-8794-f17d58440be8"},"vehicle_type_id":"4","last_reported":1751676806,"current_range_meters":8800,"station_id":"ce4bgvp2rcd13ifvqct0","pricing_plan_id":"cebpf4jnsgd1na2vs0mg"},{"bike_id":"aacad29e-a949-4cc9-9b2f-0fc6be5c7e19","system_id":"levelo_inurba_marseille","lat":43.29869,"lon":5.39728,"is_reserved":false,"is_disabled":false,"rental_uris":{"android":"levelo://app?vid=aacad29e-a949-4cc9-9b2f-0fc6be5c7e19","ios":"levelo://app?vid=aacad29e-a949-4cc9-9b2f-0fc6be5c7e19"},"vehicle_type_id":"4","last_reported":1751676806,"current_range_meters":8800,"station_id":"ce4bh0h2rcd13ifvqd50","pricing_plan_id":"cebpf4jnsgd1na2vs0mg"},{"bike_id":"dea4b96a-ecc4-4752-85bf-e2ad5ed5571c","system_id":"levelo_inurba_marseille","lat":43.29798,"lon":5.40416,"is_reserved":false,"is_disabled":false,"rental_uris":{"android":"levelo://app?vid=dea4b96a-ecc4-4752-85bf-e2ad5ed5571c","ios":"levelo://app?vid=dea4b96a-ecc4-4752-85bf-e2ad5ed5571c"},"vehicle_type_id":"4","last_reported":1751676806,"current_range_meters":8800,"station_id":"ce4bh112rcd13ifvqd90","pricing_plan_id":"cebpf4jnsgd1na2vs0mg"},{"bike_id":"9f1f6042-7e07-4b00-9dc1-8f0343d9174e","system_id":"levelo_inurba_marseille","lat":43.21193,"lon":5.35077,"is_reserved":false,"is_disabled":false,"rental_uris":{"android":"levelo://app?vid=9f1f6042-7e07-4b00-9dc1-8f0343d9174e","ios":"levelo://app?vid=9f1f6042-7e07-4b00-9dc1-8f0343d9174e"},"vehicle_type_id":"4","last_reported":1751676806,"current_range_meters":8800,"station_id":"st_cvj6sg6p6f1abm77japg","pricing_plan_id":"cebpf4jnsgd1na2vs0mg"},{"bike_id":"ba154a12-11bd-42a5-958a-5992f5d043d1","system_id":"levelo_inurba_marseille","lat":43.30507,"lon":5.37107,"is_reserved":false,"is_disabled":false,"rental_uris":{"android":"levelo://app?vid=ba154a12-11bd-42a5-958a-5992f5d043d1","ios":"levelo://app?vid=ba154a12-11bd-42a5-958a-5992f5d043d1"},"vehicle_type_id":"4","last_reported":1751676806,"current_range_meters":9200,"station_id":"","pricing_plan_id":"cebpf4jnsgd1na2vs0mg"},{"bike_id":"dbde0d81-068a-4fa4-a92a-5f5e4289de54","system_id":"levelo_inurba_marseille","lat":43.28424,"lon":5.34985,"is_reserved":false,"is_disabled":false,"rental_uris":{"android":"levelo://app?vid=dbde0d81-068a-4fa4-a92a-5f5e4289de54","ios":"levelo://app?vid=dbde0d81-068a-4fa4-a92a-5f5e4289de54"},"vehicle_type_id":"4","last_reported":1751676806,"current_range_meters":9200,"station_id":"","pricing_plan_id":"cebpf4jnsgd1na2vs0mg"},{"bike_id":"649e912a-4413-41d4-b382-e67c9000c2b7","system_id":"levelo_inurba_marseille","lat":43.2971,"lon":5.36609,"is_reserved":false,"is_disabled":false,"rental_uris":{"android":"levelo://app?vid=649e912a-4413-41d4-b382-e67c9000c2b7","ios":"levelo://app?vid=649e912a-4413-41d4-b382-e67c9000c2b7"},"vehicle_type_id":"4","last_reported":1751676806,"current_range_meters":9200,"station_id":"ce4bgn12rcd13ifvqbt0","pricing_plan_id":"cebpf4jnsgd1na2vs0mg"},{"bike_id":"a03ab906-4d9f-4c90-bf6f-b3ded0f3c85d","system_id":"levelo_inurba_marseille","lat":43.30784,"lon":5.38164,"is_reserved":false,"is_disabled":false,"rental_uris":{"android":"levelo://app?vid=a03ab906-4d9f-4c90-bf6f-b3ded0f3c85d","ios":"levelo://app?vid=a03ab906-4d9f-4c90-bf6f-b3ded0f3c85d"},"vehicle_type_id":"4","last_reported":1751676806,"current_range_meters":9200,"station_id":"ce4bgt12rcd13ifvqce0","pricing_plan_id":"cebpf4jnsgd1na2vs0mg"},{"bike_id":"0c4b7fdb-b39e-49b3-a2b0-ae3d0f43e89d","system_id":"levelo_inurba_marseille","lat":43.32898,"lon":5.40604,"is_reserved":false,"is_disabled":false,"rental_uris":{"android":"levelo://app?vid=0c4b7fdb-b39e-49b3-a2b0-ae3d0f43e89d","ios":"levelo://app?vid=0c4b7fdb-b39e-49b3-a2b0-ae3d0f43e89d"},"vehicle_type_id":"4","last_reported":1751676806,"current_range_meters":9600,"station_id":"","pricing_plan_id":"cebpf4jnsgd1na2vs0mg"},{"bike_id":"175513bb-dce2-48e2-83c8-1e9f1cb23cd0","system_id":"levelo_inurba_marseille","lat":43.286255,"lon":5.412651,"is_reserved":false,"is_disabled":false,"rental_uris":{"android":"levelo://app?vid=175513bb-dce2-48e2-83c8-1e9f1cb23cd0","ios":"levelo://app?vid=175513bb-dce2-48e2-83c8-1e9f1cb23cd0"},"vehicle_type_id":"4","last_reported":1751676806,"current_range_meters":9600,"station_id":"","pricing_plan_id":"cebpf4jnsgd1na2vs0mg"},{"bike_id":"cb5feb87-c19d-4140-8eb5-cf5ef9d24cc6","system_id":"levelo_inurba_marseille","lat":43.30648,"lon":5.40082,"is_reserved":false,"is_disabled":false,"rental_uris":{"android":"levelo://app?vid=cb5feb87-c19d-4140-8eb5-cf5ef9d24cc6","ios":"levelo://app?vid=cb5feb87-c19d-4140-8eb5-cf5ef9d24cc6"},"vehicle_type_id":"4","last_reported":1751676806,"current_range_meters":9600,"station_id":"ce4bh112rcd13ifvqda0","pricing_plan_id":"cebpf4jnsgd1na2vs0mg"},{"bike_id":"b9aa0b00-2092-42ee-bef4-651e875ed8b5","system_id":"levelo_inurba_marseille","lat":43.21158,"lon":5.35079,"is_reserved":false,"is_disabled":false,"rental_uris":{"android":"levelo://app?vid=b9aa0b00-2092-42ee-bef4-651e875ed8b5","ios":"levelo://app?vid=b9aa0b00-2092-42ee-bef4-651e875ed8b5"},"vehicle_type_id":"4","last_reported":1751676806,"current_range_meters":9600,"station_id":"st_cvj6sg6p6f1abm77japg","pricing_plan_id":"cebpf4jnsgd1na2vs0mg"},{"bike_id":"6917bed5-c21f-48c3-870d-5408dab99803","system_id":"levelo_inurba_marseille","lat":43.29661,"lon":5.36892,"is_reserved":false,"is_disabled":false,"rental_uris":{"android":"levelo://app?vid=6917bed5-c21f-48c3-870d-5408dab99803","ios":"levelo://app?vid=6917bed5-c21f-48c3-870d-5408dab99803"},"vehicle_type_id":"4","last_reported":1751676806,"current_range_meters":10000,"station_id":"","pricing_plan_id":"cebpf4jnsgd1na2vs0mg"},{"bike_id":"806dab9c-0b61-44af-9e1d-dee086eea46c","system_id":"levelo_inurba_marseille","lat":43.31363,"lon":5.38506,"is_reserved":false,"is_disabled":false,"rental_uris":{"android":"levelo://app?vid=806dab9c-0b61-44af-9e1d-dee086eea46c","ios":"levelo://app?vid=806dab9c-0b61-44af-9e1d-dee086eea46c"},"vehicle_type_id":"4","last_reported":1751676806,"current_range_meters":10000,"station_id":"ce4bgt92rcd13ifvqcf0","pricing_plan_id":"cebpf4jnsgd1na2vs0mg"},{"bike_id":"8d9b73e1-848f-44c4-bcf1-e92b11b87fc0","system_id":"levelo_inurba_marseille","lat":43.28708,"lon":5.37396,"is_reserved":false,"is_disabled":false,"rental_uris":{"android":"levelo://app?vid=8d9b73e1-848f-44c4-bcf1-e92b11b87fc0","ios":"levelo://app?vid=8d9b73e1-848f-44c4-bcf1-e92b11b87fc0"},"vehicle_type_id":"4","last_reported":1751676806,"current_range_meters":10000,"station_id":"ce4bh3p2rcd13ifvqdq0","pricing_plan_id":"cebpf4jnsgd1na2vs0mg"},{"bike_id":"b7e43d1e-80de-4297-9804-036207cb5241","system_id":"levelo_inurba_marseille","lat":43.23184,"lon":5.39989,"is_reserved":false,"is_disabled":false,"rental_uris":{"android":"levelo://app?vid=b7e43d1e-80de-4297-9804-036207cb5241","ios":"levelo://app?vid=b7e43d1e-80de-4297-9804-036207cb5241"},"vehicle_type_id":"4","last_reported":1751676806,"current_range_meters":10000,"station_id":"ce4bhn12rcd13ifvqgqg","pricing_plan_id":"cebpf4jnsgd1na2vs0mg"},{"bike_id":"97de0065-3604-43c2-8c35-f3c481cf0347","system_id":"levelo_inurba_marseille","lat":43.323664,"lon":5.388876,"is_reserved":false,"is_disabled":false,"rental_uris":{"android":"levelo://app?vid=97de0065-3604-43c2-8c35-f3c481cf0347","ios":"levelo://app?vid=97de0065-3604-43c2-8c35-f3c481cf0347"},"vehicle_type_id":"4","last_reported":1751676806,"current_range_meters":10000,"station_id":"ce4bhqp2rcd13ifvqhog","pricing_plan_id":"cebpf4jnsgd1na2vs0mg"},{"bike_id":"5e197122-e8ec-4f01-b370-6bbfc10c6950","system_id":"levelo_inurba_marseille","lat":43.21196,"lon":5.3508,"is_reserved":false,"is_disabled":false,"rental_uris":{"android":"levelo://app?vid=5e197122-e8ec-4f01-b370-6bbfc10c6950","ios":"levelo://app?vid=5e197122-e8ec-4f01-b370-6bbfc10c6950"},"vehicle_type_id":"4","last_reported":1751676806,"current_range_meters":10000,"station_id":"st_cvj6sg6p6f1abm77japg","pricing_plan_id":"cebpf4jnsgd1na2vs0mg"},{"bike_id":"7c60bedf-2ecd-475b-a018-4048df765cb2","system_id":"levelo_inurba_marseille","lat":43.31267,"lon":5.37749,"is_reserved":false,"is_disabled":false,"rental_uris":{"android":"levelo://app?vid=7c60bedf-2ecd-475b-a018-4048df765cb2","ios":"levelo://app?vid=7c60bedf-2ecd-475b-a018-4048df765cb2"},"vehicle_type_id":"4","last_reported":1751676806,"current_range_meters":10800,"station_id":"","pricing_plan_id":"cebpf4jnsgd1na2vs0mg"},{"bike_id":"3ee677fb-7ac8-47b2-b004-ded21b3507d4","system_id":"levelo_inurba_marseille","lat":43.29706,"lon":5.36613,"is_reserved":false,"is_disabled":false,"rental_uris":{"android":"levelo://app?vid=3ee677fb-7ac8-47b2-b004-ded21b3507d4","ios":"levelo://app?vid=3ee677fb-7ac8-47b2-b004-ded21b3507d4"},"vehicle_type_id":"4","last_reported":1751676806,"current_range_meters":10800,"station_id":"ce4bgn12rcd13ifvqbt0","pricing_plan_id":"cebpf4jnsgd1na2vs0mg"},{"bike_id":"3d43e8c7-605b-4387-8ac5-129d1da05408","system_id":"levelo_inurba_marseille","lat":43.30265,"lon":5.36894,"is_reserved":false,"is_disabled":false,"rental_uris":{"android":"levelo://app?vid=3d43e8c7-605b-4387-8ac5-129d1da05408","ios":"levelo://app?vid=3d43e8c7-605b-4387-8ac5-129d1da05408"},"vehicle_type_id":"4","last_reported":1751676806,"current_range_meters":10800,"station_id":"ce4bgqh2rcd13ifvqc5g","pricing_plan_id":"cebpf4jnsgd1na2vs0mg"},{"bike_id":"37041179-6712-4893-832c-80719560134f","system_id":"levelo_inurba_marseille","lat":43.31487,"lon":5.37309,"is_reserved":false,"is_disabled":false,"rental_uris":{"android":"levelo://app?vid=37041179-6712-4893-832c-80719560134f","ios":"levelo://app?vid=37041179-6712-4893-832c-80719560134f"},"vehicle_type_id":"4","last_reported":1751676806,"current_range_meters":10800,"station_id":"ce4bgt12rcd13ifvqcd0","pricing_plan_id":"cebpf4jnsgd1na2vs0mg"},{"bike_id":"458f960c-9c0c-42a0-977b-a8232f235b81","system_id":"levelo_inurba_marseille","lat":43.2903,"lon":5.3988,"is_reserved":false,"is_disabled":false,"rental_uris":{"android":"levelo://app?vid=458f960c-9c0c-42a0-977b-a8232f235b81","ios":"levelo://app?vid=458f960c-9c0c-42a0-977b-a8232f235b81"},"vehicle_type_id":"4","last_reported":1751676806,"current_range_meters":10800,"station_id":"ce4bh392rcd13ifvqdm0","pricing_plan_id":"cebpf4jnsgd1na2vs0mg"},{"bike_id":"a7055120-8269-43dd-9f5c-b6ab7a57ba20","system_id":"levelo_inurba_marseille","lat":43.34146,"lon":5.40905,"is_reserved":false,"is_disabled":false,"rental_uris":{"android":"levelo://app?vid=a7055120-8269-43dd-9f5c-b6ab7a57ba20","ios":"levelo://app?vid=a7055120-8269-43dd-9f5c-b6ab7a57ba20"},"vehicle_type_id":"4","last_reported":1751676806,"current_range_meters":10800,"station_id":"ce4bhqh2rcd13ifvqhlg","pricing_plan_id":"cebpf4jnsgd1na2vs0mg"},{"bike_id":"c4998155-7b32-4f28-8c37-f014ebe83040","system_id":"levelo_inurba_marseille","lat":43.30299,"lon":5.40436,"is_reserved":false,"is_disabled":false,"rental_uris":{"android":"levelo://app?vid=c4998155-7b32-4f28-8c37-f014ebe83040","ios":"levelo://app?vid=c4998155-7b32-4f28-8c37-f014ebe83040"},"vehicle_type_id":"4","last_reported":1751676806,"current_range_meters":11200,"station_id":"ce4bh012rcd13ifvqd10","pricing_plan_id":"cebpf4jnsgd1na2vs0mg"},{"bike_id":"1c8ab180-05fd-405f-9922-b2b2c2d5142f","system_id":"levelo_inurba_marseille","lat":43.337903,"lon":5.381234,"is_reserved":false,"is_disabled":false,"rental_uris":{"android":"levelo://app?vid=1c8ab180-05fd-405f-9922-b2b2c2d5142f","ios":"levelo://app?vid=1c8ab180-05fd-405f-9922-b2b2c2d5142f"},"vehicle_type_id":"4","last_reported":1751676806,"current_range_meters":11600,"station_id":"","pricing_plan_id":"cebpf4jnsgd1na2vs0mg"},{"bike_id":"c37ba7fa-fbd8-4395-8ffe-f8ec4e8254b3","system_id":"levelo_inurba_marseille","lat":43.314903,"lon":5.373097,"is_reserved":false,"is_disabled":false,"rental_uris":{"android":"levelo://app?vid=c37ba7fa-fbd8-4395-8ffe-f8ec4e8254b3","ios":"levelo://app?vid=c37ba7fa-fbd8-4395-8ffe-f8ec4e8254b3"},"vehicle_type_id":"4","last_reported":1751676806,"current_range_meters":11600,"station_id":"ce4bgt12rcd13ifvqcd0","pricing_plan_id":"cebpf4jnsgd1na2vs0mg"},{"bike_id":"fadf6b38-6317-413a-8801-268c0084efa6","system_id":"levelo_inurba_marseille","lat":43.31071,"lon":5.38354,"is_reserved":false,"is_disabled":false,"rental_uris":{"android":"levelo://app?vid=fadf6b38-6317-413a-8801-268c0084efa6","ios":"levelo://app?vid=fadf6b38-6317-413a-8801-268c0084efa6"},"vehicle_type_id":"4","last_reported":1751676806,"current_range_meters":11600,"station_id":"ce4bgv92rcd13ifvqcr0","pricing_plan_id":"cebpf4jnsgd1na2vs0mg"},{"bike_id":"670ed5a7-b093-47a7-9f6c-93ab16d94169","system_id":"levelo_inurba_marseille","lat":43.25715,"lon":5.41115,"is_reserved":false,"is_disabled":false,"rental_uris":{"android":"levelo://app?vid=670ed5a7-b093-47a7-9f6c-93ab16d94169","ios":"levelo://app?vid=670ed5a7-b093-47a7-9f6c-93ab16d94169"},"vehicle_type_id":"4","last_reported":1751676806,"current_range_meters":11600,"station_id":"ce4bhkp2rcd13ifvqgd0","pricing_plan_id":"cebpf4jnsgd1na2vs0mg"},{"bike_id":"ae6120ab-0b88-4a10-9784-56b213844b27","system_id":"levelo_inurba_marseille","lat":43.29897,"lon":5.43672,"is_reserved":false,"is_disabled":false,"rental_uris":{"android":"levelo://app?vid=ae6120ab-0b88-4a10-9784-56b213844b27","ios":"levelo://app?vid=ae6120ab-0b88-4a10-9784-56b213844b27"},"vehicle_type_id":"4","last_reported":1751676806,"current_range_meters":11600,"station_id":"ce4bhpp2rcd13ifvqhfg","pricing_plan_id":"cebpf4jnsgd1na2vs0mg"},{"bike_id":"bf16840f-2e0f-47eb-8d30-3dc4199df254","system_id":"levelo_inurba_marseille","lat":43.31854,"lon":5.39031,"is_reserved":false,"is_disabled":false,"rental_uris":{"android":"levelo://app?vid=bf16840f-2e0f-47eb-8d30-3dc4199df254","ios":"levelo://app?vid=bf16840f-2e0f-47eb-8d30-3dc4199df254"},"vehicle_type_id":"4","last_reported":1751676806,"current_range_meters":12000,"station_id":"","pricing_plan_id":"cebpf4jnsgd1na2vs0mg"},{"bike_id":"ff82133a-9e48-484b-8221-c87d15103bb4","system_id":"levelo_inurba_marseille","lat":43.29907,"lon":5.3976,"is_reserved":false,"is_disabled":false,"rental_uris":{"android":"levelo://app?vid=ff82133a-9e48-484b-8221-c87d15103bb4","ios":"levelo://app?vid=ff82133a-9e48-484b-8221-c87d15103bb4"},"vehicle_type_id":"4","last_reported":1751676806,"current_range_meters":12000,"station_id":"","pricing_plan_id":"cebpf4jnsgd1na2vs0mg"},{"bike_id":"b26fae72-751e-4090-a9c4-76ff5de1ad66","system_id":"levelo_inurba_marseille","lat":43.3326,"lon":5.38044,"is_reserved":false,"is_disabled":false,"rental_uris":{"android":"levelo://app?vid=b26fae72-751e-4090-a9c4-76ff5de1ad66","ios":"levelo://app?vid=b26fae72-751e-4090-a9c4-76ff5de1ad66"},"vehicle_type_id":"4","last_reported":1751676806,"current_range_meters":12000,"station_id":"","pricing_plan_id":"cebpf4jnsgd1na2vs0mg"},{"bike_id":"9c6e1776-24a5-406f-883b-abfe7f7f5017","system_id":"levelo_inurba_marseille","lat":43.31327,"lon":5.39688,"is_reserved":false,"is_disabled":false,"rental_uris":{"android":"levelo://app?vid=9c6e1776-24a5-406f-883b-abfe7f7f5017","ios":"levelo://app?vid=9c6e1776-24a5-406f-883b-abfe7f7f5017"},"vehicle_type_id":"4","last_reported":1751676806,"current_range_meters":12000,"station_id":"ce4bgvp2rcd13ifvqcu0","pricing_plan_id":"cebpf4jnsgd1na2vs0mg"},{"bike_id":"0b0b5cfa-dfc1-4477-ac92-7fc36b0493cd","system_id":"levelo_inurba_marseille","lat":43.300615,"lon":5.396484,"is_reserved":false,"is_disabled":false,"rental_uris":{"android":"levelo://app?vid=0b0b5cfa-dfc1-4477-ac92-7fc36b0493cd","ios":"levelo://app?vid=0b0b5cfa-dfc1-4477-ac92-7fc36b0493cd"},"vehicle_type_id":"4","last_reported":1751676806,"current_range_meters":12000,"station_id":"ce4bh0h2rcd13ifvqd50","pricing_plan_id":"cebpf4jnsgd1na2vs0mg"},{"bike_id":"6f854acc-df2a-4d06-8f39-46010fd4354e","system_id":"levelo_inurba_marseille","lat":43.27908,"lon":5.38004,"is_reserved":false,"is_disabled":false,"rental_uris":{"android":"levelo://app?vid=6f854acc-df2a-4d06-8f39-46010fd4354e","ios":"levelo://app?vid=6f854acc-df2a-4d06-8f39-46010fd4354e"},"vehicle_type_id":"4","last_reported":1751676806,"current_range_meters":12000,"station_id":"ce4bhf92rcd13ifvqf50","pricing_plan_id":"cebpf4jnsgd1na2vs0mg"},{"bike_id":"90d16853-0565-4d31-aabd-8f68dbaeb5bb","system_id":"levelo_inurba_marseille","lat":43.30402,"lon":5.41293,"is_reserved":false,"is_disabled":false,"rental_uris":{"android":"levelo://app?vid=90d16853-0565-4d31-aabd-8f68dbaeb5bb","ios":"levelo://app?vid=90d16853-0565-4d31-aabd-8f68dbaeb5bb"},"vehicle_type_id":"4","last_reported":1751676806,"current_range_meters":12000,"station_id":"ce4bhop2rcd13ifvqh8g","pricing_plan_id":"cebpf4jnsgd1na2vs0mg"},{"bike_id":"76d127a6-3385-47a2-9e3a-490d1d976c59","system_id":"levelo_inurba_marseille","lat":43.3116,"lon":5.38251,"is_reserved":false,"is_disabled":false,"rental_uris":{"android":"levelo://app?vid=76d127a6-3385-47a2-9e3a-490d1d976c59","ios":"levelo://app?vid=76d127a6-3385-47a2-9e3a-490d1d976c59"},"vehicle_type_id":"4","last_reported":1751676806,"current_range_meters":12400,"station_id":"","pricing_plan_id":"cebpf4jnsgd1na2vs0mg"},{"bike_id":"f78e4216-3e64-4bca-b699-17a288e2d90f","system_id":"levelo_inurba_marseille","lat":43.29258,"lon":5.40202,"is_reserved":false,"is_disabled":false,"rental_uris":{"android":"levelo://app?vid=f78e4216-3e64-4bca-b699-17a288e2d90f","ios":"levelo://app?vid=f78e4216-3e64-4bca-b699-17a288e2d90f"},"vehicle_type_id":"4","last_reported":1751676806,"current_range_meters":12400,"station_id":"","pricing_plan_id":"cebpf4jnsgd1na2vs0mg"},{"bike_id":"4c5a3de5-5d51-4be2-867a-1ec801bcc945","system_id":"levelo_inurba_marseille","lat":43.31364,"lon":5.38505,"is_reserved":false,"is_disabled":false,"rental_uris":{"android":"levelo://app?vid=4c5a3de5-5d51-4be2-867a-1ec801bcc945","ios":"levelo://app?vid=4c5a3de5-5d51-4be2-867a-1ec801bcc945"},"vehicle_type_id":"4","last_reported":1751676806,"current_range_meters":12400,"station_id":"ce4bgt92rcd13ifvqcf0","pricing_plan_id":"cebpf4jnsgd1na2vs0mg"},{"bike_id":"ca1f4c38-5968-4646-bea2-2b669e61aef4","system_id":"levelo_inurba_marseille","lat":43.26605,"lon":5.39028,"is_reserved":false,"is_disabled":false,"rental_uris":{"android":"levelo://app?vid=ca1f4c38-5968-4646-bea2-2b669e61aef4","ios":"levelo://app?vid=ca1f4c38-5968-4646-bea2-2b669e61aef4"},"vehicle_type_id":"4","last_reported":1751676806,"current_range_meters":12400,"station_id":"ce4bhe12rcd13ifvqf30","pricing_plan_id":"cebpf4jnsgd1na2vs0mg"},{"bike_id":"c4783f0c-3b26-4f98-a2ba-c785fce3256c","system_id":"levelo_inurba_marseille","lat":43.26541,"lon":5.39028,"is_reserved":false,"is_disabled":false,"rental_uris":{"android":"levelo://app?vid=c4783f0c-3b26-4f98-a2ba-c785fce3256c","ios":"levelo://app?vid=c4783f0c-3b26-4f98-a2ba-c785fce3256c"},"vehicle_type_id":"4","last_reported":1751676806,"current_range_meters":12400,"station_id":"ce4bhe12rcd13ifvqf30","pricing_plan_id":"cebpf4jnsgd1na2vs0mg"},{"bike_id":"6cd3d47e-a0d1-4ea2-acca-488f8d1b58ba","system_id":"levelo_inurba_marseille","lat":43.30576,"lon":5.37243,"is_reserved":false,"is_disabled":false,"rental_uris":{"android":"levelo://app?vid=6cd3d47e-a0d1-4ea2-acca-488f8d1b58ba","ios":"levelo://app?vid=6cd3d47e-a0d1-4ea2-acca-488f8d1b58ba"},"vehicle_type_id":"4","last_reported":1751676806,"current_range_meters":12800,"station_id":"ce4bgqh2rcd13ifvqc4g","pricing_plan_id":"cebpf4jnsgd1na2vs0mg"},{"bike_id":"695ba698-1054-47b2-9229-8be114776363","system_id":"levelo_inurba_marseille","lat":43.25716,"lon":5.41131,"is_reserved":false,"is_disabled":false,"rental_uris":{"android":"levelo://app?vid=695ba698-1054-47b2-9229-8be114776363","ios":"levelo://app?vid=695ba698-1054-47b2-9229-8be114776363"},"vehicle_type_id":"4","last_reported":1751676806,"current_range_meters":12800,"station_id":"ce4bhkp2rcd13ifvqgd0","pricing_plan_id":"cebpf4jnsgd1na2vs0mg"},{"bike_id":"4b8da722-ee9e-48a4-a5e5-3a8a10364708","system_id":"levelo_inurba_marseille","lat":43.312266,"lon":5.378128,"is_reserved":false,"is_disabled":false,"rental_uris":{"android":"levelo://app?vid=4b8da722-ee9e-48a4-a5e5-3a8a10364708","ios":"levelo://app?vid=4b8da722-ee9e-48a4-a5e5-3a8a10364708"},"vehicle_type_id":"4","last_reported":1751676806,"current_range_meters":13600,"station_id":"","pricing_plan_id":"cebpf4jnsgd1na2vs0mg"},{"bike_id":"69c2280d-9883-47db-99f2-c073a6babae6","system_id":"levelo_inurba_marseille","lat":43.30858,"lon":5.37037,"is_reserved":false,"is_disabled":false,"rental_uris":{"android":"levelo://app?vid=69c2280d-9883-47db-99f2-c073a6babae6","ios":"levelo://app?vid=69c2280d-9883-47db-99f2-c073a6babae6"},"vehicle_type_id":"4","last_reported":1751676806,"current_range_meters":13600,"station_id":"","pricing_plan_id":"cebpf4jnsgd1na2vs0mg"},{"bike_id":"4b76f0c3-1a8d-4073-8c75-d3fd098e059e","system_id":"levelo_inurba_marseille","lat":43.28696,"lon":5.37404,"is_reserved":false,"is_disabled":false,"rental_uris":{"android":"levelo://app?vid=4b76f0c3-1a8d-4073-8c75-d3fd098e059e","ios":"levelo://app?vid=4b76f0c3-1a8d-4073-8c75-d3fd098e059e"},"vehicle_type_id":"4","last_reported":1751676806,"current_range_meters":13600,"station_id":"ce4bh3p2rcd13ifvqdq0","pricing_plan_id":"cebpf4jnsgd1na2vs0mg"},{"bike_id":"2e44a9d3-f2b7-4b8b-a6b9-51fa6b9c68e4","system_id":"levelo_inurba_marseille","lat":43.30887,"lon":5.3966,"is_reserved":false,"is_disabled":false,"rental_uris":{"android":"levelo://app?vid=2e44a9d3-f2b7-4b8b-a6b9-51fa6b9c68e4","ios":"levelo://app?vid=2e44a9d3-f2b7-4b8b-a6b9-51fa6b9c68e4"},"vehicle_type_id":"4","last_reported":1751676806,"current_range_meters":14000,"station_id":"ce4bh012rcd13ifvqcv0","pricing_plan_id":"cebpf4jnsgd1na2vs0mg"},{"bike_id":"c5848d1c-c343-4990-b5cf-cdcecf5de8f1","system_id":"levelo_inurba_marseille","lat":43.28416,"lon":5.37521,"is_reserved":false,"is_disabled":false,"rental_uris":{"android":"levelo://app?vid=c5848d1c-c343-4990-b5cf-cdcecf5de8f1","ios":"levelo://app?vid=c5848d1c-c343-4990-b5cf-cdcecf5de8f1"},"vehicle_type_id":"4","last_reported":1751676806,"current_range_meters":14000,"station_id":"ce4bh412rcd13ifvqds0","pricing_plan_id":"cebpf4jnsgd1na2vs0mg"},{"bike_id":"8f06ddb9-437a-45af-bf8c-7800f496f5d8","system_id":"levelo_inurba_marseille","lat":43.28344,"lon":5.38625,"is_reserved":false,"is_disabled":false,"rental_uris":{"android":"levelo://app?vid=8f06ddb9-437a-45af-bf8c-7800f496f5d8","ios":"levelo://app?vid=8f06ddb9-437a-45af-bf8c-7800f496f5d8"},"vehicle_type_id":"4","last_reported":1751676806,"current_range_meters":14000,"station_id":"ce4bh492rcd13ifvqdvg","pricing_plan_id":"cebpf4jnsgd1na2vs0mg"},{"bike_id":"fc15d0e2-3ad9-4fb7-8bd5-ba03d333db05","system_id":"levelo_inurba_marseille","lat":43.24691,"lon":5.38155,"is_reserved":false,"is_disabled":false,"rental_uris":{"android":"levelo://app?vid=fc15d0e2-3ad9-4fb7-8bd5-ba03d333db05","ios":"levelo://app?vid=fc15d0e2-3ad9-4fb7-8bd5-ba03d333db05"},"vehicle_type_id":"4","last_reported":1751676806,"current_range_meters":14000,"station_id":"ce4bhih2rcd13ifvqfr0","pricing_plan_id":"cebpf4jnsgd1na2vs0mg"},{"bike_id":"4db45513-e520-4598-82fa-5809d80d4f3d","system_id":"levelo_inurba_marseille","lat":43.28097,"lon":5.3549,"is_reserved":false,"is_disabled":false,"rental_uris":{"android":"levelo://app?vid=4db45513-e520-4598-82fa-5809d80d4f3d","ios":"levelo://app?vid=4db45513-e520-4598-82fa-5809d80d4f3d"},"vehicle_type_id":"4","last_reported":1751676806,"current_range_meters":14400,"station_id":"","pricing_plan_id":"cebpf4jnsgd1na2vs0mg"},{"bike_id":"8c7b5457-b790-4ceb-8535-d321af702702","system_id":"levelo_inurba_marseille","lat":43.31373,"lon":5.40157,"is_reserved":false,"is_disabled":false,"rental_uris":{"android":"levelo://app?vid=8c7b5457-b790-4ceb-8535-d321af702702","ios":"levelo://app?vid=8c7b5457-b790-4ceb-8535-d321af702702"},"vehicle_type_id":"4","last_reported":1751676806,"current_range_meters":14400,"station_id":"","pricing_plan_id":"cebpf4jnsgd1na2vs0mg"},{"bike_id":"04edf994-7a6f-42bd-bdb9-6db229bd33ae","system_id":"levelo_inurba_marseille","lat":43.2955,"lon":5.42278,"is_reserved":false,"is_disabled":false,"rental_uris":{"android":"levelo://app?vid=04edf994-7a6f-42bd-bdb9-6db229bd33ae","ios":"levelo://app?vid=04edf994-7a6f-42bd-bdb9-6db229bd33ae"},"vehicle_type_id":"4","last_reported":1751676806,"current_range_meters":14400,"station_id":"ce4bhph2rcd13ifvqhdg","pricing_plan_id":"cebpf4jnsgd1na2vs0mg"},{"bike_id":"4bfb979f-5f1f-4d4f-9bc2-62863e748cdf","system_id":"levelo_inurba_marseille","lat":43.32378,"lon":5.36745,"is_reserved":false,"is_disabled":false,"rental_uris":{"android":"levelo://app?vid=4bfb979f-5f1f-4d4f-9bc2-62863e748cdf","ios":"levelo://app?vid=4bfb979f-5f1f-4d4f-9bc2-62863e748cdf"},"vehicle_type_id":"4","last_reported":1751676806,"current_range_meters":14800,"station_id":"","pricing_plan_id":"cebpf4jnsgd1na2vs0mg"},{"bike_id":"6e915582-e478-4d16-b7ea-3a6d7a62c777","system_id":"levelo_inurba_marseille","lat":43.31273,"lon":5.40173,"is_reserved":false,"is_disabled":false,"rental_uris":{"android":"levelo://app?vid=6e915582-e478-4d16-b7ea-3a6d7a62c777","ios":"levelo://app?vid=6e915582-e478-4d16-b7ea-3a6d7a62c777"},"vehicle_type_id":"4","last_reported":1751676806,"current_range_meters":14800,"station_id":"ce4bh092rcd13ifvqd30","pricing_plan_id":"cebpf4jnsgd1na2vs0mg"},{"bike_id":"b623ecaf-8e76-48cd-8785-793707fca3e4","system_id":"levelo_inurba_marseille","lat":43.28102,"lon":5.3783,"is_reserved":false,"is_disabled":false,"rental_uris":{"android":"levelo://app?vid=b623ecaf-8e76-48cd-8785-793707fca3e4","ios":"levelo://app?vid=b623ecaf-8e76-48cd-8785-793707fca3e4"},"vehicle_type_id":"4","last_reported":1751676806,"current_range_meters":14800,"station_id":"ce4bha12rcd13ifvqee0","pricing_plan_id":"cebpf4jnsgd1na2vs0mg"},{"bike_id":"f1753d26-8935-4f4b-9e83-1a8f6f412606","system_id":"levelo_inurba_marseille","lat":43.24645,"lon":5.38168,"is_reserved":false,"is_disabled":false,"rental_uris":{"android":"levelo://app?vid=f1753d26-8935-4f4b-9e83-1a8f6f412606","ios":"levelo://app?vid=f1753d26-8935-4f4b-9e83-1a8f6f412606"},"vehicle_type_id":"4","last_reported":1751676806,"current_range_meters":14800,"station_id":"ce4bhih2rcd13ifvqfr0","pricing_plan_id":"cebpf4jnsgd1na2vs0mg"},{"bike_id":"3847022a-5187-4521-af78-80f88fe96595","system_id":"levelo_inurba_marseille","lat":43.211859,"lon":5.35069,"is_reserved":false,"is_disabled":false,"rental_uris":{"android":"levelo://app?vid=3847022a-5187-4521-af78-80f88fe96595","ios":"levelo://app?vid=3847022a-5187-4521-af78-80f88fe96595"},"vehicle_type_id":"4","last_reported":1751676806,"current_range_meters":14800,"station_id":"st_cvj6sg6p6f1abm77japg","pricing_plan_id":"cebpf4jnsgd1na2vs0mg"},{"bike_id":"b8371eb8-ede8-4ef5-8417-74551586da0a","system_id":"levelo_inurba_marseille","lat":43.307941,"lon":5.381624,"is_reserved":false,"is_disabled":false,"rental_uris":{"android":"levelo://app?vid=b8371eb8-ede8-4ef5-8417-74551586da0a","ios":"levelo://app?vid=b8371eb8-ede8-4ef5-8417-74551586da0a"},"vehicle_type_id":"4","last_reported":1751676806,"current_range_meters":15200,"station_id":"ce4bgg92rcd13ifvqb30","pricing_plan_id":"cebpf4jnsgd1na2vs0mg"},{"bike_id":"6f2c1b92-1b83-48a0-bb47-23af823b68aa","system_id":"levelo_inurba_marseille","lat":43.29523,"lon":5.39043,"is_reserved":false,"is_disabled":false,"rental_uris":{"android":"levelo://app?vid=6f2c1b92-1b83-48a0-bb47-23af823b68aa","ios":"levelo://app?vid=6f2c1b92-1b83-48a0-bb47-23af823b68aa"},"vehicle_type_id":"4","last_reported":1751676806,"current_range_meters":15200,"station_id":"ce4bh3p2rcd13ifvqdp0","pricing_plan_id":"cebpf4jnsgd1na2vs0mg"},{"bike_id":"f37760c6-ab8b-450e-9ddc-f3de596404e2","system_id":"levelo_inurba_marseille","lat":43.30313,"lon":5.37899,"is_reserved":false,"is_disabled":false,"rental_uris":{"android":"levelo://app?vid=f37760c6-ab8b-450e-9ddc-f3de596404e2","ios":"levelo://app?vid=f37760c6-ab8b-450e-9ddc-f3de596404e2"},"vehicle_type_id":"4","last_reported":1751676806,"current_range_meters":16000,"station_id":"","pricing_plan_id":"cebpf4jnsgd1na2vs0mg"},{"bike_id":"aafb8ce6-e3e9-4062-8cc4-aece91a6105d","system_id":"levelo_inurba_marseille","lat":43.31511,"lon":5.37281,"is_reserved":false,"is_disabled":false,"rental_uris":{"android":"levelo://app?vid=aafb8ce6-e3e9-4062-8cc4-aece91a6105d","ios":"levelo://app?vid=aafb8ce6-e3e9-4062-8cc4-aece91a6105d"},"vehicle_type_id":"4","last_reported":1751676806,"current_range_meters":16000,"station_id":"ce4bgt12rcd13ifvqcd0","pricing_plan_id":"cebpf4jnsgd1na2vs0mg"},{"bike_id":"ba02322b-42c6-4f39-aab9-cb5c29c99255","system_id":"levelo_inurba_marseille","lat":43.301259,"lon":5.398776,"is_reserved":false,"is_disabled":false,"rental_uris":{"android":"levelo://app?vid=ba02322b-42c6-4f39-aab9-cb5c29c99255","ios":"levelo://app?vid=ba02322b-42c6-4f39-aab9-cb5c29c99255"},"vehicle_type_id":"4","last_reported":1751676806,"current_range_meters":16000,"station_id":"ce4bh0h2rcd13ifvqd40","pricing_plan_id":"cebpf4jnsgd1na2vs0mg"},{"bike_id":"2d24d585-5fe8-4a6b-bec8-41e078819ef4","system_id":"levelo_inurba_marseille","lat":43.29631,"lon":5.40609,"is_reserved":false,"is_disabled":false,"rental_uris":{"android":"levelo://app?vid=2d24d585-5fe8-4a6b-bec8-41e078819ef4","ios":"levelo://app?vid=2d24d585-5fe8-4a6b-bec8-41e078819ef4"},"vehicle_type_id":"4","last_reported":1751676806,"current_range_meters":16000,"station_id":"ce4bh0h2rcd13ifvqd60","pricing_plan_id":"cebpf4jnsgd1na2vs0mg"},{"bike_id":"2b5bd97c-55d1-4ac4-935a-2e08f1f39caa","system_id":"levelo_inurba_marseille","lat":43.28406,"lon":5.3752,"is_reserved":false,"is_disabled":false,"rental_uris":{"android":"levelo://app?vid=2b5bd97c-55d1-4ac4-935a-2e08f1f39caa","ios":"levelo://app?vid=2b5bd97c-55d1-4ac4-935a-2e08f1f39caa"},"vehicle_type_id":"4","last_reported":1751676806,"current_range_meters":16000,"station_id":"ce4bh412rcd13ifvqds0","pricing_plan_id":"cebpf4jnsgd1na2vs0mg"},{"bike_id":"26dc8365-9e5b-44ad-b380-654f888d2ccd","system_id":"levelo_inurba_marseille","lat":43.28411,"lon":5.37525,"is_reserved":false,"is_disabled":false,"rental_uris":{"android":"levelo://app?vid=26dc8365-9e5b-44ad-b380-654f888d2ccd","ios":"levelo://app?vid=26dc8365-9e5b-44ad-b380-654f888d2ccd"},"vehicle_type_id":"4","last_reported":1751676806,"current_range_meters":16000,"station_id":"ce4bh412rcd13ifvqds0","pricing_plan_id":"cebpf4jnsgd1na2vs0mg"},{"bike_id":"84303959-8cba-4981-9cd0-d7bbd107feff","system_id":"levelo_inurba_marseille","lat":43.30418,"lon":5.41281,"is_reserved":false,"is_disabled":false,"rental_uris":{"android":"levelo://app?vid=84303959-8cba-4981-9cd0-d7bbd107feff","ios":"levelo://app?vid=84303959-8cba-4981-9cd0-d7bbd107feff"},"vehicle_type_id":"4","last_reported":1751676806,"current_range_meters":16000,"station_id":"ce4bhop2rcd13ifvqh8g","pricing_plan_id":"cebpf4jnsgd1na2vs0mg"},{"bike_id":"29b19e99-4845-4ee3-b1ee-35721cd36dc7","system_id":"levelo_inurba_marseille","lat":43.23236,"lon":5.3555,"is_reserved":false,"is_disabled":false,"rental_uris":{"android":"levelo://app?vid=29b19e99-4845-4ee3-b1ee-35721cd36dc7","ios":"levelo://app?vid=29b19e99-4845-4ee3-b1ee-35721cd36dc7"},"vehicle_type_id":"4","last_reported":1751676806,"current_range_meters":16000,"station_id":"ce4bhu92rcd13ifvqi70","pricing_plan_id":"cebpf4jnsgd1na2vs0mg"},{"bike_id":"5f470112-8139-4343-b082-08a74e0b7074","system_id":"levelo_inurba_marseille","lat":43.21213,"lon":5.35076,"is_reserved":false,"is_disabled":false,"rental_uris":{"android":"levelo://app?vid=5f470112-8139-4343-b082-08a74e0b7074","ios":"levelo://app?vid=5f470112-8139-4343-b082-08a74e0b7074"},"vehicle_type_id":"4","last_reported":1751676806,"current_range_meters":16000,"station_id":"st_cvj6sg6p6f1abm77japg","pricing_plan_id":"cebpf4jnsgd1na2vs0mg"},{"bike_id":"b1d40197-e49c-4962-8cd8-0babe05d31a6","system_id":"levelo_inurba_marseille","lat":43.21245,"lon":5.35286,"is_reserved":false,"is_disabled":false,"rental_uris":{"android":"levelo://app?vid=b1d40197-e49c-4962-8cd8-0babe05d31a6","ios":"levelo://app?vid=b1d40197-e49c-4962-8cd8-0babe05d31a6"},"vehicle_type_id":"4","last_reported":1751676806,"current_range_meters":16400,"station_id":"","pricing_plan_id":"cebpf4jnsgd1na2vs0mg"},{"bike_id":"daeee1e5-3b93-44da-8e47-7b24df6d544e","system_id":"levelo_inurba_marseille","lat":43.30007,"lon":5.3736,"is_reserved":false,"is_disabled":false,"rental_uris":{"android":"levelo://app?vid=daeee1e5-3b93-44da-8e47-7b24df6d544e","ios":"levelo://app?vid=daeee1e5-3b93-44da-8e47-7b24df6d544e"},"vehicle_type_id":"4","last_reported":1751676806,"current_range_meters":16400,"station_id":"","pricing_plan_id":"cebpf4jnsgd1na2vs0mg"},{"bike_id":"27b3b26f-62cb-45ea-a54c-6078366a412e","system_id":"levelo_inurba_marseille","lat":43.314863,"lon":5.373108,"is_reserved":false,"is_disabled":false,"rental_uris":{"android":"levelo://app?vid=27b3b26f-62cb-45ea-a54c-6078366a412e","ios":"levelo://app?vid=27b3b26f-62cb-45ea-a54c-6078366a412e"},"vehicle_type_id":"4","last_reported":1751676806,"current_range_meters":16400,"station_id":"ce4bgt12rcd13ifvqcd0","pricing_plan_id":"cebpf4jnsgd1na2vs0mg"},{"bike_id":"b57c8ba4-04b3-4c7f-898a-ca9abf82e652","system_id":"levelo_inurba_marseille","lat":43.28442,"lon":5.37516,"is_reserved":false,"is_disabled":false,"rental_uris":{"android":"levelo://app?vid=b57c8ba4-04b3-4c7f-898a-ca9abf82e652","ios":"levelo://app?vid=b57c8ba4-04b3-4c7f-898a-ca9abf82e652"},"vehicle_type_id":"4","last_reported":1751676806,"current_range_meters":16400,"station_id":"ce4bh412rcd13ifvqds0","pricing_plan_id":"cebpf4jnsgd1na2vs0mg"},{"bike_id":"7c4557b1-4947-4156-b925-180e0b104f1d","system_id":"levelo_inurba_marseille","lat":43.24681,"lon":5.38162,"is_reserved":false,"is_disabled":false,"rental_uris":{"android":"levelo://app?vid=7c4557b1-4947-4156-b925-180e0b104f1d","ios":"levelo://app?vid=7c4557b1-4947-4156-b925-180e0b104f1d"},"vehicle_type_id":"4","last_reported":1751676806,"current_range_meters":16400,"station_id":"ce4bhih2rcd13ifvqfr0","pricing_plan_id":"cebpf4jnsgd1na2vs0mg"},{"bike_id":"8770c872-ca5b-4910-a2a2-0c981f90691e","system_id":"levelo_inurba_marseille","lat":43.30418,"lon":5.41292,"is_reserved":false,"is_disabled":false,"rental_uris":{"android":"levelo://app?vid=8770c872-ca5b-4910-a2a2-0c981f90691e","ios":"levelo://app?vid=8770c872-ca5b-4910-a2a2-0c981f90691e"},"vehicle_type_id":"4","last_reported":1751676806,"current_range_meters":16400,"station_id":"ce4bhop2rcd13ifvqh8g","pricing_plan_id":"cebpf4jnsgd1na2vs0mg"},{"bike_id":"89c4c171-fa34-44ee-8818-b4f1de745083","system_id":"levelo_inurba_marseille","lat":43.23206,"lon":5.35549,"is_reserved":false,"is_disabled":false,"rental_uris":{"android":"levelo://app?vid=89c4c171-fa34-44ee-8818-b4f1de745083","ios":"levelo://app?vid=89c4c171-fa34-44ee-8818-b4f1de745083"},"vehicle_type_id":"4","last_reported":1751676806,"current_range_meters":16400,"station_id":"ce4bhu92rcd13ifvqi70","pricing_plan_id":"cebpf4jnsgd1na2vs0mg"},{"bike_id":"ef26d274-58a7-40bc-9cf0-6287718684d4","system_id":"levelo_inurba_marseille","lat":43.30729,"lon":5.42454,"is_reserved":false,"is_disabled":false,"rental_uris":{"android":"levelo://app?vid=ef26d274-58a7-40bc-9cf0-6287718684d4","ios":"levelo://app?vid=ef26d274-58a7-40bc-9cf0-6287718684d4"},"vehicle_type_id":"4","last_reported":1751676806,"current_range_meters":16400,"station_id":"st_cvj6ca6bvosntc0bfgr0","pricing_plan_id":"cebpf4jnsgd1na2vs0mg"},{"bike_id":"25d65b54-2483-49ad-9e8c-b4102ded682f","system_id":"levelo_inurba_marseille","lat":43.21191,"lon":5.35075,"is_reserved":false,"is_disabled":false,"rental_uris":{"android":"levelo://app?vid=25d65b54-2483-49ad-9e8c-b4102ded682f","ios":"levelo://app?vid=25d65b54-2483-49ad-9e8c-b4102ded682f"},"vehicle_type_id":"4","last_reported":1751676806,"current_range_meters":16400,"station_id":"st_cvj6sg6p6f1abm77japg","pricing_plan_id":"cebpf4jnsgd1na2vs0mg"},{"bike_id":"e75921b6-f2fa-4d5f-a2d7-6f66e6347c4d","system_id":"levelo_inurba_marseille","lat":43.24995,"lon":5.4044,"is_reserved":false,"is_disabled":false,"rental_uris":{"android":"levelo://app?vid=e75921b6-f2fa-4d5f-a2d7-6f66e6347c4d","ios":"levelo://app?vid=e75921b6-f2fa-4d5f-a2d7-6f66e6347c4d"},"vehicle_type_id":"4","last_reported":1751676806,"current_range_meters":16800,"station_id":"","pricing_plan_id":"cebpf4jnsgd1na2vs0mg"},{"bike_id":"081a5233-9a1d-4896-89df-095855498d76","system_id":"levelo_inurba_marseille","lat":43.30783,"lon":5.37651,"is_reserved":false,"is_disabled":false,"rental_uris":{"android":"levelo://app?vid=081a5233-9a1d-4896-89df-095855498d76","ios":"levelo://app?vid=081a5233-9a1d-4896-89df-095855498d76"},"vehicle_type_id":"4","last_reported":1751676806,"current_range_meters":16800,"station_id":"ce4bgv92rcd13ifvqcq0","pricing_plan_id":"cebpf4jnsgd1na2vs0mg"},{"bike_id":"9ce4937e-f70c-40c5-8304-a6e4aa82f427","system_id":"levelo_inurba_marseille","lat":43.30294,"lon":5.40435,"is_reserved":false,"is_disabled":false,"rental_uris":{"android":"levelo://app?vid=9ce4937e-f70c-40c5-8304-a6e4aa82f427","ios":"levelo://app?vid=9ce4937e-f70c-40c5-8304-a6e4aa82f427"},"vehicle_type_id":"4","last_reported":1751676806,"current_range_meters":16800,"station_id":"ce4bh012rcd13ifvqd10","pricing_plan_id":"cebpf4jnsgd1na2vs0mg"},{"bike_id":"3a016e00-5ec4-4750-9085-1070ae91e566","system_id":"levelo_inurba_marseille","lat":43.29017,"lon":5.40007,"is_reserved":false,"is_disabled":false,"rental_uris":{"android":"levelo://app?vid=3a016e00-5ec4-4750-9085-1070ae91e566","ios":"levelo://app?vid=3a016e00-5ec4-4750-9085-1070ae91e566"},"vehicle_type_id":"4","last_reported":1751676806,"current_range_meters":16800,"station_id":"ce4bh392rcd13ifvqdm0","pricing_plan_id":"cebpf4jnsgd1na2vs0mg"},{"bike_id":"b4afc502-b84b-4669-a44a-0949d7e6074a","system_id":"levelo_inurba_marseille","lat":43.28416,"lon":5.37504,"is_reserved":false,"is_disabled":false,"rental_uris":{"android":"levelo://app?vid=b4afc502-b84b-4669-a44a-0949d7e6074a","ios":"levelo://app?vid=b4afc502-b84b-4669-a44a-0949d7e6074a"},"vehicle_type_id":"4","last_reported":1751676806,"current_range_meters":16800,"station_id":"ce4bh412rcd13ifvqds0","pricing_plan_id":"cebpf4jnsgd1na2vs0mg"},{"bike_id":"2afff74e-2a36-41b5-aa3d-7383e276c035","system_id":"levelo_inurba_marseille","lat":43.2837,"lon":5.3864,"is_reserved":false,"is_disabled":false,"rental_uris":{"android":"levelo://app?vid=2afff74e-2a36-41b5-aa3d-7383e276c035","ios":"levelo://app?vid=2afff74e-2a36-41b5-aa3d-7383e276c035"},"vehicle_type_id":"4","last_reported":1751676806,"current_range_meters":16800,"station_id":"ce4bh492rcd13ifvqdvg","pricing_plan_id":"cebpf4jnsgd1na2vs0mg"},{"bike_id":"103abcc6-e95b-4676-972e-b6d017f50ad2","system_id":"levelo_inurba_marseille","lat":43.29056,"lon":5.35921,"is_reserved":false,"is_disabled":false,"rental_uris":{"android":"levelo://app?vid=103abcc6-e95b-4676-972e-b6d017f50ad2","ios":"levelo://app?vid=103abcc6-e95b-4676-972e-b6d017f50ad2"},"vehicle_type_id":"4","last_reported":1751676806,"current_range_meters":16800,"station_id":"ce4bha92rcd13ifvqeg0","pricing_plan_id":"cebpf4jnsgd1na2vs0mg"},{"bike_id":"ef5899c9-fbe7-4566-917b-26feef49f4dc","system_id":"levelo_inurba_marseille","lat":43.27981,"lon":5.3875,"is_reserved":false,"is_disabled":false,"rental_uris":{"android":"levelo://app?vid=ef5899c9-fbe7-4566-917b-26feef49f4dc","ios":"levelo://app?vid=ef5899c9-fbe7-4566-917b-26feef49f4dc"},"vehicle_type_id":"4","last_reported":1751676806,"current_range_meters":16800,"station_id":"ce4bhg12rcd13ifvqf80","pricing_plan_id":"cebpf4jnsgd1na2vs0mg"},{"bike_id":"e8a29ff3-a4a2-4805-9fa5-fa75367f7885","system_id":"levelo_inurba_marseille","lat":43.2572,"lon":5.41118,"is_reserved":false,"is_disabled":false,"rental_uris":{"android":"levelo://app?vid=e8a29ff3-a4a2-4805-9fa5-fa75367f7885","ios":"levelo://app?vid=e8a29ff3-a4a2-4805-9fa5-fa75367f7885"},"vehicle_type_id":"4","last_reported":1751676806,"current_range_meters":16800,"station_id":"ce4bhkp2rcd13ifvqgd0","pricing_plan_id":"cebpf4jnsgd1na2vs0mg"},{"bike_id":"85e59ae2-b351-4789-8c40-11e04c4e6808","system_id":"levelo_inurba_marseille","lat":43.23205,"lon":5.35546,"is_reserved":false,"is_disabled":false,"rental_uris":{"android":"levelo://app?vid=85e59ae2-b351-4789-8c40-11e04c4e6808","ios":"levelo://app?vid=85e59ae2-b351-4789-8c40-11e04c4e6808"},"vehicle_type_id":"4","last_reported":1751676806,"current_range_meters":16800,"station_id":"ce4bhu92rcd13ifvqi70","pricing_plan_id":"cebpf4jnsgd1na2vs0mg"},{"bike_id":"8501c7f1-4540-433a-9226-9677bd87b71a","system_id":"levelo_inurba_marseille","lat":43.211853,"lon":5.350741,"is_reserved":false,"is_disabled":false,"rental_uris":{"android":"levelo://app?vid=8501c7f1-4540-433a-9226-9677bd87b71a","ios":"levelo://app?vid=8501c7f1-4540-433a-9226-9677bd87b71a"},"vehicle_type_id":"4","last_reported":1751676806,"current_range_meters":16800,"station_id":"st_cvj6sg6p6f1abm77japg","pricing_plan_id":"cebpf4jnsgd1na2vs0mg"},{"bike_id":"adf1d38d-1f03-40cf-9b57-0a8f15f62b2d","system_id":"levelo_inurba_marseille","lat":43.32954,"lon":5.36415,"is_reserved":false,"is_disabled":false,"rental_uris":{"android":"levelo://app?vid=adf1d38d-1f03-40cf-9b57-0a8f15f62b2d","ios":"levelo://app?vid=adf1d38d-1f03-40cf-9b57-0a8f15f62b2d"},"vehicle_type_id":"4","last_reported":1751676806,"current_range_meters":17200,"station_id":"","pricing_plan_id":"cebpf4jnsgd1na2vs0mg"},{"bike_id":"02b71ffd-98ec-4faa-a4ff-9c4f0856d9be","system_id":"levelo_inurba_marseille","lat":43.309303,"lon":5.401536,"is_reserved":false,"is_disabled":false,"rental_uris":{"android":"levelo://app?vid=02b71ffd-98ec-4faa-a4ff-9c4f0856d9be","ios":"levelo://app?vid=02b71ffd-98ec-4faa-a4ff-9c4f0856d9be"},"vehicle_type_id":"4","last_reported":1751676806,"current_range_meters":17200,"station_id":"ce4bgvp2rcd13ifvqct0","pricing_plan_id":"cebpf4jnsgd1na2vs0mg"},{"bike_id":"7c7eae0f-4813-4a4a-8618-160795debd9d","system_id":"levelo_inurba_marseille","lat":43.30655,"lon":5.40091,"is_reserved":false,"is_disabled":false,"rental_uris":{"android":"levelo://app?vid=7c7eae0f-4813-4a4a-8618-160795debd9d","ios":"levelo://app?vid=7c7eae0f-4813-4a4a-8618-160795debd9d"},"vehicle_type_id":"4","last_reported":1751676806,"current_range_meters":17200,"station_id":"ce4bh112rcd13ifvqda0","pricing_plan_id":"cebpf4jnsgd1na2vs0mg"},{"bike_id":"1ba3d49f-879f-495a-9eec-a5219f46051b","system_id":"levelo_inurba_marseille","lat":43.24647,"lon":5.38147,"is_reserved":false,"is_disabled":false,"rental_uris":{"android":"levelo://app?vid=1ba3d49f-879f-495a-9eec-a5219f46051b","ios":"levelo://app?vid=1ba3d49f-879f-495a-9eec-a5219f46051b"},"vehicle_type_id":"4","last_reported":1751676806,"current_range_meters":17200,"station_id":"ce4bhih2rcd13ifvqfr0","pricing_plan_id":"cebpf4jnsgd1na2vs0mg"},{"bike_id":"fc45637f-0d3f-4541-a951-0a63add791e4","system_id":"levelo_inurba_marseille","lat":43.24161,"lon":5.39746,"is_reserved":false,"is_disabled":false,"rental_uris":{"android":"levelo://app?vid=fc45637f-0d3f-4541-a951-0a63add791e4","ios":"levelo://app?vid=fc45637f-0d3f-4541-a951-0a63add791e4"},"vehicle_type_id":"4","last_reported":1751676806,"current_range_meters":17200,"station_id":"ce4bhn12rcd13ifvqgpg","pricing_plan_id":"cebpf4jnsgd1na2vs0mg"},{"bike_id":"895304a7-f841-4ac7-a5d8-f600565cbdb4","system_id":"levelo_inurba_marseille","lat":43.2843,"lon":5.39191,"is_reserved":false,"is_disabled":false,"rental_uris":{"android":"levelo://app?vid=895304a7-f841-4ac7-a5d8-f600565cbdb4","ios":"levelo://app?vid=895304a7-f841-4ac7-a5d8-f600565cbdb4"},"vehicle_type_id":"4","last_reported":1751676806,"current_range_meters":17200,"station_id":"ce4bhoh2rcd13ifvqh5g","pricing_plan_id":"cebpf4jnsgd1na2vs0mg"},{"bike_id":"64c2a9d0-155c-4f26-ba45-c0a267071026","system_id":"levelo_inurba_marseille","lat":43.31085,"lon":5.42433,"is_reserved":false,"is_disabled":false,"rental_uris":{"android":"levelo://app?vid=64c2a9d0-155c-4f26-ba45-c0a267071026","ios":"levelo://app?vid=64c2a9d0-155c-4f26-ba45-c0a267071026"},"vehicle_type_id":"4","last_reported":1751676806,"current_range_meters":17200,"station_id":"ce4bhp92rcd13ifvqhag","pricing_plan_id":"cebpf4jnsgd1na2vs0mg"},{"bike_id":"c3fae141-3322-46bb-976b-c85803ceeb5f","system_id":"levelo_inurba_marseille","lat":43.2955,"lon":5.42288,"is_reserved":false,"is_disabled":false,"rental_uris":{"android":"levelo://app?vid=c3fae141-3322-46bb-976b-c85803ceeb5f","ios":"levelo://app?vid=c3fae141-3322-46bb-976b-c85803ceeb5f"},"vehicle_type_id":"4","last_reported":1751676806,"current_range_meters":17200,"station_id":"ce4bhph2rcd13ifvqhdg","pricing_plan_id":"cebpf4jnsgd1na2vs0mg"},{"bike_id":"134a6fd1-cb8b-4ade-a0c2-0b22bf7dca76","system_id":"levelo_inurba_marseille","lat":43.21189,"lon":5.35072,"is_reserved":false,"is_disabled":false,"rental_uris":{"android":"levelo://app?vid=134a6fd1-cb8b-4ade-a0c2-0b22bf7dca76","ios":"levelo://app?vid=134a6fd1-cb8b-4ade-a0c2-0b22bf7dca76"},"vehicle_type_id":"4","last_reported":1751676806,"current_range_meters":17200,"station_id":"st_cvj6sg6p6f1abm77japg","pricing_plan_id":"cebpf4jnsgd1na2vs0mg"},{"bike_id":"1b8b6b32-9cdc-4995-9820-13ded33122b2","system_id":"levelo_inurba_marseille","lat":43.30144,"lon":5.39875,"is_reserved":false,"is_disabled":false,"rental_uris":{"android":"levelo://app?vid=1b8b6b32-9cdc-4995-9820-13ded33122b2","ios":"levelo://app?vid=1b8b6b32-9cdc-4995-9820-13ded33122b2"},"vehicle_type_id":"4","last_reported":1751676806,"current_range_meters":17600,"station_id":"ce4bh0h2rcd13ifvqd40","pricing_plan_id":"cebpf4jnsgd1na2vs0mg"},{"bike_id":"f50fb642-d6cc-423f-b93c-0424c837e8be","system_id":"levelo_inurba_marseille","lat":43.29252,"lon":5.40913,"is_reserved":false,"is_disabled":false,"rental_uris":{"android":"levelo://app?vid=f50fb642-d6cc-423f-b93c-0424c837e8be","ios":"levelo://app?vid=f50fb642-d6cc-423f-b93c-0424c837e8be"},"vehicle_type_id":"4","last_reported":1751676806,"current_range_meters":17600,"station_id":"ce4bh192rcd13ifvqdc0","pricing_plan_id":"cebpf4jnsgd1na2vs0mg"},{"bike_id":"8307ebec-094b-4dac-8205-dd3372a2c258","system_id":"levelo_inurba_marseille","lat":43.29895,"lon":5.38896,"is_reserved":false,"is_disabled":false,"rental_uris":{"android":"levelo://app?vid=8307ebec-094b-4dac-8205-dd3372a2c258","ios":"levelo://app?vid=8307ebec-094b-4dac-8205-dd3372a2c258"},"vehicle_type_id":"4","last_reported":1751676806,"current_range_meters":17600,"station_id":"ce4bh392rcd13ifvqdl0","pricing_plan_id":"cebpf4jnsgd1na2vs0mg"},{"bike_id":"2499e9df-fd4a-41ca-99c4-911908b0ef18","system_id":"levelo_inurba_marseille","lat":43.241835,"lon":5.397375,"is_reserved":false,"is_disabled":false,"rental_uris":{"android":"levelo://app?vid=2499e9df-fd4a-41ca-99c4-911908b0ef18","ios":"levelo://app?vid=2499e9df-fd4a-41ca-99c4-911908b0ef18"},"vehicle_type_id":"4","last_reported":1751676806,"current_range_meters":17600,"station_id":"ce4bhn12rcd13ifvqgpg","pricing_plan_id":"cebpf4jnsgd1na2vs0mg"},{"bike_id":"d5ef770d-9759-47e3-b3a5-7d2785ef76db","system_id":"levelo_inurba_marseille","lat":43.33034,"lon":5.39493,"is_reserved":false,"is_disabled":false,"rental_uris":{"android":"levelo://app?vid=d5ef770d-9759-47e3-b3a5-7d2785ef76db","ios":"levelo://app?vid=d5ef770d-9759-47e3-b3a5-7d2785ef76db"},"vehicle_type_id":"4","last_reported":1751676806,"current_range_meters":18000,"station_id":"","pricing_plan_id":"cebpf4jnsgd1na2vs0mg"},{"bike_id":"856c776b-976c-4e7f-97c1-3dc27b8380dd","system_id":"levelo_inurba_marseille","lat":43.31631,"lon":5.38331,"is_reserved":false,"is_disabled":false,"rental_uris":{"android":"levelo://app?vid=856c776b-976c-4e7f-97c1-3dc27b8380dd","ios":"levelo://app?vid=856c776b-976c-4e7f-97c1-3dc27b8380dd"},"vehicle_type_id":"4","last_reported":1751676806,"current_range_meters":18000,"station_id":"","pricing_plan_id":"cebpf4jnsgd1na2vs0mg"},{"bike_id":"fe8ee84c-fdfc-40aa-a1c2-6e36409c0740","system_id":"levelo_inurba_marseille","lat":43.26813,"lon":5.39049,"is_reserved":false,"is_disabled":false,"rental_uris":{"android":"levelo://app?vid=fe8ee84c-fdfc-40aa-a1c2-6e36409c0740","ios":"levelo://app?vid=fe8ee84c-fdfc-40aa-a1c2-6e36409c0740"},"vehicle_type_id":"4","last_reported":1751676806,"current_range_meters":18000,"station_id":"","pricing_plan_id":"cebpf4jnsgd1na2vs0mg"},{"bike_id":"3fc62123-78f7-4bfd-9645-67a7412e0768","system_id":"levelo_inurba_marseille","lat":43.2573,"lon":5.41107,"is_reserved":false,"is_disabled":false,"rental_uris":{"android":"levelo://app?vid=3fc62123-78f7-4bfd-9645-67a7412e0768","ios":"levelo://app?vid=3fc62123-78f7-4bfd-9645-67a7412e0768"},"vehicle_type_id":"4","last_reported":1751676806,"current_range_meters":18000,"station_id":"","pricing_plan_id":"cebpf4jnsgd1na2vs0mg"},{"bike_id":"aae1a3ab-7f77-4cae-a515-0e32f1c9e1bf","system_id":"levelo_inurba_marseille","lat":43.31493,"lon":5.37305,"is_reserved":false,"is_disabled":false,"rental_uris":{"android":"levelo://app?vid=aae1a3ab-7f77-4cae-a515-0e32f1c9e1bf","ios":"levelo://app?vid=aae1a3ab-7f77-4cae-a515-0e32f1c9e1bf"},"vehicle_type_id":"4","last_reported":1751676806,"current_range_meters":18000,"station_id":"ce4bgt12rcd13ifvqcd0","pricing_plan_id":"cebpf4jnsgd1na2vs0mg"},{"bike_id":"7d7ca329-d013-418c-84c4-2b0666103eeb","system_id":"levelo_inurba_marseille","lat":43.29886,"lon":5.43655,"is_reserved":false,"is_disabled":false,"rental_uris":{"android":"levelo://app?vid=7d7ca329-d013-418c-84c4-2b0666103eeb","ios":"levelo://app?vid=7d7ca329-d013-418c-84c4-2b0666103eeb"},"vehicle_type_id":"4","last_reported":1751676806,"current_range_meters":18000,"station_id":"ce4bhpp2rcd13ifvqhfg","pricing_plan_id":"cebpf4jnsgd1na2vs0mg"},{"bike_id":"bf24b26e-7f51-4120-9a48-54c87edaa2f7","system_id":"levelo_inurba_marseille","lat":43.211901,"lon":5.35075,"is_reserved":false,"is_disabled":false,"rental_uris":{"android":"levelo://app?vid=bf24b26e-7f51-4120-9a48-54c87edaa2f7","ios":"levelo://app?vid=bf24b26e-7f51-4120-9a48-54c87edaa2f7"},"vehicle_type_id":"4","last_reported":1751676806,"current_range_meters":18000,"station_id":"st_cvj6sg6p6f1abm77japg","pricing_plan_id":"cebpf4jnsgd1na2vs0mg"},{"bike_id":"8a42812b-a6a1-406d-afe6-f3a1f04badd8","system_id":"levelo_inurba_marseille","lat":43.30849,"lon":5.37007,"is_reserved":false,"is_disabled":false,"rental_uris":{"android":"levelo://app?vid=8a42812b-a6a1-406d-afe6-f3a1f04badd8","ios":"levelo://app?vid=8a42812b-a6a1-406d-afe6-f3a1f04badd8"},"vehicle_type_id":"4","last_reported":1751676806,"current_range_meters":18800,"station_id":"","pricing_plan_id":"cebpf4jnsgd1na2vs0mg"},{"bike_id":"de82732e-0a39-4d40-b3cf-607f82f986f4","system_id":"levelo_inurba_marseille","lat":43.26878,"lon":5.36873,"is_reserved":false,"is_disabled":false,"rental_uris":{"android":"levelo://app?vid=de82732e-0a39-4d40-b3cf-607f82f986f4","ios":"levelo://app?vid=de82732e-0a39-4d40-b3cf-607f82f986f4"},"vehicle_type_id":"4","last_reported":1751676806,"current_range_meters":18800,"station_id":"","pricing_plan_id":"cebpf4jnsgd1na2vs0mg"},{"bike_id":"3963504a-1bfe-4478-b6af-cc0ea5d0627e","system_id":"levelo_inurba_marseille","lat":43.29935,"lon":5.36548,"is_reserved":false,"is_disabled":false,"rental_uris":{"android":"levelo://app?vid=3963504a-1bfe-4478-b6af-cc0ea5d0627e","ios":"levelo://app?vid=3963504a-1bfe-4478-b6af-cc0ea5d0627e"},"vehicle_type_id":"4","last_reported":1751676806,"current_range_meters":18800,"station_id":"ce4bgm92rcd13ifvqbr0","pricing_plan_id":"cebpf4jnsgd1na2vs0mg"},{"bike_id":"5b5ca915-19f5-4c5c-ba88-71fe4a9869eb","system_id":"levelo_inurba_marseille","lat":43.31698,"lon":5.37742,"is_reserved":false,"is_disabled":false,"rental_uris":{"android":"levelo://app?vid=5b5ca915-19f5-4c5c-ba88-71fe4a9869eb","ios":"levelo://app?vid=5b5ca915-19f5-4c5c-ba88-71fe4a9869eb"},"vehicle_type_id":"4","last_reported":1751676806,"current_range_meters":18800,"station_id":"ce4bgth2rcd13ifvqch0","pricing_plan_id":"cebpf4jnsgd1na2vs0mg"},{"bike_id":"29dcee65-566a-44e3-81ab-242c99cceab2","system_id":"levelo_inurba_marseille","lat":43.30788,"lon":5.37648,"is_reserved":false,"is_disabled":false,"rental_uris":{"android":"levelo://app?vid=29dcee65-566a-44e3-81ab-242c99cceab2","ios":"levelo://app?vid=29dcee65-566a-44e3-81ab-242c99cceab2"},"vehicle_type_id":"4","last_reported":1751676806,"current_range_meters":18800,"station_id":"ce4bgv92rcd13ifvqcq0","pricing_plan_id":"cebpf4jnsgd1na2vs0mg"},{"bike_id":"b0034d3d-5ad4-43f2-95c8-059c75ba7d53","system_id":"levelo_inurba_marseille","lat":43.28411,"lon":5.37519,"is_reserved":false,"is_disabled":false,"rental_uris":{"android":"levelo://app?vid=b0034d3d-5ad4-43f2-95c8-059c75ba7d53","ios":"levelo://app?vid=b0034d3d-5ad4-43f2-95c8-059c75ba7d53"},"vehicle_type_id":"4","last_reported":1751676806,"current_range_meters":18800,"station_id":"ce4bh412rcd13ifvqds0","pricing_plan_id":"cebpf4jnsgd1na2vs0mg"},{"bike_id":"2c46e778-b630-4ec2-aba5-ca225f51dbcc","system_id":"levelo_inurba_marseille","lat":43.2837,"lon":5.38628,"is_reserved":false,"is_disabled":false,"rental_uris":{"android":"levelo://app?vid=2c46e778-b630-4ec2-aba5-ca225f51dbcc","ios":"levelo://app?vid=2c46e778-b630-4ec2-aba5-ca225f51dbcc"},"vehicle_type_id":"4","last_reported":1751676806,"current_range_meters":18800,"station_id":"ce4bh492rcd13ifvqdvg","pricing_plan_id":"cebpf4jnsgd1na2vs0mg"},{"bike_id":"e7eaaf08-96ce-4690-b77f-5c395fca14e3","system_id":"levelo_inurba_marseille","lat":43.27414,"lon":5.39373,"is_reserved":false,"is_disabled":false,"rental_uris":{"android":"levelo://app?vid=e7eaaf08-96ce-4690-b77f-5c395fca14e3","ios":"levelo://app?vid=e7eaaf08-96ce-4690-b77f-5c395fca14e3"},"vehicle_type_id":"4","last_reported":1751676806,"current_range_meters":18800,"station_id":"ce4bhdp2rcd13ifvqf20","pricing_plan_id":"cebpf4jnsgd1na2vs0mg"},{"bike_id":"65649ce6-7f39-4a81-afab-6d8bea652e28","system_id":"levelo_inurba_marseille","lat":43.3073,"lon":5.42444,"is_reserved":false,"is_disabled":false,"rental_uris":{"android":"levelo://app?vid=65649ce6-7f39-4a81-afab-6d8bea652e28","ios":"levelo://app?vid=65649ce6-7f39-4a81-afab-6d8bea652e28"},"vehicle_type_id":"4","last_reported":1751676806,"current_range_meters":18800,"station_id":"st_cvj6ca6bvosntc0bfgr0","pricing_plan_id":"cebpf4jnsgd1na2vs0mg"},{"bike_id":"c66d4605-1fed-4934-aa07-6f6e14626dde","system_id":"levelo_inurba_marseille","lat":43.30778,"lon":5.38152,"is_reserved":false,"is_disabled":false,"rental_uris":{"android":"levelo://app?vid=c66d4605-1fed-4934-aa07-6f6e14626dde","ios":"levelo://app?vid=c66d4605-1fed-4934-aa07-6f6e14626dde"},"vehicle_type_id":"4","last_reported":1751676806,"current_range_meters":19200,"station_id":"ce4bgt12rcd13ifvqce0","pricing_plan_id":"cebpf4jnsgd1na2vs0mg"},{"bike_id":"742f324f-7bc6-4165-8764-a546b5eb6aeb","system_id":"levelo_inurba_marseille","lat":43.31118,"lon":5.37769,"is_reserved":false,"is_disabled":false,"rental_uris":{"android":"levelo://app?vid=742f324f-7bc6-4165-8764-a546b5eb6aeb","ios":"levelo://app?vid=742f324f-7bc6-4165-8764-a546b5eb6aeb"},"vehicle_type_id":"4","last_reported":1751676806,"current_range_meters":19200,"station_id":"ce4bgt92rcd13ifvqcg0","pricing_plan_id":"cebpf4jnsgd1na2vs0mg"},{"bike_id":"5e4669bd-8536-4919-8da2-15409e182044","system_id":"levelo_inurba_marseille","lat":43.23162,"lon":5.43716,"is_reserved":false,"is_disabled":false,"rental_uris":{"android":"levelo://app?vid=5e4669bd-8536-4919-8da2-15409e182044","ios":"levelo://app?vid=5e4669bd-8536-4919-8da2-15409e182044"},"vehicle_type_id":"4","last_reported":1751676806,"current_range_meters":19200,"station_id":"ce4bhmp2rcd13ifvqgog","pricing_plan_id":"cebpf4jnsgd1na2vs0mg"},{"bike_id":"2d183b03-e787-4b0a-9715-1c862eb94988","system_id":"levelo_inurba_marseille","lat":43.28702,"lon":5.39986,"is_reserved":false,"is_disabled":false,"rental_uris":{"android":"levelo://app?vid=2d183b03-e787-4b0a-9715-1c862eb94988","ios":"levelo://app?vid=2d183b03-e787-4b0a-9715-1c862eb94988"},"vehicle_type_id":"4","last_reported":1751676806,"current_range_meters":19200,"station_id":"ce4bho92rcd13ifvqh3g","pricing_plan_id":"cebpf4jnsgd1na2vs0mg"},{"bike_id":"e449aa29-cae1-4432-9aec-dedc13360b20","system_id":"levelo_inurba_marseille","lat":43.21196,"lon":5.35076,"is_reserved":false,"is_disabled":false,"rental_uris":{"android":"levelo://app?vid=e449aa29-cae1-4432-9aec-dedc13360b20","ios":"levelo://app?vid=e449aa29-cae1-4432-9aec-dedc13360b20"},"vehicle_type_id":"4","last_reported":1751676806,"current_range_meters":19200,"station_id":"st_cvj6sg6p6f1abm77japg","pricing_plan_id":"cebpf4jnsgd1na2vs0mg"},{"bike_id":"93e7e044-44e1-4022-a4c3-fc6d570dd206","system_id":"levelo_inurba_marseille","lat":43.3112,"lon":5.37768,"is_reserved":false,"is_disabled":false,"rental_uris":{"android":"levelo://app?vid=93e7e044-44e1-4022-a4c3-fc6d570dd206","ios":"levelo://app?vid=93e7e044-44e1-4022-a4c3-fc6d570dd206"},"vehicle_type_id":"4","last_reported":1751676806,"current_range_meters":19600,"station_id":"ce4bgt92rcd13ifvqcg0","pricing_plan_id":"cebpf4jnsgd1na2vs0mg"},{"bike_id":"283fe0ed-0eb5-405b-8867-21111f85c3b1","system_id":"levelo_inurba_marseille","lat":43.31051,"lon":5.38353,"is_reserved":false,"is_disabled":false,"rental_uris":{"android":"levelo://app?vid=283fe0ed-0eb5-405b-8867-21111f85c3b1","ios":"levelo://app?vid=283fe0ed-0eb5-405b-8867-21111f85c3b1"},"vehicle_type_id":"4","last_reported":1751676806,"current_range_meters":19600,"station_id":"ce4bgv92rcd13ifvqcr0","pricing_plan_id":"cebpf4jnsgd1na2vs0mg"},{"bike_id":"2d4bb3a1-801d-486a-a963-9ec8f0a08a83","system_id":"levelo_inurba_marseille","lat":43.30307,"lon":5.40431,"is_reserved":false,"is_disabled":false,"rental_uris":{"android":"levelo://app?vid=2d4bb3a1-801d-486a-a963-9ec8f0a08a83","ios":"levelo://app?vid=2d4bb3a1-801d-486a-a963-9ec8f0a08a83"},"vehicle_type_id":"4","last_reported":1751676806,"current_range_meters":19600,"station_id":"ce4bh012rcd13ifvqd10","pricing_plan_id":"cebpf4jnsgd1na2vs0mg"},{"bike_id":"f1704fa8-e85e-4151-8d37-92d9f01651c5","system_id":"levelo_inurba_marseille","lat":43.29032,"lon":5.39951,"is_reserved":false,"is_disabled":false,"rental_uris":{"android":"levelo://app?vid=f1704fa8-e85e-4151-8d37-92d9f01651c5","ios":"levelo://app?vid=f1704fa8-e85e-4151-8d37-92d9f01651c5"},"vehicle_type_id":"4","last_reported":1751676806,"current_range_meters":19600,"station_id":"ce4bh392rcd13ifvqdm0","pricing_plan_id":"cebpf4jnsgd1na2vs0mg"},{"bike_id":"452e8211-4f44-45d0-814a-3e9e25b8c44e","system_id":"levelo_inurba_marseille","lat":43.21197,"lon":5.35072,"is_reserved":false,"is_disabled":false,"rental_uris":{"android":"levelo://app?vid=452e8211-4f44-45d0-814a-3e9e25b8c44e","ios":"levelo://app?vid=452e8211-4f44-45d0-814a-3e9e25b8c44e"},"vehicle_type_id":"4","last_reported":1751676806,"current_range_meters":19600,"station_id":"st_cvj6sg6p6f1abm77japg","pricing_plan_id":"cebpf4jnsgd1na2vs0mg"},{"bike_id":"3e5538a0-2705-4962-b20c-bc8979481f05","system_id":"levelo_inurba_marseille","lat":43.31367,"lon":5.38496,"is_reserved":false,"is_disabled":false,"rental_uris":{"android":"levelo://app?vid=3e5538a0-2705-4962-b20c-bc8979481f05","ios":"levelo://app?vid=3e5538a0-2705-4962-b20c-bc8979481f05"},"vehicle_type_id":"4","last_reported":1751676806,"current_range_meters":20000,"station_id":"ce4bgt92rcd13ifvqcf0","pricing_plan_id":"cebpf4jnsgd1na2vs0mg"},{"bike_id":"da9d6a42-19e1-4eca-bd91-215f18b2cc4e","system_id":"levelo_inurba_marseille","lat":43.31121,"lon":5.37788,"is_reserved":false,"is_disabled":false,"rental_uris":{"android":"levelo://app?vid=da9d6a42-19e1-4eca-bd91-215f18b2cc4e","ios":"levelo://app?vid=da9d6a42-19e1-4eca-bd91-215f18b2cc4e"},"vehicle_type_id":"4","last_reported":1751676806,"current_range_meters":20000,"station_id":"ce4bgt92rcd13ifvqcg0","pricing_plan_id":"cebpf4jnsgd1na2vs0mg"},{"bike_id":"ffa7d8ec-27d5-4c8e-b591-401bf1964699","system_id":"levelo_inurba_marseille","lat":43.311131,"lon":5.377614,"is_reserved":false,"is_disabled":false,"rental_uris":{"android":"levelo://app?vid=ffa7d8ec-27d5-4c8e-b591-401bf1964699","ios":"levelo://app?vid=ffa7d8ec-27d5-4c8e-b591-401bf1964699"},"vehicle_type_id":"4","last_reported":1751676806,"current_range_meters":20000,"station_id":"ce4bgt92rcd13ifvqcg0","pricing_plan_id":"cebpf4jnsgd1na2vs0mg"},{"bike_id":"01454992-b9a8-41cd-b021-839091691696","system_id":"levelo_inurba_marseille","lat":43.306383,"lon":5.400705,"is_reserved":false,"is_disabled":false,"rental_uris":{"android":"levelo://app?vid=01454992-b9a8-41cd-b021-839091691696","ios":"levelo://app?vid=01454992-b9a8-41cd-b021-839091691696"},"vehicle_type_id":"4","last_reported":1751676806,"current_range_meters":20000,"station_id":"ce4bgvp2rcd13ifvqct0","pricing_plan_id":"cebpf4jnsgd1na2vs0mg"},{"bike_id":"d02885ef-949e-4323-a7f4-a1834a8a344f","system_id":"levelo_inurba_marseille","lat":43.29627,"lon":5.40595,"is_reserved":false,"is_disabled":false,"rental_uris":{"android":"levelo://app?vid=d02885ef-949e-4323-a7f4-a1834a8a344f","ios":"levelo://app?vid=d02885ef-949e-4323-a7f4-a1834a8a344f"},"vehicle_type_id":"4","last_reported":1751676806,"current_range_meters":20000,"station_id":"ce4bh0h2rcd13ifvqd60","pricing_plan_id":"cebpf4jnsgd1na2vs0mg"},{"bike_id":"c9d66740-661e-4c1f-b230-254ff8f099c1","system_id":"levelo_inurba_marseille","lat":43.25719,"lon":5.41107,"is_reserved":false,"is_disabled":false,"rental_uris":{"android":"levelo://app?vid=c9d66740-661e-4c1f-b230-254ff8f099c1","ios":"levelo://app?vid=c9d66740-661e-4c1f-b230-254ff8f099c1"},"vehicle_type_id":"4","last_reported":1751676806,"current_range_meters":20000,"station_id":"ce4bhkp2rcd13ifvqgd0","pricing_plan_id":"cebpf4jnsgd1na2vs0mg"},{"bike_id":"f4014af3-6f05-416d-9154-ce76f684dda3","system_id":"levelo_inurba_marseille","lat":43.27492,"lon":5.42451,"is_reserved":false,"is_disabled":false,"rental_uris":{"android":"levelo://app?vid=f4014af3-6f05-416d-9154-ce76f684dda3","ios":"levelo://app?vid=f4014af3-6f05-416d-9154-ce76f684dda3"},"vehicle_type_id":"4","last_reported":1751676806,"current_range_meters":20000,"station_id":"ce4bhn92rcd13ifvqgrg","pricing_plan_id":"cebpf4jnsgd1na2vs0mg"},{"bike_id":"ac51fe21-b7f4-4d71-8d04-f8994b861f6a","system_id":"levelo_inurba_marseille","lat":43.32333,"lon":5.40615,"is_reserved":false,"is_disabled":false,"rental_uris":{"android":"levelo://app?vid=ac51fe21-b7f4-4d71-8d04-f8994b861f6a","ios":"levelo://app?vid=ac51fe21-b7f4-4d71-8d04-f8994b861f6a"},"vehicle_type_id":"4","last_reported":1751676806,"current_range_meters":20000,"station_id":"ce4bhq92rcd13ifvqhjg","pricing_plan_id":"cebpf4jnsgd1na2vs0mg"},{"bike_id":"655a110d-474d-43b1-a203-d9e462e1a783","system_id":"levelo_inurba_marseille","lat":43.21194,"lon":5.35075,"is_reserved":false,"is_disabled":false,"rental_uris":{"android":"levelo://app?vid=655a110d-474d-43b1-a203-d9e462e1a783","ios":"levelo://app?vid=655a110d-474d-43b1-a203-d9e462e1a783"},"vehicle_type_id":"4","last_reported":1751676806,"current_range_meters":20000,"station_id":"st_cvj6sg6p6f1abm77japg","pricing_plan_id":"cebpf4jnsgd1na2vs0mg"},{"bike_id":"978499d7-daf5-4191-b652-8e29b67d476d","system_id":"levelo_inurba_marseille","lat":43.30903,"lon":5.37208,"is_reserved":false,"is_disabled":false,"rental_uris":{"android":"levelo://app?vid=978499d7-daf5-4191-b652-8e29b67d476d","ios":"levelo://app?vid=978499d7-daf5-4191-b652-8e29b67d476d"},"vehicle_type_id":"4","last_reported":1751676806,"current_range_meters":20400,"station_id":"ce4bguh2rcd13ifvqckg","pricing_plan_id":"cebpf4jnsgd1na2vs0mg"},{"bike_id":"7cbb7613-8a12-4acb-914a-c602ad0cc8f2","system_id":"levelo_inurba_marseille","lat":43.2512,"lon":5.40338,"is_reserved":false,"is_disabled":false,"rental_uris":{"android":"levelo://app?vid=7cbb7613-8a12-4acb-914a-c602ad0cc8f2","ios":"levelo://app?vid=7cbb7613-8a12-4acb-914a-c602ad0cc8f2"},"vehicle_type_id":"4","last_reported":1751676806,"current_range_meters":20400,"station_id":"ce4bhlh2rcd13ifvqgig","pricing_plan_id":"cebpf4jnsgd1na2vs0mg"},{"bike_id":"6ee9d018-f43d-4040-8068-c472b47a7a53","system_id":"levelo_inurba_marseille","lat":43.28747,"lon":5.40017,"is_reserved":false,"is_disabled":false,"rental_uris":{"android":"levelo://app?vid=6ee9d018-f43d-4040-8068-c472b47a7a53","ios":"levelo://app?vid=6ee9d018-f43d-4040-8068-c472b47a7a53"},"vehicle_type_id":"4","last_reported":1751676806,"current_range_meters":20400,"station_id":"ce4bho92rcd13ifvqh3g","pricing_plan_id":"cebpf4jnsgd1na2vs0mg"},{"bike_id":"ad472d2a-b437-44cb-95f5-6157d79fbf67","system_id":"levelo_inurba_marseille","lat":43.323382,"lon":5.406273,"is_reserved":false,"is_disabled":false,"rental_uris":{"android":"levelo://app?vid=ad472d2a-b437-44cb-95f5-6157d79fbf67","ios":"levelo://app?vid=ad472d2a-b437-44cb-95f5-6157d79fbf67"},"vehicle_type_id":"4","last_reported":1751676806,"current_range_meters":20400,"station_id":"ce4bhq92rcd13ifvqhjg","pricing_plan_id":"cebpf4jnsgd1na2vs0mg"},{"bike_id":"8bf0d992-d2a0-428e-940a-091ee9b7c2a4","system_id":"levelo_inurba_marseille","lat":43.21192,"lon":5.35077,"is_reserved":false,"is_disabled":false,"rental_uris":{"android":"levelo://app?vid=8bf0d992-d2a0-428e-940a-091ee9b7c2a4","ios":"levelo://app?vid=8bf0d992-d2a0-428e-940a-091ee9b7c2a4"},"vehicle_type_id":"4","last_reported":1751676806,"current_range_meters":20400,"station_id":"st_cvj6sg6p6f1abm77japg","pricing_plan_id":"cebpf4jnsgd1na2vs0mg"},{"bike_id":"700fddf2-2189-420b-8b18-4d99d321fee5","system_id":"levelo_inurba_marseille","lat":43.28298,"lon":5.43217,"is_reserved":false,"is_disabled":false,"rental_uris":{"android":"levelo://app?vid=700fddf2-2189-420b-8b18-4d99d321fee5","ios":"levelo://app?vid=700fddf2-2189-420b-8b18-4d99d321fee5"},"vehicle_type_id":"4","last_reported":1751676806,"current_range_meters":20800,"station_id":"","pricing_plan_id":"cebpf4jnsgd1na2vs0mg"},{"bike_id":"7eca7127-7296-473e-9dad-533c111e635d","system_id":"levelo_inurba_marseille","lat":43.305453,"lon":5.38426,"is_reserved":false,"is_disabled":false,"rental_uris":{"android":"levelo://app?vid=7eca7127-7296-473e-9dad-533c111e635d","ios":"levelo://app?vid=7eca7127-7296-473e-9dad-533c111e635d"},"vehicle_type_id":"4","last_reported":1751676806,"current_range_meters":20800,"station_id":"ce4bgg92rcd13ifvqb30","pricing_plan_id":"cebpf4jnsgd1na2vs0mg"},{"bike_id":"df4c69f6-9711-49d2-83d2-3d91f7bba0dd","system_id":"levelo_inurba_marseille","lat":43.30938,"lon":5.40146,"is_reserved":false,"is_disabled":false,"rental_uris":{"android":"levelo://app?vid=df4c69f6-9711-49d2-83d2-3d91f7bba0dd","ios":"levelo://app?vid=df4c69f6-9711-49d2-83d2-3d91f7bba0dd"},"vehicle_type_id":"4","last_reported":1751676806,"current_range_meters":20800,"station_id":"ce4bgvp2rcd13ifvqct0","pricing_plan_id":"cebpf4jnsgd1na2vs0mg"},{"bike_id":"a192b1e8-cb6c-43ca-bfa4-5253c08d303c","system_id":"levelo_inurba_marseille","lat":43.30644,"lon":5.40076,"is_reserved":false,"is_disabled":false,"rental_uris":{"android":"levelo://app?vid=a192b1e8-cb6c-43ca-bfa4-5253c08d303c","ios":"levelo://app?vid=a192b1e8-cb6c-43ca-bfa4-5253c08d303c"},"vehicle_type_id":"4","last_reported":1751676806,"current_range_meters":20800,"station_id":"ce4bh112rcd13ifvqda0","pricing_plan_id":"cebpf4jnsgd1na2vs0mg"},{"bike_id":"09cb21a0-3997-440c-82b7-1c9d4bbfaeb7","system_id":"levelo_inurba_marseille","lat":43.33026,"lon":5.39043,"is_reserved":false,"is_disabled":false,"rental_uris":{"android":"levelo://app?vid=09cb21a0-3997-440c-82b7-1c9d4bbfaeb7","ios":"levelo://app?vid=09cb21a0-3997-440c-82b7-1c9d4bbfaeb7"},"vehicle_type_id":"4","last_reported":1751676806,"current_range_meters":20800,"station_id":"ce4bhr92rcd13ifvqhrg","pricing_plan_id":"cebpf4jnsgd1na2vs0mg"},{"bike_id":"1f89d548-78c7-44d5-84e6-3d83cc993707","system_id":"levelo_inurba_marseille","lat":43.23194,"lon":5.35553,"is_reserved":false,"is_disabled":false,"rental_uris":{"android":"levelo://app?vid=1f89d548-78c7-44d5-84e6-3d83cc993707","ios":"levelo://app?vid=1f89d548-78c7-44d5-84e6-3d83cc993707"},"vehicle_type_id":"4","last_reported":1751676806,"current_range_meters":20800,"station_id":"ce4bhu92rcd13ifvqi70","pricing_plan_id":"cebpf4jnsgd1na2vs0mg"},{"bike_id":"83b11fb5-79c7-42dc-96a5-00ca635dbb8c","system_id":"levelo_inurba_marseille","lat":43.299724,"lon":5.384744,"is_reserved":false,"is_disabled":false,"rental_uris":{"android":"levelo://app?vid=83b11fb5-79c7-42dc-96a5-00ca635dbb8c","ios":"levelo://app?vid=83b11fb5-79c7-42dc-96a5-00ca635dbb8c"},"vehicle_type_id":"4","last_reported":1751676806,"current_range_meters":21600,"station_id":"","pricing_plan_id":"cebpf4jnsgd1na2vs0mg"},{"bike_id":"dcf20e92-f381-494c-9040-27a039ba03ba","system_id":"levelo_inurba_marseille","lat":43.29941,"lon":5.36572,"is_reserved":false,"is_disabled":false,"rental_uris":{"android":"levelo://app?vid=dcf20e92-f381-494c-9040-27a039ba03ba","ios":"levelo://app?vid=dcf20e92-f381-494c-9040-27a039ba03ba"},"vehicle_type_id":"4","last_reported":1751676806,"current_range_meters":21600,"station_id":"ce4bgm92rcd13ifvqbr0","pricing_plan_id":"cebpf4jnsgd1na2vs0mg"},{"bike_id":"1aea86d0-497e-47e2-bdda-7c705b1f0042","system_id":"levelo_inurba_marseille","lat":43.29982,"lon":5.37177,"is_reserved":false,"is_disabled":false,"rental_uris":{"android":"levelo://app?vid=1aea86d0-497e-47e2-bdda-7c705b1f0042","ios":"levelo://app?vid=1aea86d0-497e-47e2-bdda-7c705b1f0042"},"vehicle_type_id":"4","last_reported":1751676806,"current_range_meters":21600,"station_id":"ce4bgr92rcd13ifvqc7g","pricing_plan_id":"cebpf4jnsgd1na2vs0mg"},{"bike_id":"e194ddfc-b316-4d9d-a0df-089715e37a17","system_id":"levelo_inurba_marseille","lat":43.30648,"lon":5.40081,"is_reserved":false,"is_disabled":false,"rental_uris":{"android":"levelo://app?vid=e194ddfc-b316-4d9d-a0df-089715e37a17","ios":"levelo://app?vid=e194ddfc-b316-4d9d-a0df-089715e37a17"},"vehicle_type_id":"4","last_reported":1751676806,"current_range_meters":21600,"station_id":"ce4bh112rcd13ifvqda0","pricing_plan_id":"cebpf4jnsgd1na2vs0mg"},{"bike_id":"2a360dea-5ad2-42ee-b988-c6b3f55c6549","system_id":"levelo_inurba_marseille","lat":43.30788,"lon":5.38148,"is_reserved":false,"is_disabled":false,"rental_uris":{"android":"levelo://app?vid=2a360dea-5ad2-42ee-b988-c6b3f55c6549","ios":"levelo://app?vid=2a360dea-5ad2-42ee-b988-c6b3f55c6549"},"vehicle_type_id":"4","last_reported":1751676806,"current_range_meters":22000,"station_id":"ce4bgt12rcd13ifvqce0","pricing_plan_id":"cebpf4jnsgd1na2vs0mg"},{"bike_id":"ccd140e6-4e68-46e7-b000-be50bc0bf98b","system_id":"levelo_inurba_marseille","lat":43.30649,"lon":5.40098,"is_reserved":false,"is_disabled":false,"rental_uris":{"android":"levelo://app?vid=ccd140e6-4e68-46e7-b000-be50bc0bf98b","ios":"levelo://app?vid=ccd140e6-4e68-46e7-b000-be50bc0bf98b"},"vehicle_type_id":"4","last_reported":1751676806,"current_range_meters":22000,"station_id":"ce4bh112rcd13ifvqda0","pricing_plan_id":"cebpf4jnsgd1na2vs0mg"},{"bike_id":"576ade82-954f-4e11-95d3-631aaf619f93","system_id":"levelo_inurba_marseille","lat":43.28342,"lon":5.38102,"is_reserved":false,"is_disabled":false,"rental_uris":{"android":"levelo://app?vid=576ade82-954f-4e11-95d3-631aaf619f93","ios":"levelo://app?vid=576ade82-954f-4e11-95d3-631aaf619f93"},"vehicle_type_id":"4","last_reported":1751676806,"current_range_meters":22000,"station_id":"ce4bh412rcd13ifvqdr0","pricing_plan_id":"cebpf4jnsgd1na2vs0mg"},{"bike_id":"ed4e39d1-3e16-40d8-a89c-f536b7cba98a","system_id":"levelo_inurba_marseille","lat":43.29557,"lon":5.42288,"is_reserved":false,"is_disabled":false,"rental_uris":{"android":"levelo://app?vid=ed4e39d1-3e16-40d8-a89c-f536b7cba98a","ios":"levelo://app?vid=ed4e39d1-3e16-40d8-a89c-f536b7cba98a"},"vehicle_type_id":"4","last_reported":1751676806,"current_range_meters":22000,"station_id":"ce4bhph2rcd13ifvqhdg","pricing_plan_id":"cebpf4jnsgd1na2vs0mg"},{"bike_id":"1b14a3dc-f154-4a3f-8888-9663183b8127","system_id":"levelo_inurba_marseille","lat":43.2967,"lon":5.37852,"is_reserved":false,"is_disabled":false,"rental_uris":{"android":"levelo://app?vid=1b14a3dc-f154-4a3f-8888-9663183b8127","ios":"levelo://app?vid=1b14a3dc-f154-4a3f-8888-9663183b8127"},"vehicle_type_id":"4","last_reported":1751676806,"current_range_meters":22400,"station_id":"","pricing_plan_id":"cebpf4jnsgd1na2vs0mg"},{"bike_id":"c3a544d1-4f89-481c-b2c8-4668d57a9262","system_id":"levelo_inurba_marseille","lat":43.33623,"lon":5.41028,"is_reserved":false,"is_disabled":false,"rental_uris":{"android":"levelo://app?vid=c3a544d1-4f89-481c-b2c8-4668d57a9262","ios":"levelo://app?vid=c3a544d1-4f89-481c-b2c8-4668d57a9262"},"vehicle_type_id":"4","last_reported":1751676806,"current_range_meters":22400,"station_id":"ce4bhqh2rcd13ifvqhmg","pricing_plan_id":"cebpf4jnsgd1na2vs0mg"},{"bike_id":"80955d0f-8669-4c02-b90f-c6fe20790c37","system_id":"levelo_inurba_marseille","lat":43.232,"lon":5.35066,"is_reserved":false,"is_disabled":false,"rental_uris":{"android":"levelo://app?vid=80955d0f-8669-4c02-b90f-c6fe20790c37","ios":"levelo://app?vid=80955d0f-8669-4c02-b90f-c6fe20790c37"},"vehicle_type_id":"4","last_reported":1751676806,"current_range_meters":22800,"station_id":"","pricing_plan_id":"cebpf4jnsgd1na2vs0mg"},{"bike_id":"3b22f952-d0bc-4c00-8fd3-7e27b88aea23","system_id":"levelo_inurba_marseille","lat":43.29659,"lon":5.36245,"is_reserved":false,"is_disabled":false,"rental_uris":{"android":"levelo://app?vid=3b22f952-d0bc-4c00-8fd3-7e27b88aea23","ios":"levelo://app?vid=3b22f952-d0bc-4c00-8fd3-7e27b88aea23"},"vehicle_type_id":"4","last_reported":1751676806,"current_range_meters":22800,"station_id":"","pricing_plan_id":"cebpf4jnsgd1na2vs0mg"},{"bike_id":"2ae57cf6-6cc5-4c01-9ae3-8ae77dc796af","system_id":"levelo_inurba_marseille","lat":43.27912,"lon":5.3801,"is_reserved":false,"is_disabled":false,"rental_uris":{"android":"levelo://app?vid=2ae57cf6-6cc5-4c01-9ae3-8ae77dc796af","ios":"levelo://app?vid=2ae57cf6-6cc5-4c01-9ae3-8ae77dc796af"},"vehicle_type_id":"4","last_reported":1751676806,"current_range_meters":22800,"station_id":"ce4bhf92rcd13ifvqf50","pricing_plan_id":"cebpf4jnsgd1na2vs0mg"},{"bike_id":"08363369-6a09-4635-a456-5eadb185ea82","system_id":"levelo_inurba_marseille","lat":43.28161,"lon":5.42646,"is_reserved":false,"is_disabled":false,"rental_uris":{"android":"levelo://app?vid=08363369-6a09-4635-a456-5eadb185ea82","ios":"levelo://app?vid=08363369-6a09-4635-a456-5eadb185ea82"},"vehicle_type_id":"4","last_reported":1751676806,"current_range_meters":22800,"station_id":"ce4bhnh2rcd13ifvqgug","pricing_plan_id":"cebpf4jnsgd1na2vs0mg"},{"bike_id":"07bb76c0-435b-4961-b98f-0e9ceec79dd6","system_id":"levelo_inurba_marseille","lat":43.28719,"lon":5.39982,"is_reserved":false,"is_disabled":false,"rental_uris":{"android":"levelo://app?vid=07bb76c0-435b-4961-b98f-0e9ceec79dd6","ios":"levelo://app?vid=07bb76c0-435b-4961-b98f-0e9ceec79dd6"},"vehicle_type_id":"4","last_reported":1751676806,"current_range_meters":22800,"station_id":"ce4bho92rcd13ifvqh3g","pricing_plan_id":"cebpf4jnsgd1na2vs0mg"},{"bike_id":"d1f9d37d-b429-4583-912e-805cf3889e65","system_id":"levelo_inurba_marseille","lat":43.23195,"lon":5.35565,"is_reserved":false,"is_disabled":false,"rental_uris":{"android":"levelo://app?vid=d1f9d37d-b429-4583-912e-805cf3889e65","ios":"levelo://app?vid=d1f9d37d-b429-4583-912e-805cf3889e65"},