{"last_updated":1743401702,"ttl":60,"version":"2.2","data":{"bikes":[{"bike_id":"7a16227c-8b85-46e8-a87c-8349c4711248","system_id":"levelo_inurba_marseille","lat":43.28127,"lon":5.44595,"is_reserved":false,"is_disabled":false,"rental_uris":{"android":"levelo://app?vid=7a16227c-8b85-46e8-a87c-8349c4711248","ios":"levelo://app?vid=7a16227c-8b85-46e8-a87c-8349c4711248"},"vehicle_type_id":"4","last_reported":1743401702,"current_range_meters":2800,"station_id":"","pricing_plan_id":"cebpf4jnsgd1na2vs0mg"},{"bike_id":"d00276f4-afbb-4459-a27f-44d7a1ca5c03","system_id":"levelo_inurba_marseille","lat":43.29571,"lon":5.37513,"is_reserved":false,"is_disabled":false,"rental_uris":{"android":"levelo://app?vid=d00276f4-afbb-4459-a27f-44d7a1ca5c03","ios":"levelo://app?vid=d00276f4-afbb-4459-a27f-44d7a1ca5c03"},"vehicle_type_id":"4","last_reported":1743401702,"current_range_meters":2800,"station_id":"ce4bgh92rcd13ifvqb50","pricing_plan_id":"cebpf4jnsgd1na2vs0mg"},{"bike_id":"a60a23d0-e5c4-4181-839a-2413f9dbf071","system_id":"levelo_inurba_marseille","lat":43.30451,"lon":5.3792,"is_reserved":false,"is_disabled":false,"rental_uris":{"android":"levelo://app?vid=a60a23d0-e5c4-4181-839a-2413f9dbf071","ios":"levelo://app?vid=a60a23d0-e5c4-4181-839a-2413f9dbf071"},"vehicle_type_id":"4","last_reported":1743401702,"current_range_meters":2800,"station_id":"ce4bgup2rcd13ifvqcn0","pricing_plan_id":"cebpf4jnsgd1na2vs0mg"},{"bike_id":"f5d9b6dc-40ed-4f47-b356-0a9bf2dc774a","system_id":"levelo_inurba_marseille","lat":43.27499,"lon":5.42464,"is_reserved":false,"is_disabled":false,"rental_uris":{"android":"levelo://app?vid=f5d9b6dc-40ed-4f47-b356-0a9bf2dc774a","ios":"levelo://app?vid=f5d9b6dc-40ed-4f47-b356-0a9bf2dc774a"},"vehicle_type_id":"4","last_reported":1743401702,"current_range_meters":2800,"station_id":"ce4bhn92rcd13ifvqgrg","pricing_plan_id":"cebpf4jnsgd1na2vs0mg"},{"bike_id":"e759c1cd-10ca-41fe-b87d-424a3b6afe31","system_id":"levelo_inurba_marseille","lat":43.336038,"lon":5.410348,"is_reserved":false,"is_disabled":false,"rental_uris":{"android":"levelo://app?vid=e759c1cd-10ca-41fe-b87d-424a3b6afe31","ios":"levelo://app?vid=e759c1cd-10ca-41fe-b87d-424a3b6afe31"},"vehicle_type_id":"4","last_reported":1743401702,"current_range_meters":2800,"station_id":"ce4bhqh2rcd13ifvqhmg","pricing_plan_id":"cebpf4jnsgd1na2vs0mg"},{"bike_id":"62811a8c-a5ee-4b0e-992d-ff97db10838b","system_id":"levelo_inurba_marseille","lat":43.30157,"lon":5.38093,"is_reserved":false,"is_disabled":false,"rental_uris":{"android":"levelo://app?vid=62811a8c-a5ee-4b0e-992d-ff97db10838b","ios":"levelo://app?vid=62811a8c-a5ee-4b0e-992d-ff97db10838b"},"vehicle_type_id":"4","last_reported":1743401702,"current_range_meters":2800,"station_id":"ce4bgjp2rcd13ifvqbh0","pricing_plan_id":"cebpf4jnsgd1na2vs0mg"},{"bike_id":"057cc4a5-4cda-45d7-8ec0-e79a8ddef5a5","system_id":"levelo_inurba_marseille","lat":43.29421,"lon":5.38619,"is_reserved":false,"is_disabled":false,"rental_uris":{"android":"levelo://app?vid=057cc4a5-4cda-45d7-8ec0-e79a8ddef5a5","ios":"levelo://app?vid=057cc4a5-4cda-45d7-8ec0-e79a8ddef5a5"},"vehicle_type_id":"4","last_reported":1743401702,"current_range_meters":3200,"station_id":"ce4bh2h2rcd13ifvqdh0","pricing_plan_id":"cebpf4jnsgd1na2vs0mg"},{"bike_id":"61840e18-5848-43ad-b38b-4fe246865ad0","system_id":"levelo_inurba_marseille","lat":43.305635,"lon":5.376215,"is_reserved":false,"is_disabled":true,"rental_uris":{"android":"levelo://app?vid=61840e18-5848-43ad-b38b-4fe246865ad0","ios":"levelo://app?vid=61840e18-5848-43ad-b38b-4fe246865ad0"},"vehicle_type_id":"4","last_reported":1743401702,"current_range_meters":3200,"station_id":"","pricing_plan_id":"cebpf4jnsgd1na2vs0mg"},{"bike_id":"e4023b76-3b3e-4e0a-83d8-f1f2c86a9a1a","system_id":"levelo_inurba_marseille","lat":43.25065,"lon":5.3953,"is_reserved":false,"is_disabled":false,"rental_uris":{"android":"levelo://app?vid=e4023b76-3b3e-4e0a-83d8-f1f2c86a9a1a","ios":"levelo://app?vid=e4023b76-3b3e-4e0a-83d8-f1f2c86a9a1a"},"vehicle_type_id":"4","last_reported":1743401702,"current_range_meters":3200,"station_id":"ce4bhm12rcd13ifvqgkg","pricing_plan_id":"cebpf4jnsgd1na2vs0mg"},{"bike_id":"4ac85f9e-5b07-4e93-b0ae-477825bffb27","system_id":"levelo_inurba_marseille","lat":43.23191,"lon":5.3557,"is_reserved":false,"is_disabled":false,"rental_uris":{"android":"levelo://app?vid=4ac85f9e-5b07-4e93-b0ae-477825bffb27","ios":"levelo://app?vid=4ac85f9e-5b07-4e93-b0ae-477825bffb27"},"vehicle_type_id":"4","last_reported":1743401702,"current_range_meters":3200,"station_id":"ce4bgvp2rcd13ifvqcu0","pricing_plan_id":"cebpf4jnsgd1na2vs0mg"},{"bike_id":"5a3307a6-54ca-44bc-a5fd-ab80751e6464","system_id":"levelo_inurba_marseille","lat":43.23189,"lon":5.39989,"is_reserved":false,"is_disabled":false,"rental_uris":{"android":"levelo://app?vid=5a3307a6-54ca-44bc-a5fd-ab80751e6464","ios":"levelo://app?vid=5a3307a6-54ca-44bc-a5fd-ab80751e6464"},"vehicle_type_id":"4","last_reported":1743401702,"current_range_meters":3200,"station_id":"ce4bhn12rcd13ifvqgqg","pricing_plan_id":"cebpf4jnsgd1na2vs0mg"},{"bike_id":"ea786065-4ef5-493c-9091-ea4c0c30465b","system_id":"levelo_inurba_marseille","lat":43.24169,"lon":5.36406,"is_reserved":false,"is_disabled":false,"rental_uris":{"android":"levelo://app?vid=ea786065-4ef5-493c-9091-ea4c0c30465b","ios":"levelo://app?vid=ea786065-4ef5-493c-9091-ea4c0c30465b"},"vehicle_type_id":"4","last_reported":1743401702,"current_range_meters":3600,"station_id":"cpo36qri1sfpv3e86is0","pricing_plan_id":"cebpf4jnsgd1na2vs0mg"},{"bike_id":"e8fbdffc-3afa-4fb0-b0f2-014bfcb8ce0a","system_id":"levelo_inurba_marseille","lat":43.30145,"lon":5.38075,"is_reserved":false,"is_disabled":false,"rental_uris":{"android":"levelo://app?vid=e8fbdffc-3afa-4fb0-b0f2-014bfcb8ce0a","ios":"levelo://app?vid=e8fbdffc-3afa-4fb0-b0f2-014bfcb8ce0a"},"vehicle_type_id":"4","last_reported":1743401702,"current_range_meters":4000,"station_id":"ce4bgjp2rcd13ifvqbh0","pricing_plan_id":"cebpf4jnsgd1na2vs0mg"},{"bike_id":"861fba4a-9c12-463c-8a39-b4a694ea5d40","system_id":"levelo_inurba_marseille","lat":43.23955,"lon":5.36636,"is_reserved":false,"is_disabled":true,"rental_uris":{"android":"levelo://app?vid=861fba4a-9c12-463c-8a39-b4a694ea5d40","ios":"levelo://app?vid=861fba4a-9c12-463c-8a39-b4a694ea5d40"},"vehicle_type_id":"4","last_reported":1743401702,"current_range_meters":4000,"station_id":"ce4bhi12rcd13ifvqfp0","pricing_plan_id":"cebpf4jnsgd1na2vs0mg"},{"bike_id":"24480682-2d35-4ed7-8f68-0df7ba3f1023","system_id":"levelo_inurba_marseille","lat":43.2872,"lon":5.36084,"is_reserved":false,"is_disabled":false,"rental_uris":{"android":"levelo://app?vid=24480682-2d35-4ed7-8f68-0df7ba3f1023","ios":"levelo://app?vid=24480682-2d35-4ed7-8f68-0df7ba3f1023"},"vehicle_type_id":"4","last_reported":1743401702,"current_range_meters":3600,"station_id":"cki0cbj6b192h4jlfktg","pricing_plan_id":"cebpf4jnsgd1na2vs0mg"},{"bike_id":"67d6fc48-472c-44c1-85e1-a2145f2244ca","system_id":"levelo_inurba_marseille","lat":43.308935,"lon":5.36858,"is_reserved":false,"is_disabled":true,"rental_uris":{"android":"levelo://app?vid=67d6fc48-472c-44c1-85e1-a2145f2244ca","ios":"levelo://app?vid=67d6fc48-472c-44c1-85e1-a2145f2244ca"},"vehicle_type_id":"4","last_reported":1743401702,"current_range_meters":4000,"station_id":"ce4bgn92rcd13ifvqbvg","pricing_plan_id":"cebpf4jnsgd1na2vs0mg"},{"bike_id":"9b3cf3a4-c643-441c-8b76-e73b626d45f7","system_id":"levelo_inurba_marseille","lat":43.2572,"lon":5.41115,"is_reserved":false,"is_disabled":false,"rental_uris":{"android":"levelo://app?vid=9b3cf3a4-c643-441c-8b76-e73b626d45f7","ios":"levelo://app?vid=9b3cf3a4-c643-441c-8b76-e73b626d45f7"},"vehicle_type_id":"4","last_reported":1743401702,"current_range_meters":4000,"station_id":"ce4bhkp2rcd13ifvqgd0","pricing_plan_id":"cebpf4jnsgd1na2vs0mg"},{"bike_id":"0495aac0-4dc9-4278-bcb6-7440702196aa","system_id":"levelo_inurba_marseille","lat":43.241934,"lon":5.397401,"is_reserved":false,"is_disabled":false,"rental_uris":{"android":"levelo://app?vid=0495aac0-4dc9-4278-bcb6-7440702196aa","ios":"levelo://app?vid=0495aac0-4dc9-4278-bcb6-7440702196aa"},"vehicle_type_id":"4","last_reported":1743401702,"current_range_meters":4400,"station_id":"ce4bhn12rcd13ifvqgpg","pricing_plan_id":"cebpf4jnsgd1na2vs0mg"},{"bike_id":"6cd77871-a806-4d89-8ff7-2542d1b32e6b","system_id":"levelo_inurba_marseille","lat":43.3012,"lon":5.38785,"is_reserved":false,"is_disabled":false,"rental_uris":{"android":"levelo://app?vid=6cd77871-a806-4d89-8ff7-2542d1b32e6b","ios":"levelo://app?vid=6cd77871-a806-4d89-8ff7-2542d1b32e6b"},"vehicle_type_id":"4","last_reported":1743401702,"current_range_meters":4400,"station_id":"ce4bghh2rcd13ifvqb60","pricing_plan_id":"cebpf4jnsgd1na2vs0mg"},{"bike_id":"742d7d59-c8af-4899-b29b-4b9694416a08","system_id":"levelo_inurba_marseille","lat":43.30593,"lon":5.39359,"is_reserved":false,"is_disabled":false,"rental_uris":{"android":"levelo://app?vid=742d7d59-c8af-4899-b29b-4b9694416a08","ios":"levelo://app?vid=742d7d59-c8af-4899-b29b-4b9694416a08"},"vehicle_type_id":"4","last_reported":1743401702,"current_range_meters":4800,"station_id":"ce4bh0p2rcd13ifvqd80","pricing_plan_id":"cebpf4jnsgd1na2vs0mg"},{"bike_id":"96ac20e8-5840-4579-b371-184ec6253952","system_id":"levelo_inurba_marseille","lat":43.27495,"lon":5.41139,"is_reserved":false,"is_disabled":false,"rental_uris":{"android":"levelo://app?vid=96ac20e8-5840-4579-b371-184ec6253952","ios":"levelo://app?vid=96ac20e8-5840-4579-b371-184ec6253952"},"vehicle_type_id":"4","last_reported":1743401702,"current_range_meters":4800,"station_id":"","pricing_plan_id":"cebpf4jnsgd1na2vs0mg"},{"bike_id":"f62f38bb-09ed-4e08-88a8-f6f114fabcfa","system_id":"levelo_inurba_marseille","lat":43.30446,"lon":5.3792,"is_reserved":false,"is_disabled":false,"rental_uris":{"android":"levelo://app?vid=f62f38bb-09ed-4e08-88a8-f6f114fabcfa","ios":"levelo://app?vid=f62f38bb-09ed-4e08-88a8-f6f114fabcfa"},"vehicle_type_id":"4","last_reported":1743401702,"current_range_meters":4800,"station_id":"ce4bgup2rcd13ifvqcn0","pricing_plan_id":"cebpf4jnsgd1na2vs0mg"},{"bike_id":"2347dd45-7dbc-492b-9fef-21927ca890d6","system_id":"levelo_inurba_marseille","lat":43.24071,"lon":5.3777,"is_reserved":false,"is_disabled":false,"rental_uris":{"android":"levelo://app?vid=2347dd45-7dbc-492b-9fef-21927ca890d6","ios":"levelo://app?vid=2347dd45-7dbc-492b-9fef-21927ca890d6"},"vehicle_type_id":"4","last_reported":1743401702,"current_range_meters":4800,"station_id":"ce4bhnp2rcd13ifvqgvg","pricing_plan_id":"cebpf4jnsgd1na2vs0mg"},{"bike_id":"37f41d5f-3983-4db2-8781-c345307ed7b9","system_id":"levelo_inurba_marseille","lat":43.27498,"lon":5.42457,"is_reserved":false,"is_disabled":false,"rental_uris":{"android":"levelo://app?vid=37f41d5f-3983-4db2-8781-c345307ed7b9","ios":"levelo://app?vid=37f41d5f-3983-4db2-8781-c345307ed7b9"},"vehicle_type_id":"4","last_reported":1743401702,"current_range_meters":4800,"station_id":"ce4bhn92rcd13ifvqgrg","pricing_plan_id":"cebpf4jnsgd1na2vs0mg"},{"bike_id":"6e64440c-6411-4ed5-9186-a54f58adc7e8","system_id":"levelo_inurba_marseille","lat":43.23151,"lon":5.4373,"is_reserved":false,"is_disabled":false,"rental_uris":{"android":"levelo://app?vid=6e64440c-6411-4ed5-9186-a54f58adc7e8","ios":"levelo://app?vid=6e64440c-6411-4ed5-9186-a54f58adc7e8"},"vehicle_type_id":"4","last_reported":1743401702,"current_range_meters":4800,"station_id":"ce4bhmp2rcd13ifvqgog","pricing_plan_id":"cebpf4jnsgd1na2vs0mg"},{"bike_id":"01db6583-aad6-47ed-94e4-961be2923673","system_id":"levelo_inurba_marseille","lat":43.29254,"lon":5.38443,"is_reserved":false,"is_disabled":false,"rental_uris":{"android":"levelo://app?vid=01db6583-aad6-47ed-94e4-961be2923673","ios":"levelo://app?vid=01db6583-aad6-47ed-94e4-961be2923673"},"vehicle_type_id":"4","last_reported":1743401702,"current_range_meters":4800,"station_id":"ce4bh692rcd13ifvqea0","pricing_plan_id":"cebpf4jnsgd1na2vs0mg"},{"bike_id":"5ee45d05-30e5-4d66-b90f-3892ecf2322a","system_id":"levelo_inurba_marseille","lat":43.2903,"lon":5.35928,"is_reserved":false,"is_disabled":false,"rental_uris":{"android":"levelo://app?vid=5ee45d05-30e5-4d66-b90f-3892ecf2322a","ios":"levelo://app?vid=5ee45d05-30e5-4d66-b90f-3892ecf2322a"},"vehicle_type_id":"4","last_reported":1743401702,"current_range_meters":4400,"station_id":"ce4bha92rcd13ifvqeg0","pricing_plan_id":"cebpf4jnsgd1na2vs0mg"},{"bike_id":"104ecca6-0d4e-49a0-b422-41c326e358f4","system_id":"levelo_inurba_marseille","lat":43.28964,"lon":5.37832,"is_reserved":false,"is_disabled":false,"rental_uris":{"android":"levelo://app?vid=104ecca6-0d4e-49a0-b422-41c326e358f4","ios":"levelo://app?vid=104ecca6-0d4e-49a0-b422-41c326e358f4"},"vehicle_type_id":"4","last_reported":1743401702,"current_range_meters":4800,"station_id":"ce4bh9p2rcd13ifvqed0","pricing_plan_id":"cebpf4jnsgd1na2vs0mg"},{"bike_id":"42bc7b23-0e2f-4d72-b583-40bcdabb28c7","system_id":"levelo_inurba_marseille","lat":43.29543,"lon":5.3738,"is_reserved":false,"is_disabled":true,"rental_uris":{"android":"levelo://app?vid=42bc7b23-0e2f-4d72-b583-40bcdabb28c7","ios":"levelo://app?vid=42bc7b23-0e2f-4d72-b583-40bcdabb28c7"},"vehicle_type_id":"4","last_reported":1743401702,"current_range_meters":5600,"station_id":"","pricing_plan_id":"cebpf4jnsgd1na2vs0mg"},{"bike_id":"488767ae-a52a-41d7-8f9a-e947164469f3","system_id":"levelo_inurba_marseille","lat":43.31624,"lon":5.41652,"is_reserved":false,"is_disabled":true,"rental_uris":{"android":"levelo://app?vid=488767ae-a52a-41d7-8f9a-e947164469f3","ios":"levelo://app?vid=488767ae-a52a-41d7-8f9a-e947164469f3"},"vehicle_type_id":"4","last_reported":1743401702,"current_range_meters":5600,"station_id":"","pricing_plan_id":"cebpf4jnsgd1na2vs0mg"},{"bike_id":"ad0dcdb8-2fef-4f97-be96-f63a93e62e4f","system_id":"levelo_inurba_marseille","lat":43.324005,"lon":5.40445,"is_reserved":false,"is_disabled":false,"rental_uris":{"android":"levelo://app?vid=ad0dcdb8-2fef-4f97-be96-f63a93e62e4f","ios":"levelo://app?vid=ad0dcdb8-2fef-4f97-be96-f63a93e62e4f"},"vehicle_type_id":"4","last_reported":1743401702,"current_range_meters":5600,"station_id":"ce4bhq12rcd13ifvqhhg","pricing_plan_id":"cebpf4jnsgd1na2vs0mg"},{"bike_id":"c0bfecbc-96be-4cde-8bdd-07fcf1658ea7","system_id":"levelo_inurba_marseille","lat":43.24654,"lon":5.38161,"is_reserved":false,"is_disabled":true,"rental_uris":{"android":"levelo://app?vid=c0bfecbc-96be-4cde-8bdd-07fcf1658ea7","ios":"levelo://app?vid=c0bfecbc-96be-4cde-8bdd-07fcf1658ea7"},"vehicle_type_id":"4","last_reported":1743401702,"current_range_meters":6000,"station_id":"ce4bhih2rcd13ifvqfr0","pricing_plan_id":"cebpf4jnsgd1na2vs0mg"},{"bike_id":"6d0f48d7-ea1e-4304-aee4-6c8b712f901d","system_id":"levelo_inurba_marseille","lat":43.33609,"lon":5.41035,"is_reserved":false,"is_disabled":false,"rental_uris":{"android":"levelo://app?vid=6d0f48d7-ea1e-4304-aee4-6c8b712f901d","ios":"levelo://app?vid=6d0f48d7-ea1e-4304-aee4-6c8b712f901d"},"vehicle_type_id":"4","last_reported":1743401702,"current_range_meters":5600,"station_id":"ce4bhqh2rcd13ifvqhmg","pricing_plan_id":"cebpf4jnsgd1na2vs0mg"},{"bike_id":"25bb5fbc-8229-4010-b703-31f5ee6ac141","system_id":"levelo_inurba_marseille","lat":43.3062,"lon":5.36604,"is_reserved":false,"is_disabled":false,"rental_uris":{"android":"levelo://app?vid=25bb5fbc-8229-4010-b703-31f5ee6ac141","ios":"levelo://app?vid=25bb5fbc-8229-4010-b703-31f5ee6ac141"},"vehicle_type_id":"4","last_reported":1743401702,"current_range_meters":6000,"station_id":"","pricing_plan_id":"cebpf4jnsgd1na2vs0mg"},{"bike_id":"d0ed36b4-3c5a-4da6-8fb4-955c321dd03a","system_id":"levelo_inurba_marseille","lat":43.27516,"lon":5.41025,"is_reserved":false,"is_disabled":false,"rental_uris":{"android":"levelo://app?vid=d0ed36b4-3c5a-4da6-8fb4-955c321dd03a","ios":"levelo://app?vid=d0ed36b4-3c5a-4da6-8fb4-955c321dd03a"},"vehicle_type_id":"4","last_reported":1743401702,"current_range_meters":6000,"station_id":"","pricing_plan_id":"cebpf4jnsgd1na2vs0mg"},{"bike_id":"4a828261-0526-4091-b3bb-177ad003bab5","system_id":"levelo_inurba_marseille","lat":43.24079,"lon":5.37755,"is_reserved":false,"is_disabled":false,"rental_uris":{"android":"levelo://app?vid=4a828261-0526-4091-b3bb-177ad003bab5","ios":"levelo://app?vid=4a828261-0526-4091-b3bb-177ad003bab5"},"vehicle_type_id":"4","last_reported":1743401702,"current_range_meters":6000,"station_id":"ce4bhnp2rcd13ifvqgvg","pricing_plan_id":"cebpf4jnsgd1na2vs0mg"},{"bike_id":"0bd05e5a-21c4-4c5d-8e58-f818e6cbd2b3","system_id":"levelo_inurba_marseille","lat":43.30897,"lon":5.39617,"is_reserved":false,"is_disabled":false,"rental_uris":{"android":"levelo://app?vid=0bd05e5a-21c4-4c5d-8e58-f818e6cbd2b3","ios":"levelo://app?vid=0bd05e5a-21c4-4c5d-8e58-f818e6cbd2b3"},"vehicle_type_id":"4","last_reported":1743401702,"current_range_meters":6000,"station_id":"ce4bh012rcd13ifvqcv0","pricing_plan_id":"cebpf4jnsgd1na2vs0mg"},{"bike_id":"bd941b2d-2cb5-472c-998b-f4462c0a8cac","system_id":"levelo_inurba_marseille","lat":43.27948,"lon":5.41041,"is_reserved":false,"is_disabled":false,"rental_uris":{"android":"levelo://app?vid=bd941b2d-2cb5-472c-998b-f4462c0a8cac","ios":"levelo://app?vid=bd941b2d-2cb5-472c-998b-f4462c0a8cac"},"vehicle_type_id":"4","last_reported":1743401702,"current_range_meters":6000,"station_id":"ce4bhnp2rcd13ifvqh0g","pricing_plan_id":"cebpf4jnsgd1na2vs0mg"},{"bike_id":"4ff75fb6-ae18-429a-9cb6-4281af37ec13","system_id":"levelo_inurba_marseille","lat":43.24078,"lon":5.37751,"is_reserved":false,"is_disabled":false,"rental_uris":{"android":"levelo://app?vid=4ff75fb6-ae18-429a-9cb6-4281af37ec13","ios":"levelo://app?vid=4ff75fb6-ae18-429a-9cb6-4281af37ec13"},"vehicle_type_id":"4","last_reported":1743401702,"current_range_meters":6000,"station_id":"ce4bhnp2rcd13ifvqgvg","pricing_plan_id":"cebpf4jnsgd1na2vs0mg"},{"bike_id":"bdbdce4c-5fff-4c79-8b19-028954e4b665","system_id":"levelo_inurba_marseille","lat":43.28402,"lon":5.3752,"is_reserved":false,"is_disabled":false,"rental_uris":{"android":"levelo://app?vid=bdbdce4c-5fff-4c79-8b19-028954e4b665","ios":"levelo://app?vid=bdbdce4c-5fff-4c79-8b19-028954e4b665"},"vehicle_type_id":"4","last_reported":1743401702,"current_range_meters":6000,"station_id":"ce4bh412rcd13ifvqds0","pricing_plan_id":"cebpf4jnsgd1na2vs0mg"},{"bike_id":"61cda3d4-bbe6-4e8d-8503-496921292cd7","system_id":"levelo_inurba_marseille","lat":43.2407,"lon":5.37767,"is_reserved":false,"is_disabled":false,"rental_uris":{"android":"levelo://app?vid=61cda3d4-bbe6-4e8d-8503-496921292cd7","ios":"levelo://app?vid=61cda3d4-bbe6-4e8d-8503-496921292cd7"},"vehicle_type_id":"4","last_reported":1743401702,"current_range_meters":6000,"station_id":"ce4bhnp2rcd13ifvqgvg","pricing_plan_id":"cebpf4jnsgd1na2vs0mg"},{"bike_id":"d30569fb-0935-4b72-9c30-dd645a8607ea","system_id":"levelo_inurba_marseille","lat":43.28429,"lon":5.3499,"is_reserved":false,"is_disabled":true,"rental_uris":{"android":"levelo://app?vid=d30569fb-0935-4b72-9c30-dd645a8607ea","ios":"levelo://app?vid=d30569fb-0935-4b72-9c30-dd645a8607ea"},"vehicle_type_id":"4","last_reported":1743401702,"current_range_meters":6400,"station_id":"ce4bhbh2rcd13ifvqepg","pricing_plan_id":"cebpf4jnsgd1na2vs0mg"},{"bike_id":"254b29f2-8063-4111-9e25-bf39d3a2fee9","system_id":"levelo_inurba_marseille","lat":43.302206,"lon":5.39462,"is_reserved":false,"is_disabled":false,"rental_uris":{"android":"levelo://app?vid=254b29f2-8063-4111-9e25-bf39d3a2fee9","ios":"levelo://app?vid=254b29f2-8063-4111-9e25-bf39d3a2fee9"},"vehicle_type_id":"4","last_reported":1743401702,"current_range_meters":6400,"station_id":"ce4bh0p2rcd13ifvqd70","pricing_plan_id":"cebpf4jnsgd1na2vs0mg"},{"bike_id":"f1f937ef-3e56-40c0-91fd-d5a532c01480","system_id":"levelo_inurba_marseille","lat":43.246648,"lon":5.381638,"is_reserved":false,"is_disabled":true,"rental_uris":{"android":"levelo://app?vid=f1f937ef-3e56-40c0-91fd-d5a532c01480","ios":"levelo://app?vid=f1f937ef-3e56-40c0-91fd-d5a532c01480"},"vehicle_type_id":"4","last_reported":1743401702,"current_range_meters":6400,"station_id":"ce4bhih2rcd13ifvqfr0","pricing_plan_id":"cebpf4jnsgd1na2vs0mg"},{"bike_id":"6a19d630-bf6c-4c8a-be64-a4b6492e3489","system_id":"levelo_inurba_marseille","lat":43.31112,"lon":5.37751,"is_reserved":false,"is_disabled":false,"rental_uris":{"android":"levelo://app?vid=6a19d630-bf6c-4c8a-be64-a4b6492e3489","ios":"levelo://app?vid=6a19d630-bf6c-4c8a-be64-a4b6492e3489"},"vehicle_type_id":"4","last_reported":1743401702,"current_range_meters":6400,"station_id":"ce4bgt92rcd13ifvqcg0","pricing_plan_id":"cebpf4jnsgd1na2vs0mg"},{"bike_id":"3d559752-4124-4304-bce2-0b863e5a6dbe","system_id":"levelo_inurba_marseille","lat":43.25731,"lon":5.41115,"is_reserved":false,"is_disabled":false,"rental_uris":{"android":"levelo://app?vid=3d559752-4124-4304-bce2-0b863e5a6dbe","ios":"levelo://app?vid=3d559752-4124-4304-bce2-0b863e5a6dbe"},"vehicle_type_id":"4","last_reported":1743401702,"current_range_meters":6400,"station_id":"ce4bhkp2rcd13ifvqgd0","pricing_plan_id":"cebpf4jnsgd1na2vs0mg"},{"bike_id":"1a19be2c-4d6f-4c17-93ea-16abc221547c","system_id":"levelo_inurba_marseille","lat":43.28685,"lon":5.37944,"is_reserved":false,"is_disabled":false,"rental_uris":{"android":"levelo://app?vid=1a19be2c-4d6f-4c17-93ea-16abc221547c","ios":"levelo://app?vid=1a19be2c-4d6f-4c17-93ea-16abc221547c"},"vehicle_type_id":"4","last_reported":1743401702,"current_range_meters":6400,"station_id":"ce4bh9p2rcd13ifvqec0","pricing_plan_id":"cebpf4jnsgd1na2vs0mg"},{"bike_id":"e45166a3-4762-4116-9430-ad02bde6089e","system_id":"levelo_inurba_marseille","lat":43.2906,"lon":5.38138,"is_reserved":false,"is_disabled":false,"rental_uris":{"android":"levelo://app?vid=e45166a3-4762-4116-9430-ad02bde6089e","ios":"levelo://app?vid=e45166a3-4762-4116-9430-ad02bde6089e"},"vehicle_type_id":"4","last_reported":1743401702,"current_range_meters":6400,"station_id":"ce4bh512rcd13ifvqe2g","pricing_plan_id":"cebpf4jnsgd1na2vs0mg"},{"bike_id":"fa6588f5-e5b9-406b-aa16-03ce59b20836","system_id":"levelo_inurba_marseille","lat":43.27838,"lon":5.39213,"is_reserved":false,"is_disabled":false,"rental_uris":{"android":"levelo://app?vid=fa6588f5-e5b9-406b-aa16-03ce59b20836","ios":"levelo://app?vid=fa6588f5-e5b9-406b-aa16-03ce59b20836"},"vehicle_type_id":"4","last_reported":1743401702,"current_range_meters":6800,"station_id":"ce4bhjp2rcd13ifvqga0","pricing_plan_id":"cebpf4jnsgd1na2vs0mg"},{"bike_id":"6c649787-1fb1-48d1-a8fc-6081cbc7958a","system_id":"levelo_inurba_marseille","lat":43.31118,"lon":5.37779,"is_reserved":false,"is_disabled":false,"rental_uris":{"android":"levelo://app?vid=6c649787-1fb1-48d1-a8fc-6081cbc7958a","ios":"levelo://app?vid=6c649787-1fb1-48d1-a8fc-6081cbc7958a"},"vehicle_type_id":"4","last_reported":1743401702,"current_range_meters":6800,"station_id":"ce4bgt92rcd13ifvqcg0","pricing_plan_id":"cebpf4jnsgd1na2vs0mg"},{"bike_id":"f43cccf4-7cd2-4fa6-9fbb-fb74d7164516","system_id":"levelo_inurba_marseille","lat":43.24071,"lon":5.37762,"is_reserved":false,"is_disabled":false,"rental_uris":{"android":"levelo://app?vid=f43cccf4-7cd2-4fa6-9fbb-fb74d7164516","ios":"levelo://app?vid=f43cccf4-7cd2-4fa6-9fbb-fb74d7164516"},"vehicle_type_id":"4","last_reported":1743401702,"current_range_meters":6800,"station_id":"ce4bhnp2rcd13ifvqgvg","pricing_plan_id":"cebpf4jnsgd1na2vs0mg"},{"bike_id":"5e71dd55-0f7d-421a-9d46-87de1612b0c6","system_id":"levelo_inurba_marseille","lat":43.28451,"lon":5.38605,"is_reserved":false,"is_disabled":false,"rental_uris":{"android":"levelo://app?vid=5e71dd55-0f7d-421a-9d46-87de1612b0c6","ios":"levelo://app?vid=5e71dd55-0f7d-421a-9d46-87de1612b0c6"},"vehicle_type_id":"4","last_reported":1743401702,"current_range_meters":6800,"station_id":"ce4bh8p2rcd13ifvqeb0","pricing_plan_id":"cebpf4jnsgd1na2vs0mg"},{"bike_id":"73484ef5-38ac-45ee-8637-95752d42965e","system_id":"levelo_inurba_marseille","lat":43.30976,"lon":5.38027,"is_reserved":false,"is_disabled":true,"rental_uris":{"android":"levelo://app?vid=73484ef5-38ac-45ee-8637-95752d42965e","ios":"levelo://app?vid=73484ef5-38ac-45ee-8637-95752d42965e"},"vehicle_type_id":"4","last_reported":1743401702,"current_range_meters":6800,"station_id":"","pricing_plan_id":"cebpf4jnsgd1na2vs0mg"},{"bike_id":"d2464740-db85-4794-a0dc-559f8c565e31","system_id":"levelo_inurba_marseille","lat":43.303229,"lon":5.368979,"is_reserved":false,"is_disabled":false,"rental_uris":{"android":"levelo://app?vid=d2464740-db85-4794-a0dc-559f8c565e31","ios":"levelo://app?vid=d2464740-db85-4794-a0dc-559f8c565e31"},"vehicle_type_id":"4","last_reported":1743401702,"current_range_meters":6800,"station_id":"ce4bgqh2rcd13ifvqc5g","pricing_plan_id":"cebpf4jnsgd1na2vs0mg"},{"bike_id":"81ca7ad4-111c-41a1-8523-4f9c68c95487","system_id":"levelo_inurba_marseille","lat":43.27945,"lon":5.41037,"is_reserved":false,"is_disabled":false,"rental_uris":{"android":"levelo://app?vid=81ca7ad4-111c-41a1-8523-4f9c68c95487","ios":"levelo://app?vid=81ca7ad4-111c-41a1-8523-4f9c68c95487"},"vehicle_type_id":"4","last_reported":1743401702,"current_range_meters":6800,"station_id":"ce4bhnp2rcd13ifvqh0g","pricing_plan_id":"cebpf4jnsgd1na2vs0mg"},{"bike_id":"b1a1d008-a51b-4530-81c0-a11010b0e67b","system_id":"levelo_inurba_marseille","lat":43.28144,"lon":5.42657,"is_reserved":false,"is_disabled":false,"rental_uris":{"android":"levelo://app?vid=b1a1d008-a51b-4530-81c0-a11010b0e67b","ios":"levelo://app?vid=b1a1d008-a51b-4530-81c0-a11010b0e67b"},"vehicle_type_id":"4","last_reported":1743401702,"current_range_meters":6800,"station_id":"ce4bhnh2rcd13ifvqgug","pricing_plan_id":"cebpf4jnsgd1na2vs0mg"},{"bike_id":"bc1ef0c2-17d8-427e-a10c-9b9658a85853","system_id":"levelo_inurba_marseille","lat":43.24176,"lon":5.3972,"is_reserved":false,"is_disabled":true,"rental_uris":{"android":"levelo://app?vid=bc1ef0c2-17d8-427e-a10c-9b9658a85853","ios":"levelo://app?vid=bc1ef0c2-17d8-427e-a10c-9b9658a85853"},"vehicle_type_id":"4","last_reported":1743401702,"current_range_meters":6800,"station_id":"ce4bhn12rcd13ifvqgpg","pricing_plan_id":"cebpf4jnsgd1na2vs0mg"},{"bike_id":"1b17f50c-9f8e-4b44-a931-69e661a1b05b","system_id":"levelo_inurba_marseille","lat":43.24651,"lon":5.38182,"is_reserved":false,"is_disabled":false,"rental_uris":{"android":"levelo://app?vid=1b17f50c-9f8e-4b44-a931-69e661a1b05b","ios":"levelo://app?vid=1b17f50c-9f8e-4b44-a931-69e661a1b05b"},"vehicle_type_id":"4","last_reported":1743401702,"current_range_meters":6800,"station_id":"ce4bhih2rcd13ifvqfr0","pricing_plan_id":"cebpf4jnsgd1na2vs0mg"},{"bike_id":"93b55f3d-b1dd-4f3f-b1f6-f78029e736da","system_id":"levelo_inurba_marseille","lat":43.23149,"lon":5.4371,"is_reserved":false,"is_disabled":false,"rental_uris":{"android":"levelo://app?vid=93b55f3d-b1dd-4f3f-b1f6-f78029e736da","ios":"levelo://app?vid=93b55f3d-b1dd-4f3f-b1f6-f78029e736da"},"vehicle_type_id":"4","last_reported":1743401702,"current_range_meters":7200,"station_id":"ce4bhmp2rcd13ifvqgog","pricing_plan_id":"cebpf4jnsgd1na2vs0mg"},{"bike_id":"76d4ed16-8625-4a14-a5f1-d28ac2574c13","system_id":"levelo_inurba_marseille","lat":43.245438,"lon":5.395349,"is_reserved":false,"is_disabled":false,"rental_uris":{"android":"levelo://app?vid=76d4ed16-8625-4a14-a5f1-d28ac2574c13","ios":"levelo://app?vid=76d4ed16-8625-4a14-a5f1-d28ac2574c13"},"vehicle_type_id":"4","last_reported":1743401702,"current_range_meters":7200,"station_id":"ce4bhlp2rcd13ifvqgjg","pricing_plan_id":"cebpf4jnsgd1na2vs0mg"},{"bike_id":"6abfcf76-b46b-48ec-9741-222295465860","system_id":"levelo_inurba_marseille","lat":43.28607,"lon":5.37069,"is_reserved":false,"is_disabled":false,"rental_uris":{"android":"levelo://app?vid=6abfcf76-b46b-48ec-9741-222295465860","ios":"levelo://app?vid=6abfcf76-b46b-48ec-9741-222295465860"},"vehicle_type_id":"4","last_reported":1743401702,"current_range_meters":7200,"station_id":"ce4bh312rcd13ifvqdj0","pricing_plan_id":"cebpf4jnsgd1na2vs0mg"},{"bike_id":"bc42f48d-0edb-4b81-a823-274e5dc8d60a","system_id":"levelo_inurba_marseille","lat":43.30335,"lon":5.36901,"is_reserved":false,"is_disabled":false,"rental_uris":{"android":"levelo://app?vid=bc42f48d-0edb-4b81-a823-274e5dc8d60a","ios":"levelo://app?vid=bc42f48d-0edb-4b81-a823-274e5dc8d60a"},"vehicle_type_id":"4","last_reported":1743401702,"current_range_meters":7200,"station_id":"ce4bgqh2rcd13ifvqc5g","pricing_plan_id":"cebpf4jnsgd1na2vs0mg"},{"bike_id":"d9099e9a-b19d-4175-a73e-dd7958ed92e0","system_id":"levelo_inurba_marseille","lat":43.23028,"lon":5.35517,"is_reserved":false,"is_disabled":true,"rental_uris":{"android":"levelo://app?vid=d9099e9a-b19d-4175-a73e-dd7958ed92e0","ios":"levelo://app?vid=d9099e9a-b19d-4175-a73e-dd7958ed92e0"},"vehicle_type_id":"4","last_reported":1743401702,"current_range_meters":7200,"station_id":"cpo3342slgdg3j2ifvpg","pricing_plan_id":"cebpf4jnsgd1na2vs0mg"},{"bike_id":"fb5a3640-c2bd-4d5a-a532-631ac7449c3d","system_id":"levelo_inurba_marseille","lat":43.280059,"lon":5.409415,"is_reserved":false,"is_disabled":false,"rental_uris":{"android":"levelo://app?vid=fb5a3640-c2bd-4d5a-a532-631ac7449c3d","ios":"levelo://app?vid=fb5a3640-c2bd-4d5a-a532-631ac7449c3d"},"vehicle_type_id":"4","last_reported":1743401702,"current_range_meters":7200,"station_id":"","pricing_plan_id":"cebpf4jnsgd1na2vs0mg"},{"bike_id":"58b0568a-48e5-4179-b78a-d3736dae92a8","system_id":"levelo_inurba_marseille","lat":43.28943,"lon":5.36408,"is_reserved":false,"is_disabled":false,"rental_uris":{"android":"levelo://app?vid=58b0568a-48e5-4179-b78a-d3736dae92a8","ios":"levelo://app?vid=58b0568a-48e5-4179-b78a-d3736dae92a8"},"vehicle_type_id":"4","last_reported":1743401702,"current_range_meters":7200,"station_id":"ce4bhc92rcd13ifvqetg","pricing_plan_id":"cebpf4jnsgd1na2vs0mg"},{"bike_id":"b61e2401-2046-4dea-b84a-4f3e3f75d8e8","system_id":"levelo_inurba_marseille","lat":43.30544,"lon":5.36717,"is_reserved":false,"is_disabled":false,"rental_uris":{"android":"levelo://app?vid=b61e2401-2046-4dea-b84a-4f3e3f75d8e8","ios":"levelo://app?vid=b61e2401-2046-4dea-b84a-4f3e3f75d8e8"},"vehicle_type_id":"4","last_reported":1743401702,"current_range_meters":7200,"station_id":"ce4bgrp2rcd13ifvqc9g","pricing_plan_id":"cebpf4jnsgd1na2vs0mg"},{"bike_id":"10be55ad-590c-4227-b472-0752bc1afa5b","system_id":"levelo_inurba_marseille","lat":43.23154,"lon":5.43709,"is_reserved":false,"is_disabled":false,"rental_uris":{"android":"levelo://app?vid=10be55ad-590c-4227-b472-0752bc1afa5b","ios":"levelo://app?vid=10be55ad-590c-4227-b472-0752bc1afa5b"},"vehicle_type_id":"4","last_reported":1743401702,"current_range_meters":8000,"station_id":"ce4bhmp2rcd13ifvqgog","pricing_plan_id":"cebpf4jnsgd1na2vs0mg"},{"bike_id":"b488bae0-9841-46b6-bbf9-cd9aaca48bd8","system_id":"levelo_inurba_marseille","lat":43.29037,"lon":5.39977,"is_reserved":false,"is_disabled":false,"rental_uris":{"android":"levelo://app?vid=b488bae0-9841-46b6-bbf9-cd9aaca48bd8","ios":"levelo://app?vid=b488bae0-9841-46b6-bbf9-cd9aaca48bd8"},"vehicle_type_id":"4","last_reported":1743401702,"current_range_meters":8000,"station_id":"ce4bh392rcd13ifvqdm0","pricing_plan_id":"cebpf4jnsgd1na2vs0mg"},{"bike_id":"82d8e203-da64-466b-9b1d-e9f0a9bfebfe","system_id":"levelo_inurba_marseille","lat":43.32551,"lon":5.41461,"is_reserved":false,"is_disabled":true,"rental_uris":{"android":"levelo://app?vid=82d8e203-da64-466b-9b1d-e9f0a9bfebfe","ios":"levelo://app?vid=82d8e203-da64-466b-9b1d-e9f0a9bfebfe"},"vehicle_type_id":"4","last_reported":1743401702,"current_range_meters":8000,"station_id":"ce4bhq12rcd13ifvqhhg","pricing_plan_id":"cebpf4jnsgd1na2vs0mg"},{"bike_id":"8ad5a0e6-2e1d-4620-98e5-d82ff1bb3227","system_id":"levelo_inurba_marseille","lat":43.24554,"lon":5.39526,"is_reserved":false,"is_disabled":false,"rental_uris":{"android":"levelo://app?vid=8ad5a0e6-2e1d-4620-98e5-d82ff1bb3227","ios":"levelo://app?vid=8ad5a0e6-2e1d-4620-98e5-d82ff1bb3227"},"vehicle_type_id":"4","last_reported":1743401702,"current_range_meters":8000,"station_id":"ce4bhlp2rcd13ifvqgjg","pricing_plan_id":"cebpf4jnsgd1na2vs0mg"},{"bike_id":"d5efc671-9d8e-41d5-82ad-388881f97c21","system_id":"levelo_inurba_marseille","lat":43.24074,"lon":5.37751,"is_reserved":false,"is_disabled":false,"rental_uris":{"android":"levelo://app?vid=d5efc671-9d8e-41d5-82ad-388881f97c21","ios":"levelo://app?vid=d5efc671-9d8e-41d5-82ad-388881f97c21"},"vehicle_type_id":"4","last_reported":1743401702,"current_range_meters":8000,"station_id":"ce4bhnp2rcd13ifvqgvg","pricing_plan_id":"cebpf4jnsgd1na2vs0mg"},{"bike_id":"bfcad82b-6acc-493c-b418-93ec0bae17e4","system_id":"levelo_inurba_marseille","lat":43.32108,"lon":5.36773,"is_reserved":false,"is_disabled":false,"rental_uris":{"android":"levelo://app?vid=bfcad82b-6acc-493c-b418-93ec0bae17e4","ios":"levelo://app?vid=bfcad82b-6acc-493c-b418-93ec0bae17e4"},"vehicle_type_id":"4","last_reported":1743401702,"current_range_meters":8000,"station_id":"ce4bhrh2rcd13ifvqhug","pricing_plan_id":"cebpf4jnsgd1na2vs0mg"},{"bike_id":"602e77af-f6b1-4336-9777-c64792b0b9dd","system_id":"levelo_inurba_marseille","lat":43.22929,"lon":5.35384,"is_reserved":false,"is_disabled":false,"rental_uris":{"android":"levelo://app?vid=602e77af-f6b1-4336-9777-c64792b0b9dd","ios":"levelo://app?vid=602e77af-f6b1-4336-9777-c64792b0b9dd"},"vehicle_type_id":"4","last_reported":1743401702,"current_range_meters":8000,"station_id":"cpo3532slgdg3j2ikp40","pricing_plan_id":"cebpf4jnsgd1na2vs0mg"},{"bike_id":"b6efc305-df1b-4d74-adbd-3d6638f82769","system_id":"levelo_inurba_marseille","lat":43.23181,"lon":5.40014,"is_reserved":false,"is_disabled":false,"rental_uris":{"android":"levelo://app?vid=b6efc305-df1b-4d74-adbd-3d6638f82769","ios":"levelo://app?vid=b6efc305-df1b-4d74-adbd-3d6638f82769"},"vehicle_type_id":"4","last_reported":1743401702,"current_range_meters":8000,"station_id":"ce4bhn12rcd13ifvqgqg","pricing_plan_id":"cebpf4jnsgd1na2vs0mg"},{"bike_id":"0a1ae682-1f0e-4453-a6f1-f229b4054c7e","system_id":"levelo_inurba_marseille","lat":43.27501,"lon":5.42459,"is_reserved":false,"is_disabled":false,"rental_uris":{"android":"levelo://app?vid=0a1ae682-1f0e-4453-a6f1-f229b4054c7e","ios":"levelo://app?vid=0a1ae682-1f0e-4453-a6f1-f229b4054c7e"},"vehicle_type_id":"4","last_reported":1743401702,"current_range_meters":8000,"station_id":"ce4bhn92rcd13ifvqgrg","pricing_plan_id":"cebpf4jnsgd1na2vs0mg"},{"bike_id":"509fb611-063c-4fc4-aff2-e584985b7674","system_id":"levelo_inurba_marseille","lat":43.29038,"lon":5.39968,"is_reserved":false,"is_disabled":false,"rental_uris":{"android":"levelo://app?vid=509fb611-063c-4fc4-aff2-e584985b7674","ios":"levelo://app?vid=509fb611-063c-4fc4-aff2-e584985b7674"},"vehicle_type_id":"4","last_reported":1743401702,"current_range_meters":8000,"station_id":"ce4bh392rcd13ifvqdm0","pricing_plan_id":"cebpf4jnsgd1na2vs0mg"},{"bike_id":"c44b155f-5e66-4615-91d1-085aff162fb9","system_id":"levelo_inurba_marseille","lat":43.28727,"lon":5.37944,"is_reserved":false,"is_disabled":false,"rental_uris":{"android":"levelo://app?vid=c44b155f-5e66-4615-91d1-085aff162fb9","ios":"levelo://app?vid=c44b155f-5e66-4615-91d1-085aff162fb9"},"vehicle_type_id":"4","last_reported":1743401702,"current_range_meters":8000,"station_id":"ce4bh9p2rcd13ifvqec0","pricing_plan_id":"cebpf4jnsgd1na2vs0mg"},{"bike_id":"c4508a74-454a-445f-b5b2-d11f13ebfcc9","system_id":"levelo_inurba_marseille","lat":43.29783,"lon":5.38133,"is_reserved":false,"is_disabled":false,"rental_uris":{"android":"levelo://app?vid=c4508a74-454a-445f-b5b2-d11f13ebfcc9","ios":"levelo://app?vid=c4508a74-454a-445f-b5b2-d11f13ebfcc9"},"vehicle_type_id":"4","last_reported":1743401702,"current_range_meters":8000,"station_id":"ce4bgip2rcd13ifvqbb0","pricing_plan_id":"cebpf4jnsgd1na2vs0mg"},{"bike_id":"9e41fa41-0b95-4c96-8a49-e8b8589958b5","system_id":"levelo_inurba_marseille","lat":43.27495,"lon":5.42459,"is_reserved":false,"is_disabled":false,"rental_uris":{"android":"levelo://app?vid=9e41fa41-0b95-4c96-8a49-e8b8589958b5","ios":"levelo://app?vid=9e41fa41-0b95-4c96-8a49-e8b8589958b5"},"vehicle_type_id":"4","last_reported":1743401702,"current_range_meters":8400,"station_id":"ce4bhn92rcd13ifvqgrg","pricing_plan_id":"cebpf4jnsgd1na2vs0mg"},{"bike_id":"1c27e5a1-716c-4e37-91c6-d7ea5de641d3","system_id":"levelo_inurba_marseille","lat":43.28425,"lon":5.37529,"is_reserved":false,"is_disabled":false,"rental_uris":{"android":"levelo://app?vid=1c27e5a1-716c-4e37-91c6-d7ea5de641d3","ios":"levelo://app?vid=1c27e5a1-716c-4e37-91c6-d7ea5de641d3"},"vehicle_type_id":"4","last_reported":1743401702,"current_range_meters":8400,"station_id":"ce4bh412rcd13ifvqds0","pricing_plan_id":"cebpf4jnsgd1na2vs0mg"},{"bike_id":"54e6fad5-2f3a-4053-b5fc-9d5893e8acfa","system_id":"levelo_inurba_marseille","lat":43.28368,"lon":5.38634,"is_reserved":false,"is_disabled":false,"rental_uris":{"android":"levelo://app?vid=54e6fad5-2f3a-4053-b5fc-9d5893e8acfa","ios":"levelo://app?vid=54e6fad5-2f3a-4053-b5fc-9d5893e8acfa"},"vehicle_type_id":"4","last_reported":1743401702,"current_range_meters":8400,"station_id":"ce4bh492rcd13ifvqdvg","pricing_plan_id":"cebpf4jnsgd1na2vs0mg"},{"bike_id":"08f5d872-09b9-4202-bb35-e500aea813eb","system_id":"levelo_inurba_marseille","lat":43.30596,"lon":5.39349,"is_reserved":false,"is_disabled":false,"rental_uris":{"android":"levelo://app?vid=08f5d872-09b9-4202-bb35-e500aea813eb","ios":"levelo://app?vid=08f5d872-09b9-4202-bb35-e500aea813eb"},"vehicle_type_id":"4","last_reported":1743401702,"current_range_meters":8400,"station_id":"ce4bh0p2rcd13ifvqd80","pricing_plan_id":"cebpf4jnsgd1na2vs0mg"},{"bike_id":"cb8c9ca5-9083-4e86-9e9f-2bc245af5095","system_id":"levelo_inurba_marseille","lat":43.28403,"lon":5.37528,"is_reserved":false,"is_disabled":true,"rental_uris":{"android":"levelo://app?vid=cb8c9ca5-9083-4e86-9e9f-2bc245af5095","ios":"levelo://app?vid=cb8c9ca5-9083-4e86-9e9f-2bc245af5095"},"vehicle_type_id":"4","last_reported":1743401702,"current_range_meters":8400,"station_id":"ce4bh412rcd13ifvqds0","pricing_plan_id":"cebpf4jnsgd1na2vs0mg"},{"bike_id":"ad60912c-6000-4325-92cb-03d07db25537","system_id":"levelo_inurba_marseille","lat":43.286919,"lon":5.399847,"is_reserved":false,"is_disabled":false,"rental_uris":{"android":"levelo://app?vid=ad60912c-6000-4325-92cb-03d07db25537","ios":"levelo://app?vid=ad60912c-6000-4325-92cb-03d07db25537"},"vehicle_type_id":"4","last_reported":1743401702,"current_range_meters":8400,"station_id":"ce4bho92rcd13ifvqh3g","pricing_plan_id":"cebpf4jnsgd1na2vs0mg"},{"bike_id":"7e3518cf-2130-4edc-893c-b75a6f4b588b","system_id":"levelo_inurba_marseille","lat":43.30212,"lon":5.39475,"is_reserved":false,"is_disabled":false,"rental_uris":{"android":"levelo://app?vid=7e3518cf-2130-4edc-893c-b75a6f4b588b","ios":"levelo://app?vid=7e3518cf-2130-4edc-893c-b75a6f4b588b"},"vehicle_type_id":"4","last_reported":1743401702,"current_range_meters":8400,"station_id":"ce4bh0p2rcd13ifvqd70","pricing_plan_id":"cebpf4jnsgd1na2vs0mg"},{"bike_id":"e777dd0a-d103-4298-bd49-21811a74b18b","system_id":"levelo_inurba_marseille","lat":43.300878,"lon":5.389668,"is_reserved":false,"is_disabled":false,"rental_uris":{"android":"levelo://app?vid=e777dd0a-d103-4298-bd49-21811a74b18b","ios":"levelo://app?vid=e777dd0a-d103-4298-bd49-21811a74b18b"},"vehicle_type_id":"4","last_reported":1743401702,"current_range_meters":8400,"station_id":"ce4bghh2rcd13ifvqb60","pricing_plan_id":"cebpf4jnsgd1na2vs0mg"},{"bike_id":"0b6a84f1-7140-4803-bc16-5c19bf4eadc8","system_id":"levelo_inurba_marseille","lat":43.24175,"lon":5.39745,"is_reserved":false,"is_disabled":false,"rental_uris":{"android":"levelo://app?vid=0b6a84f1-7140-4803-bc16-5c19bf4eadc8","ios":"levelo://app?vid=0b6a84f1-7140-4803-bc16-5c19bf4eadc8"},"vehicle_type_id":"4","last_reported":1743401702,"current_range_meters":8400,"station_id":"ce4bhn12rcd13ifvqgpg","pricing_plan_id":"cebpf4jnsgd1na2vs0mg"},{"bike_id":"871f3035-10bb-4a28-afa0-18619600e1a6","system_id":"levelo_inurba_marseille","lat":43.29942,"lon":5.3655,"is_reserved":false,"is_disabled":true,"rental_uris":{"android":"levelo://app?vid=871f3035-10bb-4a28-afa0-18619600e1a6","ios":"levelo://app?vid=871f3035-10bb-4a28-afa0-18619600e1a6"},"vehicle_type_id":"4","last_reported":1743401702,"current_range_meters":8800,"station_id":"ce4bgm92rcd13ifvqbr0","pricing_plan_id":"cebpf4jnsgd1na2vs0mg"},{"bike_id":"1a7fca37-621b-4460-bb47-4eb103935246","system_id":"levelo_inurba_marseille","lat":43.2505,"lon":5.39584,"is_reserved":false,"is_disabled":false,"rental_uris":{"android":"levelo://app?vid=1a7fca37-621b-4460-bb47-4eb103935246","ios":"levelo://app?vid=1a7fca37-621b-4460-bb47-4eb103935246"},"vehicle_type_id":"4","last_reported":1743401702,"current_range_meters":8800,"station_id":"","pricing_plan_id":"cebpf4jnsgd1na2vs0mg"},{"bike_id":"2403089b-07d2-4817-842f-5393e534470e","system_id":"levelo_inurba_marseille","lat":43.28,"lon":5.41658,"is_reserved":false,"is_disabled":false,"rental_uris":{"android":"levelo://app?vid=2403089b-07d2-4817-842f-5393e534470e","ios":"levelo://app?vid=2403089b-07d2-4817-842f-5393e534470e"},"vehicle_type_id":"4","last_reported":1743401702,"current_range_meters":8800,"station_id":"ce4bho12rcd13ifvqh1g","pricing_plan_id":"cebpf4jnsgd1na2vs0mg"},{"bike_id":"5a4bd2b9-e138-4602-b86d-0de180b82c69","system_id":"levelo_inurba_marseille","lat":43.27962,"lon":5.41029,"is_reserved":false,"is_disabled":false,"rental_uris":{"android":"levelo://app?vid=5a4bd2b9-e138-4602-b86d-0de180b82c69","ios":"levelo://app?vid=5a4bd2b9-e138-4602-b86d-0de180b82c69"},"vehicle_type_id":"4","last_reported":1743401702,"current_range_meters":8800,"station_id":"ce4bhnp2rcd13ifvqh0g","pricing_plan_id":"cebpf4jnsgd1na2vs0mg"},{"bike_id":"1db49edd-6de7-48f9-b18a-23a07e8ebd2c","system_id":"levelo_inurba_marseille","lat":43.2319,"lon":5.35566,"is_reserved":false,"is_disabled":false,"rental_uris":{"android":"levelo://app?vid=1db49edd-6de7-48f9-b18a-23a07e8ebd2c","ios":"levelo://app?vid=1db49edd-6de7-48f9-b18a-23a07e8ebd2c"},"vehicle_type_id":"4","last_reported":1743401702,"current_range_meters":8800,"station_id":"ce4bhu92rcd13ifvqi70","pricing_plan_id":"cebpf4jnsgd1na2vs0mg"},{"bike_id":"533dde56-3c6f-4b30-a6d4-69433b869256","system_id":"levelo_inurba_marseille","lat":43.28718,"lon":5.39975,"is_reserved":false,"is_disabled":false,"rental_uris":{"android":"levelo://app?vid=533dde56-3c6f-4b30-a6d4-69433b869256","ios":"levelo://app?vid=533dde56-3c6f-4b30-a6d4-69433b869256"},"vehicle_type_id":"4","last_reported":1743401702,"current_range_meters":8800,"station_id":"ce4bho92rcd13ifvqh3g","pricing_plan_id":"cebpf4jnsgd1na2vs0mg"},{"bike_id":"452ee7ed-aed5-4f3a-80c1-b63ab3953967","system_id":"levelo_inurba_marseille","lat":43.27939,"lon":5.41059,"is_reserved":false,"is_disabled":false,"rental_uris":{"android":"levelo://app?vid=452ee7ed-aed5-4f3a-80c1-b63ab3953967","ios":"levelo://app?vid=452ee7ed-aed5-4f3a-80c1-b63ab3953967"},"vehicle_type_id":"4","last_reported":1743401702,"current_range_meters":8800,"station_id":"ce4bhnp2rcd13ifvqh0g","pricing_plan_id":"cebpf4jnsgd1na2vs0mg"},{"bike_id":"6d476741-3045-4964-a8ca-5a43b8573cfd","system_id":"levelo_inurba_marseille","lat":43.2783,"lon":5.39208,"is_reserved":false,"is_disabled":false,"rental_uris":{"android":"levelo://app?vid=6d476741-3045-4964-a8ca-5a43b8573cfd","ios":"levelo://app?vid=6d476741-3045-4964-a8ca-5a43b8573cfd"},"vehicle_type_id":"4","last_reported":1743401702,"current_range_meters":8400,"station_id":"ce4bhjp2rcd13ifvqga0","pricing_plan_id":"cebpf4jnsgd1na2vs0mg"},{"bike_id":"d4979c80-71ec-46e5-83bb-960b58e4aaac","system_id":"levelo_inurba_marseille","lat":43.31345,"lon":5.3673,"is_reserved":false,"is_disabled":false,"rental_uris":{"android":"levelo://app?vid=d4979c80-71ec-46e5-83bb-960b58e4aaac","ios":"levelo://app?vid=d4979c80-71ec-46e5-83bb-960b58e4aaac"},"vehicle_type_id":"4","last_reported":1743401702,"current_range_meters":8800,"station_id":"ce4bgr92rcd13ifvqc6g","pricing_plan_id":"cebpf4jnsgd1na2vs0mg"},{"bike_id":"0473c2df-6a5c-4f03-8055-0ddeb5fdd9d1","system_id":"levelo_inurba_marseille","lat":43.30586,"lon":5.39283,"is_reserved":false,"is_disabled":false,"rental_uris":{"android":"levelo://app?vid=0473c2df-6a5c-4f03-8055-0ddeb5fdd9d1","ios":"levelo://app?vid=0473c2df-6a5c-4f03-8055-0ddeb5fdd9d1"},"vehicle_type_id":"4","last_reported":1743401702,"current_range_meters":8800,"station_id":"ce4bh0p2rcd13ifvqd80","pricing_plan_id":"cebpf4jnsgd1na2vs0mg"},{"bike_id":"8781c1c9-0aa1-425b-aaa1-5e3c6b36cdfd","system_id":"levelo_inurba_marseille","lat":43.27423,"lon":5.39427,"is_reserved":false,"is_disabled":false,"rental_uris":{"android":"levelo://app?vid=8781c1c9-0aa1-425b-aaa1-5e3c6b36cdfd","ios":"levelo://app?vid=8781c1c9-0aa1-425b-aaa1-5e3c6b36cdfd"},"vehicle_type_id":"4","last_reported":1743401702,"current_range_meters":8800,"station_id":"ce4bhdp2rcd13ifvqf20","pricing_plan_id":"cebpf4jnsgd1na2vs0mg"},{"bike_id":"bb1c57ec-cebb-457d-bb35-b418f9274c90","system_id":"levelo_inurba_marseille","lat":43.27607,"lon":5.3613,"is_reserved":false,"is_disabled":false,"rental_uris":{"android":"levelo://app?vid=bb1c57ec-cebb-457d-bb35-b418f9274c90","ios":"levelo://app?vid=bb1c57ec-cebb-457d-bb35-b418f9274c90"},"vehicle_type_id":"4","last_reported":1743401702,"current_range_meters":8400,"station_id":"ce4bgj92rcd13ifvqbe0","pricing_plan_id":"cebpf4jnsgd1na2vs0mg"},{"bike_id":"073a06d3-fa40-40dc-8bc4-1de4da3bda03","system_id":"levelo_inurba_marseille","lat":43.28351,"lon":5.38083,"is_reserved":false,"is_disabled":false,"rental_uris":{"android":"levelo://app?vid=073a06d3-fa40-40dc-8bc4-1de4da3bda03","ios":"levelo://app?vid=073a06d3-fa40-40dc-8bc4-1de4da3bda03"},"vehicle_type_id":"4","last_reported":1743401702,"current_range_meters":8800,"station_id":"ce4bh412rcd13ifvqdr0","pricing_plan_id":"cebpf4jnsgd1na2vs0mg"},{"bike_id":"bfe4f2d6-5566-42aa-bad5-3d03155df190","system_id":"levelo_inurba_marseille","lat":43.28917,"lon":5.387413,"is_reserved":false,"is_disabled":false,"rental_uris":{"android":"levelo://app?vid=bfe4f2d6-5566-42aa-bad5-3d03155df190","ios":"levelo://app?vid=bfe4f2d6-5566-42aa-bad5-3d03155df190"},"vehicle_type_id":"4","last_reported":1743401702,"current_range_meters":9200,"station_id":"ce4bh4p2rcd13ifvqe0g","pricing_plan_id":"cebpf4jnsgd1na2vs0mg"},{"bike_id":"6165c5e1-15f4-4779-ba2f-91df8ba3f8c0","system_id":"levelo_inurba_marseille","lat":43.28916,"lon":5.43017,"is_reserved":false,"is_disabled":false,"rental_uris":{"android":"levelo://app?vid=6165c5e1-15f4-4779-ba2f-91df8ba3f8c0","ios":"levelo://app?vid=6165c5e1-15f4-4779-ba2f-91df8ba3f8c0"},"vehicle_type_id":"4","last_reported":1743401702,"current_range_meters":9200,"station_id":"","pricing_plan_id":"cebpf4jnsgd1na2vs0mg"},{"bike_id":"bd69e2d1-2f68-4086-bf5e-e0f3ccd402ed","system_id":"levelo_inurba_marseille","lat":43.30592,"lon":5.39353,"is_reserved":false,"is_disabled":false,"rental_uris":{"android":"levelo://app?vid=bd69e2d1-2f68-4086-bf5e-e0f3ccd402ed","ios":"levelo://app?vid=bd69e2d1-2f68-4086-bf5e-e0f3ccd402ed"},"vehicle_type_id":"4","last_reported":1743401702,"current_range_meters":9200,"station_id":"ce4bh0p2rcd13ifvqd80","pricing_plan_id":"cebpf4jnsgd1na2vs0mg"},{"bike_id":"0b60b6cc-65bb-4e73-8958-1b351c6fdd96","system_id":"levelo_inurba_marseille","lat":43.321109,"lon":5.367681,"is_reserved":false,"is_disabled":false,"rental_uris":{"android":"levelo://app?vid=0b60b6cc-65bb-4e73-8958-1b351c6fdd96","ios":"levelo://app?vid=0b60b6cc-65bb-4e73-8958-1b351c6fdd96"},"vehicle_type_id":"4","last_reported":1743401702,"current_range_meters":9200,"station_id":"","pricing_plan_id":"cebpf4jnsgd1na2vs0mg"},{"bike_id":"204ecd7d-d79a-4494-8305-7c83c69add7d","system_id":"levelo_inurba_marseille","lat":43.25664,"lon":5.4199,"is_reserved":false,"is_disabled":false,"rental_uris":{"android":"levelo://app?vid=204ecd7d-d79a-4494-8305-7c83c69add7d","ios":"levelo://app?vid=204ecd7d-d79a-4494-8305-7c83c69add7d"},"vehicle_type_id":"4","last_reported":1743401702,"current_range_meters":9200,"station_id":"","pricing_plan_id":"cebpf4jnsgd1na2vs0mg"},{"bike_id":"3d370df4-c787-4eff-9ed9-eeb4ac5d36a0","system_id":"levelo_inurba_marseille","lat":43.289456,"lon":5.366296,"is_reserved":false,"is_disabled":false,"rental_uris":{"android":"levelo://app?vid=3d370df4-c787-4eff-9ed9-eeb4ac5d36a0","ios":"levelo://app?vid=3d370df4-c787-4eff-9ed9-eeb4ac5d36a0"},"vehicle_type_id":"4","last_reported":1743401702,"current_range_meters":9600,"station_id":"ce4bhap2rcd13ifvqek0","pricing_plan_id":"cebpf4jnsgd1na2vs0mg"},{"bike_id":"7ca6f145-aad1-46a9-862f-db9fe95e22ed","system_id":"levelo_inurba_marseille","lat":43.32087,"lon":5.36842,"is_reserved":false,"is_disabled":false,"rental_uris":{"android":"levelo://app?vid=7ca6f145-aad1-46a9-862f-db9fe95e22ed","ios":"levelo://app?vid=7ca6f145-aad1-46a9-862f-db9fe95e22ed"},"vehicle_type_id":"4","last_reported":1743401702,"current_range_meters":9600,"station_id":"ce4bhrh2rcd13ifvqhug","pricing_plan_id":"cebpf4jnsgd1na2vs0mg"},{"bike_id":"bee19a7e-3e37-449e-8fe8-1c38b2d2a6f2","system_id":"levelo_inurba_marseille","lat":43.29027,"lon":5.39984,"is_reserved":false,"is_disabled":false,"rental_uris":{"android":"levelo://app?vid=bee19a7e-3e37-449e-8fe8-1c38b2d2a6f2","ios":"levelo://app?vid=bee19a7e-3e37-449e-8fe8-1c38b2d2a6f2"},"vehicle_type_id":"4","last_reported":1743401702,"current_range_meters":9600,"station_id":"ce4bh392rcd13ifvqdm0","pricing_plan_id":"cebpf4jnsgd1na2vs0mg"},{"bike_id":"f30d155f-8dca-4e0f-b227-29e24f50fd44","system_id":"levelo_inurba_marseille","lat":43.30648,"lon":5.394425,"is_reserved":false,"is_disabled":false,"rental_uris":{"android":"levelo://app?vid=f30d155f-8dca-4e0f-b227-29e24f50fd44","ios":"levelo://app?vid=f30d155f-8dca-4e0f-b227-29e24f50fd44"},"vehicle_type_id":"4","last_reported":1743401702,"current_range_meters":9600,"station_id":"ce4bgr92rcd13ifvqc6g","pricing_plan_id":"cebpf4jnsgd1na2vs0mg"},{"bike_id":"a0eb0cb7-cfd0-4c44-a801-cca8496833e5","system_id":"levelo_inurba_marseille","lat":43.23185,"lon":5.39969,"is_reserved":false,"is_disabled":false,"rental_uris":{"android":"levelo://app?vid=a0eb0cb7-cfd0-4c44-a801-cca8496833e5","ios":"levelo://app?vid=a0eb0cb7-cfd0-4c44-a801-cca8496833e5"},"vehicle_type_id":"4","last_reported":1743401702,"current_range_meters":9600,"station_id":"ce4bhn12rcd13ifvqgqg","pricing_plan_id":"cebpf4jnsgd1na2vs0mg"},{"bike_id":"12cd2614-5759-4501-9c23-d3351a7cc7df","system_id":"levelo_inurba_marseille","lat":43.305496,"lon":5.384359,"is_reserved":false,"is_disabled":true,"rental_uris":{"android":"levelo://app?vid=12cd2614-5759-4501-9c23-d3351a7cc7df","ios":"levelo://app?vid=12cd2614-5759-4501-9c23-d3351a7cc7df"},"vehicle_type_id":"4","last_reported":1743401702,"current_range_meters":9600,"station_id":"ce4bgg92rcd13ifvqb30","pricing_plan_id":"cebpf4jnsgd1na2vs0mg"},{"bike_id":"0aa5d244-d05c-4693-b730-cb7287eaecdf","system_id":"levelo_inurba_marseille","lat":43.28604,"lon":5.35109,"is_reserved":false,"is_disabled":true,"rental_uris":{"android":"levelo://app?vid=0aa5d244-d05c-4693-b730-cb7287eaecdf","ios":"levelo://app?vid=0aa5d244-d05c-4693-b730-cb7287eaecdf"},"vehicle_type_id":"4","last_reported":1743401702,"current_range_meters":9600,"station_id":"ce4bhch2rcd13ifvqeug","pricing_plan_id":"cebpf4jnsgd1na2vs0mg"},{"bike_id":"fb0e2782-64d8-47c2-8a78-bad86b5dcc20","system_id":"levelo_inurba_marseille","lat":43.321053,"lon":5.367547,"is_reserved":false,"is_disabled":true,"rental_uris":{"android":"levelo://app?vid=fb0e2782-64d8-47c2-8a78-bad86b5dcc20","ios":"levelo://app?vid=fb0e2782-64d8-47c2-8a78-bad86b5dcc20"},"vehicle_type_id":"4","last_reported":1743401702,"current_range_meters":9600,"station_id":"","pricing_plan_id":"cebpf4jnsgd1na2vs0mg"},{"bike_id":"aceba683-3bd7-4730-bff8-387b05a23a57","system_id":"levelo_inurba_marseille","lat":43.32081,"lon":5.36814,"is_reserved":false,"is_disabled":false,"rental_uris":{"android":"levelo://app?vid=aceba683-3bd7-4730-bff8-387b05a23a57","ios":"levelo://app?vid=aceba683-3bd7-4730-bff8-387b05a23a57"},"vehicle_type_id":"4","last_reported":1743401702,"current_range_meters":9600,"station_id":"ce4bhrh2rcd13ifvqhug","pricing_plan_id":"cebpf4jnsgd1na2vs0mg"},{"bike_id":"78edf300-7db3-4c93-9631-38797c9b1771","system_id":"levelo_inurba_marseille","lat":43.29062,"lon":5.3715,"is_reserved":false,"is_disabled":true,"rental_uris":{"android":"levelo://app?vid=78edf300-7db3-4c93-9631-38797c9b1771","ios":"levelo://app?vid=78edf300-7db3-4c93-9631-38797c9b1771"},"vehicle_type_id":"4","last_reported":1743401702,"current_range_meters":9600,"station_id":"ce4bh5p2rcd13ifvqe4g","pricing_plan_id":"cebpf4jnsgd1na2vs0mg"},{"bike_id":"e9fffe35-245b-4da4-a438-9b0140e79a12","system_id":"levelo_inurba_marseille","lat":43.27946,"lon":5.41045,"is_reserved":false,"is_disabled":false,"rental_uris":{"android":"levelo://app?vid=e9fffe35-245b-4da4-a438-9b0140e79a12","ios":"levelo://app?vid=e9fffe35-245b-4da4-a438-9b0140e79a12"},"vehicle_type_id":"4","last_reported":1743401702,"current_range_meters":9600,"station_id":"ce4bhnp2rcd13ifvqh0g","pricing_plan_id":"cebpf4jnsgd1na2vs0mg"},{"bike_id":"ccc156e8-a667-43d7-a4ec-446d88f1e3ac","system_id":"levelo_inurba_marseille","lat":43.23152,"lon":5.43712,"is_reserved":false,"is_disabled":false,"rental_uris":{"android":"levelo://app?vid=ccc156e8-a667-43d7-a4ec-446d88f1e3ac","ios":"levelo://app?vid=ccc156e8-a667-43d7-a4ec-446d88f1e3ac"},"vehicle_type_id":"4","last_reported":1743401702,"current_range_meters":9600,"station_id":"ce4bhmp2rcd13ifvqgog","pricing_plan_id":"cebpf4jnsgd1na2vs0mg"},{"bike_id":"970d4a28-2e4b-453e-912d-59e6f284b811","system_id":"levelo_inurba_marseille","lat":43.32272,"lon":5.39019,"is_reserved":false,"is_disabled":true,"rental_uris":{"android":"levelo://app?vid=970d4a28-2e4b-453e-912d-59e6f284b811","ios":"levelo://app?vid=970d4a28-2e4b-453e-912d-59e6f284b811"},"vehicle_type_id":"4","last_reported":1743401702,"current_range_meters":10000,"station_id":"ce4bhqp2rcd13ifvqhog","pricing_plan_id":"cebpf4jnsgd1na2vs0mg"},{"bike_id":"fe6f98fb-7de5-4a80-9354-b1e5ec085047","system_id":"levelo_inurba_marseille","lat":43.29031,"lon":5.39974,"is_reserved":false,"is_disabled":false,"rental_uris":{"android":"levelo://app?vid=fe6f98fb-7de5-4a80-9354-b1e5ec085047","ios":"levelo://app?vid=fe6f98fb-7de5-4a80-9354-b1e5ec085047"},"vehicle_type_id":"4","last_reported":1743401702,"current_range_meters":10000,"station_id":"ce4bh392rcd13ifvqdm0","pricing_plan_id":"cebpf4jnsgd1na2vs0mg"},{"bike_id":"b03ddc25-8561-4144-bc05-fa463b274d27","system_id":"levelo_inurba_marseille","lat":43.28943,"lon":5.36636,"is_reserved":false,"is_disabled":false,"rental_uris":{"android":"levelo://app?vid=b03ddc25-8561-4144-bc05-fa463b274d27","ios":"levelo://app?vid=b03ddc25-8561-4144-bc05-fa463b274d27"},"vehicle_type_id":"4","last_reported":1743401702,"current_range_meters":10000,"station_id":"ce4bhap2rcd13ifvqek0","pricing_plan_id":"cebpf4jnsgd1na2vs0mg"},{"bike_id":"a90d84a3-2957-4e71-993e-8c9421c0fd02","system_id":"levelo_inurba_marseille","lat":43.3018,"lon":5.38061,"is_reserved":false,"is_disabled":false,"rental_uris":{"android":"levelo://app?vid=a90d84a3-2957-4e71-993e-8c9421c0fd02","ios":"levelo://app?vid=a90d84a3-2957-4e71-993e-8c9421c0fd02"},"vehicle_type_id":"4","last_reported":1743401702,"current_range_meters":10000,"station_id":"ce4bgjp2rcd13ifvqbh0","pricing_plan_id":"cebpf4jnsgd1na2vs0mg"},{"bike_id":"b3e97410-c1b2-4369-b878-0aa5bbd817bc","system_id":"levelo_inurba_marseille","lat":43.28465,"lon":5.35898,"is_reserved":false,"is_disabled":true,"rental_uris":{"android":"levelo://app?vid=b3e97410-c1b2-4369-b878-0aa5bbd817bc","ios":"levelo://app?vid=b3e97410-c1b2-4369-b878-0aa5bbd817bc"},"vehicle_type_id":"4","last_reported":1743401702,"current_range_meters":10000,"station_id":"ce4bhah2rcd13ifvqei0","pricing_plan_id":"cebpf4jnsgd1na2vs0mg"},{"bike_id":"99e7d147-e2b6-4982-8a11-f600737d5497","system_id":"levelo_inurba_marseille","lat":43.31793,"lon":5.36808,"is_reserved":false,"is_disabled":false,"rental_uris":{"android":"levelo://app?vid=99e7d147-e2b6-4982-8a11-f600737d5497","ios":"levelo://app?vid=99e7d147-e2b6-4982-8a11-f600737d5497"},"vehicle_type_id":"4","last_reported":1743401702,"current_range_meters":10000,"station_id":"","pricing_plan_id":"cebpf4jnsgd1na2vs0mg"},{"bike_id":"fd077727-cac9-4da1-be78-e3859541690a","system_id":"levelo_inurba_marseille","lat":43.30534,"lon":5.38447,"is_reserved":false,"is_disabled":true,"rental_uris":{"android":"levelo://app?vid=fd077727-cac9-4da1-be78-e3859541690a","ios":"levelo://app?vid=fd077727-cac9-4da1-be78-e3859541690a"},"vehicle_type_id":"4","last_reported":1743401702,"current_range_meters":10000,"station_id":"ce4bgg92rcd13ifvqb30","pricing_plan_id":"cebpf4jnsgd1na2vs0mg"},{"bike_id":"1ca654ae-dc4d-4362-acdb-676b4062b92d","system_id":"levelo_inurba_marseille","lat":43.30311,"lon":5.36924,"is_reserved":false,"is_disabled":false,"rental_uris":{"android":"levelo://app?vid=1ca654ae-dc4d-4362-acdb-676b4062b92d","ios":"levelo://app?vid=1ca654ae-dc4d-4362-acdb-676b4062b92d"},"vehicle_type_id":"4","last_reported":1743401702,"current_range_meters":10000,"station_id":"ce4bgqh2rcd13ifvqc5g","pricing_plan_id":"cebpf4jnsgd1na2vs0mg"},{"bike_id":"dd903802-fbfa-44f7-b9a9-3b3d8d7b3138","system_id":"levelo_inurba_marseille","lat":43.30517,"lon":5.36611,"is_reserved":false,"is_disabled":false,"rental_uris":{"android":"levelo://app?vid=dd903802-fbfa-44f7-b9a9-3b3d8d7b3138","ios":"levelo://app?vid=dd903802-fbfa-44f7-b9a9-3b3d8d7b3138"},"vehicle_type_id":"4","last_reported":1743401702,"current_range_meters":10000,"station_id":"","pricing_plan_id":"cebpf4jnsgd1na2vs0mg"},{"bike_id":"feae1bc9-79f9-4ea6-a617-860834b223f0","system_id":"levelo_inurba_marseille","lat":43.31331,"lon":5.39716,"is_reserved":false,"is_disabled":false,"rental_uris":{"android":"levelo://app?vid=feae1bc9-79f9-4ea6-a617-860834b223f0","ios":"levelo://app?vid=feae1bc9-79f9-4ea6-a617-860834b223f0"},"vehicle_type_id":"4","last_reported":1743401702,"current_range_meters":10000,"station_id":"ce4bgvp2rcd13ifvqcu0","pricing_plan_id":"cebpf4jnsgd1na2vs0mg"},{"bike_id":"8d32980f-fa1d-487c-9ee4-e21d4298ab4e","system_id":"levelo_inurba_marseille","lat":43.296302,"lon":5.406163,"is_reserved":false,"is_disabled":false,"rental_uris":{"android":"levelo://app?vid=8d32980f-fa1d-487c-9ee4-e21d4298ab4e","ios":"levelo://app?vid=8d32980f-fa1d-487c-9ee4-e21d4298ab4e"},"vehicle_type_id":"4","last_reported":1743401702,"current_range_meters":10000,"station_id":"ce4bh0h2rcd13ifvqd60","pricing_plan_id":"cebpf4jnsgd1na2vs0mg"},{"bike_id":"ba1107aa-9b1f-4710-bb75-05314e757fc6","system_id":"levelo_inurba_marseille","lat":43.3166,"lon":5.37254,"is_reserved":false,"is_disabled":false,"rental_uris":{"android":"levelo://app?vid=ba1107aa-9b1f-4710-bb75-05314e757fc6","ios":"levelo://app?vid=ba1107aa-9b1f-4710-bb75-05314e757fc6"},"vehicle_type_id":"4","last_reported":1743401702,"current_range_meters":10000,"station_id":"","pricing_plan_id":"cebpf4jnsgd1na2vs0mg"},{"bike_id":"121010d1-d0ea-475b-97a6-f9054736109c","system_id":"levelo_inurba_marseille","lat":43.23178,"lon":5.40008,"is_reserved":false,"is_disabled":false,"rental_uris":{"android":"levelo://app?vid=121010d1-d0ea-475b-97a6-f9054736109c","ios":"levelo://app?vid=121010d1-d0ea-475b-97a6-f9054736109c"},"vehicle_type_id":"4","last_reported":1743401702,"current_range_meters":10800,"station_id":"ce4bhn12rcd13ifvqgqg","pricing_plan_id":"cebpf4jnsgd1na2vs0mg"},{"bike_id":"63e9eeba-90d7-42aa-aa4e-a7d9d7454284","system_id":"levelo_inurba_marseille","lat":43.27985,"lon":5.41659,"is_reserved":false,"is_disabled":false,"rental_uris":{"android":"levelo://app?vid=63e9eeba-90d7-42aa-aa4e-a7d9d7454284","ios":"levelo://app?vid=63e9eeba-90d7-42aa-aa4e-a7d9d7454284"},"vehicle_type_id":"4","last_reported":1743401702,"current_range_meters":10800,"station_id":"ce4bho12rcd13ifvqh1g","pricing_plan_id":"cebpf4jnsgd1na2vs0mg"},{"bike_id":"ed91d402-6c3a-42de-88b7-ad14c7ccba5d","system_id":"levelo_inurba_marseille","lat":43.296031,"lon":5.380999,"is_reserved":false,"is_disabled":false,"rental_uris":{"android":"levelo://app?vid=ed91d402-6c3a-42de-88b7-ad14c7ccba5d","ios":"levelo://app?vid=ed91d402-6c3a-42de-88b7-ad14c7ccba5d"},"vehicle_type_id":"4","last_reported":1743401702,"current_range_meters":10800,"station_id":"ce4bgl12rcd13ifvqbo0","pricing_plan_id":"cebpf4jnsgd1na2vs0mg"},{"bike_id":"4db2abe8-ddc9-429c-adec-3c515a3e8b3c","system_id":"levelo_inurba_marseille","lat":43.24061,"lon":5.3777,"is_reserved":false,"is_disabled":false,"rental_uris":{"android":"levelo://app?vid=4db2abe8-ddc9-429c-adec-3c515a3e8b3c","ios":"levelo://app?vid=4db2abe8-ddc9-429c-adec-3c515a3e8b3c"},"vehicle_type_id":"4","last_reported":1743401702,"current_range_meters":10800,"station_id":"ce4bhnp2rcd13ifvqgvg","pricing_plan_id":"cebpf4jnsgd1na2vs0mg"},{"bike_id":"8e520846-ebcb-46e4-a0fc-9bc2cce4cbb4","system_id":"levelo_inurba_marseille","lat":43.28462,"lon":5.38458,"is_reserved":false,"is_disabled":false,"rental_uris":{"android":"levelo://app?vid=8e520846-ebcb-46e4-a0fc-9bc2cce4cbb4","ios":"levelo://app?vid=8e520846-ebcb-46e4-a0fc-9bc2cce4cbb4"},"vehicle_type_id":"4","last_reported":1743401702,"current_range_meters":10800,"station_id":"ce4bh512rcd13ifvqe3g","pricing_plan_id":"cebpf4jnsgd1na2vs0mg"},{"bike_id":"81a0b184-8ce0-4d8f-8ffc-54543a8d534f","system_id":"levelo_inurba_marseille","lat":43.29033,"lon":5.39967,"is_reserved":false,"is_disabled":false,"rental_uris":{"android":"levelo://app?vid=81a0b184-8ce0-4d8f-8ffc-54543a8d534f","ios":"levelo://app?vid=81a0b184-8ce0-4d8f-8ffc-54543a8d534f"},"vehicle_type_id":"4","last_reported":1743401702,"current_range_meters":10800,"station_id":"ce4bh392rcd13ifvqdm0","pricing_plan_id":"cebpf4jnsgd1na2vs0mg"},{"bike_id":"de1d672a-03c4-4bce-bc18-e608dab0faed","system_id":"levelo_inurba_marseille","lat":43.284834,"lon":5.38423,"is_reserved":false,"is_disabled":false,"rental_uris":{"android":"levelo://app?vid=de1d672a-03c4-4bce-bc18-e608dab0faed","ios":"levelo://app?vid=de1d672a-03c4-4bce-bc18-e608dab0faed"},"vehicle_type_id":"4","last_reported":1743401702,"current_range_meters":10800,"station_id":"ce4bh512rcd13ifvqe3g","pricing_plan_id":"cebpf4jnsgd1na2vs0mg"},{"bike_id":"3550a36d-3c45-4392-b638-e4bfcd519444","system_id":"levelo_inurba_marseille","lat":43.29907,"lon":5.38127,"is_reserved":false,"is_disabled":true,"rental_uris":{"android":"levelo://app?vid=3550a36d-3c45-4392-b638-e4bfcd519444","ios":"levelo://app?vid=3550a36d-3c45-4392-b638-e4bfcd519444"},"vehicle_type_id":"4","last_reported":1743401702,"current_range_meters":10800,"station_id":"ce4bgj12rcd13ifvqbc0","pricing_plan_id":"cebpf4jnsgd1na2vs0mg"},{"bike_id":"5f4b6dec-c8cd-4fba-a769-4892a6dbdf94","system_id":"levelo_inurba_marseille","lat":43.28122,"lon":5.39885,"is_reserved":false,"is_disabled":false,"rental_uris":{"android":"levelo://app?vid=5f4b6dec-c8cd-4fba-a769-4892a6dbdf94","ios":"levelo://app?vid=5f4b6dec-c8cd-4fba-a769-4892a6dbdf94"},"vehicle_type_id":"4","last_reported":1743401702,"current_range_meters":10800,"station_id":"","pricing_plan_id":"cebpf4jnsgd1na2vs0mg"},{"bike_id":"6b71c936-cb56-4af7-9146-21a41f4f923f","system_id":"levelo_inurba_marseille","lat":43.2904,"lon":5.39971,"is_reserved":false,"is_disabled":false,"rental_uris":{"android":"levelo://app?vid=6b71c936-cb56-4af7-9146-21a41f4f923f","ios":"levelo://app?vid=6b71c936-cb56-4af7-9146-21a41f4f923f"},"vehicle_type_id":"4","last_reported":1743401702,"current_range_meters":11200,"station_id":"ce4bh392rcd13ifvqdm0","pricing_plan_id":"cebpf4jnsgd1na2vs0mg"},{"bike_id":"52e0065d-74fe-482e-b31f-63628de0f581","system_id":"levelo_inurba_marseille","lat":43.30307,"lon":5.39212,"is_reserved":false,"is_disabled":true,"rental_uris":{"android":"levelo://app?vid=52e0065d-74fe-482e-b31f-63628de0f581","ios":"levelo://app?vid=52e0065d-74fe-482e-b31f-63628de0f581"},"vehicle_type_id":"4","last_reported":1743401702,"current_range_meters":11200,"station_id":"ce4bgkh2rcd13ifvqbk0","pricing_plan_id":"cebpf4jnsgd1na2vs0mg"},{"bike_id":"b72d1ec1-9181-4a92-b5f4-0cf9ff9f577e","system_id":"levelo_inurba_marseille","lat":43.28334,"lon":5.38103,"is_reserved":false,"is_disabled":false,"rental_uris":{"android":"levelo://app?vid=b72d1ec1-9181-4a92-b5f4-0cf9ff9f577e","ios":"levelo://app?vid=b72d1ec1-9181-4a92-b5f4-0cf9ff9f577e"},"vehicle_type_id":"4","last_reported":1743401702,"current_range_meters":11600,"station_id":"ce4bh412rcd13ifvqdr0","pricing_plan_id":"cebpf4jnsgd1na2vs0mg"},{"bike_id":"9a439640-b428-470e-99bb-9d71c0e6352a","system_id":"levelo_inurba_marseille","lat":43.2953,"lon":5.38537,"is_reserved":false,"is_disabled":false,"rental_uris":{"android":"levelo://app?vid=9a439640-b428-470e-99bb-9d71c0e6352a","ios":"levelo://app?vid=9a439640-b428-470e-99bb-9d71c0e6352a"},"vehicle_type_id":"4","last_reported":1743401702,"current_range_meters":11600,"station_id":"ce4bgih2rcd13ifvqba0","pricing_plan_id":"cebpf4jnsgd1na2vs0mg"},{"bike_id":"4833ed40-4ec5-41ab-9522-eb4906b09b62","system_id":"levelo_inurba_marseille","lat":43.29547,"lon":5.37571,"is_reserved":false,"is_disabled":true,"rental_uris":{"android":"levelo://app?vid=4833ed40-4ec5-41ab-9522-eb4906b09b62","ios":"levelo://app?vid=4833ed40-4ec5-41ab-9522-eb4906b09b62"},"vehicle_type_id":"4","last_reported":1743401702,"current_range_meters":11600,"station_id":"","pricing_plan_id":"cebpf4jnsgd1na2vs0mg"},{"bike_id":"b4e4ca34-e732-4c1b-bea3-7d588664fb53","system_id":"levelo_inurba_marseille","lat":43.31121,"lon":5.37768,"is_reserved":false,"is_disabled":false,"rental_uris":{"android":"levelo://app?vid=b4e4ca34-e732-4c1b-bea3-7d588664fb53","ios":"levelo://app?vid=b4e4ca34-e732-4c1b-bea3-7d588664fb53"},"vehicle_type_id":"4","last_reported":1743401702,"current_range_meters":11600,"station_id":"ce4bgt92rcd13ifvqcg0","pricing_plan_id":"cebpf4jnsgd1na2vs0mg"},{"bike_id":"85c484ff-8dcb-4efe-a3e8-3810ffa7a117","system_id":"levelo_inurba_marseille","lat":43.32107,"lon":5.36774,"is_reserved":false,"is_disabled":false,"rental_uris":{"android":"levelo://app?vid=85c484ff-8dcb-4efe-a3e8-3810ffa7a117","ios":"levelo://app?vid=85c484ff-8dcb-4efe-a3e8-3810ffa7a117"},"vehicle_type_id":"4","last_reported":1743401702,"current_range_meters":11600,"station_id":"ce4bhrh2rcd13ifvqhug","pricing_plan_id":"cebpf4jnsgd1na2vs0mg"},{"bike_id":"6a5d03b2-0c84-49ee-8bda-366930fb83d5","system_id":"levelo_inurba_marseille","lat":43.27963,"lon":5.38715,"is_reserved":false,"is_disabled":false,"rental_uris":{"android":"levelo://app?vid=6a5d03b2-0c84-49ee-8bda-366930fb83d5","ios":"levelo://app?vid=6a5d03b2-0c84-49ee-8bda-366930fb83d5"},"vehicle_type_id":"4","last_reported":1743401702,"current_range_meters":11600,"station_id":"ce4bhg12rcd13ifvqf80","pricing_plan_id":"cebpf4jnsgd1na2vs0mg"},{"bike_id":"2bf31f9f-c5c0-434c-ab3b-b017d7dc966d","system_id":"levelo_inurba_marseille","lat":43.23019,"lon":5.3557,"is_reserved":false,"is_disabled":false,"rental_uris":{"android":"levelo://app?vid=2bf31f9f-c5c0-434c-ab3b-b017d7dc966d","ios":"levelo://app?vid=2bf31f9f-c5c0-434c-ab3b-b017d7dc966d"},"vehicle_type_id":"4","last_reported":1743401702,"current_range_meters":11600,"station_id":"","pricing_plan_id":"cebpf4jnsgd1na2vs0mg"},{"bike_id":"b91184c2-0fca-4a97-bd03-058f3f161a0c","system_id":"levelo_inurba_marseille","lat":43.28141,"lon":5.4264,"is_reserved":false,"is_disabled":false,"rental_uris":{"android":"levelo://app?vid=b91184c2-0fca-4a97-bd03-058f3f161a0c","ios":"levelo://app?vid=b91184c2-0fca-4a97-bd03-058f3f161a0c"},"vehicle_type_id":"4","last_reported":1743401702,"current_range_meters":11600,"station_id":"ce4bhnh2rcd13ifvqgug","pricing_plan_id":"cebpf4jnsgd1na2vs0mg"},{"bike_id":"7965483e-feb5-4e25-ad18-9d1bbfde19fb","system_id":"levelo_inurba_marseille","lat":43.3112,"lon":5.377631,"is_reserved":false,"is_disabled":false,"rental_uris":{"android":"levelo://app?vid=7965483e-feb5-4e25-ad18-9d1bbfde19fb","ios":"levelo://app?vid=7965483e-feb5-4e25-ad18-9d1bbfde19fb"},"vehicle_type_id":"4","last_reported":1743401702,"current_range_meters":12000,"station_id":"ce4bgt92rcd13ifvqcg0","pricing_plan_id":"cebpf4jnsgd1na2vs0mg"},{"bike_id":"8c0baf83-fe6e-4887-8907-067a84dce884","system_id":"levelo_inurba_marseille","lat":43.28415,"lon":5.34986,"is_reserved":false,"is_disabled":true,"rental_uris":{"android":"levelo://app?vid=8c0baf83-fe6e-4887-8907-067a84dce884","ios":"levelo://app?vid=8c0baf83-fe6e-4887-8907-067a84dce884"},"vehicle_type_id":"4","last_reported":1743401702,"current_range_meters":12000,"station_id":"ce4bhbh2rcd13ifvqepg","pricing_plan_id":"cebpf4jnsgd1na2vs0mg"},{"bike_id":"0f8f638f-6c59-4dfb-ab4f-882d40e453aa","system_id":"levelo_inurba_marseille","lat":43.29268,"lon":5.42811,"is_reserved":false,"is_disabled":false,"rental_uris":{"android":"levelo://app?vid=0f8f638f-6c59-4dfb-ab4f-882d40e453aa","ios":"levelo://app?vid=0f8f638f-6c59-4dfb-ab4f-882d40e453aa"},"vehicle_type_id":"4","last_reported":1743401702,"current_range_meters":12000,"station_id":"","pricing_plan_id":"cebpf4jnsgd1na2vs0mg"},{"bike_id":"17a6c01e-86c5-44cf-af58-45135c759a59","system_id":"levelo_inurba_marseille","lat":43.24075,"lon":5.37761,"is_reserved":false,"is_disabled":false,"rental_uris":{"android":"levelo://app?vid=17a6c01e-86c5-44cf-af58-45135c759a59","ios":"levelo://app?vid=17a6c01e-86c5-44cf-af58-45135c759a59"},"vehicle_type_id":"4","last_reported":1743401702,"current_range_meters":12000,"station_id":"ce4bhnp2rcd13ifvqgvg","pricing_plan_id":"cebpf4jnsgd1na2vs0mg"},{"bike_id":"d7671a11-d2a9-4c19-b8ab-5839a05a2057","system_id":"levelo_inurba_marseille","lat":43.28154,"lon":5.42628,"is_reserved":false,"is_disabled":false,"rental_uris":{"android":"levelo://app?vid=d7671a11-d2a9-4c19-b8ab-5839a05a2057","ios":"levelo://app?vid=d7671a11-d2a9-4c19-b8ab-5839a05a2057"},"vehicle_type_id":"4","last_reported":1743401702,"current_range_meters":12000,"station_id":"ce4bhnh2rcd13ifvqgug","pricing_plan_id":"cebpf4jnsgd1na2vs0mg"},{"bike_id":"940c2ed6-8b24-40c3-b47e-bb7d317ddbb9","system_id":"levelo_inurba_marseille","lat":43.31227,"lon":5.36868,"is_reserved":false,"is_disabled":false,"rental_uris":{"android":"levelo://app?vid=940c2ed6-8b24-40c3-b47e-bb7d317ddbb9","ios":"levelo://app?vid=940c2ed6-8b24-40c3-b47e-bb7d317ddbb9"},"vehicle_type_id":"4","last_reported":1743401702,"current_range_meters":11600,"station_id":"ce4bgl92rcd13ifvqbq0","pricing_plan_id":"cebpf4jnsgd1na2vs0mg"},{"bike_id":"8fa5fb11-10c8-4bed-b75c-83f4c72259ad","system_id":"levelo_inurba_marseille","lat":43.32357,"lon":5.36772,"is_reserved":false,"is_disabled":false,"rental_uris":{"android":"levelo://app?vid=8fa5fb11-10c8-4bed-b75c-83f4c72259ad","ios":"levelo://app?vid=8fa5fb11-10c8-4bed-b75c-83f4c72259ad"},"vehicle_type_id":"4","last_reported":1743401702,"current_range_meters":12000,"station_id":"ce4bhsh2rcd13ifvqi2g","pricing_plan_id":"cebpf4jnsgd1na2vs0mg"},{"bike_id":"cb488461-922b-4378-a925-3277508f321d","system_id":"levelo_inurba_marseille","lat":43.30753,"lon":5.37667,"is_reserved":false,"is_disabled":false,"rental_uris":{"android":"levelo://app?vid=cb488461-922b-4378-a925-3277508f321d","ios":"levelo://app?vid=cb488461-922b-4378-a925-3277508f321d"},"vehicle_type_id":"4","last_reported":1743401702,"current_range_meters":12400,"station_id":"ce4bgv92rcd13ifvqcq0","pricing_plan_id":"cebpf4jnsgd1na2vs0mg"},{"bike_id":"51978973-8141-43c4-9a6c-b50852994e60","system_id":"levelo_inurba_marseille","lat":43.32322,"lon":5.38922,"is_reserved":false,"is_disabled":false,"rental_uris":{"android":"levelo://app?vid=51978973-8141-43c4-9a6c-b50852994e60","ios":"levelo://app?vid=51978973-8141-43c4-9a6c-b50852994e60"},"vehicle_type_id":"4","last_reported":1743401702,"current_range_meters":12400,"station_id":"","pricing_plan_id":"cebpf4jnsgd1na2vs0mg"},{"bike_id":"f207853b-de04-4096-9983-e31c1e3e698c","system_id":"levelo_inurba_marseille","lat":43.321104,"lon":5.367705,"is_reserved":false,"is_disabled":false,"rental_uris":{"android":"levelo://app?vid=f207853b-de04-4096-9983-e31c1e3e698c","ios":"levelo://app?vid=f207853b-de04-4096-9983-e31c1e3e698c"},"vehicle_type_id":"4","last_reported":1743401702,"current_range_meters":12400,"station_id":"ce4bhrh2rcd13ifvqhug","pricing_plan_id":"cebpf4jnsgd1na2vs0mg"},{"bike_id":"15e4f67d-001c-4ca4-ad6e-bb1da2ac5c91","system_id":"levelo_inurba_marseille","lat":43.34139,"lon":5.40909,"is_reserved":false,"is_disabled":false,"rental_uris":{"android":"levelo://app?vid=15e4f67d-001c-4ca4-ad6e-bb1da2ac5c91","ios":"levelo://app?vid=15e4f67d-001c-4ca4-ad6e-bb1da2ac5c91"},"vehicle_type_id":"4","last_reported":1743401702,"current_range_meters":12400,"station_id":"ce4bhqh2rcd13ifvqhlg","pricing_plan_id":"cebpf4jnsgd1na2vs0mg"},{"bike_id":"668c01cb-7bea-48c9-8f15-6bcc0c19c832","system_id":"levelo_inurba_marseille","lat":43.26207,"lon":5.37929,"is_reserved":false,"is_disabled":true,"rental_uris":{"android":"levelo://app?vid=668c01cb-7bea-48c9-8f15-6bcc0c19c832","ios":"levelo://app?vid=668c01cb-7bea-48c9-8f15-6bcc0c19c832"},"vehicle_type_id":"4","last_reported":1743401702,"current_range_meters":12800,"station_id":"ce4bhjp2rcd13ifvqg90","pricing_plan_id":"cebpf4jnsgd1na2vs0mg"},{"bike_id":"7a69a006-8d24-4061-adb8-4e2f9e595662","system_id":"levelo_inurba_marseille","lat":43.29533,"lon":5.3855,"is_reserved":false,"is_disabled":false,"rental_uris":{"android":"levelo://app?vid=7a69a006-8d24-4061-adb8-4e2f9e595662","ios":"levelo://app?vid=7a69a006-8d24-4061-adb8-4e2f9e595662"},"vehicle_type_id":"4","last_reported":1743401702,"current_range_meters":12800,"station_id":"ce4bgih2rcd13ifvqba0","pricing_plan_id":"cebpf4jnsgd1na2vs0mg"},{"bike_id":"398a3122-f2e5-4eee-a551-fcbcdad8c05a","system_id":"levelo_inurba_marseille","lat":43.2894,"lon":5.39634,"is_reserved":false,"is_disabled":false,"rental_uris":{"android":"levelo://app?vid=398a3122-f2e5-4eee-a551-fcbcdad8c05a","ios":"levelo://app?vid=398a3122-f2e5-4eee-a551-fcbcdad8c05a"},"vehicle_type_id":"4","last_reported":1743401702,"current_range_meters":12800,"station_id":"ce4bh3h2rcd13ifvqdn0","pricing_plan_id":"cebpf4jnsgd1na2vs0mg"},{"bike_id":"cc307718-8248-4a1c-9ee9-f23984243416","system_id":"levelo_inurba_marseille","lat":43.297814,"lon":5.381569,"is_reserved":false,"is_disabled":true,"rental_uris":{"android":"levelo://app?vid=cc307718-8248-4a1c-9ee9-f23984243416","ios":"levelo://app?vid=cc307718-8248-4a1c-9ee9-f23984243416"},"vehicle_type_id":"4","last_reported":1743401702,"current_range_meters":12800,"station_id":"","pricing_plan_id":"cebpf4jnsgd1na2vs0mg"},{"bike_id":"0b43763d-1d87-4682-933f-13abdd2edb47","system_id":"levelo_inurba_marseille","lat":43.30442,"lon":5.38879,"is_reserved":false,"is_disabled":false,"rental_uris":{"android":"levelo://app?vid=0b43763d-1d87-4682-933f-13abdd2edb47","ios":"levelo://app?vid=0b43763d-1d87-4682-933f-13abdd2edb47"},"vehicle_type_id":"4","last_reported":1743401702,"current_range_meters":12800,"station_id":"ce4bgk12rcd13ifvqbi0","pricing_plan_id":"cebpf4jnsgd1na2vs0mg"},{"bike_id":"f5d6a402-5ce8-4bba-abe7-49a5f1cdc714","system_id":"levelo_inurba_marseille","lat":43.27501,"lon":5.42456,"is_reserved":false,"is_disabled":false,"rental_uris":{"android":"levelo://app?vid=f5d6a402-5ce8-4bba-abe7-49a5f1cdc714","ios":"levelo://app?vid=f5d6a402-5ce8-4bba-abe7-49a5f1cdc714"},"vehicle_type_id":"4","last_reported":1743401702,"current_range_meters":12800,"station_id":"ce4bhn92rcd13ifvqgrg","pricing_plan_id":"cebpf4jnsgd1na2vs0mg"},{"bike_id":"fb4b7257-a329-4750-8899-5218c646dc6a","system_id":"levelo_inurba_marseille","lat":43.30509,"lon":5.36504,"is_reserved":false,"is_disabled":true,"rental_uris":{"android":"levelo://app?vid=fb4b7257-a329-4750-8899-5218c646dc6a","ios":"levelo://app?vid=fb4b7257-a329-4750-8899-5218c646dc6a"},"vehicle_type_id":"4","last_reported":1743401702,"current_range_meters":12800,"station_id":"ce4bgs12rcd13ifvqcag","pricing_plan_id":"cebpf4jnsgd1na2vs0mg"},{"bike_id":"36806558-426e-4af7-aded-23493eac96c1","system_id":"levelo_inurba_marseille","lat":43.29805,"lon":5.38115,"is_reserved":false,"is_disabled":false,"rental_uris":{"android":"levelo://app?vid=36806558-426e-4af7-aded-23493eac96c1","ios":"levelo://app?vid=36806558-426e-4af7-aded-23493eac96c1"},"vehicle_type_id":"4","last_reported":1743401702,"current_range_meters":13600,"station_id":"ce4bgip2rcd13ifvqbb0","pricing_plan_id":"cebpf4jnsgd1na2vs0mg"},{"bike_id":"03419bd0-4a7a-4d8d-bf5d-89192f6be5b7","system_id":"levelo_inurba_marseille","lat":43.23186,"lon":5.39991,"is_reserved":false,"is_disabled":false,"rental_uris":{"android":"levelo://app?vid=03419bd0-4a7a-4d8d-bf5d-89192f6be5b7","ios":"levelo://app?vid=03419bd0-4a7a-4d8d-bf5d-89192f6be5b7"},"vehicle_type_id":"4","last_reported":1743401702,"current_range_meters":13600,"station_id":"ce4bhn12rcd13ifvqgqg","pricing_plan_id":"cebpf4jnsgd1na2vs0mg"},{"bike_id":"9a821de1-077e-4171-a99b-e15f03f0ce6a","system_id":"levelo_inurba_marseille","lat":43.292599,"lon":5.384346,"is_reserved":false,"is_disabled":true,"rental_uris":{"android":"levelo://app?vid=9a821de1-077e-4171-a99b-e15f03f0ce6a","ios":"levelo://app?vid=9a821de1-077e-4171-a99b-e15f03f0ce6a"},"vehicle_type_id":"4","last_reported":1743401702,"current_range_meters":13600,"station_id":"ce4bh692rcd13ifvqea0","pricing_plan_id":"cebpf4jnsgd1na2vs0mg"},{"bike_id":"2b480e4b-b8a7-4f29-8488-c72025a00414","system_id":"levelo_inurba_marseille","lat":43.30459,"lon":5.37904,"is_reserved":false,"is_disabled":false,"rental_uris":{"android":"levelo://app?vid=2b480e4b-b8a7-4f29-8488-c72025a00414","ios":"levelo://app?vid=2b480e4b-b8a7-4f29-8488-c72025a00414"},"vehicle_type_id":"4","last_reported":1743401702,"current_range_meters":13600,"station_id":"ce4bgup2rcd13ifvqcn0","pricing_plan_id":"cebpf4jnsgd1na2vs0mg"},{"bike_id":"3897bf96-03e2-406c-8886-331235583a77","system_id":"levelo_inurba_marseille","lat":43.27941,"lon":5.41046,"is_reserved":false,"is_disabled":false,"rental_uris":{"android":"levelo://app?vid=3897bf96-03e2-406c-8886-331235583a77","ios":"levelo://app?vid=3897bf96-03e2-406c-8886-331235583a77"},"vehicle_type_id":"4","last_reported":1743401702,"current_range_meters":13600,"station_id":"ce4bhnp2rcd13ifvqh0g","pricing_plan_id":"cebpf4jnsgd1na2vs0mg"},{"bike_id":"47c01928-ec7e-4e92-8da3-f78178d39771","system_id":"levelo_inurba_marseille","lat":43.30113,"lon":5.39895,"is_reserved":false,"is_disabled":true,"rental_uris":{"android":"levelo://app?vid=47c01928-ec7e-4e92-8da3-f78178d39771","ios":"levelo://app?vid=47c01928-ec7e-4e92-8da3-f78178d39771"},"vehicle_type_id":"4","last_reported":1743401702,"current_range_meters":13600,"station_id":"ce4bh0h2rcd13ifvqd40","pricing_plan_id":"cebpf4jnsgd1na2vs0mg"},{"bike_id":"08e023cc-498c-4cff-acdd-8edb1143f6d8","system_id":"levelo_inurba_marseille","lat":43.30096,"lon":5.39063,"is_reserved":false,"is_disabled":false,"rental_uris":{"android":"levelo://app?vid=08e023cc-498c-4cff-acdd-8edb1143f6d8","ios":"levelo://app?vid=08e023cc-498c-4cff-acdd-8edb1143f6d8"},"vehicle_type_id":"4","last_reported":1743401702,"current_range_meters":13600,"station_id":"ce4bh192rcd13ifvqdb0","pricing_plan_id":"cebpf4jnsgd1na2vs0mg"},{"bike_id":"e3ed6a7b-116d-4bce-98f8-0c4519635233","system_id":"levelo_inurba_marseille","lat":43.319406,"lon":5.374452,"is_reserved":false,"is_disabled":false,"rental_uris":{"android":"levelo://app?vid=e3ed6a7b-116d-4bce-98f8-0c4519635233","ios":"levelo://app?vid=e3ed6a7b-116d-4bce-98f8-0c4519635233"},"vehicle_type_id":"4","last_reported":1743401702,"current_range_meters":13600,"station_id":"","pricing_plan_id":"cebpf4jnsgd1na2vs0mg"},{"bike_id":"32b32d1e-89ca-40f7-a833-776b187be826","system_id":"levelo_inurba_marseille","lat":43.34142,"lon":5.40911,"is_reserved":false,"is_disabled":false,"rental_uris":{"android":"levelo://app?vid=32b32d1e-89ca-40f7-a833-776b187be826","ios":"levelo://app?vid=32b32d1e-89ca-40f7-a833-776b187be826"},"vehicle_type_id":"4","last_reported":1743401702,"current_range_meters":14000,"station_id":"ce4bhqh2rcd13ifvqhlg","pricing_plan_id":"cebpf4jnsgd1na2vs0mg"},{"bike_id":"19c4d38c-721f-4a6d-8de0-ad162aee3dc3","system_id":"levelo_inurba_marseille","lat":43.298679,"lon":5.389089,"is_reserved":false,"is_disabled":true,"rental_uris":{"android":"levelo://app?vid=19c4d38c-721f-4a6d-8de0-ad162aee3dc3","ios":"levelo://app?vid=19c4d38c-721f-4a6d-8de0-ad162aee3dc3"},"vehicle_type_id":"4","last_reported":1743401702,"current_range_meters":14000,"station_id":"ce4bh392rcd13ifvqdl0","pricing_plan_id":"cebpf4jnsgd1na2vs0mg"},{"bike_id":"c3689a63-1d58-4137-a12d-d7cbc439865c","system_id":"levelo_inurba_marseille","lat":43.27926,"lon":5.38315,"is_reserved":false,"is_disabled":false,"rental_uris":{"android":"levelo://app?vid=c3689a63-1d58-4137-a12d-d7cbc439865c","ios":"levelo://app?vid=c3689a63-1d58-4137-a12d-d7cbc439865c"},"vehicle_type_id":"4","last_reported":1743401702,"current_range_meters":14000,"station_id":"","pricing_plan_id":"cebpf4jnsgd1na2vs0mg"},{"bike_id":"416375c9-12fc-487b-8d4a-c326504cd20f","system_id":"levelo_inurba_marseille","lat":43.30141,"lon":5.38098,"is_reserved":false,"is_disabled":false,"rental_uris":{"android":"levelo://app?vid=416375c9-12fc-487b-8d4a-c326504cd20f","ios":"levelo://app?vid=416375c9-12fc-487b-8d4a-c326504cd20f"},"vehicle_type_id":"4","last_reported":1743401702,"current_range_meters":14000,"station_id":"ce4bgjp2rcd13ifvqbh0","pricing_plan_id":"cebpf4jnsgd1na2vs0mg"},{"bike_id":"fd63be84-051e-408d-b006-77fc7d83d3c7","system_id":"levelo_inurba_marseille","lat":43.32234,"lon":5.39405,"is_reserved":false,"is_disabled":false,"rental_uris":{"android":"levelo://app?vid=fd63be84-051e-408d-b006-77fc7d83d3c7","ios":"levelo://app?vid=fd63be84-051e-408d-b006-77fc7d83d3c7"},"vehicle_type_id":"4","last_reported":1743401702,"current_range_meters":14000,"station_id":"","pricing_plan_id":"cebpf4jnsgd1na2vs0mg"},{"bike_id":"7fc853a2-7ac2-4d60-8c3e-7edbf2b93f47","system_id":"levelo_inurba_marseille","lat":43.30799,"lon":5.37634,"is_reserved":false,"is_disabled":false,"rental_uris":{"android":"levelo://app?vid=7fc853a2-7ac2-4d60-8c3e-7edbf2b93f47","ios":"levelo://app?vid=7fc853a2-7ac2-4d60-8c3e-7edbf2b93f47"},"vehicle_type_id":"4","last_reported":1743401702,"current_range_meters":14000,"station_id":"ce4bgv92rcd13ifvqcq0","pricing_plan_id":"cebpf4jnsgd1na2vs0mg"},{"bike_id":"da56271d-f817-4d2a-b8ba-5220152f7401","system_id":"levelo_inurba_marseille","lat":43.30916,"lon":5.3685,"is_reserved":false,"is_disabled":false,"rental_uris":{"android":"levelo://app?vid=da56271d-f817-4d2a-b8ba-5220152f7401","ios":"levelo://app?vid=da56271d-f817-4d2a-b8ba-5220152f7401"},"vehicle_type_id":"4","last_reported":1743401702,"current_range_meters":14000,"station_id":"ce4bgn92rcd13ifvqbvg","pricing_plan_id":"cebpf4jnsgd1na2vs0mg"},{"bike_id":"2f25bd78-b2c7-4dc2-b538-824250f746d8","system_id":"levelo_inurba_marseille","lat":43.249408,"lon":5.401318,"is_reserved":false,"is_disabled":false,"rental_uris":{"android":"levelo://app?vid=2f25bd78-b2c7-4dc2-b538-824250f746d8","ios":"levelo://app?vid=2f25bd78-b2c7-4dc2-b538-824250f746d8"},"vehicle_type_id":"4","last_reported":1743401702,"current_range_meters":14400,"station_id":"ce4bhlh2rcd13ifvqgig","pricing_plan_id":"cebpf4jnsgd1na2vs0mg"},{"bike_id":"81890cbd-c135-4ba8-b270-0b513801ecd4","system_id":"levelo_inurba_marseille","lat":43.29316,"lon":5.37173,"is_reserved":false,"is_disabled":false,"rental_uris":{"android":"levelo://app?vid=81890cbd-c135-4ba8-b270-0b513801ecd4","ios":"levelo://app?vid=81890cbd-c135-4ba8-b270-0b513801ecd4"},"vehicle_type_id":"4","last_reported":1743401702,"current_range_meters":14800,"station_id":"ce4bgh92rcd13ifvqb40","pricing_plan_id":"cebpf4jnsgd1na2vs0mg"},{"bike_id":"bfc76d25-58bd-4986-a689-6dbf8c0463c7","system_id":"levelo_inurba_marseille","lat":43.2783,"lon":5.39199,"is_reserved":false,"is_disabled":false,"rental_uris":{"android":"levelo://app?vid=bfc76d25-58bd-4986-a689-6dbf8c0463c7","ios":"levelo://app?vid=bfc76d25-58bd-4986-a689-6dbf8c0463c7"},"vehicle_type_id":"4","last_reported":1743401702,"current_range_meters":14800,"station_id":"ce4bhjp2rcd13ifvqga0","pricing_plan_id":"cebpf4jnsgd1na2vs0mg"},{"bike_id":"5899e61d-a9f3-4635-9703-68fe76d4b793","system_id":"levelo_inurba_marseille","lat":43.30264,"lon":5.37743,"is_reserved":false,"is_disabled":false,"rental_uris":{"android":"levelo://app?vid=5899e61d-a9f3-4635-9703-68fe76d4b793","ios":"levelo://app?vid=5899e61d-a9f3-4635-9703-68fe76d4b793"},"vehicle_type_id":"4","last_reported":1743401702,"current_range_meters":14800,"station_id":"ce4bguh2rcd13ifvqcj0","pricing_plan_id":"cebpf4jnsgd1na2vs0mg"},{"bike_id":"27d3c47e-bf7b-497a-a92b-fd39c85c24b8","system_id":"levelo_inurba_marseille","lat":43.25072,"lon":5.39528,"is_reserved":false,"is_disabled":false,"rental_uris":{"android":"levelo://app?vid=27d3c47e-bf7b-497a-a92b-fd39c85c24b8","ios":"levelo://app?vid=27d3c47e-bf7b-497a-a92b-fd39c85c24b8"},"vehicle_type_id":"4","last_reported":1743401702,"current_range_meters":14800,"station_id":"ce4bhm12rcd13ifvqgkg","pricing_plan_id":"cebpf4jnsgd1na2vs0mg"},{"bike_id":"6f1fed30-9c31-4c68-b950-5141725762c1","system_id":"levelo_inurba_marseille","lat":43.30441,"lon":5.37924,"is_reserved":false,"is_disabled":false,"rental_uris":{"android":"levelo://app?vid=6f1fed30-9c31-4c68-b950-5141725762c1","ios":"levelo://app?vid=6f1fed30-9c31-4c68-b950-5141725762c1"},"vehicle_type_id":"4","last_reported":1743401702,"current_range_meters":14800,"station_id":"ce4bgup2rcd13ifvqcn0","pricing_plan_id":"cebpf4jnsgd1na2vs0mg"},{"bike_id":"8f4145c4-1bd6-401b-a227-c2c77bf7d7af","system_id":"levelo_inurba_marseille","lat":43.30288,"lon":5.40107,"is_reserved":false,"is_disabled":true,"rental_uris":{"android":"levelo://app?vid=8f4145c4-1bd6-401b-a227-c2c77bf7d7af","ios":"levelo://app?vid=8f4145c4-1bd6-401b-a227-c2c77bf7d7af"},"vehicle_type_id":"4","last_reported":1743401702,"current_range_meters":14800,"station_id":"ce4bgvh2rcd13ifvqcs0","pricing_plan_id":"cebpf4jnsgd1na2vs0mg"},{"bike_id":"e5a729e0-47a3-440e-85bc-677f41563abb","system_id":"levelo_inurba_marseille","lat":43.23956,"lon":5.3663,"is_reserved":false,"is_disabled":true,"rental_uris":{"android":"levelo://app?vid=e5a729e0-47a3-440e-85bc-677f41563abb","ios":"levelo://app?vid=e5a729e0-47a3-440e-85bc-677f41563abb"},"vehicle_type_id":"4","last_reported":1743401702,"current_range_meters":15200,"station_id":"ce4bhi12rcd13ifvqfp0","pricing_plan_id":"cebpf4jnsgd1na2vs0mg"},{"bike_id":"c64e7ca7-5310-4c52-99b0-846521c60b8f","system_id":"levelo_inurba_marseille","lat":43.298085,"lon":5.381111,"is_reserved":false,"is_disabled":false,"rental_uris":{"android":"levelo://app?vid=c64e7ca7-5310-4c52-99b0-846521c60b8f","ios":"levelo://app?vid=c64e7ca7-5310-4c52-99b0-846521c60b8f"},"vehicle_type_id":"4","last_reported":1743401702,"current_range_meters":15200,"station_id":"ce4bgip2rcd13ifvqbb0","pricing_plan_id":"cebpf4jnsgd1na2vs0mg"},{"bike_id":"a8648bdb-db9c-49fe-b5dd-c47a6e8d86dc","system_id":"levelo_inurba_marseille","lat":43.275958,"lon":5.399544,"is_reserved":false,"is_disabled":false,"rental_uris":{"android":"levelo://app?vid=a8648bdb-db9c-49fe-b5dd-c47a6e8d86dc","ios":"levelo://app?vid=a8648bdb-db9c-49fe-b5dd-c47a6e8d86dc"},"vehicle_type_id":"4","last_reported":1743401702,"current_range_meters":15200,"station_id":"ce4bhh12rcd13ifvqfg0","pricing_plan_id":"cebpf4jnsgd1na2vs0mg"},{"bike_id":"7fbd9e2d-ca1f-4a93-b89e-3a5582a7ec74","system_id":"levelo_inurba_marseille","lat":43.2894,"lon":5.36394,"is_reserved":false,"is_disabled":false,"rental_uris":{"android":"levelo://app?vid=7fbd9e2d-ca1f-4a93-b89e-3a5582a7ec74","ios":"levelo://app?vid=7fbd9e2d-ca1f-4a93-b89e-3a5582a7ec74"},"vehicle_type_id":"4","last_reported":1743401702,"current_range_meters":15200,"station_id":"ce4bhc92rcd13ifvqetg","pricing_plan_id":"cebpf4jnsgd1na2vs0mg"},{"bike_id":"53be3a71-8368-4f25-99af-d0be90468462","system_id":"levelo_inurba_marseille","lat":43.26566,"lon":5.3903,"is_reserved":false,"is_disabled":false,"rental_uris":{"android":"levelo://app?vid=53be3a71-8368-4f25-99af-d0be90468462","ios":"levelo://app?vid=53be3a71-8368-4f25-99af-d0be90468462"},"vehicle_type_id":"4","last_reported":1743401702,"current_range_meters":15200,"station_id":"ce4bhe12rcd13ifvqf30","pricing_plan_id":"cebpf4jnsgd1na2vs0mg"},{"bike_id":"11616f39-29f1-4fc8-9d80-72b992e1abaf","system_id":"levelo_inurba_marseille","lat":43.24072,"lon":5.37719,"is_reserved":false,"is_disabled":false,"rental_uris":{"android":"levelo://app?vid=11616f39-29f1-4fc8-9d80-72b992e1abaf","ios":"levelo://app?vid=11616f39-29f1-4fc8-9d80-72b992e1abaf"},"vehicle_type_id":"4","last_reported":1743401702,"current_range_meters":15200,"station_id":"ce4bhnp2rcd13ifvqgvg","pricing_plan_id":"cebpf4jnsgd1na2vs0mg"},{"bike_id":"563f1298-5e80-43d7-bd83-8b78e60378b3","system_id":"levelo_inurba_marseille","lat":43.30533,"lon":5.36548,"is_reserved":false,"is_disabled":false,"rental_uris":{"android":"levelo://app?vid=563f1298-5e80-43d7-bd83-8b78e60378b3","ios":"levelo://app?vid=563f1298-5e80-43d7-bd83-8b78e60378b3"},"vehicle_type_id":"4","last_reported":1743401702,"current_range_meters":15200,"station_id":"ce4bgs12rcd13ifvqcag","pricing_plan_id":"cebpf4jnsgd1na2vs0mg"},{"bike_id":"dbf7f2c5-58a7-429c-b393-abf76161c01e","system_id":"levelo_inurba_marseille","lat":43.28942,"lon":5.36406,"is_reserved":false,"is_disabled":false,"rental_uris":{"android":"levelo://app?vid=dbf7f2c5-58a7-429c-b393-abf76161c01e","ios":"levelo://app?vid=dbf7f2c5-58a7-429c-b393-abf76161c01e"},"vehicle_type_id":"4","last_reported":1743401702,"current_range_meters":15200,"station_id":"ce4bhc92rcd13ifvqetg","pricing_plan_id":"cebpf4jnsgd1na2vs0mg"},{"bike_id":"163042f9-7d1d-473a-af46-b9e77211e2ce","system_id":"levelo_inurba_marseille","lat":43.27487,"lon":5.42465,"is_reserved":false,"is_disabled":false,"rental_uris":{"android":"levelo://app?vid=163042f9-7d1d-473a-af46-b9e77211e2ce","ios":"levelo://app?vid=163042f9-7d1d-473a-af46-b9e77211e2ce"},"vehicle_type_id":"4","last_reported":1743401702,"current_range_meters":15200,"station_id":"ce4bhn92rcd13ifvqgrg","pricing_plan_id":"cebpf4jnsgd1na2vs0mg"},{"bike_id":"ef9d5cd2-85fe-4908-be3c-e150690cbc6b","system_id":"levelo_inurba_marseille","lat":43.275727,"lon":5.395623,"is_reserved":false,"is_disabled":false,"rental_uris":{"android":"levelo://app?vid=ef9d5cd2-85fe-4908-be3c-e150690cbc6b","ios":"levelo://app?vid=ef9d5cd2-85fe-4908-be3c-e150690cbc6b"},"vehicle_type_id":"4","last_reported":1743401702,"current_range_meters":16000,"station_id":"","pricing_plan_id":"cebpf4jnsgd1na2vs0mg"},{"bike_id":"ef4cd4df-dfe6-46b4-baf8-eb01cb6d1741","system_id":"levelo_inurba_marseille","lat":43.28142,"lon":5.42646,"is_reserved":false,"is_disabled":false,"rental_uris":{"android":"levelo://app?vid=ef4cd4df-dfe6-46b4-baf8-eb01cb6d1741","ios":"levelo://app?vid=ef4cd4df-dfe6-46b4-baf8-eb01cb6d1741"},"vehicle_type_id":"4","last_reported":1743401702,"current_range_meters":16000,"station_id":"ce4bhnh2rcd13ifvqgug","pricing_plan_id":"cebpf4jnsgd1na2vs0mg"},{"bike_id":"fba1b463-c7b5-44d0-b986-6d1b72090a93","system_id":"levelo_inurba_marseille","lat":43.34144,"lon":5.4091,"is_reserved":false,"is_disabled":false,"rental_uris":{"android":"levelo://app?vid=fba1b463-c7b5-44d0-b986-6d1b72090a93","ios":"levelo://app?vid=fba1b463-c7b5-44d0-b986-6d1b72090a93"},"vehicle_type_id":"4","last_reported":1743401702,"current_range_meters":16000,"station_id":"ce4bhqh2rcd13ifvqhlg","pricing_plan_id":"cebpf4jnsgd1na2vs0mg"},{"bike_id":"485ea5c7-8c1c-4e69-92b7-4ac46ec4332b","system_id":"levelo_inurba_marseille","lat":43.319045,"lon":5.408163,"is_reserved":false,"is_disabled":false,"rental_uris":{"android":"levelo://app?vid=485ea5c7-8c1c-4e69-92b7-4ac46ec4332b","ios":"levelo://app?vid=485ea5c7-8c1c-4e69-92b7-4ac46ec4332b"},"vehicle_type_id":"4","last_reported":1743401702,"current_range_meters":16400,"station_id":"ce4bhq12rcd13ifvqhig","pricing_plan_id":"cebpf4jnsgd1na2vs0mg"},{"bike_id":"666b44e7-b710-4f18-81e8-6a0f6cb4fe3b","system_id":"levelo_inurba_marseille","lat":43.31481,"lon":5.37323,"is_reserved":false,"is_disabled":false,"rental_uris":{"android":"levelo://app?vid=666b44e7-b710-4f18-81e8-6a0f6cb4fe3b","ios":"levelo://app?vid=666b44e7-b710-4f18-81e8-6a0f6cb4fe3b"},"vehicle_type_id":"4","last_reported":1743401702,"current_range_meters":16000,"station_id":"ce4bgt12rcd13ifvqcd0","pricing_plan_id":"cebpf4jnsgd1na2vs0mg"},{"bike_id":"b0497ccc-2096-49a5-b0ca-cd0f37b39f18","system_id":"levelo_inurba_marseille","lat":43.29027,"lon":5.38654,"is_reserved":false,"is_disabled":true,"rental_uris":{"android":"levelo://app?vid=b0497ccc-2096-49a5-b0ca-cd0f37b39f18","ios":"levelo://app?vid=b0497ccc-2096-49a5-b0ca-cd0f37b39f18"},"vehicle_type_id":"4","last_reported":1743401702,"current_range_meters":16400,"station_id":"ce4bh4p2rcd13ifvqe0g","pricing_plan_id":"cebpf4jnsgd1na2vs0mg"},{"bike_id":"c0df8ce0-b306-461c-9ebc-778c2050dfa4","system_id":"levelo_inurba_marseille","lat":43.30312,"lon":5.36902,"is_reserved":false,"is_disabled":false,"rental_uris":{"android":"levelo://app?vid=c0df8ce0-b306-461c-9ebc-778c2050dfa4","ios":"levelo://app?vid=c0df8ce0-b306-461c-9ebc-778c2050dfa4"},"vehicle_type_id":"4","last_reported":1743401702,"current_range_meters":16400,"station_id":"ce4bgqh2rcd13ifvqc5g","pricing_plan_id":"cebpf4jnsgd1na2vs0mg"},{"bike_id":"bd368eb1-94ca-403e-a36f-40b278b7713b","system_id":"levelo_inurba_marseille","lat":43.30135,"lon":5.38781,"is_reserved":false,"is_disabled":true,"rental_uris":{"android":"levelo://app?vid=bd368eb1-94ca-403e-a36f-40b278b7713b","ios":"levelo://app?vid=bd368eb1-94ca-403e-a36f-40b278b7713b"},"vehicle_type_id":"4","last_reported":1743401702,"current_range_meters":16400,"station_id":"ce4bghh2rcd13ifvqb60","pricing_plan_id":"cebpf4jnsgd1na2vs0mg"},{"bike_id":"a9a1ec5e-e242-4104-8651-9b1cbd5d867f","system_id":"levelo_inurba_marseille","lat":43.29598,"lon":5.37681,"is_reserved":false,"is_disabled":true,"rental_uris":{"android":"levelo://app?vid=a9a1ec5e-e242-4104-8651-9b1cbd5d867f","ios":"levelo://app?vid=a9a1ec5e-e242-4104-8651-9b1cbd5d867f"},"vehicle_type_id":"4","last_reported":1743401702,"current_range_meters":16400,"station_id":"ce4bgi92rcd13ifvqb90","pricing_plan_id":"cebpf4jnsgd1na2vs0mg"},{"bike_id":"4805920f-0f69-41bd-8d51-d6f3c21fa66e","system_id":"levelo_inurba_marseille","lat":43.28933,"lon":5.36637,"is_reserved":false,"is_disabled":false,"rental_uris":{"android":"levelo://app?vid=4805920f-0f69-41bd-8d51-d6f3c21fa66e","ios":"levelo://app?vid=4805920f-0f69-41bd-8d51-d6f3c21fa66e"},"vehicle_type_id":"4","last_reported":1743401702,"current_range_meters":16400,"station_id":"ce4bhap2rcd13ifvqek0","pricing_plan_id":"cebpf4jnsgd1na2vs0mg"},{"bike_id":"bf0b8c01-7f7e-410f-8488-8c41c3043c88","system_id":"levelo_inurba_marseille","lat":43.28977,"lon":5.37838,"is_reserved":false,"is_disabled":true,"rental_uris":{"android":"levelo://app?vid=bf0b8c01-7f7e-410f-8488-8c41c3043c88","ios":"levelo://app?vid=bf0b8c01-7f7e-410f-8488-8c41c3043c88"},"vehicle_type_id":"4","last_reported":1743401702,"current_range_meters":16400,"station_id":"ce4bh9p2rcd13ifvqed0","pricing_plan_id":"cebpf4jnsgd1na2vs0mg"},{"bike_id":"5250d671-0de4-4b59-9123-3fcfe4aff0c7","system_id":"levelo_inurba_marseille","lat":43.24058,"lon":5.3775,"is_reserved":false,"is_disabled":false,"rental_uris":{"android":"levelo://app?vid=5250d671-0de4-4b59-9123-3fcfe4aff0c7","ios":"levelo://app?vid=5250d671-0de4-4b59-9123-3fcfe4aff0c7"},"vehicle_type_id":"4","last_reported":1743401702,"current_range_meters":16400,"station_id":"ce4bhnp2rcd13ifvqgvg","pricing_plan_id":"cebpf4jnsgd1na2vs0mg"},{"bike_id":"3681230b-7c13-403f-bcb8-b8766b082d15","system_id":"levelo_inurba_marseille","lat":43.29585,"lon":5.38084,"is_reserved":false,"is_disabled":true,"rental_uris":{"android":"levelo://app?vid=3681230b-7c13-403f-bcb8-b8766b082d15","ios":"levelo://app?vid=3681230b-7c13-403f-bcb8-b8766b082d15"},"vehicle_type_id":"4","last_reported":1743401702,"current_range_meters":16800,"station_id":"ce4bgl12rcd13ifvqbo0","pricing_plan_id":"cebpf4jnsgd1na2vs0mg"},{"bike_id":"dfd6e3e4-8c29-4f67-a0c6-7ea2a278e9c8","system_id":"levelo_inurba_marseille","lat":43.29536,"lon":5.38557,"is_reserved":false,"is_disabled":false,"rental_uris":{"android":"levelo://app?vid=dfd6e3e4-8c29-4f67-a0c6-7ea2a278e9c8","ios":"levelo://app?vid=dfd6e3e4-8c29-4f67-a0c6-7ea2a278e9c8"},"vehicle_type_id":"4","last_reported":1743401702,"current_range_meters":16800,"station_id":"ce4bgih2rcd13ifvqba0","pricing_plan_id":"cebpf4jnsgd1na2vs0mg"},{"bike_id":"f32f9bd5-8248-4af4-9308-a2932576cc4e","system_id":"levelo_inurba_marseille","lat":43.28688,"lon":5.38673,"is_reserved":false,"is_disabled":false,"rental_uris":{"android":"levelo://app?vid=f32f9bd5-8248-4af4-9308-a2932576cc4e","ios":"levelo://app?vid=f32f9bd5-8248-4af4-9308-a2932576cc4e"},"vehicle_type_id":"4","last_reported":1743401702,"current_range_meters":16800,"station_id":"ce4bh492rcd13ifvqdug","pricing_plan_id":"cebpf4jnsgd1na2vs0mg"},{"bike_id":"ab4f1731-6cf1-47f6-9cd6-f6793818ba06","system_id":"levelo_inurba_marseille","lat":43.31217,"lon":5.36865,"is_reserved":false,"is_disabled":false,"rental_uris":{"android":"levelo://app?vid=ab4f1731-6cf1-47f6-9cd6-f6793818ba06","ios":"levelo://app?vid=ab4f1731-6cf1-47f6-9cd6-f6793818ba06"},"vehicle_type_id":"4","last_reported":1743401702,"current_range_meters":16800,"station_id":"ce4bgl92rcd13ifvqbq0","pricing_plan_id":"cebpf4jnsgd1na2vs0mg"},{"bike_id":"17fe122f-0596-4081-8883-97e23f83ab0e","system_id":"levelo_inurba_marseille","lat":43.296143,"lon":5.381244,"is_reserved":false,"is_disabled":false,"rental_uris":{"android":"levelo://app?vid=17fe122f-0596-4081-8883-97e23f83ab0e","ios":"levelo://app?vid=17fe122f-0596-4081-8883-97e23f83ab0e"},"vehicle_type_id":"4","last_reported":1743401702,"current_range_meters":16800,"station_id":"ce4bh412rcd13ifvqdr0","pricing_plan_id":"cebpf4jnsgd1na2vs0mg"},{"bike_id":"94c1a6f8-b3ca-4c79-a212-3345123ebf2f","system_id":"levelo_inurba_marseille","lat":43.29043,"lon":5.39955,"is_reserved":false,"is_disabled":false,"rental_uris":{"android":"levelo://app?vid=94c1a6f8-b3ca-4c79-a212-3345123ebf2f","ios":"levelo://app?vid=94c1a6f8-b3ca-4c79-a212-3345123ebf2f"},"vehicle_type_id":"4","last_reported":1743401702,"current_range_meters":16800,"station_id":"ce4bh392rcd13ifvqdm0","pricing_plan_id":"cebpf4jnsgd1na2vs0mg"},{"bike_id":"9f4ff802-7775-42cb-a98a-e3a9c65a1f54","system_id":"levelo_inurba_marseille","lat":43.290402,"lon":5.399583,"is_reserved":false,"is_disabled":true,"rental_uris":{"android":"levelo://app?vid=9f4ff802-7775-42cb-a98a-e3a9c65a1f54","ios":"levelo://app?vid=9f4ff802-7775-42cb-a98a-e3a9c65a1f54"},"vehicle_type_id":"4","last_reported":1743401702,"current_range_meters":16800,"station_id":"ce4bh392rcd13ifvqdm0","pricing_plan_id":"cebpf4jnsgd1na2vs0mg"},{"bike_id":"498394d7-f612-4341-9d4a-fd11705986ba","system_id":"levelo_inurba_marseille","lat":43.26552,"lon":5.39027,"is_reserved":false,"is_disabled":false,"rental_uris":{"android":"levelo://app?vid=498394d7-f612-4341-9d4a-fd11705986ba","ios":"levelo://app?vid=498394d7-f612-4341-9d4a-fd11705986ba"},"vehicle_type_id":"4","last_reported":1743401702,"current_range_meters":16800,"station_id":"ce4bhe12rcd13ifvqf30","pricing_plan_id":"cebpf4jnsgd1na2vs0mg"},{"bike_id":"7a449edf-0985-472f-b804-c8376cdd7474","system_id":"levelo_inurba_marseille","lat":43.304638,"lon":5.379113,"is_reserved":false,"is_disabled":false,"rental_uris":{"android":"levelo://app?vid=7a449edf-0985-472f-b804-c8376cdd7474","ios":"levelo://app?vid=7a449edf-0985-472f-b804-c8376cdd7474"},"vehicle_type_id":"4","last_reported":1743401702,"current_range_meters":16800,"station_id":"ce4bh8p2rcd13ifvqeb0","pricing_plan_id":"cebpf4jnsgd1na2vs0mg"},{"bike_id":"9f26f6b4-6f8c-41bd-9823-94cef41b22be","system_id":"levelo_inurba_marseille","lat":43.23187,"lon":5.40005,"is_reserved":false,"is_disabled":false,"rental_uris":{"android":"levelo://app?vid=9f26f6b4-6f8c-41bd-9823-94cef41b22be","ios":"levelo://app?vid=9f26f6b4-6f8c-41bd-9823-94cef41b22be"},"vehicle_type_id":"4","last_reported":1743401702,"current_range_meters":16800,"station_id":"ce4bhn12rcd13ifvqgqg","pricing_plan_id":"cebpf4jnsgd1na2vs0mg"},{"bike_id":"1ebfe4cd-2aa6-4da0-986a-d783c44b44a1","system_id":"levelo_inurba_marseille","lat":43.29,"lon":5.35618,"is_reserved":false,"is_disabled":true,"rental_uris":{"android":"levelo://app?vid=1ebfe4cd-2aa6-4da0-986a-d783c44b44a1","ios":"levelo://app?vid=1ebfe4cd-2aa6-4da0-986a-d783c44b44a1"},"vehicle_type_id":"4","last_reported":1743401702,"current_range_meters":16800,"station_id":"ce4bhb92rcd13ifvqen0","pricing_plan_id":"cebpf4jnsgd1na2vs0mg"},