{"last_updated":1687367145,"ttl":30,"version":"2.2","data":{"bikes":[{"bike_id":"18a6eede-017a-499a-9685-34b5e2f2be4f","system_id":"levelo_inurba_marseille","lat":43.313391,"lon":5.36706,"is_reserved":false,"is_disabled":false,"rental_uris":{"android":"levelo://app?vid=18a6eede-017a-499a-9685-34b5e2f2be4f","ios":"levelo://app?vid=18a6eede-017a-499a-9685-34b5e2f2be4f"},"vehicle_type_id":"4","last_reported":1687367146,"current_range_meters":28800,"station_id":"ce4bgr92rcd13ifvqc6g","pricing_plan_id":"free"},{"bike_id":"6d8bd92a-346e-45c6-bbc2-24f8d85ab66b","system_id":"levelo_inurba_marseille","lat":43.312239,"lon":5.368562,"is_reserved":false,"is_disabled":false,"rental_uris":{"android":"levelo://app?vid=6d8bd92a-346e-45c6-bbc2-24f8d85ab66b","ios":"levelo://app?vid=6d8bd92a-346e-45c6-bbc2-24f8d85ab66b"},"vehicle_type_id":"4","last_reported":1687367146,"current_range_meters":31200,"station_id":"ce4bgl92rcd13ifvqbq0","pricing_plan_id":"free"},{"bike_id":"6e4fd040-1866-4783-872c-dd21a7ae18af","system_id":"levelo_inurba_marseille","lat":43.31359,"lon":5.37066,"is_reserved":false,"is_disabled":false,"rental_uris":{"android":"levelo://app?vid=6e4fd040-1866-4783-872c-dd21a7ae18af","ios":"levelo://app?vid=6e4fd040-1866-4783-872c-dd21a7ae18af"},"vehicle_type_id":"4","last_reported":1687367146,"current_range_meters":8800,"station_id":"","pricing_plan_id":"free"},{"bike_id":"c05c091d-d7c1-4dcc-ba98-907513549f6d","system_id":"levelo_inurba_marseille","lat":43.314811,"lon":5.373103,"is_reserved":false,"is_disabled":false,"rental_uris":{"android":"levelo://app?vid=c05c091d-d7c1-4dcc-ba98-907513549f6d","ios":"levelo://app?vid=c05c091d-d7c1-4dcc-ba98-907513549f6d"},"vehicle_type_id":"4","last_reported":1687367146,"current_range_meters":18800,"station_id":"ce4bgt12rcd13ifvqcd0","pricing_plan_id":"free"},{"bike_id":"b5e8bd24-b5c4-4fd6-b4a7-cc28898edf15","system_id":"levelo_inurba_marseille","lat":43.314811,"lon":5.373104,"is_reserved":false,"is_disabled":false,"rental_uris":{"android":"levelo://app?vid=b5e8bd24-b5c4-4fd6-b4a7-cc28898edf15","ios":"levelo://app?vid=b5e8bd24-b5c4-4fd6-b4a7-cc28898edf15"},"vehicle_type_id":"4","last_reported":1687367146,"current_range_meters":22800,"station_id":"ce4bgt12rcd13ifvqcd0","pricing_plan_id":"free"},{"bike_id":"7e0650dc-cc9e-460e-930a-0f2c439eb869","system_id":"levelo_inurba_marseille","lat":43.314811,"lon":5.373104,"is_reserved":false,"is_disabled":false,"rental_uris":{"android":"levelo://app?vid=7e0650dc-cc9e-460e-930a-0f2c439eb869","ios":"levelo://app?vid=7e0650dc-cc9e-460e-930a-0f2c439eb869"},"vehicle_type_id":"4","last_reported":1687367146,"current_range_meters":6800,"station_id":"ce4bgt12rcd13ifvqcd0","pricing_plan_id":"free"},{"bike_id":"6fb8907b-08c1-4405-9dd2-0ab971106bf4","system_id":"levelo_inurba_marseille","lat":43.308606,"lon":5.372099,"is_reserved":false,"is_disabled":false,"rental_uris":{"android":"levelo://app?vid=6fb8907b-08c1-4405-9dd2-0ab971106bf4","ios":"levelo://app?vid=6fb8907b-08c1-4405-9dd2-0ab971106bf4"},"vehicle_type_id":"4","last_reported":1687367146,"current_range_meters":400,"station_id":"ce4bguh2rcd13ifvqckg","pricing_plan_id":"free"},{"bike_id":"5fbdbe65-e141-4473-b7c7-3ca166ee6d1f","system_id":"levelo_inurba_marseille","lat":43.30812,"lon":5.37183,"is_reserved":false,"is_disabled":false,"rental_uris":{"android":"levelo://app?vid=5fbdbe65-e141-4473-b7c7-3ca166ee6d1f","ios":"levelo://app?vid=5fbdbe65-e141-4473-b7c7-3ca166ee6d1f"},"vehicle_type_id":"4","last_reported":1687367146,"current_range_meters":3600,"station_id":"","pricing_plan_id":"free"},{"bike_id":"a2dc2103-cc4a-41c2-8c7c-ff501a3139fd","system_id":"levelo_inurba_marseille","lat":43.3052,"lon":5.36572,"is_reserved":false,"is_disabled":false,"rental_uris":{"android":"levelo://app?vid=a2dc2103-cc4a-41c2-8c7c-ff501a3139fd","ios":"levelo://app?vid=a2dc2103-cc4a-41c2-8c7c-ff501a3139fd"},"vehicle_type_id":"4","last_reported":1687367146,"current_range_meters":2400,"station_id":"","pricing_plan_id":"free"},{"bike_id":"667ea653-15ff-4a64-a02f-383711193974","system_id":"levelo_inurba_marseille","lat":43.305121,"lon":5.367125,"is_reserved":false,"is_disabled":false,"rental_uris":{"android":"levelo://app?vid=667ea653-15ff-4a64-a02f-383711193974","ios":"levelo://app?vid=667ea653-15ff-4a64-a02f-383711193974"},"vehicle_type_id":"4","last_reported":1687367146,"current_range_meters":13600,"station_id":"ce4bgrp2rcd13ifvqc9g","pricing_plan_id":"free"},{"bike_id":"76dc8e53-d2a5-453b-93a2-a74713455a0d","system_id":"levelo_inurba_marseille","lat":43.305989,"lon":5.37225,"is_reserved":false,"is_disabled":false,"rental_uris":{"android":"levelo://app?vid=76dc8e53-d2a5-453b-93a2-a74713455a0d","ios":"levelo://app?vid=76dc8e53-d2a5-453b-93a2-a74713455a0d"},"vehicle_type_id":"4","last_reported":1687367146,"current_range_meters":0,"station_id":"ce4bgqh2rcd13ifvqc4g","pricing_plan_id":"free"},{"bike_id":"a61781c0-fd01-4cf2-8ddd-62c57618bdcc","system_id":"levelo_inurba_marseille","lat":43.305989,"lon":5.37225,"is_reserved":false,"is_disabled":false,"rental_uris":{"android":"levelo://app?vid=a61781c0-fd01-4cf2-8ddd-62c57618bdcc","ios":"levelo://app?vid=a61781c0-fd01-4cf2-8ddd-62c57618bdcc"},"vehicle_type_id":"4","last_reported":1687367146,"current_range_meters":31200,"station_id":"ce4bgqh2rcd13ifvqc4g","pricing_plan_id":"free"},{"bike_id":"bfb19d40-4453-472c-8819-5946fcacfaeb","system_id":"levelo_inurba_marseille","lat":43.305989,"lon":5.37225,"is_reserved":false,"is_disabled":false,"rental_uris":{"android":"levelo://app?vid=bfb19d40-4453-472c-8819-5946fcacfaeb","ios":"levelo://app?vid=bfb19d40-4453-472c-8819-5946fcacfaeb"},"vehicle_type_id":"4","last_reported":1687367146,"current_range_meters":31200,"station_id":"ce4bgqh2rcd13ifvqc4g","pricing_plan_id":"free"},{"bike_id":"d34152a4-53b3-4a0f-80fa-493ab957ad2e","system_id":"levelo_inurba_marseille","lat":43.305989,"lon":5.37225,"is_reserved":false,"is_disabled":false,"rental_uris":{"android":"levelo://app?vid=d34152a4-53b3-4a0f-80fa-493ab957ad2e","ios":"levelo://app?vid=d34152a4-53b3-4a0f-80fa-493ab957ad2e"},"vehicle_type_id":"4","last_reported":1687367146,"current_range_meters":20400,"station_id":"ce4bgqh2rcd13ifvqc4g","pricing_plan_id":"free"},{"bike_id":"8cdc01d5-3285-48ca-b6af-b6e56c235b75","system_id":"levelo_inurba_marseille","lat":43.305989,"lon":5.37225,"is_reserved":false,"is_disabled":false,"rental_uris":{"android":"levelo://app?vid=8cdc01d5-3285-48ca-b6af-b6e56c235b75","ios":"levelo://app?vid=8cdc01d5-3285-48ca-b6af-b6e56c235b75"},"vehicle_type_id":"4","last_reported":1687367146,"current_range_meters":21200,"station_id":"ce4bgqh2rcd13ifvqc4g","pricing_plan_id":"free"},{"bike_id":"b8619027-0a18-46ef-95be-5cfd5d45c671","system_id":"levelo_inurba_marseille","lat":43.305989,"lon":5.37225,"is_reserved":false,"is_disabled":false,"rental_uris":{"android":"levelo://app?vid=b8619027-0a18-46ef-95be-5cfd5d45c671","ios":"levelo://app?vid=b8619027-0a18-46ef-95be-5cfd5d45c671"},"vehicle_type_id":"4","last_reported":1687367146,"current_range_meters":2400,"station_id":"ce4bgqh2rcd13ifvqc4g","pricing_plan_id":"free"},{"bike_id":"1bb85147-23d9-4e6d-b947-1fb7b02e9eee","system_id":"levelo_inurba_marseille","lat":43.30588,"lon":5.37215,"is_reserved":false,"is_disabled":false,"rental_uris":{"android":"levelo://app?vid=1bb85147-23d9-4e6d-b947-1fb7b02e9eee","ios":"levelo://app?vid=1bb85147-23d9-4e6d-b947-1fb7b02e9eee"},"vehicle_type_id":"4","last_reported":1687367146,"current_range_meters":29200,"station_id":"ce4bgqh2rcd13ifvqc4g","pricing_plan_id":"free"},{"bike_id":"ae33307b-fcd5-479b-9ae1-9002ed226c6e","system_id":"levelo_inurba_marseille","lat":43.308012,"lon":5.381511,"is_reserved":false,"is_disabled":false,"rental_uris":{"android":"levelo://app?vid=ae33307b-fcd5-479b-9ae1-9002ed226c6e","ios":"levelo://app?vid=ae33307b-fcd5-479b-9ae1-9002ed226c6e"},"vehicle_type_id":"4","last_reported":1687367146,"current_range_meters":15200,"station_id":"ce4bgt12rcd13ifvqce0","pricing_plan_id":"free"},{"bike_id":"0dfae99b-c575-478b-b32f-d9ebfa072cdb","system_id":"levelo_inurba_marseille","lat":43.308012,"lon":5.381511,"is_reserved":false,"is_disabled":false,"rental_uris":{"android":"levelo://app?vid=0dfae99b-c575-478b-b32f-d9ebfa072cdb","ios":"levelo://app?vid=0dfae99b-c575-478b-b32f-d9ebfa072cdb"},"vehicle_type_id":"4","last_reported":1687367146,"current_range_meters":16400,"station_id":"ce4bgt12rcd13ifvqce0","pricing_plan_id":"free"},{"bike_id":"fb781e68-3ed0-46f4-b4c3-8daada4d63c2","system_id":"levelo_inurba_marseille","lat":43.308012,"lon":5.381511,"is_reserved":false,"is_disabled":false,"rental_uris":{"android":"levelo://app?vid=fb781e68-3ed0-46f4-b4c3-8daada4d63c2","ios":"levelo://app?vid=fb781e68-3ed0-46f4-b4c3-8daada4d63c2"},"vehicle_type_id":"4","last_reported":1687367146,"current_range_meters":4400,"station_id":"ce4bgt12rcd13ifvqce0","pricing_plan_id":"free"},{"bike_id":"075c6934-2d21-4306-aa28-2d4e06d5f2cd","system_id":"levelo_inurba_marseille","lat":43.30794,"lon":5.38166,"is_reserved":false,"is_disabled":false,"rental_uris":{"android":"levelo://app?vid=075c6934-2d21-4306-aa28-2d4e06d5f2cd","ios":"levelo://app?vid=075c6934-2d21-4306-aa28-2d4e06d5f2cd"},"vehicle_type_id":"4","last_reported":1687367146,"current_range_meters":12800,"station_id":"","pricing_plan_id":"free"},{"bike_id":"92c68dc7-f7b6-49e2-aae2-f50506eeec69","system_id":"levelo_inurba_marseille","lat":43.308012,"lon":5.381511,"is_reserved":false,"is_disabled":false,"rental_uris":{"android":"levelo://app?vid=92c68dc7-f7b6-49e2-aae2-f50506eeec69","ios":"levelo://app?vid=92c68dc7-f7b6-49e2-aae2-f50506eeec69"},"vehicle_type_id":"4","last_reported":1687367146,"current_range_meters":11200,"station_id":"ce4bgt12rcd13ifvqce0","pricing_plan_id":"free"},{"bike_id":"fa5d07e5-c90a-425e-bf30-4298974f142e","system_id":"levelo_inurba_marseille","lat":43.308012,"lon":5.381511,"is_reserved":false,"is_disabled":false,"rental_uris":{"android":"levelo://app?vid=fa5d07e5-c90a-425e-bf30-4298974f142e","ios":"levelo://app?vid=fa5d07e5-c90a-425e-bf30-4298974f142e"},"vehicle_type_id":"4","last_reported":1687367146,"current_range_meters":3600,"station_id":"ce4bgt12rcd13ifvqce0","pricing_plan_id":"free"},{"bike_id":"43fc693e-f2a9-4aec-8fd9-d094bb02cb70","system_id":"levelo_inurba_marseille","lat":43.304606,"lon":5.379026,"is_reserved":false,"is_disabled":false,"rental_uris":{"android":"levelo://app?vid=43fc693e-f2a9-4aec-8fd9-d094bb02cb70","ios":"levelo://app?vid=43fc693e-f2a9-4aec-8fd9-d094bb02cb70"},"vehicle_type_id":"4","last_reported":1687367146,"current_range_meters":5200,"station_id":"ce4bgup2rcd13ifvqcn0","pricing_plan_id":"free"},{"bike_id":"8b726c48-13cd-4781-a2a6-4d86c618c701","system_id":"levelo_inurba_marseille","lat":43.304606,"lon":5.379026,"is_reserved":false,"is_disabled":false,"rental_uris":{"android":"levelo://app?vid=8b726c48-13cd-4781-a2a6-4d86c618c701","ios":"levelo://app?vid=8b726c48-13cd-4781-a2a6-4d86c618c701"},"vehicle_type_id":"4","last_reported":1687367146,"current_range_meters":25200,"station_id":"ce4bgup2rcd13ifvqcn0","pricing_plan_id":"free"},{"bike_id":"6d757947-cb55-4daf-9d19-d0a3e211f184","system_id":"levelo_inurba_marseille","lat":43.302784,"lon":5.377158,"is_reserved":false,"is_disabled":false,"rental_uris":{"android":"levelo://app?vid=6d757947-cb55-4daf-9d19-d0a3e211f184","ios":"levelo://app?vid=6d757947-cb55-4daf-9d19-d0a3e211f184"},"vehicle_type_id":"4","last_reported":1687367146,"current_range_meters":4800,"station_id":"ce4bguh2rcd13ifvqcj0","pricing_plan_id":"free"},{"bike_id":"b11212e2-5c9c-4877-8d15-fb4bb287c459","system_id":"levelo_inurba_marseille","lat":43.302784,"lon":5.377158,"is_reserved":false,"is_disabled":false,"rental_uris":{"android":"levelo://app?vid=b11212e2-5c9c-4877-8d15-fb4bb287c459","ios":"levelo://app?vid=b11212e2-5c9c-4877-8d15-fb4bb287c459"},"vehicle_type_id":"4","last_reported":1687367146,"current_range_meters":7200,"station_id":"ce4bguh2rcd13ifvqcj0","pricing_plan_id":"free"},{"bike_id":"c50f10d4-72dc-4642-92d3-567ea1bad7d8","system_id":"levelo_inurba_marseille","lat":43.30143,"lon":5.37414,"is_reserved":false,"is_disabled":false,"rental_uris":{"android":"levelo://app?vid=c50f10d4-72dc-4642-92d3-567ea1bad7d8","ios":"levelo://app?vid=c50f10d4-72dc-4642-92d3-567ea1bad7d8"},"vehicle_type_id":"4","last_reported":1687367146,"current_range_meters":31200,"station_id":"ce4bgs92rcd13ifvqcc0","pricing_plan_id":"free"},{"bike_id":"81481807-4412-46e7-8407-fa3d3fdebe8a","system_id":"levelo_inurba_marseille","lat":43.30139,"lon":5.37422,"is_reserved":false,"is_disabled":false,"rental_uris":{"android":"levelo://app?vid=81481807-4412-46e7-8407-fa3d3fdebe8a","ios":"levelo://app?vid=81481807-4412-46e7-8407-fa3d3fdebe8a"},"vehicle_type_id":"4","last_reported":1687367146,"current_range_meters":18800,"station_id":"ce4bgs92rcd13ifvqcc0","pricing_plan_id":"free"},{"bike_id":"9764de69-b74b-48fa-876a-8b5b1200b368","system_id":"levelo_inurba_marseille","lat":43.302784,"lon":5.377158,"is_reserved":false,"is_disabled":false,"rental_uris":{"android":"levelo://app?vid=9764de69-b74b-48fa-876a-8b5b1200b368","ios":"levelo://app?vid=9764de69-b74b-48fa-876a-8b5b1200b368"},"vehicle_type_id":"4","last_reported":1687367146,"current_range_meters":12800,"station_id":"ce4bguh2rcd13ifvqcj0","pricing_plan_id":"free"},{"bike_id":"698dc3df-9285-4ef3-b925-a7424e5791fe","system_id":"levelo_inurba_marseille","lat":43.3012,"lon":5.37427,"is_reserved":false,"is_disabled":false,"rental_uris":{"android":"levelo://app?vid=698dc3df-9285-4ef3-b925-a7424e5791fe","ios":"levelo://app?vid=698dc3df-9285-4ef3-b925-a7424e5791fe"},"vehicle_type_id":"4","last_reported":1687367146,"current_range_meters":21600,"station_id":"","pricing_plan_id":"free"},{"bike_id":"e565be34-4cbf-40cb-aa32-9a335f6735ce","system_id":"levelo_inurba_marseille","lat":43.31355,"lon":5.38497,"is_reserved":false,"is_disabled":false,"rental_uris":{"android":"levelo://app?vid=e565be34-4cbf-40cb-aa32-9a335f6735ce","ios":"levelo://app?vid=e565be34-4cbf-40cb-aa32-9a335f6735ce"},"vehicle_type_id":"4","last_reported":1687367146,"current_range_meters":0,"station_id":"ce4bgt92rcd13ifvqcf0","pricing_plan_id":"free"},{"bike_id":"72c4d38f-ca58-4046-b5f6-f9a81ceed35c","system_id":"levelo_inurba_marseille","lat":43.299222,"lon":5.365554,"is_reserved":false,"is_disabled":false,"rental_uris":{"android":"levelo://app?vid=72c4d38f-ca58-4046-b5f6-f9a81ceed35c","ios":"levelo://app?vid=72c4d38f-ca58-4046-b5f6-f9a81ceed35c"},"vehicle_type_id":"4","last_reported":1687367146,"current_range_meters":31200,"station_id":"ce4bgm92rcd13ifvqbr0","pricing_plan_id":"free"},{"bike_id":"c703a086-71f5-412b-83da-74462a5f51f9","system_id":"levelo_inurba_marseille","lat":43.305364,"lon":5.384119,"is_reserved":false,"is_disabled":false,"rental_uris":{"android":"levelo://app?vid=c703a086-71f5-412b-83da-74462a5f51f9","ios":"levelo://app?vid=c703a086-71f5-412b-83da-74462a5f51f9"},"vehicle_type_id":"4","last_reported":1687367146,"current_range_meters":20400,"station_id":"ce4bgg92rcd13ifvqb30","pricing_plan_id":"free"},{"bike_id":"408cdbd3-920b-45b4-ab4e-0217d7cee4ab","system_id":"levelo_inurba_marseille","lat":43.32771,"lon":5.36682,"is_reserved":false,"is_disabled":false,"rental_uris":{"android":"levelo://app?vid=408cdbd3-920b-45b4-ab4e-0217d7cee4ab","ios":"levelo://app?vid=408cdbd3-920b-45b4-ab4e-0217d7cee4ab"},"vehicle_type_id":"4","last_reported":1687367146,"current_range_meters":4800,"station_id":"","pricing_plan_id":"free"},{"bike_id":"3139635d-6dba-423e-97ed-543cabfd2fab","system_id":"levelo_inurba_marseille","lat":43.297794,"lon":5.370888,"is_reserved":false,"is_disabled":false,"rental_uris":{"android":"levelo://app?vid=3139635d-6dba-423e-97ed-543cabfd2fab","ios":"levelo://app?vid=3139635d-6dba-423e-97ed-543cabfd2fab"},"vehicle_type_id":"4","last_reported":1687367146,"current_range_meters":21600,"station_id":"ce4bgop2rcd13ifvqc1g","pricing_plan_id":"free"},{"bike_id":"c3339efb-c603-45cb-8da9-01d5c529aca8","system_id":"levelo_inurba_marseille","lat":43.32353,"lon":5.38196,"is_reserved":false,"is_disabled":false,"rental_uris":{"android":"levelo://app?vid=c3339efb-c603-45cb-8da9-01d5c529aca8","ios":"levelo://app?vid=c3339efb-c603-45cb-8da9-01d5c529aca8"},"vehicle_type_id":"4","last_reported":1687367146,"current_range_meters":19600,"station_id":"","pricing_plan_id":"free"},{"bike_id":"62b2e7a8-61ca-46d6-bc2d-2209b91f1b78","system_id":"levelo_inurba_marseille","lat":43.328371,"lon":5.366909,"is_reserved":false,"is_disabled":false,"rental_uris":{"android":"levelo://app?vid=62b2e7a8-61ca-46d6-bc2d-2209b91f1b78","ios":"levelo://app?vid=62b2e7a8-61ca-46d6-bc2d-2209b91f1b78"},"vehicle_type_id":"4","last_reported":1687367146,"current_range_meters":3600,"station_id":"ce4bhs92rcd13ifvqi0g","pricing_plan_id":"free"},{"bike_id":"9173e4a8-78f1-4163-82c9-88d4231f23c3","system_id":"levelo_inurba_marseille","lat":43.328371,"lon":5.366909,"is_reserved":false,"is_disabled":false,"rental_uris":{"android":"levelo://app?vid=9173e4a8-78f1-4163-82c9-88d4231f23c3","ios":"levelo://app?vid=9173e4a8-78f1-4163-82c9-88d4231f23c3"},"vehicle_type_id":"4","last_reported":1687367146,"current_range_meters":31200,"station_id":"ce4bhs92rcd13ifvqi0g","pricing_plan_id":"free"},{"bike_id":"b3b33e9b-7102-4ce3-9e64-8ef15500fc00","system_id":"levelo_inurba_marseille","lat":43.328371,"lon":5.366909,"is_reserved":false,"is_disabled":false,"rental_uris":{"android":"levelo://app?vid=b3b33e9b-7102-4ce3-9e64-8ef15500fc00","ios":"levelo://app?vid=b3b33e9b-7102-4ce3-9e64-8ef15500fc00"},"vehicle_type_id":"4","last_reported":1687367146,"current_range_meters":20000,"station_id":"ce4bhs92rcd13ifvqi0g","pricing_plan_id":"free"},{"bike_id":"176f4894-d7fc-460e-aa5d-7c8c1e206dc3","system_id":"levelo_inurba_marseille","lat":43.29699,"lon":5.36603,"is_reserved":false,"is_disabled":false,"rental_uris":{"android":"levelo://app?vid=176f4894-d7fc-460e-aa5d-7c8c1e206dc3","ios":"levelo://app?vid=176f4894-d7fc-460e-aa5d-7c8c1e206dc3"},"vehicle_type_id":"4","last_reported":1687367146,"current_range_meters":18400,"station_id":"ce4bgn12rcd13ifvqbt0","pricing_plan_id":"free"},{"bike_id":"24f41ca5-b432-4feb-a0c8-a15026b97306","system_id":"levelo_inurba_marseille","lat":43.296131,"lon":5.370773,"is_reserved":false,"is_disabled":false,"rental_uris":{"android":"levelo://app?vid=24f41ca5-b432-4feb-a0c8-a15026b97306","ios":"levelo://app?vid=24f41ca5-b432-4feb-a0c8-a15026b97306"},"vehicle_type_id":"4","last_reported":1687367146,"current_range_meters":0,"station_id":"ce4bgnh2rcd13ifvqc0g","pricing_plan_id":"free"},{"bike_id":"69d30b2a-29eb-43d8-ad80-d567863c508f","system_id":"levelo_inurba_marseille","lat":43.29656,"lon":5.37402,"is_reserved":false,"is_disabled":false,"rental_uris":{"android":"levelo://app?vid=69d30b2a-29eb-43d8-ad80-d567863c508f","ios":"levelo://app?vid=69d30b2a-29eb-43d8-ad80-d567863c508f"},"vehicle_type_id":"4","last_reported":1687367146,"current_range_meters":0,"station_id":"","pricing_plan_id":"free"},{"bike_id":"041bc147-ef2f-419b-bb81-deca3bdf89e2","system_id":"levelo_inurba_marseille","lat":43.29611,"lon":5.36046,"is_reserved":false,"is_disabled":false,"rental_uris":{"android":"levelo://app?vid=041bc147-ef2f-419b-bb81-deca3bdf89e2","ios":"levelo://app?vid=041bc147-ef2f-419b-bb81-deca3bdf89e2"},"vehicle_type_id":"4","last_reported":1687367146,"current_range_meters":17600,"station_id":"","pricing_plan_id":"free"},{"bike_id":"16e5fedd-6e86-436a-a0a2-72c7cd60a6ea","system_id":"levelo_inurba_marseille","lat":43.317557,"lon":5.390173,"is_reserved":false,"is_disabled":false,"rental_uris":{"android":"levelo://app?vid=16e5fedd-6e86-436a-a0a2-72c7cd60a6ea","ios":"levelo://app?vid=16e5fedd-6e86-436a-a0a2-72c7cd60a6ea"},"vehicle_type_id":"4","last_reported":1687367146,"current_range_meters":28800,"station_id":"ce4bhqp2rcd13ifvqhng","pricing_plan_id":"free"},{"bike_id":"5a2e27fc-9c92-4460-b739-30076e740994","system_id":"levelo_inurba_marseille","lat":43.31753,"lon":5.39013,"is_reserved":false,"is_disabled":false,"rental_uris":{"android":"levelo://app?vid=5a2e27fc-9c92-4460-b739-30076e740994","ios":"levelo://app?vid=5a2e27fc-9c92-4460-b739-30076e740994"},"vehicle_type_id":"4","last_reported":1687367146,"current_range_meters":20400,"station_id":"ce4bhqp2rcd13ifvqhng","pricing_plan_id":"free"},{"bike_id":"0ed8ecec-046c-4730-a463-bda301f800c6","system_id":"levelo_inurba_marseille","lat":43.31761,"lon":5.3901,"is_reserved":false,"is_disabled":false,"rental_uris":{"android":"levelo://app?vid=0ed8ecec-046c-4730-a463-bda301f800c6","ios":"levelo://app?vid=0ed8ecec-046c-4730-a463-bda301f800c6"},"vehicle_type_id":"4","last_reported":1687367146,"current_range_meters":16400,"station_id":"ce4bhqp2rcd13ifvqhng","pricing_plan_id":"free"},{"bike_id":"649e680e-6821-4d1f-9d81-7005fd94a102","system_id":"levelo_inurba_marseille","lat":43.31755,"lon":5.39015,"is_reserved":false,"is_disabled":false,"rental_uris":{"android":"levelo://app?vid=649e680e-6821-4d1f-9d81-7005fd94a102","ios":"levelo://app?vid=649e680e-6821-4d1f-9d81-7005fd94a102"},"vehicle_type_id":"4","last_reported":1687367146,"current_range_meters":28000,"station_id":"ce4bhqp2rcd13ifvqhng","pricing_plan_id":"free"},{"bike_id":"d38c5de4-1b75-44fb-88b5-eb30bcdcd7d0","system_id":"levelo_inurba_marseille","lat":43.302008,"lon":5.394694,"is_reserved":false,"is_disabled":false,"rental_uris":{"android":"levelo://app?vid=d38c5de4-1b75-44fb-88b5-eb30bcdcd7d0","ios":"levelo://app?vid=d38c5de4-1b75-44fb-88b5-eb30bcdcd7d0"},"vehicle_type_id":"4","last_reported":1687367146,"current_range_meters":17600,"station_id":"ce4bh0p2rcd13ifvqd70","pricing_plan_id":"free"},{"bike_id":"250c8a96-8498-4211-b8f3-1b00a8d1fbaf","system_id":"levelo_inurba_marseille","lat":43.296477,"lon":5.37768,"is_reserved":false,"is_disabled":false,"rental_uris":{"android":"levelo://app?vid=250c8a96-8498-4211-b8f3-1b00a8d1fbaf","ios":"levelo://app?vid=250c8a96-8498-4211-b8f3-1b00a8d1fbaf"},"vehicle_type_id":"4","last_reported":1687367146,"current_range_meters":400,"station_id":"","pricing_plan_id":"free"},{"bike_id":"75cbf6ef-5ff0-431c-9b55-c55d1e51cb46","system_id":"levelo_inurba_marseille","lat":43.29571,"lon":5.3752,"is_reserved":false,"is_disabled":false,"rental_uris":{"android":"levelo://app?vid=75cbf6ef-5ff0-431c-9b55-c55d1e51cb46","ios":"levelo://app?vid=75cbf6ef-5ff0-431c-9b55-c55d1e51cb46"},"vehicle_type_id":"4","last_reported":1687367146,"current_range_meters":25600,"station_id":"ce4bgh92rcd13ifvqb50","pricing_plan_id":"free"},{"bike_id":"79b05cb9-9ea1-47c2-9493-e171e4e01fd2","system_id":"levelo_inurba_marseille","lat":43.29618,"lon":5.37701,"is_reserved":false,"is_disabled":false,"rental_uris":{"android":"levelo://app?vid=79b05cb9-9ea1-47c2-9493-e171e4e01fd2","ios":"levelo://app?vid=79b05cb9-9ea1-47c2-9493-e171e4e01fd2"},"vehicle_type_id":"4","last_reported":1687367146,"current_range_meters":0,"station_id":"","pricing_plan_id":"free"},{"bike_id":"13123e4d-cb29-429a-a824-0521c850031c","system_id":"levelo_inurba_marseille","lat":43.299707,"lon":5.384859,"is_reserved":false,"is_disabled":false,"rental_uris":{"android":"levelo://app?vid=13123e4d-cb29-429a-a824-0521c850031c","ios":"levelo://app?vid=13123e4d-cb29-429a-a824-0521c850031c"},"vehicle_type_id":"4","last_reported":1687367146,"current_range_meters":20000,"station_id":"ce4bgj92rcd13ifvqbd0","pricing_plan_id":"free"},{"bike_id":"c87ae325-81f1-437f-934e-8783c2beaaad","system_id":"levelo_inurba_marseille","lat":43.299707,"lon":5.384859,"is_reserved":false,"is_disabled":false,"rental_uris":{"android":"levelo://app?vid=c87ae325-81f1-437f-934e-8783c2beaaad","ios":"levelo://app?vid=c87ae325-81f1-437f-934e-8783c2beaaad"},"vehicle_type_id":"4","last_reported":1687367146,"current_range_meters":19200,"station_id":"ce4bgj92rcd13ifvqbd0","pricing_plan_id":"free"},{"bike_id":"953e80a6-5732-4c18-8bc3-326811ff356e","system_id":"levelo_inurba_marseille","lat":43.299724,"lon":5.384848,"is_reserved":false,"is_disabled":false,"rental_uris":{"android":"levelo://app?vid=953e80a6-5732-4c18-8bc3-326811ff356e","ios":"levelo://app?vid=953e80a6-5732-4c18-8bc3-326811ff356e"},"vehicle_type_id":"4","last_reported":1687367146,"current_range_meters":2400,"station_id":"ce4bgj92rcd13ifvqbd0","pricing_plan_id":"free"},{"bike_id":"5d29b226-6ce2-483d-8c5c-8c7dc63cc223","system_id":"levelo_inurba_marseille","lat":43.299724,"lon":5.384848,"is_reserved":false,"is_disabled":false,"rental_uris":{"android":"levelo://app?vid=5d29b226-6ce2-483d-8c5c-8c7dc63cc223","ios":"levelo://app?vid=5d29b226-6ce2-483d-8c5c-8c7dc63cc223"},"vehicle_type_id":"4","last_reported":1687367146,"current_range_meters":22800,"station_id":"ce4bgj92rcd13ifvqbd0","pricing_plan_id":"free"},{"bike_id":"0c1ff711-ba0a-4407-bb6c-4622a0887734","system_id":"levelo_inurba_marseille","lat":43.299724,"lon":5.384848,"is_reserved":false,"is_disabled":false,"rental_uris":{"android":"levelo://app?vid=0c1ff711-ba0a-4407-bb6c-4622a0887734","ios":"levelo://app?vid=0c1ff711-ba0a-4407-bb6c-4622a0887734"},"vehicle_type_id":"4","last_reported":1687367146,"current_range_meters":5600,"station_id":"ce4bgj92rcd13ifvqbd0","pricing_plan_id":"free"},{"bike_id":"58eb65af-6f68-4577-b59a-e2a557a3c728","system_id":"levelo_inurba_marseille","lat":43.32363,"lon":5.38878,"is_reserved":false,"is_disabled":false,"rental_uris":{"android":"levelo://app?vid=58eb65af-6f68-4577-b59a-e2a557a3c728","ios":"levelo://app?vid=58eb65af-6f68-4577-b59a-e2a557a3c728"},"vehicle_type_id":"4","last_reported":1687367146,"current_range_meters":4800,"station_id":"ce4bhqp2rcd13ifvqhog","pricing_plan_id":"free"},{"bike_id":"07e16fb3-d2a9-448f-a2bf-2b98a5617d56","system_id":"levelo_inurba_marseille","lat":43.32367,"lon":5.388836,"is_reserved":false,"is_disabled":false,"rental_uris":{"android":"levelo://app?vid=07e16fb3-d2a9-448f-a2bf-2b98a5617d56","ios":"levelo://app?vid=07e16fb3-d2a9-448f-a2bf-2b98a5617d56"},"vehicle_type_id":"4","last_reported":1687367146,"current_range_meters":20400,"station_id":"ce4bhqp2rcd13ifvqhog","pricing_plan_id":"free"},{"bike_id":"e041460a-54ae-4871-ad9f-b6135e0ef88f","system_id":"levelo_inurba_marseille","lat":43.32367,"lon":5.388836,"is_reserved":false,"is_disabled":false,"rental_uris":{"android":"levelo://app?vid=e041460a-54ae-4871-ad9f-b6135e0ef88f","ios":"levelo://app?vid=e041460a-54ae-4871-ad9f-b6135e0ef88f"},"vehicle_type_id":"4","last_reported":1687367146,"current_range_meters":0,"station_id":"ce4bhqp2rcd13ifvqhog","pricing_plan_id":"free"},{"bike_id":"62e1e21f-3f88-43a4-83a5-bbb9f2a86bae","system_id":"levelo_inurba_marseille","lat":43.32367,"lon":5.388836,"is_reserved":false,"is_disabled":false,"rental_uris":{"android":"levelo://app?vid=62e1e21f-3f88-43a4-83a5-bbb9f2a86bae","ios":"levelo://app?vid=62e1e21f-3f88-43a4-83a5-bbb9f2a86bae"},"vehicle_type_id":"4","last_reported":1687367146,"current_range_meters":19600,"station_id":"ce4bhqp2rcd13ifvqhog","pricing_plan_id":"free"},{"bike_id":"e9a5f79a-69b5-4c7c-81b9-81e43f3bff7b","system_id":"levelo_inurba_marseille","lat":43.32367,"lon":5.388836,"is_reserved":false,"is_disabled":false,"rental_uris":{"android":"levelo://app?vid=e9a5f79a-69b5-4c7c-81b9-81e43f3bff7b","ios":"levelo://app?vid=e9a5f79a-69b5-4c7c-81b9-81e43f3bff7b"},"vehicle_type_id":"4","last_reported":1687367146,"current_range_meters":24800,"station_id":"ce4bhqp2rcd13ifvqhog","pricing_plan_id":"free"},{"bike_id":"7f3b186a-73c6-49fe-b74c-1a4453d61bfc","system_id":"levelo_inurba_marseille","lat":43.2931,"lon":5.37172,"is_reserved":false,"is_disabled":false,"rental_uris":{"android":"levelo://app?vid=7f3b186a-73c6-49fe-b74c-1a4453d61bfc","ios":"levelo://app?vid=7f3b186a-73c6-49fe-b74c-1a4453d61bfc"},"vehicle_type_id":"4","last_reported":1687367146,"current_range_meters":18800,"station_id":"ce4bgh92rcd13ifvqb40","pricing_plan_id":"free"},{"bike_id":"f47d889e-f3a7-4cf7-b89b-498d12032e77","system_id":"levelo_inurba_marseille","lat":43.3056,"lon":5.39335,"is_reserved":false,"is_disabled":false,"rental_uris":{"android":"levelo://app?vid=f47d889e-f3a7-4cf7-b89b-498d12032e77","ios":"levelo://app?vid=f47d889e-f3a7-4cf7-b89b-498d12032e77"},"vehicle_type_id":"4","last_reported":1687367146,"current_range_meters":24400,"station_id":"","pricing_plan_id":"free"},{"bike_id":"846c85fa-550a-455a-b97c-8d5641250a03","system_id":"levelo_inurba_marseille","lat":43.2936,"lon":5.37835,"is_reserved":false,"is_disabled":false,"rental_uris":{"android":"levelo://app?vid=846c85fa-550a-455a-b97c-8d5641250a03","ios":"levelo://app?vid=846c85fa-550a-455a-b97c-8d5641250a03"},"vehicle_type_id":"4","last_reported":1687367146,"current_range_meters":4000,"station_id":"ce4bgjh2rcd13ifvqbf0","pricing_plan_id":"free"},{"bike_id":"ac772b77-5d37-4d4d-9956-0757003d9a3a","system_id":"levelo_inurba_marseille","lat":43.292311,"lon":5.360731,"is_reserved":false,"is_disabled":false,"rental_uris":{"android":"levelo://app?vid=ac772b77-5d37-4d4d-9956-0757003d9a3a","ios":"levelo://app?vid=ac772b77-5d37-4d4d-9956-0757003d9a3a"},"vehicle_type_id":"4","last_reported":1687367146,"current_range_meters":19600,"station_id":"ce4bhbh2rcd13ifvqeqg","pricing_plan_id":"free"},{"bike_id":"66b480a6-9947-4496-98e2-93e61a3244b4","system_id":"levelo_inurba_marseille","lat":43.30414,"lon":5.39322,"is_reserved":false,"is_disabled":false,"rental_uris":{"android":"levelo://app?vid=66b480a6-9947-4496-98e2-93e61a3244b4","ios":"levelo://app?vid=66b480a6-9947-4496-98e2-93e61a3244b4"},"vehicle_type_id":"4","last_reported":1687367146,"current_range_meters":30800,"station_id":"","pricing_plan_id":"free"},{"bike_id":"b4aae232-e06e-4b4b-9e05-1f611bdced4e","system_id":"levelo_inurba_marseille","lat":43.300852,"lon":5.390859,"is_reserved":false,"is_disabled":false,"rental_uris":{"android":"levelo://app?vid=b4aae232-e06e-4b4b-9e05-1f611bdced4e","ios":"levelo://app?vid=b4aae232-e06e-4b4b-9e05-1f611bdced4e"},"vehicle_type_id":"4","last_reported":1687367146,"current_range_meters":400,"station_id":"ce4bh192rcd13ifvqdb0","pricing_plan_id":"free"},{"bike_id":"e71a8f60-4a87-4643-999c-de55322bd0db","system_id":"levelo_inurba_marseille","lat":43.292311,"lon":5.360731,"is_reserved":false,"is_disabled":false,"rental_uris":{"android":"levelo://app?vid=e71a8f60-4a87-4643-999c-de55322bd0db","ios":"levelo://app?vid=e71a8f60-4a87-4643-999c-de55322bd0db"},"vehicle_type_id":"4","last_reported":1687367146,"current_range_meters":22000,"station_id":"ce4bhbh2rcd13ifvqeqg","pricing_plan_id":"free"},{"bike_id":"5b0cf58f-cc41-4fd1-a862-a9fde1168614","system_id":"levelo_inurba_marseille","lat":43.291675,"lon":5.371583,"is_reserved":false,"is_disabled":false,"rental_uris":{"android":"levelo://app?vid=5b0cf58f-cc41-4fd1-a862-a9fde1168614","ios":"levelo://app?vid=5b0cf58f-cc41-4fd1-a862-a9fde1168614"},"vehicle_type_id":"4","last_reported":1687367146,"current_range_meters":15600,"station_id":"ce4bha92rcd13ifvqeh0","pricing_plan_id":"free"},{"bike_id":"83967307-716b-4e55-bb40-fb9034852cef","system_id":"levelo_inurba_marseille","lat":43.291675,"lon":5.371583,"is_reserved":false,"is_disabled":false,"rental_uris":{"android":"levelo://app?vid=83967307-716b-4e55-bb40-fb9034852cef","ios":"levelo://app?vid=83967307-716b-4e55-bb40-fb9034852cef"},"vehicle_type_id":"4","last_reported":1687367146,"current_range_meters":6400,"station_id":"ce4bha92rcd13ifvqeh0","pricing_plan_id":"free"},{"bike_id":"d4ac06b9-a3b4-4de6-9de5-e4c7ae20b51f","system_id":"levelo_inurba_marseille","lat":43.313291,"lon":5.396838,"is_reserved":false,"is_disabled":false,"rental_uris":{"android":"levelo://app?vid=d4ac06b9-a3b4-4de6-9de5-e4c7ae20b51f","ios":"levelo://app?vid=d4ac06b9-a3b4-4de6-9de5-e4c7ae20b51f"},"vehicle_type_id":"4","last_reported":1687367146,"current_range_meters":17200,"station_id":"ce4bgvp2rcd13ifvqcu0","pricing_plan_id":"free"},{"bike_id":"b64b8b03-adf7-4b8d-80f6-3fd3ddb44a94","system_id":"levelo_inurba_marseille","lat":43.309038,"lon":5.396546,"is_reserved":false,"is_disabled":false,"rental_uris":{"android":"levelo://app?vid=b64b8b03-adf7-4b8d-80f6-3fd3ddb44a94","ios":"levelo://app?vid=b64b8b03-adf7-4b8d-80f6-3fd3ddb44a94"},"vehicle_type_id":"4","last_reported":1687367146,"current_range_meters":12800,"station_id":"ce4bh012rcd13ifvqcv0","pricing_plan_id":"free"},{"bike_id":"f3b881fb-c065-4d0c-9c56-fe8599642ac9","system_id":"levelo_inurba_marseille","lat":43.29529,"lon":5.385581,"is_reserved":false,"is_disabled":false,"rental_uris":{"android":"levelo://app?vid=f3b881fb-c065-4d0c-9c56-fe8599642ac9","ios":"levelo://app?vid=f3b881fb-c065-4d0c-9c56-fe8599642ac9"},"vehicle_type_id":"4","last_reported":1687367146,"current_range_meters":18400,"station_id":"ce4bgih2rcd13ifvqba0","pricing_plan_id":"free"},{"bike_id":"4e51c541-4f16-49ff-b70d-b7e667f15735","system_id":"levelo_inurba_marseille","lat":43.29529,"lon":5.385581,"is_reserved":false,"is_disabled":false,"rental_uris":{"android":"levelo://app?vid=4e51c541-4f16-49ff-b70d-b7e667f15735","ios":"levelo://app?vid=4e51c541-4f16-49ff-b70d-b7e667f15735"},"vehicle_type_id":"4","last_reported":1687367146,"current_range_meters":28400,"station_id":"ce4bgih2rcd13ifvqba0","pricing_plan_id":"free"},{"bike_id":"a4460a9a-683a-4ea8-91d6-3904ec6c6041","system_id":"levelo_inurba_marseille","lat":43.29529,"lon":5.385581,"is_reserved":false,"is_disabled":false,"rental_uris":{"android":"levelo://app?vid=a4460a9a-683a-4ea8-91d6-3904ec6c6041","ios":"levelo://app?vid=a4460a9a-683a-4ea8-91d6-3904ec6c6041"},"vehicle_type_id":"4","last_reported":1687367146,"current_range_meters":10800,"station_id":"ce4bgih2rcd13ifvqba0","pricing_plan_id":"free"},{"bike_id":"10f65e88-6554-4b3a-b521-50f5620b15fd","system_id":"levelo_inurba_marseille","lat":43.290779,"lon":5.371482,"is_reserved":false,"is_disabled":false,"rental_uris":{"android":"levelo://app?vid=10f65e88-6554-4b3a-b521-50f5620b15fd","ios":"levelo://app?vid=10f65e88-6554-4b3a-b521-50f5620b15fd"},"vehicle_type_id":"4","last_reported":1687367146,"current_range_meters":29200,"station_id":"ce4bh5p2rcd13ifvqe4g","pricing_plan_id":"free"},{"bike_id":"f26825b9-c688-41a6-87a2-70050d8864f9","system_id":"levelo_inurba_marseille","lat":43.302008,"lon":5.394694,"is_reserved":false,"is_disabled":false,"rental_uris":{"android":"levelo://app?vid=f26825b9-c688-41a6-87a2-70050d8864f9","ios":"levelo://app?vid=f26825b9-c688-41a6-87a2-70050d8864f9"},"vehicle_type_id":"4","last_reported":1687367146,"current_range_meters":0,"station_id":"ce4bh0p2rcd13ifvqd70","pricing_plan_id":"free"},{"bike_id":"c550a96f-32cb-446f-b79e-827ecb9ee551","system_id":"levelo_inurba_marseille","lat":43.302008,"lon":5.394694,"is_reserved":false,"is_disabled":false,"rental_uris":{"android":"levelo://app?vid=c550a96f-32cb-446f-b79e-827ecb9ee551","ios":"levelo://app?vid=c550a96f-32cb-446f-b79e-827ecb9ee551"},"vehicle_type_id":"4","last_reported":1687367146,"current_range_meters":19600,"station_id":"ce4bh0p2rcd13ifvqd70","pricing_plan_id":"free"},{"bike_id":"75081fd0-a5c9-4d74-b4ea-5875de86f454","system_id":"levelo_inurba_marseille","lat":43.290631,"lon":5.359244,"is_reserved":false,"is_disabled":false,"rental_uris":{"android":"levelo://app?vid=75081fd0-a5c9-4d74-b4ea-5875de86f454","ios":"levelo://app?vid=75081fd0-a5c9-4d74-b4ea-5875de86f454"},"vehicle_type_id":"4","last_reported":1687367146,"current_range_meters":28000,"station_id":"ce4bha92rcd13ifvqeg0","pricing_plan_id":"free"},{"bike_id":"a3a73c65-d347-4c73-94e4-a9f76c544622","system_id":"levelo_inurba_marseille","lat":43.2904,"lon":5.35917,"is_reserved":false,"is_disabled":false,"rental_uris":{"android":"levelo://app?vid=a3a73c65-d347-4c73-94e4-a9f76c544622","ios":"levelo://app?vid=a3a73c65-d347-4c73-94e4-a9f76c544622"},"vehicle_type_id":"4","last_reported":1687367146,"current_range_meters":400,"station_id":"","pricing_plan_id":"free"},{"bike_id":"b1c64199-04ca-4a70-9de0-03cdd3939a6d","system_id":"levelo_inurba_marseille","lat":43.29417,"lon":5.38616,"is_reserved":false,"is_disabled":false,"rental_uris":{"android":"levelo://app?vid=b1c64199-04ca-4a70-9de0-03cdd3939a6d","ios":"levelo://app?vid=b1c64199-04ca-4a70-9de0-03cdd3939a6d"},"vehicle_type_id":"4","last_reported":1687367146,"current_range_meters":15200,"station_id":"ce4bh2h2rcd13ifvqdh0","pricing_plan_id":"free"},{"bike_id":"c0cb8f0e-9e76-4df0-9336-f4d5ebc1e527","system_id":"levelo_inurba_marseille","lat":43.29417,"lon":5.38617,"is_reserved":false,"is_disabled":false,"rental_uris":{"android":"levelo://app?vid=c0cb8f0e-9e76-4df0-9336-f4d5ebc1e527","ios":"levelo://app?vid=c0cb8f0e-9e76-4df0-9336-f4d5ebc1e527"},"vehicle_type_id":"4","last_reported":1687367146,"current_range_meters":7200,"station_id":"ce4bh2h2rcd13ifvqdh0","pricing_plan_id":"free"},{"bike_id":"4d6706b1-9d02-4ca4-8788-f980b715cfeb","system_id":"levelo_inurba_marseille","lat":43.29418,"lon":5.38621,"is_reserved":false,"is_disabled":false,"rental_uris":{"android":"levelo://app?vid=4d6706b1-9d02-4ca4-8788-f980b715cfeb","ios":"levelo://app?vid=4d6706b1-9d02-4ca4-8788-f980b715cfeb"},"vehicle_type_id":"4","last_reported":1687367146,"current_range_meters":17600,"station_id":"ce4bh2h2rcd13ifvqdh0","pricing_plan_id":"free"},{"bike_id":"6aa16cc1-12e8-4dab-805f-fc79b301ab8c","system_id":"levelo_inurba_marseille","lat":43.29418,"lon":5.38622,"is_reserved":false,"is_disabled":false,"rental_uris":{"android":"levelo://app?vid=6aa16cc1-12e8-4dab-805f-fc79b301ab8c","ios":"levelo://app?vid=6aa16cc1-12e8-4dab-805f-fc79b301ab8c"},"vehicle_type_id":"4","last_reported":1687367146,"current_range_meters":4800,"station_id":"ce4bh2h2rcd13ifvqdh0","pricing_plan_id":"free"},{"bike_id":"23d93928-84bd-4706-a11b-2eca2dcb0356","system_id":"levelo_inurba_marseille","lat":43.29413,"lon":5.38614,"is_reserved":false,"is_disabled":false,"rental_uris":{"android":"levelo://app?vid=23d93928-84bd-4706-a11b-2eca2dcb0356","ios":"levelo://app?vid=23d93928-84bd-4706-a11b-2eca2dcb0356"},"vehicle_type_id":"4","last_reported":1687367146,"current_range_meters":28400,"station_id":"ce4bh2h2rcd13ifvqdh0","pricing_plan_id":"free"},{"bike_id":"556ef209-2510-4ec4-98b5-ffdf6c92f32c","system_id":"levelo_inurba_marseille","lat":43.29417,"lon":5.38622,"is_reserved":false,"is_disabled":false,"rental_uris":{"android":"levelo://app?vid=556ef209-2510-4ec4-98b5-ffdf6c92f32c","ios":"levelo://app?vid=556ef209-2510-4ec4-98b5-ffdf6c92f32c"},"vehicle_type_id":"4","last_reported":1687367146,"current_range_meters":9600,"station_id":"ce4bh2h2rcd13ifvqdh0","pricing_plan_id":"free"},{"bike_id":"1fedf06c-b213-4b79-a0d8-fd2d5324150e","system_id":"levelo_inurba_marseille","lat":43.29416,"lon":5.38623,"is_reserved":false,"is_disabled":false,"rental_uris":{"android":"levelo://app?vid=1fedf06c-b213-4b79-a0d8-fd2d5324150e","ios":"levelo://app?vid=1fedf06c-b213-4b79-a0d8-fd2d5324150e"},"vehicle_type_id":"4","last_reported":1687367146,"current_range_meters":17200,"station_id":"ce4bh2h2rcd13ifvqdh0","pricing_plan_id":"free"},{"bike_id":"4db77d34-17a9-47c6-a4d8-405c428164b2","system_id":"levelo_inurba_marseille","lat":43.29034,"lon":5.37571,"is_reserved":false,"is_disabled":false,"rental_uris":{"android":"levelo://app?vid=4db77d34-17a9-47c6-a4d8-405c428164b2","ios":"levelo://app?vid=4db77d34-17a9-47c6-a4d8-405c428164b2"},"vehicle_type_id":"4","last_reported":1687367146,"current_range_meters":30000,"station_id":"ce4bh692rcd13ifvqe90","pricing_plan_id":"free"},{"bike_id":"b3f95771-49e1-4cd6-be92-7d54963182fe","system_id":"levelo_inurba_marseille","lat":43.29417,"lon":5.38626,"is_reserved":false,"is_disabled":false,"rental_uris":{"android":"levelo://app?vid=b3f95771-49e1-4cd6-be92-7d54963182fe","ios":"levelo://app?vid=b3f95771-49e1-4cd6-be92-7d54963182fe"},"vehicle_type_id":"4","last_reported":1687367146,"current_range_meters":28000,"station_id":"ce4bh2h2rcd13ifvqdh0","pricing_plan_id":"free"},{"bike_id":"f667310b-6501-4e7d-b2d6-bbe451adc31e","system_id":"levelo_inurba_marseille","lat":43.29413,"lon":5.38621,"is_reserved":false,"is_disabled":false,"rental_uris":{"android":"levelo://app?vid=f667310b-6501-4e7d-b2d6-bbe451adc31e","ios":"levelo://app?vid=f667310b-6501-4e7d-b2d6-bbe451adc31e"},"vehicle_type_id":"4","last_reported":1687367146,"current_range_meters":2000,"station_id":"ce4bh2h2rcd13ifvqdh0","pricing_plan_id":"free"},{"bike_id":"6e91b9a9-0d12-42d8-88a2-a36791541a8f","system_id":"levelo_inurba_marseille","lat":43.29414,"lon":5.38623,"is_reserved":false,"is_disabled":false,"rental_uris":{"android":"levelo://app?vid=6e91b9a9-0d12-42d8-88a2-a36791541a8f","ios":"levelo://app?vid=6e91b9a9-0d12-42d8-88a2-a36791541a8f"},"vehicle_type_id":"4","last_reported":1687367146,"current_range_meters":13600,"station_id":"ce4bh2h2rcd13ifvqdh0","pricing_plan_id":"free"},{"bike_id":"a66c9b66-f101-44c9-99e6-aad9aa69bc36","system_id":"levelo_inurba_marseille","lat":43.29414,"lon":5.38623,"is_reserved":false,"is_disabled":false,"rental_uris":{"android":"levelo://app?vid=a66c9b66-f101-44c9-99e6-aad9aa69bc36","ios":"levelo://app?vid=a66c9b66-f101-44c9-99e6-aad9aa69bc36"},"vehicle_type_id":"4","last_reported":1687367146,"current_range_meters":22800,"station_id":"ce4bh2h2rcd13ifvqdh0","pricing_plan_id":"free"},{"bike_id":"3f8a925a-6a54-4259-a38f-9cf091aab246","system_id":"levelo_inurba_marseille","lat":43.294162,"lon":5.386292,"is_reserved":false,"is_disabled":false,"rental_uris":{"android":"levelo://app?vid=3f8a925a-6a54-4259-a38f-9cf091aab246","ios":"levelo://app?vid=3f8a925a-6a54-4259-a38f-9cf091aab246"},"vehicle_type_id":"4","last_reported":1687367146,"current_range_meters":31200,"station_id":"ce4bh2h2rcd13ifvqdh0","pricing_plan_id":"free"},{"bike_id":"5daa5356-5d61-4c5e-b3fa-717a626b8c9a","system_id":"levelo_inurba_marseille","lat":43.294101,"lon":5.386169,"is_reserved":false,"is_disabled":false,"rental_uris":{"android":"levelo://app?vid=5daa5356-5d61-4c5e-b3fa-717a626b8c9a","ios":"levelo://app?vid=5daa5356-5d61-4c5e-b3fa-717a626b8c9a"},"vehicle_type_id":"4","last_reported":1687367146,"current_range_meters":8800,"station_id":"ce4bh2h2rcd13ifvqdh0","pricing_plan_id":"free"},{"bike_id":"f459f43d-1ca2-4ffb-a899-eced0352f326","system_id":"levelo_inurba_marseille","lat":43.294162,"lon":5.386292,"is_reserved":false,"is_disabled":false,"rental_uris":{"android":"levelo://app?vid=f459f43d-1ca2-4ffb-a899-eced0352f326","ios":"levelo://app?vid=f459f43d-1ca2-4ffb-a899-eced0352f326"},"vehicle_type_id":"4","last_reported":1687367146,"current_range_meters":0,"station_id":"ce4bh2h2rcd13ifvqdh0","pricing_plan_id":"free"},{"bike_id":"0609f09b-61e5-40d1-a057-3a5b9409ddd1","system_id":"levelo_inurba_marseille","lat":43.294162,"lon":5.386292,"is_reserved":false,"is_disabled":false,"rental_uris":{"android":"levelo://app?vid=0609f09b-61e5-40d1-a057-3a5b9409ddd1","ios":"levelo://app?vid=0609f09b-61e5-40d1-a057-3a5b9409ddd1"},"vehicle_type_id":"4","last_reported":1687367146,"current_range_meters":28000,"station_id":"ce4bh2h2rcd13ifvqdh0","pricing_plan_id":"free"},{"bike_id":"5062e34e-114b-4cc1-a529-13c661e4d38e","system_id":"levelo_inurba_marseille","lat":43.29415,"lon":5.38632,"is_reserved":false,"is_disabled":false,"rental_uris":{"android":"levelo://app?vid=5062e34e-114b-4cc1-a529-13c661e4d38e","ios":"levelo://app?vid=5062e34e-114b-4cc1-a529-13c661e4d38e"},"vehicle_type_id":"4","last_reported":1687367146,"current_range_meters":19200,"station_id":"ce4bh2h2rcd13ifvqdh0","pricing_plan_id":"free"},{"bike_id":"e424b1b1-a4ea-42b4-bf96-2333b919d643","system_id":"levelo_inurba_marseille","lat":43.29417,"lon":5.38636,"is_reserved":false,"is_disabled":false,"rental_uris":{"android":"levelo://app?vid=e424b1b1-a4ea-42b4-bf96-2333b919d643","ios":"levelo://app?vid=e424b1b1-a4ea-42b4-bf96-2333b919d643"},"vehicle_type_id":"4","last_reported":1687367146,"current_range_meters":6400,"station_id":"ce4bh2h2rcd13ifvqdh0","pricing_plan_id":"free"},{"bike_id":"dcce7b26-512a-433d-bb47-2ef834fc3b6e","system_id":"levelo_inurba_marseille","lat":43.29412,"lon":5.3863,"is_reserved":false,"is_disabled":false,"rental_uris":{"android":"levelo://app?vid=dcce7b26-512a-433d-bb47-2ef834fc3b6e","ios":"levelo://app?vid=dcce7b26-512a-433d-bb47-2ef834fc3b6e"},"vehicle_type_id":"4","last_reported":1687367146,"current_range_meters":1600,"station_id":"ce4bh2h2rcd13ifvqdh0","pricing_plan_id":"free"},{"bike_id":"57bcee52-df44-4da3-9ba0-07c1827de776","system_id":"levelo_inurba_marseille","lat":43.29412,"lon":5.3863,"is_reserved":false,"is_disabled":false,"rental_uris":{"android":"levelo://app?vid=57bcee52-df44-4da3-9ba0-07c1827de776","ios":"levelo://app?vid=57bcee52-df44-4da3-9ba0-07c1827de776"},"vehicle_type_id":"4","last_reported":1687367146,"current_range_meters":14000,"station_id":"ce4bh2h2rcd13ifvqdh0","pricing_plan_id":"free"},{"bike_id":"1f2f608e-b360-4010-8871-d6591233eb83","system_id":"levelo_inurba_marseille","lat":43.294075,"lon":5.386265,"is_reserved":false,"is_disabled":false,"rental_uris":{"android":"levelo://app?vid=1f2f608e-b360-4010-8871-d6591233eb83","ios":"levelo://app?vid=1f2f608e-b360-4010-8871-d6591233eb83"},"vehicle_type_id":"4","last_reported":1687367146,"current_range_meters":12800,"station_id":"ce4bh2h2rcd13ifvqdh0","pricing_plan_id":"free"},{"bike_id":"64cc9ff4-f388-4c76-94dd-9b1f30158f5d","system_id":"levelo_inurba_marseille","lat":43.29411,"lon":5.38634,"is_reserved":false,"is_disabled":false,"rental_uris":{"android":"levelo://app?vid=64cc9ff4-f388-4c76-94dd-9b1f30158f5d","ios":"levelo://app?vid=64cc9ff4-f388-4c76-94dd-9b1f30158f5d"},"vehicle_type_id":"4","last_reported":1687367146,"current_range_meters":21200,"station_id":"ce4bh2h2rcd13ifvqdh0","pricing_plan_id":"free"},{"bike_id":"55f9af90-a31f-48f2-8804-8095ee441da1","system_id":"levelo_inurba_marseille","lat":43.289184,"lon":5.366408,"is_reserved":false,"is_disabled":false,"rental_uris":{"android":"levelo://app?vid=55f9af90-a31f-48f2-8804-8095ee441da1","ios":"levelo://app?vid=55f9af90-a31f-48f2-8804-8095ee441da1"},"vehicle_type_id":"4","last_reported":1687367146,"current_range_meters":30000,"station_id":"ce4bhap2rcd13ifvqek0","pricing_plan_id":"free"},{"bike_id":"e053e4ef-c64c-49f1-833b-986400307407","system_id":"levelo_inurba_marseille","lat":43.29426,"lon":5.38665,"is_reserved":false,"is_disabled":false,"rental_uris":{"android":"levelo://app?vid=e053e4ef-c64c-49f1-833b-986400307407","ios":"levelo://app?vid=e053e4ef-c64c-49f1-833b-986400307407"},"vehicle_type_id":"4","last_reported":1687367146,"current_range_meters":12000,"station_id":"","pricing_plan_id":"free"},{"bike_id":"8d73c54f-d4e6-45fc-b7ab-61ab95bc9b5c","system_id":"levelo_inurba_marseille","lat":43.289468,"lon":5.363719,"is_reserved":false,"is_disabled":false,"rental_uris":{"android":"levelo://app?vid=8d73c54f-d4e6-45fc-b7ab-61ab95bc9b5c","ios":"levelo://app?vid=8d73c54f-d4e6-45fc-b7ab-61ab95bc9b5c"},"vehicle_type_id":"4","last_reported":1687367146,"current_range_meters":16000,"station_id":"ce4bhc92rcd13ifvqetg","pricing_plan_id":"free"},{"bike_id":"8bb31955-d629-4d98-ae58-65aed1f085d1","system_id":"levelo_inurba_marseille","lat":43.289468,"lon":5.363719,"is_reserved":false,"is_disabled":false,"rental_uris":{"android":"levelo://app?vid=8bb31955-d629-4d98-ae58-65aed1f085d1","ios":"levelo://app?vid=8bb31955-d629-4d98-ae58-65aed1f085d1"},"vehicle_type_id":"4","last_reported":1687367146,"current_range_meters":27600,"station_id":"ce4bhc92rcd13ifvqetg","pricing_plan_id":"free"},{"bike_id":"cedcf722-3e2e-4b32-8c43-9fc003a9fc8f","system_id":"levelo_inurba_marseille","lat":43.289468,"lon":5.363719,"is_reserved":false,"is_disabled":false,"rental_uris":{"android":"levelo://app?vid=cedcf722-3e2e-4b32-8c43-9fc003a9fc8f","ios":"levelo://app?vid=cedcf722-3e2e-4b32-8c43-9fc003a9fc8f"},"vehicle_type_id":"4","last_reported":1687367146,"current_range_meters":2800,"station_id":"ce4bhc92rcd13ifvqetg","pricing_plan_id":"free"},{"bike_id":"40b997b2-f41d-42c5-8d07-b1ca93bc2775","system_id":"levelo_inurba_marseille","lat":43.289468,"lon":5.363719,"is_reserved":false,"is_disabled":false,"rental_uris":{"android":"levelo://app?vid=40b997b2-f41d-42c5-8d07-b1ca93bc2775","ios":"levelo://app?vid=40b997b2-f41d-42c5-8d07-b1ca93bc2775"},"vehicle_type_id":"4","last_reported":1687367146,"current_range_meters":17200,"station_id":"ce4bhc92rcd13ifvqetg","pricing_plan_id":"free"},{"bike_id":"9a8d351b-740b-4325-ae43-b80ecd7a99c9","system_id":"levelo_inurba_marseille","lat":43.29268,"lon":5.38418,"is_reserved":false,"is_disabled":false,"rental_uris":{"android":"levelo://app?vid=9a8d351b-740b-4325-ae43-b80ecd7a99c9","ios":"levelo://app?vid=9a8d351b-740b-4325-ae43-b80ecd7a99c9"},"vehicle_type_id":"4","last_reported":1687367146,"current_range_meters":0,"station_id":"ce4bh692rcd13ifvqea0","pricing_plan_id":"free"},{"bike_id":"c0ca2879-9e77-4315-b57e-b7057524210d","system_id":"levelo_inurba_marseille","lat":43.292644,"lon":5.384257,"is_reserved":false,"is_disabled":false,"rental_uris":{"android":"levelo://app?vid=c0ca2879-9e77-4315-b57e-b7057524210d","ios":"levelo://app?vid=c0ca2879-9e77-4315-b57e-b7057524210d"},"vehicle_type_id":"4","last_reported":1687367146,"current_range_meters":8400,"station_id":"ce4bh692rcd13ifvqea0","pricing_plan_id":"free"},{"bike_id":"109df3f3-164e-4fc7-8886-65748a5bf27e","system_id":"levelo_inurba_marseille","lat":43.292644,"lon":5.384257,"is_reserved":false,"is_disabled":false,"rental_uris":{"android":"levelo://app?vid=109df3f3-164e-4fc7-8886-65748a5bf27e","ios":"levelo://app?vid=109df3f3-164e-4fc7-8886-65748a5bf27e"},"vehicle_type_id":"4","last_reported":1687367146,"current_range_meters":23600,"station_id":"ce4bh692rcd13ifvqea0","pricing_plan_id":"free"},{"bike_id":"90f3de37-aa8b-4550-b80d-2014e28238f4","system_id":"levelo_inurba_marseille","lat":43.29266,"lon":5.3843,"is_reserved":false,"is_disabled":false,"rental_uris":{"android":"levelo://app?vid=90f3de37-aa8b-4550-b80d-2014e28238f4","ios":"levelo://app?vid=90f3de37-aa8b-4550-b80d-2014e28238f4"},"vehicle_type_id":"4","last_reported":1687367146,"current_range_meters":4800,"station_id":"ce4bh692rcd13ifvqea0","pricing_plan_id":"free"},{"bike_id":"ca91983f-8681-4fbf-b883-63b92d972475","system_id":"levelo_inurba_marseille","lat":43.29262,"lon":5.38429,"is_reserved":false,"is_disabled":false,"rental_uris":{"android":"levelo://app?vid=ca91983f-8681-4fbf-b883-63b92d972475","ios":"levelo://app?vid=ca91983f-8681-4fbf-b883-63b92d972475"},"vehicle_type_id":"4","last_reported":1687367146,"current_range_meters":20400,"station_id":"ce4bh692rcd13ifvqea0","pricing_plan_id":"free"},{"bike_id":"f7f8c95a-7e62-4cd1-b7e8-14ccb8b61291","system_id":"levelo_inurba_marseille","lat":43.29264,"lon":5.38434,"is_reserved":false,"is_disabled":false,"rental_uris":{"android":"levelo://app?vid=f7f8c95a-7e62-4cd1-b7e8-14ccb8b61291","ios":"levelo://app?vid=f7f8c95a-7e62-4cd1-b7e8-14ccb8b61291"},"vehicle_type_id":"4","last_reported":1687367146,"current_range_meters":0,"station_id":"ce4bh692rcd13ifvqea0","pricing_plan_id":"free"},{"bike_id":"fb5fe36a-2d7f-4708-82ed-0cc11a62d2cd","system_id":"levelo_inurba_marseille","lat":43.29262,"lon":5.38432,"is_reserved":false,"is_disabled":false,"rental_uris":{"android":"levelo://app?vid=fb5fe36a-2d7f-4708-82ed-0cc11a62d2cd","ios":"levelo://app?vid=fb5fe36a-2d7f-4708-82ed-0cc11a62d2cd"},"vehicle_type_id":"4","last_reported":1687367146,"current_range_meters":24000,"station_id":"ce4bh692rcd13ifvqea0","pricing_plan_id":"free"},{"bike_id":"85ad5179-d2df-4a54-9828-0ce947efaa0a","system_id":"levelo_inurba_marseille","lat":43.292644,"lon":5.384257,"is_reserved":false,"is_disabled":false,"rental_uris":{"android":"levelo://app?vid=85ad5179-d2df-4a54-9828-0ce947efaa0a","ios":"levelo://app?vid=85ad5179-d2df-4a54-9828-0ce947efaa0a"},"vehicle_type_id":"4","last_reported":1687367146,"current_range_meters":18800,"station_id":"ce4bh692rcd13ifvqea0","pricing_plan_id":"free"},{"bike_id":"1ee039c9-6f9e-4b72-b23e-31b9d22e4229","system_id":"levelo_inurba_marseille","lat":43.292644,"lon":5.384257,"is_reserved":false,"is_disabled":false,"rental_uris":{"android":"levelo://app?vid=1ee039c9-6f9e-4b72-b23e-31b9d22e4229","ios":"levelo://app?vid=1ee039c9-6f9e-4b72-b23e-31b9d22e4229"},"vehicle_type_id":"4","last_reported":1687367146,"current_range_meters":4800,"station_id":"ce4bh692rcd13ifvqea0","pricing_plan_id":"free"},{"bike_id":"cf6e217a-318a-4656-bed9-192447dbf053","system_id":"levelo_inurba_marseille","lat":43.29262,"lon":5.38437,"is_reserved":false,"is_disabled":false,"rental_uris":{"android":"levelo://app?vid=cf6e217a-318a-4656-bed9-192447dbf053","ios":"levelo://app?vid=cf6e217a-318a-4656-bed9-192447dbf053"},"vehicle_type_id":"4","last_reported":1687367146,"current_range_meters":2000,"station_id":"ce4bh692rcd13ifvqea0","pricing_plan_id":"free"},{"bike_id":"d2a05ea1-2fa3-426c-8587-877ac76563f8","system_id":"levelo_inurba_marseille","lat":43.29262,"lon":5.38437,"is_reserved":false,"is_disabled":false,"rental_uris":{"android":"levelo://app?vid=d2a05ea1-2fa3-426c-8587-877ac76563f8","ios":"levelo://app?vid=d2a05ea1-2fa3-426c-8587-877ac76563f8"},"vehicle_type_id":"4","last_reported":1687367146,"current_range_meters":0,"station_id":"ce4bh692rcd13ifvqea0","pricing_plan_id":"free"},{"bike_id":"6b513f3d-b761-49c9-8223-3c6f6a8c8156","system_id":"levelo_inurba_marseille","lat":43.292644,"lon":5.384257,"is_reserved":false,"is_disabled":false,"rental_uris":{"android":"levelo://app?vid=6b513f3d-b761-49c9-8223-3c6f6a8c8156","ios":"levelo://app?vid=6b513f3d-b761-49c9-8223-3c6f6a8c8156"},"vehicle_type_id":"4","last_reported":1687367146,"current_range_meters":29600,"station_id":"ce4bh692rcd13ifvqea0","pricing_plan_id":"free"},{"bike_id":"a0e6405a-0a63-4657-ab03-f207a07e759a","system_id":"levelo_inurba_marseille","lat":43.304296,"lon":5.397513,"is_reserved":false,"is_disabled":false,"rental_uris":{"android":"levelo://app?vid=a0e6405a-0a63-4657-ab03-f207a07e759a","ios":"levelo://app?vid=a0e6405a-0a63-4657-ab03-f207a07e759a"},"vehicle_type_id":"4","last_reported":1687367146,"current_range_meters":18800,"station_id":"ce4bh092rcd13ifvqd20","pricing_plan_id":"free"},{"bike_id":"51c94ac5-ad35-4d1f-a04a-86afb72fa89e","system_id":"levelo_inurba_marseille","lat":43.29262,"lon":5.38439,"is_reserved":false,"is_disabled":false,"rental_uris":{"android":"levelo://app?vid=51c94ac5-ad35-4d1f-a04a-86afb72fa89e","ios":"levelo://app?vid=51c94ac5-ad35-4d1f-a04a-86afb72fa89e"},"vehicle_type_id":"4","last_reported":1687367146,"current_range_meters":24000,"station_id":"ce4bh692rcd13ifvqea0","pricing_plan_id":"free"},{"bike_id":"d9c36832-856e-4a3e-9028-426dee8d3fa3","system_id":"levelo_inurba_marseille","lat":43.292644,"lon":5.384257,"is_reserved":false,"is_disabled":false,"rental_uris":{"android":"levelo://app?vid=d9c36832-856e-4a3e-9028-426dee8d3fa3","ios":"levelo://app?vid=d9c36832-856e-4a3e-9028-426dee8d3fa3"},"vehicle_type_id":"4","last_reported":1687367146,"current_range_meters":16400,"station_id":"ce4bh692rcd13ifvqea0","pricing_plan_id":"free"},{"bike_id":"901b023e-9aff-49e7-8cd5-710887367712","system_id":"levelo_inurba_marseille","lat":43.292644,"lon":5.384257,"is_reserved":false,"is_disabled":false,"rental_uris":{"android":"levelo://app?vid=901b023e-9aff-49e7-8cd5-710887367712","ios":"levelo://app?vid=901b023e-9aff-49e7-8cd5-710887367712"},"vehicle_type_id":"4","last_reported":1687367146,"current_range_meters":14400,"station_id":"ce4bh692rcd13ifvqea0","pricing_plan_id":"free"},{"bike_id":"0978ea99-9dbd-4d3b-8e4b-741b353efd2f","system_id":"levelo_inurba_marseille","lat":43.292644,"lon":5.384257,"is_reserved":false,"is_disabled":false,"rental_uris":{"android":"levelo://app?vid=0978ea99-9dbd-4d3b-8e4b-741b353efd2f","ios":"levelo://app?vid=0978ea99-9dbd-4d3b-8e4b-741b353efd2f"},"vehicle_type_id":"4","last_reported":1687367146,"current_range_meters":28000,"station_id":"ce4bh692rcd13ifvqea0","pricing_plan_id":"free"},{"bike_id":"4c1f562c-1e6e-452d-861d-bef18a603830","system_id":"levelo_inurba_marseille","lat":43.292644,"lon":5.384257,"is_reserved":false,"is_disabled":false,"rental_uris":{"android":"levelo://app?vid=4c1f562c-1e6e-452d-861d-bef18a603830","ios":"levelo://app?vid=4c1f562c-1e6e-452d-861d-bef18a603830"},"vehicle_type_id":"4","last_reported":1687367146,"current_range_meters":22000,"station_id":"ce4bh692rcd13ifvqea0","pricing_plan_id":"free"},{"bike_id":"0bd2a4f2-7800-4877-bb9c-27a6f6711edb","system_id":"levelo_inurba_marseille","lat":43.292644,"lon":5.384257,"is_reserved":false,"is_disabled":false,"rental_uris":{"android":"levelo://app?vid=0bd2a4f2-7800-4877-bb9c-27a6f6711edb","ios":"levelo://app?vid=0bd2a4f2-7800-4877-bb9c-27a6f6711edb"},"vehicle_type_id":"4","last_reported":1687367146,"current_range_meters":15600,"station_id":"ce4bh692rcd13ifvqea0","pricing_plan_id":"free"},{"bike_id":"4aaf2d7c-458c-44e1-88a3-57badd33b0ef","system_id":"levelo_inurba_marseille","lat":43.292644,"lon":5.384257,"is_reserved":false,"is_disabled":false,"rental_uris":{"android":"levelo://app?vid=4aaf2d7c-458c-44e1-88a3-57badd33b0ef","ios":"levelo://app?vid=4aaf2d7c-458c-44e1-88a3-57badd33b0ef"},"vehicle_type_id":"4","last_reported":1687367146,"current_range_meters":5600,"station_id":"ce4bh692rcd13ifvqea0","pricing_plan_id":"free"},{"bike_id":"6719e0d3-91d2-4b04-8834-3dc97ac3ffc4","system_id":"levelo_inurba_marseille","lat":43.292644,"lon":5.384257,"is_reserved":false,"is_disabled":false,"rental_uris":{"android":"levelo://app?vid=6719e0d3-91d2-4b04-8834-3dc97ac3ffc4","ios":"levelo://app?vid=6719e0d3-91d2-4b04-8834-3dc97ac3ffc4"},"vehicle_type_id":"4","last_reported":1687367146,"current_range_meters":12400,"station_id":"ce4bh692rcd13ifvqea0","pricing_plan_id":"free"},{"bike_id":"bbfd9d04-bd47-4296-80d2-cd6a839f9715","system_id":"levelo_inurba_marseille","lat":43.292644,"lon":5.384257,"is_reserved":false,"is_disabled":false,"rental_uris":{"android":"levelo://app?vid=bbfd9d04-bd47-4296-80d2-cd6a839f9715","ios":"levelo://app?vid=bbfd9d04-bd47-4296-80d2-cd6a839f9715"},"vehicle_type_id":"4","last_reported":1687367146,"current_range_meters":1200,"station_id":"ce4bh692rcd13ifvqea0","pricing_plan_id":"free"},{"bike_id":"cb380ef2-11e7-48f7-b652-7c36d461954a","system_id":"levelo_inurba_marseille","lat":43.29256,"lon":5.38438,"is_reserved":false,"is_disabled":false,"rental_uris":{"android":"levelo://app?vid=cb380ef2-11e7-48f7-b652-7c36d461954a","ios":"levelo://app?vid=cb380ef2-11e7-48f7-b652-7c36d461954a"},"vehicle_type_id":"4","last_reported":1687367146,"current_range_meters":11600,"station_id":"ce4bh692rcd13ifvqea0","pricing_plan_id":"free"},{"bike_id":"38eb09af-7166-42b9-865e-84246929498f","system_id":"levelo_inurba_marseille","lat":43.292644,"lon":5.384257,"is_reserved":false,"is_disabled":false,"rental_uris":{"android":"levelo://app?vid=38eb09af-7166-42b9-865e-84246929498f","ios":"levelo://app?vid=38eb09af-7166-42b9-865e-84246929498f"},"vehicle_type_id":"4","last_reported":1687367146,"current_range_meters":31200,"station_id":"ce4bh692rcd13ifvqea0","pricing_plan_id":"free"},{"bike_id":"a8803c9e-7338-4791-9a71-03e2ad5b6e0d","system_id":"levelo_inurba_marseille","lat":43.29255,"lon":5.38441,"is_reserved":false,"is_disabled":false,"rental_uris":{"android":"levelo://app?vid=a8803c9e-7338-4791-9a71-03e2ad5b6e0d","ios":"levelo://app?vid=a8803c9e-7338-4791-9a71-03e2ad5b6e0d"},"vehicle_type_id":"4","last_reported":1687367146,"current_range_meters":12400,"station_id":"ce4bh692rcd13ifvqea0","pricing_plan_id":"free"},{"bike_id":"8c9bc9c1-6de4-44ba-9306-6fcecdbb6ea7","system_id":"levelo_inurba_marseille","lat":43.292644,"lon":5.384257,"is_reserved":false,"is_disabled":false,"rental_uris":{"android":"levelo://app?vid=8c9bc9c1-6de4-44ba-9306-6fcecdbb6ea7","ios":"levelo://app?vid=8c9bc9c1-6de4-44ba-9306-6fcecdbb6ea7"},"vehicle_type_id":"4","last_reported":1687367146,"current_range_meters":18400,"station_id":"ce4bh692rcd13ifvqea0","pricing_plan_id":"free"},{"bike_id":"fc488e7e-6f76-4707-bf83-66c59215fd0f","system_id":"levelo_inurba_marseille","lat":43.29273,"lon":5.38483,"is_reserved":false,"is_disabled":false,"rental_uris":{"android":"levelo://app?vid=fc488e7e-6f76-4707-bf83-66c59215fd0f","ios":"levelo://app?vid=fc488e7e-6f76-4707-bf83-66c59215fd0f"},"vehicle_type_id":"4","last_reported":1687367146,"current_range_meters":27200,"station_id":"ce4bh692rcd13ifvqea0","pricing_plan_id":"free"},{"bike_id":"bf99b357-1923-4700-b7f6-4cadffdcae65","system_id":"levelo_inurba_marseille","lat":43.29254,"lon":5.38443,"is_reserved":false,"is_disabled":false,"rental_uris":{"android":"levelo://app?vid=bf99b357-1923-4700-b7f6-4cadffdcae65","ios":"levelo://app?vid=bf99b357-1923-4700-b7f6-4cadffdcae65"},"vehicle_type_id":"4","last_reported":1687367146,"current_range_meters":800,"station_id":"ce4bh692rcd13ifvqea0","pricing_plan_id":"free"},{"bike_id":"790eb034-7ec2-4361-a217-b2a8b62ca622","system_id":"levelo_inurba_marseille","lat":43.33042,"lon":5.38912,"is_reserved":false,"is_disabled":false,"rental_uris":{"android":"levelo://app?vid=790eb034-7ec2-4361-a217-b2a8b62ca622","ios":"levelo://app?vid=790eb034-7ec2-4361-a217-b2a8b62ca622"},"vehicle_type_id":"4","last_reported":1687367146,"current_range_meters":29600,"station_id":"ce4bhr92rcd13ifvqhrg","pricing_plan_id":"free"},{"bike_id":"59d125af-16ef-419c-b0b1-36a03e1202e7","system_id":"levelo_inurba_marseille","lat":43.3304,"lon":5.38918,"is_reserved":false,"is_disabled":false,"rental_uris":{"android":"levelo://app?vid=59d125af-16ef-419c-b0b1-36a03e1202e7","ios":"levelo://app?vid=59d125af-16ef-419c-b0b1-36a03e1202e7"},"vehicle_type_id":"4","last_reported":1687367146,"current_range_meters":4800,"station_id":"ce4bhr92rcd13ifvqhrg","pricing_plan_id":"free"},{"bike_id":"01741df4-3f0e-4002-a710-278b40f46428","system_id":"levelo_inurba_marseille","lat":43.290103,"lon":5.356114,"is_reserved":false,"is_disabled":false,"rental_uris":{"android":"levelo://app?vid=01741df4-3f0e-4002-a710-278b40f46428","ios":"levelo://app?vid=01741df4-3f0e-4002-a710-278b40f46428"},"vehicle_type_id":"4","last_reported":1687367146,"current_range_meters":17200,"station_id":"ce4bhb92rcd13ifvqen0","pricing_plan_id":"free"},{"bike_id":"3fcfbde5-61ac-4b39-b722-5a8c66f2a60d","system_id":"levelo_inurba_marseille","lat":43.290103,"lon":5.356114,"is_reserved":false,"is_disabled":false,"rental_uris":{"android":"levelo://app?vid=3fcfbde5-61ac-4b39-b722-5a8c66f2a60d","ios":"levelo://app?vid=3fcfbde5-61ac-4b39-b722-5a8c66f2a60d"},"vehicle_type_id":"4","last_reported":1687367146,"current_range_meters":15200,"station_id":"ce4bhb92rcd13ifvqen0","pricing_plan_id":"free"},{"bike_id":"f59bcb5b-0a91-43e8-b20b-6e54ce2e52f4","system_id":"levelo_inurba_marseille","lat":43.290995,"lon":5.381361,"is_reserved":false,"is_disabled":false,"rental_uris":{"android":"levelo://app?vid=f59bcb5b-0a91-43e8-b20b-6e54ce2e52f4","ios":"levelo://app?vid=f59bcb5b-0a91-43e8-b20b-6e54ce2e52f4"},"vehicle_type_id":"4","last_reported":1687367146,"current_range_meters":17200,"station_id":"ce4bh512rcd13ifvqe2g","pricing_plan_id":"free"},{"bike_id":"1eb8cc70-597a-4bd5-872a-441025962f44","system_id":"levelo_inurba_marseille","lat":43.290995,"lon":5.381361,"is_reserved":false,"is_disabled":false,"rental_uris":{"android":"levelo://app?vid=1eb8cc70-597a-4bd5-872a-441025962f44","ios":"levelo://app?vid=1eb8cc70-597a-4bd5-872a-441025962f44"},"vehicle_type_id":"4","last_reported":1687367146,"current_range_meters":3200,"station_id":"ce4bh512rcd13ifvqe2g","pricing_plan_id":"free"},{"bike_id":"04bb624c-1038-4815-8d34-0e00989bd24f","system_id":"levelo_inurba_marseille","lat":43.290995,"lon":5.381361,"is_reserved":false,"is_disabled":false,"rental_uris":{"android":"levelo://app?vid=04bb624c-1038-4815-8d34-0e00989bd24f","ios":"levelo://app?vid=04bb624c-1038-4815-8d34-0e00989bd24f"},"vehicle_type_id":"4","last_reported":1687367146,"current_range_meters":9600,"station_id":"ce4bh512rcd13ifvqe2g","pricing_plan_id":"free"},{"bike_id":"cac6c71e-69e0-455a-a92b-8772ea6b3f29","system_id":"levelo_inurba_marseille","lat":43.29783,"lon":5.39341,"is_reserved":false,"is_disabled":false,"rental_uris":{"android":"levelo://app?vid=cac6c71e-69e0-455a-a92b-8772ea6b3f29","ios":"levelo://app?vid=cac6c71e-69e0-455a-a92b-8772ea6b3f29"},"vehicle_type_id":"4","last_reported":1687367146,"current_range_meters":24400,"station_id":"chh1huq6cuj3fo74tm60","pricing_plan_id":"free"},{"bike_id":"d64105d5-7452-4d64-b8a2-8fbe62345156","system_id":"levelo_inurba_marseille","lat":43.29785,"lon":5.39344,"is_reserved":false,"is_disabled":false,"rental_uris":{"android":"levelo://app?vid=d64105d5-7452-4d64-b8a2-8fbe62345156","ios":"levelo://app?vid=d64105d5-7452-4d64-b8a2-8fbe62345156"},"vehicle_type_id":"4","last_reported":1687367146,"current_range_meters":10400,"station_id":"chh1huq6cuj3fo74tm60","pricing_plan_id":"free"},{"bike_id":"8d12ebb4-aa43-42bf-98f6-8430cfd89b59","system_id":"levelo_inurba_marseille","lat":43.2979,"lon":5.39354,"is_reserved":false,"is_disabled":false,"rental_uris":{"android":"levelo://app?vid=8d12ebb4-aa43-42bf-98f6-8430cfd89b59","ios":"levelo://app?vid=8d12ebb4-aa43-42bf-98f6-8430cfd89b59"},"vehicle_type_id":"4","last_reported":1687367146,"current_range_meters":24400,"station_id":"chh1huq6cuj3fo74tm60","pricing_plan_id":"free"},{"bike_id":"f1de422c-b195-4920-8931-6151620bc1cc","system_id":"levelo_inurba_marseille","lat":43.295169,"lon":5.390426,"is_reserved":false,"is_disabled":false,"rental_uris":{"android":"levelo://app?vid=f1de422c-b195-4920-8931-6151620bc1cc","ios":"levelo://app?vid=f1de422c-b195-4920-8931-6151620bc1cc"},"vehicle_type_id":"4","last_reported":1687367146,"current_range_meters":20000,"station_id":"ce4bh3p2rcd13ifvqdp0","pricing_plan_id":"free"},{"bike_id":"200be2fe-da9c-454c-a474-d0b38b635e3a","system_id":"levelo_inurba_marseille","lat":43.295169,"lon":5.390426,"is_reserved":false,"is_disabled":false,"rental_uris":{"android":"levelo://app?vid=200be2fe-da9c-454c-a474-d0b38b635e3a","ios":"levelo://app?vid=200be2fe-da9c-454c-a474-d0b38b635e3a"},"vehicle_type_id":"4","last_reported":1687367146,"current_range_meters":25600,"station_id":"ce4bh3p2rcd13ifvqdp0","pricing_plan_id":"free"},{"bike_id":"48be1337-18bb-4f5b-9f4a-f348ffa82576","system_id":"levelo_inurba_marseille","lat":43.295169,"lon":5.390426,"is_reserved":false,"is_disabled":false,"rental_uris":{"android":"levelo://app?vid=48be1337-18bb-4f5b-9f4a-f348ffa82576","ios":"levelo://app?vid=48be1337-18bb-4f5b-9f4a-f348ffa82576"},"vehicle_type_id":"4","last_reported":1687367146,"current_range_meters":19200,"station_id":"ce4bh3p2rcd13ifvqdp0","pricing_plan_id":"free"},{"bike_id":"2bae6adf-ba5a-49d2-9a4e-f594fc6656bc","system_id":"levelo_inurba_marseille","lat":43.295169,"lon":5.390426,"is_reserved":false,"is_disabled":false,"rental_uris":{"android":"levelo://app?vid=2bae6adf-ba5a-49d2-9a4e-f594fc6656bc","ios":"levelo://app?vid=2bae6adf-ba5a-49d2-9a4e-f594fc6656bc"},"vehicle_type_id":"4","last_reported":1687367146,"current_range_meters":400,"station_id":"ce4bh3p2rcd13ifvqdp0","pricing_plan_id":"free"},{"bike_id":"40cf9b6d-a9aa-4709-b4f3-5ce0dab9c822","system_id":"levelo_inurba_marseille","lat":43.295169,"lon":5.390426,"is_reserved":false,"is_disabled":false,"rental_uris":{"android":"levelo://app?vid=40cf9b6d-a9aa-4709-b4f3-5ce0dab9c822","ios":"levelo://app?vid=40cf9b6d-a9aa-4709-b4f3-5ce0dab9c822"},"vehicle_type_id":"4","last_reported":1687367146,"current_range_meters":12400,"station_id":"ce4bh3p2rcd13ifvqdp0","pricing_plan_id":"free"},{"bike_id":"e8e7d638-b566-4b12-bcc1-28c7e169cfcc","system_id":"levelo_inurba_marseille","lat":43.2901,"lon":5.381269,"is_reserved":false,"is_disabled":false,"rental_uris":{"android":"levelo://app?vid=e8e7d638-b566-4b12-bcc1-28c7e169cfcc","ios":"levelo://app?vid=e8e7d638-b566-4b12-bcc1-28c7e169cfcc"},"vehicle_type_id":"4","last_reported":1687367146,"current_range_meters":6400,"station_id":"ce4bh4p2rcd13ifvqe1g","pricing_plan_id":"free"},{"bike_id":"6eb99327-bfff-481b-b7b6-94b10536d833","system_id":"levelo_inurba_marseille","lat":43.2901,"lon":5.381269,"is_reserved":false,"is_disabled":false,"rental_uris":{"android":"levelo://app?vid=6eb99327-bfff-481b-b7b6-94b10536d833","ios":"levelo://app?vid=6eb99327-bfff-481b-b7b6-94b10536d833"},"vehicle_type_id":"4","last_reported":1687367146,"current_range_meters":19200,"station_id":"ce4bh4p2rcd13ifvqe1g","pricing_plan_id":"free"},{"bike_id":"47566ca1-2493-4590-8788-4e96716c2dea","system_id":"levelo_inurba_marseille","lat":43.2901,"lon":5.381269,"is_reserved":false,"is_disabled":false,"rental_uris":{"android":"levelo://app?vid=47566ca1-2493-4590-8788-4e96716c2dea","ios":"levelo://app?vid=47566ca1-2493-4590-8788-4e96716c2dea"},"vehicle_type_id":"4","last_reported":1687367146,"current_range_meters":15200,"station_id":"ce4bh4p2rcd13ifvqe1g","pricing_plan_id":"free"},{"bike_id":"fb5e6117-e8cd-469a-973d-e86e723b7cef","system_id":"levelo_inurba_marseille","lat":43.28841,"lon":5.35853,"is_reserved":false,"is_disabled":false,"rental_uris":{"android":"levelo://app?vid=fb5e6117-e8cd-469a-973d-e86e723b7cef","ios":"levelo://app?vid=fb5e6117-e8cd-469a-973d-e86e723b7cef"},"vehicle_type_id":"4","last_reported":1687367146,"current_range_meters":23200,"station_id":"ce4bhb12rcd13ifvqem0","pricing_plan_id":"free"},{"bike_id":"7f65a9c3-9c37-481e-b85e-98d2b94021fc","system_id":"levelo_inurba_marseille","lat":43.301117,"lon":5.398795,"is_reserved":false,"is_disabled":false,"rental_uris":{"android":"levelo://app?vid=7f65a9c3-9c37-481e-b85e-98d2b94021fc","ios":"levelo://app?vid=7f65a9c3-9c37-481e-b85e-98d2b94021fc"},"vehicle_type_id":"4","last_reported":1687367146,"current_range_meters":4400,"station_id":"ce4bh0h2rcd13ifvqd40","pricing_plan_id":"free"},{"bike_id":"a85989fe-50c4-4617-82b5-b7f51254bfcc","system_id":"levelo_inurba_marseille","lat":43.33741,"lon":5.37473,"is_reserved":false,"is_disabled":false,"rental_uris":{"android":"levelo://app?vid=a85989fe-50c4-4617-82b5-b7f51254bfcc","ios":"levelo://app?vid=a85989fe-50c4-4617-82b5-b7f51254bfcc"},"vehicle_type_id":"4","last_reported":1687367146,"current_range_meters":2400,"station_id":"","pricing_plan_id":"free"},{"bike_id":"e98fd470-ba5c-4335-83c7-0d48f777407a","system_id":"levelo_inurba_marseille","lat":43.33752,"lon":5.3745,"is_reserved":false,"is_disabled":false,"rental_uris":{"android":"levelo://app?vid=e98fd470-ba5c-4335-83c7-0d48f777407a","ios":"levelo://app?vid=e98fd470-ba5c-4335-83c7-0d48f777407a"},"vehicle_type_id":"4","last_reported":1687367146,"current_range_meters":30400,"station_id":"","pricing_plan_id":"free"},{"bike_id":"b0bd3bcb-bd35-4f75-8285-8f528f09b8d5","system_id":"levelo_inurba_marseille","lat":43.337575,"lon":5.374489,"is_reserved":false,"is_disabled":false,"rental_uris":{"android":"levelo://app?vid=b0bd3bcb-bd35-4f75-8285-8f528f09b8d5","ios":"levelo://app?vid=b0bd3bcb-bd35-4f75-8285-8f528f09b8d5"},"vehicle_type_id":"4","last_reported":1687367146,"current_range_meters":19200,"station_id":"","pricing_plan_id":"free"},{"bike_id":"b73c4c5c-4d81-4be5-aa18-cd39358439ec","system_id":"levelo_inurba_marseille","lat":43.33763,"lon":5.37441,"is_reserved":false,"is_disabled":false,"rental_uris":{"android":"levelo://app?vid=b73c4c5c-4d81-4be5-aa18-cd39358439ec","ios":"levelo://app?vid=b73c4c5c-4d81-4be5-aa18-cd39358439ec"},"vehicle_type_id":"4","last_reported":1687367146,"current_range_meters":31200,"station_id":"","pricing_plan_id":"free"},{"bike_id":"f007e17c-2761-4232-a630-34ced7aacdd0","system_id":"levelo_inurba_marseille","lat":43.28951,"lon":5.38155,"is_reserved":false,"is_disabled":false,"rental_uris":{"android":"levelo://app?vid=f007e17c-2761-4232-a630-34ced7aacdd0","ios":"levelo://app?vid=f007e17c-2761-4232-a630-34ced7aacdd0"},"vehicle_type_id":"4","last_reported":1687367146,"current_range_meters":17200,"station_id":"ce4bgih2rcd13ifvqba0","pricing_plan_id":"free"},{"bike_id":"1e7d4349-1a97-469a-8fe6-baa4bf3f568c","system_id":"levelo_inurba_marseille","lat":43.30645,"lon":5.401,"is_reserved":false,"is_disabled":false,"rental_uris":{"android":"levelo://app?vid=1e7d4349-1a97-469a-8fe6-baa4bf3f568c","ios":"levelo://app?vid=1e7d4349-1a97-469a-8fe6-baa4bf3f568c"},"vehicle_type_id":"4","last_reported":1687367146,"current_range_meters":22800,"station_id":"ce4bh112rcd13ifvqda0","pricing_plan_id":"free"},{"bike_id":"bdf23fc9-a782-4dca-b7f2-853b56a36722","system_id":"levelo_inurba_marseille","lat":43.301117,"lon":5.398795,"is_reserved":false,"is_disabled":false,"rental_uris":{"android":"levelo://app?vid=bdf23fc9-a782-4dca-b7f2-853b56a36722","ios":"levelo://app?vid=bdf23fc9-a782-4dca-b7f2-853b56a36722"},"vehicle_type_id":"4","last_reported":1687367146,"current_range_meters":15600,"station_id":"ce4bh0h2rcd13ifvqd40","pricing_plan_id":"free"},{"bike_id":"2d09678b-23f7-4313-a682-2a69e631bd5c","system_id":"levelo_inurba_marseille","lat":43.301117,"lon":5.398795,"is_reserved":false,"is_disabled":false,"rental_uris":{"android":"levelo://app?vid=2d09678b-23f7-4313-a682-2a69e631bd5c","ios":"levelo://app?vid=2d09678b-23f7-4313-a682-2a69e631bd5c"},"vehicle_type_id":"4","last_reported":1687367146,"current_range_meters":1200,"station_id":"ce4bh0h2rcd13ifvqd40","pricing_plan_id":"free"},{"bike_id":"5e8be6e4-ed9b-4bcc-9fdb-158f0f7abf9f","system_id":"levelo_inurba_marseille","lat":43.301117,"lon":5.398795,"is_reserved":false,"is_disabled":false,"rental_uris":{"android":"levelo://app?vid=5e8be6e4-ed9b-4bcc-9fdb-158f0f7abf9f","ios":"levelo://app?vid=5e8be6e4-ed9b-4bcc-9fdb-158f0f7abf9f"},"vehicle_type_id":"4","last_reported":1687367146,"current_range_meters":4400,"station_id":"ce4bh0h2rcd13ifvqd40","pricing_plan_id":"free"},{"bike_id":"af111faa-b1bb-477e-a37e-3a9120e25f3c","system_id":"levelo_inurba_marseille","lat":43.286591,"lon":5.363346,"is_reserved":false,"is_disabled":false,"rental_uris":{"android":"levelo://app?vid=af111faa-b1bb-477e-a37e-3a9120e25f3c","ios":"levelo://app?vid=af111faa-b1bb-477e-a37e-3a9120e25f3c"},"vehicle_type_id":"4","last_reported":1687367146,"current_range_meters":19600,"station_id":"ce4bhah2rcd13ifvqej0","pricing_plan_id":"free"},{"bike_id":"538ba18d-c040-4543-9ba9-1e425c95301a","system_id":"levelo_inurba_marseille","lat":43.286591,"lon":5.363346,"is_reserved":false,"is_disabled":false,"rental_uris":{"android":"levelo://app?vid=538ba18d-c040-4543-9ba9-1e425c95301a","ios":"levelo://app?vid=538ba18d-c040-4543-9ba9-1e425c95301a"},"vehicle_type_id":"4","last_reported":1687367146,"current_range_meters":23600,"station_id":"ce4bhah2rcd13ifvqej0","pricing_plan_id":"free"},{"bike_id":"404ec0e9-c940-4430-8c75-bb703a64057c","system_id":"levelo_inurba_marseille","lat":43.302759,"lon":5.400793,"is_reserved":false,"is_disabled":false,"rental_uris":{"android":"levelo://app?vid=404ec0e9-c940-4430-8c75-bb703a64057c","ios":"levelo://app?vid=404ec0e9-c940-4430-8c75-bb703a64057c"},"vehicle_type_id":"4","last_reported":1687367146,"current_range_meters":27600,"station_id":"ce4bgvh2rcd13ifvqcs0","pricing_plan_id":"free"},{"bike_id":"06ae58a6-03a9-4acf-8b75-8cb3760c214d","system_id":"levelo_inurba_marseille","lat":43.290345,"lon":5.38646,"is_reserved":false,"is_disabled":false,"rental_uris":{"android":"levelo://app?vid=06ae58a6-03a9-4acf-8b75-8cb3760c214d","ios":"levelo://app?vid=06ae58a6-03a9-4acf-8b75-8cb3760c214d"},"vehicle_type_id":"4","last_reported":1687367146,"current_range_meters":28400,"station_id":"ce4bh4p2rcd13ifvqe0g","pricing_plan_id":"free"},{"bike_id":"50c47435-5d6a-43ed-bc9c-ded753805d68","system_id":"levelo_inurba_marseille","lat":43.302759,"lon":5.400793,"is_reserved":false,"is_disabled":false,"rental_uris":{"android":"levelo://app?vid=50c47435-5d6a-43ed-bc9c-ded753805d68","ios":"levelo://app?vid=50c47435-5d6a-43ed-bc9c-ded753805d68"},"vehicle_type_id":"4","last_reported":1687367146,"current_range_meters":20800,"station_id":"ce4bgvh2rcd13ifvqcs0","pricing_plan_id":"free"},{"bike_id":"29d1f073-f4c4-439e-89d0-66c602be8782","system_id":"levelo_inurba_marseille","lat":43.290336,"lon":5.386425,"is_reserved":false,"is_disabled":false,"rental_uris":{"android":"levelo://app?vid=29d1f073-f4c4-439e-89d0-66c602be8782","ios":"levelo://app?vid=29d1f073-f4c4-439e-89d0-66c602be8782"},"vehicle_type_id":"4","last_reported":1687367146,"current_range_meters":10400,"station_id":"ce4bh4p2rcd13ifvqe0g","pricing_plan_id":"free"},{"bike_id":"63ba497e-5e56-4eb8-8314-7da552821790","system_id":"levelo_inurba_marseille","lat":43.290336,"lon":5.386425,"is_reserved":false,"is_disabled":false,"rental_uris":{"android":"levelo://app?vid=63ba497e-5e56-4eb8-8314-7da552821790","ios":"levelo://app?vid=63ba497e-5e56-4eb8-8314-7da552821790"},"vehicle_type_id":"4","last_reported":1687367146,"current_range_meters":22800,"station_id":"ce4bh4p2rcd13ifvqe0g","pricing_plan_id":"free"},{"bike_id":"c4d2fb96-02c8-4cd5-83fd-45069db2bcb1","system_id":"levelo_inurba_marseille","lat":43.290336,"lon":5.386425,"is_reserved":false,"is_disabled":false,"rental_uris":{"android":"levelo://app?vid=c4d2fb96-02c8-4cd5-83fd-45069db2bcb1","ios":"levelo://app?vid=c4d2fb96-02c8-4cd5-83fd-45069db2bcb1"},"vehicle_type_id":"4","last_reported":1687367146,"current_range_meters":20000,"station_id":"ce4bh4p2rcd13ifvqe0g","pricing_plan_id":"free"},{"bike_id":"c0379509-aad2-4df3-b8d8-90f602cea72f","system_id":"levelo_inurba_marseille","lat":43.302759,"lon":5.400793,"is_reserved":false,"is_disabled":false,"rental_uris":{"android":"levelo://app?vid=c0379509-aad2-4df3-b8d8-90f602cea72f","ios":"levelo://app?vid=c0379509-aad2-4df3-b8d8-90f602cea72f"},"vehicle_type_id":"4","last_reported":1687367146,"current_range_meters":12400,"station_id":"ce4bgvh2rcd13ifvqcs0","pricing_plan_id":"free"},{"bike_id":"0b6227fa-93ff-43b9-ba23-e2fa2fe01fb2","system_id":"levelo_inurba_marseille","lat":43.302759,"lon":5.400793,"is_reserved":false,"is_disabled":false,"rental_uris":{"android":"levelo://app?vid=0b6227fa-93ff-43b9-ba23-e2fa2fe01fb2","ios":"levelo://app?vid=0b6227fa-93ff-43b9-ba23-e2fa2fe01fb2"},"vehicle_type_id":"4","last_reported":1687367146,"current_range_meters":6400,"station_id":"ce4bgvh2rcd13ifvqcs0","pricing_plan_id":"free"},{"bike_id":"a69611a4-4427-48f1-8cf5-68e91a38613f","system_id":"levelo_inurba_marseille","lat":43.28608,"lon":5.37063,"is_reserved":false,"is_disabled":false,"rental_uris":{"android":"levelo://app?vid=a69611a4-4427-48f1-8cf5-68e91a38613f","ios":"levelo://app?vid=a69611a4-4427-48f1-8cf5-68e91a38613f"},"vehicle_type_id":"4","last_reported":1687367146,"current_range_meters":0,"station_id":"","pricing_plan_id":"free"},{"bike_id":"b0345d55-3f98-467e-ae13-55b019beb301","system_id":"levelo_inurba_marseille","lat":43.286039,"lon":5.370681,"is_reserved":false,"is_disabled":false,"rental_uris":{"android":"levelo://app?vid=b0345d55-3f98-467e-ae13-55b019beb301","ios":"levelo://app?vid=b0345d55-3f98-467e-ae13-55b019beb301"},"vehicle_type_id":"4","last_reported":1687367146,"current_range_meters":3600,"station_id":"ce4bht12rcd13ifvqi60","pricing_plan_id":"free"},{"bike_id":"ad8e7f19-02dd-4c8c-b811-d347fffdd8f2","system_id":"levelo_inurba_marseille","lat":43.28597,"lon":5.37174,"is_reserved":false,"is_disabled":false,"rental_uris":{"android":"levelo://app?vid=ad8e7f19-02dd-4c8c-b811-d347fffdd8f2","ios":"levelo://app?vid=ad8e7f19-02dd-4c8c-b811-d347fffdd8f2"},"vehicle_type_id":"4","last_reported":1687367146,"current_range_meters":6000,"station_id":"ce4bht12rcd13ifvqi60","pricing_plan_id":"free"},{"bike_id":"250920b0-7732-444f-873e-4a8585a97ab8","system_id":"levelo_inurba_marseille","lat":43.291994,"lon":5.392907,"is_reserved":false,"is_disabled":false,"rental_uris":{"android":"levelo://app?vid=250920b0-7732-444f-873e-4a8585a97ab8","ios":"levelo://app?vid=250920b0-7732-444f-873e-4a8585a97ab8"},"vehicle_type_id":"4","last_reported":1687367146,"current_range_meters":19200,"station_id":"ce4bh192rcd13ifvqdd0","pricing_plan_id":"free"},{"bike_id":"0e442c4f-c251-42fd-9b87-87f0056d9e05","system_id":"levelo_inurba_marseille","lat":43.28461,"lon":5.35891,"is_reserved":false,"is_disabled":false,"rental_uris":{"android":"levelo://app?vid=0e442c4f-c251-42fd-9b87-87f0056d9e05","ios":"levelo://app?vid=0e442c4f-c251-42fd-9b87-87f0056d9e05"},"vehicle_type_id":"4","last_reported":1687367146,"current_range_meters":24400,"station_id":"ce4bhah2rcd13ifvqei0","pricing_plan_id":"free"},{"bike_id":"8277dc59-1c89-49c7-aacb-46bcf422da42","system_id":"levelo_inurba_marseille","lat":43.285848,"lon":5.350787,"is_reserved":false,"is_disabled":false,"rental_uris":{"android":"levelo://app?vid=8277dc59-1c89-49c7-aacb-46bcf422da42","ios":"levelo://app?vid=8277dc59-1c89-49c7-aacb-46bcf422da42"},"vehicle_type_id":"4","last_reported":1687367146,"current_range_meters":12000,"station_id":"ce4bhch2rcd13ifvqeug","pricing_plan_id":"free"},{"bike_id":"ddced1a8-8542-4f9f-879c-8760f85a2d2d","system_id":"levelo_inurba_marseille","lat":43.285848,"lon":5.350787,"is_reserved":false,"is_disabled":false,"rental_uris":{"android":"levelo://app?vid=ddced1a8-8542-4f9f-879c-8760f85a2d2d","ios":"levelo://app?vid=ddced1a8-8542-4f9f-879c-8760f85a2d2d"},"vehicle_type_id":"4","last_reported":1687367146,"current_range_meters":12000,"station_id":"ce4bhch2rcd13ifvqeug","pricing_plan_id":"free"},{"bike_id":"ee3c97da-4ac8-42d3-b44e-1d7343e99ce4","system_id":"levelo_inurba_marseille","lat":43.2861,"lon":5.35091,"is_reserved":false,"is_disabled":false,"rental_uris":{"android":"levelo://app?vid=ee3c97da-4ac8-42d3-b44e-1d7343e99ce4","ios":"levelo://app?vid=ee3c97da-4ac8-42d3-b44e-1d7343e99ce4"},"vehicle_type_id":"4","last_reported":1687367146,"current_range_meters":30000,"station_id":"ce4bhch2rcd13ifvqeug","pricing_plan_id":"free"},{"bike_id":"a288d5f1-4cee-4760-adb9-972c28085810","system_id":"levelo_inurba_marseille","lat":43.29577,"lon":5.39978,"is_reserved":false,"is_disabled":false,"rental_uris":{"android":"levelo://app?vid=a288d5f1-4cee-4760-adb9-972c28085810","ios":"levelo://app?vid=a288d5f1-4cee-4760-adb9-972c28085810"},"vehicle_type_id":"4","last_reported":1687367146,"current_range_meters":10000,"station_id":"ce4bh312rcd13ifvqdj0","pricing_plan_id":"free"},{"bike_id":"fa6b6c4a-1f25-4361-b04d-63bf4d2bf9e1","system_id":"levelo_inurba_marseille","lat":43.295713,"lon":5.399639,"is_reserved":false,"is_disabled":false,"rental_uris":{"android":"levelo://app?vid=fa6b6c4a-1f25-4361-b04d-63bf4d2bf9e1","ios":"levelo://app?vid=fa6b6c4a-1f25-4361-b04d-63bf4d2bf9e1"},"vehicle_type_id":"4","last_reported":1687367146,"current_range_meters":1200,"station_id":"ce4bh312rcd13ifvqdj0","pricing_plan_id":"free"},{"bike_id":"bc6a026c-cbbd-4efc-8175-e333cd87554e","system_id":"levelo_inurba_marseille","lat":43.286595,"lon":5.386795,"is_reserved":false,"is_disabled":false,"rental_uris":{"android":"levelo://app?vid=bc6a026c-cbbd-4efc-8175-e333cd87554e","ios":"levelo://app?vid=bc6a026c-cbbd-4efc-8175-e333cd87554e"},"vehicle_type_id":"4","last_reported":1687367146,"current_range_meters":2000,"station_id":"ce4bh492rcd13ifvqdug","pricing_plan_id":"free"},{"bike_id":"f6fda2f2-04f1-4377-bae3-2fc212d95c47","system_id":"levelo_inurba_marseille","lat":43.34232,"lon":5.36153,"is_reserved":false,"is_disabled":false,"rental_uris":{"android":"levelo://app?vid=f6fda2f2-04f1-4377-bae3-2fc212d95c47","ios":"levelo://app?vid=f6fda2f2-04f1-4377-bae3-2fc212d95c47"},"vehicle_type_id":"4","last_reported":1687367146,"current_range_meters":5200,"station_id":"","pricing_plan_id":"free"},{"bike_id":"0b93d067-2402-4f7f-9b0c-6089fcbb550f","system_id":"levelo_inurba_marseille","lat":43.323464,"lon":5.406297,"is_reserved":false,"is_disabled":false,"rental_uris":{"android":"levelo://app?vid=0b93d067-2402-4f7f-9b0c-6089fcbb550f","ios":"levelo://app?vid=0b93d067-2402-4f7f-9b0c-6089fcbb550f"},"vehicle_type_id":"4","last_reported":1687367146,"current_range_meters":22400,"station_id":"ce4bhq92rcd13ifvqhjg","pricing_plan_id":"free"},{"bike_id":"8ebadba4-79be-476e-9554-b1679277c987","system_id":"levelo_inurba_marseille","lat":43.323464,"lon":5.406297,"is_reserved":false,"is_disabled":false,"rental_uris":{"android":"levelo://app?vid=8ebadba4-79be-476e-9554-b1679277c987","ios":"levelo://app?vid=8ebadba4-79be-476e-9554-b1679277c987"},"vehicle_type_id":"4","last_reported":1687367146,"current_range_meters":19200,"station_id":"ce4bhq92rcd13ifvqhjg","pricing_plan_id":"free"},{"bike_id":"b92063cd-5527-4dff-857e-f11ceef81684","system_id":"levelo_inurba_marseille","lat":43.28468,"lon":5.38414,"is_reserved":false,"is_disabled":false,"rental_uris":{"android":"levelo://app?vid=b92063cd-5527-4dff-857e-f11ceef81684","ios":"levelo://app?vid=b92063cd-5527-4dff-857e-f11ceef81684"},"vehicle_type_id":"4","last_reported":1687367146,"current_range_meters":800,"station_id":"ce4bh512rcd13ifvqe3g","pricing_plan_id":"free"},{"bike_id":"87dddf10-84ef-4c92-963f-13fd8975ced1","system_id":"levelo_inurba_marseille","lat":43.30684,"lon":5.40854,"is_reserved":false,"is_disabled":false,"rental_uris":{"android":"levelo://app?vid=87dddf10-84ef-4c92-963f-13fd8975ced1","ios":"levelo://app?vid=87dddf10-84ef-4c92-963f-13fd8975ced1"},"vehicle_type_id":"4","last_reported":1687367146,"current_range_meters":14000,"station_id":"","pricing_plan_id":"free"},{"bike_id":"00b4d942-d645-4a17-a320-9c02b5ecca68","system_id":"levelo_inurba_marseille","lat":43.288497,"lon":5.393089,"is_reserved":false,"is_disabled":false,"rental_uris":{"android":"levelo://app?vid=00b4d942-d645-4a17-a320-9c02b5ecca68","ios":"levelo://app?vid=00b4d942-d645-4a17-a320-9c02b5ecca68"},"vehicle_type_id":"4","last_reported":1687367146,"current_range_meters":9600,"station_id":"ce4bh2p2rcd13ifvqdi0","pricing_plan_id":"free"},{"bike_id":"5c46c4e7-8d2f-4195-983a-8c4288ee5142","system_id":"levelo_inurba_marseille","lat":43.284217,"lon":5.349697,"is_reserved":false,"is_disabled":false,"rental_uris":{"android":"levelo://app?vid=5c46c4e7-8d2f-4195-983a-8c4288ee5142","ios":"levelo://app?vid=5c46c4e7-8d2f-4195-983a-8c4288ee5142"},"vehicle_type_id":"4","last_reported":1687367146,"current_range_meters":22800,"station_id":"ce4bhbh2rcd13ifvqepg","pricing_plan_id":"free"},{"bike_id":"140bc9aa-6dd9-4838-a06f-13d6e5df614d","system_id":"levelo_inurba_marseille","lat":43.28374,"lon":5.35004,"is_reserved":false,"is_disabled":false,"rental_uris":{"android":"levelo://app?vid=140bc9aa-6dd9-4838-a06f-13d6e5df614d","ios":"levelo://app?vid=140bc9aa-6dd9-4838-a06f-13d6e5df614d"},"vehicle_type_id":"4","last_reported":1687367146,"current_range_meters":13600,"station_id":"","pricing_plan_id":"free"},{"bike_id":"b7c2e90f-e56d-48f3-9250-b5f10f7afd4e","system_id":"levelo_inurba_marseille","lat":43.283502,"lon":5.386471,"is_reserved":false,"is_disabled":false,"rental_uris":{"android":"levelo://app?vid=b7c2e90f-e56d-48f3-9250-b5f10f7afd4e","ios":"levelo://app?vid=b7c2e90f-e56d-48f3-9250-b5f10f7afd4e"},"vehicle_type_id":"4","last_reported":1687367146,"current_range_meters":7200,"station_id":"ce4bh492rcd13ifvqdvg","pricing_plan_id":"free"},{"bike_id":"235e2a8a-72f7-427c-bd0a-89beaa223b7c","system_id":"levelo_inurba_marseille","lat":43.28273,"lon":5.3506,"is_reserved":false,"is_disabled":false,"rental_uris":{"android":"levelo://app?vid=235e2a8a-72f7-427c-bd0a-89beaa223b7c","ios":"levelo://app?vid=235e2a8a-72f7-427c-bd0a-89beaa223b7c"},"vehicle_type_id":"4","last_reported":1687367146,"current_range_meters":21200,"station_id":"ce4bhbp2rcd13ifvqerg","pricing_plan_id":"free"},{"bike_id":"62fb859a-62f0-452e-939f-9efb0aa93879","system_id":"levelo_inurba_marseille","lat":43.28268,"lon":5.35066,"is_reserved":false,"is_disabled":false,"rental_uris":{"android":"levelo://app?vid=62fb859a-62f0-452e-939f-9efb0aa93879","ios":"levelo://app?vid=62fb859a-62f0-452e-939f-9efb0aa93879"},"vehicle_type_id":"4","last_reported":1687367146,"current_range_meters":0,"station_id":"ce4bhbp2rcd13ifvqerg","pricing_plan_id":"free"},{"bike_id":"c1c217a8-67ae-4ca7-adef-ce9c204afda9","system_id":"levelo_inurba_marseille","lat":43.282754,"lon":5.350519,"is_reserved":false,"is_disabled":false,"rental_uris":{"android":"levelo://app?vid=c1c217a8-67ae-4ca7-adef-ce9c204afda9","ios":"levelo://app?vid=c1c217a8-67ae-4ca7-adef-ce9c204afda9"},"vehicle_type_id":"4","last_reported":1687367146,"current_range_meters":1200,"station_id":"ce4bhbp2rcd13ifvqerg","pricing_plan_id":"free"},{"bike_id":"e0c3d925-a8ce-48f6-bc34-d3940aa7d686","system_id":"levelo_inurba_marseille","lat":43.282744,"lon":5.350533,"is_reserved":false,"is_disabled":false,"rental_uris":{"android":"levelo://app?vid=e0c3d925-a8ce-48f6-bc34-d3940aa7d686","ios":"levelo://app?vid=e0c3d925-a8ce-48f6-bc34-d3940aa7d686"},"vehicle_type_id":"4","last_reported":1687367146,"current_range_meters":22800,"station_id":"ce4bhbp2rcd13ifvqerg","pricing_plan_id":"free"},{"bike_id":"118777c8-d8ef-41a2-bdf0-e113a36b6907","system_id":"levelo_inurba_marseille","lat":43.28268,"lon":5.35058,"is_reserved":false,"is_disabled":false,"rental_uris":{"android":"levelo://app?vid=118777c8-d8ef-41a2-bdf0-e113a36b6907","ios":"levelo://app?vid=118777c8-d8ef-41a2-bdf0-e113a36b6907"},"vehicle_type_id":"4","last_reported":1687367146,"current_range_meters":31200,"station_id":"ce4bhbp2rcd13ifvqerg","pricing_plan_id":"free"},{"bike_id":"1ffe202c-ac9b-4a66-bfac-7fef27856d74","system_id":"levelo_inurba_marseille","lat":43.280401,"lon":5.369428,"is_reserved":false,"is_disabled":false,"rental_uris":{"android":"levelo://app?vid=1ffe202c-ac9b-4a66-bfac-7fef27856d74","ios":"levelo://app?vid=1ffe202c-ac9b-4a66-bfac-7fef27856d74"},"vehicle_type_id":"4","last_reported":1687367146,"current_range_meters":6800,"station_id":"ce4bha12rcd13ifvqef0","pricing_plan_id":"free"},{"bike_id":"51027f1c-113c-4567-80b0-2f0ec5cf9466","system_id":"levelo_inurba_marseille","lat":43.283502,"lon":5.386471,"is_reserved":false,"is_disabled":false,"rental_uris":{"android":"levelo://app?vid=51027f1c-113c-4567-80b0-2f0ec5cf9466","ios":"levelo://app?vid=51027f1c-113c-4567-80b0-2f0ec5cf9466"},"vehicle_type_id":"4","last_reported":1687367146,"current_range_meters":6000,"station_id":"ce4bh492rcd13ifvqdvg","pricing_plan_id":"free"},{"bike_id":"0ad0bea5-be36-482b-8fc4-d4d39c6b7459","system_id":"levelo_inurba_marseille","lat":43.28031,"lon":5.36939,"is_reserved":false,"is_disabled":false,"rental_uris":{"android":"levelo://app?vid=0ad0bea5-be36-482b-8fc4-d4d39c6b7459","ios":"levelo://app?vid=0ad0bea5-be36-482b-8fc4-d4d39c6b7459"},"vehicle_type_id":"4","last_reported":1687367146,"current_range_meters":800,"station_id":"ce4bha12rcd13ifvqef0","pricing_plan_id":"free"},{"bike_id":"69b23e91-ae0e-4172-8750-556831ddb56f","system_id":"levelo_inurba_marseille","lat":43.28031,"lon":5.36944,"is_reserved":false,"is_disabled":false,"rental_uris":{"android":"levelo://app?vid=69b23e91-ae0e-4172-8750-556831ddb56f","ios":"levelo://app?vid=69b23e91-ae0e-4172-8750-556831ddb56f"},"vehicle_type_id":"4","last_reported":1687367146,"current_range_meters":19200,"station_id":"ce4bha12rcd13ifvqef0","pricing_plan_id":"free"},{"bike_id":"f98f4168-28f5-4431-8a94-d7a20afa6389","system_id":"levelo_inurba_marseille","lat":43.296263,"lon":5.40601,"is_reserved":false,"is_disabled":false,"rental_uris":{"android":"levelo://app?vid=f98f4168-28f5-4431-8a94-d7a20afa6389","ios":"levelo://app?vid=f98f4168-28f5-4431-8a94-d7a20afa6389"},"vehicle_type_id":"4","last_reported":1687367146,"current_range_meters":26800,"station_id":"ce4bh0h2rcd13ifvqd60","pricing_plan_id":"free"},{"bike_id":"20031e6d-fe1f-4839-b985-406bbdc18eed","system_id":"levelo_inurba_marseille","lat":43.27923,"lon":5.36827,"is_reserved":false,"is_disabled":false,"rental_uris":{"android":"levelo://app?vid=20031e6d-fe1f-4839-b985-406bbdc18eed","ios":"levelo://app?vid=20031e6d-fe1f-4839-b985-406bbdc18eed"},"vehicle_type_id":"4","last_reported":1687367146,"current_range_meters":21600,"station_id":"","pricing_plan_id":"free"},{"bike_id":"1779b979-d275-42a6-9269-ec61f172234a","system_id":"levelo_inurba_marseille","lat":43.284462,"lon":5.392121,"is_reserved":false,"is_disabled":false,"rental_uris":{"android":"levelo://app?vid=1779b979-d275-42a6-9269-ec61f172234a","ios":"levelo://app?vid=1779b979-d275-42a6-9269-ec61f172234a"},"vehicle_type_id":"4","last_reported":1687367146,"current_range_meters":26800,"station_id":"ce4bhoh2rcd13ifvqh5g","pricing_plan_id":"free"},{"bike_id":"bde14cc2-7f6e-431e-950b-953f49fac3a5","system_id":"levelo_inurba_marseille","lat":43.32597,"lon":5.40993,"is_reserved":false,"is_disabled":false,"rental_uris":{"android":"levelo://app?vid=bde14cc2-7f6e-431e-950b-953f49fac3a5","ios":"levelo://app?vid=bde14cc2-7f6e-431e-950b-953f49fac3a5"},"vehicle_type_id":"4","last_reported":1687367146,"current_range_meters":27600,"station_id":"","pricing_plan_id":"free"},{"bike_id":"ff22564b-7f59-4dba-a7bd-0f1bc5689db1","system_id":"levelo_inurba_marseille","lat":43.326605,"lon":5.409903,"is_reserved":false,"is_disabled":false,"rental_uris":{"android":"levelo://app?vid=ff22564b-7f59-4dba-a7bd-0f1bc5689db1","ios":"levelo://app?vid=ff22564b-7f59-4dba-a7bd-0f1bc5689db1"},"vehicle_type_id":"4","last_reported":1687367146,"current_range_meters":31600,"station_id":"ce4bhpp2rcd13ifvqhgg","pricing_plan_id":"free"},{"bike_id":"189c57e1-9835-4801-a05a-c41e19fcac80","system_id":"levelo_inurba_marseille","lat":43.326605,"lon":5.409903,"is_reserved":false,"is_disabled":false,"rental_uris":{"android":"levelo://app?vid=189c57e1-9835-4801-a05a-c41e19fcac80","ios":"levelo://app?vid=189c57e1-9835-4801-a05a-c41e19fcac80"},"vehicle_type_id":"4","last_reported":1687367146,"current_range_meters":22400,"station_id":"ce4bhpp2rcd13ifvqhgg","pricing_plan_id":"free"},{"bike_id":"5b6d9626-adf1-479d-918d-532ba6a0acb6","system_id":"levelo_inurba_marseille","lat":43.32655,"lon":5.40986,"is_reserved":false,"is_disabled":false,"rental_uris":{"android":"levelo://app?vid=5b6d9626-adf1-479d-918d-532ba6a0acb6","ios":"levelo://app?vid=5b6d9626-adf1-479d-918d-532ba6a0acb6"},"vehicle_type_id":"4","last_reported":1687367146,"current_range_meters":14400,"station_id":"ce4bhpp2rcd13ifvqhgg","pricing_plan_id":"free"},{"bike_id":"d0337f39-8f2b-42cf-9917-79fcd6ba592a","system_id":"levelo_inurba_marseille","lat":43.326605,"lon":5.409903,"is_reserved":false,"is_disabled":false,"rental_uris":{"android":"levelo://app?vid=d0337f39-8f2b-42cf-9917-79fcd6ba592a","ios":"levelo://app?vid=d0337f39-8f2b-42cf-9917-79fcd6ba592a"},"vehicle_type_id":"4","last_reported":1687367146,"current_range_meters":31200,"station_id":"ce4bhpp2rcd13ifvqhgg","pricing_plan_id":"free"},{"bike_id":"e878727b-84cd-42b1-a62e-cfdf05b0329c","system_id":"levelo_inurba_marseille","lat":43.326605,"lon":5.409903,"is_reserved":false,"is_disabled":false,"rental_uris":{"android":"levelo://app?vid=e878727b-84cd-42b1-a62e-cfdf05b0329c","ios":"levelo://app?vid=e878727b-84cd-42b1-a62e-cfdf05b0329c"},"vehicle_type_id":"4","last_reported":1687367146,"current_range_meters":30000,"station_id":"ce4bhpp2rcd13ifvqhgg","pricing_plan_id":"free"},{"bike_id":"5c86cbc8-eb90-4963-a587-f47033e06622","system_id":"levelo_inurba_marseille","lat":43.326605,"lon":5.409903,"is_reserved":false,"is_disabled":false,"rental_uris":{"android":"levelo://app?vid=5c86cbc8-eb90-4963-a587-f47033e06622","ios":"levelo://app?vid=5c86cbc8-eb90-4963-a587-f47033e06622"},"vehicle_type_id":"4","last_reported":1687367146,"current_range_meters":20800,"station_id":"ce4bhpp2rcd13ifvqhgg","pricing_plan_id":"free"},{"bike_id":"268defcf-bb24-4043-b4f0-f118a5050070","system_id":"levelo_inurba_marseille","lat":43.326605,"lon":5.409903,"is_reserved":false,"is_disabled":false,"rental_uris":{"android":"levelo://app?vid=268defcf-bb24-4043-b4f0-f118a5050070","ios":"levelo://app?vid=268defcf-bb24-4043-b4f0-f118a5050070"},"vehicle_type_id":"4","last_reported":1687367146,"current_range_meters":31200,"station_id":"ce4bhpp2rcd13ifvqhgg","pricing_plan_id":"free"},{"bike_id":"2909417d-6111-4f04-bc93-802687917330","system_id":"levelo_inurba_marseille","lat":43.326605,"lon":5.409903,"is_reserved":false,"is_disabled":false,"rental_uris":{"android":"levelo://app?vid=2909417d-6111-4f04-bc93-802687917330","ios":"levelo://app?vid=2909417d-6111-4f04-bc93-802687917330"},"vehicle_type_id":"4","last_reported":1687367146,"current_range_meters":31200,"station_id":"ce4bhpp2rcd13ifvqhgg","pricing_plan_id":"free"},{"bike_id":"84c05590-4494-4815-be7f-ddaf83aa2c97","system_id":"levelo_inurba_marseille","lat":43.304188,"lon":5.412904,"is_reserved":false,"is_disabled":false,"rental_uris":{"android":"levelo://app?vid=84c05590-4494-4815-be7f-ddaf83aa2c97","ios":"levelo://app?vid=84c05590-4494-4815-be7f-ddaf83aa2c97"},"vehicle_type_id":"4","last_reported":1687367146,"current_range_meters":24000,"station_id":"ce4bhop2rcd13ifvqh8g","pricing_plan_id":"free"},{"bike_id":"ba786c24-1718-49cf-b6d8-a5e617e36e29","system_id":"levelo_inurba_marseille","lat":43.304188,"lon":5.412904,"is_reserved":false,"is_disabled":false,"rental_uris":{"android":"levelo://app?vid=ba786c24-1718-49cf-b6d8-a5e617e36e29","ios":"levelo://app?vid=ba786c24-1718-49cf-b6d8-a5e617e36e29"},"vehicle_type_id":"4","last_reported":1687367146,"current_range_meters":17600,"station_id":"ce4bhop2rcd13ifvqh8g","pricing_plan_id":"free"},{"bike_id":"d852a450-5f14-483e-adb1-e08ebbf07ad4","system_id":"levelo_inurba_marseille","lat":43.27894,"lon":5.38027,"is_reserved":false,"is_disabled":false,"rental_uris":{"android":"levelo://app?vid=d852a450-5f14-483e-adb1-e08ebbf07ad4","ios":"levelo://app?vid=d852a450-5f14-483e-adb1-e08ebbf07ad4"},"vehicle_type_id":"4","last_reported":1687367146,"current_range_meters":0,"station_id":"ce4bhf92rcd13ifvqf50","pricing_plan_id":"free"},{"bike_id":"5d8cd698-7581-4864-8833-763122896f86","system_id":"levelo_inurba_marseille","lat":43.32054,"lon":5.41527,"is_reserved":false,"is_disabled":false,"rental_uris":{"android":"levelo://app?vid=5d8cd698-7581-4864-8833-763122896f86","ios":"levelo://app?vid=5d8cd698-7581-4864-8833-763122896f86"},"vehicle_type_id":"4","last_reported":1687367146,"current_range_meters":400,"station_id":"","pricing_plan_id":"free"},{"bike_id":"2c2ff904-dae5-4b28-9c14-6e01d53b669c","system_id":"levelo_inurba_marseille","lat":43.270721,"lon":5.422764,"is_reserved":false,"is_disabled":false,"rental_uris":{"android":"levelo://app?vid=2c2ff904-dae5-4b28-9c14-6e01d53b669c","ios":"levelo://app?vid=2c2ff904-dae5-4b28-9c14-6e01d53b669c"},"vehicle_type_id":"4","last_reported":1687367146,"current_range_meters":21200,"station_id":"ce4bhk92rcd13ifvqgb0","pricing_plan_id":"free"},{"bike_id":"98bfc0de-16fe-4434-a05f-8eae8b6d864f","system_id":"levelo_inurba_marseille","lat":43.320045,"lon":5.415046,"is_reserved":false,"is_disabled":false,"rental_uris":{"android":"levelo://app?vid=98bfc0de-16fe-4434-a05f-8eae8b6d864f","ios":"levelo://app?vid=98bfc0de-16fe-4434-a05f-8eae8b6d864f"},"vehicle_type_id":"4","last_reported":1687367146,"current_range_meters":30000,"station_id":"ce4bhq92rcd13ifvqhkg","pricing_plan_id":"free"},{"bike_id":"1ea411d1-b36b-442d-b0b7-a6d40c476c50","system_id":"levelo_inurba_marseille","lat":43.320045,"lon":5.415046,"is_reserved":false,"is_disabled":false,"rental_uris":{"android":"levelo://app?vid=1ea411d1-b36b-442d-b0b7-a6d40c476c50","ios":"levelo://app?vid=1ea411d1-b36b-442d-b0b7-a6d40c476c50"},"vehicle_type_id":"4","last_reported":1687367146,"current_range_meters":26800,"station_id":"ce4bhq92rcd13ifvqhkg","pricing_plan_id":"free"},{"bike_id":"eb5aa8ec-e364-4490-86cb-94527e0774a2","system_id":"levelo_inurba_marseille","lat":43.320045,"lon":5.415048,"is_reserved":false,"is_disabled":false,"rental_uris":{"android":"levelo://app?vid=eb5aa8ec-e364-4490-86cb-94527e0774a2","ios":"levelo://app?vid=eb5aa8ec-e364-4490-86cb-94527e0774a2"},"vehicle_type_id":"4","last_reported":1687367146,"current_range_meters":19200,"station_id":"ce4bhq92rcd13ifvqhkg","pricing_plan_id":"free"},{"bike_id":"9836abd3-60f6-4379-9d7e-9c5061e0e6f2","system_id":"levelo_inurba_marseille","lat":43.320045,"lon":5.415046,"is_reserved":false,"is_disabled":false,"rental_uris":{"android":"levelo://app?vid=9836abd3-60f6-4379-9d7e-9c5061e0e6f2","ios":"levelo://app?vid=9836abd3-60f6-4379-9d7e-9c5061e0e6f2"},"vehicle_type_id":"4","last_reported":1687367146,"current_range_meters":15200,"station_id":"ce4bhq92rcd13ifvqhkg","pricing_plan_id":"free"},{"bike_id":"6310a695-d60b-490b-83a3-65d9af7c39cb","system_id":"levelo_inurba_marseille","lat":43.320045,"lon":5.415046,"is_reserved":false,"is_disabled":false,"rental_uris":{"android":"levelo://app?vid=6310a695-d60b-490b-83a3-65d9af7c39cb","ios":"levelo://app?vid=6310a695-d60b-490b-83a3-65d9af7c39cb"},"vehicle_type_id":"4","last_reported":1687367146,"current_range_meters":31200,"station_id":"ce4bhq92rcd13ifvqhkg","pricing_plan_id":"free"},