{"last_updated":1715533544,"ttl":30,"version":"2.2","data":{"bikes":[{"bike_id":"3a70ba63-25f4-435b-ac9b-fc2c3c10bb91","system_id":"levelo_inurba_marseille","lat":43.312239,"lon":5.368562,"is_reserved":false,"is_disabled":false,"rental_uris":{"android":"levelo://app?vid=3a70ba63-25f4-435b-ac9b-fc2c3c10bb91","ios":"levelo://app?vid=3a70ba63-25f4-435b-ac9b-fc2c3c10bb91"},"vehicle_type_id":"4","last_reported":1715533544,"current_range_meters":22800,"station_id":"ce4bgl92rcd13ifvqbq0","pricing_plan_id":"cebpf4jnsgd1na2vs0mg"},{"bike_id":"bc940341-afed-48d2-8aa6-3de78cdf6dbb","system_id":"levelo_inurba_marseille","lat":43.309076,"lon":5.368465,"is_reserved":false,"is_disabled":false,"rental_uris":{"android":"levelo://app?vid=bc940341-afed-48d2-8aa6-3de78cdf6dbb","ios":"levelo://app?vid=bc940341-afed-48d2-8aa6-3de78cdf6dbb"},"vehicle_type_id":"4","last_reported":1715533544,"current_range_meters":11200,"station_id":"ce4bgn92rcd13ifvqbvg","pricing_plan_id":"cebpf4jnsgd1na2vs0mg"},{"bike_id":"71e12dae-c753-493d-849c-10592fd6a114","system_id":"levelo_inurba_marseille","lat":43.309076,"lon":5.368465,"is_reserved":false,"is_disabled":false,"rental_uris":{"android":"levelo://app?vid=71e12dae-c753-493d-849c-10592fd6a114","ios":"levelo://app?vid=71e12dae-c753-493d-849c-10592fd6a114"},"vehicle_type_id":"4","last_reported":1715533544,"current_range_meters":1600,"station_id":"ce4bgn92rcd13ifvqbvg","pricing_plan_id":"cebpf4jnsgd1na2vs0mg"},{"bike_id":"70df2ebc-ab61-4c00-86ba-d3ee32610ee3","system_id":"levelo_inurba_marseille","lat":43.31486,"lon":5.37308,"is_reserved":false,"is_disabled":false,"rental_uris":{"android":"levelo://app?vid=70df2ebc-ab61-4c00-86ba-d3ee32610ee3","ios":"levelo://app?vid=70df2ebc-ab61-4c00-86ba-d3ee32610ee3"},"vehicle_type_id":"4","last_reported":1715533544,"current_range_meters":4400,"station_id":"ce4bgt12rcd13ifvqcd0","pricing_plan_id":"cebpf4jnsgd1na2vs0mg"},{"bike_id":"00d425e1-4108-47c6-bee5-5deaddf9b875","system_id":"levelo_inurba_marseille","lat":43.314811,"lon":5.373103,"is_reserved":false,"is_disabled":false,"rental_uris":{"android":"levelo://app?vid=00d425e1-4108-47c6-bee5-5deaddf9b875","ios":"levelo://app?vid=00d425e1-4108-47c6-bee5-5deaddf9b875"},"vehicle_type_id":"4","last_reported":1715533544,"current_range_meters":6000,"station_id":"ce4bgt12rcd13ifvqcd0","pricing_plan_id":"cebpf4jnsgd1na2vs0mg"},{"bike_id":"fde6d502-1dad-489d-bb97-3b5d0f0665f8","system_id":"levelo_inurba_marseille","lat":43.309034,"lon":5.371783,"is_reserved":false,"is_disabled":false,"rental_uris":{"android":"levelo://app?vid=fde6d502-1dad-489d-bb97-3b5d0f0665f8","ios":"levelo://app?vid=fde6d502-1dad-489d-bb97-3b5d0f0665f8"},"vehicle_type_id":"4","last_reported":1715533544,"current_range_meters":1200,"station_id":"ce4bguh2rcd13ifvqckg","pricing_plan_id":"cebpf4jnsgd1na2vs0mg"},{"bike_id":"d03b08ac-28dd-4fd5-8ea4-942f69058cf2","system_id":"levelo_inurba_marseille","lat":43.30537,"lon":5.367345,"is_reserved":false,"is_disabled":false,"rental_uris":{"android":"levelo://app?vid=d03b08ac-28dd-4fd5-8ea4-942f69058cf2","ios":"levelo://app?vid=d03b08ac-28dd-4fd5-8ea4-942f69058cf2"},"vehicle_type_id":"4","last_reported":1715533544,"current_range_meters":1600,"station_id":"ce4bgrp2rcd13ifvqc9g","pricing_plan_id":"cebpf4jnsgd1na2vs0mg"},{"bike_id":"d0d11767-d0a5-43ef-9bf1-1f9e65bf18e8","system_id":"levelo_inurba_marseille","lat":43.30537,"lon":5.367345,"is_reserved":false,"is_disabled":false,"rental_uris":{"android":"levelo://app?vid=d0d11767-d0a5-43ef-9bf1-1f9e65bf18e8","ios":"levelo://app?vid=d0d11767-d0a5-43ef-9bf1-1f9e65bf18e8"},"vehicle_type_id":"4","last_reported":1715533544,"current_range_meters":400,"station_id":"ce4bgrp2rcd13ifvqc9g","pricing_plan_id":"cebpf4jnsgd1na2vs0mg"},{"bike_id":"806aceb1-9a63-4eee-b571-ddcd64f2b7ba","system_id":"levelo_inurba_marseille","lat":43.30553,"lon":5.36697,"is_reserved":false,"is_disabled":false,"rental_uris":{"android":"levelo://app?vid=806aceb1-9a63-4eee-b571-ddcd64f2b7ba","ios":"levelo://app?vid=806aceb1-9a63-4eee-b571-ddcd64f2b7ba"},"vehicle_type_id":"4","last_reported":1715533544,"current_range_meters":14000,"station_id":"","pricing_plan_id":"cebpf4jnsgd1na2vs0mg"},{"bike_id":"85afa59d-feaa-47f5-b7cd-759e2b27920a","system_id":"levelo_inurba_marseille","lat":43.3055,"lon":5.36694,"is_reserved":false,"is_disabled":false,"rental_uris":{"android":"levelo://app?vid=85afa59d-feaa-47f5-b7cd-759e2b27920a","ios":"levelo://app?vid=85afa59d-feaa-47f5-b7cd-759e2b27920a"},"vehicle_type_id":"4","last_reported":1715533544,"current_range_meters":0,"station_id":"ce4bgrp2rcd13ifvqc9g","pricing_plan_id":"cebpf4jnsgd1na2vs0mg"},{"bike_id":"c7da81ee-edb5-4dbe-9b9a-6259f5d02c3b","system_id":"levelo_inurba_marseille","lat":43.30553,"lon":5.36536,"is_reserved":false,"is_disabled":false,"rental_uris":{"android":"levelo://app?vid=c7da81ee-edb5-4dbe-9b9a-6259f5d02c3b","ios":"levelo://app?vid=c7da81ee-edb5-4dbe-9b9a-6259f5d02c3b"},"vehicle_type_id":"4","last_reported":1715533544,"current_range_meters":0,"station_id":"ce4bgs12rcd13ifvqcag","pricing_plan_id":"cebpf4jnsgd1na2vs0mg"},{"bike_id":"029db4bb-e798-428e-bedb-a9ff4a1fcf4d","system_id":"levelo_inurba_marseille","lat":43.305525,"lon":5.365386,"is_reserved":false,"is_disabled":false,"rental_uris":{"android":"levelo://app?vid=029db4bb-e798-428e-bedb-a9ff4a1fcf4d","ios":"levelo://app?vid=029db4bb-e798-428e-bedb-a9ff4a1fcf4d"},"vehicle_type_id":"4","last_reported":1715533544,"current_range_meters":0,"station_id":"ce4bgs12rcd13ifvqcag","pricing_plan_id":"cebpf4jnsgd1na2vs0mg"},{"bike_id":"3723fe29-e212-438c-abe3-8500b05147f1","system_id":"levelo_inurba_marseille","lat":43.305368,"lon":5.367343,"is_reserved":false,"is_disabled":false,"rental_uris":{"android":"levelo://app?vid=3723fe29-e212-438c-abe3-8500b05147f1","ios":"levelo://app?vid=3723fe29-e212-438c-abe3-8500b05147f1"},"vehicle_type_id":"4","last_reported":1715533544,"current_range_meters":1200,"station_id":"ce4bgrp2rcd13ifvqc9g","pricing_plan_id":"cebpf4jnsgd1na2vs0mg"},{"bike_id":"67aad8a8-6291-44af-ad1a-a08e813d1f01","system_id":"levelo_inurba_marseille","lat":43.305368,"lon":5.367343,"is_reserved":false,"is_disabled":false,"rental_uris":{"android":"levelo://app?vid=67aad8a8-6291-44af-ad1a-a08e813d1f01","ios":"levelo://app?vid=67aad8a8-6291-44af-ad1a-a08e813d1f01"},"vehicle_type_id":"4","last_reported":1715533544,"current_range_meters":21200,"station_id":"ce4bgrp2rcd13ifvqc9g","pricing_plan_id":"cebpf4jnsgd1na2vs0mg"},{"bike_id":"e774366e-ed6f-41b0-be80-0dbba613a6c1","system_id":"levelo_inurba_marseille","lat":43.30536,"lon":5.3655,"is_reserved":false,"is_disabled":false,"rental_uris":{"android":"levelo://app?vid=e774366e-ed6f-41b0-be80-0dbba613a6c1","ios":"levelo://app?vid=e774366e-ed6f-41b0-be80-0dbba613a6c1"},"vehicle_type_id":"4","last_reported":1715533544,"current_range_meters":0,"station_id":"ce4bgs12rcd13ifvqcag","pricing_plan_id":"cebpf4jnsgd1na2vs0mg"},{"bike_id":"84ca6c51-100e-40b2-acd1-0e5c314de751","system_id":"levelo_inurba_marseille","lat":43.305977,"lon":5.372297,"is_reserved":false,"is_disabled":false,"rental_uris":{"android":"levelo://app?vid=84ca6c51-100e-40b2-acd1-0e5c314de751","ios":"levelo://app?vid=84ca6c51-100e-40b2-acd1-0e5c314de751"},"vehicle_type_id":"4","last_reported":1715533544,"current_range_meters":0,"station_id":"ce4bgqh2rcd13ifvqc4g","pricing_plan_id":"cebpf4jnsgd1na2vs0mg"},{"bike_id":"7f04f73f-373e-4809-8821-6fce7302850c","system_id":"levelo_inurba_marseille","lat":43.311131,"lon":5.377651,"is_reserved":false,"is_disabled":false,"rental_uris":{"android":"levelo://app?vid=7f04f73f-373e-4809-8821-6fce7302850c","ios":"levelo://app?vid=7f04f73f-373e-4809-8821-6fce7302850c"},"vehicle_type_id":"4","last_reported":1715533544,"current_range_meters":0,"station_id":"ce4bgt92rcd13ifvqcg0","pricing_plan_id":"cebpf4jnsgd1na2vs0mg"},{"bike_id":"fd9c8bb5-6518-4ff6-bfc8-39e20b2314e2","system_id":"levelo_inurba_marseille","lat":43.311131,"lon":5.377651,"is_reserved":false,"is_disabled":false,"rental_uris":{"android":"levelo://app?vid=fd9c8bb5-6518-4ff6-bfc8-39e20b2314e2","ios":"levelo://app?vid=fd9c8bb5-6518-4ff6-bfc8-39e20b2314e2"},"vehicle_type_id":"4","last_reported":1715533544,"current_range_meters":10000,"station_id":"ce4bgt92rcd13ifvqcg0","pricing_plan_id":"cebpf4jnsgd1na2vs0mg"},{"bike_id":"f0285697-ee5c-4e06-9d59-af9dadefd921","system_id":"levelo_inurba_marseille","lat":43.31123,"lon":5.37767,"is_reserved":false,"is_disabled":false,"rental_uris":{"android":"levelo://app?vid=f0285697-ee5c-4e06-9d59-af9dadefd921","ios":"levelo://app?vid=f0285697-ee5c-4e06-9d59-af9dadefd921"},"vehicle_type_id":"4","last_reported":1715533544,"current_range_meters":0,"station_id":"ce4bgt92rcd13ifvqcg0","pricing_plan_id":"cebpf4jnsgd1na2vs0mg"},{"bike_id":"78521281-ce38-49b8-9325-ca8d2419295e","system_id":"levelo_inurba_marseille","lat":43.311125,"lon":5.377624,"is_reserved":false,"is_disabled":false,"rental_uris":{"android":"levelo://app?vid=78521281-ce38-49b8-9325-ca8d2419295e","ios":"levelo://app?vid=78521281-ce38-49b8-9325-ca8d2419295e"},"vehicle_type_id":"4","last_reported":1715533544,"current_range_meters":31200,"station_id":"ce4bgt92rcd13ifvqcg0","pricing_plan_id":"cebpf4jnsgd1na2vs0mg"},{"bike_id":"a8420d12-5ea1-4553-ba77-74153419b9a1","system_id":"levelo_inurba_marseille","lat":43.307945,"lon":5.376487,"is_reserved":false,"is_disabled":false,"rental_uris":{"android":"levelo://app?vid=a8420d12-5ea1-4553-ba77-74153419b9a1","ios":"levelo://app?vid=a8420d12-5ea1-4553-ba77-74153419b9a1"},"vehicle_type_id":"4","last_reported":1715533544,"current_range_meters":30800,"station_id":"ce4bgv92rcd13ifvqcq0","pricing_plan_id":"cebpf4jnsgd1na2vs0mg"},{"bike_id":"fcb308f1-f053-4d74-bb5f-a5b2e06fccd6","system_id":"levelo_inurba_marseille","lat":43.307945,"lon":5.376487,"is_reserved":false,"is_disabled":false,"rental_uris":{"android":"levelo://app?vid=fcb308f1-f053-4d74-bb5f-a5b2e06fccd6","ios":"levelo://app?vid=fcb308f1-f053-4d74-bb5f-a5b2e06fccd6"},"vehicle_type_id":"4","last_reported":1715533544,"current_range_meters":3600,"station_id":"ce4bgv92rcd13ifvqcq0","pricing_plan_id":"cebpf4jnsgd1na2vs0mg"},{"bike_id":"57e96d4e-aa35-4a7e-8ac8-a7cd46ff08fa","system_id":"levelo_inurba_marseille","lat":43.307945,"lon":5.376487,"is_reserved":false,"is_disabled":false,"rental_uris":{"android":"levelo://app?vid=57e96d4e-aa35-4a7e-8ac8-a7cd46ff08fa","ios":"levelo://app?vid=57e96d4e-aa35-4a7e-8ac8-a7cd46ff08fa"},"vehicle_type_id":"4","last_reported":1715533544,"current_range_meters":0,"station_id":"ce4bgv92rcd13ifvqcq0","pricing_plan_id":"cebpf4jnsgd1na2vs0mg"},{"bike_id":"6006fa6b-12ab-4097-94d9-c4c3fa659fe0","system_id":"levelo_inurba_marseille","lat":43.299724,"lon":5.384848,"is_reserved":false,"is_disabled":false,"rental_uris":{"android":"levelo://app?vid=6006fa6b-12ab-4097-94d9-c4c3fa659fe0","ios":"levelo://app?vid=6006fa6b-12ab-4097-94d9-c4c3fa659fe0"},"vehicle_type_id":"4","last_reported":1715533544,"current_range_meters":0,"station_id":"ce4bgj92rcd13ifvqbd0","pricing_plan_id":"cebpf4jnsgd1na2vs0mg"},{"bike_id":"3cd8b125-d55e-45d5-8aa7-9a78b4974ef8","system_id":"levelo_inurba_marseille","lat":43.303046,"lon":5.368981,"is_reserved":false,"is_disabled":false,"rental_uris":{"android":"levelo://app?vid=3cd8b125-d55e-45d5-8aa7-9a78b4974ef8","ios":"levelo://app?vid=3cd8b125-d55e-45d5-8aa7-9a78b4974ef8"},"vehicle_type_id":"4","last_reported":1715533544,"current_range_meters":15200,"station_id":"ce4bgqh2rcd13ifvqc5g","pricing_plan_id":"cebpf4jnsgd1na2vs0mg"},{"bike_id":"e613a807-1129-4a93-9fca-2b4f59ebd876","system_id":"levelo_inurba_marseille","lat":43.303046,"lon":5.368981,"is_reserved":false,"is_disabled":false,"rental_uris":{"android":"levelo://app?vid=e613a807-1129-4a93-9fca-2b4f59ebd876","ios":"levelo://app?vid=e613a807-1129-4a93-9fca-2b4f59ebd876"},"vehicle_type_id":"4","last_reported":1715533544,"current_range_meters":4800,"station_id":"ce4bgqh2rcd13ifvqc5g","pricing_plan_id":"cebpf4jnsgd1na2vs0mg"},{"bike_id":"a37cdda5-216b-490e-9d2b-eead123fc9e0","system_id":"levelo_inurba_marseille","lat":43.315289,"lon":5.380349,"is_reserved":false,"is_disabled":false,"rental_uris":{"android":"levelo://app?vid=a37cdda5-216b-490e-9d2b-eead123fc9e0","ios":"levelo://app?vid=a37cdda5-216b-490e-9d2b-eead123fc9e0"},"vehicle_type_id":"4","last_reported":1715533544,"current_range_meters":8800,"station_id":"ce4bhsp2rcd13ifvqi50","pricing_plan_id":"cebpf4jnsgd1na2vs0mg"},{"bike_id":"4259765d-fc10-4220-8204-b9c0c5c51218","system_id":"levelo_inurba_marseille","lat":43.30271,"lon":5.37243,"is_reserved":false,"is_disabled":false,"rental_uris":{"android":"levelo://app?vid=4259765d-fc10-4220-8204-b9c0c5c51218","ios":"levelo://app?vid=4259765d-fc10-4220-8204-b9c0c5c51218"},"vehicle_type_id":"4","last_reported":1715533544,"current_range_meters":2400,"station_id":"","pricing_plan_id":"cebpf4jnsgd1na2vs0mg"},{"bike_id":"b8bbad1a-8e77-485c-902f-f65a3e4dd50b","system_id":"levelo_inurba_marseille","lat":43.308012,"lon":5.381511,"is_reserved":false,"is_disabled":false,"rental_uris":{"android":"levelo://app?vid=b8bbad1a-8e77-485c-902f-f65a3e4dd50b","ios":"levelo://app?vid=b8bbad1a-8e77-485c-902f-f65a3e4dd50b"},"vehicle_type_id":"4","last_reported":1715533544,"current_range_meters":0,"station_id":"ce4bgt12rcd13ifvqce0","pricing_plan_id":"cebpf4jnsgd1na2vs0mg"},{"bike_id":"5e887ee6-5a3b-484b-9aa2-9c1ffb73b023","system_id":"levelo_inurba_marseille","lat":43.308012,"lon":5.381511,"is_reserved":false,"is_disabled":false,"rental_uris":{"android":"levelo://app?vid=5e887ee6-5a3b-484b-9aa2-9c1ffb73b023","ios":"levelo://app?vid=5e887ee6-5a3b-484b-9aa2-9c1ffb73b023"},"vehicle_type_id":"4","last_reported":1715533544,"current_range_meters":0,"station_id":"ce4bgt12rcd13ifvqce0","pricing_plan_id":"cebpf4jnsgd1na2vs0mg"},{"bike_id":"3c6f429f-a8af-4bfe-9fd8-9e9952d593f8","system_id":"levelo_inurba_marseille","lat":43.308012,"lon":5.381511,"is_reserved":false,"is_disabled":false,"rental_uris":{"android":"levelo://app?vid=3c6f429f-a8af-4bfe-9fd8-9e9952d593f8","ios":"levelo://app?vid=3c6f429f-a8af-4bfe-9fd8-9e9952d593f8"},"vehicle_type_id":"4","last_reported":1715533544,"current_range_meters":0,"station_id":"ce4bgt12rcd13ifvqce0","pricing_plan_id":"cebpf4jnsgd1na2vs0mg"},{"bike_id":"26096824-9fae-4ca1-9e9a-f66f2f952612","system_id":"levelo_inurba_marseille","lat":43.304606,"lon":5.379026,"is_reserved":false,"is_disabled":false,"rental_uris":{"android":"levelo://app?vid=26096824-9fae-4ca1-9e9a-f66f2f952612","ios":"levelo://app?vid=26096824-9fae-4ca1-9e9a-f66f2f952612"},"vehicle_type_id":"4","last_reported":1715533544,"current_range_meters":7600,"station_id":"ce4bgup2rcd13ifvqcn0","pricing_plan_id":"cebpf4jnsgd1na2vs0mg"},{"bike_id":"4eb37566-cfb5-4c86-a3ea-ad0e279d9efa","system_id":"levelo_inurba_marseille","lat":43.324771,"lon":5.36557,"is_reserved":false,"is_disabled":false,"rental_uris":{"android":"levelo://app?vid=4eb37566-cfb5-4c86-a3ea-ad0e279d9efa","ios":"levelo://app?vid=4eb37566-cfb5-4c86-a3ea-ad0e279d9efa"},"vehicle_type_id":"4","last_reported":1715533544,"current_range_meters":22400,"station_id":"ce4bhs12rcd13ifvqhvg","pricing_plan_id":"cebpf4jnsgd1na2vs0mg"},{"bike_id":"26bd8217-5511-4bf1-a4d4-7323f3ee6d22","system_id":"levelo_inurba_marseille","lat":43.324771,"lon":5.36557,"is_reserved":false,"is_disabled":false,"rental_uris":{"android":"levelo://app?vid=26bd8217-5511-4bf1-a4d4-7323f3ee6d22","ios":"levelo://app?vid=26bd8217-5511-4bf1-a4d4-7323f3ee6d22"},"vehicle_type_id":"4","last_reported":1715533544,"current_range_meters":15600,"station_id":"ce4bhs12rcd13ifvqhvg","pricing_plan_id":"cebpf4jnsgd1na2vs0mg"},{"bike_id":"7279300e-a5c4-4f3b-858a-e2bd296be7c9","system_id":"levelo_inurba_marseille","lat":43.324771,"lon":5.36557,"is_reserved":false,"is_disabled":false,"rental_uris":{"android":"levelo://app?vid=7279300e-a5c4-4f3b-858a-e2bd296be7c9","ios":"levelo://app?vid=7279300e-a5c4-4f3b-858a-e2bd296be7c9"},"vehicle_type_id":"4","last_reported":1715533544,"current_range_meters":14000,"station_id":"ce4bhs12rcd13ifvqhvg","pricing_plan_id":"cebpf4jnsgd1na2vs0mg"},{"bike_id":"e4e831c8-6d49-4519-885d-bf4011f15c52","system_id":"levelo_inurba_marseille","lat":43.324771,"lon":5.36557,"is_reserved":false,"is_disabled":false,"rental_uris":{"android":"levelo://app?vid=e4e831c8-6d49-4519-885d-bf4011f15c52","ios":"levelo://app?vid=e4e831c8-6d49-4519-885d-bf4011f15c52"},"vehicle_type_id":"4","last_reported":1715533544,"current_range_meters":16400,"station_id":"ce4bhs12rcd13ifvqhvg","pricing_plan_id":"cebpf4jnsgd1na2vs0mg"},{"bike_id":"43671154-6e2a-41f7-a74e-cc016c296fcd","system_id":"levelo_inurba_marseille","lat":43.324771,"lon":5.36557,"is_reserved":false,"is_disabled":false,"rental_uris":{"android":"levelo://app?vid=43671154-6e2a-41f7-a74e-cc016c296fcd","ios":"levelo://app?vid=43671154-6e2a-41f7-a74e-cc016c296fcd"},"vehicle_type_id":"4","last_reported":1715533544,"current_range_meters":25600,"station_id":"ce4bhs12rcd13ifvqhvg","pricing_plan_id":"cebpf4jnsgd1na2vs0mg"},{"bike_id":"abf9a1e3-cfcc-4cb3-b9b6-ab91e7619ac5","system_id":"levelo_inurba_marseille","lat":43.314811,"lon":5.373103,"is_reserved":false,"is_disabled":false,"rental_uris":{"android":"levelo://app?vid=abf9a1e3-cfcc-4cb3-b9b6-ab91e7619ac5","ios":"levelo://app?vid=abf9a1e3-cfcc-4cb3-b9b6-ab91e7619ac5"},"vehicle_type_id":"4","last_reported":1715533544,"current_range_meters":4800,"station_id":"ce4bgt12rcd13ifvqcd0","pricing_plan_id":"cebpf4jnsgd1na2vs0mg"},{"bike_id":"de363a9b-b8dd-4f25-97c4-05ca23eea0b0","system_id":"levelo_inurba_marseille","lat":43.324771,"lon":5.36557,"is_reserved":false,"is_disabled":false,"rental_uris":{"android":"levelo://app?vid=de363a9b-b8dd-4f25-97c4-05ca23eea0b0","ios":"levelo://app?vid=de363a9b-b8dd-4f25-97c4-05ca23eea0b0"},"vehicle_type_id":"4","last_reported":1715533544,"current_range_meters":26800,"station_id":"ce4bhs12rcd13ifvqhvg","pricing_plan_id":"cebpf4jnsgd1na2vs0mg"},{"bike_id":"b0ae57a5-47d8-43f1-a382-5843f5a2c0bd","system_id":"levelo_inurba_marseille","lat":43.324771,"lon":5.36557,"is_reserved":false,"is_disabled":false,"rental_uris":{"android":"levelo://app?vid=b0ae57a5-47d8-43f1-a382-5843f5a2c0bd","ios":"levelo://app?vid=b0ae57a5-47d8-43f1-a382-5843f5a2c0bd"},"vehicle_type_id":"4","last_reported":1715533544,"current_range_meters":1200,"station_id":"ce4bhs12rcd13ifvqhvg","pricing_plan_id":"cebpf4jnsgd1na2vs0mg"},{"bike_id":"4a9a9665-1cd2-49ce-8806-5d25ff857789","system_id":"levelo_inurba_marseille","lat":43.324771,"lon":5.36557,"is_reserved":false,"is_disabled":false,"rental_uris":{"android":"levelo://app?vid=4a9a9665-1cd2-49ce-8806-5d25ff857789","ios":"levelo://app?vid=4a9a9665-1cd2-49ce-8806-5d25ff857789"},"vehicle_type_id":"4","last_reported":1715533544,"current_range_meters":16800,"station_id":"ce4bhs12rcd13ifvqhvg","pricing_plan_id":"cebpf4jnsgd1na2vs0mg"},{"bike_id":"237b19c4-af93-4f0b-8df7-a29b40704832","system_id":"levelo_inurba_marseille","lat":43.324771,"lon":5.36557,"is_reserved":false,"is_disabled":false,"rental_uris":{"android":"levelo://app?vid=237b19c4-af93-4f0b-8df7-a29b40704832","ios":"levelo://app?vid=237b19c4-af93-4f0b-8df7-a29b40704832"},"vehicle_type_id":"4","last_reported":1715533544,"current_range_meters":28000,"station_id":"ce4bhs12rcd13ifvqhvg","pricing_plan_id":"cebpf4jnsgd1na2vs0mg"},{"bike_id":"ab294a79-14d3-426e-b97b-f105f6a1e37c","system_id":"levelo_inurba_marseille","lat":43.324771,"lon":5.36557,"is_reserved":false,"is_disabled":false,"rental_uris":{"android":"levelo://app?vid=ab294a79-14d3-426e-b97b-f105f6a1e37c","ios":"levelo://app?vid=ab294a79-14d3-426e-b97b-f105f6a1e37c"},"vehicle_type_id":"4","last_reported":1715533544,"current_range_meters":28000,"station_id":"ce4bhs12rcd13ifvqhvg","pricing_plan_id":"cebpf4jnsgd1na2vs0mg"},{"bike_id":"1d3de0b0-7934-4fcc-b39a-497c4cf68f7b","system_id":"levelo_inurba_marseille","lat":43.324771,"lon":5.36557,"is_reserved":false,"is_disabled":false,"rental_uris":{"android":"levelo://app?vid=1d3de0b0-7934-4fcc-b39a-497c4cf68f7b","ios":"levelo://app?vid=1d3de0b0-7934-4fcc-b39a-497c4cf68f7b"},"vehicle_type_id":"4","last_reported":1715533544,"current_range_meters":21200,"station_id":"ce4bhs12rcd13ifvqhvg","pricing_plan_id":"cebpf4jnsgd1na2vs0mg"},{"bike_id":"e462428f-8777-46bf-be71-6ec0eeb2736e","system_id":"levelo_inurba_marseille","lat":43.324771,"lon":5.36557,"is_reserved":false,"is_disabled":false,"rental_uris":{"android":"levelo://app?vid=e462428f-8777-46bf-be71-6ec0eeb2736e","ios":"levelo://app?vid=e462428f-8777-46bf-be71-6ec0eeb2736e"},"vehicle_type_id":"4","last_reported":1715533544,"current_range_meters":11600,"station_id":"ce4bhs12rcd13ifvqhvg","pricing_plan_id":"cebpf4jnsgd1na2vs0mg"},{"bike_id":"27864151-07c6-46e0-bb7f-76413df57206","system_id":"levelo_inurba_marseille","lat":43.32491,"lon":5.36559,"is_reserved":false,"is_disabled":false,"rental_uris":{"android":"levelo://app?vid=27864151-07c6-46e0-bb7f-76413df57206","ios":"levelo://app?vid=27864151-07c6-46e0-bb7f-76413df57206"},"vehicle_type_id":"4","last_reported":1715533544,"current_range_meters":20800,"station_id":"ce4bhs12rcd13ifvqhvg","pricing_plan_id":"cebpf4jnsgd1na2vs0mg"},{"bike_id":"2eb8efae-998d-4db9-9cec-28b6feb747d2","system_id":"levelo_inurba_marseille","lat":43.310653,"lon":5.38349,"is_reserved":false,"is_disabled":false,"rental_uris":{"android":"levelo://app?vid=2eb8efae-998d-4db9-9cec-28b6feb747d2","ios":"levelo://app?vid=2eb8efae-998d-4db9-9cec-28b6feb747d2"},"vehicle_type_id":"4","last_reported":1715533544,"current_range_meters":16800,"station_id":"ce4bgv92rcd13ifvqcr0","pricing_plan_id":"cebpf4jnsgd1na2vs0mg"},{"bike_id":"cbbc8e10-a4e5-4201-aa66-7c9fefba90a7","system_id":"levelo_inurba_marseille","lat":43.310724,"lon":5.383532,"is_reserved":false,"is_disabled":false,"rental_uris":{"android":"levelo://app?vid=cbbc8e10-a4e5-4201-aa66-7c9fefba90a7","ios":"levelo://app?vid=cbbc8e10-a4e5-4201-aa66-7c9fefba90a7"},"vehicle_type_id":"4","last_reported":1715533544,"current_range_meters":10000,"station_id":"ce4bgv92rcd13ifvqcr0","pricing_plan_id":"cebpf4jnsgd1na2vs0mg"},{"bike_id":"5bc41935-3e55-428a-b87a-ddf96c4b2ea8","system_id":"levelo_inurba_marseille","lat":43.302847,"lon":5.377027,"is_reserved":false,"is_disabled":false,"rental_uris":{"android":"levelo://app?vid=5bc41935-3e55-428a-b87a-ddf96c4b2ea8","ios":"levelo://app?vid=5bc41935-3e55-428a-b87a-ddf96c4b2ea8"},"vehicle_type_id":"4","last_reported":1715533544,"current_range_meters":16000,"station_id":"ce4bguh2rcd13ifvqcj0","pricing_plan_id":"cebpf4jnsgd1na2vs0mg"},{"bike_id":"b005d2ec-2711-4fd6-87b6-c26158d40dd9","system_id":"levelo_inurba_marseille","lat":43.310758,"lon":5.383661,"is_reserved":false,"is_disabled":false,"rental_uris":{"android":"levelo://app?vid=b005d2ec-2711-4fd6-87b6-c26158d40dd9","ios":"levelo://app?vid=b005d2ec-2711-4fd6-87b6-c26158d40dd9"},"vehicle_type_id":"4","last_reported":1715533544,"current_range_meters":0,"station_id":"ce4bgv92rcd13ifvqcr0","pricing_plan_id":"cebpf4jnsgd1na2vs0mg"},{"bike_id":"33531eb2-a914-4029-9236-a417e697981b","system_id":"levelo_inurba_marseille","lat":43.302784,"lon":5.377158,"is_reserved":false,"is_disabled":false,"rental_uris":{"android":"levelo://app?vid=33531eb2-a914-4029-9236-a417e697981b","ios":"levelo://app?vid=33531eb2-a914-4029-9236-a417e697981b"},"vehicle_type_id":"4","last_reported":1715533544,"current_range_meters":0,"station_id":"ce4bguh2rcd13ifvqcj0","pricing_plan_id":"cebpf4jnsgd1na2vs0mg"},{"bike_id":"c4200d11-5913-43a7-ab1e-5da221479669","system_id":"levelo_inurba_marseille","lat":43.301429,"lon":5.37413,"is_reserved":false,"is_disabled":false,"rental_uris":{"android":"levelo://app?vid=c4200d11-5913-43a7-ab1e-5da221479669","ios":"levelo://app?vid=c4200d11-5913-43a7-ab1e-5da221479669"},"vehicle_type_id":"4","last_reported":1715533544,"current_range_meters":1600,"station_id":"ce4bgs92rcd13ifvqcc0","pricing_plan_id":"cebpf4jnsgd1na2vs0mg"},{"bike_id":"80ac1e8c-8e7e-4fbb-a142-04a620172bd2","system_id":"levelo_inurba_marseille","lat":43.30143,"lon":5.37413,"is_reserved":false,"is_disabled":false,"rental_uris":{"android":"levelo://app?vid=80ac1e8c-8e7e-4fbb-a142-04a620172bd2","ios":"levelo://app?vid=80ac1e8c-8e7e-4fbb-a142-04a620172bd2"},"vehicle_type_id":"4","last_reported":1715533544,"current_range_meters":7600,"station_id":"ce4bgs92rcd13ifvqcc0","pricing_plan_id":"cebpf4jnsgd1na2vs0mg"},{"bike_id":"31f6b532-2aa6-46e8-93a9-4dabb90b4aaa","system_id":"levelo_inurba_marseille","lat":43.301429,"lon":5.37413,"is_reserved":false,"is_disabled":false,"rental_uris":{"android":"levelo://app?vid=31f6b532-2aa6-46e8-93a9-4dabb90b4aaa","ios":"levelo://app?vid=31f6b532-2aa6-46e8-93a9-4dabb90b4aaa"},"vehicle_type_id":"4","last_reported":1715533544,"current_range_meters":10000,"station_id":"ce4bgs92rcd13ifvqcc0","pricing_plan_id":"cebpf4jnsgd1na2vs0mg"},{"bike_id":"79f290b6-d111-4c82-bc3e-98d70e4abd3c","system_id":"levelo_inurba_marseille","lat":43.30143,"lon":5.37413,"is_reserved":false,"is_disabled":false,"rental_uris":{"android":"levelo://app?vid=79f290b6-d111-4c82-bc3e-98d70e4abd3c","ios":"levelo://app?vid=79f290b6-d111-4c82-bc3e-98d70e4abd3c"},"vehicle_type_id":"4","last_reported":1715533544,"current_range_meters":22000,"station_id":"ce4bgs92rcd13ifvqcc0","pricing_plan_id":"cebpf4jnsgd1na2vs0mg"},{"bike_id":"95f0faca-9595-478a-978f-803f06dee393","system_id":"levelo_inurba_marseille","lat":43.30143,"lon":5.37413,"is_reserved":false,"is_disabled":false,"rental_uris":{"android":"levelo://app?vid=95f0faca-9595-478a-978f-803f06dee393","ios":"levelo://app?vid=95f0faca-9595-478a-978f-803f06dee393"},"vehicle_type_id":"4","last_reported":1715533544,"current_range_meters":9200,"station_id":"ce4bgs92rcd13ifvqcc0","pricing_plan_id":"cebpf4jnsgd1na2vs0mg"},{"bike_id":"74c1be8a-5439-4116-8ee0-b58b150fd1e3","system_id":"levelo_inurba_marseille","lat":43.319935,"lon":5.381699,"is_reserved":false,"is_disabled":false,"rental_uris":{"android":"levelo://app?vid=74c1be8a-5439-4116-8ee0-b58b150fd1e3","ios":"levelo://app?vid=74c1be8a-5439-4116-8ee0-b58b150fd1e3"},"vehicle_type_id":"4","last_reported":1715533544,"current_range_meters":4400,"station_id":"ce4bhr12rcd13ifvqhpg","pricing_plan_id":"cebpf4jnsgd1na2vs0mg"},{"bike_id":"025e2010-8336-4327-9497-1d45ce5e7e90","system_id":"levelo_inurba_marseille","lat":43.313571,"lon":5.384829,"is_reserved":false,"is_disabled":false,"rental_uris":{"android":"levelo://app?vid=025e2010-8336-4327-9497-1d45ce5e7e90","ios":"levelo://app?vid=025e2010-8336-4327-9497-1d45ce5e7e90"},"vehicle_type_id":"4","last_reported":1715533544,"current_range_meters":26000,"station_id":"ce4bgt92rcd13ifvqcf0","pricing_plan_id":"cebpf4jnsgd1na2vs0mg"},{"bike_id":"a73512dc-7933-4ffe-ad92-8719468d1feb","system_id":"levelo_inurba_marseille","lat":43.313571,"lon":5.384829,"is_reserved":false,"is_disabled":false,"rental_uris":{"android":"levelo://app?vid=a73512dc-7933-4ffe-ad92-8719468d1feb","ios":"levelo://app?vid=a73512dc-7933-4ffe-ad92-8719468d1feb"},"vehicle_type_id":"4","last_reported":1715533544,"current_range_meters":3600,"station_id":"ce4bgt92rcd13ifvqcf0","pricing_plan_id":"cebpf4jnsgd1na2vs0mg"},{"bike_id":"dda54a0b-e23d-4259-ab34-bc15aa7b5e1c","system_id":"levelo_inurba_marseille","lat":43.29954,"lon":5.36536,"is_reserved":false,"is_disabled":false,"rental_uris":{"android":"levelo://app?vid=dda54a0b-e23d-4259-ab34-bc15aa7b5e1c","ios":"levelo://app?vid=dda54a0b-e23d-4259-ab34-bc15aa7b5e1c"},"vehicle_type_id":"4","last_reported":1715533544,"current_range_meters":0,"station_id":"ce4bgm92rcd13ifvqbr0","pricing_plan_id":"cebpf4jnsgd1na2vs0mg"},{"bike_id":"5b4fbaae-a00e-4733-8b74-470d2b58a2d7","system_id":"levelo_inurba_marseille","lat":43.29989,"lon":5.37183,"is_reserved":false,"is_disabled":false,"rental_uris":{"android":"levelo://app?vid=5b4fbaae-a00e-4733-8b74-470d2b58a2d7","ios":"levelo://app?vid=5b4fbaae-a00e-4733-8b74-470d2b58a2d7"},"vehicle_type_id":"4","last_reported":1715533544,"current_range_meters":0,"station_id":"ce4bgr92rcd13ifvqc7g","pricing_plan_id":"cebpf4jnsgd1na2vs0mg"},{"bike_id":"12459666-5bbf-41e6-b98a-61e819e0362a","system_id":"levelo_inurba_marseille","lat":43.2999,"lon":5.37194,"is_reserved":false,"is_disabled":false,"rental_uris":{"android":"levelo://app?vid=12459666-5bbf-41e6-b98a-61e819e0362a","ios":"levelo://app?vid=12459666-5bbf-41e6-b98a-61e819e0362a"},"vehicle_type_id":"4","last_reported":1715533544,"current_range_meters":800,"station_id":"ce4bgr92rcd13ifvqc7g","pricing_plan_id":"cebpf4jnsgd1na2vs0mg"},{"bike_id":"4909b037-7a11-4960-8fd6-e45e23aec917","system_id":"levelo_inurba_marseille","lat":43.29943,"lon":5.36553,"is_reserved":false,"is_disabled":false,"rental_uris":{"android":"levelo://app?vid=4909b037-7a11-4960-8fd6-e45e23aec917","ios":"levelo://app?vid=4909b037-7a11-4960-8fd6-e45e23aec917"},"vehicle_type_id":"4","last_reported":1715533544,"current_range_meters":0,"station_id":"ce4bgm92rcd13ifvqbr0","pricing_plan_id":"cebpf4jnsgd1na2vs0mg"},{"bike_id":"83b203ce-1d9a-43ce-a664-f8d3f81203e7","system_id":"levelo_inurba_marseille","lat":43.299222,"lon":5.365554,"is_reserved":false,"is_disabled":false,"rental_uris":{"android":"levelo://app?vid=83b203ce-1d9a-43ce-a664-f8d3f81203e7","ios":"levelo://app?vid=83b203ce-1d9a-43ce-a664-f8d3f81203e7"},"vehicle_type_id":"4","last_reported":1715533544,"current_range_meters":7600,"station_id":"ce4bgm92rcd13ifvqbr0","pricing_plan_id":"cebpf4jnsgd1na2vs0mg"},{"bike_id":"d2889099-5268-47a0-af2f-46744e9705a6","system_id":"levelo_inurba_marseille","lat":43.313488,"lon":5.385296,"is_reserved":false,"is_disabled":false,"rental_uris":{"android":"levelo://app?vid=d2889099-5268-47a0-af2f-46744e9705a6","ios":"levelo://app?vid=d2889099-5268-47a0-af2f-46744e9705a6"},"vehicle_type_id":"4","last_reported":1715533544,"current_range_meters":0,"station_id":"ce4bgt92rcd13ifvqcf0","pricing_plan_id":"cebpf4jnsgd1na2vs0mg"},{"bike_id":"83a2c810-8ba8-42c4-b4df-0a00fc270c76","system_id":"levelo_inurba_marseille","lat":43.29966,"lon":5.37183,"is_reserved":false,"is_disabled":false,"rental_uris":{"android":"levelo://app?vid=83a2c810-8ba8-42c4-b4df-0a00fc270c76","ios":"levelo://app?vid=83a2c810-8ba8-42c4-b4df-0a00fc270c76"},"vehicle_type_id":"4","last_reported":1715533544,"current_range_meters":0,"station_id":"ce4bgr92rcd13ifvqc7g","pricing_plan_id":"cebpf4jnsgd1na2vs0mg"},{"bike_id":"56a3f3e1-1e9a-423b-b25d-2fd88aea0f0e","system_id":"levelo_inurba_marseille","lat":43.298533,"lon":5.362824,"is_reserved":false,"is_disabled":false,"rental_uris":{"android":"levelo://app?vid=56a3f3e1-1e9a-423b-b25d-2fd88aea0f0e","ios":"levelo://app?vid=56a3f3e1-1e9a-423b-b25d-2fd88aea0f0e"},"vehicle_type_id":"4","last_reported":1715533544,"current_range_meters":4000,"station_id":"ce4bgpp2rcd13ifvqc3g","pricing_plan_id":"cebpf4jnsgd1na2vs0mg"},{"bike_id":"3cca5b66-d40c-4e1f-9dc3-89edeed84a63","system_id":"levelo_inurba_marseille","lat":43.2985,"lon":5.36288,"is_reserved":false,"is_disabled":false,"rental_uris":{"android":"levelo://app?vid=3cca5b66-d40c-4e1f-9dc3-89edeed84a63","ios":"levelo://app?vid=3cca5b66-d40c-4e1f-9dc3-89edeed84a63"},"vehicle_type_id":"4","last_reported":1715533544,"current_range_meters":0,"station_id":"ce4bgpp2rcd13ifvqc3g","pricing_plan_id":"cebpf4jnsgd1na2vs0mg"},{"bike_id":"c96fc0cc-7883-429c-bb93-c3652635e4b6","system_id":"levelo_inurba_marseille","lat":43.301429,"lon":5.37413,"is_reserved":false,"is_disabled":false,"rental_uris":{"android":"levelo://app?vid=c96fc0cc-7883-429c-bb93-c3652635e4b6","ios":"levelo://app?vid=c96fc0cc-7883-429c-bb93-c3652635e4b6"},"vehicle_type_id":"4","last_reported":1715533544,"current_range_meters":20800,"station_id":"ce4bgs92rcd13ifvqcc0","pricing_plan_id":"cebpf4jnsgd1na2vs0mg"},{"bike_id":"ce352ae6-2423-4dce-9926-f9762e845e5a","system_id":"levelo_inurba_marseille","lat":43.29843,"lon":5.3626,"is_reserved":false,"is_disabled":false,"rental_uris":{"android":"levelo://app?vid=ce352ae6-2423-4dce-9926-f9762e845e5a","ios":"levelo://app?vid=ce352ae6-2423-4dce-9926-f9762e845e5a"},"vehicle_type_id":"4","last_reported":1715533544,"current_range_meters":1600,"station_id":"ce4bgpp2rcd13ifvqc3g","pricing_plan_id":"cebpf4jnsgd1na2vs0mg"},{"bike_id":"5e8f8d9a-07ef-441e-9519-6858be5e3622","system_id":"levelo_inurba_marseille","lat":43.2984,"lon":5.3627,"is_reserved":false,"is_disabled":false,"rental_uris":{"android":"levelo://app?vid=5e8f8d9a-07ef-441e-9519-6858be5e3622","ios":"levelo://app?vid=5e8f8d9a-07ef-441e-9519-6858be5e3622"},"vehicle_type_id":"4","last_reported":1715533544,"current_range_meters":7200,"station_id":"ce4bgpp2rcd13ifvqc3g","pricing_plan_id":"cebpf4jnsgd1na2vs0mg"},{"bike_id":"3f2161d7-40eb-4445-b0d6-8a74975f87a6","system_id":"levelo_inurba_marseille","lat":43.311722,"lon":5.387247,"is_reserved":false,"is_disabled":false,"rental_uris":{"android":"levelo://app?vid=3f2161d7-40eb-4445-b0d6-8a74975f87a6","ios":"levelo://app?vid=3f2161d7-40eb-4445-b0d6-8a74975f87a6"},"vehicle_type_id":"4","last_reported":1715533544,"current_range_meters":28800,"station_id":"ce4bgv12rcd13ifvqcp0","pricing_plan_id":"cebpf4jnsgd1na2vs0mg"},{"bike_id":"9dd1116d-3eeb-4871-b319-46685b8d8523","system_id":"levelo_inurba_marseille","lat":43.299243,"lon":5.374807,"is_reserved":false,"is_disabled":false,"rental_uris":{"android":"levelo://app?vid=9dd1116d-3eeb-4871-b319-46685b8d8523","ios":"levelo://app?vid=9dd1116d-3eeb-4871-b319-46685b8d8523"},"vehicle_type_id":"4","last_reported":1715533544,"current_range_meters":1200,"station_id":"ce4bgjh2rcd13ifvqbg0","pricing_plan_id":"cebpf4jnsgd1na2vs0mg"},{"bike_id":"699c83ec-e98a-4262-a750-a3c28e896d3a","system_id":"levelo_inurba_marseille","lat":43.31173,"lon":5.3872,"is_reserved":false,"is_disabled":false,"rental_uris":{"android":"levelo://app?vid=699c83ec-e98a-4262-a750-a3c28e896d3a","ios":"levelo://app?vid=699c83ec-e98a-4262-a750-a3c28e896d3a"},"vehicle_type_id":"4","last_reported":1715533544,"current_range_meters":0,"station_id":"ce4bgv12rcd13ifvqcp0","pricing_plan_id":"cebpf4jnsgd1na2vs0mg"},{"bike_id":"650d0068-ca41-4919-8c96-6204e51681da","system_id":"levelo_inurba_marseille","lat":43.31175,"lon":5.38724,"is_reserved":false,"is_disabled":false,"rental_uris":{"android":"levelo://app?vid=650d0068-ca41-4919-8c96-6204e51681da","ios":"levelo://app?vid=650d0068-ca41-4919-8c96-6204e51681da"},"vehicle_type_id":"4","last_reported":1715533544,"current_range_meters":0,"station_id":"ce4bgv12rcd13ifvqcp0","pricing_plan_id":"cebpf4jnsgd1na2vs0mg"},{"bike_id":"05767734-d7e1-46ff-863f-7c4aa74a572d","system_id":"levelo_inurba_marseille","lat":43.31177,"lon":5.3873,"is_reserved":false,"is_disabled":false,"rental_uris":{"android":"levelo://app?vid=05767734-d7e1-46ff-863f-7c4aa74a572d","ios":"levelo://app?vid=05767734-d7e1-46ff-863f-7c4aa74a572d"},"vehicle_type_id":"4","last_reported":1715533544,"current_range_meters":19200,"station_id":"ce4bgv12rcd13ifvqcp0","pricing_plan_id":"cebpf4jnsgd1na2vs0mg"},{"bike_id":"7070e582-e1a7-4d4d-a48b-77174caa0ccb","system_id":"levelo_inurba_marseille","lat":43.32787,"lon":5.36578,"is_reserved":false,"is_disabled":false,"rental_uris":{"android":"levelo://app?vid=7070e582-e1a7-4d4d-a48b-77174caa0ccb","ios":"levelo://app?vid=7070e582-e1a7-4d4d-a48b-77174caa0ccb"},"vehicle_type_id":"4","last_reported":1715533544,"current_range_meters":4000,"station_id":"","pricing_plan_id":"cebpf4jnsgd1na2vs0mg"},{"bike_id":"8bd541cd-6fc9-4b6f-98b4-c062a53d4799","system_id":"levelo_inurba_marseille","lat":43.297794,"lon":5.370888,"is_reserved":false,"is_disabled":false,"rental_uris":{"android":"levelo://app?vid=8bd541cd-6fc9-4b6f-98b4-c062a53d4799","ios":"levelo://app?vid=8bd541cd-6fc9-4b6f-98b4-c062a53d4799"},"vehicle_type_id":"4","last_reported":1715533544,"current_range_meters":14400,"station_id":"ce4bgop2rcd13ifvqc1g","pricing_plan_id":"cebpf4jnsgd1na2vs0mg"},{"bike_id":"964f84f9-78df-4a7c-8f00-2e180ec1adb0","system_id":"levelo_inurba_marseille","lat":43.32291,"lon":5.38259,"is_reserved":false,"is_disabled":false,"rental_uris":{"android":"levelo://app?vid=964f84f9-78df-4a7c-8f00-2e180ec1adb0","ios":"levelo://app?vid=964f84f9-78df-4a7c-8f00-2e180ec1adb0"},"vehicle_type_id":"4","last_reported":1715533544,"current_range_meters":10000,"station_id":"ce4bhr12rcd13ifvqhqg","pricing_plan_id":"cebpf4jnsgd1na2vs0mg"},{"bike_id":"b7b78792-38a8-48e8-a6bd-be9cdc5b8bae","system_id":"levelo_inurba_marseille","lat":43.297163,"lon":5.365866,"is_reserved":false,"is_disabled":false,"rental_uris":{"android":"levelo://app?vid=b7b78792-38a8-48e8-a6bd-be9cdc5b8bae","ios":"levelo://app?vid=b7b78792-38a8-48e8-a6bd-be9cdc5b8bae"},"vehicle_type_id":"4","last_reported":1715533544,"current_range_meters":14800,"station_id":"ce4bgn12rcd13ifvqbt0","pricing_plan_id":"cebpf4jnsgd1na2vs0mg"},{"bike_id":"38b1639f-0b7b-4041-8f45-51cfa44eaefb","system_id":"levelo_inurba_marseille","lat":43.297163,"lon":5.365866,"is_reserved":false,"is_disabled":false,"rental_uris":{"android":"levelo://app?vid=38b1639f-0b7b-4041-8f45-51cfa44eaefb","ios":"levelo://app?vid=38b1639f-0b7b-4041-8f45-51cfa44eaefb"},"vehicle_type_id":"4","last_reported":1715533544,"current_range_meters":0,"station_id":"ce4bgn12rcd13ifvqbt0","pricing_plan_id":"cebpf4jnsgd1na2vs0mg"},{"bike_id":"4714960e-39f3-471d-a530-78d25613bfbb","system_id":"levelo_inurba_marseille","lat":43.2968,"lon":5.37291,"is_reserved":false,"is_disabled":false,"rental_uris":{"android":"levelo://app?vid=4714960e-39f3-471d-a530-78d25613bfbb","ios":"levelo://app?vid=4714960e-39f3-471d-a530-78d25613bfbb"},"vehicle_type_id":"4","last_reported":1715533544,"current_range_meters":6400,"station_id":"ce4bgk12rcd13ifvqbj0","pricing_plan_id":"cebpf4jnsgd1na2vs0mg"},{"bike_id":"00bedfa0-60b7-4159-ad29-7941d3dc12f6","system_id":"levelo_inurba_marseille","lat":43.29573,"lon":5.367355,"is_reserved":false,"is_disabled":false,"rental_uris":{"android":"levelo://app?vid=00bedfa0-60b7-4159-ad29-7941d3dc12f6","ios":"levelo://app?vid=00bedfa0-60b7-4159-ad29-7941d3dc12f6"},"vehicle_type_id":"4","last_reported":1715533544,"current_range_meters":5200,"station_id":"ce4bgph2rcd13ifvqc2g","pricing_plan_id":"cebpf4jnsgd1na2vs0mg"},{"bike_id":"af5ebbe4-05ff-4eb1-9124-9ff401a487fb","system_id":"levelo_inurba_marseille","lat":43.296935,"lon":5.376544,"is_reserved":false,"is_disabled":false,"rental_uris":{"android":"levelo://app?vid=af5ebbe4-05ff-4eb1-9124-9ff401a487fb","ios":"levelo://app?vid=af5ebbe4-05ff-4eb1-9124-9ff401a487fb"},"vehicle_type_id":"4","last_reported":1715533544,"current_range_meters":0,"station_id":"ce4bgkh2rcd13ifvqbl0","pricing_plan_id":"cebpf4jnsgd1na2vs0mg"},{"bike_id":"b04bec95-6c6a-4600-976f-f23ecfbbab48","system_id":"levelo_inurba_marseille","lat":43.32886,"lon":5.35909,"is_reserved":false,"is_disabled":false,"rental_uris":{"android":"levelo://app?vid=b04bec95-6c6a-4600-976f-f23ecfbbab48","ios":"levelo://app?vid=b04bec95-6c6a-4600-976f-f23ecfbbab48"},"vehicle_type_id":"4","last_reported":1715533544,"current_range_meters":0,"station_id":"","pricing_plan_id":"cebpf4jnsgd1na2vs0mg"},{"bike_id":"f8434c25-f45d-47b9-9f80-62a4a871947c","system_id":"levelo_inurba_marseille","lat":43.295748,"lon":5.37522,"is_reserved":false,"is_disabled":false,"rental_uris":{"android":"levelo://app?vid=f8434c25-f45d-47b9-9f80-62a4a871947c","ios":"levelo://app?vid=f8434c25-f45d-47b9-9f80-62a4a871947c"},"vehicle_type_id":"4","last_reported":1715533544,"current_range_meters":0,"station_id":"ce4bgh92rcd13ifvqb50","pricing_plan_id":"cebpf4jnsgd1na2vs0mg"},{"bike_id":"fa9df02d-a3a5-4a6e-91fe-fb52d5263279","system_id":"levelo_inurba_marseille","lat":43.309589,"lon":5.390258,"is_reserved":false,"is_disabled":false,"rental_uris":{"android":"levelo://app?vid=fa9df02d-a3a5-4a6e-91fe-fb52d5263279","ios":"levelo://app?vid=fa9df02d-a3a5-4a6e-91fe-fb52d5263279"},"vehicle_type_id":"4","last_reported":1715533544,"current_range_meters":14000,"station_id":"ce4bgup2rcd13ifvqco0","pricing_plan_id":"cebpf4jnsgd1na2vs0mg"},{"bike_id":"f7672e33-be75-4da3-b0cb-5acfbe830556","system_id":"levelo_inurba_marseille","lat":43.309589,"lon":5.390258,"is_reserved":false,"is_disabled":false,"rental_uris":{"android":"levelo://app?vid=f7672e33-be75-4da3-b0cb-5acfbe830556","ios":"levelo://app?vid=f7672e33-be75-4da3-b0cb-5acfbe830556"},"vehicle_type_id":"4","last_reported":1715533544,"current_range_meters":0,"station_id":"ce4bgup2rcd13ifvqco0","pricing_plan_id":"cebpf4jnsgd1na2vs0mg"},{"bike_id":"4c64a3d3-be89-49d5-9714-a40d17d44f87","system_id":"levelo_inurba_marseille","lat":43.30946,"lon":5.39043,"is_reserved":false,"is_disabled":false,"rental_uris":{"android":"levelo://app?vid=4c64a3d3-be89-49d5-9714-a40d17d44f87","ios":"levelo://app?vid=4c64a3d3-be89-49d5-9714-a40d17d44f87"},"vehicle_type_id":"4","last_reported":1715533544,"current_range_meters":16800,"station_id":"ce4bgup2rcd13ifvqco0","pricing_plan_id":"cebpf4jnsgd1na2vs0mg"},{"bike_id":"e23be90f-c576-4b4a-abf4-94e6f56659d1","system_id":"levelo_inurba_marseille","lat":43.30956,"lon":5.3905,"is_reserved":false,"is_disabled":false,"rental_uris":{"android":"levelo://app?vid=e23be90f-c576-4b4a-abf4-94e6f56659d1","ios":"levelo://app?vid=e23be90f-c576-4b4a-abf4-94e6f56659d1"},"vehicle_type_id":"4","last_reported":1715533544,"current_range_meters":1600,"station_id":"ce4bgup2rcd13ifvqco0","pricing_plan_id":"cebpf4jnsgd1na2vs0mg"},{"bike_id":"d4a61026-9714-43e9-9165-2458db9b2b73","system_id":"levelo_inurba_marseille","lat":43.30956,"lon":5.39051,"is_reserved":false,"is_disabled":false,"rental_uris":{"android":"levelo://app?vid=d4a61026-9714-43e9-9165-2458db9b2b73","ios":"levelo://app?vid=d4a61026-9714-43e9-9165-2458db9b2b73"},"vehicle_type_id":"4","last_reported":1715533544,"current_range_meters":8000,"station_id":"ce4bgup2rcd13ifvqco0","pricing_plan_id":"cebpf4jnsgd1na2vs0mg"},{"bike_id":"8aa41c21-d1fa-4eb8-a69d-94ab068f2ea2","system_id":"levelo_inurba_marseille","lat":43.317557,"lon":5.390173,"is_reserved":false,"is_disabled":false,"rental_uris":{"android":"levelo://app?vid=8aa41c21-d1fa-4eb8-a69d-94ab068f2ea2","ios":"levelo://app?vid=8aa41c21-d1fa-4eb8-a69d-94ab068f2ea2"},"vehicle_type_id":"4","last_reported":1715533544,"current_range_meters":0,"station_id":"ce4bhqp2rcd13ifvqhng","pricing_plan_id":"cebpf4jnsgd1na2vs0mg"},{"bike_id":"5ac93315-54c4-458e-afef-cc7b23a07317","system_id":"levelo_inurba_marseille","lat":43.317557,"lon":5.390173,"is_reserved":false,"is_disabled":false,"rental_uris":{"android":"levelo://app?vid=5ac93315-54c4-458e-afef-cc7b23a07317","ios":"levelo://app?vid=5ac93315-54c4-458e-afef-cc7b23a07317"},"vehicle_type_id":"4","last_reported":1715533544,"current_range_meters":31200,"station_id":"ce4bhqp2rcd13ifvqhng","pricing_plan_id":"cebpf4jnsgd1na2vs0mg"},{"bike_id":"09c903ee-fb4c-40e6-a6af-b7240c5d0faa","system_id":"levelo_inurba_marseille","lat":43.29575,"lon":5.375087,"is_reserved":false,"is_disabled":false,"rental_uris":{"android":"levelo://app?vid=09c903ee-fb4c-40e6-a6af-b7240c5d0faa","ios":"levelo://app?vid=09c903ee-fb4c-40e6-a6af-b7240c5d0faa"},"vehicle_type_id":"4","last_reported":1715533544,"current_range_meters":0,"station_id":"ce4bgh92rcd13ifvqb50","pricing_plan_id":"cebpf4jnsgd1na2vs0mg"},{"bike_id":"878bcc5e-7d2a-4c6c-8e9e-465d3ad49c19","system_id":"levelo_inurba_marseille","lat":43.298037,"lon":5.381066,"is_reserved":false,"is_disabled":false,"rental_uris":{"android":"levelo://app?vid=878bcc5e-7d2a-4c6c-8e9e-465d3ad49c19","ios":"levelo://app?vid=878bcc5e-7d2a-4c6c-8e9e-465d3ad49c19"},"vehicle_type_id":"4","last_reported":1715533544,"current_range_meters":0,"station_id":"ce4bgip2rcd13ifvqbb0","pricing_plan_id":"cebpf4jnsgd1na2vs0mg"},{"bike_id":"3b7adfbf-5758-4e9c-ae8c-c730ce37f799","system_id":"levelo_inurba_marseille","lat":43.298037,"lon":5.381066,"is_reserved":false,"is_disabled":false,"rental_uris":{"android":"levelo://app?vid=3b7adfbf-5758-4e9c-ae8c-c730ce37f799","ios":"levelo://app?vid=3b7adfbf-5758-4e9c-ae8c-c730ce37f799"},"vehicle_type_id":"4","last_reported":1715533544,"current_range_meters":15600,"station_id":"ce4bgip2rcd13ifvqbb0","pricing_plan_id":"cebpf4jnsgd1na2vs0mg"},{"bike_id":"7d72816c-e094-4a19-8935-90a515e0c3e7","system_id":"levelo_inurba_marseille","lat":43.295748,"lon":5.37522,"is_reserved":false,"is_disabled":false,"rental_uris":{"android":"levelo://app?vid=7d72816c-e094-4a19-8935-90a515e0c3e7","ios":"levelo://app?vid=7d72816c-e094-4a19-8935-90a515e0c3e7"},"vehicle_type_id":"4","last_reported":1715533544,"current_range_meters":0,"station_id":"ce4bgh92rcd13ifvqb50","pricing_plan_id":"cebpf4jnsgd1na2vs0mg"},{"bike_id":"136819ec-3706-4767-9bda-cc825a78d853","system_id":"levelo_inurba_marseille","lat":43.298037,"lon":5.381066,"is_reserved":false,"is_disabled":false,"rental_uris":{"android":"levelo://app?vid=136819ec-3706-4767-9bda-cc825a78d853","ios":"levelo://app?vid=136819ec-3706-4767-9bda-cc825a78d853"},"vehicle_type_id":"4","last_reported":1715533544,"current_range_meters":400,"station_id":"ce4bgip2rcd13ifvqbb0","pricing_plan_id":"cebpf4jnsgd1na2vs0mg"},{"bike_id":"d98f941d-1da3-44ab-84f4-28c70220ef57","system_id":"levelo_inurba_marseille","lat":43.304274,"lon":5.388873,"is_reserved":false,"is_disabled":false,"rental_uris":{"android":"levelo://app?vid=d98f941d-1da3-44ab-84f4-28c70220ef57","ios":"levelo://app?vid=d98f941d-1da3-44ab-84f4-28c70220ef57"},"vehicle_type_id":"4","last_reported":1715533544,"current_range_meters":23600,"station_id":"ce4bgk12rcd13ifvqbi0","pricing_plan_id":"cebpf4jnsgd1na2vs0mg"},{"bike_id":"446e21ed-5648-433e-8513-1920404c83e4","system_id":"levelo_inurba_marseille","lat":43.295748,"lon":5.37522,"is_reserved":false,"is_disabled":false,"rental_uris":{"android":"levelo://app?vid=446e21ed-5648-433e-8513-1920404c83e4","ios":"levelo://app?vid=446e21ed-5648-433e-8513-1920404c83e4"},"vehicle_type_id":"4","last_reported":1715533544,"current_range_meters":0,"station_id":"ce4bgh92rcd13ifvqb50","pricing_plan_id":"cebpf4jnsgd1na2vs0mg"},{"bike_id":"4738e215-5374-4892-8784-aabc88cf498a","system_id":"levelo_inurba_marseille","lat":43.296277,"lon":5.377108,"is_reserved":false,"is_disabled":false,"rental_uris":{"android":"levelo://app?vid=4738e215-5374-4892-8784-aabc88cf498a","ios":"levelo://app?vid=4738e215-5374-4892-8784-aabc88cf498a"},"vehicle_type_id":"4","last_reported":1715533544,"current_range_meters":14800,"station_id":"ce4bgi92rcd13ifvqb90","pricing_plan_id":"cebpf4jnsgd1na2vs0mg"},{"bike_id":"3032d70e-9048-4303-ba46-21ae168e904e","system_id":"levelo_inurba_marseille","lat":43.29611,"lon":5.37718,"is_reserved":false,"is_disabled":false,"rental_uris":{"android":"levelo://app?vid=3032d70e-9048-4303-ba46-21ae168e904e","ios":"levelo://app?vid=3032d70e-9048-4303-ba46-21ae168e904e"},"vehicle_type_id":"4","last_reported":1715533544,"current_range_meters":18400,"station_id":"ce4bgi92rcd13ifvqb90","pricing_plan_id":"cebpf4jnsgd1na2vs0mg"},{"bike_id":"92495722-3873-4a2d-ac68-00f64285690b","system_id":"levelo_inurba_marseille","lat":43.29611,"lon":5.37721,"is_reserved":false,"is_disabled":false,"rental_uris":{"android":"levelo://app?vid=92495722-3873-4a2d-ac68-00f64285690b","ios":"levelo://app?vid=92495722-3873-4a2d-ac68-00f64285690b"},"vehicle_type_id":"4","last_reported":1715533544,"current_range_meters":12800,"station_id":"ce4bgi92rcd13ifvqb90","pricing_plan_id":"cebpf4jnsgd1na2vs0mg"},{"bike_id":"3cf14ec9-e9e0-40f8-b150-140ff2133ce5","system_id":"levelo_inurba_marseille","lat":43.29981,"lon":5.38483,"is_reserved":false,"is_disabled":false,"rental_uris":{"android":"levelo://app?vid=3cf14ec9-e9e0-40f8-b150-140ff2133ce5","ios":"levelo://app?vid=3cf14ec9-e9e0-40f8-b150-140ff2133ce5"},"vehicle_type_id":"4","last_reported":1715533544,"current_range_meters":0,"station_id":"ce4bgj92rcd13ifvqbd0","pricing_plan_id":"cebpf4jnsgd1na2vs0mg"},{"bike_id":"15a7e07a-c479-45fc-a16c-31d21b9b6597","system_id":"levelo_inurba_marseille","lat":43.29979,"lon":5.3849,"is_reserved":false,"is_disabled":false,"rental_uris":{"android":"levelo://app?vid=15a7e07a-c479-45fc-a16c-31d21b9b6597","ios":"levelo://app?vid=15a7e07a-c479-45fc-a16c-31d21b9b6597"},"vehicle_type_id":"4","last_reported":1715533544,"current_range_meters":0,"station_id":"ce4bgj92rcd13ifvqbd0","pricing_plan_id":"cebpf4jnsgd1na2vs0mg"},{"bike_id":"921fbb8d-402e-40b6-a50d-1ac850b5a846","system_id":"levelo_inurba_marseille","lat":43.29975,"lon":5.38485,"is_reserved":false,"is_disabled":false,"rental_uris":{"android":"levelo://app?vid=921fbb8d-402e-40b6-a50d-1ac850b5a846","ios":"levelo://app?vid=921fbb8d-402e-40b6-a50d-1ac850b5a846"},"vehicle_type_id":"4","last_reported":1715533544,"current_range_meters":0,"station_id":"ce4bgj92rcd13ifvqbd0","pricing_plan_id":"cebpf4jnsgd1na2vs0mg"},{"bike_id":"7ea98746-1aed-4496-9407-b97016b4634b","system_id":"levelo_inurba_marseille","lat":43.299707,"lon":5.384859,"is_reserved":false,"is_disabled":false,"rental_uris":{"android":"levelo://app?vid=7ea98746-1aed-4496-9407-b97016b4634b","ios":"levelo://app?vid=7ea98746-1aed-4496-9407-b97016b4634b"},"vehicle_type_id":"4","last_reported":1715533544,"current_range_meters":800,"station_id":"ce4bgj92rcd13ifvqbd0","pricing_plan_id":"cebpf4jnsgd1na2vs0mg"},{"bike_id":"2bafecaf-b763-41fe-842d-dc4bc50e0bc1","system_id":"levelo_inurba_marseille","lat":43.29971,"lon":5.3849,"is_reserved":false,"is_disabled":false,"rental_uris":{"android":"levelo://app?vid=2bafecaf-b763-41fe-842d-dc4bc50e0bc1","ios":"levelo://app?vid=2bafecaf-b763-41fe-842d-dc4bc50e0bc1"},"vehicle_type_id":"4","last_reported":1715533544,"current_range_meters":0,"station_id":"ce4bgj92rcd13ifvqbd0","pricing_plan_id":"cebpf4jnsgd1na2vs0mg"},{"bike_id":"ce3b8ec5-ed42-4123-8542-e8452bf3de3c","system_id":"levelo_inurba_marseille","lat":43.29969,"lon":5.38496,"is_reserved":false,"is_disabled":false,"rental_uris":{"android":"levelo://app?vid=ce3b8ec5-ed42-4123-8542-e8452bf3de3c","ios":"levelo://app?vid=ce3b8ec5-ed42-4123-8542-e8452bf3de3c"},"vehicle_type_id":"4","last_reported":1715533544,"current_range_meters":10000,"station_id":"ce4bgj92rcd13ifvqbd0","pricing_plan_id":"cebpf4jnsgd1na2vs0mg"},{"bike_id":"e418885f-0efe-4e54-9634-e832ef667d2e","system_id":"levelo_inurba_marseille","lat":43.29968,"lon":5.38502,"is_reserved":false,"is_disabled":false,"rental_uris":{"android":"levelo://app?vid=e418885f-0efe-4e54-9634-e832ef667d2e","ios":"levelo://app?vid=e418885f-0efe-4e54-9634-e832ef667d2e"},"vehicle_type_id":"4","last_reported":1715533544,"current_range_meters":0,"station_id":"ce4bgj92rcd13ifvqbd0","pricing_plan_id":"cebpf4jnsgd1na2vs0mg"},{"bike_id":"21a7ccc3-e8ea-4cfd-a1fd-0b9ca08ce21b","system_id":"levelo_inurba_marseille","lat":43.299724,"lon":5.384848,"is_reserved":false,"is_disabled":false,"rental_uris":{"android":"levelo://app?vid=21a7ccc3-e8ea-4cfd-a1fd-0b9ca08ce21b","ios":"levelo://app?vid=21a7ccc3-e8ea-4cfd-a1fd-0b9ca08ce21b"},"vehicle_type_id":"4","last_reported":1715533544,"current_range_meters":13600,"station_id":"ce4bgj92rcd13ifvqbd0","pricing_plan_id":"cebpf4jnsgd1na2vs0mg"},{"bike_id":"0ee61cd8-d971-4bdc-b40f-bfc4a3cdc89f","system_id":"levelo_inurba_marseille","lat":43.295279,"lon":5.375048,"is_reserved":false,"is_disabled":false,"rental_uris":{"android":"levelo://app?vid=0ee61cd8-d971-4bdc-b40f-bfc4a3cdc89f","ios":"levelo://app?vid=0ee61cd8-d971-4bdc-b40f-bfc4a3cdc89f"},"vehicle_type_id":"4","last_reported":1715533544,"current_range_meters":1200,"station_id":"ce4bgkp2rcd13ifvqbmg","pricing_plan_id":"cebpf4jnsgd1na2vs0mg"},{"bike_id":"2dcb9861-58a4-42e6-b9f2-cdc98fb3c88b","system_id":"levelo_inurba_marseille","lat":43.295279,"lon":5.375048,"is_reserved":false,"is_disabled":false,"rental_uris":{"android":"levelo://app?vid=2dcb9861-58a4-42e6-b9f2-cdc98fb3c88b","ios":"levelo://app?vid=2dcb9861-58a4-42e6-b9f2-cdc98fb3c88b"},"vehicle_type_id":"4","last_reported":1715533544,"current_range_meters":1200,"station_id":"ce4bgkp2rcd13ifvqbmg","pricing_plan_id":"cebpf4jnsgd1na2vs0mg"},{"bike_id":"cf57d183-5ca7-4cd5-81f8-e1c0b5c3284c","system_id":"levelo_inurba_marseille","lat":43.292642,"lon":5.384254,"is_reserved":false,"is_disabled":false,"rental_uris":{"android":"levelo://app?vid=cf57d183-5ca7-4cd5-81f8-e1c0b5c3284c","ios":"levelo://app?vid=cf57d183-5ca7-4cd5-81f8-e1c0b5c3284c"},"vehicle_type_id":"4","last_reported":1715533544,"current_range_meters":14400,"station_id":"ce4bh692rcd13ifvqea0","pricing_plan_id":"cebpf4jnsgd1na2vs0mg"},{"bike_id":"361c5e19-86c3-4bf9-b66b-0bcaf81df1e5","system_id":"levelo_inurba_marseille","lat":43.296086,"lon":5.381134,"is_reserved":false,"is_disabled":false,"rental_uris":{"android":"levelo://app?vid=361c5e19-86c3-4bf9-b66b-0bcaf81df1e5","ios":"levelo://app?vid=361c5e19-86c3-4bf9-b66b-0bcaf81df1e5"},"vehicle_type_id":"4","last_reported":1715533544,"current_range_meters":0,"station_id":"ce4bgl12rcd13ifvqbo0","pricing_plan_id":"cebpf4jnsgd1na2vs0mg"},{"bike_id":"ae6762bc-7f13-4f6f-8ac2-f2042423b49b","system_id":"levelo_inurba_marseille","lat":43.296028,"lon":5.381047,"is_reserved":false,"is_disabled":false,"rental_uris":{"android":"levelo://app?vid=ae6762bc-7f13-4f6f-8ac2-f2042423b49b","ios":"levelo://app?vid=ae6762bc-7f13-4f6f-8ac2-f2042423b49b"},"vehicle_type_id":"4","last_reported":1715533544,"current_range_meters":0,"station_id":"ce4bgl12rcd13ifvqbo0","pricing_plan_id":"cebpf4jnsgd1na2vs0mg"},{"bike_id":"f8f87088-0ea0-482f-829e-8c12c6791608","system_id":"levelo_inurba_marseille","lat":43.293249,"lon":5.371578,"is_reserved":false,"is_disabled":false,"rental_uris":{"android":"levelo://app?vid=f8f87088-0ea0-482f-829e-8c12c6791608","ios":"levelo://app?vid=f8f87088-0ea0-482f-829e-8c12c6791608"},"vehicle_type_id":"4","last_reported":1715533544,"current_range_meters":0,"station_id":"ce4bgh92rcd13ifvqb40","pricing_plan_id":"cebpf4jnsgd1na2vs0mg"},{"bike_id":"8f36ca41-7683-4dbd-a014-50e33c9c7c7f","system_id":"levelo_inurba_marseille","lat":43.293259,"lon":5.371586,"is_reserved":false,"is_disabled":false,"rental_uris":{"android":"levelo://app?vid=8f36ca41-7683-4dbd-a014-50e33c9c7c7f","ios":"levelo://app?vid=8f36ca41-7683-4dbd-a014-50e33c9c7c7f"},"vehicle_type_id":"4","last_reported":1715533544,"current_range_meters":2400,"station_id":"ce4bgh92rcd13ifvqb40","pricing_plan_id":"cebpf4jnsgd1na2vs0mg"},{"bike_id":"df9481f5-4fd1-4cdf-8f91-db2c854b6197","system_id":"levelo_inurba_marseille","lat":43.293259,"lon":5.371586,"is_reserved":false,"is_disabled":false,"rental_uris":{"android":"levelo://app?vid=df9481f5-4fd1-4cdf-8f91-db2c854b6197","ios":"levelo://app?vid=df9481f5-4fd1-4cdf-8f91-db2c854b6197"},"vehicle_type_id":"4","last_reported":1715533544,"current_range_meters":23200,"station_id":"ce4bgh92rcd13ifvqb40","pricing_plan_id":"cebpf4jnsgd1na2vs0mg"},{"bike_id":"caa752c0-b90c-494f-966e-f25dc191abee","system_id":"levelo_inurba_marseille","lat":43.292749,"lon":5.368402,"is_reserved":false,"is_disabled":false,"rental_uris":{"android":"levelo://app?vid=caa752c0-b90c-494f-966e-f25dc191abee","ios":"levelo://app?vid=caa752c0-b90c-494f-966e-f25dc191abee"},"vehicle_type_id":"4","last_reported":1715533544,"current_range_meters":0,"station_id":"ce4bhbp2rcd13ifvqesg","pricing_plan_id":"cebpf4jnsgd1na2vs0mg"},{"bike_id":"8ef9c430-d051-465b-8a60-aeec1eea27ab","system_id":"levelo_inurba_marseille","lat":43.293009,"lon":5.374584,"is_reserved":false,"is_disabled":false,"rental_uris":{"android":"levelo://app?vid=8ef9c430-d051-465b-8a60-aeec1eea27ab","ios":"levelo://app?vid=8ef9c430-d051-465b-8a60-aeec1eea27ab"},"vehicle_type_id":"4","last_reported":1715533544,"current_range_meters":0,"station_id":"ce4bgi12rcd13ifvqb70","pricing_plan_id":"cebpf4jnsgd1na2vs0mg"},{"bike_id":"282ab106-a9c1-487c-a290-8cb40df4ce5f","system_id":"levelo_inurba_marseille","lat":43.293009,"lon":5.374584,"is_reserved":false,"is_disabled":false,"rental_uris":{"android":"levelo://app?vid=282ab106-a9c1-487c-a290-8cb40df4ce5f","ios":"levelo://app?vid=282ab106-a9c1-487c-a290-8cb40df4ce5f"},"vehicle_type_id":"4","last_reported":1715533544,"current_range_meters":0,"station_id":"ce4bgi12rcd13ifvqb70","pricing_plan_id":"cebpf4jnsgd1na2vs0mg"},{"bike_id":"41ffe99f-4636-4fc9-867f-a4b2e75041fc","system_id":"levelo_inurba_marseille","lat":43.30609,"lon":5.39362,"is_reserved":false,"is_disabled":false,"rental_uris":{"android":"levelo://app?vid=41ffe99f-4636-4fc9-867f-a4b2e75041fc","ios":"levelo://app?vid=41ffe99f-4636-4fc9-867f-a4b2e75041fc"},"vehicle_type_id":"4","last_reported":1715533544,"current_range_meters":0,"station_id":"ce4bh0p2rcd13ifvqd80","pricing_plan_id":"cebpf4jnsgd1na2vs0mg"},{"bike_id":"5798b0c9-6d21-4870-abea-b38081a89cad","system_id":"levelo_inurba_marseille","lat":43.29298,"lon":5.37465,"is_reserved":false,"is_disabled":false,"rental_uris":{"android":"levelo://app?vid=5798b0c9-6d21-4870-abea-b38081a89cad","ios":"levelo://app?vid=5798b0c9-6d21-4870-abea-b38081a89cad"},"vehicle_type_id":"4","last_reported":1715533544,"current_range_meters":8800,"station_id":"ce4bgi12rcd13ifvqb70","pricing_plan_id":"cebpf4jnsgd1na2vs0mg"},{"bike_id":"1f767ed2-e4c1-4207-9d5a-133ed77ef362","system_id":"levelo_inurba_marseille","lat":43.293009,"lon":5.374584,"is_reserved":false,"is_disabled":false,"rental_uris":{"android":"levelo://app?vid=1f767ed2-e4c1-4207-9d5a-133ed77ef362","ios":"levelo://app?vid=1f767ed2-e4c1-4207-9d5a-133ed77ef362"},"vehicle_type_id":"4","last_reported":1715533544,"current_range_meters":0,"station_id":"ce4bgi12rcd13ifvqb70","pricing_plan_id":"cebpf4jnsgd1na2vs0mg"},{"bike_id":"59035ca3-ee87-4ef9-8e41-409172ae4b77","system_id":"levelo_inurba_marseille","lat":43.305994,"lon":5.393687,"is_reserved":false,"is_disabled":false,"rental_uris":{"android":"levelo://app?vid=59035ca3-ee87-4ef9-8e41-409172ae4b77","ios":"levelo://app?vid=59035ca3-ee87-4ef9-8e41-409172ae4b77"},"vehicle_type_id":"4","last_reported":1715533544,"current_range_meters":13600,"station_id":"ce4bh0p2rcd13ifvqd80","pricing_plan_id":"cebpf4jnsgd1na2vs0mg"},{"bike_id":"039b0686-712d-4c8e-bf0b-9903c9572fdf","system_id":"levelo_inurba_marseille","lat":43.303002,"lon":5.392142,"is_reserved":false,"is_disabled":false,"rental_uris":{"android":"levelo://app?vid=039b0686-712d-4c8e-bf0b-9903c9572fdf","ios":"levelo://app?vid=039b0686-712d-4c8e-bf0b-9903c9572fdf"},"vehicle_type_id":"4","last_reported":1715533544,"current_range_meters":8800,"station_id":"ce4bgkh2rcd13ifvqbk0","pricing_plan_id":"cebpf4jnsgd1na2vs0mg"},{"bike_id":"2c5e09bc-5808-4159-93c6-ff3152e83672","system_id":"levelo_inurba_marseille","lat":43.303002,"lon":5.392142,"is_reserved":false,"is_disabled":false,"rental_uris":{"android":"levelo://app?vid=2c5e09bc-5808-4159-93c6-ff3152e83672","ios":"levelo://app?vid=2c5e09bc-5808-4159-93c6-ff3152e83672"},"vehicle_type_id":"4","last_reported":1715533544,"current_range_meters":4000,"station_id":"ce4bgkh2rcd13ifvqbk0","pricing_plan_id":"cebpf4jnsgd1na2vs0mg"},{"bike_id":"5f466c9a-3e3b-4f52-b942-189cd49ae324","system_id":"levelo_inurba_marseille","lat":43.292311,"lon":5.360731,"is_reserved":false,"is_disabled":false,"rental_uris":{"android":"levelo://app?vid=5f466c9a-3e3b-4f52-b942-189cd49ae324","ios":"levelo://app?vid=5f466c9a-3e3b-4f52-b942-189cd49ae324"},"vehicle_type_id":"4","last_reported":1715533544,"current_range_meters":24800,"station_id":"ce4bhbh2rcd13ifvqeqg","pricing_plan_id":"cebpf4jnsgd1na2vs0mg"},{"bike_id":"03771328-6eb9-4f2a-a284-c95514e33cb1","system_id":"levelo_inurba_marseille","lat":43.292311,"lon":5.360731,"is_reserved":false,"is_disabled":false,"rental_uris":{"android":"levelo://app?vid=03771328-6eb9-4f2a-a284-c95514e33cb1","ios":"levelo://app?vid=03771328-6eb9-4f2a-a284-c95514e33cb1"},"vehicle_type_id":"4","last_reported":1715533544,"current_range_meters":27600,"station_id":"ce4bhbh2rcd13ifvqeqg","pricing_plan_id":"cebpf4jnsgd1na2vs0mg"},{"bike_id":"2d55cc87-db4e-463a-8c96-ccd09517ce8f","system_id":"levelo_inurba_marseille","lat":43.292311,"lon":5.360731,"is_reserved":false,"is_disabled":false,"rental_uris":{"android":"levelo://app?vid=2d55cc87-db4e-463a-8c96-ccd09517ce8f","ios":"levelo://app?vid=2d55cc87-db4e-463a-8c96-ccd09517ce8f"},"vehicle_type_id":"4","last_reported":1715533544,"current_range_meters":24000,"station_id":"ce4bhbh2rcd13ifvqeqg","pricing_plan_id":"cebpf4jnsgd1na2vs0mg"},{"bike_id":"d4f55f7c-7ae4-4dde-a4aa-685ac357e647","system_id":"levelo_inurba_marseille","lat":43.292311,"lon":5.360731,"is_reserved":false,"is_disabled":false,"rental_uris":{"android":"levelo://app?vid=d4f55f7c-7ae4-4dde-a4aa-685ac357e647","ios":"levelo://app?vid=d4f55f7c-7ae4-4dde-a4aa-685ac357e647"},"vehicle_type_id":"4","last_reported":1715533544,"current_range_meters":28400,"station_id":"ce4bhbh2rcd13ifvqeqg","pricing_plan_id":"cebpf4jnsgd1na2vs0mg"},{"bike_id":"61520529-b74f-44e0-ac55-245595b64fa2","system_id":"levelo_inurba_marseille","lat":43.314811,"lon":5.373103,"is_reserved":false,"is_disabled":false,"rental_uris":{"android":"levelo://app?vid=61520529-b74f-44e0-ac55-245595b64fa2","ios":"levelo://app?vid=61520529-b74f-44e0-ac55-245595b64fa2"},"vehicle_type_id":"4","last_reported":1715533544,"current_range_meters":17600,"station_id":"ce4bgt12rcd13ifvqcd0","pricing_plan_id":"cebpf4jnsgd1na2vs0mg"},{"bike_id":"d3ab2692-826f-4d6d-9b99-a9daad6c1863","system_id":"levelo_inurba_marseille","lat":43.291675,"lon":5.371583,"is_reserved":false,"is_disabled":false,"rental_uris":{"android":"levelo://app?vid=d3ab2692-826f-4d6d-9b99-a9daad6c1863","ios":"levelo://app?vid=d3ab2692-826f-4d6d-9b99-a9daad6c1863"},"vehicle_type_id":"4","last_reported":1715533544,"current_range_meters":0,"station_id":"ce4bha92rcd13ifvqeh0","pricing_plan_id":"cebpf4jnsgd1na2vs0mg"},{"bike_id":"68c5f7ef-5e91-4fcf-b450-6c71abb621b5","system_id":"levelo_inurba_marseille","lat":43.29893,"lon":5.3892,"is_reserved":false,"is_disabled":false,"rental_uris":{"android":"levelo://app?vid=68c5f7ef-5e91-4fcf-b450-6c71abb621b5","ios":"levelo://app?vid=68c5f7ef-5e91-4fcf-b450-6c71abb621b5"},"vehicle_type_id":"4","last_reported":1715533544,"current_range_meters":7600,"station_id":"ce4bh392rcd13ifvqdl0","pricing_plan_id":"cebpf4jnsgd1na2vs0mg"},{"bike_id":"dc2521d3-b69e-402f-b1e5-a06729fa79bb","system_id":"levelo_inurba_marseille","lat":43.298764,"lon":5.388973,"is_reserved":false,"is_disabled":false,"rental_uris":{"android":"levelo://app?vid=dc2521d3-b69e-402f-b1e5-a06729fa79bb","ios":"levelo://app?vid=dc2521d3-b69e-402f-b1e5-a06729fa79bb"},"vehicle_type_id":"4","last_reported":1715533544,"current_range_meters":19200,"station_id":"ce4bh392rcd13ifvqdl0","pricing_plan_id":"cebpf4jnsgd1na2vs0mg"},{"bike_id":"57cc9b20-cddd-4017-a138-7a36d13ba565","system_id":"levelo_inurba_marseille","lat":43.298764,"lon":5.388973,"is_reserved":false,"is_disabled":false,"rental_uris":{"android":"levelo://app?vid=57cc9b20-cddd-4017-a138-7a36d13ba565","ios":"levelo://app?vid=57cc9b20-cddd-4017-a138-7a36d13ba565"},"vehicle_type_id":"4","last_reported":1715533544,"current_range_meters":31200,"station_id":"ce4bh392rcd13ifvqdl0","pricing_plan_id":"cebpf4jnsgd1na2vs0mg"},{"bike_id":"cdb511cd-1908-4e26-abd0-33e2566848a1","system_id":"levelo_inurba_marseille","lat":43.298764,"lon":5.388973,"is_reserved":false,"is_disabled":false,"rental_uris":{"android":"levelo://app?vid=cdb511cd-1908-4e26-abd0-33e2566848a1","ios":"levelo://app?vid=cdb511cd-1908-4e26-abd0-33e2566848a1"},"vehicle_type_id":"4","last_reported":1715533544,"current_range_meters":12800,"station_id":"ce4bh392rcd13ifvqdl0","pricing_plan_id":"cebpf4jnsgd1na2vs0mg"},{"bike_id":"6d4ecc80-eadf-45ac-a79c-af98d3c22dcd","system_id":"levelo_inurba_marseille","lat":43.29879,"lon":5.389157,"is_reserved":false,"is_disabled":false,"rental_uris":{"android":"levelo://app?vid=6d4ecc80-eadf-45ac-a79c-af98d3c22dcd","ios":"levelo://app?vid=6d4ecc80-eadf-45ac-a79c-af98d3c22dcd"},"vehicle_type_id":"4","last_reported":1715533544,"current_range_meters":5200,"station_id":"ce4bh392rcd13ifvqdl0","pricing_plan_id":"cebpf4jnsgd1na2vs0mg"},{"bike_id":"882b4fc2-d302-40b8-9d25-77442ea9e33f","system_id":"levelo_inurba_marseille","lat":43.29876,"lon":5.38916,"is_reserved":false,"is_disabled":false,"rental_uris":{"android":"levelo://app?vid=882b4fc2-d302-40b8-9d25-77442ea9e33f","ios":"levelo://app?vid=882b4fc2-d302-40b8-9d25-77442ea9e33f"},"vehicle_type_id":"4","last_reported":1715533544,"current_range_meters":14400,"station_id":"ce4bh392rcd13ifvqdl0","pricing_plan_id":"cebpf4jnsgd1na2vs0mg"},{"bike_id":"8c72f783-20e4-45d2-ae75-3e4786a17351","system_id":"levelo_inurba_marseille","lat":43.291675,"lon":5.371583,"is_reserved":false,"is_disabled":false,"rental_uris":{"android":"levelo://app?vid=8c72f783-20e4-45d2-ae75-3e4786a17351","ios":"levelo://app?vid=8c72f783-20e4-45d2-ae75-3e4786a17351"},"vehicle_type_id":"4","last_reported":1715533544,"current_range_meters":11600,"station_id":"ce4bha92rcd13ifvqeh0","pricing_plan_id":"cebpf4jnsgd1na2vs0mg"},{"bike_id":"90694e18-c19e-4f08-8444-96f61dd6a780","system_id":"levelo_inurba_marseille","lat":43.29202,"lon":5.35803,"is_reserved":false,"is_disabled":false,"rental_uris":{"android":"levelo://app?vid=90694e18-c19e-4f08-8444-96f61dd6a780","ios":"levelo://app?vid=90694e18-c19e-4f08-8444-96f61dd6a780"},"vehicle_type_id":"4","last_reported":1715533544,"current_range_meters":0,"station_id":"ce4bhb12rcd13ifvqel0","pricing_plan_id":"cebpf4jnsgd1na2vs0mg"},{"bike_id":"a63dc28d-1db8-4ac4-8b6c-6273bbc80867","system_id":"levelo_inurba_marseille","lat":43.313291,"lon":5.396838,"is_reserved":false,"is_disabled":false,"rental_uris":{"android":"levelo://app?vid=a63dc28d-1db8-4ac4-8b6c-6273bbc80867","ios":"levelo://app?vid=a63dc28d-1db8-4ac4-8b6c-6273bbc80867"},"vehicle_type_id":"4","last_reported":1715533544,"current_range_meters":1200,"station_id":"ce4bgvp2rcd13ifvqcu0","pricing_plan_id":"cebpf4jnsgd1na2vs0mg"},{"bike_id":"9fc08e7a-52c6-418b-9e0d-ae412025d286","system_id":"levelo_inurba_marseille","lat":43.309038,"lon":5.396546,"is_reserved":false,"is_disabled":false,"rental_uris":{"android":"levelo://app?vid=9fc08e7a-52c6-418b-9e0d-ae412025d286","ios":"levelo://app?vid=9fc08e7a-52c6-418b-9e0d-ae412025d286"},"vehicle_type_id":"4","last_reported":1715533544,"current_range_meters":3200,"station_id":"ce4bh012rcd13ifvqcv0","pricing_plan_id":"cebpf4jnsgd1na2vs0mg"},{"bike_id":"532bd0e3-ea65-4a86-9e5f-7fbc6c8772ef","system_id":"levelo_inurba_marseille","lat":43.313291,"lon":5.396838,"is_reserved":false,"is_disabled":false,"rental_uris":{"android":"levelo://app?vid=532bd0e3-ea65-4a86-9e5f-7fbc6c8772ef","ios":"levelo://app?vid=532bd0e3-ea65-4a86-9e5f-7fbc6c8772ef"},"vehicle_type_id":"4","last_reported":1715533544,"current_range_meters":17600,"station_id":"ce4bgvp2rcd13ifvqcu0","pricing_plan_id":"cebpf4jnsgd1na2vs0mg"},{"bike_id":"99a048dc-99df-413f-a59a-c4d10b1b1edc","system_id":"levelo_inurba_marseille","lat":43.313291,"lon":5.396838,"is_reserved":false,"is_disabled":false,"rental_uris":{"android":"levelo://app?vid=99a048dc-99df-413f-a59a-c4d10b1b1edc","ios":"levelo://app?vid=99a048dc-99df-413f-a59a-c4d10b1b1edc"},"vehicle_type_id":"4","last_reported":1715533544,"current_range_meters":10400,"station_id":"ce4bgvp2rcd13ifvqcu0","pricing_plan_id":"cebpf4jnsgd1na2vs0mg"},{"bike_id":"4ae0403c-a157-4089-94e8-ed078749cc02","system_id":"levelo_inurba_marseille","lat":43.313291,"lon":5.396838,"is_reserved":false,"is_disabled":false,"rental_uris":{"android":"levelo://app?vid=4ae0403c-a157-4089-94e8-ed078749cc02","ios":"levelo://app?vid=4ae0403c-a157-4089-94e8-ed078749cc02"},"vehicle_type_id":"4","last_reported":1715533544,"current_range_meters":22800,"station_id":"ce4bgvp2rcd13ifvqcu0","pricing_plan_id":"cebpf4jnsgd1na2vs0mg"},{"bike_id":"746dec5d-a335-48e2-8d02-934f76691719","system_id":"levelo_inurba_marseille","lat":43.29529,"lon":5.385581,"is_reserved":false,"is_disabled":false,"rental_uris":{"android":"levelo://app?vid=746dec5d-a335-48e2-8d02-934f76691719","ios":"levelo://app?vid=746dec5d-a335-48e2-8d02-934f76691719"},"vehicle_type_id":"4","last_reported":1715533544,"current_range_meters":4000,"station_id":"ce4bgih2rcd13ifvqba0","pricing_plan_id":"cebpf4jnsgd1na2vs0mg"},{"bike_id":"258f1d00-b82e-434d-a1ea-4027c71cc56d","system_id":"levelo_inurba_marseille","lat":43.309038,"lon":5.396546,"is_reserved":false,"is_disabled":false,"rental_uris":{"android":"levelo://app?vid=258f1d00-b82e-434d-a1ea-4027c71cc56d","ios":"levelo://app?vid=258f1d00-b82e-434d-a1ea-4027c71cc56d"},"vehicle_type_id":"4","last_reported":1715533544,"current_range_meters":0,"station_id":"ce4bh012rcd13ifvqcv0","pricing_plan_id":"cebpf4jnsgd1na2vs0mg"},{"bike_id":"1c669888-a680-477d-9579-9d7961852696","system_id":"levelo_inurba_marseille","lat":43.309038,"lon":5.396546,"is_reserved":false,"is_disabled":false,"rental_uris":{"android":"levelo://app?vid=1c669888-a680-477d-9579-9d7961852696","ios":"levelo://app?vid=1c669888-a680-477d-9579-9d7961852696"},"vehicle_type_id":"4","last_reported":1715533544,"current_range_meters":400,"station_id":"ce4bh012rcd13ifvqcv0","pricing_plan_id":"cebpf4jnsgd1na2vs0mg"},{"bike_id":"ba1996b6-7be4-4cad-925c-58c918457368","system_id":"levelo_inurba_marseille","lat":43.309038,"lon":5.396546,"is_reserved":false,"is_disabled":false,"rental_uris":{"android":"levelo://app?vid=ba1996b6-7be4-4cad-925c-58c918457368","ios":"levelo://app?vid=ba1996b6-7be4-4cad-925c-58c918457368"},"vehicle_type_id":"4","last_reported":1715533544,"current_range_meters":14400,"station_id":"ce4bh012rcd13ifvqcv0","pricing_plan_id":"cebpf4jnsgd1na2vs0mg"},{"bike_id":"2c38857a-b431-403f-a5b3-a6706cd127dc","system_id":"levelo_inurba_marseille","lat":43.309038,"lon":5.396546,"is_reserved":false,"is_disabled":false,"rental_uris":{"android":"levelo://app?vid=2c38857a-b431-403f-a5b3-a6706cd127dc","ios":"levelo://app?vid=2c38857a-b431-403f-a5b3-a6706cd127dc"},"vehicle_type_id":"4","last_reported":1715533544,"current_range_meters":9200,"station_id":"ce4bh012rcd13ifvqcv0","pricing_plan_id":"cebpf4jnsgd1na2vs0mg"},{"bike_id":"675b92d5-08bc-429c-919b-7bea66b01037","system_id":"levelo_inurba_marseille","lat":43.29529,"lon":5.385581,"is_reserved":false,"is_disabled":false,"rental_uris":{"android":"levelo://app?vid=675b92d5-08bc-429c-919b-7bea66b01037","ios":"levelo://app?vid=675b92d5-08bc-429c-919b-7bea66b01037"},"vehicle_type_id":"4","last_reported":1715533544,"current_range_meters":10400,"station_id":"ce4bgih2rcd13ifvqba0","pricing_plan_id":"cebpf4jnsgd1na2vs0mg"},{"bike_id":"04156400-aa62-4692-9282-baddba181b00","system_id":"levelo_inurba_marseille","lat":43.29534,"lon":5.38539,"is_reserved":false,"is_disabled":false,"rental_uris":{"android":"levelo://app?vid=04156400-aa62-4692-9282-baddba181b00","ios":"levelo://app?vid=04156400-aa62-4692-9282-baddba181b00"},"vehicle_type_id":"4","last_reported":1715533544,"current_range_meters":0,"station_id":"ce4bgih2rcd13ifvqba0","pricing_plan_id":"cebpf4jnsgd1na2vs0mg"},{"bike_id":"6c955fb3-7a5c-43bc-bcee-6ca41967bcd1","system_id":"levelo_inurba_marseille","lat":43.309038,"lon":5.396546,"is_reserved":false,"is_disabled":false,"rental_uris":{"android":"levelo://app?vid=6c955fb3-7a5c-43bc-bcee-6ca41967bcd1","ios":"levelo://app?vid=6c955fb3-7a5c-43bc-bcee-6ca41967bcd1"},"vehicle_type_id":"4","last_reported":1715533544,"current_range_meters":3600,"station_id":"ce4bh012rcd13ifvqcv0","pricing_plan_id":"cebpf4jnsgd1na2vs0mg"},{"bike_id":"d3701070-f2e6-4142-8744-48e837d63c2d","system_id":"levelo_inurba_marseille","lat":43.29529,"lon":5.385581,"is_reserved":false,"is_disabled":false,"rental_uris":{"android":"levelo://app?vid=d3701070-f2e6-4142-8744-48e837d63c2d","ios":"levelo://app?vid=d3701070-f2e6-4142-8744-48e837d63c2d"},"vehicle_type_id":"4","last_reported":1715533544,"current_range_meters":21200,"station_id":"ce4bgih2rcd13ifvqba0","pricing_plan_id":"cebpf4jnsgd1na2vs0mg"},{"bike_id":"f80714fa-a520-4a22-aae6-62cb564a63e6","system_id":"levelo_inurba_marseille","lat":43.29529,"lon":5.385581,"is_reserved":false,"is_disabled":false,"rental_uris":{"android":"levelo://app?vid=f80714fa-a520-4a22-aae6-62cb564a63e6","ios":"levelo://app?vid=f80714fa-a520-4a22-aae6-62cb564a63e6"},"vehicle_type_id":"4","last_reported":1715533544,"current_range_meters":16800,"station_id":"ce4bgih2rcd13ifvqba0","pricing_plan_id":"cebpf4jnsgd1na2vs0mg"},{"bike_id":"97652271-b3b2-4042-a94a-45e9c9b91150","system_id":"levelo_inurba_marseille","lat":43.290779,"lon":5.371482,"is_reserved":false,"is_disabled":false,"rental_uris":{"android":"levelo://app?vid=97652271-b3b2-4042-a94a-45e9c9b91150","ios":"levelo://app?vid=97652271-b3b2-4042-a94a-45e9c9b91150"},"vehicle_type_id":"4","last_reported":1715533544,"current_range_meters":1200,"station_id":"ce4bh5p2rcd13ifvqe4g","pricing_plan_id":"cebpf4jnsgd1na2vs0mg"},{"bike_id":"ffa99f19-1332-482a-b49c-28f65086bca0","system_id":"levelo_inurba_marseille","lat":43.290779,"lon":5.371482,"is_reserved":false,"is_disabled":false,"rental_uris":{"android":"levelo://app?vid=ffa99f19-1332-482a-b49c-28f65086bca0","ios":"levelo://app?vid=ffa99f19-1332-482a-b49c-28f65086bca0"},"vehicle_type_id":"4","last_reported":1715533544,"current_range_meters":25200,"station_id":"ce4bh5p2rcd13ifvqe4g","pricing_plan_id":"cebpf4jnsgd1na2vs0mg"},{"bike_id":"fcaad204-6048-44cf-8cf9-639230671171","system_id":"levelo_inurba_marseille","lat":43.313291,"lon":5.396838,"is_reserved":false,"is_disabled":false,"rental_uris":{"android":"levelo://app?vid=fcaad204-6048-44cf-8cf9-639230671171","ios":"levelo://app?vid=fcaad204-6048-44cf-8cf9-639230671171"},"vehicle_type_id":"4","last_reported":1715533544,"current_range_meters":5600,"station_id":"ce4bgvp2rcd13ifvqcu0","pricing_plan_id":"cebpf4jnsgd1na2vs0mg"},{"bike_id":"bae6a62a-bb37-4b7b-8a39-4ffdba102472","system_id":"levelo_inurba_marseille","lat":43.302008,"lon":5.394694,"is_reserved":false,"is_disabled":false,"rental_uris":{"android":"levelo://app?vid=bae6a62a-bb37-4b7b-8a39-4ffdba102472","ios":"levelo://app?vid=bae6a62a-bb37-4b7b-8a39-4ffdba102472"},"vehicle_type_id":"4","last_reported":1715533544,"current_range_meters":4800,"station_id":"ce4bh0p2rcd13ifvqd70","pricing_plan_id":"cebpf4jnsgd1na2vs0mg"},{"bike_id":"360451ac-7f0d-42e8-b100-f6189218b77c","system_id":"levelo_inurba_marseille","lat":43.29044,"lon":5.37573,"is_reserved":false,"is_disabled":false,"rental_uris":{"android":"levelo://app?vid=360451ac-7f0d-42e8-b100-f6189218b77c","ios":"levelo://app?vid=360451ac-7f0d-42e8-b100-f6189218b77c"},"vehicle_type_id":"4","last_reported":1715533544,"current_range_meters":29600,"station_id":"","pricing_plan_id":"cebpf4jnsgd1na2vs0mg"},{"bike_id":"595720aa-8cc8-42fb-81db-0ee00d3675b9","system_id":"levelo_inurba_marseille","lat":43.294153,"lon":5.386305,"is_reserved":false,"is_disabled":false,"rental_uris":{"android":"levelo://app?vid=595720aa-8cc8-42fb-81db-0ee00d3675b9","ios":"levelo://app?vid=595720aa-8cc8-42fb-81db-0ee00d3675b9"},"vehicle_type_id":"4","last_reported":1715533544,"current_range_meters":18000,"station_id":"ce4bh2h2rcd13ifvqdh0","pricing_plan_id":"cebpf4jnsgd1na2vs0mg"},{"bike_id":"43f2d971-e2e2-4186-a254-f01eb5dfb440","system_id":"levelo_inurba_marseille","lat":43.29424,"lon":5.3862,"is_reserved":false,"is_disabled":false,"rental_uris":{"android":"levelo://app?vid=43f2d971-e2e2-4186-a254-f01eb5dfb440","ios":"levelo://app?vid=43f2d971-e2e2-4186-a254-f01eb5dfb440"},"vehicle_type_id":"4","last_reported":1715533544,"current_range_meters":11200,"station_id":"ce4bh2h2rcd13ifvqdh0","pricing_plan_id":"cebpf4jnsgd1na2vs0mg"},{"bike_id":"37ea7499-696e-457d-b155-ae2dcd0521ee","system_id":"levelo_inurba_marseille","lat":43.289468,"lon":5.363719,"is_reserved":false,"is_disabled":false,"rental_uris":{"android":"levelo://app?vid=37ea7499-696e-457d-b155-ae2dcd0521ee","ios":"levelo://app?vid=37ea7499-696e-457d-b155-ae2dcd0521ee"},"vehicle_type_id":"4","last_reported":1715533544,"current_range_meters":0,"station_id":"ce4bhc92rcd13ifvqetg","pricing_plan_id":"cebpf4jnsgd1na2vs0mg"},{"bike_id":"0117513f-428f-4dfe-af4c-06ff9ed2b171","system_id":"levelo_inurba_marseille","lat":43.29422,"lon":5.38628,"is_reserved":false,"is_disabled":false,"rental_uris":{"android":"levelo://app?vid=0117513f-428f-4dfe-af4c-06ff9ed2b171","ios":"levelo://app?vid=0117513f-428f-4dfe-af4c-06ff9ed2b171"},"vehicle_type_id":"4","last_reported":1715533544,"current_range_meters":7600,"station_id":"ce4bh2h2rcd13ifvqdh0","pricing_plan_id":"cebpf4jnsgd1na2vs0mg"},{"bike_id":"bd87547b-d2d1-4cc7-8f73-890fcf972181","system_id":"levelo_inurba_marseille","lat":43.2942,"lon":5.38626,"is_reserved":false,"is_disabled":false,"rental_uris":{"android":"levelo://app?vid=bd87547b-d2d1-4cc7-8f73-890fcf972181","ios":"levelo://app?vid=bd87547b-d2d1-4cc7-8f73-890fcf972181"},"vehicle_type_id":"4","last_reported":1715533544,"current_range_meters":14800,"station_id":"ce4bh2h2rcd13ifvqdh0","pricing_plan_id":"cebpf4jnsgd1na2vs0mg"},{"bike_id":"4b1f7287-bdb0-41ee-9b74-c61557db13ec","system_id":"levelo_inurba_marseille","lat":43.289444,"lon":5.366501,"is_reserved":false,"is_disabled":false,"rental_uris":{"android":"levelo://app?vid=4b1f7287-bdb0-41ee-9b74-c61557db13ec","ios":"levelo://app?vid=4b1f7287-bdb0-41ee-9b74-c61557db13ec"},"vehicle_type_id":"4","last_reported":1715533544,"current_range_meters":17600,"station_id":"","pricing_plan_id":"cebpf4jnsgd1na2vs0mg"},{"bike_id":"b5ff4f4c-7c2c-47d8-aec4-aa638cfd5625","system_id":"levelo_inurba_marseille","lat":43.29417,"lon":5.3863,"is_reserved":false,"is_disabled":false,"rental_uris":{"android":"levelo://app?vid=b5ff4f4c-7c2c-47d8-aec4-aa638cfd5625","ios":"levelo://app?vid=b5ff4f4c-7c2c-47d8-aec4-aa638cfd5625"},"vehicle_type_id":"4","last_reported":1715533544,"current_range_meters":2400,"station_id":"ce4bh2h2rcd13ifvqdh0","pricing_plan_id":"cebpf4jnsgd1na2vs0mg"},{"bike_id":"7c7126be-cfe5-4a88-b324-970244c0eae3","system_id":"levelo_inurba_marseille","lat":43.29415,"lon":5.3863,"is_reserved":false,"is_disabled":false,"rental_uris":{"android":"levelo://app?vid=7c7126be-cfe5-4a88-b324-970244c0eae3","ios":"levelo://app?vid=7c7126be-cfe5-4a88-b324-970244c0eae3"},"vehicle_type_id":"4","last_reported":1715533544,"current_range_meters":4400,"station_id":"ce4bh2h2rcd13ifvqdh0","pricing_plan_id":"cebpf4jnsgd1na2vs0mg"},{"bike_id":"59aa4dd7-f3ef-419b-97e4-37ef8345efbe","system_id":"levelo_inurba_marseille","lat":43.289468,"lon":5.363719,"is_reserved":false,"is_disabled":false,"rental_uris":{"android":"levelo://app?vid=59aa4dd7-f3ef-419b-97e4-37ef8345efbe","ios":"levelo://app?vid=59aa4dd7-f3ef-419b-97e4-37ef8345efbe"},"vehicle_type_id":"4","last_reported":1715533544,"current_range_meters":1200,"station_id":"ce4bhc92rcd13ifvqetg","pricing_plan_id":"cebpf4jnsgd1na2vs0mg"},{"bike_id":"ab6da8ca-abf3-4eda-9f59-ef881f7eb472","system_id":"levelo_inurba_marseille","lat":43.289468,"lon":5.363719,"is_reserved":false,"is_disabled":false,"rental_uris":{"android":"levelo://app?vid=ab6da8ca-abf3-4eda-9f59-ef881f7eb472","ios":"levelo://app?vid=ab6da8ca-abf3-4eda-9f59-ef881f7eb472"},"vehicle_type_id":"4","last_reported":1715533544,"current_range_meters":0,"station_id":"ce4bhc92rcd13ifvqetg","pricing_plan_id":"cebpf4jnsgd1na2vs0mg"},{"bike_id":"799b86a5-187f-4afb-85eb-2861209bd903","system_id":"levelo_inurba_marseille","lat":43.292642,"lon":5.384254,"is_reserved":false,"is_disabled":false,"rental_uris":{"android":"levelo://app?vid=799b86a5-187f-4afb-85eb-2861209bd903","ios":"levelo://app?vid=799b86a5-187f-4afb-85eb-2861209bd903"},"vehicle_type_id":"4","last_reported":1715533544,"current_range_meters":0,"station_id":"ce4bh692rcd13ifvqea0","pricing_plan_id":"cebpf4jnsgd1na2vs0mg"},{"bike_id":"c8d88001-34a6-4974-8ad1-de78b0019c01","system_id":"levelo_inurba_marseille","lat":43.29278,"lon":5.38455,"is_reserved":false,"is_disabled":false,"rental_uris":{"android":"levelo://app?vid=c8d88001-34a6-4974-8ad1-de78b0019c01","ios":"levelo://app?vid=c8d88001-34a6-4974-8ad1-de78b0019c01"},"vehicle_type_id":"4","last_reported":1715533544,"current_range_meters":0,"station_id":"ce4bh692rcd13ifvqea0","pricing_plan_id":"cebpf4jnsgd1na2vs0mg"},{"bike_id":"f1ac5bab-338b-4447-aeb6-b0c10a650808","system_id":"levelo_inurba_marseille","lat":43.304274,"lon":5.397513,"is_reserved":false,"is_disabled":false,"rental_uris":{"android":"levelo://app?vid=f1ac5bab-338b-4447-aeb6-b0c10a650808","ios":"levelo://app?vid=f1ac5bab-338b-4447-aeb6-b0c10a650808"},"vehicle_type_id":"4","last_reported":1715533544,"current_range_meters":25200,"station_id":"ce4bh092rcd13ifvqd20","pricing_plan_id":"cebpf4jnsgd1na2vs0mg"},{"bike_id":"2a68e5a1-3fb5-420d-8e50-09162f39d2d1","system_id":"levelo_inurba_marseille","lat":43.292644,"lon":5.384257,"is_reserved":false,"is_disabled":false,"rental_uris":{"android":"levelo://app?vid=2a68e5a1-3fb5-420d-8e50-09162f39d2d1","ios":"levelo://app?vid=2a68e5a1-3fb5-420d-8e50-09162f39d2d1"},"vehicle_type_id":"4","last_reported":1715533544,"current_range_meters":28400,"station_id":"ce4bh692rcd13ifvqea0","pricing_plan_id":"cebpf4jnsgd1na2vs0mg"},{"bike_id":"134634f0-98cf-4a91-b557-755f620996e6","system_id":"levelo_inurba_marseille","lat":43.292642,"lon":5.384254,"is_reserved":false,"is_disabled":false,"rental_uris":{"android":"levelo://app?vid=134634f0-98cf-4a91-b557-755f620996e6","ios":"levelo://app?vid=134634f0-98cf-4a91-b557-755f620996e6"},"vehicle_type_id":"4","last_reported":1715533544,"current_range_meters":2400,"station_id":"ce4bh692rcd13ifvqea0","pricing_plan_id":"cebpf4jnsgd1na2vs0mg"},{"bike_id":"933bc968-3969-435f-a856-6d3edba47912","system_id":"levelo_inurba_marseille","lat":43.2927,"lon":5.38454,"is_reserved":false,"is_disabled":false,"rental_uris":{"android":"levelo://app?vid=933bc968-3969-435f-a856-6d3edba47912","ios":"levelo://app?vid=933bc968-3969-435f-a856-6d3edba47912"},"vehicle_type_id":"4","last_reported":1715533544,"current_range_meters":0,"station_id":"ce4bh692rcd13ifvqea0","pricing_plan_id":"cebpf4jnsgd1na2vs0mg"},{"bike_id":"c48e28b7-230d-421c-8a02-ece2f584b17a","system_id":"levelo_inurba_marseille","lat":43.2901,"lon":5.35622,"is_reserved":false,"is_disabled":false,"rental_uris":{"android":"levelo://app?vid=c48e28b7-230d-421c-8a02-ece2f584b17a","ios":"levelo://app?vid=c48e28b7-230d-421c-8a02-ece2f584b17a"},"vehicle_type_id":"4","last_reported":1715533544,"current_range_meters":0,"station_id":"ce4bhb92rcd13ifvqen0","pricing_plan_id":"cebpf4jnsgd1na2vs0mg"},{"bike_id":"49c6e0c5-fa22-4028-afb3-89fdc10458cc","system_id":"levelo_inurba_marseille","lat":43.290104,"lon":5.356111,"is_reserved":false,"is_disabled":false,"rental_uris":{"android":"levelo://app?vid=49c6e0c5-fa22-4028-afb3-89fdc10458cc","ios":"levelo://app?vid=49c6e0c5-fa22-4028-afb3-89fdc10458cc"},"vehicle_type_id":"4","last_reported":1715533544,"current_range_meters":4400,"station_id":"ce4bhb92rcd13ifvqen0","pricing_plan_id":"cebpf4jnsgd1na2vs0mg"},{"bike_id":"ab4eb408-8700-4c50-ab1b-870a01e56b26","system_id":"levelo_inurba_marseille","lat":43.290104,"lon":5.356111,"is_reserved":false,"is_disabled":false,"rental_uris":{"android":"levelo://app?vid=ab4eb408-8700-4c50-ab1b-870a01e56b26","ios":"levelo://app?vid=ab4eb408-8700-4c50-ab1b-870a01e56b26"},"vehicle_type_id":"4","last_reported":1715533544,"current_range_meters":6400,"station_id":"ce4bhb92rcd13ifvqen0","pricing_plan_id":"cebpf4jnsgd1na2vs0mg"},{"bike_id":"ce809d10-4d76-465b-854d-bff5ec095440","system_id":"levelo_inurba_marseille","lat":43.290103,"lon":5.356114,"is_reserved":false,"is_disabled":false,"rental_uris":{"android":"levelo://app?vid=ce809d10-4d76-465b-854d-bff5ec095440","ios":"levelo://app?vid=ce809d10-4d76-465b-854d-bff5ec095440"},"vehicle_type_id":"4","last_reported":1715533544,"current_range_meters":21600,"station_id":"ce4bhb92rcd13ifvqen0","pricing_plan_id":"cebpf4jnsgd1na2vs0mg"},{"bike_id":"e2d46909-01df-4e76-9414-cfced24f9178","system_id":"levelo_inurba_marseille","lat":43.290103,"lon":5.356114,"is_reserved":false,"is_disabled":false,"rental_uris":{"android":"levelo://app?vid=e2d46909-01df-4e76-9414-cfced24f9178","ios":"levelo://app?vid=e2d46909-01df-4e76-9414-cfced24f9178"},"vehicle_type_id":"4","last_reported":1715533544,"current_range_meters":13200,"station_id":"ce4bhb92rcd13ifvqen0","pricing_plan_id":"cebpf4jnsgd1na2vs0mg"},{"bike_id":"9f37ce32-8fef-43ea-833c-890de0c60dc0","system_id":"levelo_inurba_marseille","lat":43.290104,"lon":5.356111,"is_reserved":false,"is_disabled":false,"rental_uris":{"android":"levelo://app?vid=9f37ce32-8fef-43ea-833c-890de0c60dc0","ios":"levelo://app?vid=9f37ce32-8fef-43ea-833c-890de0c60dc0"},"vehicle_type_id":"4","last_reported":1715533544,"current_range_meters":17600,"station_id":"ce4bhb92rcd13ifvqen0","pricing_plan_id":"cebpf4jnsgd1na2vs0mg"},{"bike_id":"2aefae6c-8b39-49a7-941f-3b20105153db","system_id":"levelo_inurba_marseille","lat":43.290103,"lon":5.356114,"is_reserved":false,"is_disabled":false,"rental_uris":{"android":"levelo://app?vid=2aefae6c-8b39-49a7-941f-3b20105153db","ios":"levelo://app?vid=2aefae6c-8b39-49a7-941f-3b20105153db"},"vehicle_type_id":"4","last_reported":1715533544,"current_range_meters":0,"station_id":"ce4bhb92rcd13ifvqen0","pricing_plan_id":"cebpf4jnsgd1na2vs0mg"},{"bike_id":"a01c5fba-8190-4546-a8d0-eccaa480f21e","system_id":"levelo_inurba_marseille","lat":43.29005,"lon":5.35614,"is_reserved":false,"is_disabled":false,"rental_uris":{"android":"levelo://app?vid=a01c5fba-8190-4546-a8d0-eccaa480f21e","ios":"levelo://app?vid=a01c5fba-8190-4546-a8d0-eccaa480f21e"},"vehicle_type_id":"4","last_reported":1715533544,"current_range_meters":0,"station_id":"ce4bhb92rcd13ifvqen0","pricing_plan_id":"cebpf4jnsgd1na2vs0mg"},{"bike_id":"273e6266-9e2e-4763-80c8-fa1b8684718f","system_id":"levelo_inurba_marseille","lat":43.290104,"lon":5.356111,"is_reserved":false,"is_disabled":false,"rental_uris":{"android":"levelo://app?vid=273e6266-9e2e-4763-80c8-fa1b8684718f","ios":"levelo://app?vid=273e6266-9e2e-4763-80c8-fa1b8684718f"},"vehicle_type_id":"4","last_reported":1715533544,"current_range_meters":18400,"station_id":"ce4bhb92rcd13ifvqen0","pricing_plan_id":"cebpf4jnsgd1na2vs0mg"},{"bike_id":"ea235113-5053-4bc8-8f18-22bc850802f2","system_id":"levelo_inurba_marseille","lat":43.290104,"lon":5.356111,"is_reserved":false,"is_disabled":false,"rental_uris":{"android":"levelo://app?vid=ea235113-5053-4bc8-8f18-22bc850802f2","ios":"levelo://app?vid=ea235113-5053-4bc8-8f18-22bc850802f2"},"vehicle_type_id":"4","last_reported":1715533544,"current_range_meters":26400,"station_id":"ce4bhb92rcd13ifvqen0","pricing_plan_id":"cebpf4jnsgd1na2vs0mg"},{"bike_id":"417ffd15-c713-46f5-845e-d15bbfb2179b","system_id":"levelo_inurba_marseille","lat":43.304274,"lon":5.397513,"is_reserved":false,"is_disabled":false,"rental_uris":{"android":"levelo://app?vid=417ffd15-c713-46f5-845e-d15bbfb2179b","ios":"levelo://app?vid=417ffd15-c713-46f5-845e-d15bbfb2179b"},"vehicle_type_id":"4","last_reported":1715533544,"current_range_meters":8400,"station_id":"ce4bh092rcd13ifvqd20","pricing_plan_id":"cebpf4jnsgd1na2vs0mg"},{"bike_id":"9fb43bff-ef5a-4e81-a61b-dc3a3aa33fca","system_id":"levelo_inurba_marseille","lat":43.290995,"lon":5.381361,"is_reserved":false,"is_disabled":false,"rental_uris":{"android":"levelo://app?vid=9fb43bff-ef5a-4e81-a61b-dc3a3aa33fca","ios":"levelo://app?vid=9fb43bff-ef5a-4e81-a61b-dc3a3aa33fca"},"vehicle_type_id":"4","last_reported":1715533544,"current_range_meters":22000,"station_id":"ce4bh512rcd13ifvqe2g","pricing_plan_id":"cebpf4jnsgd1na2vs0mg"},{"bike_id":"3fbdfc72-051f-4af2-bccc-ac351bbbbec9","system_id":"levelo_inurba_marseille","lat":43.290104,"lon":5.356111,"is_reserved":false,"is_disabled":false,"rental_uris":{"android":"levelo://app?vid=3fbdfc72-051f-4af2-bccc-ac351bbbbec9","ios":"levelo://app?vid=3fbdfc72-051f-4af2-bccc-ac351bbbbec9"},"vehicle_type_id":"4","last_reported":1715533544,"current_range_meters":24800,"station_id":"ce4bhb92rcd13ifvqen0","pricing_plan_id":"cebpf4jnsgd1na2vs0mg"},{"bike_id":"6d69b4e8-4174-4941-ad3b-a85fb0809283","system_id":"levelo_inurba_marseille","lat":43.295169,"lon":5.390426,"is_reserved":false,"is_disabled":false,"rental_uris":{"android":"levelo://app?vid=6d69b4e8-4174-4941-ad3b-a85fb0809283","ios":"levelo://app?vid=6d69b4e8-4174-4941-ad3b-a85fb0809283"},"vehicle_type_id":"4","last_reported":1715533544,"current_range_meters":8800,"station_id":"ce4bh3p2rcd13ifvqdp0","pricing_plan_id":"cebpf4jnsgd1na2vs0mg"},{"bike_id":"c9c0a678-8e19-4132-a1d5-1d0e8f56c65b","system_id":"levelo_inurba_marseille","lat":43.295169,"lon":5.390426,"is_reserved":false,"is_disabled":false,"rental_uris":{"android":"levelo://app?vid=c9c0a678-8e19-4132-a1d5-1d0e8f56c65b","ios":"levelo://app?vid=c9c0a678-8e19-4132-a1d5-1d0e8f56c65b"},"vehicle_type_id":"4","last_reported":1715533544,"current_range_meters":10000,"station_id":"ce4bh3p2rcd13ifvqdp0","pricing_plan_id":"cebpf4jnsgd1na2vs0mg"},{"bike_id":"533c2066-cfbb-4137-baca-474924091fbf","system_id":"levelo_inurba_marseille","lat":43.29784,"lon":5.39339,"is_reserved":false,"is_disabled":false,"rental_uris":{"android":"levelo://app?vid=533c2066-cfbb-4137-baca-474924091fbf","ios":"levelo://app?vid=533c2066-cfbb-4137-baca-474924091fbf"},"vehicle_type_id":"4","last_reported":1715533544,"current_range_meters":6400,"station_id":"chh1huq6cuj3fo74tm60","pricing_plan_id":"cebpf4jnsgd1na2vs0mg"},{"bike_id":"8d486e2a-e14a-4ba4-8ebd-8149a3ed548b","system_id":"levelo_inurba_marseille","lat":43.29787,"lon":5.39343,"is_reserved":false,"is_disabled":false,"rental_uris":{"android":"levelo://app?vid=8d486e2a-e14a-4ba4-8ebd-8149a3ed548b","ios":"levelo://app?vid=8d486e2a-e14a-4ba4-8ebd-8149a3ed548b"},"vehicle_type_id":"4","last_reported":1715533544,"current_range_meters":5200,"station_id":"chh1huq6cuj3fo74tm60","pricing_plan_id":"cebpf4jnsgd1na2vs0mg"},{"bike_id":"43fe9a5c-fdca-41a1-a7d7-56e466fe3a49","system_id":"levelo_inurba_marseille","lat":43.289743,"lon":5.378304,"is_reserved":false,"is_disabled":false,"rental_uris":{"android":"levelo://app?vid=43fe9a5c-fdca-41a1-a7d7-56e466fe3a49","ios":"levelo://app?vid=43fe9a5c-fdca-41a1-a7d7-56e466fe3a49"},"vehicle_type_id":"4","last_reported":1715533544,"current_range_meters":18800,"station_id":"ce4bh9p2rcd13ifvqed0","pricing_plan_id":"cebpf4jnsgd1na2vs0mg"},{"bike_id":"fe9c1292-e2ee-4ade-883f-50d1914878c6","system_id":"levelo_inurba_marseille","lat":43.330442,"lon":5.389148,"is_reserved":false,"is_disabled":false,"rental_uris":{"android":"levelo://app?vid=fe9c1292-e2ee-4ade-883f-50d1914878c6","ios":"levelo://app?vid=fe9c1292-e2ee-4ade-883f-50d1914878c6"},"vehicle_type_id":"4","last_reported":1715533544,"current_range_meters":21200,"station_id":"ce4bhr92rcd13ifvqhrg","pricing_plan_id":"cebpf4jnsgd1na2vs0mg"},{"bike_id":"4d398719-702c-499e-8a96-eb44f232c745","system_id":"levelo_inurba_marseille","lat":43.295169,"lon":5.390426,"is_reserved":false,"is_disabled":false,"rental_uris":{"android":"levelo://app?vid=4d398719-702c-499e-8a96-eb44f232c745","ios":"levelo://app?vid=4d398719-702c-499e-8a96-eb44f232c745"},"vehicle_type_id":"4","last_reported":1715533544,"current_range_meters":4000,"station_id":"ce4bh3p2rcd13ifvqdp0","pricing_plan_id":"cebpf4jnsgd1na2vs0mg"},{"bike_id":"bf44fc81-3175-4b6b-8b8b-8777336d260e","system_id":"levelo_inurba_marseille","lat":43.295169,"lon":5.390426,"is_reserved":false,"is_disabled":false,"rental_uris":{"android":"levelo://app?vid=bf44fc81-3175-4b6b-8b8b-8777336d260e","ios":"levelo://app?vid=bf44fc81-3175-4b6b-8b8b-8777336d260e"},"vehicle_type_id":"4","last_reported":1715533544,"current_range_meters":400,"station_id":"ce4bh3p2rcd13ifvqdp0","pricing_plan_id":"cebpf4jnsgd1na2vs0mg"},{"bike_id":"100a6f60-3fbc-4beb-93bb-a686d54cde33","system_id":"levelo_inurba_marseille","lat":43.290094,"lon":5.381264,"is_reserved":false,"is_disabled":false,"rental_uris":{"android":"levelo://app?vid=100a6f60-3fbc-4beb-93bb-a686d54cde33","ios":"levelo://app?vid=100a6f60-3fbc-4beb-93bb-a686d54cde33"},"vehicle_type_id":"4","last_reported":1715533544,"current_range_meters":4000,"station_id":"ce4bh4p2rcd13ifvqe1g","pricing_plan_id":"cebpf4jnsgd1na2vs0mg"},{"bike_id":"197c0a8e-e380-4224-83bb-0b21d7647206","system_id":"levelo_inurba_marseille","lat":43.290094,"lon":5.381264,"is_reserved":false,"is_disabled":false,"rental_uris":{"android":"levelo://app?vid=197c0a8e-e380-4224-83bb-0b21d7647206","ios":"levelo://app?vid=197c0a8e-e380-4224-83bb-0b21d7647206"},"vehicle_type_id":"4","last_reported":1715533544,"current_range_meters":18800,"station_id":"ce4bh4p2rcd13ifvqe1g","pricing_plan_id":"cebpf4jnsgd1na2vs0mg"},{"bike_id":"a6fe3be9-2ae1-42ce-9d62-911bb3dea5fa","system_id":"levelo_inurba_marseille","lat":43.28856,"lon":5.358371,"is_reserved":false,"is_disabled":false,"rental_uris":{"android":"levelo://app?vid=a6fe3be9-2ae1-42ce-9d62-911bb3dea5fa","ios":"levelo://app?vid=a6fe3be9-2ae1-42ce-9d62-911bb3dea5fa"},"vehicle_type_id":"4","last_reported":1715533544,"current_range_meters":25600,"station_id":"ce4bhb12rcd13ifvqem0","pricing_plan_id":"cebpf4jnsgd1na2vs0mg"},{"bike_id":"85203c0a-4f38-476c-b7a2-5ab30457060d","system_id":"levelo_inurba_marseille","lat":43.290094,"lon":5.381264,"is_reserved":false,"is_disabled":false,"rental_uris":{"android":"levelo://app?vid=85203c0a-4f38-476c-b7a2-5ab30457060d","ios":"levelo://app?vid=85203c0a-4f38-476c-b7a2-5ab30457060d"},"vehicle_type_id":"4","last_reported":1715533544,"current_range_meters":23200,"station_id":"ce4bh4p2rcd13ifvqe1g","pricing_plan_id":"cebpf4jnsgd1na2vs0mg"},{"bike_id":"1b03c272-f2f1-4eb4-9ca9-1cabf4cb47e8","system_id":"levelo_inurba_marseille","lat":43.309371,"lon":5.401449,"is_reserved":false,"is_disabled":false,"rental_uris":{"android":"levelo://app?vid=1b03c272-f2f1-4eb4-9ca9-1cabf4cb47e8","ios":"levelo://app?vid=1b03c272-f2f1-4eb4-9ca9-1cabf4cb47e8"},"vehicle_type_id":"4","last_reported":1715533544,"current_range_meters":800,"station_id":"ce4bgvp2rcd13ifvqct0","pricing_plan_id":"cebpf4jnsgd1na2vs0mg"},{"bike_id":"91d9714b-b35f-47ce-8f34-022bf351236f","system_id":"levelo_inurba_marseille","lat":43.33762,"lon":5.37436,"is_reserved":false,"is_disabled":false,"rental_uris":{"android":"levelo://app?vid=91d9714b-b35f-47ce-8f34-022bf351236f","ios":"levelo://app?vid=91d9714b-b35f-47ce-8f34-022bf351236f"},"vehicle_type_id":"4","last_reported":1715533544,"current_range_meters":20400,"station_id":"","pricing_plan_id":"cebpf4jnsgd1na2vs0mg"},{"bike_id":"f7932a42-aa5c-439b-b535-65dd8ccd41cf","system_id":"levelo_inurba_marseille","lat":43.33754,"lon":5.37489,"is_reserved":false,"is_disabled":false,"rental_uris":{"android":"levelo://app?vid=f7932a42-aa5c-439b-b535-65dd8ccd41cf","ios":"levelo://app?vid=f7932a42-aa5c-439b-b535-65dd8ccd41cf"},"vehicle_type_id":"4","last_reported":1715533544,"current_range_meters":29200,"station_id":"","pricing_plan_id":"cebpf4jnsgd1na2vs0mg"},{"bike_id":"4d118a7b-4d6b-4c58-91ba-48ee622ae311","system_id":"levelo_inurba_marseille","lat":43.306412,"lon":5.401035,"is_reserved":false,"is_disabled":false,"rental_uris":{"android":"levelo://app?vid=4d118a7b-4d6b-4c58-91ba-48ee622ae311","ios":"levelo://app?vid=4d118a7b-4d6b-4c58-91ba-48ee622ae311"},"vehicle_type_id":"4","last_reported":1715533544,"current_range_meters":29600,"station_id":"ce4bh112rcd13ifvqda0","pricing_plan_id":"cebpf4jnsgd1na2vs0mg"},{"bike_id":"a45bfb7a-dc45-4cf3-b3df-8e5d4d2f3bfe","system_id":"levelo_inurba_marseille","lat":43.306412,"lon":5.401035,"is_reserved":false,"is_disabled":false,"rental_uris":{"android":"levelo://app?vid=a45bfb7a-dc45-4cf3-b3df-8e5d4d2f3bfe","ios":"levelo://app?vid=a45bfb7a-dc45-4cf3-b3df-8e5d4d2f3bfe"},"vehicle_type_id":"4","last_reported":1715533544,"current_range_meters":5200,"station_id":"ce4bh112rcd13ifvqda0","pricing_plan_id":"cebpf4jnsgd1na2vs0mg"},{"bike_id":"b2e18d12-3171-4549-a3a7-c6416e007bae","system_id":"levelo_inurba_marseille","lat":43.306412,"lon":5.401035,"is_reserved":false,"is_disabled":false,"rental_uris":{"android":"levelo://app?vid=b2e18d12-3171-4549-a3a7-c6416e007bae","ios":"levelo://app?vid=b2e18d12-3171-4549-a3a7-c6416e007bae"},"vehicle_type_id":"4","last_reported":1715533544,"current_range_meters":0,"station_id":"ce4bh112rcd13ifvqda0","pricing_plan_id":"cebpf4jnsgd1na2vs0mg"},{"bike_id":"a7ffc4ca-76c7-41fd-afb8-8da3e147e552","system_id":"levelo_inurba_marseille","lat":43.30133,"lon":5.39849,"is_reserved":false,"is_disabled":false,"rental_uris":{"android":"levelo://app?vid=a7ffc4ca-76c7-41fd-afb8-8da3e147e552","ios":"levelo://app?vid=a7ffc4ca-76c7-41fd-afb8-8da3e147e552"},"vehicle_type_id":"4","last_reported":1715533544,"current_range_meters":0,"station_id":"ce4bh0h2rcd13ifvqd40","pricing_plan_id":"cebpf4jnsgd1na2vs0mg"},{"bike_id":"66d7ac1f-926f-46df-b072-7a2702d3e719","system_id":"levelo_inurba_marseille","lat":43.301117,"lon":5.398795,"is_reserved":false,"is_disabled":false,"rental_uris":{"android":"levelo://app?vid=66d7ac1f-926f-46df-b072-7a2702d3e719","ios":"levelo://app?vid=66d7ac1f-926f-46df-b072-7a2702d3e719"},"vehicle_type_id":"4","last_reported":1715533544,"current_range_meters":4800,"station_id":"ce4bh0h2rcd13ifvqd40","pricing_plan_id":"cebpf4jnsgd1na2vs0mg"},{"bike_id":"43c9452e-e8ff-4a32-966e-e598e3c50693","system_id":"levelo_inurba_marseille","lat":43.301117,"lon":5.398795,"is_reserved":false,"is_disabled":false,"rental_uris":{"android":"levelo://app?vid=43c9452e-e8ff-4a32-966e-e598e3c50693","ios":"levelo://app?vid=43c9452e-e8ff-4a32-966e-e598e3c50693"},"vehicle_type_id":"4","last_reported":1715533544,"current_range_meters":13200,"station_id":"ce4bh0h2rcd13ifvqd40","pricing_plan_id":"cebpf4jnsgd1na2vs0mg"},{"bike_id":"a55cac3c-211a-4a2c-af86-d07e0ed3b3f8","system_id":"levelo_inurba_marseille","lat":43.301117,"lon":5.398795,"is_reserved":false,"is_disabled":false,"rental_uris":{"android":"levelo://app?vid=a55cac3c-211a-4a2c-af86-d07e0ed3b3f8","ios":"levelo://app?vid=a55cac3c-211a-4a2c-af86-d07e0ed3b3f8"},"vehicle_type_id":"4","last_reported":1715533544,"current_range_meters":10000,"station_id":"ce4bh0h2rcd13ifvqd40","pricing_plan_id":"cebpf4jnsgd1na2vs0mg"},{"bike_id":"72d13057-1c41-460c-a90d-e189a337d36f","system_id":"levelo_inurba_marseille","lat":43.301117,"lon":5.398795,"is_reserved":false,"is_disabled":false,"rental_uris":{"android":"levelo://app?vid=72d13057-1c41-460c-a90d-e189a337d36f","ios":"levelo://app?vid=72d13057-1c41-460c-a90d-e189a337d36f"},"vehicle_type_id":"4","last_reported":1715533544,"current_range_meters":10000,"station_id":"ce4bh0h2rcd13ifvqd40","pricing_plan_id":"cebpf4jnsgd1na2vs0mg"},{"bike_id":"bd0b866c-7737-4e1c-afb7-f3b85df8d7a6","system_id":"levelo_inurba_marseille","lat":43.30139,"lon":5.39882,"is_reserved":false,"is_disabled":false,"rental_uris":{"android":"levelo://app?vid=bd0b866c-7737-4e1c-afb7-f3b85df8d7a6","ios":"levelo://app?vid=bd0b866c-7737-4e1c-afb7-f3b85df8d7a6"},"vehicle_type_id":"4","last_reported":1715533544,"current_range_meters":1200,"station_id":"ce4bh0h2rcd13ifvqd40","pricing_plan_id":"cebpf4jnsgd1na2vs0mg"},{"bike_id":"892105f3-06e1-4269-a93f-bc1cdfb5aa72","system_id":"levelo_inurba_marseille","lat":43.28727,"lon":5.36078,"is_reserved":false,"is_disabled":false,"rental_uris":{"android":"levelo://app?vid=892105f3-06e1-4269-a93f-bc1cdfb5aa72","ios":"levelo://app?vid=892105f3-06e1-4269-a93f-bc1cdfb5aa72"},"vehicle_type_id":"4","last_reported":1715533544,"current_range_meters":6000,"station_id":"cki0cbj6b192h4jlfktg","pricing_plan_id":"cebpf4jnsgd1na2vs0mg"},{"bike_id":"91266183-f089-41f9-b680-9b6f42362c41","system_id":"levelo_inurba_marseille","lat":43.28714,"lon":5.360948,"is_reserved":false,"is_disabled":false,"rental_uris":{"android":"levelo://app?vid=91266183-f089-41f9-b680-9b6f42362c41","ios":"levelo://app?vid=91266183-f089-41f9-b680-9b6f42362c41"},"vehicle_type_id":"4","last_reported":1715533544,"current_range_meters":20000,"station_id":"","pricing_plan_id":"cebpf4jnsgd1na2vs0mg"},{"bike_id":"8d213f5b-c82b-414b-a333-c0d5c8cd81db","system_id":"levelo_inurba_marseille","lat":43.301117,"lon":5.398795,"is_reserved":false,"is_disabled":false,"rental_uris":{"android":"levelo://app?vid=8d213f5b-c82b-414b-a333-c0d5c8cd81db","ios":"levelo://app?vid=8d213f5b-c82b-414b-a333-c0d5c8cd81db"},"vehicle_type_id":"4","last_reported":1715533544,"current_range_meters":18000,"station_id":"ce4bh0h2rcd13ifvqd40","pricing_plan_id":"cebpf4jnsgd1na2vs0mg"},{"bike_id":"9d88b915-c09b-4abb-b462-be705dd9e3c4","system_id":"levelo_inurba_marseille","lat":43.28716,"lon":5.37409,"is_reserved":false,"is_disabled":false,"rental_uris":{"android":"levelo://app?vid=9d88b915-c09b-4abb-b462-be705dd9e3c4","ios":"levelo://app?vid=9d88b915-c09b-4abb-b462-be705dd9e3c4"},"vehicle_type_id":"4","last_reported":1715533544,"current_range_meters":13600,"station_id":"ce4bh3p2rcd13ifvqdq0","pricing_plan_id":"cebpf4jnsgd1na2vs0mg"},