{"last_updated":1749755246,"ttl":60,"version":"2.2","data":{"bikes":[{"bike_id":"b31f0139-170f-4194-984f-4386218a1e9d","system_id":"levelo_inurba_marseille","lat":43.33771,"lon":5.37424,"is_reserved":false,"is_disabled":true,"rental_uris":{"android":"levelo://app?vid=b31f0139-170f-4194-984f-4386218a1e9d","ios":"levelo://app?vid=b31f0139-170f-4194-984f-4386218a1e9d"},"vehicle_type_id":"4","last_reported":1749755246,"current_range_meters":0,"station_id":"","pricing_plan_id":"cebpf4jnsgd1na2vs0mg"},{"bike_id":"1acfb620-cad7-48c0-8901-d7a5b74a5b65","system_id":"levelo_inurba_marseille","lat":43.33751,"lon":5.37456,"is_reserved":false,"is_disabled":false,"rental_uris":{"android":"levelo://app?vid=1acfb620-cad7-48c0-8901-d7a5b74a5b65","ios":"levelo://app?vid=1acfb620-cad7-48c0-8901-d7a5b74a5b65"},"vehicle_type_id":"4","last_reported":1749755246,"current_range_meters":7200,"station_id":"","pricing_plan_id":"cebpf4jnsgd1na2vs0mg"},{"bike_id":"b8e202e2-415e-4bd9-890e-e31fe40fce3b","system_id":"levelo_inurba_marseille","lat":43.29389,"lon":5.37325,"is_reserved":false,"is_disabled":true,"rental_uris":{"android":"levelo://app?vid=b8e202e2-415e-4bd9-890e-e31fe40fce3b","ios":"levelo://app?vid=b8e202e2-415e-4bd9-890e-e31fe40fce3b"},"vehicle_type_id":"4","last_reported":1749755246,"current_range_meters":0,"station_id":"","pricing_plan_id":"cebpf4jnsgd1na2vs0mg"},{"bike_id":"bf89d78c-eb96-40d5-beb0-f402ef102cc1","system_id":"levelo_inurba_marseille","lat":43.337444,"lon":5.374475,"is_reserved":false,"is_disabled":true,"rental_uris":{"android":"levelo://app?vid=bf89d78c-eb96-40d5-beb0-f402ef102cc1","ios":"levelo://app?vid=bf89d78c-eb96-40d5-beb0-f402ef102cc1"},"vehicle_type_id":"4","last_reported":1749755246,"current_range_meters":0,"station_id":"","pricing_plan_id":"cebpf4jnsgd1na2vs0mg"},{"bike_id":"7c6a9c32-3bbe-4d4c-8294-1969d0688a87","system_id":"levelo_inurba_marseille","lat":43.28496,"lon":5.42283,"is_reserved":false,"is_disabled":true,"rental_uris":{"android":"levelo://app?vid=7c6a9c32-3bbe-4d4c-8294-1969d0688a87","ios":"levelo://app?vid=7c6a9c32-3bbe-4d4c-8294-1969d0688a87"},"vehicle_type_id":"4","last_reported":1749755246,"current_range_meters":0,"station_id":"","pricing_plan_id":"cebpf4jnsgd1na2vs0mg"},{"bike_id":"492f4bbd-1190-4ef2-b66a-479ffe91b09b","system_id":"levelo_inurba_marseille","lat":43.337444,"lon":5.374475,"is_reserved":false,"is_disabled":true,"rental_uris":{"android":"levelo://app?vid=492f4bbd-1190-4ef2-b66a-479ffe91b09b","ios":"levelo://app?vid=492f4bbd-1190-4ef2-b66a-479ffe91b09b"},"vehicle_type_id":"4","last_reported":1749755246,"current_range_meters":0,"station_id":"","pricing_plan_id":"cebpf4jnsgd1na2vs0mg"},{"bike_id":"a76bfa59-b731-46b4-a462-7fdbb44a5154","system_id":"levelo_inurba_marseille","lat":43.2977,"lon":5.4219,"is_reserved":false,"is_disabled":true,"rental_uris":{"android":"levelo://app?vid=a76bfa59-b731-46b4-a462-7fdbb44a5154","ios":"levelo://app?vid=a76bfa59-b731-46b4-a462-7fdbb44a5154"},"vehicle_type_id":"4","last_reported":1749755246,"current_range_meters":0,"station_id":"","pricing_plan_id":"cebpf4jnsgd1na2vs0mg"},{"bike_id":"ce526313-e4c7-47eb-856f-183916936663","system_id":"levelo_inurba_marseille","lat":43.26216,"lon":5.39549,"is_reserved":false,"is_disabled":true,"rental_uris":{"android":"levelo://app?vid=ce526313-e4c7-47eb-856f-183916936663","ios":"levelo://app?vid=ce526313-e4c7-47eb-856f-183916936663"},"vehicle_type_id":"4","last_reported":1749755246,"current_range_meters":0,"station_id":"","pricing_plan_id":"cebpf4jnsgd1na2vs0mg"},{"bike_id":"59e3f38b-973a-4444-8116-f88c80578d24","system_id":"levelo_inurba_marseille","lat":43.30132,"lon":5.38095,"is_reserved":false,"is_disabled":true,"rental_uris":{"android":"levelo://app?vid=59e3f38b-973a-4444-8116-f88c80578d24","ios":"levelo://app?vid=59e3f38b-973a-4444-8116-f88c80578d24"},"vehicle_type_id":"4","last_reported":1749755246,"current_range_meters":0,"station_id":"ce4bgjp2rcd13ifvqbh0","pricing_plan_id":"cebpf4jnsgd1na2vs0mg"},{"bike_id":"018c4fc0-e671-46dc-8f39-523b1cb00255","system_id":"levelo_inurba_marseille","lat":43.29935,"lon":5.36549,"is_reserved":false,"is_disabled":true,"rental_uris":{"android":"levelo://app?vid=018c4fc0-e671-46dc-8f39-523b1cb00255","ios":"levelo://app?vid=018c4fc0-e671-46dc-8f39-523b1cb00255"},"vehicle_type_id":"4","last_reported":1749755246,"current_range_meters":0,"station_id":"ce4bgm92rcd13ifvqbr0","pricing_plan_id":"cebpf4jnsgd1na2vs0mg"},{"bike_id":"2764bd1d-7f6f-4275-a6e4-8a4b852e33f6","system_id":"levelo_inurba_marseille","lat":43.29521,"lon":5.39407,"is_reserved":false,"is_disabled":true,"rental_uris":{"android":"levelo://app?vid=2764bd1d-7f6f-4275-a6e4-8a4b852e33f6","ios":"levelo://app?vid=2764bd1d-7f6f-4275-a6e4-8a4b852e33f6"},"vehicle_type_id":"4","last_reported":1749755246,"current_range_meters":0,"station_id":"ce4bh292rcd13ifvqdf0","pricing_plan_id":"cebpf4jnsgd1na2vs0mg"},{"bike_id":"89bda65a-8952-4fb1-ab36-403a2771154f","system_id":"levelo_inurba_marseille","lat":43.29254,"lon":5.38453,"is_reserved":false,"is_disabled":true,"rental_uris":{"android":"levelo://app?vid=89bda65a-8952-4fb1-ab36-403a2771154f","ios":"levelo://app?vid=89bda65a-8952-4fb1-ab36-403a2771154f"},"vehicle_type_id":"4","last_reported":1749755246,"current_range_meters":0,"station_id":"ce4bh692rcd13ifvqea0","pricing_plan_id":"cebpf4jnsgd1na2vs0mg"},{"bike_id":"136db734-db4b-46c9-a66c-66cf159c66c9","system_id":"levelo_inurba_marseille","lat":43.28935,"lon":5.3664,"is_reserved":false,"is_disabled":true,"rental_uris":{"android":"levelo://app?vid=136db734-db4b-46c9-a66c-66cf159c66c9","ios":"levelo://app?vid=136db734-db4b-46c9-a66c-66cf159c66c9"},"vehicle_type_id":"4","last_reported":1749755246,"current_range_meters":0,"station_id":"ce4bhap2rcd13ifvqek0","pricing_plan_id":"cebpf4jnsgd1na2vs0mg"},{"bike_id":"1122d15c-2b1b-4e6b-aefd-dbc4962c2983","system_id":"levelo_inurba_marseille","lat":43.29891,"lon":5.43671,"is_reserved":false,"is_disabled":true,"rental_uris":{"android":"levelo://app?vid=1122d15c-2b1b-4e6b-aefd-dbc4962c2983","ios":"levelo://app?vid=1122d15c-2b1b-4e6b-aefd-dbc4962c2983"},"vehicle_type_id":"4","last_reported":1749755246,"current_range_meters":0,"station_id":"ce4bhpp2rcd13ifvqhfg","pricing_plan_id":"cebpf4jnsgd1na2vs0mg"},{"bike_id":"882436f0-57be-4dcc-b918-4b6fda6fe0bd","system_id":"levelo_inurba_marseille","lat":43.2979,"lon":5.39331,"is_reserved":false,"is_disabled":true,"rental_uris":{"android":"levelo://app?vid=882436f0-57be-4dcc-b918-4b6fda6fe0bd","ios":"levelo://app?vid=882436f0-57be-4dcc-b918-4b6fda6fe0bd"},"vehicle_type_id":"4","last_reported":1749755246,"current_range_meters":0,"station_id":"chh1huq6cuj3fo74tm60","pricing_plan_id":"cebpf4jnsgd1na2vs0mg"},{"bike_id":"d21c7c21-7d49-444d-9f3c-1dc51178bb10","system_id":"levelo_inurba_marseille","lat":43.29528,"lon":5.3855,"is_reserved":false,"is_disabled":true,"rental_uris":{"android":"levelo://app?vid=d21c7c21-7d49-444d-9f3c-1dc51178bb10","ios":"levelo://app?vid=d21c7c21-7d49-444d-9f3c-1dc51178bb10"},"vehicle_type_id":"4","last_reported":1749755246,"current_range_meters":400,"station_id":"ce4bgih2rcd13ifvqba0","pricing_plan_id":"cebpf4jnsgd1na2vs0mg"},{"bike_id":"e2016f1d-cb35-48bd-ac66-a8da70a33c1c","system_id":"levelo_inurba_marseille","lat":43.297962,"lon":5.370776,"is_reserved":false,"is_disabled":true,"rental_uris":{"android":"levelo://app?vid=e2016f1d-cb35-48bd-ac66-a8da70a33c1c","ios":"levelo://app?vid=e2016f1d-cb35-48bd-ac66-a8da70a33c1c"},"vehicle_type_id":"4","last_reported":1749755246,"current_range_meters":400,"station_id":"ce4bgop2rcd13ifvqc1g","pricing_plan_id":"cebpf4jnsgd1na2vs0mg"},{"bike_id":"eaa8ecf4-e6bd-4774-bde5-6bc18bc76e66","system_id":"levelo_inurba_marseille","lat":43.29275,"lon":5.40115,"is_reserved":false,"is_disabled":true,"rental_uris":{"android":"levelo://app?vid=eaa8ecf4-e6bd-4774-bde5-6bc18bc76e66","ios":"levelo://app?vid=eaa8ecf4-e6bd-4774-bde5-6bc18bc76e66"},"vehicle_type_id":"4","last_reported":1749755246,"current_range_meters":400,"station_id":"ce4bh312rcd13ifvqdk0","pricing_plan_id":"cebpf4jnsgd1na2vs0mg"},{"bike_id":"ceb617f8-46b0-4c81-9904-0ccb6fe61c56","system_id":"levelo_inurba_marseille","lat":43.30377,"lon":5.42489,"is_reserved":false,"is_disabled":true,"rental_uris":{"android":"levelo://app?vid=ceb617f8-46b0-4c81-9904-0ccb6fe61c56","ios":"levelo://app?vid=ceb617f8-46b0-4c81-9904-0ccb6fe61c56"},"vehicle_type_id":"4","last_reported":1749755246,"current_range_meters":400,"station_id":"ce4bhoh2rcd13ifvqh6g","pricing_plan_id":"cebpf4jnsgd1na2vs0mg"},{"bike_id":"a9b6bf99-4070-4437-bb20-72962ae30b90","system_id":"levelo_inurba_marseille","lat":43.27463,"lon":5.36388,"is_reserved":false,"is_disabled":true,"rental_uris":{"android":"levelo://app?vid=a9b6bf99-4070-4437-bb20-72962ae30b90","ios":"levelo://app?vid=a9b6bf99-4070-4437-bb20-72962ae30b90"},"vehicle_type_id":"4","last_reported":1749755246,"current_range_meters":800,"station_id":"","pricing_plan_id":"cebpf4jnsgd1na2vs0mg"},{"bike_id":"5b9964a4-e94d-47b8-8ea6-67b3d358bb78","system_id":"levelo_inurba_marseille","lat":43.30886,"lon":5.39644,"is_reserved":false,"is_disabled":true,"rental_uris":{"android":"levelo://app?vid=5b9964a4-e94d-47b8-8ea6-67b3d358bb78","ios":"levelo://app?vid=5b9964a4-e94d-47b8-8ea6-67b3d358bb78"},"vehicle_type_id":"4","last_reported":1749755246,"current_range_meters":800,"station_id":"ce4bh012rcd13ifvqcv0","pricing_plan_id":"cebpf4jnsgd1na2vs0mg"},{"bike_id":"75c786f4-2591-4212-9fb8-8fcbdb221697","system_id":"levelo_inurba_marseille","lat":43.2918,"lon":5.35798,"is_reserved":false,"is_disabled":true,"rental_uris":{"android":"levelo://app?vid=75c786f4-2591-4212-9fb8-8fcbdb221697","ios":"levelo://app?vid=75c786f4-2591-4212-9fb8-8fcbdb221697"},"vehicle_type_id":"4","last_reported":1749755246,"current_range_meters":800,"station_id":"ce4bhb12rcd13ifvqel0","pricing_plan_id":"cebpf4jnsgd1na2vs0mg"},{"bike_id":"4a1b5b45-5332-4b3f-9bee-d997f9d724a7","system_id":"levelo_inurba_marseille","lat":43.2481,"lon":5.37446,"is_reserved":false,"is_disabled":true,"rental_uris":{"android":"levelo://app?vid=4a1b5b45-5332-4b3f-9bee-d997f9d724a7","ios":"levelo://app?vid=4a1b5b45-5332-4b3f-9bee-d997f9d724a7"},"vehicle_type_id":"4","last_reported":1749755246,"current_range_meters":800,"station_id":"ce4bhgh2rcd13ifvqfb0","pricing_plan_id":"cebpf4jnsgd1na2vs0mg"},{"bike_id":"ef058674-79fe-4cee-b803-09f6f400222d","system_id":"levelo_inurba_marseille","lat":43.24075,"lon":5.37755,"is_reserved":false,"is_disabled":true,"rental_uris":{"android":"levelo://app?vid=ef058674-79fe-4cee-b803-09f6f400222d","ios":"levelo://app?vid=ef058674-79fe-4cee-b803-09f6f400222d"},"vehicle_type_id":"4","last_reported":1749755246,"current_range_meters":800,"station_id":"ce4bhnp2rcd13ifvqgvg","pricing_plan_id":"cebpf4jnsgd1na2vs0mg"},{"bike_id":"94318c46-7440-4b99-b14f-b14e148f17c3","system_id":"levelo_inurba_marseille","lat":43.33138,"lon":5.38176,"is_reserved":false,"is_disabled":true,"rental_uris":{"android":"levelo://app?vid=94318c46-7440-4b99-b14f-b14e148f17c3","ios":"levelo://app?vid=94318c46-7440-4b99-b14f-b14e148f17c3"},"vehicle_type_id":"4","last_reported":1749755246,"current_range_meters":1200,"station_id":"","pricing_plan_id":"cebpf4jnsgd1na2vs0mg"},{"bike_id":"57e53f3d-694b-4384-acfd-564d1db11ac1","system_id":"levelo_inurba_marseille","lat":43.2476,"lon":5.40648,"is_reserved":false,"is_disabled":true,"rental_uris":{"android":"levelo://app?vid=57e53f3d-694b-4384-acfd-564d1db11ac1","ios":"levelo://app?vid=57e53f3d-694b-4384-acfd-564d1db11ac1"},"vehicle_type_id":"4","last_reported":1749755246,"current_range_meters":1200,"station_id":"","pricing_plan_id":"cebpf4jnsgd1na2vs0mg"},{"bike_id":"ed38e697-cb68-456b-bc29-998b3b4709d3","system_id":"levelo_inurba_marseille","lat":43.29445,"lon":5.37986,"is_reserved":false,"is_disabled":true,"rental_uris":{"android":"levelo://app?vid=ed38e697-cb68-456b-bc29-998b3b4709d3","ios":"levelo://app?vid=ed38e697-cb68-456b-bc29-998b3b4709d3"},"vehicle_type_id":"4","last_reported":1749755246,"current_range_meters":1200,"station_id":"","pricing_plan_id":"cebpf4jnsgd1na2vs0mg"},{"bike_id":"3589a205-671f-4e20-a149-145bef043099","system_id":"levelo_inurba_marseille","lat":43.2923,"lon":5.36434,"is_reserved":false,"is_disabled":true,"rental_uris":{"android":"levelo://app?vid=3589a205-671f-4e20-a149-145bef043099","ios":"levelo://app?vid=3589a205-671f-4e20-a149-145bef043099"},"vehicle_type_id":"4","last_reported":1749755246,"current_range_meters":1200,"station_id":"","pricing_plan_id":"cebpf4jnsgd1na2vs0mg"},{"bike_id":"cc6342fe-1062-4d93-9c27-0529122084bd","system_id":"levelo_inurba_marseille","lat":43.29034,"lon":5.357713,"is_reserved":false,"is_disabled":true,"rental_uris":{"android":"levelo://app?vid=cc6342fe-1062-4d93-9c27-0529122084bd","ios":"levelo://app?vid=cc6342fe-1062-4d93-9c27-0529122084bd"},"vehicle_type_id":"4","last_reported":1749755246,"current_range_meters":1600,"station_id":"","pricing_plan_id":"cebpf4jnsgd1na2vs0mg"},{"bike_id":"02d9d119-a2b6-4f3c-b3c5-9be1560bad56","system_id":"levelo_inurba_marseille","lat":43.30426,"lon":5.38886,"is_reserved":false,"is_disabled":true,"rental_uris":{"android":"levelo://app?vid=02d9d119-a2b6-4f3c-b3c5-9be1560bad56","ios":"levelo://app?vid=02d9d119-a2b6-4f3c-b3c5-9be1560bad56"},"vehicle_type_id":"4","last_reported":1749755246,"current_range_meters":1600,"station_id":"ce4bgk12rcd13ifvqbi0","pricing_plan_id":"cebpf4jnsgd1na2vs0mg"},{"bike_id":"394934eb-1cb0-4b06-b4ea-498349f2e854","system_id":"levelo_inurba_marseille","lat":43.30874,"lon":5.3962,"is_reserved":false,"is_disabled":true,"rental_uris":{"android":"levelo://app?vid=394934eb-1cb0-4b06-b4ea-498349f2e854","ios":"levelo://app?vid=394934eb-1cb0-4b06-b4ea-498349f2e854"},"vehicle_type_id":"4","last_reported":1749755246,"current_range_meters":1600,"station_id":"ce4bh012rcd13ifvqcv0","pricing_plan_id":"cebpf4jnsgd1na2vs0mg"},{"bike_id":"ccfa62c2-60b2-4904-b71f-6987c38ce76b","system_id":"levelo_inurba_marseille","lat":43.22934,"lon":5.35376,"is_reserved":false,"is_disabled":true,"rental_uris":{"android":"levelo://app?vid=ccfa62c2-60b2-4904-b71f-6987c38ce76b","ios":"levelo://app?vid=ccfa62c2-60b2-4904-b71f-6987c38ce76b"},"vehicle_type_id":"4","last_reported":1749755246,"current_range_meters":1600,"station_id":"cpo3532slgdg3j2ikp40","pricing_plan_id":"cebpf4jnsgd1na2vs0mg"},{"bike_id":"66b1cbfb-c132-4ef4-922c-0beab9b5a350","system_id":"levelo_inurba_marseille","lat":43.29811,"lon":5.46,"is_reserved":false,"is_disabled":true,"rental_uris":{"android":"levelo://app?vid=66b1cbfb-c132-4ef4-922c-0beab9b5a350","ios":"levelo://app?vid=66b1cbfb-c132-4ef4-922c-0beab9b5a350"},"vehicle_type_id":"4","last_reported":1749755246,"current_range_meters":2000,"station_id":"","pricing_plan_id":"cebpf4jnsgd1na2vs0mg"},{"bike_id":"66533b80-cc71-40e8-8ac8-a74667eb0995","system_id":"levelo_inurba_marseille","lat":43.29254,"lon":5.40906,"is_reserved":false,"is_disabled":true,"rental_uris":{"android":"levelo://app?vid=66533b80-cc71-40e8-8ac8-a74667eb0995","ios":"levelo://app?vid=66533b80-cc71-40e8-8ac8-a74667eb0995"},"vehicle_type_id":"4","last_reported":1749755246,"current_range_meters":2000,"station_id":"ce4bh192rcd13ifvqdc0","pricing_plan_id":"cebpf4jnsgd1na2vs0mg"},{"bike_id":"faa189cb-be1b-4a53-9cae-a054af82e193","system_id":"levelo_inurba_marseille","lat":43.28665,"lon":5.38663,"is_reserved":false,"is_disabled":true,"rental_uris":{"android":"levelo://app?vid=faa189cb-be1b-4a53-9cae-a054af82e193","ios":"levelo://app?vid=faa189cb-be1b-4a53-9cae-a054af82e193"},"vehicle_type_id":"4","last_reported":1749755246,"current_range_meters":2000,"station_id":"ce4bh492rcd13ifvqdug","pricing_plan_id":"cebpf4jnsgd1na2vs0mg"},{"bike_id":"2967e027-b651-407a-a5cf-4d64a80c3f46","system_id":"levelo_inurba_marseille","lat":43.28436,"lon":5.39173,"is_reserved":false,"is_disabled":false,"rental_uris":{"android":"levelo://app?vid=2967e027-b651-407a-a5cf-4d64a80c3f46","ios":"levelo://app?vid=2967e027-b651-407a-a5cf-4d64a80c3f46"},"vehicle_type_id":"4","last_reported":1749755246,"current_range_meters":2800,"station_id":"ce4bhoh2rcd13ifvqh5g","pricing_plan_id":"cebpf4jnsgd1na2vs0mg"},{"bike_id":"5077581b-cebb-46fc-ba69-4fa8272d4810","system_id":"levelo_inurba_marseille","lat":43.21367,"lon":5.35514,"is_reserved":false,"is_disabled":false,"rental_uris":{"android":"levelo://app?vid=5077581b-cebb-46fc-ba69-4fa8272d4810","ios":"levelo://app?vid=5077581b-cebb-46fc-ba69-4fa8272d4810"},"vehicle_type_id":"4","last_reported":1749755246,"current_range_meters":3200,"station_id":"","pricing_plan_id":"cebpf4jnsgd1na2vs0mg"},{"bike_id":"4b46de49-fc9e-423b-b68b-7bdf05a00e45","system_id":"levelo_inurba_marseille","lat":43.25332,"lon":5.3935,"is_reserved":false,"is_disabled":false,"rental_uris":{"android":"levelo://app?vid=4b46de49-fc9e-423b-b68b-7bdf05a00e45","ios":"levelo://app?vid=4b46de49-fc9e-423b-b68b-7bdf05a00e45"},"vehicle_type_id":"4","last_reported":1749755246,"current_range_meters":3200,"station_id":"","pricing_plan_id":"cebpf4jnsgd1na2vs0mg"},{"bike_id":"853e9d90-8fb4-4c17-a762-9923b9fb02f0","system_id":"levelo_inurba_marseille","lat":43.25447,"lon":5.38093,"is_reserved":false,"is_disabled":false,"rental_uris":{"android":"levelo://app?vid=853e9d90-8fb4-4c17-a762-9923b9fb02f0","ios":"levelo://app?vid=853e9d90-8fb4-4c17-a762-9923b9fb02f0"},"vehicle_type_id":"4","last_reported":1749755246,"current_range_meters":3200,"station_id":"","pricing_plan_id":"cebpf4jnsgd1na2vs0mg"},{"bike_id":"e94beb84-2b97-4917-9b31-26876cf8143d","system_id":"levelo_inurba_marseille","lat":43.30144,"lon":5.37417,"is_reserved":false,"is_disabled":false,"rental_uris":{"android":"levelo://app?vid=e94beb84-2b97-4917-9b31-26876cf8143d","ios":"levelo://app?vid=e94beb84-2b97-4917-9b31-26876cf8143d"},"vehicle_type_id":"4","last_reported":1749755246,"current_range_meters":3200,"station_id":"ce4bgs92rcd13ifvqcc0","pricing_plan_id":"cebpf4jnsgd1na2vs0mg"},{"bike_id":"22483b00-2439-490f-8e49-db15d266f91a","system_id":"levelo_inurba_marseille","lat":43.31326,"lon":5.39684,"is_reserved":false,"is_disabled":false,"rental_uris":{"android":"levelo://app?vid=22483b00-2439-490f-8e49-db15d266f91a","ios":"levelo://app?vid=22483b00-2439-490f-8e49-db15d266f91a"},"vehicle_type_id":"4","last_reported":1749755246,"current_range_meters":3200,"station_id":"ce4bgvp2rcd13ifvqcu0","pricing_plan_id":"cebpf4jnsgd1na2vs0mg"},{"bike_id":"d1e2294d-0718-44e7-99b3-ee2afb08f042","system_id":"levelo_inurba_marseille","lat":43.28578,"lon":5.39493,"is_reserved":false,"is_disabled":false,"rental_uris":{"android":"levelo://app?vid=d1e2294d-0718-44e7-99b3-ee2afb08f042","ios":"levelo://app?vid=d1e2294d-0718-44e7-99b3-ee2afb08f042"},"vehicle_type_id":"4","last_reported":1749755246,"current_range_meters":3200,"station_id":"ce4bh292rcd13ifvqdg0","pricing_plan_id":"cebpf4jnsgd1na2vs0mg"},{"bike_id":"e2e27818-bf4a-4e1a-8cb4-28f487746ad8","system_id":"levelo_inurba_marseille","lat":43.28362,"lon":5.38099,"is_reserved":false,"is_disabled":false,"rental_uris":{"android":"levelo://app?vid=e2e27818-bf4a-4e1a-8cb4-28f487746ad8","ios":"levelo://app?vid=e2e27818-bf4a-4e1a-8cb4-28f487746ad8"},"vehicle_type_id":"4","last_reported":1749755246,"current_range_meters":3200,"station_id":"ce4bh412rcd13ifvqdr0","pricing_plan_id":"cebpf4jnsgd1na2vs0mg"},{"bike_id":"07daffd5-1995-4b69-bfd0-caa46513b068","system_id":"levelo_inurba_marseille","lat":43.29105,"lon":5.38132,"is_reserved":false,"is_disabled":false,"rental_uris":{"android":"levelo://app?vid=07daffd5-1995-4b69-bfd0-caa46513b068","ios":"levelo://app?vid=07daffd5-1995-4b69-bfd0-caa46513b068"},"vehicle_type_id":"4","last_reported":1749755246,"current_range_meters":3200,"station_id":"ce4bh512rcd13ifvqe2g","pricing_plan_id":"cebpf4jnsgd1na2vs0mg"},{"bike_id":"fd5c0873-d8ef-4cc8-a1f7-cd7dc19f4832","system_id":"levelo_inurba_marseille","lat":43.282447,"lon":5.379028,"is_reserved":false,"is_disabled":false,"rental_uris":{"android":"levelo://app?vid=fd5c0873-d8ef-4cc8-a1f7-cd7dc19f4832","ios":"levelo://app?vid=fd5c0873-d8ef-4cc8-a1f7-cd7dc19f4832"},"vehicle_type_id":"4","last_reported":1749755246,"current_range_meters":3200,"station_id":"ce4bha12rcd13ifvqee0","pricing_plan_id":"cebpf4jnsgd1na2vs0mg"},{"bike_id":"3be28c2b-92fd-4ac6-a698-14458f8b145a","system_id":"levelo_inurba_marseille","lat":43.32058,"lon":5.41554,"is_reserved":false,"is_disabled":false,"rental_uris":{"android":"levelo://app?vid=3be28c2b-92fd-4ac6-a698-14458f8b145a","ios":"levelo://app?vid=3be28c2b-92fd-4ac6-a698-14458f8b145a"},"vehicle_type_id":"4","last_reported":1749755246,"current_range_meters":3200,"station_id":"ce4bhq92rcd13ifvqhkg","pricing_plan_id":"cebpf4jnsgd1na2vs0mg"},{"bike_id":"1e20f032-0f6a-40b2-ad29-e4d2225496fa","system_id":"levelo_inurba_marseille","lat":43.30302,"lon":5.3704,"is_reserved":false,"is_disabled":false,"rental_uris":{"android":"levelo://app?vid=1e20f032-0f6a-40b2-ad29-e4d2225496fa","ios":"levelo://app?vid=1e20f032-0f6a-40b2-ad29-e4d2225496fa"},"vehicle_type_id":"4","last_reported":1749755246,"current_range_meters":3600,"station_id":"","pricing_plan_id":"cebpf4jnsgd1na2vs0mg"},{"bike_id":"165a6ce2-f806-45b2-bf82-39d7bdd011fc","system_id":"levelo_inurba_marseille","lat":43.29393,"lon":5.38531,"is_reserved":false,"is_disabled":false,"rental_uris":{"android":"levelo://app?vid=165a6ce2-f806-45b2-bf82-39d7bdd011fc","ios":"levelo://app?vid=165a6ce2-f806-45b2-bf82-39d7bdd011fc"},"vehicle_type_id":"4","last_reported":1749755246,"current_range_meters":3600,"station_id":"","pricing_plan_id":"cebpf4jnsgd1na2vs0mg"},{"bike_id":"3bc0bdcd-4943-4712-bd06-fdad345ceab4","system_id":"levelo_inurba_marseille","lat":43.290218,"lon":5.386539,"is_reserved":false,"is_disabled":false,"rental_uris":{"android":"levelo://app?vid=3bc0bdcd-4943-4712-bd06-fdad345ceab4","ios":"levelo://app?vid=3bc0bdcd-4943-4712-bd06-fdad345ceab4"},"vehicle_type_id":"4","last_reported":1749755246,"current_range_meters":3600,"station_id":"ce4bh4p2rcd13ifvqe0g","pricing_plan_id":"cebpf4jnsgd1na2vs0mg"},{"bike_id":"8f02a946-d966-4ee0-8d92-8bceccde6c04","system_id":"levelo_inurba_marseille","lat":43.24811,"lon":5.37454,"is_reserved":false,"is_disabled":false,"rental_uris":{"android":"levelo://app?vid=8f02a946-d966-4ee0-8d92-8bceccde6c04","ios":"levelo://app?vid=8f02a946-d966-4ee0-8d92-8bceccde6c04"},"vehicle_type_id":"4","last_reported":1749755246,"current_range_meters":3600,"station_id":"ce4bhgh2rcd13ifvqfb0","pricing_plan_id":"cebpf4jnsgd1na2vs0mg"},{"bike_id":"2cfb8273-2c5d-47e7-865b-b636d17fc0e3","system_id":"levelo_inurba_marseille","lat":43.23178,"lon":5.39993,"is_reserved":false,"is_disabled":false,"rental_uris":{"android":"levelo://app?vid=2cfb8273-2c5d-47e7-865b-b636d17fc0e3","ios":"levelo://app?vid=2cfb8273-2c5d-47e7-865b-b636d17fc0e3"},"vehicle_type_id":"4","last_reported":1749755246,"current_range_meters":3600,"station_id":"ce4bhn12rcd13ifvqgqg","pricing_plan_id":"cebpf4jnsgd1na2vs0mg"},{"bike_id":"246ad53d-29b3-40b6-ad27-7404c45659d0","system_id":"levelo_inurba_marseille","lat":43.32657,"lon":5.40997,"is_reserved":false,"is_disabled":false,"rental_uris":{"android":"levelo://app?vid=246ad53d-29b3-40b6-ad27-7404c45659d0","ios":"levelo://app?vid=246ad53d-29b3-40b6-ad27-7404c45659d0"},"vehicle_type_id":"4","last_reported":1749755246,"current_range_meters":3600,"station_id":"ce4bhpp2rcd13ifvqhgg","pricing_plan_id":"cebpf4jnsgd1na2vs0mg"},{"bike_id":"fa7955b5-59b4-49eb-9093-3a06b6c26c72","system_id":"levelo_inurba_marseille","lat":43.29006,"lon":5.35615,"is_reserved":false,"is_disabled":false,"rental_uris":{"android":"levelo://app?vid=fa7955b5-59b4-49eb-9093-3a06b6c26c72","ios":"levelo://app?vid=fa7955b5-59b4-49eb-9093-3a06b6c26c72"},"vehicle_type_id":"4","last_reported":1749755246,"current_range_meters":4000,"station_id":"","pricing_plan_id":"cebpf4jnsgd1na2vs0mg"},{"bike_id":"8832604c-d373-424e-94b8-401f2431fe01","system_id":"levelo_inurba_marseille","lat":43.293,"lon":5.37471,"is_reserved":false,"is_disabled":false,"rental_uris":{"android":"levelo://app?vid=8832604c-d373-424e-94b8-401f2431fe01","ios":"levelo://app?vid=8832604c-d373-424e-94b8-401f2431fe01"},"vehicle_type_id":"4","last_reported":1749755246,"current_range_meters":4000,"station_id":"ce4bgi12rcd13ifvqb70","pricing_plan_id":"cebpf4jnsgd1na2vs0mg"},{"bike_id":"4e1bfb78-32ae-4d2c-9c4f-f685cb5cc67f","system_id":"levelo_inurba_marseille","lat":43.30956,"lon":5.39038,"is_reserved":false,"is_disabled":false,"rental_uris":{"android":"levelo://app?vid=4e1bfb78-32ae-4d2c-9c4f-f685cb5cc67f","ios":"levelo://app?vid=4e1bfb78-32ae-4d2c-9c4f-f685cb5cc67f"},"vehicle_type_id":"4","last_reported":1749755246,"current_range_meters":4000,"station_id":"ce4bgup2rcd13ifvqco0","pricing_plan_id":"cebpf4jnsgd1na2vs0mg"},{"bike_id":"8f0c55bd-6597-43d4-b581-5ed90ad5c6b1","system_id":"levelo_inurba_marseille","lat":43.29416,"lon":5.38624,"is_reserved":false,"is_disabled":false,"rental_uris":{"android":"levelo://app?vid=8f0c55bd-6597-43d4-b581-5ed90ad5c6b1","ios":"levelo://app?vid=8f0c55bd-6597-43d4-b581-5ed90ad5c6b1"},"vehicle_type_id":"4","last_reported":1749755246,"current_range_meters":4400,"station_id":"","pricing_plan_id":"cebpf4jnsgd1na2vs0mg"},{"bike_id":"a65610d2-25bc-44d0-bbd3-3e69717b1aca","system_id":"levelo_inurba_marseille","lat":43.30717,"lon":5.40161,"is_reserved":false,"is_disabled":false,"rental_uris":{"android":"levelo://app?vid=a65610d2-25bc-44d0-bbd3-3e69717b1aca","ios":"levelo://app?vid=a65610d2-25bc-44d0-bbd3-3e69717b1aca"},"vehicle_type_id":"4","last_reported":1749755246,"current_range_meters":4800,"station_id":"","pricing_plan_id":"cebpf4jnsgd1na2vs0mg"},{"bike_id":"36ebed4d-e210-4802-b65f-9c518b73dd91","system_id":"levelo_inurba_marseille","lat":43.29445,"lon":5.38613,"is_reserved":false,"is_disabled":false,"rental_uris":{"android":"levelo://app?vid=36ebed4d-e210-4802-b65f-9c518b73dd91","ios":"levelo://app?vid=36ebed4d-e210-4802-b65f-9c518b73dd91"},"vehicle_type_id":"4","last_reported":1749755246,"current_range_meters":4800,"station_id":"ce4bh2h2rcd13ifvqdh0","pricing_plan_id":"cebpf4jnsgd1na2vs0mg"},{"bike_id":"0c9bc817-09d1-428c-975e-1787e188d1ff","system_id":"levelo_inurba_marseille","lat":43.28362,"lon":5.38633,"is_reserved":false,"is_disabled":false,"rental_uris":{"android":"levelo://app?vid=0c9bc817-09d1-428c-975e-1787e188d1ff","ios":"levelo://app?vid=0c9bc817-09d1-428c-975e-1787e188d1ff"},"vehicle_type_id":"4","last_reported":1749755246,"current_range_meters":4800,"station_id":"ce4bh492rcd13ifvqdvg","pricing_plan_id":"cebpf4jnsgd1na2vs0mg"},{"bike_id":"81ff0260-06a9-4812-81da-8a2b44369de0","system_id":"levelo_inurba_marseille","lat":43.29195,"lon":5.35798,"is_reserved":false,"is_disabled":false,"rental_uris":{"android":"levelo://app?vid=81ff0260-06a9-4812-81da-8a2b44369de0","ios":"levelo://app?vid=81ff0260-06a9-4812-81da-8a2b44369de0"},"vehicle_type_id":"4","last_reported":1749755246,"current_range_meters":4800,"station_id":"ce4bhb12rcd13ifvqel0","pricing_plan_id":"cebpf4jnsgd1na2vs0mg"},{"bike_id":"9e2acdef-83bd-408a-b12d-f7d578bb4d88","system_id":"levelo_inurba_marseille","lat":43.25811,"lon":5.39392,"is_reserved":false,"is_disabled":false,"rental_uris":{"android":"levelo://app?vid=9e2acdef-83bd-408a-b12d-f7d578bb4d88","ios":"levelo://app?vid=9e2acdef-83bd-408a-b12d-f7d578bb4d88"},"vehicle_type_id":"4","last_reported":1749755246,"current_range_meters":4800,"station_id":"ce4bhip2rcd13ifvqft0","pricing_plan_id":"cebpf4jnsgd1na2vs0mg"},{"bike_id":"66314ca9-30a7-4c0a-8507-6f89f4c9b4e1","system_id":"levelo_inurba_marseille","lat":43.26178,"lon":5.37051,"is_reserved":false,"is_disabled":false,"rental_uris":{"android":"levelo://app?vid=66314ca9-30a7-4c0a-8507-6f89f4c9b4e1","ios":"levelo://app?vid=66314ca9-30a7-4c0a-8507-6f89f4c9b4e1"},"vehicle_type_id":"4","last_reported":1749755246,"current_range_meters":5600,"station_id":"","pricing_plan_id":"cebpf4jnsgd1na2vs0mg"},{"bike_id":"6fec8452-9159-4284-a3cc-a0393f729100","system_id":"levelo_inurba_marseille","lat":43.21764,"lon":5.34593,"is_reserved":false,"is_disabled":false,"rental_uris":{"android":"levelo://app?vid=6fec8452-9159-4284-a3cc-a0393f729100","ios":"levelo://app?vid=6fec8452-9159-4284-a3cc-a0393f729100"},"vehicle_type_id":"4","last_reported":1749755246,"current_range_meters":5600,"station_id":"","pricing_plan_id":"cebpf4jnsgd1na2vs0mg"},{"bike_id":"f28ac209-4ada-4b57-b006-bca5a188a4b9","system_id":"levelo_inurba_marseille","lat":43.31068,"lon":5.38355,"is_reserved":false,"is_disabled":false,"rental_uris":{"android":"levelo://app?vid=f28ac209-4ada-4b57-b006-bca5a188a4b9","ios":"levelo://app?vid=f28ac209-4ada-4b57-b006-bca5a188a4b9"},"vehicle_type_id":"4","last_reported":1749755246,"current_range_meters":5600,"station_id":"ce4bgv92rcd13ifvqcr0","pricing_plan_id":"cebpf4jnsgd1na2vs0mg"},{"bike_id":"4f5d4b3b-18e6-4221-87b0-604763d82466","system_id":"levelo_inurba_marseille","lat":43.30138,"lon":5.39874,"is_reserved":false,"is_disabled":false,"rental_uris":{"android":"levelo://app?vid=4f5d4b3b-18e6-4221-87b0-604763d82466","ios":"levelo://app?vid=4f5d4b3b-18e6-4221-87b0-604763d82466"},"vehicle_type_id":"4","last_reported":1749755246,"current_range_meters":5600,"station_id":"ce4bh0h2rcd13ifvqd40","pricing_plan_id":"cebpf4jnsgd1na2vs0mg"},{"bike_id":"543ae042-548d-459c-9bf9-84a2ef008637","system_id":"levelo_inurba_marseille","lat":43.28936,"lon":5.366452,"is_reserved":false,"is_disabled":false,"rental_uris":{"android":"levelo://app?vid=543ae042-548d-459c-9bf9-84a2ef008637","ios":"levelo://app?vid=543ae042-548d-459c-9bf9-84a2ef008637"},"vehicle_type_id":"4","last_reported":1749755246,"current_range_meters":5600,"station_id":"ce4bhc92rcd13ifvqetg","pricing_plan_id":"cebpf4jnsgd1na2vs0mg"},{"bike_id":"7663981f-318f-408d-9afc-dc927e71300e","system_id":"levelo_inurba_marseille","lat":43.30337,"lon":5.40445,"is_reserved":false,"is_disabled":false,"rental_uris":{"android":"levelo://app?vid=7663981f-318f-408d-9afc-dc927e71300e","ios":"levelo://app?vid=7663981f-318f-408d-9afc-dc927e71300e"},"vehicle_type_id":"4","last_reported":1749755246,"current_range_meters":6000,"station_id":"ce4bh012rcd13ifvqd10","pricing_plan_id":"cebpf4jnsgd1na2vs0mg"},{"bike_id":"c1535476-9cc2-438d-9642-2d45682d09aa","system_id":"levelo_inurba_marseille","lat":43.29516,"lon":5.39063,"is_reserved":false,"is_disabled":false,"rental_uris":{"android":"levelo://app?vid=c1535476-9cc2-438d-9642-2d45682d09aa","ios":"levelo://app?vid=c1535476-9cc2-438d-9642-2d45682d09aa"},"vehicle_type_id":"4","last_reported":1749755246,"current_range_meters":6000,"station_id":"ce4bh3p2rcd13ifvqdp0","pricing_plan_id":"cebpf4jnsgd1na2vs0mg"},{"bike_id":"1c098d00-64db-4370-9ce1-e3775cd3e1b7","system_id":"levelo_inurba_marseille","lat":43.27994,"lon":5.40011,"is_reserved":false,"is_disabled":false,"rental_uris":{"android":"levelo://app?vid=1c098d00-64db-4370-9ce1-e3775cd3e1b7","ios":"levelo://app?vid=1c098d00-64db-4370-9ce1-e3775cd3e1b7"},"vehicle_type_id":"4","last_reported":1749755246,"current_range_meters":6000,"station_id":"ce4bho92rcd13ifvqh4g","pricing_plan_id":"cebpf4jnsgd1na2vs0mg"},{"bike_id":"8e108a83-e2bf-43e0-9b41-3765b051abd1","system_id":"levelo_inurba_marseille","lat":43.280425,"lon":5.34952,"is_reserved":false,"is_disabled":false,"rental_uris":{"android":"levelo://app?vid=8e108a83-e2bf-43e0-9b41-3765b051abd1","ios":"levelo://app?vid=8e108a83-e2bf-43e0-9b41-3765b051abd1"},"vehicle_type_id":"4","last_reported":1749755246,"current_range_meters":6400,"station_id":"","pricing_plan_id":"cebpf4jnsgd1na2vs0mg"},{"bike_id":"06d6a026-7031-4953-a8c0-b533e34e3215","system_id":"levelo_inurba_marseille","lat":43.30436,"lon":5.38883,"is_reserved":false,"is_disabled":false,"rental_uris":{"android":"levelo://app?vid=06d6a026-7031-4953-a8c0-b533e34e3215","ios":"levelo://app?vid=06d6a026-7031-4953-a8c0-b533e34e3215"},"vehicle_type_id":"4","last_reported":1749755246,"current_range_meters":6400,"station_id":"ce4bgk12rcd13ifvqbi0","pricing_plan_id":"cebpf4jnsgd1na2vs0mg"},{"bike_id":"51817918-4c06-4f60-8045-7e0cfa311479","system_id":"levelo_inurba_marseille","lat":43.305312,"lon":5.365525,"is_reserved":false,"is_disabled":false,"rental_uris":{"android":"levelo://app?vid=51817918-4c06-4f60-8045-7e0cfa311479","ios":"levelo://app?vid=51817918-4c06-4f60-8045-7e0cfa311479"},"vehicle_type_id":"4","last_reported":1749755246,"current_range_meters":6400,"station_id":"ce4bgs12rcd13ifvqcag","pricing_plan_id":"cebpf4jnsgd1na2vs0mg"},{"bike_id":"739029a8-2c97-47b0-b25d-941973c0c99c","system_id":"levelo_inurba_marseille","lat":43.29415,"lon":5.38632,"is_reserved":false,"is_disabled":false,"rental_uris":{"android":"levelo://app?vid=739029a8-2c97-47b0-b25d-941973c0c99c","ios":"levelo://app?vid=739029a8-2c97-47b0-b25d-941973c0c99c"},"vehicle_type_id":"4","last_reported":1749755246,"current_range_meters":6400,"station_id":"ce4bh2h2rcd13ifvqdh0","pricing_plan_id":"cebpf4jnsgd1na2vs0mg"},{"bike_id":"187650c2-eecc-49df-8c17-674161ee20be","system_id":"levelo_inurba_marseille","lat":43.28706,"lon":5.39995,"is_reserved":false,"is_disabled":false,"rental_uris":{"android":"levelo://app?vid=187650c2-eecc-49df-8c17-674161ee20be","ios":"levelo://app?vid=187650c2-eecc-49df-8c17-674161ee20be"},"vehicle_type_id":"4","last_reported":1749755246,"current_range_meters":6400,"station_id":"ce4bho92rcd13ifvqh3g","pricing_plan_id":"cebpf4jnsgd1na2vs0mg"},{"bike_id":"8367a88f-a505-4f91-9a62-165c6f4f513f","system_id":"levelo_inurba_marseille","lat":43.30956,"lon":5.39034,"is_reserved":false,"is_disabled":false,"rental_uris":{"android":"levelo://app?vid=8367a88f-a505-4f91-9a62-165c6f4f513f","ios":"levelo://app?vid=8367a88f-a505-4f91-9a62-165c6f4f513f"},"vehicle_type_id":"4","last_reported":1749755246,"current_range_meters":6800,"station_id":"ce4bgup2rcd13ifvqco0","pricing_plan_id":"cebpf4jnsgd1na2vs0mg"},{"bike_id":"0db0fa86-bcab-4e54-9e80-3c4148e5f15a","system_id":"levelo_inurba_marseille","lat":43.28731,"lon":5.37939,"is_reserved":false,"is_disabled":false,"rental_uris":{"android":"levelo://app?vid=0db0fa86-bcab-4e54-9e80-3c4148e5f15a","ios":"levelo://app?vid=0db0fa86-bcab-4e54-9e80-3c4148e5f15a"},"vehicle_type_id":"4","last_reported":1749755246,"current_range_meters":6800,"station_id":"ce4bh9p2rcd13ifvqec0","pricing_plan_id":"cebpf4jnsgd1na2vs0mg"},{"bike_id":"7e20c1df-8369-4a38-bdd8-a87e12e71e94","system_id":"levelo_inurba_marseille","lat":43.28281,"lon":5.35057,"is_reserved":false,"is_disabled":false,"rental_uris":{"android":"levelo://app?vid=7e20c1df-8369-4a38-bdd8-a87e12e71e94","ios":"levelo://app?vid=7e20c1df-8369-4a38-bdd8-a87e12e71e94"},"vehicle_type_id":"4","last_reported":1749755246,"current_range_meters":6800,"station_id":"ce4bhbp2rcd13ifvqerg","pricing_plan_id":"cebpf4jnsgd1na2vs0mg"},{"bike_id":"52096fb4-691c-4243-be57-1f346e674d23","system_id":"levelo_inurba_marseille","lat":43.29417,"lon":5.38626,"is_reserved":false,"is_disabled":false,"rental_uris":{"android":"levelo://app?vid=52096fb4-691c-4243-be57-1f346e674d23","ios":"levelo://app?vid=52096fb4-691c-4243-be57-1f346e674d23"},"vehicle_type_id":"4","last_reported":1749755246,"current_range_meters":7200,"station_id":"ce4bh2h2rcd13ifvqdh0","pricing_plan_id":"cebpf4jnsgd1na2vs0mg"},{"bike_id":"b96cd191-de74-4d2d-8cbd-beb5c292377d","system_id":"levelo_inurba_marseille","lat":43.28938,"lon":5.38387,"is_reserved":false,"is_disabled":false,"rental_uris":{"android":"levelo://app?vid=b96cd191-de74-4d2d-8cbd-beb5c292377d","ios":"levelo://app?vid=b96cd191-de74-4d2d-8cbd-beb5c292377d"},"vehicle_type_id":"4","last_reported":1749755246,"current_range_meters":7200,"station_id":"ce4bh612rcd13ifvqe6g","pricing_plan_id":"cebpf4jnsgd1na2vs0mg"},{"bike_id":"2827410c-797f-4221-b490-033ac591fd23","system_id":"levelo_inurba_marseille","lat":43.28419,"lon":5.34986,"is_reserved":false,"is_disabled":false,"rental_uris":{"android":"levelo://app?vid=2827410c-797f-4221-b490-033ac591fd23","ios":"levelo://app?vid=2827410c-797f-4221-b490-033ac591fd23"},"vehicle_type_id":"4","last_reported":1749755246,"current_range_meters":7200,"station_id":"ce4bhbh2rcd13ifvqepg","pricing_plan_id":"cebpf4jnsgd1na2vs0mg"},{"bike_id":"8dc568bf-ed0e-41ce-b717-40001c1a5f94","system_id":"levelo_inurba_marseille","lat":43.289403,"lon":5.36386,"is_reserved":false,"is_disabled":false,"rental_uris":{"android":"levelo://app?vid=8dc568bf-ed0e-41ce-b717-40001c1a5f94","ios":"levelo://app?vid=8dc568bf-ed0e-41ce-b717-40001c1a5f94"},"vehicle_type_id":"4","last_reported":1749755246,"current_range_meters":7200,"station_id":"ce4bhc92rcd13ifvqetg","pricing_plan_id":"cebpf4jnsgd1na2vs0mg"},{"bike_id":"2498f197-5eec-4bac-a47b-80769af15a02","system_id":"levelo_inurba_marseille","lat":43.2814,"lon":5.42639,"is_reserved":false,"is_disabled":false,"rental_uris":{"android":"levelo://app?vid=2498f197-5eec-4bac-a47b-80769af15a02","ios":"levelo://app?vid=2498f197-5eec-4bac-a47b-80769af15a02"},"vehicle_type_id":"4","last_reported":1749755246,"current_range_meters":7200,"station_id":"ce4bhnh2rcd13ifvqgug","pricing_plan_id":"cebpf4jnsgd1na2vs0mg"},{"bike_id":"e2089868-5539-48a3-86a8-17bf4cdd7858","system_id":"levelo_inurba_marseille","lat":43.32384,"lon":5.38857,"is_reserved":false,"is_disabled":false,"rental_uris":{"android":"levelo://app?vid=e2089868-5539-48a3-86a8-17bf4cdd7858","ios":"levelo://app?vid=e2089868-5539-48a3-86a8-17bf4cdd7858"},"vehicle_type_id":"4","last_reported":1749755246,"current_range_meters":7200,"station_id":"ce4bhqp2rcd13ifvqhog","pricing_plan_id":"cebpf4jnsgd1na2vs0mg"},{"bike_id":"8105426e-eb6c-4b79-bfaa-254c1b037d55","system_id":"levelo_inurba_marseille","lat":43.32394,"lon":5.36803,"is_reserved":false,"is_disabled":false,"rental_uris":{"android":"levelo://app?vid=8105426e-eb6c-4b79-bfaa-254c1b037d55","ios":"levelo://app?vid=8105426e-eb6c-4b79-bfaa-254c1b037d55"},"vehicle_type_id":"4","last_reported":1749755246,"current_range_meters":7200,"station_id":"ce4bhsh2rcd13ifvqi2g","pricing_plan_id":"cebpf4jnsgd1na2vs0mg"},{"bike_id":"8bc41706-509f-4222-90ef-9fb92e8ba354","system_id":"levelo_inurba_marseille","lat":43.29373,"lon":5.37854,"is_reserved":false,"is_disabled":false,"rental_uris":{"android":"levelo://app?vid=8bc41706-509f-4222-90ef-9fb92e8ba354","ios":"levelo://app?vid=8bc41706-509f-4222-90ef-9fb92e8ba354"},"vehicle_type_id":"4","last_reported":1749755246,"current_range_meters":8000,"station_id":"ce4bgjh2rcd13ifvqbf0","pricing_plan_id":"cebpf4jnsgd1na2vs0mg"},{"bike_id":"4e005dfb-dae3-40d8-a868-f2ecea292bf7","system_id":"levelo_inurba_marseille","lat":43.31682,"lon":5.40475,"is_reserved":false,"is_disabled":false,"rental_uris":{"android":"levelo://app?vid=4e005dfb-dae3-40d8-a868-f2ecea292bf7","ios":"levelo://app?vid=4e005dfb-dae3-40d8-a868-f2ecea292bf7"},"vehicle_type_id":"4","last_reported":1749755246,"current_range_meters":8000,"station_id":"ce4bh012rcd13ifvqd00","pricing_plan_id":"cebpf4jnsgd1na2vs0mg"},{"bike_id":"bf7f8cdd-cf53-45eb-abc6-b0b7ada60a75","system_id":"levelo_inurba_marseille","lat":43.29518,"lon":5.394,"is_reserved":false,"is_disabled":false,"rental_uris":{"android":"levelo://app?vid=bf7f8cdd-cf53-45eb-abc6-b0b7ada60a75","ios":"levelo://app?vid=bf7f8cdd-cf53-45eb-abc6-b0b7ada60a75"},"vehicle_type_id":"4","last_reported":1749755246,"current_range_meters":8000,"station_id":"ce4bh292rcd13ifvqdf0","pricing_plan_id":"cebpf4jnsgd1na2vs0mg"},{"bike_id":"a409f4b7-4e83-41d0-a597-2481cef07922","system_id":"levelo_inurba_marseille","lat":43.29172,"lon":5.35806,"is_reserved":false,"is_disabled":false,"rental_uris":{"android":"levelo://app?vid=a409f4b7-4e83-41d0-a597-2481cef07922","ios":"levelo://app?vid=a409f4b7-4e83-41d0-a597-2481cef07922"},"vehicle_type_id":"4","last_reported":1749755246,"current_range_meters":8000,"station_id":"ce4bhb12rcd13ifvqel0","pricing_plan_id":"cebpf4jnsgd1na2vs0mg"},{"bike_id":"f861cea0-4695-429d-85ba-98151896538f","system_id":"levelo_inurba_marseille","lat":43.273655,"lon":5.362496,"is_reserved":false,"is_disabled":false,"rental_uris":{"android":"levelo://app?vid=f861cea0-4695-429d-85ba-98151896538f","ios":"levelo://app?vid=f861cea0-4695-429d-85ba-98151896538f"},"vehicle_type_id":"4","last_reported":1749755246,"current_range_meters":8000,"station_id":"ce4bhbh2rcd13ifvqeo0","pricing_plan_id":"cebpf4jnsgd1na2vs0mg"},{"bike_id":"e83000b0-5040-42ae-8115-49d91fe311f8","system_id":"levelo_inurba_marseille","lat":43.27421,"lon":5.39415,"is_reserved":false,"is_disabled":false,"rental_uris":{"android":"levelo://app?vid=e83000b0-5040-42ae-8115-49d91fe311f8","ios":"levelo://app?vid=e83000b0-5040-42ae-8115-49d91fe311f8"},"vehicle_type_id":"4","last_reported":1749755246,"current_range_meters":8000,"station_id":"ce4bhdp2rcd13ifvqf20","pricing_plan_id":"cebpf4jnsgd1na2vs0mg"},{"bike_id":"9bc6ac24-e13f-46f8-adc5-df9ee0ba7e4a","system_id":"levelo_inurba_marseille","lat":43.231814,"lon":5.399846,"is_reserved":false,"is_disabled":false,"rental_uris":{"android":"levelo://app?vid=9bc6ac24-e13f-46f8-adc5-df9ee0ba7e4a","ios":"levelo://app?vid=9bc6ac24-e13f-46f8-adc5-df9ee0ba7e4a"},"vehicle_type_id":"4","last_reported":1749755246,"current_range_meters":8400,"station_id":"ce4bhn12rcd13ifvqgqg","pricing_plan_id":"cebpf4jnsgd1na2vs0mg"},{"bike_id":"5620393a-6a0c-4c54-b360-99721b0e20b4","system_id":"levelo_inurba_marseille","lat":43.28607,"lon":5.37071,"is_reserved":false,"is_disabled":false,"rental_uris":{"android":"levelo://app?vid=5620393a-6a0c-4c54-b360-99721b0e20b4","ios":"levelo://app?vid=5620393a-6a0c-4c54-b360-99721b0e20b4"},"vehicle_type_id":"4","last_reported":1749755246,"current_range_meters":8400,"station_id":"ce4bht12rcd13ifvqi60","pricing_plan_id":"cebpf4jnsgd1na2vs0mg"},{"bike_id":"e5ff82fd-cc37-4e1f-aade-050998fb0f61","system_id":"levelo_inurba_marseille","lat":43.26262,"lon":5.37106,"is_reserved":false,"is_disabled":false,"rental_uris":{"android":"levelo://app?vid=e5ff82fd-cc37-4e1f-aade-050998fb0f61","ios":"levelo://app?vid=e5ff82fd-cc37-4e1f-aade-050998fb0f61"},"vehicle_type_id":"4","last_reported":1749755246,"current_range_meters":8800,"station_id":"","pricing_plan_id":"cebpf4jnsgd1na2vs0mg"},{"bike_id":"308cbf69-b866-4a48-b377-e4f7d5e7c70b","system_id":"levelo_inurba_marseille","lat":43.32927,"lon":5.3904,"is_reserved":false,"is_disabled":false,"rental_uris":{"android":"levelo://app?vid=308cbf69-b866-4a48-b377-e4f7d5e7c70b","ios":"levelo://app?vid=308cbf69-b866-4a48-b377-e4f7d5e7c70b"},"vehicle_type_id":"4","last_reported":1749755246,"current_range_meters":8800,"station_id":"","pricing_plan_id":"cebpf4jnsgd1na2vs0mg"},{"bike_id":"2817b2fa-d300-4221-8365-56de6faca748","system_id":"levelo_inurba_marseille","lat":43.29717,"lon":5.36611,"is_reserved":false,"is_disabled":false,"rental_uris":{"android":"levelo://app?vid=2817b2fa-d300-4221-8365-56de6faca748","ios":"levelo://app?vid=2817b2fa-d300-4221-8365-56de6faca748"},"vehicle_type_id":"4","last_reported":1749755246,"current_range_meters":8800,"station_id":"ce4bgn12rcd13ifvqbt0","pricing_plan_id":"cebpf4jnsgd1na2vs0mg"},{"bike_id":"aeee8cc6-0347-4ee5-b11f-280308eb5bfe","system_id":"levelo_inurba_marseille","lat":43.29518,"lon":5.3904,"is_reserved":false,"is_disabled":false,"rental_uris":{"android":"levelo://app?vid=aeee8cc6-0347-4ee5-b11f-280308eb5bfe","ios":"levelo://app?vid=aeee8cc6-0347-4ee5-b11f-280308eb5bfe"},"vehicle_type_id":"4","last_reported":1749755246,"current_range_meters":8800,"station_id":"ce4bh3p2rcd13ifvqdp0","pricing_plan_id":"cebpf4jnsgd1na2vs0mg"},{"bike_id":"15b002d4-08d9-43af-ad76-14b1b0e8c7d6","system_id":"levelo_inurba_marseille","lat":43.29096,"lon":5.38125,"is_reserved":false,"is_disabled":false,"rental_uris":{"android":"levelo://app?vid=15b002d4-08d9-43af-ad76-14b1b0e8c7d6","ios":"levelo://app?vid=15b002d4-08d9-43af-ad76-14b1b0e8c7d6"},"vehicle_type_id":"4","last_reported":1749755246,"current_range_meters":8800,"station_id":"ce4bh512rcd13ifvqe2g","pricing_plan_id":"cebpf4jnsgd1na2vs0mg"},{"bike_id":"d247ad51-ef03-487d-8357-c29090bf77cb","system_id":"levelo_inurba_marseille","lat":43.27373,"lon":5.36258,"is_reserved":false,"is_disabled":false,"rental_uris":{"android":"levelo://app?vid=d247ad51-ef03-487d-8357-c29090bf77cb","ios":"levelo://app?vid=d247ad51-ef03-487d-8357-c29090bf77cb"},"vehicle_type_id":"4","last_reported":1749755246,"current_range_meters":8800,"station_id":"ce4bhbh2rcd13ifvqeo0","pricing_plan_id":"cebpf4jnsgd1na2vs0mg"},{"bike_id":"471482c4-3af0-4191-8754-546fd71b1782","system_id":"levelo_inurba_marseille","lat":43.28935,"lon":5.36395,"is_reserved":false,"is_disabled":false,"rental_uris":{"android":"levelo://app?vid=471482c4-3af0-4191-8754-546fd71b1782","ios":"levelo://app?vid=471482c4-3af0-4191-8754-546fd71b1782"},"vehicle_type_id":"4","last_reported":1749755246,"current_range_meters":8800,"station_id":"ce4bhc92rcd13ifvqetg","pricing_plan_id":"cebpf4jnsgd1na2vs0mg"},{"bike_id":"37af7825-6bb3-42a5-bd11-608b30bd16be","system_id":"levelo_inurba_marseille","lat":43.29256,"lon":5.40911,"is_reserved":false,"is_disabled":false,"rental_uris":{"android":"levelo://app?vid=37af7825-6bb3-42a5-bd11-608b30bd16be","ios":"levelo://app?vid=37af7825-6bb3-42a5-bd11-608b30bd16be"},"vehicle_type_id":"4","last_reported":1749755246,"current_range_meters":9200,"station_id":"ce4bh192rcd13ifvqdc0","pricing_plan_id":"cebpf4jnsgd1na2vs0mg"},{"bike_id":"bfa5128e-7704-4f7a-8aaa-2560abfcc8bd","system_id":"levelo_inurba_marseille","lat":43.28424,"lon":5.34987,"is_reserved":false,"is_disabled":false,"rental_uris":{"android":"levelo://app?vid=bfa5128e-7704-4f7a-8aaa-2560abfcc8bd","ios":"levelo://app?vid=bfa5128e-7704-4f7a-8aaa-2560abfcc8bd"},"vehicle_type_id":"4","last_reported":1749755246,"current_range_meters":9200,"station_id":"ce4bhbh2rcd13ifvqepg","pricing_plan_id":"cebpf4jnsgd1na2vs0mg"},{"bike_id":"680de6a0-642c-485b-8349-3bfed0ae404b","system_id":"levelo_inurba_marseille","lat":43.2783,"lon":5.39205,"is_reserved":false,"is_disabled":false,"rental_uris":{"android":"levelo://app?vid=680de6a0-642c-485b-8349-3bfed0ae404b","ios":"levelo://app?vid=680de6a0-642c-485b-8349-3bfed0ae404b"},"vehicle_type_id":"4","last_reported":1749755246,"current_range_meters":9200,"station_id":"ce4bhjp2rcd13ifvqga0","pricing_plan_id":"cebpf4jnsgd1na2vs0mg"},{"bike_id":"a2421370-e442-436f-a98a-844d44299694","system_id":"levelo_inurba_marseille","lat":43.323643,"lon":5.367645,"is_reserved":false,"is_disabled":false,"rental_uris":{"android":"levelo://app?vid=a2421370-e442-436f-a98a-844d44299694","ios":"levelo://app?vid=a2421370-e442-436f-a98a-844d44299694"},"vehicle_type_id":"4","last_reported":1749755246,"current_range_meters":9200,"station_id":"ce4bhsh2rcd13ifvqi2g","pricing_plan_id":"cebpf4jnsgd1na2vs0mg"},{"bike_id":"02548f10-7d27-4891-b409-ff738e81fe7f","system_id":"levelo_inurba_marseille","lat":43.29601,"lon":5.37727,"is_reserved":false,"is_disabled":false,"rental_uris":{"android":"levelo://app?vid=02548f10-7d27-4891-b409-ff738e81fe7f","ios":"levelo://app?vid=02548f10-7d27-4891-b409-ff738e81fe7f"},"vehicle_type_id":"4","last_reported":1749755246,"current_range_meters":9600,"station_id":"ce4bgi92rcd13ifvqb90","pricing_plan_id":"cebpf4jnsgd1na2vs0mg"},{"bike_id":"9f90a87d-1238-4eb8-aa94-0ecc62cf4a40","system_id":"levelo_inurba_marseille","lat":43.29527,"lon":5.38551,"is_reserved":false,"is_disabled":false,"rental_uris":{"android":"levelo://app?vid=9f90a87d-1238-4eb8-aa94-0ecc62cf4a40","ios":"levelo://app?vid=9f90a87d-1238-4eb8-aa94-0ecc62cf4a40"},"vehicle_type_id":"4","last_reported":1749755246,"current_range_meters":9600,"station_id":"ce4bgih2rcd13ifvqba0","pricing_plan_id":"cebpf4jnsgd1na2vs0mg"},{"bike_id":"4410865e-be0d-4aae-bffb-13b30691eab5","system_id":"levelo_inurba_marseille","lat":43.29529,"lon":5.38545,"is_reserved":false,"is_disabled":false,"rental_uris":{"android":"levelo://app?vid=4410865e-be0d-4aae-bffb-13b30691eab5","ios":"levelo://app?vid=4410865e-be0d-4aae-bffb-13b30691eab5"},"vehicle_type_id":"4","last_reported":1749755246,"current_range_meters":9600,"station_id":"ce4bgih2rcd13ifvqba0","pricing_plan_id":"cebpf4jnsgd1na2vs0mg"},{"bike_id":"e027fc5d-6244-4edd-b0e7-0ffcd2e0830b","system_id":"levelo_inurba_marseille","lat":43.29908,"lon":5.3814,"is_reserved":false,"is_disabled":false,"rental_uris":{"android":"levelo://app?vid=e027fc5d-6244-4edd-b0e7-0ffcd2e0830b","ios":"levelo://app?vid=e027fc5d-6244-4edd-b0e7-0ffcd2e0830b"},"vehicle_type_id":"4","last_reported":1749755246,"current_range_meters":9600,"station_id":"ce4bgj12rcd13ifvqbc0","pricing_plan_id":"cebpf4jnsgd1na2vs0mg"},{"bike_id":"2f9c99bc-c6e6-4087-a196-2b4a1e64fbaa","system_id":"levelo_inurba_marseille","lat":43.3095,"lon":5.39034,"is_reserved":false,"is_disabled":false,"rental_uris":{"android":"levelo://app?vid=2f9c99bc-c6e6-4087-a196-2b4a1e64fbaa","ios":"levelo://app?vid=2f9c99bc-c6e6-4087-a196-2b4a1e64fbaa"},"vehicle_type_id":"4","last_reported":1749755246,"current_range_meters":9600,"station_id":"ce4bgup2rcd13ifvqco0","pricing_plan_id":"cebpf4jnsgd1na2vs0mg"},{"bike_id":"e9d62e20-f73d-41fb-94b3-b1558155f952","system_id":"levelo_inurba_marseille","lat":43.30591,"lon":5.3936,"is_reserved":false,"is_disabled":false,"rental_uris":{"android":"levelo://app?vid=e9d62e20-f73d-41fb-94b3-b1558155f952","ios":"levelo://app?vid=e9d62e20-f73d-41fb-94b3-b1558155f952"},"vehicle_type_id":"4","last_reported":1749755246,"current_range_meters":9600,"station_id":"ce4bh0p2rcd13ifvqd80","pricing_plan_id":"cebpf4jnsgd1na2vs0mg"},{"bike_id":"63cdbf21-d966-422d-a906-33cbddd7e62e","system_id":"levelo_inurba_marseille","lat":43.2926,"lon":5.38431,"is_reserved":false,"is_disabled":false,"rental_uris":{"android":"levelo://app?vid=63cdbf21-d966-422d-a906-33cbddd7e62e","ios":"levelo://app?vid=63cdbf21-d966-422d-a906-33cbddd7e62e"},"vehicle_type_id":"4","last_reported":1749755246,"current_range_meters":9600,"station_id":"ce4bh692rcd13ifvqea0","pricing_plan_id":"cebpf4jnsgd1na2vs0mg"},{"bike_id":"287f909c-2708-4b69-8f31-66ec8f9d3dc7","system_id":"levelo_inurba_marseille","lat":43.2901,"lon":5.35599,"is_reserved":false,"is_disabled":false,"rental_uris":{"android":"levelo://app?vid=287f909c-2708-4b69-8f31-66ec8f9d3dc7","ios":"levelo://app?vid=287f909c-2708-4b69-8f31-66ec8f9d3dc7"},"vehicle_type_id":"4","last_reported":1749755246,"current_range_meters":9600,"station_id":"ce4bhb92rcd13ifvqen0","pricing_plan_id":"cebpf4jnsgd1na2vs0mg"},{"bike_id":"4d71417b-a043-4e06-aa6b-d57c378d602b","system_id":"levelo_inurba_marseille","lat":43.28941,"lon":5.36392,"is_reserved":false,"is_disabled":false,"rental_uris":{"android":"levelo://app?vid=4d71417b-a043-4e06-aa6b-d57c378d602b","ios":"levelo://app?vid=4d71417b-a043-4e06-aa6b-d57c378d602b"},"vehicle_type_id":"4","last_reported":1749755246,"current_range_meters":9600,"station_id":"ce4bhc92rcd13ifvqetg","pricing_plan_id":"cebpf4jnsgd1na2vs0mg"},{"bike_id":"538be204-294c-44d3-be2e-ddd41840eef1","system_id":"levelo_inurba_marseille","lat":43.217487,"lon":5.346023,"is_reserved":false,"is_disabled":false,"rental_uris":{"android":"levelo://app?vid=538be204-294c-44d3-be2e-ddd41840eef1","ios":"levelo://app?vid=538be204-294c-44d3-be2e-ddd41840eef1"},"vehicle_type_id":"4","last_reported":1749755246,"current_range_meters":9600,"station_id":"st_cvj6r9ubvosntc0bgbag","pricing_plan_id":"cebpf4jnsgd1na2vs0mg"},{"bike_id":"a25b84b4-c252-4eda-97fb-1a1f22303c5d","system_id":"levelo_inurba_marseille","lat":43.31388,"lon":5.37428,"is_reserved":false,"is_disabled":false,"rental_uris":{"android":"levelo://app?vid=a25b84b4-c252-4eda-97fb-1a1f22303c5d","ios":"levelo://app?vid=a25b84b4-c252-4eda-97fb-1a1f22303c5d"},"vehicle_type_id":"4","last_reported":1749755246,"current_range_meters":10000,"station_id":"","pricing_plan_id":"cebpf4jnsgd1na2vs0mg"},{"bike_id":"1717f435-c72a-4547-a696-dc46813c4019","system_id":"levelo_inurba_marseille","lat":43.27562,"lon":5.38422,"is_reserved":false,"is_disabled":false,"rental_uris":{"android":"levelo://app?vid=1717f435-c72a-4547-a696-dc46813c4019","ios":"levelo://app?vid=1717f435-c72a-4547-a696-dc46813c4019"},"vehicle_type_id":"4","last_reported":1749755246,"current_range_meters":10000,"station_id":"ce4bhh92rcd13ifvqfi0","pricing_plan_id":"cebpf4jnsgd1na2vs0mg"},{"bike_id":"500320f2-e4bb-4906-a414-ca67470055ab","system_id":"levelo_inurba_marseille","lat":43.25645,"lon":5.38583,"is_reserved":false,"is_disabled":false,"rental_uris":{"android":"levelo://app?vid=500320f2-e4bb-4906-a414-ca67470055ab","ios":"levelo://app?vid=500320f2-e4bb-4906-a414-ca67470055ab"},"vehicle_type_id":"4","last_reported":1749755246,"current_range_meters":10800,"station_id":"","pricing_plan_id":"cebpf4jnsgd1na2vs0mg"},{"bike_id":"501fe5cc-ec9f-4031-8e12-9c9a87dfd25d","system_id":"levelo_inurba_marseille","lat":43.3178,"lon":5.406295,"is_reserved":false,"is_disabled":false,"rental_uris":{"android":"levelo://app?vid=501fe5cc-ec9f-4031-8e12-9c9a87dfd25d","ios":"levelo://app?vid=501fe5cc-ec9f-4031-8e12-9c9a87dfd25d"},"vehicle_type_id":"4","last_reported":1749755246,"current_range_meters":10800,"station_id":"","pricing_plan_id":"cebpf4jnsgd1na2vs0mg"},{"bike_id":"9421705d-861d-47a7-a1f7-418ee17b7c59","system_id":"levelo_inurba_marseille","lat":43.30261,"lon":5.40084,"is_reserved":false,"is_disabled":false,"rental_uris":{"android":"levelo://app?vid=9421705d-861d-47a7-a1f7-418ee17b7c59","ios":"levelo://app?vid=9421705d-861d-47a7-a1f7-418ee17b7c59"},"vehicle_type_id":"4","last_reported":1749755246,"current_range_meters":10800,"station_id":"ce4bgvh2rcd13ifvqcs0","pricing_plan_id":"cebpf4jnsgd1na2vs0mg"},{"bike_id":"91a1f979-6440-4ff8-89bb-629c13016f7e","system_id":"levelo_inurba_marseille","lat":43.28844,"lon":5.35849,"is_reserved":false,"is_disabled":false,"rental_uris":{"android":"levelo://app?vid=91a1f979-6440-4ff8-89bb-629c13016f7e","ios":"levelo://app?vid=91a1f979-6440-4ff8-89bb-629c13016f7e"},"vehicle_type_id":"4","last_reported":1749755246,"current_range_meters":10800,"station_id":"ce4bhb12rcd13ifvqem0","pricing_plan_id":"cebpf4jnsgd1na2vs0mg"},{"bike_id":"ac1341a0-bb64-4b40-8d47-eafab89a5104","system_id":"levelo_inurba_marseille","lat":43.29007,"lon":5.35608,"is_reserved":false,"is_disabled":false,"rental_uris":{"android":"levelo://app?vid=ac1341a0-bb64-4b40-8d47-eafab89a5104","ios":"levelo://app?vid=ac1341a0-bb64-4b40-8d47-eafab89a5104"},"vehicle_type_id":"4","last_reported":1749755246,"current_range_meters":10800,"station_id":"ce4bhb92rcd13ifvqen0","pricing_plan_id":"cebpf4jnsgd1na2vs0mg"},{"bike_id":"ce599661-b917-43fc-88bc-2c84e8a3aa11","system_id":"levelo_inurba_marseille","lat":43.29219,"lon":5.36062,"is_reserved":false,"is_disabled":false,"rental_uris":{"android":"levelo://app?vid=ce599661-b917-43fc-88bc-2c84e8a3aa11","ios":"levelo://app?vid=ce599661-b917-43fc-88bc-2c84e8a3aa11"},"vehicle_type_id":"4","last_reported":1749755246,"current_range_meters":10800,"station_id":"ce4bhbh2rcd13ifvqeqg","pricing_plan_id":"cebpf4jnsgd1na2vs0mg"},{"bike_id":"7efb9c38-aa8c-40dd-ae1b-c8702e458101","system_id":"levelo_inurba_marseille","lat":43.26574,"lon":5.39027,"is_reserved":false,"is_disabled":false,"rental_uris":{"android":"levelo://app?vid=7efb9c38-aa8c-40dd-ae1b-c8702e458101","ios":"levelo://app?vid=7efb9c38-aa8c-40dd-ae1b-c8702e458101"},"vehicle_type_id":"4","last_reported":1749755246,"current_range_meters":10800,"station_id":"ce4bhe12rcd13ifvqf30","pricing_plan_id":"cebpf4jnsgd1na2vs0mg"},{"bike_id":"faaefb95-b5bf-4859-babf-25b13646d8c2","system_id":"levelo_inurba_marseille","lat":43.2409,"lon":5.37745,"is_reserved":false,"is_disabled":false,"rental_uris":{"android":"levelo://app?vid=faaefb95-b5bf-4859-babf-25b13646d8c2","ios":"levelo://app?vid=faaefb95-b5bf-4859-babf-25b13646d8c2"},"vehicle_type_id":"4","last_reported":1749755246,"current_range_meters":10800,"station_id":"ce4bhnp2rcd13ifvqgvg","pricing_plan_id":"cebpf4jnsgd1na2vs0mg"},{"bike_id":"a4da5d44-67f7-4b38-9842-dcdd4554c1df","system_id":"levelo_inurba_marseille","lat":43.23187,"lon":5.35561,"is_reserved":false,"is_disabled":false,"rental_uris":{"android":"levelo://app?vid=a4da5d44-67f7-4b38-9842-dcdd4554c1df","ios":"levelo://app?vid=a4da5d44-67f7-4b38-9842-dcdd4554c1df"},"vehicle_type_id":"4","last_reported":1749755246,"current_range_meters":10800,"station_id":"ce4bhu92rcd13ifvqi70","pricing_plan_id":"cebpf4jnsgd1na2vs0mg"},{"bike_id":"1100f4c3-1f64-4c33-bc2f-74348db0df3b","system_id":"levelo_inurba_marseille","lat":43.28724,"lon":5.36084,"is_reserved":false,"is_disabled":false,"rental_uris":{"android":"levelo://app?vid=1100f4c3-1f64-4c33-bc2f-74348db0df3b","ios":"levelo://app?vid=1100f4c3-1f64-4c33-bc2f-74348db0df3b"},"vehicle_type_id":"4","last_reported":1749755246,"current_range_meters":10800,"station_id":"cki0cbj6b192h4jlfktg","pricing_plan_id":"cebpf4jnsgd1na2vs0mg"},{"bike_id":"5c530312-6e88-4442-a436-0521ad144918","system_id":"levelo_inurba_marseille","lat":43.29525,"lon":5.37505,"is_reserved":false,"is_disabled":false,"rental_uris":{"android":"levelo://app?vid=5c530312-6e88-4442-a436-0521ad144918","ios":"levelo://app?vid=5c530312-6e88-4442-a436-0521ad144918"},"vehicle_type_id":"4","last_reported":1749755246,"current_range_meters":11200,"station_id":"ce4bgkp2rcd13ifvqbmg","pricing_plan_id":"cebpf4jnsgd1na2vs0mg"},{"bike_id":"8fe91cc0-7e94-4c8e-ba14-077f7df3b78e","system_id":"levelo_inurba_marseille","lat":43.28985,"lon":5.35625,"is_reserved":false,"is_disabled":false,"rental_uris":{"android":"levelo://app?vid=8fe91cc0-7e94-4c8e-ba14-077f7df3b78e","ios":"levelo://app?vid=8fe91cc0-7e94-4c8e-ba14-077f7df3b78e"},"vehicle_type_id":"4","last_reported":1749755246,"current_range_meters":11200,"station_id":"ce4bhb92rcd13ifvqen0","pricing_plan_id":"cebpf4jnsgd1na2vs0mg"},{"bike_id":"4618eb3b-1a85-40ca-b351-621ab34ac8f3","system_id":"levelo_inurba_marseille","lat":43.27355,"lon":5.36256,"is_reserved":false,"is_disabled":false,"rental_uris":{"android":"levelo://app?vid=4618eb3b-1a85-40ca-b351-621ab34ac8f3","ios":"levelo://app?vid=4618eb3b-1a85-40ca-b351-621ab34ac8f3"},"vehicle_type_id":"4","last_reported":1749755246,"current_range_meters":11200,"station_id":"ce4bhbh2rcd13ifvqeo0","pricing_plan_id":"cebpf4jnsgd1na2vs0mg"},{"bike_id":"ddfae20c-6677-4d37-bef3-43eb134e2fe8","system_id":"levelo_inurba_marseille","lat":43.24179,"lon":5.39731,"is_reserved":false,"is_disabled":false,"rental_uris":{"android":"levelo://app?vid=ddfae20c-6677-4d37-bef3-43eb134e2fe8","ios":"levelo://app?vid=ddfae20c-6677-4d37-bef3-43eb134e2fe8"},"vehicle_type_id":"4","last_reported":1749755246,"current_range_meters":11200,"station_id":"ce4bhn12rcd13ifvqgpg","pricing_plan_id":"cebpf4jnsgd1na2vs0mg"},{"bike_id":"70546086-ba4e-41f2-b47d-cf6da2cb1120","system_id":"levelo_inurba_marseille","lat":43.292513,"lon":5.384443,"is_reserved":false,"is_disabled":false,"rental_uris":{"android":"levelo://app?vid=70546086-ba4e-41f2-b47d-cf6da2cb1120","ios":"levelo://app?vid=70546086-ba4e-41f2-b47d-cf6da2cb1120"},"vehicle_type_id":"4","last_reported":1749755246,"current_range_meters":11600,"station_id":"ce4bh692rcd13ifvqea0","pricing_plan_id":"cebpf4jnsgd1na2vs0mg"},{"bike_id":"a3546dd7-67cb-4959-bbd5-06d4906941c3","system_id":"levelo_inurba_marseille","lat":43.2922,"lon":5.360404,"is_reserved":false,"is_disabled":false,"rental_uris":{"android":"levelo://app?vid=a3546dd7-67cb-4959-bbd5-06d4906941c3","ios":"levelo://app?vid=a3546dd7-67cb-4959-bbd5-06d4906941c3"},"vehicle_type_id":"4","last_reported":1749755246,"current_range_meters":11600,"station_id":"ce4bhbh2rcd13ifvqeqg","pricing_plan_id":"cebpf4jnsgd1na2vs0mg"},{"bike_id":"4f5d4f7f-82eb-4b6d-a9fa-d9a19a3749ec","system_id":"levelo_inurba_marseille","lat":43.26191,"lon":5.37445,"is_reserved":false,"is_disabled":false,"rental_uris":{"android":"levelo://app?vid=4f5d4f7f-82eb-4b6d-a9fa-d9a19a3749ec","ios":"levelo://app?vid=4f5d4f7f-82eb-4b6d-a9fa-d9a19a3749ec"},"vehicle_type_id":"4","last_reported":1749755246,"current_range_meters":11600,"station_id":"ce4bhgp2rcd13ifvqfc0","pricing_plan_id":"cebpf4jnsgd1na2vs0mg"},{"bike_id":"040bd027-fa7d-42c9-807f-e534b24621e0","system_id":"levelo_inurba_marseille","lat":43.32324,"lon":5.4062,"is_reserved":false,"is_disabled":false,"rental_uris":{"android":"levelo://app?vid=040bd027-fa7d-42c9-807f-e534b24621e0","ios":"levelo://app?vid=040bd027-fa7d-42c9-807f-e534b24621e0"},"vehicle_type_id":"4","last_reported":1749755246,"current_range_meters":11600,"station_id":"ce4bhq92rcd13ifvqhjg","pricing_plan_id":"cebpf4jnsgd1na2vs0mg"},{"bike_id":"ae1a7de6-12d2-4b14-a8d1-080ed857588d","system_id":"levelo_inurba_marseille","lat":43.29798,"lon":5.39345,"is_reserved":false,"is_disabled":false,"rental_uris":{"android":"levelo://app?vid=ae1a7de6-12d2-4b14-a8d1-080ed857588d","ios":"levelo://app?vid=ae1a7de6-12d2-4b14-a8d1-080ed857588d"},"vehicle_type_id":"4","last_reported":1749755246,"current_range_meters":11600,"station_id":"chh1huq6cuj3fo74tm60","pricing_plan_id":"cebpf4jnsgd1na2vs0mg"},{"bike_id":"97421c04-2630-4fc1-9da9-b17d88602c5f","system_id":"levelo_inurba_marseille","lat":43.337687,"lon":5.37437,"is_reserved":false,"is_disabled":false,"rental_uris":{"android":"levelo://app?vid=97421c04-2630-4fc1-9da9-b17d88602c5f","ios":"levelo://app?vid=97421c04-2630-4fc1-9da9-b17d88602c5f"},"vehicle_type_id":"4","last_reported":1749755246,"current_range_meters":12000,"station_id":"","pricing_plan_id":"cebpf4jnsgd1na2vs0mg"},{"bike_id":"4e7d1d63-98bf-4128-858d-31de0f5b7122","system_id":"levelo_inurba_marseille","lat":43.29906,"lon":5.3747,"is_reserved":false,"is_disabled":false,"rental_uris":{"android":"levelo://app?vid=4e7d1d63-98bf-4128-858d-31de0f5b7122","ios":"levelo://app?vid=4e7d1d63-98bf-4128-858d-31de0f5b7122"},"vehicle_type_id":"4","last_reported":1749755246,"current_range_meters":12000,"station_id":"ce4bgjh2rcd13ifvqbg0","pricing_plan_id":"cebpf4jnsgd1na2vs0mg"},{"bike_id":"bcc36335-30bf-427e-bc24-5acde7748b29","system_id":"levelo_inurba_marseille","lat":43.28934,"lon":5.36636,"is_reserved":false,"is_disabled":false,"rental_uris":{"android":"levelo://app?vid=bcc36335-30bf-427e-bc24-5acde7748b29","ios":"levelo://app?vid=bcc36335-30bf-427e-bc24-5acde7748b29"},"vehicle_type_id":"4","last_reported":1749755246,"current_range_meters":12000,"station_id":"ce4bhap2rcd13ifvqek0","pricing_plan_id":"cebpf4jnsgd1na2vs0mg"},{"bike_id":"19282de7-6c3e-4bab-a4d4-caa75e0a1ed3","system_id":"levelo_inurba_marseille","lat":43.28417,"lon":5.34985,"is_reserved":false,"is_disabled":false,"rental_uris":{"android":"levelo://app?vid=19282de7-6c3e-4bab-a4d4-caa75e0a1ed3","ios":"levelo://app?vid=19282de7-6c3e-4bab-a4d4-caa75e0a1ed3"},"vehicle_type_id":"4","last_reported":1749755246,"current_range_meters":12000,"station_id":"ce4bhbh2rcd13ifvqepg","pricing_plan_id":"cebpf4jnsgd1na2vs0mg"},{"bike_id":"2676e0f2-8978-4433-8c2e-f7f8580a07b8","system_id":"levelo_inurba_marseille","lat":43.2862,"lon":5.350981,"is_reserved":false,"is_disabled":false,"rental_uris":{"android":"levelo://app?vid=2676e0f2-8978-4433-8c2e-f7f8580a07b8","ios":"levelo://app?vid=2676e0f2-8978-4433-8c2e-f7f8580a07b8"},"vehicle_type_id":"4","last_reported":1749755246,"current_range_meters":12000,"station_id":"ce4bhch2rcd13ifvqeug","pricing_plan_id":"cebpf4jnsgd1na2vs0mg"},{"bike_id":"591adc0a-d672-42ad-b6ee-b90fed42abf3","system_id":"levelo_inurba_marseille","lat":43.25126,"lon":5.40321,"is_reserved":false,"is_disabled":false,"rental_uris":{"android":"levelo://app?vid=591adc0a-d672-42ad-b6ee-b90fed42abf3","ios":"levelo://app?vid=591adc0a-d672-42ad-b6ee-b90fed42abf3"},"vehicle_type_id":"4","last_reported":1749755246,"current_range_meters":12000,"station_id":"ce4bhlh2rcd13ifvqgig","pricing_plan_id":"cebpf4jnsgd1na2vs0mg"},{"bike_id":"2270fc47-030f-4145-8cca-7571df5d7bb2","system_id":"levelo_inurba_marseille","lat":43.28161,"lon":5.42632,"is_reserved":false,"is_disabled":false,"rental_uris":{"android":"levelo://app?vid=2270fc47-030f-4145-8cca-7571df5d7bb2","ios":"levelo://app?vid=2270fc47-030f-4145-8cca-7571df5d7bb2"},"vehicle_type_id":"4","last_reported":1749755246,"current_range_meters":12000,"station_id":"ce4bhnh2rcd13ifvqgug","pricing_plan_id":"cebpf4jnsgd1na2vs0mg"},{"bike_id":"446c4544-659b-465d-8e7b-8d54adbdb24a","system_id":"levelo_inurba_marseille","lat":43.30877,"lon":5.37198,"is_reserved":false,"is_disabled":false,"rental_uris":{"android":"levelo://app?vid=446c4544-659b-465d-8e7b-8d54adbdb24a","ios":"levelo://app?vid=446c4544-659b-465d-8e7b-8d54adbdb24a"},"vehicle_type_id":"4","last_reported":1749755246,"current_range_meters":12400,"station_id":"ce4bguh2rcd13ifvqckg","pricing_plan_id":"cebpf4jnsgd1na2vs0mg"},{"bike_id":"b2277778-2d83-4c3f-b9eb-fba89fbf0a5c","system_id":"levelo_inurba_marseille","lat":43.29884,"lon":5.38905,"is_reserved":false,"is_disabled":false,"rental_uris":{"android":"levelo://app?vid=b2277778-2d83-4c3f-b9eb-fba89fbf0a5c","ios":"levelo://app?vid=b2277778-2d83-4c3f-b9eb-fba89fbf0a5c"},"vehicle_type_id":"4","last_reported":1749755246,"current_range_meters":12400,"station_id":"ce4bh392rcd13ifvqdl0","pricing_plan_id":"cebpf4jnsgd1na2vs0mg"},{"bike_id":"e2d73edd-ab09-4323-8ecb-853ebc0a86d1","system_id":"levelo_inurba_marseille","lat":43.29256,"lon":5.38446,"is_reserved":false,"is_disabled":false,"rental_uris":{"android":"levelo://app?vid=e2d73edd-ab09-4323-8ecb-853ebc0a86d1","ios":"levelo://app?vid=e2d73edd-ab09-4323-8ecb-853ebc0a86d1"},"vehicle_type_id":"4","last_reported":1749755246,"current_range_meters":12400,"station_id":"ce4bh692rcd13ifvqea0","pricing_plan_id":"cebpf4jnsgd1na2vs0mg"},{"bike_id":"b9976ba6-16e5-4fca-8a0c-40eee7440a39","system_id":"levelo_inurba_marseille","lat":43.289443,"lon":5.363987,"is_reserved":false,"is_disabled":false,"rental_uris":{"android":"levelo://app?vid=b9976ba6-16e5-4fca-8a0c-40eee7440a39","ios":"levelo://app?vid=b9976ba6-16e5-4fca-8a0c-40eee7440a39"},"vehicle_type_id":"4","last_reported":1749755246,"current_range_meters":12400,"station_id":"ce4bhc92rcd13ifvqetg","pricing_plan_id":"cebpf4jnsgd1na2vs0mg"},{"bike_id":"204e2e8f-0eda-4d6b-9925-4e042c1f7f5e","system_id":"levelo_inurba_marseille","lat":43.26512,"lon":5.37305,"is_reserved":false,"is_disabled":false,"rental_uris":{"android":"levelo://app?vid=204e2e8f-0eda-4d6b-9925-4e042c1f7f5e","ios":"levelo://app?vid=204e2e8f-0eda-4d6b-9925-4e042c1f7f5e"},"vehicle_type_id":"4","last_reported":1749755246,"current_range_meters":12400,"station_id":"ce4bhg12rcd13ifvqf70","pricing_plan_id":"cebpf4jnsgd1na2vs0mg"},{"bike_id":"812a7d1f-fdb4-4f0d-83d5-abeb697c7fd2","system_id":"levelo_inurba_marseille","lat":43.3088,"lon":5.3965,"is_reserved":false,"is_disabled":false,"rental_uris":{"android":"levelo://app?vid=812a7d1f-fdb4-4f0d-83d5-abeb697c7fd2","ios":"levelo://app?vid=812a7d1f-fdb4-4f0d-83d5-abeb697c7fd2"},"vehicle_type_id":"4","last_reported":1749755246,"current_range_meters":12800,"station_id":"ce4bh012rcd13ifvqcv0","pricing_plan_id":"cebpf4jnsgd1na2vs0mg"},{"bike_id":"abd0d78f-a5d4-4339-93f7-6b3fc51d77c5","system_id":"levelo_inurba_marseille","lat":43.36626,"lon":5.35554,"is_reserved":false,"is_disabled":false,"rental_uris":{"android":"levelo://app?vid=abd0d78f-a5d4-4339-93f7-6b3fc51d77c5","ios":"levelo://app?vid=abd0d78f-a5d4-4339-93f7-6b3fc51d77c5"},"vehicle_type_id":"4","last_reported":1749755246,"current_range_meters":13600,"station_id":"","pricing_plan_id":"cebpf4jnsgd1na2vs0mg"},{"bike_id":"1268e070-f02d-4537-93df-0bfd5c4daa05","system_id":"levelo_inurba_marseille","lat":43.3275,"lon":5.37727,"is_reserved":false,"is_disabled":false,"rental_uris":{"android":"levelo://app?vid=1268e070-f02d-4537-93df-0bfd5c4daa05","ios":"levelo://app?vid=1268e070-f02d-4537-93df-0bfd5c4daa05"},"vehicle_type_id":"4","last_reported":1749755246,"current_range_meters":13600,"station_id":"","pricing_plan_id":"cebpf4jnsgd1na2vs0mg"},{"bike_id":"8d60347d-541c-40fb-90ca-203bf6bd520a","system_id":"levelo_inurba_marseille","lat":43.271224,"lon":5.363934,"is_reserved":false,"is_disabled":false,"rental_uris":{"android":"levelo://app?vid=8d60347d-541c-40fb-90ca-203bf6bd520a","ios":"levelo://app?vid=8d60347d-541c-40fb-90ca-203bf6bd520a"},"vehicle_type_id":"4","last_reported":1749755246,"current_range_meters":13600,"station_id":"","pricing_plan_id":"cebpf4jnsgd1na2vs0mg"},{"bike_id":"83ad8241-60c4-42de-b76a-fbfc2eb5a88b","system_id":"levelo_inurba_marseille","lat":43.298813,"lon":5.3644,"is_reserved":false,"is_disabled":false,"rental_uris":{"android":"levelo://app?vid=83ad8241-60c4-42de-b76a-fbfc2eb5a88b","ios":"levelo://app?vid=83ad8241-60c4-42de-b76a-fbfc2eb5a88b"},"vehicle_type_id":"4","last_reported":1749755246,"current_range_meters":13600,"station_id":"","pricing_plan_id":"cebpf4jnsgd1na2vs0mg"},{"bike_id":"e5ef7447-82af-477b-846f-d44631249354","system_id":"levelo_inurba_marseille","lat":43.32483,"lon":5.38839,"is_reserved":false,"is_disabled":false,"rental_uris":{"android":"levelo://app?vid=e5ef7447-82af-477b-846f-d44631249354","ios":"levelo://app?vid=e5ef7447-82af-477b-846f-d44631249354"},"vehicle_type_id":"4","last_reported":1749755246,"current_range_meters":13600,"station_id":"","pricing_plan_id":"cebpf4jnsgd1na2vs0mg"},{"bike_id":"b4762a37-05e2-4844-82ba-8bc5e60a046d","system_id":"levelo_inurba_marseille","lat":43.29517,"lon":5.39399,"is_reserved":false,"is_disabled":false,"rental_uris":{"android":"levelo://app?vid=b4762a37-05e2-4844-82ba-8bc5e60a046d","ios":"levelo://app?vid=b4762a37-05e2-4844-82ba-8bc5e60a046d"},"vehicle_type_id":"4","last_reported":1749755246,"current_range_meters":13600,"station_id":"ce4bh292rcd13ifvqdf0","pricing_plan_id":"cebpf4jnsgd1na2vs0mg"},{"bike_id":"bbfe53f6-0e76-4f8d-a0e5-c4f4a7102c7d","system_id":"levelo_inurba_marseille","lat":43.24182,"lon":5.39725,"is_reserved":false,"is_disabled":false,"rental_uris":{"android":"levelo://app?vid=bbfe53f6-0e76-4f8d-a0e5-c4f4a7102c7d","ios":"levelo://app?vid=bbfe53f6-0e76-4f8d-a0e5-c4f4a7102c7d"},"vehicle_type_id":"4","last_reported":1749755246,"current_range_meters":13600,"station_id":"ce4bhn12rcd13ifvqgpg","pricing_plan_id":"cebpf4jnsgd1na2vs0mg"},{"bike_id":"3dc41015-5ddd-4661-97b8-b37e9fb90404","system_id":"levelo_inurba_marseille","lat":43.27993,"lon":5.41677,"is_reserved":false,"is_disabled":false,"rental_uris":{"android":"levelo://app?vid=3dc41015-5ddd-4661-97b8-b37e9fb90404","ios":"levelo://app?vid=3dc41015-5ddd-4661-97b8-b37e9fb90404"},"vehicle_type_id":"4","last_reported":1749755246,"current_range_meters":13600,"station_id":"ce4bho12rcd13ifvqh1g","pricing_plan_id":"cebpf4jnsgd1na2vs0mg"},{"bike_id":"2bcbef13-a603-4ae9-8cf8-218fb0233a1f","system_id":"levelo_inurba_marseille","lat":43.29632,"lon":5.38678,"is_reserved":false,"is_disabled":false,"rental_uris":{"android":"levelo://app?vid=2bcbef13-a603-4ae9-8cf8-218fb0233a1f","ios":"levelo://app?vid=2bcbef13-a603-4ae9-8cf8-218fb0233a1f"},"vehicle_type_id":"4","last_reported":1749755246,"current_range_meters":14000,"station_id":"","pricing_plan_id":"cebpf4jnsgd1na2vs0mg"},{"bike_id":"6e464720-93b0-4699-80fe-881649eb71cd","system_id":"levelo_inurba_marseille","lat":43.232715,"lon":5.355901,"is_reserved":false,"is_disabled":false,"rental_uris":{"android":"levelo://app?vid=6e464720-93b0-4699-80fe-881649eb71cd","ios":"levelo://app?vid=6e464720-93b0-4699-80fe-881649eb71cd"},"vehicle_type_id":"4","last_reported":1749755246,"current_range_meters":14000,"station_id":"","pricing_plan_id":"cebpf4jnsgd1na2vs0mg"},{"bike_id":"0629f18a-16ac-4d8c-aa9a-8fe6f0df7b50","system_id":"levelo_inurba_marseille","lat":43.31069,"lon":5.38357,"is_reserved":false,"is_disabled":false,"rental_uris":{"android":"levelo://app?vid=0629f18a-16ac-4d8c-aa9a-8fe6f0df7b50","ios":"levelo://app?vid=0629f18a-16ac-4d8c-aa9a-8fe6f0df7b50"},"vehicle_type_id":"4","last_reported":1749755246,"current_range_meters":14000,"station_id":"ce4bgv92rcd13ifvqcr0","pricing_plan_id":"cebpf4jnsgd1na2vs0mg"},{"bike_id":"a57641cc-3d39-43fb-b167-bd2c0f9ced7f","system_id":"levelo_inurba_marseille","lat":43.29023,"lon":5.38139,"is_reserved":false,"is_disabled":false,"rental_uris":{"android":"levelo://app?vid=a57641cc-3d39-43fb-b167-bd2c0f9ced7f","ios":"levelo://app?vid=a57641cc-3d39-43fb-b167-bd2c0f9ced7f"},"vehicle_type_id":"4","last_reported":1749755246,"current_range_meters":14000,"station_id":"ce4bh4p2rcd13ifvqe1g","pricing_plan_id":"cebpf4jnsgd1na2vs0mg"},{"bike_id":"1d5013f5-64e8-41d6-bb98-0a31adf36120","system_id":"levelo_inurba_marseille","lat":43.29007,"lon":5.35606,"is_reserved":false,"is_disabled":false,"rental_uris":{"android":"levelo://app?vid=1d5013f5-64e8-41d6-bb98-0a31adf36120","ios":"levelo://app?vid=1d5013f5-64e8-41d6-bb98-0a31adf36120"},"vehicle_type_id":"4","last_reported":1749755246,"current_range_meters":14000,"station_id":"ce4bhb92rcd13ifvqen0","pricing_plan_id":"cebpf4jnsgd1na2vs0mg"},{"bike_id":"5182a58d-75e7-4cb9-858e-dd9980dd4b05","system_id":"levelo_inurba_marseille","lat":43.2621,"lon":5.37443,"is_reserved":false,"is_disabled":false,"rental_uris":{"android":"levelo://app?vid=5182a58d-75e7-4cb9-858e-dd9980dd4b05","ios":"levelo://app?vid=5182a58d-75e7-4cb9-858e-dd9980dd4b05"},"vehicle_type_id":"4","last_reported":1749755246,"current_range_meters":14000,"station_id":"ce4bhgp2rcd13ifvqfc0","pricing_plan_id":"cebpf4jnsgd1na2vs0mg"},{"bike_id":"059edbc4-e610-41eb-bb60-80e716055028","system_id":"levelo_inurba_marseille","lat":43.24167,"lon":5.363934,"is_reserved":false,"is_disabled":false,"rental_uris":{"android":"levelo://app?vid=059edbc4-e610-41eb-bb60-80e716055028","ios":"levelo://app?vid=059edbc4-e610-41eb-bb60-80e716055028"},"vehicle_type_id":"4","last_reported":1749755246,"current_range_meters":14000,"station_id":"cpo36qri1sfpv3e86is0","pricing_plan_id":"cebpf4jnsgd1na2vs0mg"},{"bike_id":"eade777e-06f0-467c-b7cd-25c2e840afca","system_id":"levelo_inurba_marseille","lat":43.3091,"lon":5.36845,"is_reserved":false,"is_disabled":false,"rental_uris":{"android":"levelo://app?vid=eade777e-06f0-467c-b7cd-25c2e840afca","ios":"levelo://app?vid=eade777e-06f0-467c-b7cd-25c2e840afca"},"vehicle_type_id":"4","last_reported":1749755246,"current_range_meters":14400,"station_id":"ce4bgn92rcd13ifvqbvg","pricing_plan_id":"cebpf4jnsgd1na2vs0mg"},{"bike_id":"83bd769e-9402-4777-b227-7d1174de2f17","system_id":"levelo_inurba_marseille","lat":43.29522,"lon":5.39406,"is_reserved":false,"is_disabled":false,"rental_uris":{"android":"levelo://app?vid=83bd769e-9402-4777-b227-7d1174de2f17","ios":"levelo://app?vid=83bd769e-9402-4777-b227-7d1174de2f17"},"vehicle_type_id":"4","last_reported":1749755246,"current_range_meters":14400,"station_id":"ce4bh292rcd13ifvqdf0","pricing_plan_id":"cebpf4jnsgd1na2vs0mg"},{"bike_id":"f333da0e-50fd-499c-a139-78697c5b3bc4","system_id":"levelo_inurba_marseille","lat":43.25723,"lon":5.41107,"is_reserved":false,"is_disabled":false,"rental_uris":{"android":"levelo://app?vid=f333da0e-50fd-499c-a139-78697c5b3bc4","ios":"levelo://app?vid=f333da0e-50fd-499c-a139-78697c5b3bc4"},"vehicle_type_id":"4","last_reported":1749755246,"current_range_meters":14400,"station_id":"ce4bhkp2rcd13ifvqgd0","pricing_plan_id":"cebpf4jnsgd1na2vs0mg"},{"bike_id":"28f334dd-5257-4d4c-abae-13df84351a9b","system_id":"levelo_inurba_marseille","lat":43.2953,"lon":5.38551,"is_reserved":false,"is_disabled":false,"rental_uris":{"android":"levelo://app?vid=28f334dd-5257-4d4c-abae-13df84351a9b","ios":"levelo://app?vid=28f334dd-5257-4d4c-abae-13df84351a9b"},"vehicle_type_id":"4","last_reported":1749755246,"current_range_meters":14800,"station_id":"ce4bgih2rcd13ifvqba0","pricing_plan_id":"cebpf4jnsgd1na2vs0mg"},{"bike_id":"f979f8c5-2f58-4571-b086-8b1beef1e214","system_id":"levelo_inurba_marseille","lat":43.29586,"lon":5.38114,"is_reserved":false,"is_disabled":false,"rental_uris":{"android":"levelo://app?vid=f979f8c5-2f58-4571-b086-8b1beef1e214","ios":"levelo://app?vid=f979f8c5-2f58-4571-b086-8b1beef1e214"},"vehicle_type_id":"4","last_reported":1749755246,"current_range_meters":14800,"station_id":"ce4bgl12rcd13ifvqbo0","pricing_plan_id":"cebpf4jnsgd1na2vs0mg"},{"bike_id":"60246790-7d60-4571-8e56-96ed240a4bff","system_id":"levelo_inurba_marseille","lat":43.29526,"lon":5.39399,"is_reserved":false,"is_disabled":false,"rental_uris":{"android":"levelo://app?vid=60246790-7d60-4571-8e56-96ed240a4bff","ios":"levelo://app?vid=60246790-7d60-4571-8e56-96ed240a4bff"},"vehicle_type_id":"4","last_reported":1749755246,"current_range_meters":14800,"station_id":"ce4bh292rcd13ifvqdf0","pricing_plan_id":"cebpf4jnsgd1na2vs0mg"},{"bike_id":"6829fb22-c817-4f00-ae91-d5ec35666a21","system_id":"levelo_inurba_marseille","lat":43.29013,"lon":5.35617,"is_reserved":false,"is_disabled":false,"rental_uris":{"android":"levelo://app?vid=6829fb22-c817-4f00-ae91-d5ec35666a21","ios":"levelo://app?vid=6829fb22-c817-4f00-ae91-d5ec35666a21"},"vehicle_type_id":"4","last_reported":1749755246,"current_range_meters":14800,"station_id":"ce4bhb92rcd13ifvqen0","pricing_plan_id":"cebpf4jnsgd1na2vs0mg"},{"bike_id":"c05f49db-7581-42c0-8765-d0bc585bd13c","system_id":"levelo_inurba_marseille","lat":43.28412,"lon":5.34981,"is_reserved":false,"is_disabled":false,"rental_uris":{"android":"levelo://app?vid=c05f49db-7581-42c0-8765-d0bc585bd13c","ios":"levelo://app?vid=c05f49db-7581-42c0-8765-d0bc585bd13c"},"vehicle_type_id":"4","last_reported":1749755246,"current_range_meters":14800,"station_id":"ce4bhbh2rcd13ifvqepg","pricing_plan_id":"cebpf4jnsgd1na2vs0mg"},{"bike_id":"2b3487c0-6d03-4c54-801f-a27aa1820b7e","system_id":"levelo_inurba_marseille","lat":43.26532,"lon":5.37292,"is_reserved":false,"is_disabled":false,"rental_uris":{"android":"levelo://app?vid=2b3487c0-6d03-4c54-801f-a27aa1820b7e","ios":"levelo://app?vid=2b3487c0-6d03-4c54-801f-a27aa1820b7e"},"vehicle_type_id":"4","last_reported":1749755246,"current_range_meters":14800,"station_id":"ce4bhg12rcd13ifvqf70","pricing_plan_id":"cebpf4jnsgd1na2vs0mg"},{"bike_id":"78e4331f-c67f-4812-a1cf-4af0acc5e2d6","system_id":"levelo_inurba_marseille","lat":43.323842,"lon":5.367629,"is_reserved":false,"is_disabled":false,"rental_uris":{"android":"levelo://app?vid=78e4331f-c67f-4812-a1cf-4af0acc5e2d6","ios":"levelo://app?vid=78e4331f-c67f-4812-a1cf-4af0acc5e2d6"},"vehicle_type_id":"4","last_reported":1749755246,"current_range_meters":14800,"station_id":"ce4bhsh2rcd13ifvqi2g","pricing_plan_id":"cebpf4jnsgd1na2vs0mg"},{"bike_id":"8fafd498-1c1d-47c2-93c6-f483806eb51b","system_id":"levelo_inurba_marseille","lat":43.29789,"lon":5.3934,"is_reserved":false,"is_disabled":false,"rental_uris":{"android":"levelo://app?vid=8fafd498-1c1d-47c2-93c6-f483806eb51b","ios":"levelo://app?vid=8fafd498-1c1d-47c2-93c6-f483806eb51b"},"vehicle_type_id":"4","last_reported":1749755246,"current_range_meters":14800,"station_id":"chh1huq6cuj3fo74tm60","pricing_plan_id":"cebpf4jnsgd1na2vs0mg"},{"bike_id":"c0bd4251-d527-48a7-9378-e4e80c1c274f","system_id":"levelo_inurba_marseille","lat":43.31843,"lon":5.37379,"is_reserved":false,"is_disabled":false,"rental_uris":{"android":"levelo://app?vid=c0bd4251-d527-48a7-9378-e4e80c1c274f","ios":"levelo://app?vid=c0bd4251-d527-48a7-9378-e4e80c1c274f"},"vehicle_type_id":"4","last_reported":1749755246,"current_range_meters":15200,"station_id":"","pricing_plan_id":"cebpf4jnsgd1na2vs0mg"},{"bike_id":"13c243cd-9cd7-41ad-a6fc-cb8f0f4eabf6","system_id":"levelo_inurba_marseille","lat":43.2177,"lon":5.34585,"is_reserved":false,"is_disabled":false,"rental_uris":{"android":"levelo://app?vid=13c243cd-9cd7-41ad-a6fc-cb8f0f4eabf6","ios":"levelo://app?vid=13c243cd-9cd7-41ad-a6fc-cb8f0f4eabf6"},"vehicle_type_id":"4","last_reported":1749755246,"current_range_meters":15200,"station_id":"st_cvj6r9ubvosntc0bgbag","pricing_plan_id":"cebpf4jnsgd1na2vs0mg"},{"bike_id":"e0b035df-615f-4bab-9596-39da68e53fd2","system_id":"levelo_inurba_marseille","lat":43.26186,"lon":5.42071,"is_reserved":false,"is_disabled":false,"rental_uris":{"android":"levelo://app?vid=e0b035df-615f-4bab-9596-39da68e53fd2","ios":"levelo://app?vid=e0b035df-615f-4bab-9596-39da68e53fd2"},"vehicle_type_id":"4","last_reported":1749755246,"current_range_meters":16000,"station_id":"","pricing_plan_id":"cebpf4jnsgd1na2vs0mg"},{"bike_id":"c8102abf-9227-4fcc-9174-09f9b0bcd8fa","system_id":"levelo_inurba_marseille","lat":43.31291,"lon":5.37297,"is_reserved":false,"is_disabled":false,"rental_uris":{"android":"levelo://app?vid=c8102abf-9227-4fcc-9174-09f9b0bcd8fa","ios":"levelo://app?vid=c8102abf-9227-4fcc-9174-09f9b0bcd8fa"},"vehicle_type_id":"4","last_reported":1749755246,"current_range_meters":16000,"station_id":"","pricing_plan_id":"cebpf4jnsgd1na2vs0mg"},{"bike_id":"62c0da7f-aff9-4ffa-86b8-6966d8f0e555","system_id":"levelo_inurba_marseille","lat":43.211946,"lon":5.350723,"is_reserved":false,"is_disabled":false,"rental_uris":{"android":"levelo://app?vid=62c0da7f-aff9-4ffa-86b8-6966d8f0e555","ios":"levelo://app?vid=62c0da7f-aff9-4ffa-86b8-6966d8f0e555"},"vehicle_type_id":"4","last_reported":1749755246,"current_range_meters":16000,"station_id":"","pricing_plan_id":"cebpf4jnsgd1na2vs0mg"},{"bike_id":"29362021-f0ee-4674-b45c-0308740c71d4","system_id":"levelo_inurba_marseille","lat":43.29805,"lon":5.38085,"is_reserved":false,"is_disabled":false,"rental_uris":{"android":"levelo://app?vid=29362021-f0ee-4674-b45c-0308740c71d4","ios":"levelo://app?vid=29362021-f0ee-4674-b45c-0308740c71d4"},"vehicle_type_id":"4","last_reported":1749755246,"current_range_meters":16000,"station_id":"ce4bgip2rcd13ifvqbb0","pricing_plan_id":"cebpf4jnsgd1na2vs0mg"},{"bike_id":"e4a23bba-73b5-4345-9336-40f34ad716f0","system_id":"levelo_inurba_marseille","lat":43.293714,"lon":5.378507,"is_reserved":false,"is_disabled":false,"rental_uris":{"android":"levelo://app?vid=e4a23bba-73b5-4345-9336-40f34ad716f0","ios":"levelo://app?vid=e4a23bba-73b5-4345-9336-40f34ad716f0"},"vehicle_type_id":"4","last_reported":1749755246,"current_range_meters":16000,"station_id":"ce4bgjh2rcd13ifvqbf0","pricing_plan_id":"cebpf4jnsgd1na2vs0mg"},{"bike_id":"011179fe-5ac4-45c5-9515-0e8558a2c9ca","system_id":"levelo_inurba_marseille","lat":43.30458,"lon":5.3791,"is_reserved":false,"is_disabled":false,"rental_uris":{"android":"levelo://app?vid=011179fe-5ac4-45c5-9515-0e8558a2c9ca","ios":"levelo://app?vid=011179fe-5ac4-45c5-9515-0e8558a2c9ca"},"vehicle_type_id":"4","last_reported":1749755246,"current_range_meters":16000,"station_id":"ce4bgup2rcd13ifvqcn0","pricing_plan_id":"cebpf4jnsgd1na2vs0mg"},{"bike_id":"c38ef803-b070-4643-9cf5-587873c15159","system_id":"levelo_inurba_marseille","lat":43.31164,"lon":5.38726,"is_reserved":false,"is_disabled":false,"rental_uris":{"android":"levelo://app?vid=c38ef803-b070-4643-9cf5-587873c15159","ios":"levelo://app?vid=c38ef803-b070-4643-9cf5-587873c15159"},"vehicle_type_id":"4","last_reported":1749755246,"current_range_meters":16000,"station_id":"ce4bgv12rcd13ifvqcp0","pricing_plan_id":"cebpf4jnsgd1na2vs0mg"},{"bike_id":"25c21661-3e60-4b25-9764-5e44dcc6cef1","system_id":"levelo_inurba_marseille","lat":43.29417,"lon":5.38629,"is_reserved":false,"is_disabled":false,"rental_uris":{"android":"levelo://app?vid=25c21661-3e60-4b25-9764-5e44dcc6cef1","ios":"levelo://app?vid=25c21661-3e60-4b25-9764-5e44dcc6cef1"},"vehicle_type_id":"4","last_reported":1749755246,"current_range_meters":16000,"station_id":"ce4bh2h2rcd13ifvqdh0","pricing_plan_id":"cebpf4jnsgd1na2vs0mg"},{"bike_id":"f1b39c7d-55be-497b-bc8b-760a382a62a6","system_id":"levelo_inurba_marseille","lat":43.29097,"lon":5.3813,"is_reserved":false,"is_disabled":false,"rental_uris":{"android":"levelo://app?vid=f1b39c7d-55be-497b-bc8b-760a382a62a6","ios":"levelo://app?vid=f1b39c7d-55be-497b-bc8b-760a382a62a6"},"vehicle_type_id":"4","last_reported":1749755246,"current_range_meters":16000,"station_id":"ce4bh512rcd13ifvqe2g","pricing_plan_id":"cebpf4jnsgd1na2vs0mg"},{"bike_id":"b1c0c214-4053-4a2f-bbbe-413f0b3efbbc","system_id":"levelo_inurba_marseille","lat":43.297455,"lon":5.381125,"is_reserved":false,"is_disabled":false,"rental_uris":{"android":"levelo://app?vid=b1c0c214-4053-4a2f-bbbe-413f0b3efbbc","ios":"levelo://app?vid=b1c0c214-4053-4a2f-bbbe-413f0b3efbbc"},"vehicle_type_id":"4","last_reported":1749755246,"current_range_meters":16000,"station_id":"ce4bh5p2rcd13ifvqe4g","pricing_plan_id":"cebpf4jnsgd1na2vs0mg"},{"bike_id":"042f12e9-29c3-45ce-ad38-ac27e87709fa","system_id":"levelo_inurba_marseille","lat":43.28658,"lon":5.36354,"is_reserved":false,"is_disabled":false,"rental_uris":{"android":"levelo://app?vid=042f12e9-29c3-45ce-ad38-ac27e87709fa","ios":"levelo://app?vid=042f12e9-29c3-45ce-ad38-ac27e87709fa"},"vehicle_type_id":"4","last_reported":1749755246,"current_range_meters":16000,"station_id":"ce4bhah2rcd13ifvqej0","pricing_plan_id":"cebpf4jnsgd1na2vs0mg"},{"bike_id":"d1800039-3b0f-42fc-b02a-5c09c49e357a","system_id":"levelo_inurba_marseille","lat":43.284093,"lon":5.34992,"is_reserved":false,"is_disabled":false,"rental_uris":{"android":"levelo://app?vid=d1800039-3b0f-42fc-b02a-5c09c49e357a","ios":"levelo://app?vid=d1800039-3b0f-42fc-b02a-5c09c49e357a"},"vehicle_type_id":"4","last_reported":1749755246,"current_range_meters":16000,"station_id":"ce4bhbh2rcd13ifvqepg","pricing_plan_id":"cebpf4jnsgd1na2vs0mg"},{"bike_id":"32390cef-5b90-463a-82d6-0824f7a86908","system_id":"levelo_inurba_marseille","lat":43.28411,"lon":5.34994,"is_reserved":false,"is_disabled":false,"rental_uris":{"android":"levelo://app?vid=32390cef-5b90-463a-82d6-0824f7a86908","ios":"levelo://app?vid=32390cef-5b90-463a-82d6-0824f7a86908"},"vehicle_type_id":"4","last_reported":1749755246,"current_range_meters":16000,"station_id":"ce4bhbh2rcd13ifvqepg","pricing_plan_id":"cebpf4jnsgd1na2vs0mg"},{"bike_id":"566c7291-85cb-414c-ace7-f588a8181d84","system_id":"levelo_inurba_marseille","lat":43.24066,"lon":5.37763,"is_reserved":false,"is_disabled":false,"rental_uris":{"android":"levelo://app?vid=566c7291-85cb-414c-ace7-f588a8181d84","ios":"levelo://app?vid=566c7291-85cb-414c-ace7-f588a8181d84"},"vehicle_type_id":"4","last_reported":1749755246,"current_range_meters":16000,"station_id":"ce4bhnp2rcd13ifvqgvg","pricing_plan_id":"cebpf4jnsgd1na2vs0mg"},{"bike_id":"c171c45b-54f6-4654-92bf-38d80f408ff3","system_id":"levelo_inurba_marseille","lat":43.27948,"lon":5.4105,"is_reserved":false,"is_disabled":false,"rental_uris":{"android":"levelo://app?vid=c171c45b-54f6-4654-92bf-38d80f408ff3","ios":"levelo://app?vid=c171c45b-54f6-4654-92bf-38d80f408ff3"},"vehicle_type_id":"4","last_reported":1749755246,"current_range_meters":16000,"station_id":"ce4bhnp2rcd13ifvqh0g","pricing_plan_id":"cebpf4jnsgd1na2vs0mg"},{"bike_id":"41902e46-3363-402b-89a9-77321257c96b","system_id":"levelo_inurba_marseille","lat":43.32375,"lon":5.36772,"is_reserved":false,"is_disabled":false,"rental_uris":{"android":"levelo://app?vid=41902e46-3363-402b-89a9-77321257c96b","ios":"levelo://app?vid=41902e46-3363-402b-89a9-77321257c96b"},"vehicle_type_id":"4","last_reported":1749755246,"current_range_meters":16000,"station_id":"ce4bhsh2rcd13ifvqi2g","pricing_plan_id":"cebpf4jnsgd1na2vs0mg"},{"bike_id":"346f3f80-6b15-4406-b905-bb78596f5bac","system_id":"levelo_inurba_marseille","lat":43.32377,"lon":5.36756,"is_reserved":false,"is_disabled":false,"rental_uris":{"android":"levelo://app?vid=346f3f80-6b15-4406-b905-bb78596f5bac","ios":"levelo://app?vid=346f3f80-6b15-4406-b905-bb78596f5bac"},"vehicle_type_id":"4","last_reported":1749755246,"current_range_meters":16000,"station_id":"ce4bhsh2rcd13ifvqi2g","pricing_plan_id":"cebpf4jnsgd1na2vs0mg"},{"bike_id":"e466cd78-b401-4f09-8f2e-2152c3b43548","system_id":"levelo_inurba_marseille","lat":43.2979,"lon":5.39335,"is_reserved":false,"is_disabled":false,"rental_uris":{"android":"levelo://app?vid=e466cd78-b401-4f09-8f2e-2152c3b43548","ios":"levelo://app?vid=e466cd78-b401-4f09-8f2e-2152c3b43548"},"vehicle_type_id":"4","last_reported":1749755246,"current_range_meters":16000,"station_id":"chh1huq6cuj3fo74tm60","pricing_plan_id":"cebpf4jnsgd1na2vs0mg"},{"bike_id":"01f4c9d0-534c-42a8-8e11-e1e852c7168d","system_id":"levelo_inurba_marseille","lat":43.24168,"lon":5.36398,"is_reserved":false,"is_disabled":false,"rental_uris":{"android":"levelo://app?vid=01f4c9d0-534c-42a8-8e11-e1e852c7168d","ios":"levelo://app?vid=01f4c9d0-534c-42a8-8e11-e1e852c7168d"},"vehicle_type_id":"4","last_reported":1749755246,"current_range_meters":16000,"station_id":"cpo36qri1sfpv3e86is0","pricing_plan_id":"cebpf4jnsgd1na2vs0mg"},{"bike_id":"0e496414-0a37-42cd-a276-30509f7961c2","system_id":"levelo_inurba_marseille","lat":43.29452,"lon":5.386695,"is_reserved":false,"is_disabled":false,"rental_uris":{"android":"levelo://app?vid=0e496414-0a37-42cd-a276-30509f7961c2","ios":"levelo://app?vid=0e496414-0a37-42cd-a276-30509f7961c2"},"vehicle_type_id":"4","last_reported":1749755246,"current_range_meters":16400,"station_id":"","pricing_plan_id":"cebpf4jnsgd1na2vs0mg"},{"bike_id":"7f239495-d1f8-4a6a-bb49-3acf97925453","system_id":"levelo_inurba_marseille","lat":43.31703,"lon":5.37746,"is_reserved":false,"is_disabled":false,"rental_uris":{"android":"levelo://app?vid=7f239495-d1f8-4a6a-bb49-3acf97925453","ios":"levelo://app?vid=7f239495-d1f8-4a6a-bb49-3acf97925453"},"vehicle_type_id":"4","last_reported":1749755246,"current_range_meters":16400,"station_id":"ce4bgth2rcd13ifvqch0","pricing_plan_id":"cebpf4jnsgd1na2vs0mg"},{"bike_id":"76fc7f80-5f7a-4277-a87d-df147974ae1f","system_id":"levelo_inurba_marseille","lat":43.29199,"lon":5.3932,"is_reserved":false,"is_disabled":false,"rental_uris":{"android":"levelo://app?vid=76fc7f80-5f7a-4277-a87d-df147974ae1f","ios":"levelo://app?vid=76fc7f80-5f7a-4277-a87d-df147974ae1f"},"vehicle_type_id":"4","last_reported":1749755246,"current_range_meters":16400,"station_id":"ce4bh192rcd13ifvqdd0","pricing_plan_id":"cebpf4jnsgd1na2vs0mg"},{"bike_id":"440a25bd-6f2b-4d02-ac2c-ad8aededcb48","system_id":"levelo_inurba_marseille","lat":43.284332,"lon":5.375111,"is_reserved":false,"is_disabled":false,"rental_uris":{"android":"levelo://app?vid=440a25bd-6f2b-4d02-ac2c-ad8aededcb48","ios":"levelo://app?vid=440a25bd-6f2b-4d02-ac2c-ad8aededcb48"},"vehicle_type_id":"4","last_reported":1749755246,"current_range_meters":16400,"station_id":"ce4bh412rcd13ifvqds0","pricing_plan_id":"cebpf4jnsgd1na2vs0mg"},{"bike_id":"333485d2-b203-4c52-87ac-42e42256dd9d","system_id":"levelo_inurba_marseille","lat":43.2926,"lon":5.38446,"is_reserved":false,"is_disabled":false,"rental_uris":{"android":"levelo://app?vid=333485d2-b203-4c52-87ac-42e42256dd9d","ios":"levelo://app?vid=333485d2-b203-4c52-87ac-42e42256dd9d"},"vehicle_type_id":"4","last_reported":1749755246,"current_range_meters":16400,"station_id":"ce4bh692rcd13ifvqea0","pricing_plan_id":"cebpf4jnsgd1na2vs0mg"},{"bike_id":"1e9c82fc-5e6a-4b9a-a43d-a8373a93162a","system_id":"levelo_inurba_marseille","lat":43.28657,"lon":5.36353,"is_reserved":false,"is_disabled":false,"rental_uris":{"android":"levelo://app?vid=1e9c82fc-5e6a-4b9a-a43d-a8373a93162a","ios":"levelo://app?vid=1e9c82fc-5e6a-4b9a-a43d-a8373a93162a"},"vehicle_type_id":"4","last_reported":1749755246,"current_range_meters":16400,"station_id":"ce4bhah2rcd13ifvqej0","pricing_plan_id":"cebpf4jnsgd1na2vs0mg"},{"bike_id":"dc8d791b-973d-4f6b-9b6b-43529331e2de","system_id":"levelo_inurba_marseille","lat":43.26591,"lon":5.37287,"is_reserved":false,"is_disabled":false,"rental_uris":{"android":"levelo://app?vid=dc8d791b-973d-4f6b-9b6b-43529331e2de","ios":"levelo://app?vid=dc8d791b-973d-4f6b-9b6b-43529331e2de"},"vehicle_type_id":"4","last_reported":1749755246,"current_range_meters":16400,"station_id":"ce4bhg12rcd13ifvqf70","pricing_plan_id":"cebpf4jnsgd1na2vs0mg"},{"bike_id":"4a1ebb57-de4c-466d-8a5a-f3907adc6246","system_id":"levelo_inurba_marseille","lat":43.27931,"lon":5.4102,"is_reserved":false,"is_disabled":false,"rental_uris":{"android":"levelo://app?vid=4a1ebb57-de4c-466d-8a5a-f3907adc6246","ios":"levelo://app?vid=4a1ebb57-de4c-466d-8a5a-f3907adc6246"},"vehicle_type_id":"4","last_reported":1749755246,"current_range_meters":16400,"station_id":"ce4bhnp2rcd13ifvqh0g","pricing_plan_id":"cebpf4jnsgd1na2vs0mg"},{"bike_id":"600da287-0374-4ee0-bea4-ba6902340b5e","system_id":"levelo_inurba_marseille","lat":43.2748,"lon":5.36016,"is_reserved":false,"is_disabled":false,"rental_uris":{"android":"levelo://app?vid=600da287-0374-4ee0-bea4-ba6902340b5e","ios":"levelo://app?vid=600da287-0374-4ee0-bea4-ba6902340b5e"},"vehicle_type_id":"4","last_reported":1749755246,"current_range_meters":16800,"station_id":"","pricing_plan_id":"cebpf4jnsgd1na2vs0mg"},{"bike_id":"24498e2b-508e-423b-bd3d-992e1db31c43","system_id":"levelo_inurba_marseille","lat":43.30951,"lon":5.39048,"is_reserved":false,"is_disabled":false,"rental_uris":{"android":"levelo://app?vid=24498e2b-508e-423b-bd3d-992e1db31c43","ios":"levelo://app?vid=24498e2b-508e-423b-bd3d-992e1db31c43"},"vehicle_type_id":"4","last_reported":1749755246,"current_range_meters":16800,"station_id":"ce4bgup2rcd13ifvqco0","pricing_plan_id":"cebpf4jnsgd1na2vs0mg"},{"bike_id":"e649f7c3-a725-4ea7-a1d6-c4549e8cb230","system_id":"levelo_inurba_marseille","lat":43.311744,"lon":5.387243,"is_reserved":false,"is_disabled":false,"rental_uris":{"android":"levelo://app?vid=e649f7c3-a725-4ea7-a1d6-c4549e8cb230","ios":"levelo://app?vid=e649f7c3-a725-4ea7-a1d6-c4549e8cb230"},"vehicle_type_id":"4","last_reported":1749755246,"current_range_meters":16800,"station_id":"ce4bgv12rcd13ifvqcp0","pricing_plan_id":"cebpf4jnsgd1na2vs0mg"},{"bike_id":"b59c32c2-482a-42c6-964a-d8f789bdc20d","system_id":"levelo_inurba_marseille","lat":43.2978,"lon":5.40417,"is_reserved":false,"is_disabled":false,"rental_uris":{"android":"levelo://app?vid=b59c32c2-482a-42c6-964a-d8f789bdc20d","ios":"levelo://app?vid=b59c32c2-482a-42c6-964a-d8f789bdc20d"},"vehicle_type_id":"4","last_reported":1749755246,"current_range_meters":16800,"station_id":"ce4bh112rcd13ifvqd90","pricing_plan_id":"cebpf4jnsgd1na2vs0mg"},{"bike_id":"f2729263-336e-4aae-9a49-fcf15f232cf8","system_id":"levelo_inurba_marseille","lat":43.28861,"lon":5.35845,"is_reserved":false,"is_disabled":false,"rental_uris":{"android":"levelo://app?vid=f2729263-336e-4aae-9a49-fcf15f232cf8","ios":"levelo://app?vid=f2729263-336e-4aae-9a49-fcf15f232cf8"},"vehicle_type_id":"4","last_reported":1749755246,"current_range_meters":16800,"station_id":"ce4bhb12rcd13ifvqem0","pricing_plan_id":"cebpf4jnsgd1na2vs0mg"},{"bike_id":"348a2936-196d-4718-a204-85529389b2c8","system_id":"levelo_inurba_marseille","lat":43.2792,"lon":5.39578,"is_reserved":false,"is_disabled":false,"rental_uris":{"android":"levelo://app?vid=348a2936-196d-4718-a204-85529389b2c8","ios":"levelo://app?vid=348a2936-196d-4718-a204-85529389b2c8"},"vehicle_type_id":"4","last_reported":1749755246,"current_range_meters":16800,"station_id":"ce4bhf92rcd13ifvqf40","pricing_plan_id":"cebpf4jnsgd1na2vs0mg"},{"bike_id":"6facbc0d-f1b5-4dc3-86d4-5c1204834925","system_id":"levelo_inurba_marseille","lat":43.280476,"lon":5.348157,"is_reserved":false,"is_disabled":false,"rental_uris":{"android":"levelo://app?vid=6facbc0d-f1b5-4dc3-86d4-5c1204834925","ios":"levelo://app?vid=6facbc0d-f1b5-4dc3-86d4-5c1204834925"},"vehicle_type_id":"4","last_reported":1749755246,"current_range_meters":17200,"station_id":"","pricing_plan_id":"cebpf4jnsgd1na2vs0mg"},{"bike_id":"6c80c3da-e113-4651-8579-ae4d211fc1f3","system_id":"levelo_inurba_marseille","lat":43.29267,"lon":5.38435,"is_reserved":false,"is_disabled":false,"rental_uris":{"android":"levelo://app?vid=6c80c3da-e113-4651-8579-ae4d211fc1f3","ios":"levelo://app?vid=6c80c3da-e113-4651-8579-ae4d211fc1f3"},"vehicle_type_id":"4","last_reported":1749755246,"current_range_meters":17200,"station_id":"ce4bh692rcd13ifvqea0","pricing_plan_id":"cebpf4jnsgd1na2vs0mg"},{"bike_id":"be6b7e9d-db1c-40c5-8288-f0241a2b29cb","system_id":"levelo_inurba_marseille","lat":43.28418,"lon":5.34985,"is_reserved":false,"is_disabled":false,"rental_uris":{"android":"levelo://app?vid=be6b7e9d-db1c-40c5-8288-f0241a2b29cb","ios":"levelo://app?vid=be6b7e9d-db1c-40c5-8288-f0241a2b29cb"},"vehicle_type_id":"4","last_reported":1749755246,"current_range_meters":17200,"station_id":"ce4bhbh2rcd13ifvqepg","pricing_plan_id":"cebpf4jnsgd1na2vs0mg"},{"bike_id":"eb033ce6-a585-4e6e-b61e-8ddb3c04724d","system_id":"levelo_inurba_marseille","lat":43.28608,"lon":5.35101,"is_reserved":false,"is_disabled":false,"rental_uris":{"android":"levelo://app?vid=eb033ce6-a585-4e6e-b61e-8ddb3c04724d","ios":"levelo://app?vid=eb033ce6-a585-4e6e-b61e-8ddb3c04724d"},"vehicle_type_id":"4","last_reported":1749755246,"current_range_meters":17200,"station_id":"ce4bhch2rcd13ifvqeug","pricing_plan_id":"cebpf4jnsgd1na2vs0mg"},{"bike_id":"1e2dc526-d456-4183-9a4f-79ffada041c3","system_id":"levelo_inurba_marseille","lat":43.2708,"lon":5.4227,"is_reserved":false,"is_disabled":false,"rental_uris":{"android":"levelo://app?vid=1e2dc526-d456-4183-9a4f-79ffada041c3","ios":"levelo://app?vid=1e2dc526-d456-4183-9a4f-79ffada041c3"},"vehicle_type_id":"4","last_reported":1749755246,"current_range_meters":17200,"station_id":"ce4bhk92rcd13ifvqgb0","pricing_plan_id":"cebpf4jnsgd1na2vs0mg"},{"bike_id":"226c4ac6-8833-478b-8f70-e86bf1455457","system_id":"levelo_inurba_marseille","lat":43.2997,"lon":5.41327,"is_reserved":false,"is_disabled":false,"rental_uris":{"android":"levelo://app?vid=226c4ac6-8833-478b-8f70-e86bf1455457","ios":"levelo://app?vid=226c4ac6-8833-478b-8f70-e86bf1455457"},"vehicle_type_id":"4","last_reported":1749755246,"current_range_meters":17200,"station_id":"ce4bhp12rcd13ifvqh9g","pricing_plan_id":"cebpf4jnsgd1na2vs0mg"},{"bike_id":"a30b7e80-cde2-4621-9ff2-933cbaf5a324","system_id":"levelo_inurba_marseille","lat":43.326606,"lon":5.40992,"is_reserved":false,"is_disabled":false,"rental_uris":{"android":"levelo://app?vid=a30b7e80-cde2-4621-9ff2-933cbaf5a324","ios":"levelo://app?vid=a30b7e80-cde2-4621-9ff2-933cbaf5a324"},"vehicle_type_id":"4","last_reported":1749755246,"current_range_meters":17200,"station_id":"ce4bhpp2rcd13ifvqhgg","pricing_plan_id":"cebpf4jnsgd1na2vs0mg"},{"bike_id":"761d38a6-187c-43ac-9b05-1153ae20582a","system_id":"levelo_inurba_marseille","lat":43.32385,"lon":5.38869,"is_reserved":false,"is_disabled":false,"rental_uris":{"android":"levelo://app?vid=761d38a6-187c-43ac-9b05-1153ae20582a","ios":"levelo://app?vid=761d38a6-187c-43ac-9b05-1153ae20582a"},"vehicle_type_id":"4","last_reported":1749755246,"current_range_meters":17200,"station_id":"ce4bhqp2rcd13ifvqhog","pricing_plan_id":"cebpf4jnsgd1na2vs0mg"},{"bike_id":"326cc913-bdbc-48c2-9a88-414846f09512","system_id":"levelo_inurba_marseille","lat":43.3236,"lon":5.36734,"is_reserved":false,"is_disabled":false,"rental_uris":{"android":"levelo://app?vid=326cc913-bdbc-48c2-9a88-414846f09512","ios":"levelo://app?vid=326cc913-bdbc-48c2-9a88-414846f09512"},"vehicle_type_id":"4","last_reported":1749755246,"current_range_meters":17200,"station_id":"ce4bhsh2rcd13ifvqi2g","pricing_plan_id":"cebpf4jnsgd1na2vs0mg"},{"bike_id":"ea26177a-57bd-4fbc-ab27-4b68b67ded34","system_id":"levelo_inurba_marseille","lat":43.29033,"lon":5.37184,"is_reserved":false,"is_disabled":false,"rental_uris":{"android":"levelo://app?vid=ea26177a-57bd-4fbc-ab27-4b68b67ded34","ios":"levelo://app?vid=ea26177a-57bd-4fbc-ab27-4b68b67ded34"},"vehicle_type_id":"4","last_reported":1749755246,"current_range_meters":17600,"station_id":"","pricing_plan_id":"cebpf4jnsgd1na2vs0mg"},{"bike_id":"6aaf8bd5-91f6-4c17-935a-52716ff54961","system_id":"levelo_inurba_marseille","lat":43.29196,"lon":5.35799,"is_reserved":false,"is_disabled":false,"rental_uris":{"android":"levelo://app?vid=6aaf8bd5-91f6-4c17-935a-52716ff54961","ios":"levelo://app?vid=6aaf8bd5-91f6-4c17-935a-52716ff54961"},"vehicle_type_id":"4","last_reported":1749755246,"current_range_meters":17600,"station_id":"ce4bhb12rcd13ifvqel0","pricing_plan_id":"cebpf4jnsgd1na2vs0mg"},{"bike_id":"ac63f615-d0f4-48df-8f53-eb4dee20c8d9","system_id":"levelo_inurba_marseille","lat":43.28857,"lon":5.35857,"is_reserved":false,"is_disabled":false,"rental_uris":{"android":"levelo://app?vid=ac63f615-d0f4-48df-8f53-eb4dee20c8d9","ios":"levelo://app?vid=ac63f615-d0f4-48df-8f53-eb4dee20c8d9"},"vehicle_type_id":"4","last_reported":1749755246,"current_range_meters":17600,"station_id":"ce4bhb12rcd13ifvqem0","pricing_plan_id":"cebpf4jnsgd1na2vs0mg"},{"bike_id":"cfe18185-7470-44c3-b999-38348e720db5","system_id":"levelo_inurba_marseille","lat":43.28413,"lon":5.34993,"is_reserved":false,"is_disabled":false,"rental_uris":{"android":"levelo://app?vid=cfe18185-7470-44c3-b999-38348e720db5","ios":"levelo://app?vid=cfe18185-7470-44c3-b999-38348e720db5"},"vehicle_type_id":"4","last_reported":1749755246,"current_range_meters":17600,"station_id":"ce4bhbh2rcd13ifvqepg","pricing_plan_id":"cebpf4jnsgd1na2vs0mg"},