{"last_updated":1738498491,"ttl":60,"version":"2.2","data":{"bikes":[{"bike_id":"5121270c-1c11-4ce0-892b-9a8960db6210","system_id":"levelo_inurba_marseille","lat":43.31749,"lon":5.39029,"is_reserved":false,"is_disabled":false,"rental_uris":{"android":"levelo://app?vid=5121270c-1c11-4ce0-892b-9a8960db6210","ios":"levelo://app?vid=5121270c-1c11-4ce0-892b-9a8960db6210"},"vehicle_type_id":"4","last_reported":1738498491,"current_range_meters":25600,"station_id":"ce4bhqp2rcd13ifvqhng","pricing_plan_id":"cebpf4jnsgd1na2vs0mg"},{"bike_id":"7ac6de87-4cb5-4d58-adc2-a7c162322d3f","system_id":"levelo_inurba_marseille","lat":43.28492,"lon":5.38434,"is_reserved":false,"is_disabled":true,"rental_uris":{"android":"levelo://app?vid=7ac6de87-4cb5-4d58-adc2-a7c162322d3f","ios":"levelo://app?vid=7ac6de87-4cb5-4d58-adc2-a7c162322d3f"},"vehicle_type_id":"4","last_reported":1738498491,"current_range_meters":19600,"station_id":"ce4bh512rcd13ifvqe3g","pricing_plan_id":"cebpf4jnsgd1na2vs0mg"},{"bike_id":"6b5781c4-d3ba-48e2-bab0-5e58467c245a","system_id":"levelo_inurba_marseille","lat":43.28268,"lon":5.35069,"is_reserved":false,"is_disabled":false,"rental_uris":{"android":"levelo://app?vid=6b5781c4-d3ba-48e2-bab0-5e58467c245a","ios":"levelo://app?vid=6b5781c4-d3ba-48e2-bab0-5e58467c245a"},"vehicle_type_id":"4","last_reported":1738498491,"current_range_meters":38400,"station_id":"ce4bhbp2rcd13ifvqerg","pricing_plan_id":"cebpf4jnsgd1na2vs0mg"},{"bike_id":"21ce7c90-ecf1-4c2b-ae39-e9d88703c00b","system_id":"levelo_inurba_marseille","lat":43.272,"lon":5.39197,"is_reserved":false,"is_disabled":true,"rental_uris":{"android":"levelo://app?vid=21ce7c90-ecf1-4c2b-ae39-e9d88703c00b","ios":"levelo://app?vid=21ce7c90-ecf1-4c2b-ae39-e9d88703c00b"},"vehicle_type_id":"4","last_reported":1738498491,"current_range_meters":30800,"station_id":"ce4bhhp2rcd13ifvqfm0","pricing_plan_id":"cebpf4jnsgd1na2vs0mg"},{"bike_id":"68ec889f-fbad-4ec7-bbe1-dbda6b88a3f5","system_id":"levelo_inurba_marseille","lat":43.2902,"lon":5.38641,"is_reserved":false,"is_disabled":true,"rental_uris":{"android":"levelo://app?vid=68ec889f-fbad-4ec7-bbe1-dbda6b88a3f5","ios":"levelo://app?vid=68ec889f-fbad-4ec7-bbe1-dbda6b88a3f5"},"vehicle_type_id":"4","last_reported":1738498491,"current_range_meters":24800,"station_id":"ce4bh4p2rcd13ifvqe0g","pricing_plan_id":"cebpf4jnsgd1na2vs0mg"},{"bike_id":"9ce610fb-10e6-4c85-8f79-3c4377232d1a","system_id":"levelo_inurba_marseille","lat":43.25825,"lon":5.39376,"is_reserved":false,"is_disabled":false,"rental_uris":{"android":"levelo://app?vid=9ce610fb-10e6-4c85-8f79-3c4377232d1a","ios":"levelo://app?vid=9ce610fb-10e6-4c85-8f79-3c4377232d1a"},"vehicle_type_id":"4","last_reported":1738498491,"current_range_meters":18800,"station_id":"ce4bhip2rcd13ifvqft0","pricing_plan_id":"cebpf4jnsgd1na2vs0mg"},{"bike_id":"2b899a7f-0ab1-4aec-b4db-4c5e906c54b6","system_id":"levelo_inurba_marseille","lat":43.23959,"lon":5.36627,"is_reserved":false,"is_disabled":false,"rental_uris":{"android":"levelo://app?vid=2b899a7f-0ab1-4aec-b4db-4c5e906c54b6","ios":"levelo://app?vid=2b899a7f-0ab1-4aec-b4db-4c5e906c54b6"},"vehicle_type_id":"4","last_reported":1738498491,"current_range_meters":10800,"station_id":"ce4bhi12rcd13ifvqfp0","pricing_plan_id":"cebpf4jnsgd1na2vs0mg"},{"bike_id":"ed3b7fbe-dd9d-4bab-8f42-a2405c5dd34c","system_id":"levelo_inurba_marseille","lat":43.26694,"lon":5.38273,"is_reserved":false,"is_disabled":false,"rental_uris":{"android":"levelo://app?vid=ed3b7fbe-dd9d-4bab-8f42-a2405c5dd34c","ios":"levelo://app?vid=ed3b7fbe-dd9d-4bab-8f42-a2405c5dd34c"},"vehicle_type_id":"4","last_reported":1738498491,"current_range_meters":39200,"station_id":"ce4bhg92rcd13ifvqf90","pricing_plan_id":"cebpf4jnsgd1na2vs0mg"},{"bike_id":"b355aa1e-9ffd-4b70-a9f5-6f80917fbbd0","system_id":"levelo_inurba_marseille","lat":43.25495,"lon":5.37652,"is_reserved":false,"is_disabled":false,"rental_uris":{"android":"levelo://app?vid=b355aa1e-9ffd-4b70-a9f5-6f80917fbbd0","ios":"levelo://app?vid=b355aa1e-9ffd-4b70-a9f5-6f80917fbbd0"},"vehicle_type_id":"4","last_reported":1738498491,"current_range_meters":29600,"station_id":"ce4bhh12rcd13ifvqff0","pricing_plan_id":"cebpf4jnsgd1na2vs0mg"},{"bike_id":"a7845192-be4e-43cd-bc57-8d568bbb5c2d","system_id":"levelo_inurba_marseille","lat":43.30553,"lon":5.3656,"is_reserved":false,"is_disabled":false,"rental_uris":{"android":"levelo://app?vid=a7845192-be4e-43cd-bc57-8d568bbb5c2d","ios":"levelo://app?vid=a7845192-be4e-43cd-bc57-8d568bbb5c2d"},"vehicle_type_id":"4","last_reported":1738498491,"current_range_meters":38800,"station_id":"ce4bgs12rcd13ifvqcag","pricing_plan_id":"cebpf4jnsgd1na2vs0mg"},{"bike_id":"be52987b-4865-4b54-aa22-0a810eec4d9c","system_id":"levelo_inurba_marseille","lat":43.3121,"lon":5.36872,"is_reserved":false,"is_disabled":false,"rental_uris":{"android":"levelo://app?vid=be52987b-4865-4b54-aa22-0a810eec4d9c","ios":"levelo://app?vid=be52987b-4865-4b54-aa22-0a810eec4d9c"},"vehicle_type_id":"4","last_reported":1738498491,"current_range_meters":24000,"station_id":"ce4bgl92rcd13ifvqbq0","pricing_plan_id":"cebpf4jnsgd1na2vs0mg"},{"bike_id":"babeb983-9900-45dd-9c39-c974059de659","system_id":"levelo_inurba_marseille","lat":43.26818,"lon":5.40249,"is_reserved":false,"is_disabled":false,"rental_uris":{"android":"levelo://app?vid=babeb983-9900-45dd-9c39-c974059de659","ios":"levelo://app?vid=babeb983-9900-45dd-9c39-c974059de659"},"vehicle_type_id":"4","last_reported":1738498491,"current_range_meters":38400,"station_id":"ce501612rcd8frsf0b60","pricing_plan_id":"cebpf4jnsgd1na2vs0mg"},{"bike_id":"c26284e6-53ee-4b35-a0cc-ee8d0a2119d1","system_id":"levelo_inurba_marseille","lat":43.28704,"lon":5.37937,"is_reserved":false,"is_disabled":true,"rental_uris":{"android":"levelo://app?vid=c26284e6-53ee-4b35-a0cc-ee8d0a2119d1","ios":"levelo://app?vid=c26284e6-53ee-4b35-a0cc-ee8d0a2119d1"},"vehicle_type_id":"4","last_reported":1738498491,"current_range_meters":12800,"station_id":"ce4bh9p2rcd13ifvqec0","pricing_plan_id":"cebpf4jnsgd1na2vs0mg"},{"bike_id":"0cfeb70a-0a8b-4c9e-bd06-c150e627b9d5","system_id":"levelo_inurba_marseille","lat":43.26815,"lon":5.40268,"is_reserved":false,"is_disabled":false,"rental_uris":{"android":"levelo://app?vid=0cfeb70a-0a8b-4c9e-bd06-c150e627b9d5","ios":"levelo://app?vid=0cfeb70a-0a8b-4c9e-bd06-c150e627b9d5"},"vehicle_type_id":"4","last_reported":1738498491,"current_range_meters":38800,"station_id":"ce501612rcd8frsf0b60","pricing_plan_id":"cebpf4jnsgd1na2vs0mg"},{"bike_id":"7bd1cd5b-cdf7-452f-9935-6d957cecf34d","system_id":"levelo_inurba_marseille","lat":43.24548,"lon":5.39521,"is_reserved":false,"is_disabled":false,"rental_uris":{"android":"levelo://app?vid=7bd1cd5b-cdf7-452f-9935-6d957cecf34d","ios":"levelo://app?vid=7bd1cd5b-cdf7-452f-9935-6d957cecf34d"},"vehicle_type_id":"4","last_reported":1738498491,"current_range_meters":25600,"station_id":"ce4bhlp2rcd13ifvqgjg","pricing_plan_id":"cebpf4jnsgd1na2vs0mg"},{"bike_id":"8d54af54-24d2-4781-81ce-174a43c53017","system_id":"levelo_inurba_marseille","lat":43.27901,"lon":5.380093,"is_reserved":false,"is_disabled":false,"rental_uris":{"android":"levelo://app?vid=8d54af54-24d2-4781-81ce-174a43c53017","ios":"levelo://app?vid=8d54af54-24d2-4781-81ce-174a43c53017"},"vehicle_type_id":"4","last_reported":1738498491,"current_range_meters":2800,"station_id":"ce4bhf92rcd13ifvqf50","pricing_plan_id":"cebpf4jnsgd1na2vs0mg"},{"bike_id":"d6b51533-eff4-4b0a-9e05-a10c579834e1","system_id":"levelo_inurba_marseille","lat":43.29713,"lon":5.36581,"is_reserved":false,"is_disabled":false,"rental_uris":{"android":"levelo://app?vid=d6b51533-eff4-4b0a-9e05-a10c579834e1","ios":"levelo://app?vid=d6b51533-eff4-4b0a-9e05-a10c579834e1"},"vehicle_type_id":"4","last_reported":1738498491,"current_range_meters":20000,"station_id":"ce4bgn12rcd13ifvqbt0","pricing_plan_id":"cebpf4jnsgd1na2vs0mg"},{"bike_id":"db3aea96-2190-4a42-ad15-c255066e1f3e","system_id":"levelo_inurba_marseille","lat":43.32478,"lon":5.36578,"is_reserved":false,"is_disabled":false,"rental_uris":{"android":"levelo://app?vid=db3aea96-2190-4a42-ad15-c255066e1f3e","ios":"levelo://app?vid=db3aea96-2190-4a42-ad15-c255066e1f3e"},"vehicle_type_id":"4","last_reported":1738498491,"current_range_meters":25600,"station_id":"ce4bhs12rcd13ifvqhvg","pricing_plan_id":"cebpf4jnsgd1na2vs0mg"},{"bike_id":"b7e1f20f-055e-479b-88c2-d857a7220b74","system_id":"levelo_inurba_marseille","lat":43.251134,"lon":5.403258,"is_reserved":false,"is_disabled":false,"rental_uris":{"android":"levelo://app?vid=b7e1f20f-055e-479b-88c2-d857a7220b74","ios":"levelo://app?vid=b7e1f20f-055e-479b-88c2-d857a7220b74"},"vehicle_type_id":"4","last_reported":1738498491,"current_range_meters":38400,"station_id":"ce4bhlh2rcd13ifvqgig","pricing_plan_id":"cebpf4jnsgd1na2vs0mg"},{"bike_id":"b53cf432-0e47-4b61-a305-952377a64c88","system_id":"levelo_inurba_marseille","lat":43.3082,"lon":5.38246,"is_reserved":false,"is_disabled":true,"rental_uris":{"android":"levelo://app?vid=b53cf432-0e47-4b61-a305-952377a64c88","ios":"levelo://app?vid=b53cf432-0e47-4b61-a305-952377a64c88"},"vehicle_type_id":"4","last_reported":1738498491,"current_range_meters":37600,"station_id":"ce4bgt12rcd13ifvqce0","pricing_plan_id":"cebpf4jnsgd1na2vs0mg"},{"bike_id":"5206335d-6e33-40fd-97fa-4c2d2c1057e1","system_id":"levelo_inurba_marseille","lat":43.27936,"lon":5.41056,"is_reserved":false,"is_disabled":false,"rental_uris":{"android":"levelo://app?vid=5206335d-6e33-40fd-97fa-4c2d2c1057e1","ios":"levelo://app?vid=5206335d-6e33-40fd-97fa-4c2d2c1057e1"},"vehicle_type_id":"4","last_reported":1738498491,"current_range_meters":19200,"station_id":"ce4bhnp2rcd13ifvqh0g","pricing_plan_id":"cebpf4jnsgd1na2vs0mg"},{"bike_id":"13a71ca0-af90-4e61-a6f2-18a028732efe","system_id":"levelo_inurba_marseille","lat":43.25116,"lon":5.39504,"is_reserved":false,"is_disabled":false,"rental_uris":{"android":"levelo://app?vid=13a71ca0-af90-4e61-a6f2-18a028732efe","ios":"levelo://app?vid=13a71ca0-af90-4e61-a6f2-18a028732efe"},"vehicle_type_id":"4","last_reported":1738498491,"current_range_meters":27600,"station_id":"ce4bhm12rcd13ifvqgkg","pricing_plan_id":"cebpf4jnsgd1na2vs0mg"},{"bike_id":"8b173772-f272-43ef-b9dc-69e5faaf3b4d","system_id":"levelo_inurba_marseille","lat":43.28363,"lon":5.38624,"is_reserved":false,"is_disabled":false,"rental_uris":{"android":"levelo://app?vid=8b173772-f272-43ef-b9dc-69e5faaf3b4d","ios":"levelo://app?vid=8b173772-f272-43ef-b9dc-69e5faaf3b4d"},"vehicle_type_id":"4","last_reported":1738498491,"current_range_meters":9600,"station_id":"ce4bh492rcd13ifvqdvg","pricing_plan_id":"cebpf4jnsgd1na2vs0mg"},{"bike_id":"7ffe5038-62b7-4973-9162-bd04c900a3f8","system_id":"levelo_inurba_marseille","lat":43.29224,"lon":5.36072,"is_reserved":false,"is_disabled":true,"rental_uris":{"android":"levelo://app?vid=7ffe5038-62b7-4973-9162-bd04c900a3f8","ios":"levelo://app?vid=7ffe5038-62b7-4973-9162-bd04c900a3f8"},"vehicle_type_id":"4","last_reported":1738498491,"current_range_meters":0,"station_id":"ce4bhbh2rcd13ifvqeqg","pricing_plan_id":"cebpf4jnsgd1na2vs0mg"},{"bike_id":"b133c5d8-0c44-4adb-969d-84c97a5acb94","system_id":"levelo_inurba_marseille","lat":43.32469,"lon":5.36577,"is_reserved":false,"is_disabled":false,"rental_uris":{"android":"levelo://app?vid=b133c5d8-0c44-4adb-969d-84c97a5acb94","ios":"levelo://app?vid=b133c5d8-0c44-4adb-969d-84c97a5acb94"},"vehicle_type_id":"4","last_reported":1738498491,"current_range_meters":26000,"station_id":"ce4bhs12rcd13ifvqhvg","pricing_plan_id":"cebpf4jnsgd1na2vs0mg"},{"bike_id":"a1361b83-7dfc-447a-91a0-ca180866041b","system_id":"levelo_inurba_marseille","lat":43.32359,"lon":5.36736,"is_reserved":false,"is_disabled":false,"rental_uris":{"android":"levelo://app?vid=a1361b83-7dfc-447a-91a0-ca180866041b","ios":"levelo://app?vid=a1361b83-7dfc-447a-91a0-ca180866041b"},"vehicle_type_id":"4","last_reported":1738498491,"current_range_meters":27600,"station_id":"ce4bhsh2rcd13ifvqi2g","pricing_plan_id":"cebpf4jnsgd1na2vs0mg"},{"bike_id":"ddb9c7e9-65ef-4267-9499-9c9d26630482","system_id":"levelo_inurba_marseille","lat":43.32481,"lon":5.36567,"is_reserved":false,"is_disabled":false,"rental_uris":{"android":"levelo://app?vid=ddb9c7e9-65ef-4267-9499-9c9d26630482","ios":"levelo://app?vid=ddb9c7e9-65ef-4267-9499-9c9d26630482"},"vehicle_type_id":"4","last_reported":1738498491,"current_range_meters":30800,"station_id":"ce4bhs12rcd13ifvqhvg","pricing_plan_id":"cebpf4jnsgd1na2vs0mg"},{"bike_id":"8b4d9178-5c29-4d78-b3ab-543cf39d1d34","system_id":"levelo_inurba_marseille","lat":43.31461,"lon":5.37548,"is_reserved":false,"is_disabled":false,"rental_uris":{"android":"levelo://app?vid=8b4d9178-5c29-4d78-b3ab-543cf39d1d34","ios":"levelo://app?vid=8b4d9178-5c29-4d78-b3ab-543cf39d1d34"},"vehicle_type_id":"4","last_reported":1738498491,"current_range_meters":20400,"station_id":"","pricing_plan_id":"cebpf4jnsgd1na2vs0mg"},{"bike_id":"cc47836a-b908-432f-8e0e-2f793407f141","system_id":"levelo_inurba_marseille","lat":43.22925,"lon":5.35382,"is_reserved":false,"is_disabled":false,"rental_uris":{"android":"levelo://app?vid=cc47836a-b908-432f-8e0e-2f793407f141","ios":"levelo://app?vid=cc47836a-b908-432f-8e0e-2f793407f141"},"vehicle_type_id":"4","last_reported":1738498491,"current_range_meters":35600,"station_id":"cpo3532slgdg3j2ikp40","pricing_plan_id":"cebpf4jnsgd1na2vs0mg"},{"bike_id":"943be55d-cee7-424a-b22e-f9aee29db6e6","system_id":"levelo_inurba_marseille","lat":43.27552,"lon":5.38436,"is_reserved":false,"is_disabled":true,"rental_uris":{"android":"levelo://app?vid=943be55d-cee7-424a-b22e-f9aee29db6e6","ios":"levelo://app?vid=943be55d-cee7-424a-b22e-f9aee29db6e6"},"vehicle_type_id":"4","last_reported":1738498491,"current_range_meters":1600,"station_id":"ce4bhh92rcd13ifvqfi0","pricing_plan_id":"cebpf4jnsgd1na2vs0mg"},{"bike_id":"eccf3e1b-479c-430a-81d9-b77c081460ec","system_id":"levelo_inurba_marseille","lat":43.31764,"lon":5.39021,"is_reserved":false,"is_disabled":true,"rental_uris":{"android":"levelo://app?vid=eccf3e1b-479c-430a-81d9-b77c081460ec","ios":"levelo://app?vid=eccf3e1b-479c-430a-81d9-b77c081460ec"},"vehicle_type_id":"4","last_reported":1738498491,"current_range_meters":9600,"station_id":"ce4bhqp2rcd13ifvqhng","pricing_plan_id":"cebpf4jnsgd1na2vs0mg"},{"bike_id":"192501ee-e138-46e1-a7e2-fb638ed5558f","system_id":"levelo_inurba_marseille","lat":43.23148,"lon":5.43719,"is_reserved":false,"is_disabled":false,"rental_uris":{"android":"levelo://app?vid=192501ee-e138-46e1-a7e2-fb638ed5558f","ios":"levelo://app?vid=192501ee-e138-46e1-a7e2-fb638ed5558f"},"vehicle_type_id":"4","last_reported":1738498491,"current_range_meters":39200,"station_id":"ce4bhmp2rcd13ifvqgog","pricing_plan_id":"cebpf4jnsgd1na2vs0mg"},{"bike_id":"0edaa840-e8b0-4f2c-ad98-c123355c590c","system_id":"levelo_inurba_marseille","lat":43.26064,"lon":5.39395,"is_reserved":false,"is_disabled":true,"rental_uris":{"android":"levelo://app?vid=0edaa840-e8b0-4f2c-ad98-c123355c590c","ios":"levelo://app?vid=0edaa840-e8b0-4f2c-ad98-c123355c590c"},"vehicle_type_id":"4","last_reported":1738498491,"current_range_meters":30000,"station_id":"ce4bhh92rcd13ifvqfj0","pricing_plan_id":"cebpf4jnsgd1na2vs0mg"},{"bike_id":"0c8187f5-988a-4457-bbb8-4cf908ac31d3","system_id":"levelo_inurba_marseille","lat":43.25837,"lon":5.39455,"is_reserved":false,"is_disabled":false,"rental_uris":{"android":"levelo://app?vid=0c8187f5-988a-4457-bbb8-4cf908ac31d3","ios":"levelo://app?vid=0c8187f5-988a-4457-bbb8-4cf908ac31d3"},"vehicle_type_id":"4","last_reported":1738498491,"current_range_meters":12800,"station_id":"ce4bhip2rcd13ifvqft0","pricing_plan_id":"cebpf4jnsgd1na2vs0mg"},{"bike_id":"83cd6286-b593-4b65-a21c-827de495c787","system_id":"levelo_inurba_marseille","lat":43.27069,"lon":5.42278,"is_reserved":false,"is_disabled":false,"rental_uris":{"android":"levelo://app?vid=83cd6286-b593-4b65-a21c-827de495c787","ios":"levelo://app?vid=83cd6286-b593-4b65-a21c-827de495c787"},"vehicle_type_id":"4","last_reported":1738498491,"current_range_meters":10000,"station_id":"ce4bhk92rcd13ifvqgb0","pricing_plan_id":"cebpf4jnsgd1na2vs0mg"},{"bike_id":"8b23552f-b7c0-40c8-9d4f-37ff82774c67","system_id":"levelo_inurba_marseille","lat":43.25585,"lon":5.38236,"is_reserved":false,"is_disabled":false,"rental_uris":{"android":"levelo://app?vid=8b23552f-b7c0-40c8-9d4f-37ff82774c67","ios":"levelo://app?vid=8b23552f-b7c0-40c8-9d4f-37ff82774c67"},"vehicle_type_id":"4","last_reported":1738498491,"current_range_meters":28400,"station_id":"ce4bhih2rcd13ifvqfs0","pricing_plan_id":"cebpf4jnsgd1na2vs0mg"},{"bike_id":"637e7848-7b84-4e1d-9cee-355c6601f7c3","system_id":"levelo_inurba_marseille","lat":43.27992,"lon":5.41657,"is_reserved":false,"is_disabled":true,"rental_uris":{"android":"levelo://app?vid=637e7848-7b84-4e1d-9cee-355c6601f7c3","ios":"levelo://app?vid=637e7848-7b84-4e1d-9cee-355c6601f7c3"},"vehicle_type_id":"4","last_reported":1738498491,"current_range_meters":2000,"station_id":"ce4bho12rcd13ifvqh1g","pricing_plan_id":"cebpf4jnsgd1na2vs0mg"},{"bike_id":"7a3d8c66-0114-475d-b38c-385b6eaec847","system_id":"levelo_inurba_marseille","lat":43.27816,"lon":5.40732,"is_reserved":false,"is_disabled":false,"rental_uris":{"android":"levelo://app?vid=7a3d8c66-0114-475d-b38c-385b6eaec847","ios":"levelo://app?vid=7a3d8c66-0114-475d-b38c-385b6eaec847"},"vehicle_type_id":"4","last_reported":1738498491,"current_range_meters":37600,"station_id":"ce4bhnh2rcd13ifvqgtg","pricing_plan_id":"cebpf4jnsgd1na2vs0mg"},{"bike_id":"0aca0b3c-3976-4b33-96a9-81642a0c554a","system_id":"levelo_inurba_marseille","lat":43.23157,"lon":5.43709,"is_reserved":false,"is_disabled":false,"rental_uris":{"android":"levelo://app?vid=0aca0b3c-3976-4b33-96a9-81642a0c554a","ios":"levelo://app?vid=0aca0b3c-3976-4b33-96a9-81642a0c554a"},"vehicle_type_id":"4","last_reported":1738498491,"current_range_meters":20800,"station_id":"ce4bhmp2rcd13ifvqgog","pricing_plan_id":"cebpf4jnsgd1na2vs0mg"},{"bike_id":"719ef290-08f5-4e21-9cf6-997772e28671","system_id":"levelo_inurba_marseille","lat":43.30181,"lon":5.36621,"is_reserved":false,"is_disabled":false,"rental_uris":{"android":"levelo://app?vid=719ef290-08f5-4e21-9cf6-997772e28671","ios":"levelo://app?vid=719ef290-08f5-4e21-9cf6-997772e28671"},"vehicle_type_id":"4","last_reported":1738498491,"current_range_meters":32400,"station_id":"ce4bgrh2rcd13ifvqc8g","pricing_plan_id":"cebpf4jnsgd1na2vs0mg"},{"bike_id":"32e5f4af-c3e2-4e2b-9428-5595e9b70920","system_id":"levelo_inurba_marseille","lat":43.29779,"lon":5.3711,"is_reserved":false,"is_disabled":true,"rental_uris":{"android":"levelo://app?vid=32e5f4af-c3e2-4e2b-9428-5595e9b70920","ios":"levelo://app?vid=32e5f4af-c3e2-4e2b-9428-5595e9b70920"},"vehicle_type_id":"4","last_reported":1738498491,"current_range_meters":37600,"station_id":"ce4bgop2rcd13ifvqc1g","pricing_plan_id":"cebpf4jnsgd1na2vs0mg"},{"bike_id":"e5b86b27-4ce8-4e83-8ef0-f798e9aa573d","system_id":"levelo_inurba_marseille","lat":43.28094,"lon":5.37864,"is_reserved":false,"is_disabled":false,"rental_uris":{"android":"levelo://app?vid=e5b86b27-4ce8-4e83-8ef0-f798e9aa573d","ios":"levelo://app?vid=e5b86b27-4ce8-4e83-8ef0-f798e9aa573d"},"vehicle_type_id":"4","last_reported":1738498491,"current_range_meters":18000,"station_id":"ce4bha12rcd13ifvqee0","pricing_plan_id":"cebpf4jnsgd1na2vs0mg"},{"bike_id":"9ac5c834-5f59-43e6-ac2d-21f2314498e4","system_id":"levelo_inurba_marseille","lat":43.30553,"lon":5.36569,"is_reserved":false,"is_disabled":false,"rental_uris":{"android":"levelo://app?vid=9ac5c834-5f59-43e6-ac2d-21f2314498e4","ios":"levelo://app?vid=9ac5c834-5f59-43e6-ac2d-21f2314498e4"},"vehicle_type_id":"4","last_reported":1738498491,"current_range_meters":38800,"station_id":"ce4bgs12rcd13ifvqcag","pricing_plan_id":"cebpf4jnsgd1na2vs0mg"},{"bike_id":"095e5291-f842-4478-bc34-3769cd441c0c","system_id":"levelo_inurba_marseille","lat":43.281501,"lon":5.426537,"is_reserved":false,"is_disabled":false,"rental_uris":{"android":"levelo://app?vid=095e5291-f842-4478-bc34-3769cd441c0c","ios":"levelo://app?vid=095e5291-f842-4478-bc34-3769cd441c0c"},"vehicle_type_id":"4","last_reported":1738498491,"current_range_meters":14000,"station_id":"ce4bhnh2rcd13ifvqgug","pricing_plan_id":"cebpf4jnsgd1na2vs0mg"},{"bike_id":"19ccc093-786b-4a36-b96d-6e1a9fb02f18","system_id":"levelo_inurba_marseille","lat":43.29028,"lon":5.38656,"is_reserved":false,"is_disabled":true,"rental_uris":{"android":"levelo://app?vid=19ccc093-786b-4a36-b96d-6e1a9fb02f18","ios":"levelo://app?vid=19ccc093-786b-4a36-b96d-6e1a9fb02f18"},"vehicle_type_id":"4","last_reported":1738498491,"current_range_meters":22800,"station_id":"ce4bh4p2rcd13ifvqe0g","pricing_plan_id":"cebpf4jnsgd1na2vs0mg"},{"bike_id":"9f7cbc3c-6e0b-4442-8c70-64c0b2a1452e","system_id":"levelo_inurba_marseille","lat":43.23056,"lon":5.35489,"is_reserved":false,"is_disabled":false,"rental_uris":{"android":"levelo://app?vid=9f7cbc3c-6e0b-4442-8c70-64c0b2a1452e","ios":"levelo://app?vid=9f7cbc3c-6e0b-4442-8c70-64c0b2a1452e"},"vehicle_type_id":"4","last_reported":1738498491,"current_range_meters":32400,"station_id":"cpo3342slgdg3j2ifvpg","pricing_plan_id":"cebpf4jnsgd1na2vs0mg"},{"bike_id":"8afdb513-b832-4957-b577-864c8e16af85","system_id":"levelo_inurba_marseille","lat":43.30149,"lon":5.37421,"is_reserved":false,"is_disabled":false,"rental_uris":{"android":"levelo://app?vid=8afdb513-b832-4957-b577-864c8e16af85","ios":"levelo://app?vid=8afdb513-b832-4957-b577-864c8e16af85"},"vehicle_type_id":"4","last_reported":1738498491,"current_range_meters":38800,"station_id":"ce4bgs92rcd13ifvqcc0","pricing_plan_id":"cebpf4jnsgd1na2vs0mg"},{"bike_id":"9e44c1b1-9d21-4b03-8a7a-dc95b725f9a4","system_id":"levelo_inurba_marseille","lat":43.29601,"lon":5.37721,"is_reserved":false,"is_disabled":false,"rental_uris":{"android":"levelo://app?vid=9e44c1b1-9d21-4b03-8a7a-dc95b725f9a4","ios":"levelo://app?vid=9e44c1b1-9d21-4b03-8a7a-dc95b725f9a4"},"vehicle_type_id":"4","last_reported":1738498491,"current_range_meters":21600,"station_id":"ce4bgi92rcd13ifvqb90","pricing_plan_id":"cebpf4jnsgd1na2vs0mg"},{"bike_id":"9191983c-f500-4e34-800a-5c4da4f130cb","system_id":"levelo_inurba_marseille","lat":43.27972,"lon":5.41047,"is_reserved":false,"is_disabled":false,"rental_uris":{"android":"levelo://app?vid=9191983c-f500-4e34-800a-5c4da4f130cb","ios":"levelo://app?vid=9191983c-f500-4e34-800a-5c4da4f130cb"},"vehicle_type_id":"4","last_reported":1738498491,"current_range_meters":32400,"station_id":"ce4bhnp2rcd13ifvqh0g","pricing_plan_id":"cebpf4jnsgd1na2vs0mg"},{"bike_id":"285af6c2-616a-41cd-841d-49697bf4712f","system_id":"levelo_inurba_marseille","lat":43.26042,"lon":5.37545,"is_reserved":false,"is_disabled":false,"rental_uris":{"android":"levelo://app?vid=285af6c2-616a-41cd-841d-49697bf4712f","ios":"levelo://app?vid=285af6c2-616a-41cd-841d-49697bf4712f"},"vehicle_type_id":"4","last_reported":1738498491,"current_range_meters":24800,"station_id":"ce4bhgh2rcd13ifvqfa0","pricing_plan_id":"cebpf4jnsgd1na2vs0mg"},{"bike_id":"a6d42b51-640d-4d65-9fd4-ad4ca94cec41","system_id":"levelo_inurba_marseille","lat":43.23967,"lon":5.3663,"is_reserved":false,"is_disabled":false,"rental_uris":{"android":"levelo://app?vid=a6d42b51-640d-4d65-9fd4-ad4ca94cec41","ios":"levelo://app?vid=a6d42b51-640d-4d65-9fd4-ad4ca94cec41"},"vehicle_type_id":"4","last_reported":1738498491,"current_range_meters":22000,"station_id":"ce4bhi12rcd13ifvqfp0","pricing_plan_id":"cebpf4jnsgd1na2vs0mg"},{"bike_id":"0baea460-a099-461e-8934-2d29c5f93972","system_id":"levelo_inurba_marseille","lat":43.28942,"lon":5.36644,"is_reserved":false,"is_disabled":false,"rental_uris":{"android":"levelo://app?vid=0baea460-a099-461e-8934-2d29c5f93972","ios":"levelo://app?vid=0baea460-a099-461e-8934-2d29c5f93972"},"vehicle_type_id":"4","last_reported":1738498491,"current_range_meters":38400,"station_id":"ce4bhap2rcd13ifvqek0","pricing_plan_id":"cebpf4jnsgd1na2vs0mg"},{"bike_id":"f8421b6b-beda-43f0-a80e-c5020f2a35fd","system_id":"levelo_inurba_marseille","lat":43.26217,"lon":5.37446,"is_reserved":false,"is_disabled":false,"rental_uris":{"android":"levelo://app?vid=f8421b6b-beda-43f0-a80e-c5020f2a35fd","ios":"levelo://app?vid=f8421b6b-beda-43f0-a80e-c5020f2a35fd"},"vehicle_type_id":"4","last_reported":1738498491,"current_range_meters":32400,"station_id":"ce4bhgp2rcd13ifvqfc0","pricing_plan_id":"cebpf4jnsgd1na2vs0mg"},{"bike_id":"470fee33-645f-46ad-bee0-77a6cca6a8e6","system_id":"levelo_inurba_marseille","lat":43.30181,"lon":5.36617,"is_reserved":false,"is_disabled":false,"rental_uris":{"android":"levelo://app?vid=470fee33-645f-46ad-bee0-77a6cca6a8e6","ios":"levelo://app?vid=470fee33-645f-46ad-bee0-77a6cca6a8e6"},"vehicle_type_id":"4","last_reported":1738498491,"current_range_meters":38400,"station_id":"ce4bgrh2rcd13ifvqc8g","pricing_plan_id":"cebpf4jnsgd1na2vs0mg"},{"bike_id":"5b4d0f6f-7402-4185-9475-8ff217734fb6","system_id":"levelo_inurba_marseille","lat":43.28262,"lon":5.35085,"is_reserved":false,"is_disabled":false,"rental_uris":{"android":"levelo://app?vid=5b4d0f6f-7402-4185-9475-8ff217734fb6","ios":"levelo://app?vid=5b4d0f6f-7402-4185-9475-8ff217734fb6"},"vehicle_type_id":"4","last_reported":1738498491,"current_range_meters":30400,"station_id":"ce4bhbp2rcd13ifvqerg","pricing_plan_id":"cebpf4jnsgd1na2vs0mg"},{"bike_id":"842cb586-b14a-4907-8c8b-f0ebf26ea15c","system_id":"levelo_inurba_marseille","lat":43.31342,"lon":5.39729,"is_reserved":false,"is_disabled":false,"rental_uris":{"android":"levelo://app?vid=842cb586-b14a-4907-8c8b-f0ebf26ea15c","ios":"levelo://app?vid=842cb586-b14a-4907-8c8b-f0ebf26ea15c"},"vehicle_type_id":"4","last_reported":1738498491,"current_range_meters":16800,"station_id":"ce4bgvp2rcd13ifvqcu0","pricing_plan_id":"cebpf4jnsgd1na2vs0mg"},{"bike_id":"8f5f7b8f-792a-4efd-afa5-703480c68dae","system_id":"levelo_inurba_marseille","lat":43.30282,"lon":5.37698,"is_reserved":false,"is_disabled":false,"rental_uris":{"android":"levelo://app?vid=8f5f7b8f-792a-4efd-afa5-703480c68dae","ios":"levelo://app?vid=8f5f7b8f-792a-4efd-afa5-703480c68dae"},"vehicle_type_id":"4","last_reported":1738498491,"current_range_meters":32400,"station_id":"ce4bguh2rcd13ifvqcj0","pricing_plan_id":"cebpf4jnsgd1na2vs0mg"},{"bike_id":"cb6cbad1-9be5-49a8-997b-c3e9153eb9e1","system_id":"levelo_inurba_marseille","lat":43.24541,"lon":5.39521,"is_reserved":false,"is_disabled":false,"rental_uris":{"android":"levelo://app?vid=cb6cbad1-9be5-49a8-997b-c3e9153eb9e1","ios":"levelo://app?vid=cb6cbad1-9be5-49a8-997b-c3e9153eb9e1"},"vehicle_type_id":"4","last_reported":1738498491,"current_range_meters":38800,"station_id":"ce4bhlp2rcd13ifvqgjg","pricing_plan_id":"cebpf4jnsgd1na2vs0mg"},{"bike_id":"c63d9fb0-668c-4ae0-a12d-30f1e5cb6d92","system_id":"levelo_inurba_marseille","lat":43.26539,"lon":5.39574,"is_reserved":false,"is_disabled":false,"rental_uris":{"android":"levelo://app?vid=c63d9fb0-668c-4ae0-a12d-30f1e5cb6d92","ios":"levelo://app?vid=c63d9fb0-668c-4ae0-a12d-30f1e5cb6d92"},"vehicle_type_id":"4","last_reported":1738498491,"current_range_meters":38000,"station_id":"ce4bhi12rcd13ifvqfq0","pricing_plan_id":"cebpf4jnsgd1na2vs0mg"},{"bike_id":"9fd1d072-3a8b-4482-b70f-62cd25efe66f","system_id":"levelo_inurba_marseille","lat":43.28151,"lon":5.42644,"is_reserved":false,"is_disabled":false,"rental_uris":{"android":"levelo://app?vid=9fd1d072-3a8b-4482-b70f-62cd25efe66f","ios":"levelo://app?vid=9fd1d072-3a8b-4482-b70f-62cd25efe66f"},"vehicle_type_id":"4","last_reported":1738498491,"current_range_meters":34000,"station_id":"ce4bhnh2rcd13ifvqgug","pricing_plan_id":"cebpf4jnsgd1na2vs0mg"},{"bike_id":"da760ee9-2b79-48a8-aba8-ab00a08da2f1","system_id":"levelo_inurba_marseille","lat":43.28937,"lon":5.36412,"is_reserved":false,"is_disabled":false,"rental_uris":{"android":"levelo://app?vid=da760ee9-2b79-48a8-aba8-ab00a08da2f1","ios":"levelo://app?vid=da760ee9-2b79-48a8-aba8-ab00a08da2f1"},"vehicle_type_id":"4","last_reported":1738498491,"current_range_meters":16800,"station_id":"ce4bhc92rcd13ifvqetg","pricing_plan_id":"cebpf4jnsgd1na2vs0mg"},{"bike_id":"3b9ec21a-c5cf-47fa-a6f7-7853c2e66346","system_id":"levelo_inurba_marseille","lat":43.261945,"lon":5.379296,"is_reserved":false,"is_disabled":false,"rental_uris":{"android":"levelo://app?vid=3b9ec21a-c5cf-47fa-a6f7-7853c2e66346","ios":"levelo://app?vid=3b9ec21a-c5cf-47fa-a6f7-7853c2e66346"},"vehicle_type_id":"4","last_reported":1738498491,"current_range_meters":38800,"station_id":"ce4bhjp2rcd13ifvqg90","pricing_plan_id":"cebpf4jnsgd1na2vs0mg"},{"bike_id":"b6b896c0-4f8b-42fa-a0c1-32ab44e6242e","system_id":"levelo_inurba_marseille","lat":43.24081,"lon":5.37768,"is_reserved":false,"is_disabled":false,"rental_uris":{"android":"levelo://app?vid=b6b896c0-4f8b-42fa-a0c1-32ab44e6242e","ios":"levelo://app?vid=b6b896c0-4f8b-42fa-a0c1-32ab44e6242e"},"vehicle_type_id":"4","last_reported":1738498491,"current_range_meters":7200,"station_id":"ce4bhnp2rcd13ifvqgvg","pricing_plan_id":"cebpf4jnsgd1na2vs0mg"},{"bike_id":"a5f679db-1033-4e37-8b91-72d380ebae84","system_id":"levelo_inurba_marseille","lat":43.31346,"lon":5.37609,"is_reserved":false,"is_disabled":false,"rental_uris":{"android":"levelo://app?vid=a5f679db-1033-4e37-8b91-72d380ebae84","ios":"levelo://app?vid=a5f679db-1033-4e37-8b91-72d380ebae84"},"vehicle_type_id":"4","last_reported":1738498491,"current_range_meters":33200,"station_id":"","pricing_plan_id":"cebpf4jnsgd1na2vs0mg"},{"bike_id":"cfdc3e36-f1ca-4859-b324-931a3f1626bd","system_id":"levelo_inurba_marseille","lat":43.25589,"lon":5.38249,"is_reserved":false,"is_disabled":false,"rental_uris":{"android":"levelo://app?vid=cfdc3e36-f1ca-4859-b324-931a3f1626bd","ios":"levelo://app?vid=cfdc3e36-f1ca-4859-b324-931a3f1626bd"},"vehicle_type_id":"4","last_reported":1738498491,"current_range_meters":38800,"station_id":"ce4bhih2rcd13ifvqfs0","pricing_plan_id":"cebpf4jnsgd1na2vs0mg"},{"bike_id":"cf689c3c-ef4f-489e-8ade-3e84322c0e8a","system_id":"levelo_inurba_marseille","lat":43.28407,"lon":5.37508,"is_reserved":false,"is_disabled":false,"rental_uris":{"android":"levelo://app?vid=cf689c3c-ef4f-489e-8ade-3e84322c0e8a","ios":"levelo://app?vid=cf689c3c-ef4f-489e-8ade-3e84322c0e8a"},"vehicle_type_id":"4","last_reported":1738498491,"current_range_meters":22000,"station_id":"ce4bh412rcd13ifvqds0","pricing_plan_id":"cebpf4jnsgd1na2vs0mg"},{"bike_id":"29f86acd-aa50-4395-9377-730a470ce878","system_id":"levelo_inurba_marseille","lat":43.30805,"lon":5.43531,"is_reserved":false,"is_disabled":true,"rental_uris":{"android":"levelo://app?vid=29f86acd-aa50-4395-9377-730a470ce878","ios":"levelo://app?vid=29f86acd-aa50-4395-9377-730a470ce878"},"vehicle_type_id":"4","last_reported":1738498491,"current_range_meters":2000,"station_id":"ce4bhph2rcd13ifvqheg","pricing_plan_id":"cebpf4jnsgd1na2vs0mg"},{"bike_id":"57ab9483-28a4-4aa6-9c81-1e10655898cf","system_id":"levelo_inurba_marseille","lat":43.28973,"lon":5.3785,"is_reserved":false,"is_disabled":true,"rental_uris":{"android":"levelo://app?vid=57ab9483-28a4-4aa6-9c81-1e10655898cf","ios":"levelo://app?vid=57ab9483-28a4-4aa6-9c81-1e10655898cf"},"vehicle_type_id":"4","last_reported":1738498491,"current_range_meters":37600,"station_id":"ce4bh9p2rcd13ifvqed0","pricing_plan_id":"cebpf4jnsgd1na2vs0mg"},{"bike_id":"49fbab48-96fb-4298-8915-cdedd6766c05","system_id":"levelo_inurba_marseille","lat":43.3117,"lon":5.38714,"is_reserved":false,"is_disabled":false,"rental_uris":{"android":"levelo://app?vid=49fbab48-96fb-4298-8915-cdedd6766c05","ios":"levelo://app?vid=49fbab48-96fb-4298-8915-cdedd6766c05"},"vehicle_type_id":"4","last_reported":1738498491,"current_range_meters":39200,"station_id":"ce4bgv12rcd13ifvqcp0","pricing_plan_id":"cebpf4jnsgd1na2vs0mg"},{"bike_id":"204b9cd7-89fd-4273-9bb6-521b0cef5a71","system_id":"levelo_inurba_marseille","lat":43.2794,"lon":5.41042,"is_reserved":false,"is_disabled":false,"rental_uris":{"android":"levelo://app?vid=204b9cd7-89fd-4273-9bb6-521b0cef5a71","ios":"levelo://app?vid=204b9cd7-89fd-4273-9bb6-521b0cef5a71"},"vehicle_type_id":"4","last_reported":1738498491,"current_range_meters":19200,"station_id":"ce4bhnp2rcd13ifvqh0g","pricing_plan_id":"cebpf4jnsgd1na2vs0mg"},{"bike_id":"29e433c5-f86e-40bf-8cf3-374b024916b0","system_id":"levelo_inurba_marseille","lat":43.32289,"lon":5.38248,"is_reserved":false,"is_disabled":false,"rental_uris":{"android":"levelo://app?vid=29e433c5-f86e-40bf-8cf3-374b024916b0","ios":"levelo://app?vid=29e433c5-f86e-40bf-8cf3-374b024916b0"},"vehicle_type_id":"4","last_reported":1738498491,"current_range_meters":38400,"station_id":"ce4bhr12rcd13ifvqhqg","pricing_plan_id":"cebpf4jnsgd1na2vs0mg"},{"bike_id":"2168c5ba-149f-43f8-99b4-755c3722a1ac","system_id":"levelo_inurba_marseille","lat":43.30148,"lon":5.38082,"is_reserved":false,"is_disabled":false,"rental_uris":{"android":"levelo://app?vid=2168c5ba-149f-43f8-99b4-755c3722a1ac","ios":"levelo://app?vid=2168c5ba-149f-43f8-99b4-755c3722a1ac"},"vehicle_type_id":"4","last_reported":1738498491,"current_range_meters":37600,"station_id":"ce4bgjp2rcd13ifvqbh0","pricing_plan_id":"cebpf4jnsgd1na2vs0mg"},{"bike_id":"8dc64907-2112-4185-a8dd-1cdabc5cf35a","system_id":"levelo_inurba_marseille","lat":43.26203,"lon":5.37456,"is_reserved":false,"is_disabled":false,"rental_uris":{"android":"levelo://app?vid=8dc64907-2112-4185-a8dd-1cdabc5cf35a","ios":"levelo://app?vid=8dc64907-2112-4185-a8dd-1cdabc5cf35a"},"vehicle_type_id":"4","last_reported":1738498491,"current_range_meters":6400,"station_id":"ce4bhgp2rcd13ifvqfc0","pricing_plan_id":"cebpf4jnsgd1na2vs0mg"},{"bike_id":"59e98682-9355-45ca-aaa0-29b37b791d30","system_id":"levelo_inurba_marseille","lat":43.29559,"lon":5.42298,"is_reserved":false,"is_disabled":false,"rental_uris":{"android":"levelo://app?vid=59e98682-9355-45ca-aaa0-29b37b791d30","ios":"levelo://app?vid=59e98682-9355-45ca-aaa0-29b37b791d30"},"vehicle_type_id":"4","last_reported":1738498491,"current_range_meters":2800,"station_id":"ce4bhph2rcd13ifvqhdg","pricing_plan_id":"cebpf4jnsgd1na2vs0mg"},{"bike_id":"c8a9d751-cf9d-4066-9d15-b24796745132","system_id":"levelo_inurba_marseille","lat":43.28273,"lon":5.35076,"is_reserved":false,"is_disabled":false,"rental_uris":{"android":"levelo://app?vid=c8a9d751-cf9d-4066-9d15-b24796745132","ios":"levelo://app?vid=c8a9d751-cf9d-4066-9d15-b24796745132"},"vehicle_type_id":"4","last_reported":1738498491,"current_range_meters":30800,"station_id":"ce4bhbp2rcd13ifvqerg","pricing_plan_id":"cebpf4jnsgd1na2vs0mg"},{"bike_id":"a561aae7-6369-4c00-9d68-e8c23562735d","system_id":"levelo_inurba_marseille","lat":43.2659,"lon":5.39051,"is_reserved":false,"is_disabled":true,"rental_uris":{"android":"levelo://app?vid=a561aae7-6369-4c00-9d68-e8c23562735d","ios":"levelo://app?vid=a561aae7-6369-4c00-9d68-e8c23562735d"},"vehicle_type_id":"4","last_reported":1738498491,"current_range_meters":15200,"station_id":"ce4bhe12rcd13ifvqf30","pricing_plan_id":"cebpf4jnsgd1na2vs0mg"},{"bike_id":"e2c49145-d80d-4c68-8184-02b30e52c755","system_id":"levelo_inurba_marseille","lat":43.30793,"lon":5.43526,"is_reserved":false,"is_disabled":false,"rental_uris":{"android":"levelo://app?vid=e2c49145-d80d-4c68-8184-02b30e52c755","ios":"levelo://app?vid=e2c49145-d80d-4c68-8184-02b30e52c755"},"vehicle_type_id":"4","last_reported":1738498491,"current_range_meters":20000,"station_id":"ce4bhph2rcd13ifvqheg","pricing_plan_id":"cebpf4jnsgd1na2vs0mg"},{"bike_id":"80b73406-99f0-4307-a36c-6ff8ca7f36f3","system_id":"levelo_inurba_marseille","lat":43.2706,"lon":5.40261,"is_reserved":false,"is_disabled":false,"rental_uris":{"android":"levelo://app?vid=80b73406-99f0-4307-a36c-6ff8ca7f36f3","ios":"levelo://app?vid=80b73406-99f0-4307-a36c-6ff8ca7f36f3"},"vehicle_type_id":"4","last_reported":1738498491,"current_range_meters":36800,"station_id":"ce4bhk92rcd13ifvqgc0","pricing_plan_id":"cebpf4jnsgd1na2vs0mg"},{"bike_id":"7076d614-6287-4ef0-a4a8-acac7f297151","system_id":"levelo_inurba_marseille","lat":43.30561,"lon":5.36726,"is_reserved":false,"is_disabled":false,"rental_uris":{"android":"levelo://app?vid=7076d614-6287-4ef0-a4a8-acac7f297151","ios":"levelo://app?vid=7076d614-6287-4ef0-a4a8-acac7f297151"},"vehicle_type_id":"4","last_reported":1738498491,"current_range_meters":30800,"station_id":"ce4bgrp2rcd13ifvqc9g","pricing_plan_id":"cebpf4jnsgd1na2vs0mg"},{"bike_id":"d979d8d2-ec65-47af-9229-e4270aab279a","system_id":"levelo_inurba_marseille","lat":43.23071,"lon":5.35486,"is_reserved":false,"is_disabled":false,"rental_uris":{"android":"levelo://app?vid=d979d8d2-ec65-47af-9229-e4270aab279a","ios":"levelo://app?vid=d979d8d2-ec65-47af-9229-e4270aab279a"},"vehicle_type_id":"4","last_reported":1738498491,"current_range_meters":38000,"station_id":"cpo3342slgdg3j2ifvpg","pricing_plan_id":"cebpf4jnsgd1na2vs0mg"},{"bike_id":"4087ac0e-cc17-43e0-91b5-e632a4549da0","system_id":"levelo_inurba_marseille","lat":43.25494,"lon":5.37652,"is_reserved":false,"is_disabled":false,"rental_uris":{"android":"levelo://app?vid=4087ac0e-cc17-43e0-91b5-e632a4549da0","ios":"levelo://app?vid=4087ac0e-cc17-43e0-91b5-e632a4549da0"},"vehicle_type_id":"4","last_reported":1738498491,"current_range_meters":36800,"station_id":"ce4bhh12rcd13ifvqff0","pricing_plan_id":"cebpf4jnsgd1na2vs0mg"},{"bike_id":"82c6eebf-0519-4b18-a727-88dc1d4c976d","system_id":"levelo_inurba_marseille","lat":43.28267,"lon":5.35077,"is_reserved":false,"is_disabled":true,"rental_uris":{"android":"levelo://app?vid=82c6eebf-0519-4b18-a727-88dc1d4c976d","ios":"levelo://app?vid=82c6eebf-0519-4b18-a727-88dc1d4c976d"},"vehicle_type_id":"4","last_reported":1738498491,"current_range_meters":24000,"station_id":"ce4bhbp2rcd13ifvqerg","pricing_plan_id":"cebpf4jnsgd1na2vs0mg"},{"bike_id":"3ccd196e-cddd-41f1-8a25-97e7f22947f7","system_id":"levelo_inurba_marseille","lat":43.25124,"lon":5.40328,"is_reserved":false,"is_disabled":true,"rental_uris":{"android":"levelo://app?vid=3ccd196e-cddd-41f1-8a25-97e7f22947f7","ios":"levelo://app?vid=3ccd196e-cddd-41f1-8a25-97e7f22947f7"},"vehicle_type_id":"4","last_reported":1738498491,"current_range_meters":38800,"station_id":"ce4bhlh2rcd13ifvqgig","pricing_plan_id":"cebpf4jnsgd1na2vs0mg"},{"bike_id":"c007eca9-6cc6-4cd6-8a1c-8521731a13ef","system_id":"levelo_inurba_marseille","lat":43.3047,"lon":5.3791,"is_reserved":false,"is_disabled":false,"rental_uris":{"android":"levelo://app?vid=c007eca9-6cc6-4cd6-8a1c-8521731a13ef","ios":"levelo://app?vid=c007eca9-6cc6-4cd6-8a1c-8521731a13ef"},"vehicle_type_id":"4","last_reported":1738498491,"current_range_meters":39200,"station_id":"ce4bgup2rcd13ifvqcn0","pricing_plan_id":"cebpf4jnsgd1na2vs0mg"},{"bike_id":"14eb7a59-9b20-4e76-b93d-5c9f392068a1","system_id":"levelo_inurba_marseille","lat":43.28153,"lon":5.42642,"is_reserved":false,"is_disabled":false,"rental_uris":{"android":"levelo://app?vid=14eb7a59-9b20-4e76-b93d-5c9f392068a1","ios":"levelo://app?vid=14eb7a59-9b20-4e76-b93d-5c9f392068a1"},"vehicle_type_id":"4","last_reported":1738498491,"current_range_meters":16000,"station_id":"ce4bhnh2rcd13ifvqgug","pricing_plan_id":"cebpf4jnsgd1na2vs0mg"},{"bike_id":"90d8247b-1174-449d-9eb0-b1f3c78024c6","system_id":"levelo_inurba_marseille","lat":43.27998,"lon":5.41673,"is_reserved":false,"is_disabled":false,"rental_uris":{"android":"levelo://app?vid=90d8247b-1174-449d-9eb0-b1f3c78024c6","ios":"levelo://app?vid=90d8247b-1174-449d-9eb0-b1f3c78024c6"},"vehicle_type_id":"4","last_reported":1738498491,"current_range_meters":28400,"station_id":"ce4bho12rcd13ifvqh1g","pricing_plan_id":"cebpf4jnsgd1na2vs0mg"},{"bike_id":"92854619-94b9-4bc8-903d-cabd637dab93","system_id":"levelo_inurba_marseille","lat":43.28419,"lon":5.34985,"is_reserved":false,"is_disabled":false,"rental_uris":{"android":"levelo://app?vid=92854619-94b9-4bc8-903d-cabd637dab93","ios":"levelo://app?vid=92854619-94b9-4bc8-903d-cabd637dab93"},"vehicle_type_id":"4","last_reported":1738498491,"current_range_meters":35200,"station_id":"ce4bhbh2rcd13ifvqepg","pricing_plan_id":"cebpf4jnsgd1na2vs0mg"},{"bike_id":"f99e91c4-2330-4795-bfe7-3495ca9ba92c","system_id":"levelo_inurba_marseille","lat":43.2895,"lon":5.36624,"is_reserved":false,"is_disabled":true,"rental_uris":{"android":"levelo://app?vid=f99e91c4-2330-4795-bfe7-3495ca9ba92c","ios":"levelo://app?vid=f99e91c4-2330-4795-bfe7-3495ca9ba92c"},"vehicle_type_id":"4","last_reported":1738498491,"current_range_meters":28800,"station_id":"ce4bhap2rcd13ifvqek0","pricing_plan_id":"cebpf4jnsgd1na2vs0mg"},{"bike_id":"2d271687-d945-4d06-94d5-262c8fb16993","system_id":"levelo_inurba_marseille","lat":43.27488,"lon":5.42468,"is_reserved":false,"is_disabled":false,"rental_uris":{"android":"levelo://app?vid=2d271687-d945-4d06-94d5-262c8fb16993","ios":"levelo://app?vid=2d271687-d945-4d06-94d5-262c8fb16993"},"vehicle_type_id":"4","last_reported":1738498491,"current_range_meters":34000,"station_id":"ce4bhn92rcd13ifvqgrg","pricing_plan_id":"cebpf4jnsgd1na2vs0mg"},{"bike_id":"f964fcc3-cd45-4424-bd13-9bb82daa53ff","system_id":"levelo_inurba_marseille","lat":43.33726,"lon":5.3918,"is_reserved":false,"is_disabled":false,"rental_uris":{"android":"levelo://app?vid=f964fcc3-cd45-4424-bd13-9bb82daa53ff","ios":"levelo://app?vid=f964fcc3-cd45-4424-bd13-9bb82daa53ff"},"vehicle_type_id":"4","last_reported":1738498491,"current_range_meters":38000,"station_id":"ce4bhr92rcd13ifvqhsg","pricing_plan_id":"cebpf4jnsgd1na2vs0mg"},{"bike_id":"824afc2d-c9a5-4484-bbac-7f9b9999bfc8","system_id":"levelo_inurba_marseille","lat":43.23191,"lon":5.39975,"is_reserved":false,"is_disabled":false,"rental_uris":{"android":"levelo://app?vid=824afc2d-c9a5-4484-bbac-7f9b9999bfc8","ios":"levelo://app?vid=824afc2d-c9a5-4484-bbac-7f9b9999bfc8"},"vehicle_type_id":"4","last_reported":1738498491,"current_range_meters":38800,"station_id":"ce4bhn12rcd13ifvqgqg","pricing_plan_id":"cebpf4jnsgd1na2vs0mg"},{"bike_id":"15ced002-0d65-4c4b-8206-e2cbbbbb76df","system_id":"levelo_inurba_marseille","lat":43.28192,"lon":5.391,"is_reserved":false,"is_disabled":false,"rental_uris":{"android":"levelo://app?vid=15ced002-0d65-4c4b-8206-e2cbbbbb76df","ios":"levelo://app?vid=15ced002-0d65-4c4b-8206-e2cbbbbb76df"},"vehicle_type_id":"4","last_reported":1738498491,"current_range_meters":34800,"station_id":"","pricing_plan_id":"cebpf4jnsgd1na2vs0mg"},{"bike_id":"0ef83bbd-06ec-47f7-a25d-62aa89428599","system_id":"levelo_inurba_marseille","lat":43.2586,"lon":5.39898,"is_reserved":false,"is_disabled":false,"rental_uris":{"android":"levelo://app?vid=0ef83bbd-06ec-47f7-a25d-62aa89428599","ios":"levelo://app?vid=0ef83bbd-06ec-47f7-a25d-62aa89428599"},"vehicle_type_id":"4","last_reported":1738498491,"current_range_meters":30800,"station_id":"ce4bhl92rcd13ifvqghg","pricing_plan_id":"cebpf4jnsgd1na2vs0mg"},{"bike_id":"96cdde99-07e1-4e29-ada8-0165767ba907","system_id":"levelo_inurba_marseille","lat":43.2794,"lon":5.41063,"is_reserved":false,"is_disabled":false,"rental_uris":{"android":"levelo://app?vid=96cdde99-07e1-4e29-ada8-0165767ba907","ios":"levelo://app?vid=96cdde99-07e1-4e29-ada8-0165767ba907"},"vehicle_type_id":"4","last_reported":1738498491,"current_range_meters":9600,"station_id":"ce4bhnp2rcd13ifvqh0g","pricing_plan_id":"cebpf4jnsgd1na2vs0mg"},{"bike_id":"a34bfc6b-3385-46e3-a45f-166cd154c06a","system_id":"levelo_inurba_marseille","lat":43.29597,"lon":5.37725,"is_reserved":false,"is_disabled":false,"rental_uris":{"android":"levelo://app?vid=a34bfc6b-3385-46e3-a45f-166cd154c06a","ios":"levelo://app?vid=a34bfc6b-3385-46e3-a45f-166cd154c06a"},"vehicle_type_id":"4","last_reported":1738498491,"current_range_meters":38800,"station_id":"ce4bgi92rcd13ifvqb90","pricing_plan_id":"cebpf4jnsgd1na2vs0mg"},{"bike_id":"8344a4b9-fe19-4ccf-9e1e-c66810831c8c","system_id":"levelo_inurba_marseille","lat":43.24394,"lon":5.37063,"is_reserved":false,"is_disabled":false,"rental_uris":{"android":"levelo://app?vid=8344a4b9-fe19-4ccf-9e1e-c66810831c8c","ios":"levelo://app?vid=8344a4b9-fe19-4ccf-9e1e-c66810831c8c"},"vehicle_type_id":"4","last_reported":1738498491,"current_range_meters":11600,"station_id":"ce4bhhh2rcd13ifvqfk0","pricing_plan_id":"cebpf4jnsgd1na2vs0mg"},{"bike_id":"b3de6b39-2a1b-4218-ae30-821a58f6f0d2","system_id":"levelo_inurba_marseille","lat":43.29277,"lon":5.3685,"is_reserved":false,"is_disabled":false,"rental_uris":{"android":"levelo://app?vid=b3de6b39-2a1b-4218-ae30-821a58f6f0d2","ios":"levelo://app?vid=b3de6b39-2a1b-4218-ae30-821a58f6f0d2"},"vehicle_type_id":"4","last_reported":1738498491,"current_range_meters":38800,"station_id":"ce4bhbp2rcd13ifvqesg","pricing_plan_id":"cebpf4jnsgd1na2vs0mg"},{"bike_id":"8f919b97-8ec0-4c4d-8748-f93db3b5eff9","system_id":"levelo_inurba_marseille","lat":43.29908,"lon":5.37467,"is_reserved":false,"is_disabled":false,"rental_uris":{"android":"levelo://app?vid=8f919b97-8ec0-4c4d-8748-f93db3b5eff9","ios":"levelo://app?vid=8f919b97-8ec0-4c4d-8748-f93db3b5eff9"},"vehicle_type_id":"4","last_reported":1738498491,"current_range_meters":38800,"station_id":"ce4bgjh2rcd13ifvqbg0","pricing_plan_id":"cebpf4jnsgd1na2vs0mg"},{"bike_id":"2047e938-57e3-4375-958a-69a4e97a2c7d","system_id":"levelo_inurba_marseille","lat":43.23191,"lon":5.39986,"is_reserved":false,"is_disabled":true,"rental_uris":{"android":"levelo://app?vid=2047e938-57e3-4375-958a-69a4e97a2c7d","ios":"levelo://app?vid=2047e938-57e3-4375-958a-69a4e97a2c7d"},"vehicle_type_id":"4","last_reported":1738498491,"current_range_meters":6800,"station_id":"ce4bhn12rcd13ifvqgqg","pricing_plan_id":"cebpf4jnsgd1na2vs0mg"},{"bike_id":"5f36d359-9e0c-49bf-ba6f-caeb7d81f28f","system_id":"levelo_inurba_marseille","lat":43.23181,"lon":5.39984,"is_reserved":false,"is_disabled":false,"rental_uris":{"android":"levelo://app?vid=5f36d359-9e0c-49bf-ba6f-caeb7d81f28f","ios":"levelo://app?vid=5f36d359-9e0c-49bf-ba6f-caeb7d81f28f"},"vehicle_type_id":"4","last_reported":1738498491,"current_range_meters":19200,"station_id":"ce4bhn12rcd13ifvqgqg","pricing_plan_id":"cebpf4jnsgd1na2vs0mg"},{"bike_id":"43f3db03-626b-421b-94f2-0801d32b7575","system_id":"levelo_inurba_marseille","lat":43.26206,"lon":5.37463,"is_reserved":false,"is_disabled":false,"rental_uris":{"android":"levelo://app?vid=43f3db03-626b-421b-94f2-0801d32b7575","ios":"levelo://app?vid=43f3db03-626b-421b-94f2-0801d32b7575"},"vehicle_type_id":"4","last_reported":1738498491,"current_range_meters":36000,"station_id":"ce4bhgp2rcd13ifvqfc0","pricing_plan_id":"cebpf4jnsgd1na2vs0mg"},{"bike_id":"fb9e5fa9-d1b4-405d-a003-2e91cd752f8f","system_id":"levelo_inurba_marseille","lat":43.27315,"lon":5.3911,"is_reserved":false,"is_disabled":false,"rental_uris":{"android":"levelo://app?vid=fb9e5fa9-d1b4-405d-a003-2e91cd752f8f","ios":"levelo://app?vid=fb9e5fa9-d1b4-405d-a003-2e91cd752f8f"},"vehicle_type_id":"4","last_reported":1738498491,"current_range_meters":36400,"station_id":"ce4bhgp2rcd13ifvqfe0","pricing_plan_id":"cebpf4jnsgd1na2vs0mg"},{"bike_id":"f400731c-7fdb-444e-a0b2-4e35fe94b18c","system_id":"levelo_inurba_marseille","lat":43.32666,"lon":5.41002,"is_reserved":false,"is_disabled":false,"rental_uris":{"android":"levelo://app?vid=f400731c-7fdb-444e-a0b2-4e35fe94b18c","ios":"levelo://app?vid=f400731c-7fdb-444e-a0b2-4e35fe94b18c"},"vehicle_type_id":"4","last_reported":1738498491,"current_range_meters":38800,"station_id":"ce4bhpp2rcd13ifvqhgg","pricing_plan_id":"cebpf4jnsgd1na2vs0mg"},{"bike_id":"81711ff1-1698-49b1-9c15-00a3e724dc42","system_id":"levelo_inurba_marseille","lat":43.29601,"lon":5.38102,"is_reserved":false,"is_disabled":false,"rental_uris":{"android":"levelo://app?vid=81711ff1-1698-49b1-9c15-00a3e724dc42","ios":"levelo://app?vid=81711ff1-1698-49b1-9c15-00a3e724dc42"},"vehicle_type_id":"4","last_reported":1738498491,"current_range_meters":32800,"station_id":"ce4bgl12rcd13ifvqbo0","pricing_plan_id":"cebpf4jnsgd1na2vs0mg"},{"bike_id":"c8c2c83e-ea97-4f07-b849-c107f32248d7","system_id":"levelo_inurba_marseille","lat":43.29274,"lon":5.4012,"is_reserved":false,"is_disabled":false,"rental_uris":{"android":"levelo://app?vid=c8c2c83e-ea97-4f07-b849-c107f32248d7","ios":"levelo://app?vid=c8c2c83e-ea97-4f07-b849-c107f32248d7"},"vehicle_type_id":"4","last_reported":1738498491,"current_range_meters":32400,"station_id":"ce4bh312rcd13ifvqdk0","pricing_plan_id":"cebpf4jnsgd1na2vs0mg"},{"bike_id":"86081c0e-433e-48d1-a299-05a43f95e50d","system_id":"levelo_inurba_marseille","lat":43.29911,"lon":5.3747,"is_reserved":false,"is_disabled":false,"rental_uris":{"android":"levelo://app?vid=86081c0e-433e-48d1-a299-05a43f95e50d","ios":"levelo://app?vid=86081c0e-433e-48d1-a299-05a43f95e50d"},"vehicle_type_id":"4","last_reported":1738498491,"current_range_meters":32400,"station_id":"ce4bgjh2rcd13ifvqbg0","pricing_plan_id":"cebpf4jnsgd1na2vs0mg"},{"bike_id":"344c121b-c7d6-4b0b-afff-49a251c2e340","system_id":"levelo_inurba_marseille","lat":43.34143,"lon":5.40899,"is_reserved":false,"is_disabled":false,"rental_uris":{"android":"levelo://app?vid=344c121b-c7d6-4b0b-afff-49a251c2e340","ios":"levelo://app?vid=344c121b-c7d6-4b0b-afff-49a251c2e340"},"vehicle_type_id":"4","last_reported":1738498491,"current_range_meters":38800,"station_id":"ce4bhqh2rcd13ifvqhlg","pricing_plan_id":"cebpf4jnsgd1na2vs0mg"},{"bike_id":"39deeebf-6ddb-4486-b697-7a127dff7ee4","system_id":"levelo_inurba_marseille","lat":43.240693,"lon":5.377649,"is_reserved":false,"is_disabled":false,"rental_uris":{"android":"levelo://app?vid=39deeebf-6ddb-4486-b697-7a127dff7ee4","ios":"levelo://app?vid=39deeebf-6ddb-4486-b697-7a127dff7ee4"},"vehicle_type_id":"4","last_reported":1738498491,"current_range_meters":38800,"station_id":"ce4bhnp2rcd13ifvqgvg","pricing_plan_id":"cebpf4jnsgd1na2vs0mg"},{"bike_id":"3a60ebc0-dac7-4b3e-a8c5-4699cca32d17","system_id":"levelo_inurba_marseille","lat":43.30795,"lon":5.43518,"is_reserved":false,"is_disabled":false,"rental_uris":{"android":"levelo://app?vid=3a60ebc0-dac7-4b3e-a8c5-4699cca32d17","ios":"levelo://app?vid=3a60ebc0-dac7-4b3e-a8c5-4699cca32d17"},"vehicle_type_id":"4","last_reported":1738498491,"current_range_meters":28800,"station_id":"ce4bhph2rcd13ifvqheg","pricing_plan_id":"cebpf4jnsgd1na2vs0mg"},{"bike_id":"30c92c2f-c1c2-45c4-b8da-3293b66736ed","system_id":"levelo_inurba_marseille","lat":43.32492,"lon":5.36618,"is_reserved":false,"is_disabled":false,"rental_uris":{"android":"levelo://app?vid=30c92c2f-c1c2-45c4-b8da-3293b66736ed","ios":"levelo://app?vid=30c92c2f-c1c2-45c4-b8da-3293b66736ed"},"vehicle_type_id":"4","last_reported":1738498491,"current_range_meters":18800,"station_id":"","pricing_plan_id":"cebpf4jnsgd1na2vs0mg"},{"bike_id":"a667b497-5a94-44a0-a057-8aa9c9b4f031","system_id":"levelo_inurba_marseille","lat":43.28105,"lon":5.37858,"is_reserved":false,"is_disabled":false,"rental_uris":{"android":"levelo://app?vid=a667b497-5a94-44a0-a057-8aa9c9b4f031","ios":"levelo://app?vid=a667b497-5a94-44a0-a057-8aa9c9b4f031"},"vehicle_type_id":"4","last_reported":1738498491,"current_range_meters":38800,"station_id":"ce4bha12rcd13ifvqee0","pricing_plan_id":"cebpf4jnsgd1na2vs0mg"},{"bike_id":"9d6a62ba-12a5-439c-ae4b-e3287b8ced29","system_id":"levelo_inurba_marseille","lat":43.27166,"lon":5.40997,"is_reserved":false,"is_disabled":false,"rental_uris":{"android":"levelo://app?vid=9d6a62ba-12a5-439c-ae4b-e3287b8ced29","ios":"levelo://app?vid=9d6a62ba-12a5-439c-ae4b-e3287b8ced29"},"vehicle_type_id":"4","last_reported":1738498491,"current_range_meters":24800,"station_id":"ce4bhl12rcd13ifvqgf0","pricing_plan_id":"cebpf4jnsgd1na2vs0mg"},{"bike_id":"55588187-a4ea-4de4-8902-f9455c40bdb2","system_id":"levelo_inurba_marseille","lat":43.32479,"lon":5.36572,"is_reserved":false,"is_disabled":false,"rental_uris":{"android":"levelo://app?vid=55588187-a4ea-4de4-8902-f9455c40bdb2","ios":"levelo://app?vid=55588187-a4ea-4de4-8902-f9455c40bdb2"},"vehicle_type_id":"4","last_reported":1738498491,"current_range_meters":17200,"station_id":"ce4bhs12rcd13ifvqhvg","pricing_plan_id":"cebpf4jnsgd1na2vs0mg"},{"bike_id":"fb2c4d40-98f1-437e-8a63-ab9665c0ff0e","system_id":"levelo_inurba_marseille","lat":43.31114,"lon":5.42445,"is_reserved":false,"is_disabled":false,"rental_uris":{"android":"levelo://app?vid=fb2c4d40-98f1-437e-8a63-ab9665c0ff0e","ios":"levelo://app?vid=fb2c4d40-98f1-437e-8a63-ab9665c0ff0e"},"vehicle_type_id":"4","last_reported":1738498491,"current_range_meters":38800,"station_id":"ce4bhp92rcd13ifvqhag","pricing_plan_id":"cebpf4jnsgd1na2vs0mg"},{"bike_id":"56b09552-4219-4565-a734-8e0fd6e4802e","system_id":"levelo_inurba_marseille","lat":43.26319,"lon":5.37331,"is_reserved":false,"is_disabled":false,"rental_uris":{"android":"levelo://app?vid=56b09552-4219-4565-a734-8e0fd6e4802e","ios":"levelo://app?vid=56b09552-4219-4565-a734-8e0fd6e4802e"},"vehicle_type_id":"4","last_reported":1738498491,"current_range_meters":39200,"station_id":"ce4bhgp2rcd13ifvqfc0","pricing_plan_id":"cebpf4jnsgd1na2vs0mg"},{"bike_id":"f9a8bd69-665c-48a7-ad3c-2e9818255e07","system_id":"levelo_inurba_marseille","lat":43.32491,"lon":5.36581,"is_reserved":false,"is_disabled":false,"rental_uris":{"android":"levelo://app?vid=f9a8bd69-665c-48a7-ad3c-2e9818255e07","ios":"levelo://app?vid=f9a8bd69-665c-48a7-ad3c-2e9818255e07"},"vehicle_type_id":"4","last_reported":1738498491,"current_range_meters":36400,"station_id":"ce4bhs12rcd13ifvqhvg","pricing_plan_id":"cebpf4jnsgd1na2vs0mg"},{"bike_id":"d708aa57-14c1-4571-8f74-6f428f61853a","system_id":"levelo_inurba_marseille","lat":43.29849,"lon":5.36312,"is_reserved":false,"is_disabled":false,"rental_uris":{"android":"levelo://app?vid=d708aa57-14c1-4571-8f74-6f428f61853a","ios":"levelo://app?vid=d708aa57-14c1-4571-8f74-6f428f61853a"},"vehicle_type_id":"4","last_reported":1738498491,"current_range_meters":28000,"station_id":"ce4bgpp2rcd13ifvqc3g","pricing_plan_id":"cebpf4jnsgd1na2vs0mg"},{"bike_id":"2abf2e04-64f9-454a-a5ce-482f321c0fbc","system_id":"levelo_inurba_marseille","lat":43.296239,"lon":5.377045,"is_reserved":false,"is_disabled":true,"rental_uris":{"android":"levelo://app?vid=2abf2e04-64f9-454a-a5ce-482f321c0fbc","ios":"levelo://app?vid=2abf2e04-64f9-454a-a5ce-482f321c0fbc"},"vehicle_type_id":"4","last_reported":1738498491,"current_range_meters":0,"station_id":"","pricing_plan_id":"cebpf4jnsgd1na2vs0mg"},{"bike_id":"a400cb11-351f-4890-b5eb-6c927b2cc51d","system_id":"levelo_inurba_marseille","lat":43.32374,"lon":5.38876,"is_reserved":false,"is_disabled":false,"rental_uris":{"android":"levelo://app?vid=a400cb11-351f-4890-b5eb-6c927b2cc51d","ios":"levelo://app?vid=a400cb11-351f-4890-b5eb-6c927b2cc51d"},"vehicle_type_id":"4","last_reported":1738498491,"current_range_meters":17600,"station_id":"ce4bhqp2rcd13ifvqhog","pricing_plan_id":"cebpf4jnsgd1na2vs0mg"},{"bike_id":"ab2c796a-c23b-4a3a-9534-777b873d6a05","system_id":"levelo_inurba_marseille","lat":43.24168,"lon":5.36406,"is_reserved":false,"is_disabled":false,"rental_uris":{"android":"levelo://app?vid=ab2c796a-c23b-4a3a-9534-777b873d6a05","ios":"levelo://app?vid=ab2c796a-c23b-4a3a-9534-777b873d6a05"},"vehicle_type_id":"4","last_reported":1738498491,"current_range_meters":28800,"station_id":"cpo36qri1sfpv3e86is0","pricing_plan_id":"cebpf4jnsgd1na2vs0mg"},{"bike_id":"fa8d4be4-6a2b-49c5-a1cd-f122857aa91f","system_id":"levelo_inurba_marseille","lat":43.28466,"lon":5.38409,"is_reserved":false,"is_disabled":true,"rental_uris":{"android":"levelo://app?vid=fa8d4be4-6a2b-49c5-a1cd-f122857aa91f","ios":"levelo://app?vid=fa8d4be4-6a2b-49c5-a1cd-f122857aa91f"},"vehicle_type_id":"4","last_reported":1738498491,"current_range_meters":0,"station_id":"ce4bh512rcd13ifvqe3g","pricing_plan_id":"cebpf4jnsgd1na2vs0mg"},{"bike_id":"dc1d93f0-8070-4816-adf4-81a36b2979e4","system_id":"levelo_inurba_marseille","lat":43.31215,"lon":5.3685,"is_reserved":false,"is_disabled":false,"rental_uris":{"android":"levelo://app?vid=dc1d93f0-8070-4816-adf4-81a36b2979e4","ios":"levelo://app?vid=dc1d93f0-8070-4816-adf4-81a36b2979e4"},"vehicle_type_id":"4","last_reported":1738498491,"current_range_meters":35600,"station_id":"ce4bgl92rcd13ifvqbq0","pricing_plan_id":"cebpf4jnsgd1na2vs0mg"},{"bike_id":"5828b83b-f7c6-4d80-a783-c5c9cb673d67","system_id":"levelo_inurba_marseille","lat":43.30152,"lon":5.37407,"is_reserved":false,"is_disabled":false,"rental_uris":{"android":"levelo://app?vid=5828b83b-f7c6-4d80-a783-c5c9cb673d67","ios":"levelo://app?vid=5828b83b-f7c6-4d80-a783-c5c9cb673d67"},"vehicle_type_id":"4","last_reported":1738498491,"current_range_meters":38800,"station_id":"ce4bgs92rcd13ifvqcc0","pricing_plan_id":"cebpf4jnsgd1na2vs0mg"},{"bike_id":"58feef8f-17b5-470d-8151-c7a13f0dbe24","system_id":"levelo_inurba_marseille","lat":43.28415,"lon":5.37514,"is_reserved":false,"is_disabled":true,"rental_uris":{"android":"levelo://app?vid=58feef8f-17b5-470d-8151-c7a13f0dbe24","ios":"levelo://app?vid=58feef8f-17b5-470d-8151-c7a13f0dbe24"},"vehicle_type_id":"4","last_reported":1738498491,"current_range_meters":0,"station_id":"ce4bh412rcd13ifvqds0","pricing_plan_id":"cebpf4jnsgd1na2vs0mg"},{"bike_id":"992b75a0-8296-4631-9075-6f277fdbac19","system_id":"levelo_inurba_marseille","lat":43.28426,"lon":5.37521,"is_reserved":false,"is_disabled":false,"rental_uris":{"android":"levelo://app?vid=992b75a0-8296-4631-9075-6f277fdbac19","ios":"levelo://app?vid=992b75a0-8296-4631-9075-6f277fdbac19"},"vehicle_type_id":"4","last_reported":1738498491,"current_range_meters":38800,"station_id":"ce4bh412rcd13ifvqds0","pricing_plan_id":"cebpf4jnsgd1na2vs0mg"},{"bike_id":"c098c1fe-1a19-4fbd-8d1b-88b207b14904","system_id":"levelo_inurba_marseille","lat":43.2843,"lon":5.34994,"is_reserved":false,"is_disabled":false,"rental_uris":{"android":"levelo://app?vid=c098c1fe-1a19-4fbd-8d1b-88b207b14904","ios":"levelo://app?vid=c098c1fe-1a19-4fbd-8d1b-88b207b14904"},"vehicle_type_id":"4","last_reported":1738498491,"current_range_meters":24000,"station_id":"ce4bhbh2rcd13ifvqepg","pricing_plan_id":"cebpf4jnsgd1na2vs0mg"},{"bike_id":"2dee4ecb-8e53-44a3-9726-3bc5c20a1718","system_id":"levelo_inurba_marseille","lat":43.2842,"lon":5.34996,"is_reserved":false,"is_disabled":false,"rental_uris":{"android":"levelo://app?vid=2dee4ecb-8e53-44a3-9726-3bc5c20a1718","ios":"levelo://app?vid=2dee4ecb-8e53-44a3-9726-3bc5c20a1718"},"vehicle_type_id":"4","last_reported":1738498491,"current_range_meters":32800,"station_id":"ce4bhbh2rcd13ifvqepg","pricing_plan_id":"cebpf4jnsgd1na2vs0mg"},{"bike_id":"8ccd2dbf-60c6-4bf2-87d6-24be26c84805","system_id":"levelo_inurba_marseille","lat":43.23195,"lon":5.35566,"is_reserved":false,"is_disabled":false,"rental_uris":{"android":"levelo://app?vid=8ccd2dbf-60c6-4bf2-87d6-24be26c84805","ios":"levelo://app?vid=8ccd2dbf-60c6-4bf2-87d6-24be26c84805"},"vehicle_type_id":"4","last_reported":1738498491,"current_range_meters":32000,"station_id":"ce4bhu92rcd13ifvqi70","pricing_plan_id":"cebpf4jnsgd1na2vs0mg"},{"bike_id":"e91ad5d9-e7e7-46c0-b582-3c39abb7cb1c","system_id":"levelo_inurba_marseille","lat":43.25116,"lon":5.40314,"is_reserved":false,"is_disabled":false,"rental_uris":{"android":"levelo://app?vid=e91ad5d9-e7e7-46c0-b582-3c39abb7cb1c","ios":"levelo://app?vid=e91ad5d9-e7e7-46c0-b582-3c39abb7cb1c"},"vehicle_type_id":"4","last_reported":1738498491,"current_range_meters":27200,"station_id":"ce4bhlh2rcd13ifvqgig","pricing_plan_id":"cebpf4jnsgd1na2vs0mg"},{"bike_id":"a09d3ce7-7ea9-4d99-a3be-65580c591d93","system_id":"levelo_inurba_marseille","lat":43.2862,"lon":5.35104,"is_reserved":false,"is_disabled":false,"rental_uris":{"android":"levelo://app?vid=a09d3ce7-7ea9-4d99-a3be-65580c591d93","ios":"levelo://app?vid=a09d3ce7-7ea9-4d99-a3be-65580c591d93"},"vehicle_type_id":"4","last_reported":1738498491,"current_range_meters":34800,"station_id":"ce4bhch2rcd13ifvqeug","pricing_plan_id":"cebpf4jnsgd1na2vs0mg"},{"bike_id":"f85aba39-8a5f-4b9b-ae02-5805e5d5b06e","system_id":"levelo_inurba_marseille","lat":43.23062,"lon":5.35477,"is_reserved":false,"is_disabled":false,"rental_uris":{"android":"levelo://app?vid=f85aba39-8a5f-4b9b-ae02-5805e5d5b06e","ios":"levelo://app?vid=f85aba39-8a5f-4b9b-ae02-5805e5d5b06e"},"vehicle_type_id":"4","last_reported":1738498491,"current_range_meters":8400,"station_id":"cpo3342slgdg3j2ifvpg","pricing_plan_id":"cebpf4jnsgd1na2vs0mg"},{"bike_id":"e1d4a2f1-c484-42e0-9232-e98e59dd1624","system_id":"levelo_inurba_marseille","lat":43.29034,"lon":5.3863,"is_reserved":false,"is_disabled":true,"rental_uris":{"android":"levelo://app?vid=e1d4a2f1-c484-42e0-9232-e98e59dd1624","ios":"levelo://app?vid=e1d4a2f1-c484-42e0-9232-e98e59dd1624"},"vehicle_type_id":"4","last_reported":1738498491,"current_range_meters":38400,"station_id":"ce4bh4p2rcd13ifvqe0g","pricing_plan_id":"cebpf4jnsgd1na2vs0mg"},{"bike_id":"f5192a48-f127-416f-ac25-5dcd6cb43014","system_id":"levelo_inurba_marseille","lat":43.31083,"lon":5.42427,"is_reserved":false,"is_disabled":false,"rental_uris":{"android":"levelo://app?vid=f5192a48-f127-416f-ac25-5dcd6cb43014","ios":"levelo://app?vid=f5192a48-f127-416f-ac25-5dcd6cb43014"},"vehicle_type_id":"4","last_reported":1738498491,"current_range_meters":34000,"station_id":"ce4bhp92rcd13ifvqhag","pricing_plan_id":"cebpf4jnsgd1na2vs0mg"},{"bike_id":"e8e1f7c6-d773-4c38-bfcc-4a6d773355ce","system_id":"levelo_inurba_marseille","lat":43.22937,"lon":5.35372,"is_reserved":false,"is_disabled":false,"rental_uris":{"android":"levelo://app?vid=e8e1f7c6-d773-4c38-bfcc-4a6d773355ce","ios":"levelo://app?vid=e8e1f7c6-d773-4c38-bfcc-4a6d773355ce"},"vehicle_type_id":"4","last_reported":1738498491,"current_range_meters":38800,"station_id":"cpo3532slgdg3j2ikp40","pricing_plan_id":"cebpf4jnsgd1na2vs0mg"},{"bike_id":"e3d264af-e8b4-4188-82c6-c376964c3e42","system_id":"levelo_inurba_marseille","lat":43.30554,"lon":5.36529,"is_reserved":false,"is_disabled":false,"rental_uris":{"android":"levelo://app?vid=e3d264af-e8b4-4188-82c6-c376964c3e42","ios":"levelo://app?vid=e3d264af-e8b4-4188-82c6-c376964c3e42"},"vehicle_type_id":"4","last_reported":1738498491,"current_range_meters":39200,"station_id":"ce4bgs12rcd13ifvqcag","pricing_plan_id":"cebpf4jnsgd1na2vs0mg"},{"bike_id":"ebe8162b-7a30-491b-b1c1-5111d8a7281a","system_id":"levelo_inurba_marseille","lat":43.2942,"lon":5.3862,"is_reserved":false,"is_disabled":false,"rental_uris":{"android":"levelo://app?vid=ebe8162b-7a30-491b-b1c1-5111d8a7281a","ios":"levelo://app?vid=ebe8162b-7a30-491b-b1c1-5111d8a7281a"},"vehicle_type_id":"4","last_reported":1738498491,"current_range_meters":6800,"station_id":"ce4bh2h2rcd13ifvqdh0","pricing_plan_id":"cebpf4jnsgd1na2vs0mg"},{"bike_id":"b0959736-bd98-42d6-b688-e7dfc953f256","system_id":"levelo_inurba_marseille","lat":43.29699,"lon":5.37702,"is_reserved":false,"is_disabled":false,"rental_uris":{"android":"levelo://app?vid=b0959736-bd98-42d6-b688-e7dfc953f256","ios":"levelo://app?vid=b0959736-bd98-42d6-b688-e7dfc953f256"},"vehicle_type_id":"4","last_reported":1738498491,"current_range_meters":28400,"station_id":"ce4bgkh2rcd13ifvqbl0","pricing_plan_id":"cebpf4jnsgd1na2vs0mg"},{"bike_id":"ea6c894d-2016-4405-87c2-24a4ddf729fd","system_id":"levelo_inurba_marseille","lat":43.26206,"lon":5.37448,"is_reserved":false,"is_disabled":false,"rental_uris":{"android":"levelo://app?vid=ea6c894d-2016-4405-87c2-24a4ddf729fd","ios":"levelo://app?vid=ea6c894d-2016-4405-87c2-24a4ddf729fd"},"vehicle_type_id":"4","last_reported":1738498491,"current_range_meters":38800,"station_id":"ce4bhgp2rcd13ifvqfc0","pricing_plan_id":"cebpf4jnsgd1na2vs0mg"},{"bike_id":"446cfbd8-380d-483d-82ba-61ff47e31d05","system_id":"levelo_inurba_marseille","lat":43.29256,"lon":5.38449,"is_reserved":false,"is_disabled":true,"rental_uris":{"android":"levelo://app?vid=446cfbd8-380d-483d-82ba-61ff47e31d05","ios":"levelo://app?vid=446cfbd8-380d-483d-82ba-61ff47e31d05"},"vehicle_type_id":"4","last_reported":1738498491,"current_range_meters":30400,"station_id":"ce4bh692rcd13ifvqea0","pricing_plan_id":"cebpf4jnsgd1na2vs0mg"},{"bike_id":"6d8d7d5f-bcf3-4645-9619-220b98c5dc26","system_id":"levelo_inurba_marseille","lat":43.2814,"lon":5.42643,"is_reserved":false,"is_disabled":false,"rental_uris":{"android":"levelo://app?vid=6d8d7d5f-bcf3-4645-9619-220b98c5dc26","ios":"levelo://app?vid=6d8d7d5f-bcf3-4645-9619-220b98c5dc26"},"vehicle_type_id":"4","last_reported":1738498491,"current_range_meters":18000,"station_id":"ce4bhnh2rcd13ifvqgug","pricing_plan_id":"cebpf4jnsgd1na2vs0mg"},{"bike_id":"995fc9c5-9cc3-404c-bd94-5898daf1a360","system_id":"levelo_inurba_marseille","lat":43.30897,"lon":5.36843,"is_reserved":false,"is_disabled":true,"rental_uris":{"android":"levelo://app?vid=995fc9c5-9cc3-404c-bd94-5898daf1a360","ios":"levelo://app?vid=995fc9c5-9cc3-404c-bd94-5898daf1a360"},"vehicle_type_id":"4","last_reported":1738498491,"current_range_meters":34800,"station_id":"ce4bgn92rcd13ifvqbvg","pricing_plan_id":"cebpf4jnsgd1na2vs0mg"},{"bike_id":"bed8df55-8232-4631-b910-a7e6e5f8c113","system_id":"levelo_inurba_marseille","lat":43.26933,"lon":5.40253,"is_reserved":false,"is_disabled":false,"rental_uris":{"android":"levelo://app?vid=bed8df55-8232-4631-b910-a7e6e5f8c113","ios":"levelo://app?vid=bed8df55-8232-4631-b910-a7e6e5f8c113"},"vehicle_type_id":"4","last_reported":1738498491,"current_range_meters":22400,"station_id":"cjm6bp8fraef2m0cb0m0","pricing_plan_id":"cebpf4jnsgd1na2vs0mg"},{"bike_id":"7095d643-c88c-4380-b0d5-45028aa7507f","system_id":"levelo_inurba_marseille","lat":43.24666,"lon":5.38889,"is_reserved":false,"is_disabled":false,"rental_uris":{"android":"levelo://app?vid=7095d643-c88c-4380-b0d5-45028aa7507f","ios":"levelo://app?vid=7095d643-c88c-4380-b0d5-45028aa7507f"},"vehicle_type_id":"4","last_reported":1738498491,"current_range_meters":18000,"station_id":"ce4bhg12rcd13ifvqf60","pricing_plan_id":"cebpf4jnsgd1na2vs0mg"},{"bike_id":"77c22e90-7a17-4358-b308-ca9d9dc19ac2","system_id":"levelo_inurba_marseille","lat":43.27625,"lon":5.36101,"is_reserved":false,"is_disabled":false,"rental_uris":{"android":"levelo://app?vid=77c22e90-7a17-4358-b308-ca9d9dc19ac2","ios":"levelo://app?vid=77c22e90-7a17-4358-b308-ca9d9dc19ac2"},"vehicle_type_id":"4","last_reported":1738498491,"current_range_meters":28000,"station_id":"ce4bgj92rcd13ifvqbe0","pricing_plan_id":"cebpf4jnsgd1na2vs0mg"},{"bike_id":"ddd00e95-387d-4687-9b99-27d0e7bf1447","system_id":"levelo_inurba_marseille","lat":43.296408,"lon":5.390321,"is_reserved":false,"is_disabled":true,"rental_uris":{"android":"levelo://app?vid=ddd00e95-387d-4687-9b99-27d0e7bf1447","ios":"levelo://app?vid=ddd00e95-387d-4687-9b99-27d0e7bf1447"},"vehicle_type_id":"4","last_reported":1738498491,"current_range_meters":0,"station_id":"","pricing_plan_id":"cebpf4jnsgd1na2vs0mg"},{"bike_id":"e48b7af5-236f-4bce-8d1a-6b94b09e9689","system_id":"levelo_inurba_marseille","lat":43.26201,"lon":5.37446,"is_reserved":false,"is_disabled":false,"rental_uris":{"android":"levelo://app?vid=e48b7af5-236f-4bce-8d1a-6b94b09e9689","ios":"levelo://app?vid=e48b7af5-236f-4bce-8d1a-6b94b09e9689"},"vehicle_type_id":"4","last_reported":1738498491,"current_range_meters":25600,"station_id":"ce4bhgp2rcd13ifvqfc0","pricing_plan_id":"cebpf4jnsgd1na2vs0mg"},{"bike_id":"71f34f72-d3b7-46a5-9bd4-1fe057b3152f","system_id":"levelo_inurba_marseille","lat":43.22936,"lon":5.35381,"is_reserved":false,"is_disabled":false,"rental_uris":{"android":"levelo://app?vid=71f34f72-d3b7-46a5-9bd4-1fe057b3152f","ios":"levelo://app?vid=71f34f72-d3b7-46a5-9bd4-1fe057b3152f"},"vehicle_type_id":"4","last_reported":1738498491,"current_range_meters":38800,"station_id":"cpo3532slgdg3j2ikp40","pricing_plan_id":"cebpf4jnsgd1na2vs0mg"},{"bike_id":"ba1b16dd-09e2-4536-8411-babb750bcb3c","system_id":"levelo_inurba_marseille","lat":43.23193,"lon":5.39995,"is_reserved":false,"is_disabled":true,"rental_uris":{"android":"levelo://app?vid=ba1b16dd-09e2-4536-8411-babb750bcb3c","ios":"levelo://app?vid=ba1b16dd-09e2-4536-8411-babb750bcb3c"},"vehicle_type_id":"4","last_reported":1738498491,"current_range_meters":22800,"station_id":"ce4bhn12rcd13ifvqgqg","pricing_plan_id":"cebpf4jnsgd1na2vs0mg"},{"bike_id":"20029bdd-9f9c-4ff9-86e4-5ba6ed30f46a","system_id":"levelo_inurba_marseille","lat":43.23148,"lon":5.43705,"is_reserved":false,"is_disabled":true,"rental_uris":{"android":"levelo://app?vid=20029bdd-9f9c-4ff9-86e4-5ba6ed30f46a","ios":"levelo://app?vid=20029bdd-9f9c-4ff9-86e4-5ba6ed30f46a"},"vehicle_type_id":"4","last_reported":1738498491,"current_range_meters":0,"station_id":"ce4bhmp2rcd13ifvqgog","pricing_plan_id":"cebpf4jnsgd1na2vs0mg"},{"bike_id":"e0a9affd-4517-4142-99f0-01d2f95c7039","system_id":"levelo_inurba_marseille","lat":43.29533,"lon":5.3904,"is_reserved":false,"is_disabled":true,"rental_uris":{"android":"levelo://app?vid=e0a9affd-4517-4142-99f0-01d2f95c7039","ios":"levelo://app?vid=e0a9affd-4517-4142-99f0-01d2f95c7039"},"vehicle_type_id":"4","last_reported":1738498491,"current_range_meters":0,"station_id":"ce4bh3p2rcd13ifvqdp0","pricing_plan_id":"cebpf4jnsgd1na2vs0mg"},{"bike_id":"8f17d170-54d2-4028-9d39-bc2ba5432770","system_id":"levelo_inurba_marseille","lat":43.29678,"lon":5.37307,"is_reserved":false,"is_disabled":false,"rental_uris":{"android":"levelo://app?vid=8f17d170-54d2-4028-9d39-bc2ba5432770","ios":"levelo://app?vid=8f17d170-54d2-4028-9d39-bc2ba5432770"},"vehicle_type_id":"4","last_reported":1738498491,"current_range_meters":9200,"station_id":"ce4bgk12rcd13ifvqbj0","pricing_plan_id":"cebpf4jnsgd1na2vs0mg"},{"bike_id":"22a5430a-bd27-4741-8d40-248b73d0c33b","system_id":"levelo_inurba_marseille","lat":43.28264,"lon":5.35074,"is_reserved":false,"is_disabled":false,"rental_uris":{"android":"levelo://app?vid=22a5430a-bd27-4741-8d40-248b73d0c33b","ios":"levelo://app?vid=22a5430a-bd27-4741-8d40-248b73d0c33b"},"vehicle_type_id":"4","last_reported":1738498491,"current_range_meters":30800,"station_id":"ce4bhbp2rcd13ifvqerg","pricing_plan_id":"cebpf4jnsgd1na2vs0mg"},{"bike_id":"5805abe4-d33a-4c57-986f-3167b5b7a28d","system_id":"levelo_inurba_marseille","lat":43.279114,"lon":5.395864,"is_reserved":false,"is_disabled":true,"rental_uris":{"android":"levelo://app?vid=5805abe4-d33a-4c57-986f-3167b5b7a28d","ios":"levelo://app?vid=5805abe4-d33a-4c57-986f-3167b5b7a28d"},"vehicle_type_id":"4","last_reported":1738498491,"current_range_meters":0,"station_id":"ce4bhf92rcd13ifvqf40","pricing_plan_id":"cebpf4jnsgd1na2vs0mg"},{"bike_id":"1e884e13-cf31-47b8-9ea9-31399d758f00","system_id":"levelo_inurba_marseille","lat":43.31173,"lon":5.38712,"is_reserved":false,"is_disabled":false,"rental_uris":{"android":"levelo://app?vid=1e884e13-cf31-47b8-9ea9-31399d758f00","ios":"levelo://app?vid=1e884e13-cf31-47b8-9ea9-31399d758f00"},"vehicle_type_id":"4","last_reported":1738498491,"current_range_meters":38000,"station_id":"ce4bgv12rcd13ifvqcp0","pricing_plan_id":"cebpf4jnsgd1na2vs0mg"},{"bike_id":"491407c5-a175-44f0-86fc-0f4ccadf82e3","system_id":"levelo_inurba_marseille","lat":43.337444,"lon":5.374475,"is_reserved":false,"is_disabled":true,"rental_uris":{"android":"levelo://app?vid=491407c5-a175-44f0-86fc-0f4ccadf82e3","ios":"levelo://app?vid=491407c5-a175-44f0-86fc-0f4ccadf82e3"},"vehicle_type_id":"4","last_reported":1738498491,"current_range_meters":0,"station_id":"","pricing_plan_id":"cebpf4jnsgd1na2vs0mg"},{"bike_id":"acb4c6cc-f34e-4c23-bad1-1a3ddef22e61","system_id":"levelo_inurba_marseille","lat":43.31079,"lon":5.42435,"is_reserved":false,"is_disabled":false,"rental_uris":{"android":"levelo://app?vid=acb4c6cc-f34e-4c23-bad1-1a3ddef22e61","ios":"levelo://app?vid=acb4c6cc-f34e-4c23-bad1-1a3ddef22e61"},"vehicle_type_id":"4","last_reported":1738498491,"current_range_meters":31200,"station_id":"ce4bhp92rcd13ifvqhag","pricing_plan_id":"cebpf4jnsgd1na2vs0mg"},{"bike_id":"1378643c-565d-4955-a191-2b018f9dd2eb","system_id":"levelo_inurba_marseille","lat":43.30383,"lon":5.37093,"is_reserved":false,"is_disabled":false,"rental_uris":{"android":"levelo://app?vid=1378643c-565d-4955-a191-2b018f9dd2eb","ios":"levelo://app?vid=1378643c-565d-4955-a191-2b018f9dd2eb"},"vehicle_type_id":"4","last_reported":1738498491,"current_range_meters":27200,"station_id":"","pricing_plan_id":"cebpf4jnsgd1na2vs0mg"},{"bike_id":"37a3bb3b-7290-4013-ac47-e8137689ec45","system_id":"levelo_inurba_marseille","lat":43.30144,"lon":5.3741,"is_reserved":false,"is_disabled":false,"rental_uris":{"android":"levelo://app?vid=37a3bb3b-7290-4013-ac47-e8137689ec45","ios":"levelo://app?vid=37a3bb3b-7290-4013-ac47-e8137689ec45"},"vehicle_type_id":"4","last_reported":1738498491,"current_range_meters":28000,"station_id":"ce4bgs92rcd13ifvqcc0","pricing_plan_id":"cebpf4jnsgd1na2vs0mg"},{"bike_id":"4a7af680-8a77-45cb-85cc-9f0a7f33be68","system_id":"levelo_inurba_marseille","lat":43.29808,"lon":5.40414,"is_reserved":false,"is_disabled":true,"rental_uris":{"android":"levelo://app?vid=4a7af680-8a77-45cb-85cc-9f0a7f33be68","ios":"levelo://app?vid=4a7af680-8a77-45cb-85cc-9f0a7f33be68"},"vehicle_type_id":"4","last_reported":1738498491,"current_range_meters":27200,"station_id":"ce4bh112rcd13ifvqd90","pricing_plan_id":"cebpf4jnsgd1na2vs0mg"},{"bike_id":"9ffc29dd-7a64-44ac-aa8e-fc46610df52a","system_id":"levelo_inurba_marseille","lat":43.22927,"lon":5.35378,"is_reserved":false,"is_disabled":false,"rental_uris":{"android":"levelo://app?vid=9ffc29dd-7a64-44ac-aa8e-fc46610df52a","ios":"levelo://app?vid=9ffc29dd-7a64-44ac-aa8e-fc46610df52a"},"vehicle_type_id":"4","last_reported":1738498491,"current_range_meters":8400,"station_id":"cpo3532slgdg3j2ikp40","pricing_plan_id":"cebpf4jnsgd1na2vs0mg"},{"bike_id":"249b7b60-8305-4794-bc88-bf145ce1b67c","system_id":"levelo_inurba_marseille","lat":43.23206,"lon":5.39986,"is_reserved":false,"is_disabled":false,"rental_uris":{"android":"levelo://app?vid=249b7b60-8305-4794-bc88-bf145ce1b67c","ios":"levelo://app?vid=249b7b60-8305-4794-bc88-bf145ce1b67c"},"vehicle_type_id":"4","last_reported":1738498491,"current_range_meters":38800,"station_id":"ce4bhn12rcd13ifvqgqg","pricing_plan_id":"cebpf4jnsgd1na2vs0mg"},{"bike_id":"0b439ceb-bbef-470b-b522-3e20f798d948","system_id":"levelo_inurba_marseille","lat":43.291,"lon":5.38155,"is_reserved":false,"is_disabled":true,"rental_uris":{"android":"levelo://app?vid=0b439ceb-bbef-470b-b522-3e20f798d948","ios":"levelo://app?vid=0b439ceb-bbef-470b-b522-3e20f798d948"},"vehicle_type_id":"4","last_reported":1738498491,"current_range_meters":17600,"station_id":"ce4bh512rcd13ifvqe2g","pricing_plan_id":"cebpf4jnsgd1na2vs0mg"},{"bike_id":"528fe304-774b-4f5e-99b0-3a6df52f7bd5","system_id":"levelo_inurba_marseille","lat":43.26687,"lon":5.38263,"is_reserved":false,"is_disabled":false,"rental_uris":{"android":"levelo://app?vid=528fe304-774b-4f5e-99b0-3a6df52f7bd5","ios":"levelo://app?vid=528fe304-774b-4f5e-99b0-3a6df52f7bd5"},"vehicle_type_id":"4","last_reported":1738498491,"current_range_meters":16000,"station_id":"ce4bhg92rcd13ifvqf90","pricing_plan_id":"cebpf4jnsgd1na2vs0mg"},{"bike_id":"693a29bd-5ac5-4712-a645-e5d8a8553060","system_id":"levelo_inurba_marseille","lat":43.29585,"lon":5.39972,"is_reserved":false,"is_disabled":true,"rental_uris":{"android":"levelo://app?vid=693a29bd-5ac5-4712-a645-e5d8a8553060","ios":"levelo://app?vid=693a29bd-5ac5-4712-a645-e5d8a8553060"},"vehicle_type_id":"4","last_reported":1738498491,"current_range_meters":38800,"station_id":"ce4bh312rcd13ifvqdj0","pricing_plan_id":"cebpf4jnsgd1na2vs0mg"},{"bike_id":"246cfd69-3f92-4e90-aa97-e3988a738d3e","system_id":"levelo_inurba_marseille","lat":43.28695,"lon":5.3867,"is_reserved":false,"is_disabled":true,"rental_uris":{"android":"levelo://app?vid=246cfd69-3f92-4e90-aa97-e3988a738d3e","ios":"levelo://app?vid=246cfd69-3f92-4e90-aa97-e3988a738d3e"},"vehicle_type_id":"4","last_reported":1738498491,"current_range_meters":30800,"station_id":"ce4bh492rcd13ifvqdug","pricing_plan_id":"cebpf4jnsgd1na2vs0mg"},{"bike_id":"f38a9b51-7bc8-4445-89b3-2095fb6b771f","system_id":"levelo_inurba_marseille","lat":43.28699,"lon":5.374,"is_reserved":false,"is_disabled":true,"rental_uris":{"android":"levelo://app?vid=f38a9b51-7bc8-4445-89b3-2095fb6b771f","ios":"levelo://app?vid=f38a9b51-7bc8-4445-89b3-2095fb6b771f"},"vehicle_type_id":"4","last_reported":1738498491,"current_range_meters":24000,"station_id":"ce4bh3p2rcd13ifvqdq0","pricing_plan_id":"cebpf4jnsgd1na2vs0mg"},{"bike_id":"b535da92-53d0-4704-9a9a-67bfbd9cc2d0","system_id":"levelo_inurba_marseille","lat":43.30935,"lon":5.40159,"is_reserved":false,"is_disabled":false,"rental_uris":{"android":"levelo://app?vid=b535da92-53d0-4704-9a9a-67bfbd9cc2d0","ios":"levelo://app?vid=b535da92-53d0-4704-9a9a-67bfbd9cc2d0"},"vehicle_type_id":"4","last_reported":1738498491,"current_range_meters":29600,"station_id":"ce4bgvp2rcd13ifvqct0","pricing_plan_id":"cebpf4jnsgd1na2vs0mg"},{"bike_id":"fe117411-d9ae-46ad-96d7-1d4828206f4a","system_id":"levelo_inurba_marseille","lat":43.25935,"lon":5.40912,"is_reserved":false,"is_disabled":false,"rental_uris":{"android":"levelo://app?vid=fe117411-d9ae-46ad-96d7-1d4828206f4a","ios":"levelo://app?vid=fe117411-d9ae-46ad-96d7-1d4828206f4a"},"vehicle_type_id":"4","last_reported":1738498491,"current_range_meters":36400,"station_id":"ce4bhm92rcd13ifvqglg","pricing_plan_id":"cebpf4jnsgd1na2vs0mg"},{"bike_id":"280a6fd2-e02b-4f1f-b76f-c469c57691c3","system_id":"levelo_inurba_marseille","lat":43.27999,"lon":5.40004,"is_reserved":false,"is_disabled":false,"rental_uris":{"android":"levelo://app?vid=280a6fd2-e02b-4f1f-b76f-c469c57691c3","ios":"levelo://app?vid=280a6fd2-e02b-4f1f-b76f-c469c57691c3"},"vehicle_type_id":"4","last_reported":1738498491,"current_range_meters":31200,"station_id":"ce4bho92rcd13ifvqh4g","pricing_plan_id":"cebpf4jnsgd1na2vs0mg"},{"bike_id":"7c43dce0-0b5c-4e91-9c4e-353e49a80cc2","system_id":"levelo_inurba_marseille","lat":43.28428,"lon":5.37524,"is_reserved":false,"is_disabled":false,"rental_uris":{"android":"levelo://app?vid=7c43dce0-0b5c-4e91-9c4e-353e49a80cc2","ios":"levelo://app?vid=7c43dce0-0b5c-4e91-9c4e-353e49a80cc2"},"vehicle_type_id":"4","last_reported":1738498491,"current_range_meters":27200,"station_id":"ce4bh412rcd13ifvqds0","pricing_plan_id":"cebpf4jnsgd1na2vs0mg"},{"bike_id":"6725a974-636a-4cad-bf4d-273395199ad4","system_id":"levelo_inurba_marseille","lat":43.3373,"lon":5.39185,"is_reserved":false,"is_disabled":false,"rental_uris":{"android":"levelo://app?vid=6725a974-636a-4cad-bf4d-273395199ad4","ios":"levelo://app?vid=6725a974-636a-4cad-bf4d-273395199ad4"},"vehicle_type_id":"4","last_reported":1738498491,"current_range_meters":12400,"station_id":"ce4bhr92rcd13ifvqhsg","pricing_plan_id":"cebpf4jnsgd1na2vs0mg"},{"bike_id":"f4e770ab-8328-4ab9-86dd-c39638b0ab76","system_id":"levelo_inurba_marseille","lat":43.28475,"lon":5.38426,"is_reserved":false,"is_disabled":false,"rental_uris":{"android":"levelo://app?vid=f4e770ab-8328-4ab9-86dd-c39638b0ab76","ios":"levelo://app?vid=f4e770ab-8328-4ab9-86dd-c39638b0ab76"},"vehicle_type_id":"4","last_reported":1738498491,"current_range_meters":38800,"station_id":"ce4bh512rcd13ifvqe3g","pricing_plan_id":"cebpf4jnsgd1na2vs0mg"},{"bike_id":"dff2410f-4af5-4630-b92e-ba7b2cac4e8c","system_id":"levelo_inurba_marseille","lat":43.28155,"lon":5.42639,"is_reserved":false,"is_disabled":false,"rental_uris":{"android":"levelo://app?vid=dff2410f-4af5-4630-b92e-ba7b2cac4e8c","ios":"levelo://app?vid=dff2410f-4af5-4630-b92e-ba7b2cac4e8c"},"vehicle_type_id":"4","last_reported":1738498491,"current_range_meters":33200,"station_id":"ce4bhnh2rcd13ifvqgug","pricing_plan_id":"cebpf4jnsgd1na2vs0mg"},{"bike_id":"fe25e42e-6666-4b39-b1e1-07b924955063","system_id":"levelo_inurba_marseille","lat":43.27951,"lon":5.3956,"is_reserved":false,"is_disabled":false,"rental_uris":{"android":"levelo://app?vid=fe25e42e-6666-4b39-b1e1-07b924955063","ios":"levelo://app?vid=fe25e42e-6666-4b39-b1e1-07b924955063"},"vehicle_type_id":"4","last_reported":1738498491,"current_range_meters":19200,"station_id":"ce4bhf92rcd13ifvqf40","pricing_plan_id":"cebpf4jnsgd1na2vs0mg"},{"bike_id":"ff352fab-4665-450b-9e8c-472e19204552","system_id":"levelo_inurba_marseille","lat":43.25501,"lon":5.37656,"is_reserved":false,"is_disabled":false,"rental_uris":{"android":"levelo://app?vid=ff352fab-4665-450b-9e8c-472e19204552","ios":"levelo://app?vid=ff352fab-4665-450b-9e8c-472e19204552"},"vehicle_type_id":"4","last_reported":1738498491,"current_range_meters":36400,"station_id":"ce4bhh12rcd13ifvqff0","pricing_plan_id":"cebpf4jnsgd1na2vs0mg"},{"bike_id":"6129e9fc-2161-4821-9311-bd60f53cbb9d","system_id":"levelo_inurba_marseille","lat":43.30527,"lon":5.36541,"is_reserved":false,"is_disabled":false,"rental_uris":{"android":"levelo://app?vid=6129e9fc-2161-4821-9311-bd60f53cbb9d","ios":"levelo://app?vid=6129e9fc-2161-4821-9311-bd60f53cbb9d"},"vehicle_type_id":"4","last_reported":1738498491,"current_range_meters":26000,"station_id":"ce4bgs12rcd13ifvqcag","pricing_plan_id":"cebpf4jnsgd1na2vs0mg"},{"bike_id":"1cef020a-f20b-477c-8e95-8570b95be456","system_id":"levelo_inurba_marseille","lat":43.24389,"lon":5.37064,"is_reserved":false,"is_disabled":false,"rental_uris":{"android":"levelo://app?vid=1cef020a-f20b-477c-8e95-8570b95be456","ios":"levelo://app?vid=1cef020a-f20b-477c-8e95-8570b95be456"},"vehicle_type_id":"4","last_reported":1738498491,"current_range_meters":11600,"station_id":"ce4bhhh2rcd13ifvqfk0","pricing_plan_id":"cebpf4jnsgd1na2vs0mg"},{"bike_id":"253d7f3f-de7d-4956-b0da-6a71a14d2a64","system_id":"levelo_inurba_marseille","lat":43.27817,"lon":5.407,"is_reserved":false,"is_disabled":false,"rental_uris":{"android":"levelo://app?vid=253d7f3f-de7d-4956-b0da-6a71a14d2a64","ios":"levelo://app?vid=253d7f3f-de7d-4956-b0da-6a71a14d2a64"},"vehicle_type_id":"4","last_reported":1738498491,"current_range_meters":36000,"station_id":"ce4bhnh2rcd13ifvqgtg","pricing_plan_id":"cebpf4jnsgd1na2vs0mg"},{"bike_id":"1f4e4183-ba38-4674-b19d-0c758736fe8e","system_id":"levelo_inurba_marseille","lat":43.25094,"lon":5.39516,"is_reserved":false,"is_disabled":false,"rental_uris":{"android":"levelo://app?vid=1f4e4183-ba38-4674-b19d-0c758736fe8e","ios":"levelo://app?vid=1f4e4183-ba38-4674-b19d-0c758736fe8e"},"vehicle_type_id":"4","last_reported":1738498491,"current_range_meters":25200,"station_id":"ce4bhm12rcd13ifvqgkg","pricing_plan_id":"cebpf4jnsgd1na2vs0mg"},{"bike_id":"c890785b-a449-4d52-91fc-f5f1b26df012","system_id":"levelo_inurba_marseille","lat":43.25871,"lon":5.39905,"is_reserved":false,"is_disabled":false,"rental_uris":{"android":"levelo://app?vid=c890785b-a449-4d52-91fc-f5f1b26df012","ios":"levelo://app?vid=c890785b-a449-4d52-91fc-f5f1b26df012"},"vehicle_type_id":"4","last_reported":1738498491,"current_range_meters":16400,"station_id":"ce4bhl92rcd13ifvqghg","pricing_plan_id":"cebpf4jnsgd1na2vs0mg"},{"bike_id":"d6ffd4ee-5ef6-4acd-9ca0-64045558ff1d","system_id":"levelo_inurba_marseille","lat":43.30553,"lon":5.36476,"is_reserved":false,"is_disabled":false,"rental_uris":{"android":"levelo://app?vid=d6ffd4ee-5ef6-4acd-9ca0-64045558ff1d","ios":"levelo://app?vid=d6ffd4ee-5ef6-4acd-9ca0-64045558ff1d"},"vehicle_type_id":"4","last_reported":1738498491,"current_range_meters":36000,"station_id":"ce4bgs12rcd13ifvqcag","pricing_plan_id":"cebpf4jnsgd1na2vs0mg"},{"bike_id":"56d6b97f-30a2-4c2a-8be6-a12a9fc19507","system_id":"levelo_inurba_marseille","lat":43.31755,"lon":5.39027,"is_reserved":false,"is_disabled":false,"rental_uris":{"android":"levelo://app?vid=56d6b97f-30a2-4c2a-8be6-a12a9fc19507","ios":"levelo://app?vid=56d6b97f-30a2-4c2a-8be6-a12a9fc19507"},"vehicle_type_id":"4","last_reported":1738498491,"current_range_meters":6800,"station_id":"ce4bhqp2rcd13ifvqhng","pricing_plan_id":"cebpf4jnsgd1na2vs0mg"},{"bike_id":"a895efa9-50aa-435c-91d1-c119eaf59a54","system_id":"levelo_inurba_marseille","lat":43.26544,"lon":5.39495,"is_reserved":false,"is_disabled":false,"rental_uris":{"android":"levelo://app?vid=a895efa9-50aa-435c-91d1-c119eaf59a54","ios":"levelo://app?vid=a895efa9-50aa-435c-91d1-c119eaf59a54"},"vehicle_type_id":"4","last_reported":1738498491,"current_range_meters":30800,"station_id":"","pricing_plan_id":"cebpf4jnsgd1na2vs0mg"},{"bike_id":"2db81c0a-31ce-4fc2-98cd-75e77b616f70","system_id":"levelo_inurba_marseille","lat":43.29029,"lon":5.35921,"is_reserved":false,"is_disabled":false,"rental_uris":{"android":"levelo://app?vid=2db81c0a-31ce-4fc2-98cd-75e77b616f70","ios":"levelo://app?vid=2db81c0a-31ce-4fc2-98cd-75e77b616f70"},"vehicle_type_id":"4","last_reported":1738498491,"current_range_meters":38800,"station_id":"ce4bha92rcd13ifvqeg0","pricing_plan_id":"cebpf4jnsgd1na2vs0mg"},{"bike_id":"8e104399-aef2-4f9b-ac7b-a192d80911fa","system_id":"levelo_inurba_marseille","lat":43.26547,"lon":5.39045,"is_reserved":false,"is_disabled":false,"rental_uris":{"android":"levelo://app?vid=8e104399-aef2-4f9b-ac7b-a192d80911fa","ios":"levelo://app?vid=8e104399-aef2-4f9b-ac7b-a192d80911fa"},"vehicle_type_id":"4","last_reported":1738498491,"current_range_meters":37600,"station_id":"ce4bhe12rcd13ifvqf30","pricing_plan_id":"cebpf4jnsgd1na2vs0mg"},{"bike_id":"7e3fb6d9-ccd4-42a0-ad5f-bbecad48c859","system_id":"levelo_inurba_marseille","lat":43.313678,"lon":5.36708,"is_reserved":false,"is_disabled":false,"rental_uris":{"android":"levelo://app?vid=7e3fb6d9-ccd4-42a0-ad5f-bbecad48c859","ios":"levelo://app?vid=7e3fb6d9-ccd4-42a0-ad5f-bbecad48c859"},"vehicle_type_id":"4","last_reported":1738498491,"current_range_meters":28000,"station_id":"ce4bgr92rcd13ifvqc6g","pricing_plan_id":"cebpf4jnsgd1na2vs0mg"},{"bike_id":"d8ed3149-1b3d-468c-b65c-32b89925f608","system_id":"levelo_inurba_marseille","lat":43.330149,"lon":5.412686,"is_reserved":false,"is_disabled":false,"rental_uris":{"android":"levelo://app?vid=d8ed3149-1b3d-468c-b65c-32b89925f608","ios":"levelo://app?vid=d8ed3149-1b3d-468c-b65c-32b89925f608"},"vehicle_type_id":"4","last_reported":1738498491,"current_range_meters":7200,"station_id":"","pricing_plan_id":"cebpf4jnsgd1na2vs0mg"},{"bike_id":"c0e7550b-6f33-4fbd-9387-96500956f50a","system_id":"levelo_inurba_marseille","lat":43.29435,"lon":5.39776,"is_reserved":false,"is_disabled":true,"rental_uris":{"android":"levelo://app?vid=c0e7550b-6f33-4fbd-9387-96500956f50a","ios":"levelo://app?vid=c0e7550b-6f33-4fbd-9387-96500956f50a"},"vehicle_type_id":"4","last_reported":1738498491,"current_range_meters":25600,"station_id":"ce4bh3h2rcd13ifvqdo0","pricing_plan_id":"cebpf4jnsgd1na2vs0mg"},{"bike_id":"415bd4c5-777c-4b6c-92b5-bc0235839c3f","system_id":"levelo_inurba_marseille","lat":43.30189,"lon":5.3663,"is_reserved":false,"is_disabled":false,"rental_uris":{"android":"levelo://app?vid=415bd4c5-777c-4b6c-92b5-bc0235839c3f","ios":"levelo://app?vid=415bd4c5-777c-4b6c-92b5-bc0235839c3f"},"vehicle_type_id":"4","last_reported":1738498491,"current_range_meters":22400,"station_id":"ce4bgrh2rcd13ifvqc8g","pricing_plan_id":"cebpf4jnsgd1na2vs0mg"},{"bike_id":"7a163fc0-07aa-41da-86bd-3a408e536729","system_id":"levelo_inurba_marseille","lat":43.3055,"lon":5.36531,"is_reserved":false,"is_disabled":false,"rental_uris":{"android":"levelo://app?vid=7a163fc0-07aa-41da-86bd-3a408e536729","ios":"levelo://app?vid=7a163fc0-07aa-41da-86bd-3a408e536729"},"vehicle_type_id":"4","last_reported":1738498491,"current_range_meters":21600,"station_id":"ce4bgs12rcd13ifvqcag","pricing_plan_id":"cebpf4jnsgd1na2vs0mg"},{"bike_id":"51e98b31-1659-413c-a2fd-ad1f5f5b25a8","system_id":"levelo_inurba_marseille","lat":43.31019,"lon":5.36651,"is_reserved":false,"is_disabled":false,"rental_uris":{"android":"levelo://app?vid=51e98b31-1659-413c-a2fd-ad1f5f5b25a8","ios":"levelo://app?vid=51e98b31-1659-413c-a2fd-ad1f5f5b25a8"},"vehicle_type_id":"4","last_reported":1738498491,"current_range_meters":32400,"station_id":"","pricing_plan_id":"cebpf4jnsgd1na2vs0mg"},{"bike_id":"df24545b-590b-418c-9ab9-9f9ec88b5ad8","system_id":"levelo_inurba_marseille","lat":43.27553,"lon":5.3843,"is_reserved":false,"is_disabled":false,"rental_uris":{"android":"levelo://app?vid=df24545b-590b-418c-9ab9-9f9ec88b5ad8","ios":"levelo://app?vid=df24545b-590b-418c-9ab9-9f9ec88b5ad8"},"vehicle_type_id":"4","last_reported":1738498491,"current_range_meters":39200,"station_id":"ce4bhh92rcd13ifvqfi0","pricing_plan_id":"cebpf4jnsgd1na2vs0mg"},{"bike_id":"bfc62d32-6530-4095-9e14-8e2530dc280f","system_id":"levelo_inurba_marseille","lat":43.25884,"lon":5.39902,"is_reserved":false,"is_disabled":false,"rental_uris":{"android":"levelo://app?vid=bfc62d32-6530-4095-9e14-8e2530dc280f","ios":"levelo://app?vid=bfc62d32-6530-4095-9e14-8e2530dc280f"},"vehicle_type_id":"4","last_reported":1738498491,"current_range_meters":38800,"station_id":"ce4bhl92rcd13ifvqghg","pricing_plan_id":"cebpf4jnsgd1na2vs0mg"},{"bike_id":"10d4e41a-9457-4454-abf3-e36bc0e06718","system_id":"levelo_inurba_marseille","lat":43.29225,"lon":5.36066,"is_reserved":false,"is_disabled":false,"rental_uris":{"android":"levelo://app?vid=10d4e41a-9457-4454-abf3-e36bc0e06718","ios":"levelo://app?vid=10d4e41a-9457-4454-abf3-e36bc0e06718"},"vehicle_type_id":"4","last_reported":1738498491,"current_range_meters":30000,"station_id":"ce4bhbh2rcd13ifvqeqg","pricing_plan_id":"cebpf4jnsgd1na2vs0mg"},{"bike_id":"c27118df-9662-4cfc-ac9b-67c61e3bdb61","system_id":"levelo_inurba_marseille","lat":43.23158,"lon":5.43721,"is_reserved":false,"is_disabled":false,"rental_uris":{"android":"levelo://app?vid=c27118df-9662-4cfc-ac9b-67c61e3bdb61","ios":"levelo://app?vid=c27118df-9662-4cfc-ac9b-67c61e3bdb61"},"vehicle_type_id":"4","last_reported":1738498491,"current_range_meters":4800,"station_id":"ce4bhmp2rcd13ifvqgog","pricing_plan_id":"cebpf4jnsgd1na2vs0mg"},{"bike_id":"2aa0bf75-01da-4646-a39b-769e1e2c740b","system_id":"levelo_inurba_marseille","lat":43.26192,"lon":5.37458,"is_reserved":false,"is_disabled":false,"rental_uris":{"android":"levelo://app?vid=2aa0bf75-01da-4646-a39b-769e1e2c740b","ios":"levelo://app?vid=2aa0bf75-01da-4646-a39b-769e1e2c740b"},"vehicle_type_id":"4","last_reported":1738498491,"current_range_meters":36400,"station_id":"ce4bhgp2rcd13ifvqfc0","pricing_plan_id":"cebpf4jnsgd1na2vs0mg"},{"bike_id":"c8902182-a8b7-42f9-8e2b-fc0543656163","system_id":"levelo_inurba_marseille","lat":43.25013,"lon":5.38902,"is_reserved":false,"is_disabled":false,"rental_uris":{"android":"levelo://app?vid=c8902182-a8b7-42f9-8e2b-fc0543656163","ios":"levelo://app?vid=c8902182-a8b7-42f9-8e2b-fc0543656163"},"vehicle_type_id":"4","last_reported":1738498491,"current_range_meters":37600,"station_id":"ce4bhgp2rcd13ifvqfd0","pricing_plan_id":"cebpf4jnsgd1na2vs0mg"},{"bike_id":"b4f7bb0d-c6d8-47fa-94ed-627a40513f8c","system_id":"levelo_inurba_marseille","lat":43.29201,"lon":5.3932,"is_reserved":false,"is_disabled":false,"rental_uris":{"android":"levelo://app?vid=b4f7bb0d-c6d8-47fa-94ed-627a40513f8c","ios":"levelo://app?vid=b4f7bb0d-c6d8-47fa-94ed-627a40513f8c"},"vehicle_type_id":"4","last_reported":1738498491,"current_range_meters":38000,"station_id":"ce4bh192rcd13ifvqdd0","pricing_plan_id":"cebpf4jnsgd1na2vs0mg"},{"bike_id":"32d9a329-7366-4eb8-8d55-73b5c99c70c3","system_id":"levelo_inurba_marseille","lat":43.23197,"lon":5.35547,"is_reserved":false,"is_disabled":false,"rental_uris":{"android":"levelo://app?vid=32d9a329-7366-4eb8-8d55-73b5c99c70c3","ios":"levelo://app?vid=32d9a329-7366-4eb8-8d55-73b5c99c70c3"},"vehicle_type_id":"4","last_reported":1738498491,"current_range_meters":38800,"station_id":"ce4bhu92rcd13ifvqi70","pricing_plan_id":"cebpf4jnsgd1na2vs0mg"},{"bike_id":"22264ea7-42c9-425e-a29f-07e9fe3444e8","system_id":"levelo_inurba_marseille","lat":43.24803,"lon":5.37468,"is_reserved":false,"is_disabled":true,"rental_uris":{"android":"levelo://app?vid=22264ea7-42c9-425e-a29f-07e9fe3444e8","ios":"levelo://app?vid=22264ea7-42c9-425e-a29f-07e9fe3444e8"},"vehicle_type_id":"4","last_reported":1738498491,"current_range_meters":22000,"station_id":"ce4bhgh2rcd13ifvqfb0","pricing_plan_id":"cebpf4jnsgd1na2vs0mg"},{"bike_id":"ab2f74c7-063c-4c10-800d-018107c4c0c2","system_id":"levelo_inurba_marseille","lat":43.2559,"lon":5.38234,"is_reserved":false,"is_disabled":false,"rental_uris":{"android":"levelo://app?vid=ab2f74c7-063c-4c10-800d-018107c4c0c2","ios":"levelo://app?vid=ab2f74c7-063c-4c10-800d-018107c4c0c2"},"vehicle_type_id":"4","last_reported":1738498491,"current_range_meters":17200,"station_id":"ce4bhih2rcd13ifvqfs0","pricing_plan_id":"cebpf4jnsgd1na2vs0mg"},{"bike_id":"0a2fd205-d616-4064-aa75-d4d529957d90","system_id":"levelo_inurba_marseille","lat":43.23072,"lon":5.35487,"is_reserved":false,"is_disabled":false,"rental_uris":{"android":"levelo://app?vid=0a2fd205-d616-4064-aa75-d4d529957d90","ios":"levelo://app?vid=0a2fd205-d616-4064-aa75-d4d529957d90"},"vehicle_type_id":"4","last_reported":1738498491,"current_range_meters":11600,"station_id":"cpo3342slgdg3j2ifvpg","pricing_plan_id":"cebpf4jnsgd1na2vs0mg"},{"bike_id":"bc56d0df-bf49-4591-b994-df825fc74e9b","system_id":"levelo_inurba_marseille","lat":43.31107,"lon":5.37784,"is_reserved":false,"is_disabled":false,"rental_uris":{"android":"levelo://app?vid=bc56d0df-bf49-4591-b994-df825fc74e9b","ios":"levelo://app?vid=bc56d0df-bf49-4591-b994-df825fc74e9b"},"vehicle_type_id":"4","last_reported":1738498491,"current_range_meters":38000,"station_id":"ce4bgt92rcd13ifvqcg0","pricing_plan_id":"cebpf4jnsgd1na2vs0mg"},{"bike_id":"e40e6d41-b7f3-4774-bd80-6bc557cf1c6a","system_id":"levelo_inurba_marseille","lat":43.3053,"lon":5.36541,"is_reserved":false,"is_disabled":false,"rental_uris":{"android":"levelo://app?vid=e40e6d41-b7f3-4774-bd80-6bc557cf1c6a","ios":"levelo://app?vid=e40e6d41-b7f3-4774-bd80-6bc557cf1c6a"},"vehicle_type_id":"4","last_reported":1738498491,"current_range_meters":39200,"station_id":"ce4bgs12rcd13ifvqcag","pricing_plan_id":"cebpf4jnsgd1na2vs0mg"},{"bike_id":"a7d0ebe6-6f9f-4bf7-9beb-9d8e7b6913ff","system_id":"levelo_inurba_marseille","lat":43.30956,"lon":5.39042,"is_reserved":false,"is_disabled":false,"rental_uris":{"android":"levelo://app?vid=a7d0ebe6-6f9f-4bf7-9beb-9d8e7b6913ff","ios":"levelo://app?vid=a7d0ebe6-6f9f-4bf7-9beb-9d8e7b6913ff"},"vehicle_type_id":"4","last_reported":1738498491,"current_range_meters":34800,"station_id":"ce4bgup2rcd13ifvqco0","pricing_plan_id":"cebpf4jnsgd1na2vs0mg"},{"bike_id":"eeee1dba-9161-4cfe-8908-1340edc4c1a3","system_id":"levelo_inurba_marseille","lat":43.29632,"lon":5.37151,"is_reserved":false,"is_disabled":false,"rental_uris":{"android":"levelo://app?vid=eeee1dba-9161-4cfe-8908-1340edc4c1a3","ios":"levelo://app?vid=eeee1dba-9161-4cfe-8908-1340edc4c1a3"},"vehicle_type_id":"4","last_reported":1738498491,"current_range_meters":35600,"station_id":"ce4bgnh2rcd13ifvqc0g","pricing_plan_id":"cebpf4jnsgd1na2vs0mg"},{"bike_id":"cb0752ba-1e7b-47b7-b726-60c5941551ad","system_id":"levelo_inurba_marseille","lat":43.25045,"lon":5.38946,"is_reserved":false,"is_disabled":false,"rental_uris":{"android":"levelo://app?vid=cb0752ba-1e7b-47b7-b726-60c5941551ad","ios":"levelo://app?vid=cb0752ba-1e7b-47b7-b726-60c5941551ad"},"vehicle_type_id":"4","last_reported":1738498491,"current_range_meters":36400,"station_id":"ce4bhgp2rcd13ifvqfd0","pricing_plan_id":"cebpf4jnsgd1na2vs0mg"},{"bike_id":"31764389-d8aa-4f55-b11b-2d0cf7ba3557","system_id":"levelo_inurba_marseille","lat":43.30144,"lon":5.37418,"is_reserved":false,"is_disabled":false,"rental_uris":{"android":"levelo://app?vid=31764389-d8aa-4f55-b11b-2d0cf7ba3557","ios":"levelo://app?vid=31764389-d8aa-4f55-b11b-2d0cf7ba3557"},"vehicle_type_id":"4","last_reported":1738498491,"current_range_meters":10000,"station_id":"ce4bgs92rcd13ifvqcc0","pricing_plan_id":"cebpf4jnsgd1na2vs0mg"},{"bike_id":"787cc70c-db25-42d8-bba7-585654938087","system_id":"levelo_inurba_marseille","lat":43.25932,"lon":5.40911,"is_reserved":false,"is_disabled":false,"rental_uris":{"android":"levelo://app?vid=787cc70c-db25-42d8-bba7-585654938087","ios":"levelo://app?vid=787cc70c-db25-42d8-bba7-585654938087"},"vehicle_type_id":"4","last_reported":1738498491,"current_range_meters":19600,"station_id":"ce4bhm92rcd13ifvqglg","pricing_plan_id":"cebpf4jnsgd1na2vs0mg"},{"bike_id":"f9c05556-bf5a-4bea-b1aa-920d71a969d8","system_id":"levelo_inurba_marseille","lat":43.27997,"lon":5.40012,"is_reserved":false,"is_disabled":false,"rental_uris":{"android":"levelo://app?vid=f9c05556-bf5a-4bea-b1aa-920d71a969d8","ios":"levelo://app?vid=f9c05556-bf5a-4bea-b1aa-920d71a969d8"},"vehicle_type_id":"4","last_reported":1738498491,"current_range_meters":38800,"station_id":"ce4bho92rcd13ifvqh4g","pricing_plan_id":"cebpf4jnsgd1na2vs0mg"},{"bike_id":"7a221e70-c10d-4991-913f-6bb90f285758","system_id":"levelo_inurba_marseille","lat":43.29721,"lon":5.36611,"is_reserved":false,"is_disabled":false,"rental_uris":{"android":"levelo://app?vid=7a221e70-c10d-4991-913f-6bb90f285758","ios":"levelo://app?vid=7a221e70-c10d-4991-913f-6bb90f285758"},"vehicle_type_id":"4","last_reported":1738498491,"current_range_meters":38400,"station_id":"ce4bgn12rcd13ifvqbt0","pricing_plan_id":"cebpf4jnsgd1na2vs0mg"},{"bike_id":"72393c56-1f59-4517-9b3a-7cfa7c798b48","system_id":"levelo_inurba_marseille","lat":43.231957,"lon":5.35548,"is_reserved":false,"is_disabled":false,"rental_uris":{"android":"levelo://app?vid=72393c56-1f59-4517-9b3a-7cfa7c798b48","ios":"levelo://app?vid=72393c56-1f59-4517-9b3a-7cfa7c798b48"},"vehicle_type_id":"4","last_reported":1738498491,"current_range_meters":38800,"station_id":"ce4bhu92rcd13ifvqi70","pricing_plan_id":"cebpf4jnsgd1na2vs0mg"},{"bike_id":"ae1f1e85-ec64-4dc1-ba5d-4214ac0bbd57","system_id":"levelo_inurba_marseille","lat":43.28605,"lon":5.37078,"is_reserved":false,"is_disabled":true,"rental_uris":{"android":"levelo://app?vid=ae1f1e85-ec64-4dc1-ba5d-4214ac0bbd57","ios":"levelo://app?vid=ae1f1e85-ec64-4dc1-ba5d-4214ac0bbd57"},"vehicle_type_id":"4","last_reported":1738498491,"current_range_meters":8000,"station_id":"","pricing_plan_id":"cebpf4jnsgd1na2vs0mg"},{"bike_id":"6337d338-3511-4993-ada0-12102998e834","system_id":"levelo_inurba_marseille","lat":43.2306,"lon":5.35502,"is_reserved":false,"is_disabled":false,"rental_uris":{"android":"levelo://app?vid=6337d338-3511-4993-ada0-12102998e834","ios":"levelo://app?vid=6337d338-3511-4993-ada0-12102998e834"},"vehicle_type_id":"4","last_reported":1738498491,"current_range_meters":6800,"station_id":"cpo3342slgdg3j2ifvpg","pricing_plan_id":"cebpf4jnsgd1na2vs0mg"},{"bike_id":"9aa31c09-6e54-4b21-8618-808a5bf43092","system_id":"levelo_inurba_marseille","lat":43.279431,"lon":5.410502,"is_reserved":false,"is_disabled":false,"rental_uris":{"android":"levelo://app?vid=9aa31c09-6e54-4b21-8618-808a5bf43092","ios":"levelo://app?vid=9aa31c09-6e54-4b21-8618-808a5bf43092"},"vehicle_type_id":"4","last_reported":1738498491,"current_range_meters":22000,"station_id":"ce4bhnp2rcd13ifvqh0g","pricing_plan_id":"cebpf4jnsgd1na2vs0mg"},{"bike_id":"2929de6e-bcde-4160-b618-bd81a9a367de","system_id":"levelo_inurba_marseille","lat":43.23196,"lon":5.35554,"is_reserved":false,"is_disabled":false,"rental_uris":{"android":"levelo://app?vid=2929de6e-bcde-4160-b618-bd81a9a367de","ios":"levelo://app?vid=2929de6e-bcde-4160-b618-bd81a9a367de"},"vehicle_type_id":"4","last_reported":1738498491,"current_range_meters":25600,"station_id":"ce4bhu92rcd13ifvqi70","pricing_plan_id":"cebpf4jnsgd1na2vs0mg"},{"bike_id":"a7366e5f-85e5-4b2b-94be-38732432eca2","system_id":"levelo_inurba_marseille","lat":43.32473,"lon":5.36569,"is_reserved":false,"is_disabled":false,"rental_uris":{"android":"levelo://app?vid=a7366e5f-85e5-4b2b-94be-38732432eca2","ios":"levelo://app?vid=a7366e5f-85e5-4b2b-94be-38732432eca2"},"vehicle_type_id":"4","last_reported":1738498491,"current_range_meters":39200,"station_id":"ce4bhs12rcd13ifvqhvg","pricing_plan_id":"cebpf4jnsgd1na2vs0mg"},{"bike_id":"4c837ee0-2ae7-4863-b63a-a6e8f4e96d3f","system_id":"levelo_inurba_marseille","lat":43.25505,"lon":5.37655,"is_reserved":false,"is_disabled":false,"rental_uris":{"android":"levelo://app?vid=4c837ee0-2ae7-4863-b63a-a6e8f4e96d3f","ios":"levelo://app?vid=4c837ee0-2ae7-4863-b63a-a6e8f4e96d3f"},"vehicle_type_id":"4","last_reported":1738498491,"current_range_meters":37600,"station_id":"ce4bhh12rcd13ifvqff0","pricing_plan_id":"cebpf4jnsgd1na2vs0mg"},{"bike_id":"ede78596-c383-4e1a-bc06-db42993062ff","system_id":"levelo_inurba_marseille","lat":43.26176,"lon":5.3747,"is_reserved":false,"is_disabled":false,"rental_uris":{"android":"levelo://app?vid=ede78596-c383-4e1a-bc06-db42993062ff","ios":"levelo://app?vid=ede78596-c383-4e1a-bc06-db42993062ff"},"vehicle_type_id":"4","last_reported":1738498491,"current_range_meters":38800,"station_id":"ce4bhgp2rcd13ifvqfc0","pricing_plan_id":"cebpf4jnsgd1na2vs0mg"},