{"last_updated":1747606137,"ttl":60,"version":"2.2","data":{"bikes":[{"bike_id":"1b943774-7fad-488b-858c-6c8700eaf739","system_id":"levelo_inurba_marseille","lat":43.29936,"lon":5.38115,"is_reserved":false,"is_disabled":true,"rental_uris":{"android":"levelo://app?vid=1b943774-7fad-488b-858c-6c8700eaf739","ios":"levelo://app?vid=1b943774-7fad-488b-858c-6c8700eaf739"},"vehicle_type_id":"4","last_reported":1747606137,"current_range_meters":2800,"station_id":"ce4bgj12rcd13ifvqbc0","pricing_plan_id":"cebpf4jnsgd1na2vs0mg"},{"bike_id":"221059a0-9f9c-4e66-81e4-fa248c43ab3a","system_id":"levelo_inurba_marseille","lat":43.30784,"lon":5.37651,"is_reserved":false,"is_disabled":false,"rental_uris":{"android":"levelo://app?vid=221059a0-9f9c-4e66-81e4-fa248c43ab3a","ios":"levelo://app?vid=221059a0-9f9c-4e66-81e4-fa248c43ab3a"},"vehicle_type_id":"4","last_reported":1747606137,"current_range_meters":2800,"station_id":"ce4bgv92rcd13ifvqcq0","pricing_plan_id":"cebpf4jnsgd1na2vs0mg"},{"bike_id":"aa1d8c1e-7594-4615-aa13-56fdebb973d7","system_id":"levelo_inurba_marseille","lat":43.26776,"lon":5.39278,"is_reserved":false,"is_disabled":false,"rental_uris":{"android":"levelo://app?vid=aa1d8c1e-7594-4615-aa13-56fdebb973d7","ios":"levelo://app?vid=aa1d8c1e-7594-4615-aa13-56fdebb973d7"},"vehicle_type_id":"4","last_reported":1747606137,"current_range_meters":3200,"station_id":"","pricing_plan_id":"cebpf4jnsgd1na2vs0mg"},{"bike_id":"b181c779-56fe-4884-a31c-496bb57b8968","system_id":"levelo_inurba_marseille","lat":43.30217,"lon":5.39479,"is_reserved":false,"is_disabled":false,"rental_uris":{"android":"levelo://app?vid=b181c779-56fe-4884-a31c-496bb57b8968","ios":"levelo://app?vid=b181c779-56fe-4884-a31c-496bb57b8968"},"vehicle_type_id":"4","last_reported":1747606137,"current_range_meters":3600,"station_id":"ce4bh0p2rcd13ifvqd70","pricing_plan_id":"cebpf4jnsgd1na2vs0mg"},{"bike_id":"c1b9fa33-9c2d-40ce-9979-b53b7ae668ed","system_id":"levelo_inurba_marseille","lat":43.28153,"lon":5.42643,"is_reserved":false,"is_disabled":true,"rental_uris":{"android":"levelo://app?vid=c1b9fa33-9c2d-40ce-9979-b53b7ae668ed","ios":"levelo://app?vid=c1b9fa33-9c2d-40ce-9979-b53b7ae668ed"},"vehicle_type_id":"4","last_reported":1747606137,"current_range_meters":3600,"station_id":"ce4bhnh2rcd13ifvqgug","pricing_plan_id":"cebpf4jnsgd1na2vs0mg"},{"bike_id":"ee9a593d-f654-4d29-9a96-9e790239c25b","system_id":"levelo_inurba_marseille","lat":43.26061,"lon":5.39398,"is_reserved":false,"is_disabled":false,"rental_uris":{"android":"levelo://app?vid=ee9a593d-f654-4d29-9a96-9e790239c25b","ios":"levelo://app?vid=ee9a593d-f654-4d29-9a96-9e790239c25b"},"vehicle_type_id":"4","last_reported":1747606137,"current_range_meters":4000,"station_id":"ce4bhh92rcd13ifvqfj0","pricing_plan_id":"cebpf4jnsgd1na2vs0mg"},{"bike_id":"ad201fd8-43d4-4e13-b393-60400b28cd6f","system_id":"levelo_inurba_marseille","lat":43.24108,"lon":5.377,"is_reserved":false,"is_disabled":false,"rental_uris":{"android":"levelo://app?vid=ad201fd8-43d4-4e13-b393-60400b28cd6f","ios":"levelo://app?vid=ad201fd8-43d4-4e13-b393-60400b28cd6f"},"vehicle_type_id":"4","last_reported":1747606137,"current_range_meters":4000,"station_id":"ce4bhnp2rcd13ifvqgvg","pricing_plan_id":"cebpf4jnsgd1na2vs0mg"},{"bike_id":"b05b1f64-0753-4df6-9d99-52c918cd47ad","system_id":"levelo_inurba_marseille","lat":43.29044,"lon":5.39946,"is_reserved":false,"is_disabled":true,"rental_uris":{"android":"levelo://app?vid=b05b1f64-0753-4df6-9d99-52c918cd47ad","ios":"levelo://app?vid=b05b1f64-0753-4df6-9d99-52c918cd47ad"},"vehicle_type_id":"4","last_reported":1747606137,"current_range_meters":4400,"station_id":"ce4bh392rcd13ifvqdm0","pricing_plan_id":"cebpf4jnsgd1na2vs0mg"},{"bike_id":"b1e588a8-6868-4632-aaf7-01c00ab698a5","system_id":"levelo_inurba_marseille","lat":43.27938,"lon":5.4103,"is_reserved":false,"is_disabled":false,"rental_uris":{"android":"levelo://app?vid=b1e588a8-6868-4632-aaf7-01c00ab698a5","ios":"levelo://app?vid=b1e588a8-6868-4632-aaf7-01c00ab698a5"},"vehicle_type_id":"4","last_reported":1747606137,"current_range_meters":4400,"station_id":"ce4bhnp2rcd13ifvqh0g","pricing_plan_id":"cebpf4jnsgd1na2vs0mg"},{"bike_id":"2f397a7e-63b0-4c04-ad37-f638bc4cfa25","system_id":"levelo_inurba_marseille","lat":43.28715,"lon":5.37934,"is_reserved":false,"is_disabled":false,"rental_uris":{"android":"levelo://app?vid=2f397a7e-63b0-4c04-ad37-f638bc4cfa25","ios":"levelo://app?vid=2f397a7e-63b0-4c04-ad37-f638bc4cfa25"},"vehicle_type_id":"4","last_reported":1747606137,"current_range_meters":4400,"station_id":"ce4bh9p2rcd13ifvqec0","pricing_plan_id":"cebpf4jnsgd1na2vs0mg"},{"bike_id":"b8e6468b-87db-4ff6-8122-ef13bf5b7c8c","system_id":"levelo_inurba_marseille","lat":43.31379,"lon":5.37916,"is_reserved":false,"is_disabled":true,"rental_uris":{"android":"levelo://app?vid=b8e6468b-87db-4ff6-8122-ef13bf5b7c8c","ios":"levelo://app?vid=b8e6468b-87db-4ff6-8122-ef13bf5b7c8c"},"vehicle_type_id":"4","last_reported":1747606137,"current_range_meters":4800,"station_id":"","pricing_plan_id":"cebpf4jnsgd1na2vs0mg"},{"bike_id":"42c77423-8ffd-4c4e-aa75-9116247116d8","system_id":"levelo_inurba_marseille","lat":43.309175,"lon":5.378631,"is_reserved":false,"is_disabled":false,"rental_uris":{"android":"levelo://app?vid=42c77423-8ffd-4c4e-aa75-9116247116d8","ios":"levelo://app?vid=42c77423-8ffd-4c4e-aa75-9116247116d8"},"vehicle_type_id":"4","last_reported":1747606137,"current_range_meters":4800,"station_id":"ce4bgg92rcd13ifvqb30","pricing_plan_id":"cebpf4jnsgd1na2vs0mg"},{"bike_id":"398a8fd1-747d-4b0d-84d1-22519fee4719","system_id":"levelo_inurba_marseille","lat":43.27382,"lon":5.36257,"is_reserved":false,"is_disabled":true,"rental_uris":{"android":"levelo://app?vid=398a8fd1-747d-4b0d-84d1-22519fee4719","ios":"levelo://app?vid=398a8fd1-747d-4b0d-84d1-22519fee4719"},"vehicle_type_id":"4","last_reported":1747606137,"current_range_meters":5600,"station_id":"ce4bhbh2rcd13ifvqeo0","pricing_plan_id":"cebpf4jnsgd1na2vs0mg"},{"bike_id":"c99e3425-aa03-474f-a492-40b1e9776c52","system_id":"levelo_inurba_marseille","lat":43.279156,"lon":5.395816,"is_reserved":false,"is_disabled":false,"rental_uris":{"android":"levelo://app?vid=c99e3425-aa03-474f-a492-40b1e9776c52","ios":"levelo://app?vid=c99e3425-aa03-474f-a492-40b1e9776c52"},"vehicle_type_id":"4","last_reported":1747606137,"current_range_meters":5600,"station_id":"ce4bhf92rcd13ifvqf40","pricing_plan_id":"cebpf4jnsgd1na2vs0mg"},{"bike_id":"1c03bd5a-9af5-4f8d-ac22-134ae538c3b5","system_id":"levelo_inurba_marseille","lat":43.23186,"lon":5.39977,"is_reserved":false,"is_disabled":false,"rental_uris":{"android":"levelo://app?vid=1c03bd5a-9af5-4f8d-ac22-134ae538c3b5","ios":"levelo://app?vid=1c03bd5a-9af5-4f8d-ac22-134ae538c3b5"},"vehicle_type_id":"4","last_reported":1747606137,"current_range_meters":5600,"station_id":"ce4bhn12rcd13ifvqgqg","pricing_plan_id":"cebpf4jnsgd1na2vs0mg"},{"bike_id":"1381bd49-568c-425f-bcfd-260613800bb1","system_id":"levelo_inurba_marseille","lat":43.27414,"lon":5.39405,"is_reserved":false,"is_disabled":false,"rental_uris":{"android":"levelo://app?vid=1381bd49-568c-425f-bcfd-260613800bb1","ios":"levelo://app?vid=1381bd49-568c-425f-bcfd-260613800bb1"},"vehicle_type_id":"4","last_reported":1747606137,"current_range_meters":5600,"station_id":"ce4bhdp2rcd13ifvqf20","pricing_plan_id":"cebpf4jnsgd1na2vs0mg"},{"bike_id":"cba2067c-a08b-479c-8b0b-7aae2b36b17b","system_id":"levelo_inurba_marseille","lat":43.2407,"lon":5.37745,"is_reserved":false,"is_disabled":false,"rental_uris":{"android":"levelo://app?vid=cba2067c-a08b-479c-8b0b-7aae2b36b17b","ios":"levelo://app?vid=cba2067c-a08b-479c-8b0b-7aae2b36b17b"},"vehicle_type_id":"4","last_reported":1747606137,"current_range_meters":5600,"station_id":"ce4bhnp2rcd13ifvqgvg","pricing_plan_id":"cebpf4jnsgd1na2vs0mg"},{"bike_id":"af2f3908-848e-4879-9c80-b3ddea1b7f0a","system_id":"levelo_inurba_marseille","lat":43.31209,"lon":5.38764,"is_reserved":false,"is_disabled":true,"rental_uris":{"android":"levelo://app?vid=af2f3908-848e-4879-9c80-b3ddea1b7f0a","ios":"levelo://app?vid=af2f3908-848e-4879-9c80-b3ddea1b7f0a"},"vehicle_type_id":"4","last_reported":1747606137,"current_range_meters":5600,"station_id":"","pricing_plan_id":"cebpf4jnsgd1na2vs0mg"},{"bike_id":"6b849ac5-c25f-4393-bc5a-47493e693ba8","system_id":"levelo_inurba_marseille","lat":43.24171,"lon":5.36414,"is_reserved":false,"is_disabled":true,"rental_uris":{"android":"levelo://app?vid=6b849ac5-c25f-4393-bc5a-47493e693ba8","ios":"levelo://app?vid=6b849ac5-c25f-4393-bc5a-47493e693ba8"},"vehicle_type_id":"4","last_reported":1747606137,"current_range_meters":6000,"station_id":"cpo36qri1sfpv3e86is0","pricing_plan_id":"cebpf4jnsgd1na2vs0mg"},{"bike_id":"63f1b307-6601-4160-a5fb-ab63699a061a","system_id":"levelo_inurba_marseille","lat":43.31177,"lon":5.38716,"is_reserved":false,"is_disabled":false,"rental_uris":{"android":"levelo://app?vid=63f1b307-6601-4160-a5fb-ab63699a061a","ios":"levelo://app?vid=63f1b307-6601-4160-a5fb-ab63699a061a"},"vehicle_type_id":"4","last_reported":1747606137,"current_range_meters":6000,"station_id":"ce4bgv12rcd13ifvqcp0","pricing_plan_id":"cebpf4jnsgd1na2vs0mg"},{"bike_id":"d2840165-1c23-431e-aa0b-16b735842f8a","system_id":"levelo_inurba_marseille","lat":43.2808,"lon":5.39642,"is_reserved":false,"is_disabled":false,"rental_uris":{"android":"levelo://app?vid=d2840165-1c23-431e-aa0b-16b735842f8a","ios":"levelo://app?vid=d2840165-1c23-431e-aa0b-16b735842f8a"},"vehicle_type_id":"4","last_reported":1747606137,"current_range_meters":6400,"station_id":"ce4bho12rcd13ifvqh2g","pricing_plan_id":"cebpf4jnsgd1na2vs0mg"},{"bike_id":"befab951-f3e5-4c3e-8c7f-1edd87a62d45","system_id":"levelo_inurba_marseille","lat":43.28951,"lon":5.39637,"is_reserved":false,"is_disabled":false,"rental_uris":{"android":"levelo://app?vid=befab951-f3e5-4c3e-8c7f-1edd87a62d45","ios":"levelo://app?vid=befab951-f3e5-4c3e-8c7f-1edd87a62d45"},"vehicle_type_id":"4","last_reported":1747606137,"current_range_meters":6400,"station_id":"ce4bh3h2rcd13ifvqdn0","pricing_plan_id":"cebpf4jnsgd1na2vs0mg"},{"bike_id":"7a82397e-c258-4325-b836-1bc38b80aab5","system_id":"levelo_inurba_marseille","lat":43.2407,"lon":5.37754,"is_reserved":false,"is_disabled":false,"rental_uris":{"android":"levelo://app?vid=7a82397e-c258-4325-b836-1bc38b80aab5","ios":"levelo://app?vid=7a82397e-c258-4325-b836-1bc38b80aab5"},"vehicle_type_id":"4","last_reported":1747606137,"current_range_meters":6400,"station_id":"ce4bhnp2rcd13ifvqgvg","pricing_plan_id":"cebpf4jnsgd1na2vs0mg"},{"bike_id":"54510974-805e-44ca-aeed-f6f214315efd","system_id":"levelo_inurba_marseille","lat":43.27102,"lon":5.39882,"is_reserved":false,"is_disabled":false,"rental_uris":{"android":"levelo://app?vid=54510974-805e-44ca-aeed-f6f214315efd","ios":"levelo://app?vid=54510974-805e-44ca-aeed-f6f214315efd"},"vehicle_type_id":"4","last_reported":1747606137,"current_range_meters":6400,"station_id":"","pricing_plan_id":"cebpf4jnsgd1na2vs0mg"},{"bike_id":"bfe448fb-2f91-4bfc-9f87-682acde35158","system_id":"levelo_inurba_marseille","lat":43.26212,"lon":5.37426,"is_reserved":false,"is_disabled":true,"rental_uris":{"android":"levelo://app?vid=bfe448fb-2f91-4bfc-9f87-682acde35158","ios":"levelo://app?vid=bfe448fb-2f91-4bfc-9f87-682acde35158"},"vehicle_type_id":"4","last_reported":1747606137,"current_range_meters":6400,"station_id":"ce4bhgp2rcd13ifvqfc0","pricing_plan_id":"cebpf4jnsgd1na2vs0mg"},{"bike_id":"b934e6da-efb5-4ac5-a51a-eb50220f6e1b","system_id":"levelo_inurba_marseille","lat":43.26973,"lon":5.40588,"is_reserved":false,"is_disabled":true,"rental_uris":{"android":"levelo://app?vid=b934e6da-efb5-4ac5-a51a-eb50220f6e1b","ios":"levelo://app?vid=b934e6da-efb5-4ac5-a51a-eb50220f6e1b"},"vehicle_type_id":"4","last_reported":1747606137,"current_range_meters":7200,"station_id":"","pricing_plan_id":"cebpf4jnsgd1na2vs0mg"},{"bike_id":"c0db4030-ef30-480b-a735-af5435a471ed","system_id":"levelo_inurba_marseille","lat":43.2774,"lon":5.42664,"is_reserved":false,"is_disabled":false,"rental_uris":{"android":"levelo://app?vid=c0db4030-ef30-480b-a735-af5435a471ed","ios":"levelo://app?vid=c0db4030-ef30-480b-a735-af5435a471ed"},"vehicle_type_id":"4","last_reported":1747606137,"current_range_meters":7200,"station_id":"","pricing_plan_id":"cebpf4jnsgd1na2vs0mg"},{"bike_id":"9be12a09-efe5-495b-8ec3-e7e0d7473370","system_id":"levelo_inurba_marseille","lat":43.295972,"lon":5.381058,"is_reserved":false,"is_disabled":true,"rental_uris":{"android":"levelo://app?vid=9be12a09-efe5-495b-8ec3-e7e0d7473370","ios":"levelo://app?vid=9be12a09-efe5-495b-8ec3-e7e0d7473370"},"vehicle_type_id":"4","last_reported":1747606137,"current_range_meters":7200,"station_id":"ce4bgl12rcd13ifvqbo0","pricing_plan_id":"cebpf4jnsgd1na2vs0mg"},{"bike_id":"e5c8a2b0-e20c-401e-819e-2833d3af4a7a","system_id":"levelo_inurba_marseille","lat":43.274951,"lon":5.424529,"is_reserved":false,"is_disabled":false,"rental_uris":{"android":"levelo://app?vid=e5c8a2b0-e20c-401e-819e-2833d3af4a7a","ios":"levelo://app?vid=e5c8a2b0-e20c-401e-819e-2833d3af4a7a"},"vehicle_type_id":"4","last_reported":1747606137,"current_range_meters":7200,"station_id":"ce4bhn92rcd13ifvqgrg","pricing_plan_id":"cebpf4jnsgd1na2vs0mg"},{"bike_id":"c78b4d3a-5ba8-47dd-9b7e-b5309c8a7244","system_id":"levelo_inurba_marseille","lat":43.29275,"lon":5.40108,"is_reserved":false,"is_disabled":false,"rental_uris":{"android":"levelo://app?vid=c78b4d3a-5ba8-47dd-9b7e-b5309c8a7244","ios":"levelo://app?vid=c78b4d3a-5ba8-47dd-9b7e-b5309c8a7244"},"vehicle_type_id":"4","last_reported":1747606137,"current_range_meters":7200,"station_id":"ce4bh312rcd13ifvqdk0","pricing_plan_id":"cebpf4jnsgd1na2vs0mg"},{"bike_id":"0c2b5650-b63e-432a-a802-72710d7a63b5","system_id":"levelo_inurba_marseille","lat":43.27922,"lon":5.39595,"is_reserved":false,"is_disabled":false,"rental_uris":{"android":"levelo://app?vid=0c2b5650-b63e-432a-a802-72710d7a63b5","ios":"levelo://app?vid=0c2b5650-b63e-432a-a802-72710d7a63b5"},"vehicle_type_id":"4","last_reported":1747606137,"current_range_meters":7200,"station_id":"ce4bhf92rcd13ifvqf40","pricing_plan_id":"cebpf4jnsgd1na2vs0mg"},{"bike_id":"bad86af2-0ffe-4b1f-923c-e1a8ba9fe0ac","system_id":"levelo_inurba_marseille","lat":43.29273,"lon":5.40115,"is_reserved":false,"is_disabled":false,"rental_uris":{"android":"levelo://app?vid=bad86af2-0ffe-4b1f-923c-e1a8ba9fe0ac","ios":"levelo://app?vid=bad86af2-0ffe-4b1f-923c-e1a8ba9fe0ac"},"vehicle_type_id":"4","last_reported":1747606137,"current_range_meters":6800,"station_id":"ce4bh312rcd13ifvqdk0","pricing_plan_id":"cebpf4jnsgd1na2vs0mg"},{"bike_id":"0fb02880-5c6e-4026-9e4a-07529c572b44","system_id":"levelo_inurba_marseille","lat":43.25494,"lon":5.37392,"is_reserved":false,"is_disabled":false,"rental_uris":{"android":"levelo://app?vid=0fb02880-5c6e-4026-9e4a-07529c572b44","ios":"levelo://app?vid=0fb02880-5c6e-4026-9e4a-07529c572b44"},"vehicle_type_id":"4","last_reported":1747606137,"current_range_meters":8000,"station_id":"","pricing_plan_id":"cebpf4jnsgd1na2vs0mg"},{"bike_id":"0942a4e0-09d2-4a94-9ccc-136b2604fc2e","system_id":"levelo_inurba_marseille","lat":43.240693,"lon":5.37759,"is_reserved":false,"is_disabled":false,"rental_uris":{"android":"levelo://app?vid=0942a4e0-09d2-4a94-9ccc-136b2604fc2e","ios":"levelo://app?vid=0942a4e0-09d2-4a94-9ccc-136b2604fc2e"},"vehicle_type_id":"4","last_reported":1747606137,"current_range_meters":8000,"station_id":"ce4bhnp2rcd13ifvqgvg","pricing_plan_id":"cebpf4jnsgd1na2vs0mg"},{"bike_id":"12569b35-d33a-407b-80dd-e3c1ef7409ca","system_id":"levelo_inurba_marseille","lat":43.3093,"lon":5.40167,"is_reserved":false,"is_disabled":false,"rental_uris":{"android":"levelo://app?vid=12569b35-d33a-407b-80dd-e3c1ef7409ca","ios":"levelo://app?vid=12569b35-d33a-407b-80dd-e3c1ef7409ca"},"vehicle_type_id":"4","last_reported":1747606137,"current_range_meters":8000,"station_id":"ce4bgvp2rcd13ifvqct0","pricing_plan_id":"cebpf4jnsgd1na2vs0mg"},{"bike_id":"14603e41-b2dd-4757-a53c-2e366aa4f983","system_id":"levelo_inurba_marseille","lat":43.26991,"lon":5.42826,"is_reserved":false,"is_disabled":false,"rental_uris":{"android":"levelo://app?vid=14603e41-b2dd-4757-a53c-2e366aa4f983","ios":"levelo://app?vid=14603e41-b2dd-4757-a53c-2e366aa4f983"},"vehicle_type_id":"4","last_reported":1747606137,"current_range_meters":8000,"station_id":"","pricing_plan_id":"cebpf4jnsgd1na2vs0mg"},{"bike_id":"2eab994d-a378-4391-894b-b62d11a34041","system_id":"levelo_inurba_marseille","lat":43.2317,"lon":5.43682,"is_reserved":false,"is_disabled":true,"rental_uris":{"android":"levelo://app?vid=2eab994d-a378-4391-894b-b62d11a34041","ios":"levelo://app?vid=2eab994d-a378-4391-894b-b62d11a34041"},"vehicle_type_id":"4","last_reported":1747606137,"current_range_meters":8400,"station_id":"ce4bhmp2rcd13ifvqgog","pricing_plan_id":"cebpf4jnsgd1na2vs0mg"},{"bike_id":"3dbf4202-6716-451d-aeb1-f268340013a7","system_id":"levelo_inurba_marseille","lat":43.31479,"lon":5.37314,"is_reserved":false,"is_disabled":true,"rental_uris":{"android":"levelo://app?vid=3dbf4202-6716-451d-aeb1-f268340013a7","ios":"levelo://app?vid=3dbf4202-6716-451d-aeb1-f268340013a7"},"vehicle_type_id":"4","last_reported":1747606137,"current_range_meters":8400,"station_id":"ce4bgt12rcd13ifvqcd0","pricing_plan_id":"cebpf4jnsgd1na2vs0mg"},{"bike_id":"1095c8be-c665-4dc2-8f08-f6b53f28326d","system_id":"levelo_inurba_marseille","lat":43.28679,"lon":5.36355,"is_reserved":false,"is_disabled":false,"rental_uris":{"android":"levelo://app?vid=1095c8be-c665-4dc2-8f08-f6b53f28326d","ios":"levelo://app?vid=1095c8be-c665-4dc2-8f08-f6b53f28326d"},"vehicle_type_id":"4","last_reported":1747606137,"current_range_meters":8400,"station_id":"ce4bhah2rcd13ifvqej0","pricing_plan_id":"cebpf4jnsgd1na2vs0mg"},{"bike_id":"b3d3c3ee-d31e-42f9-8725-23762e5459dc","system_id":"levelo_inurba_marseille","lat":43.31616,"lon":5.37801,"is_reserved":false,"is_disabled":false,"rental_uris":{"android":"levelo://app?vid=b3d3c3ee-d31e-42f9-8725-23762e5459dc","ios":"levelo://app?vid=b3d3c3ee-d31e-42f9-8725-23762e5459dc"},"vehicle_type_id":"4","last_reported":1747606137,"current_range_meters":8400,"station_id":"","pricing_plan_id":"cebpf4jnsgd1na2vs0mg"},{"bike_id":"caf4c81d-8b81-4d8d-a4f9-9d00bac7ad70","system_id":"levelo_inurba_marseille","lat":43.3079,"lon":5.42774,"is_reserved":false,"is_disabled":false,"rental_uris":{"android":"levelo://app?vid=caf4c81d-8b81-4d8d-a4f9-9d00bac7ad70","ios":"levelo://app?vid=caf4c81d-8b81-4d8d-a4f9-9d00bac7ad70"},"vehicle_type_id":"4","last_reported":1747606137,"current_range_meters":8400,"station_id":"","pricing_plan_id":"cebpf4jnsgd1na2vs0mg"},{"bike_id":"7d080336-5a2d-419d-8d50-e49d93450255","system_id":"levelo_inurba_marseille","lat":43.291739,"lon":5.371346,"is_reserved":false,"is_disabled":true,"rental_uris":{"android":"levelo://app?vid=7d080336-5a2d-419d-8d50-e49d93450255","ios":"levelo://app?vid=7d080336-5a2d-419d-8d50-e49d93450255"},"vehicle_type_id":"4","last_reported":1747606137,"current_range_meters":8800,"station_id":"ce4bha92rcd13ifvqeh0","pricing_plan_id":"cebpf4jnsgd1na2vs0mg"},{"bike_id":"67f72f62-eb9d-4994-bbcf-c10b28dd838c","system_id":"levelo_inurba_marseille","lat":43.26607,"lon":5.39338,"is_reserved":false,"is_disabled":false,"rental_uris":{"android":"levelo://app?vid=67f72f62-eb9d-4994-bbcf-c10b28dd838c","ios":"levelo://app?vid=67f72f62-eb9d-4994-bbcf-c10b28dd838c"},"vehicle_type_id":"4","last_reported":1747606137,"current_range_meters":8800,"station_id":"","pricing_plan_id":"cebpf4jnsgd1na2vs0mg"},{"bike_id":"88c266e6-7038-494f-b358-90ca603fb435","system_id":"levelo_inurba_marseille","lat":43.295707,"lon":5.375057,"is_reserved":false,"is_disabled":true,"rental_uris":{"android":"levelo://app?vid=88c266e6-7038-494f-b358-90ca603fb435","ios":"levelo://app?vid=88c266e6-7038-494f-b358-90ca603fb435"},"vehicle_type_id":"4","last_reported":1747606137,"current_range_meters":8800,"station_id":"ce4bgh92rcd13ifvqb50","pricing_plan_id":"cebpf4jnsgd1na2vs0mg"},{"bike_id":"ffc3ddf2-0082-4578-9e25-c91f5b4279bc","system_id":"levelo_inurba_marseille","lat":43.28325,"lon":5.41129,"is_reserved":false,"is_disabled":false,"rental_uris":{"android":"levelo://app?vid=ffc3ddf2-0082-4578-9e25-c91f5b4279bc","ios":"levelo://app?vid=ffc3ddf2-0082-4578-9e25-c91f5b4279bc"},"vehicle_type_id":"4","last_reported":1747606137,"current_range_meters":8800,"station_id":"","pricing_plan_id":"cebpf4jnsgd1na2vs0mg"},{"bike_id":"43b47f55-f2d2-49ee-8f5f-b100c45adb99","system_id":"levelo_inurba_marseille","lat":43.309265,"lon":5.40144,"is_reserved":false,"is_disabled":false,"rental_uris":{"android":"levelo://app?vid=43b47f55-f2d2-49ee-8f5f-b100c45adb99","ios":"levelo://app?vid=43b47f55-f2d2-49ee-8f5f-b100c45adb99"},"vehicle_type_id":"4","last_reported":1747606137,"current_range_meters":8800,"station_id":"ce4bgvp2rcd13ifvqct0","pricing_plan_id":"cebpf4jnsgd1na2vs0mg"},{"bike_id":"40635187-8b5c-4431-b8a3-4fd5c4e136e6","system_id":"levelo_inurba_marseille","lat":43.317059,"lon":5.40445,"is_reserved":false,"is_disabled":false,"rental_uris":{"android":"levelo://app?vid=40635187-8b5c-4431-b8a3-4fd5c4e136e6","ios":"levelo://app?vid=40635187-8b5c-4431-b8a3-4fd5c4e136e6"},"vehicle_type_id":"4","last_reported":1747606137,"current_range_meters":8800,"station_id":"ce4bh012rcd13ifvqd00","pricing_plan_id":"cebpf4jnsgd1na2vs0mg"},{"bike_id":"1b2f0e19-c9dc-4000-8367-67c619535c14","system_id":"levelo_inurba_marseille","lat":43.29941,"lon":5.36543,"is_reserved":false,"is_disabled":true,"rental_uris":{"android":"levelo://app?vid=1b2f0e19-c9dc-4000-8367-67c619535c14","ios":"levelo://app?vid=1b2f0e19-c9dc-4000-8367-67c619535c14"},"vehicle_type_id":"4","last_reported":1747606137,"current_range_meters":9200,"station_id":"ce4bgm92rcd13ifvqbr0","pricing_plan_id":"cebpf4jnsgd1na2vs0mg"},{"bike_id":"9b55a1e0-14da-4879-90dc-b321de5c8345","system_id":"levelo_inurba_marseille","lat":43.297831,"lon":5.38116,"is_reserved":false,"is_disabled":true,"rental_uris":{"android":"levelo://app?vid=9b55a1e0-14da-4879-90dc-b321de5c8345","ios":"levelo://app?vid=9b55a1e0-14da-4879-90dc-b321de5c8345"},"vehicle_type_id":"4","last_reported":1747606137,"current_range_meters":9200,"station_id":"ce4bgip2rcd13ifvqbb0","pricing_plan_id":"cebpf4jnsgd1na2vs0mg"},{"bike_id":"cbb6f80a-1574-483a-8689-b07cb5d78fb3","system_id":"levelo_inurba_marseille","lat":43.30591,"lon":5.3935,"is_reserved":false,"is_disabled":false,"rental_uris":{"android":"levelo://app?vid=cbb6f80a-1574-483a-8689-b07cb5d78fb3","ios":"levelo://app?vid=cbb6f80a-1574-483a-8689-b07cb5d78fb3"},"vehicle_type_id":"4","last_reported":1747606137,"current_range_meters":9200,"station_id":"ce4bh0p2rcd13ifvqd80","pricing_plan_id":"cebpf4jnsgd1na2vs0mg"},{"bike_id":"c608898e-58b6-42f7-903a-6008119c7a64","system_id":"levelo_inurba_marseille","lat":43.24075,"lon":5.37749,"is_reserved":false,"is_disabled":false,"rental_uris":{"android":"levelo://app?vid=c608898e-58b6-42f7-903a-6008119c7a64","ios":"levelo://app?vid=c608898e-58b6-42f7-903a-6008119c7a64"},"vehicle_type_id":"4","last_reported":1747606137,"current_range_meters":9200,"station_id":"ce4bhnp2rcd13ifvqgvg","pricing_plan_id":"cebpf4jnsgd1na2vs0mg"},{"bike_id":"eb2c2731-2edc-4d41-9768-74e49a367a23","system_id":"levelo_inurba_marseille","lat":43.31076,"lon":5.38351,"is_reserved":false,"is_disabled":false,"rental_uris":{"android":"levelo://app?vid=eb2c2731-2edc-4d41-9768-74e49a367a23","ios":"levelo://app?vid=eb2c2731-2edc-4d41-9768-74e49a367a23"},"vehicle_type_id":"4","last_reported":1747606137,"current_range_meters":9200,"station_id":"ce4bgv92rcd13ifvqcr0","pricing_plan_id":"cebpf4jnsgd1na2vs0mg"},{"bike_id":"9dbadacf-fbbb-4744-b239-0fae16a8ed75","system_id":"levelo_inurba_marseille","lat":43.270522,"lon":5.402546,"is_reserved":false,"is_disabled":false,"rental_uris":{"android":"levelo://app?vid=9dbadacf-fbbb-4744-b239-0fae16a8ed75","ios":"levelo://app?vid=9dbadacf-fbbb-4744-b239-0fae16a8ed75"},"vehicle_type_id":"4","last_reported":1747606137,"current_range_meters":9600,"station_id":"","pricing_plan_id":"cebpf4jnsgd1na2vs0mg"},{"bike_id":"729918f8-f344-4485-8aad-10309154b9ab","system_id":"levelo_inurba_marseille","lat":43.31509,"lon":5.38577,"is_reserved":false,"is_disabled":false,"rental_uris":{"android":"levelo://app?vid=729918f8-f344-4485-8aad-10309154b9ab","ios":"levelo://app?vid=729918f8-f344-4485-8aad-10309154b9ab"},"vehicle_type_id":"4","last_reported":1747606137,"current_range_meters":9600,"station_id":"","pricing_plan_id":"cebpf4jnsgd1na2vs0mg"},{"bike_id":"180966b7-0879-4a49-84ca-5641b4dba655","system_id":"levelo_inurba_marseille","lat":43.28943,"lon":5.39627,"is_reserved":false,"is_disabled":false,"rental_uris":{"android":"levelo://app?vid=180966b7-0879-4a49-84ca-5641b4dba655","ios":"levelo://app?vid=180966b7-0879-4a49-84ca-5641b4dba655"},"vehicle_type_id":"4","last_reported":1747606137,"current_range_meters":9600,"station_id":"ce4bh3h2rcd13ifvqdn0","pricing_plan_id":"cebpf4jnsgd1na2vs0mg"},{"bike_id":"452f057a-7b3d-49f4-87c4-28e634720532","system_id":"levelo_inurba_marseille","lat":43.28437,"lon":5.39188,"is_reserved":false,"is_disabled":false,"rental_uris":{"android":"levelo://app?vid=452f057a-7b3d-49f4-87c4-28e634720532","ios":"levelo://app?vid=452f057a-7b3d-49f4-87c4-28e634720532"},"vehicle_type_id":"4","last_reported":1747606137,"current_range_meters":9600,"station_id":"ce4bhoh2rcd13ifvqh5g","pricing_plan_id":"cebpf4jnsgd1na2vs0mg"},{"bike_id":"8c1358ab-eac1-4c80-9f48-a739214cfa6d","system_id":"levelo_inurba_marseille","lat":43.28147,"lon":5.42645,"is_reserved":false,"is_disabled":false,"rental_uris":{"android":"levelo://app?vid=8c1358ab-eac1-4c80-9f48-a739214cfa6d","ios":"levelo://app?vid=8c1358ab-eac1-4c80-9f48-a739214cfa6d"},"vehicle_type_id":"4","last_reported":1747606137,"current_range_meters":9600,"station_id":"ce4bhnh2rcd13ifvqgug","pricing_plan_id":"cebpf4jnsgd1na2vs0mg"},{"bike_id":"4745dd8b-a0b2-49db-b417-8a28eecc51d4","system_id":"levelo_inurba_marseille","lat":43.24323,"lon":5.37981,"is_reserved":false,"is_disabled":false,"rental_uris":{"android":"levelo://app?vid=4745dd8b-a0b2-49db-b417-8a28eecc51d4","ios":"levelo://app?vid=4745dd8b-a0b2-49db-b417-8a28eecc51d4"},"vehicle_type_id":"4","last_reported":1747606137,"current_range_meters":9600,"station_id":"","pricing_plan_id":"cebpf4jnsgd1na2vs0mg"},{"bike_id":"6ee7001e-07ad-49d2-9902-4e2095457f59","system_id":"levelo_inurba_marseille","lat":43.27075,"lon":5.42269,"is_reserved":false,"is_disabled":true,"rental_uris":{"android":"levelo://app?vid=6ee7001e-07ad-49d2-9902-4e2095457f59","ios":"levelo://app?vid=6ee7001e-07ad-49d2-9902-4e2095457f59"},"vehicle_type_id":"4","last_reported":1747606137,"current_range_meters":10000,"station_id":"ce4bhk92rcd13ifvqgb0","pricing_plan_id":"cebpf4jnsgd1na2vs0mg"},{"bike_id":"75463357-e93f-40fe-bd3c-705c5c56d40d","system_id":"levelo_inurba_marseille","lat":43.30154,"lon":5.39875,"is_reserved":false,"is_disabled":false,"rental_uris":{"android":"levelo://app?vid=75463357-e93f-40fe-bd3c-705c5c56d40d","ios":"levelo://app?vid=75463357-e93f-40fe-bd3c-705c5c56d40d"},"vehicle_type_id":"4","last_reported":1747606137,"current_range_meters":10000,"station_id":"ce4bh0h2rcd13ifvqd40","pricing_plan_id":"cebpf4jnsgd1na2vs0mg"},{"bike_id":"752fccba-7c8c-4704-a985-695310354a1c","system_id":"levelo_inurba_marseille","lat":43.315364,"lon":5.3803,"is_reserved":false,"is_disabled":false,"rental_uris":{"android":"levelo://app?vid=752fccba-7c8c-4704-a985-695310354a1c","ios":"levelo://app?vid=752fccba-7c8c-4704-a985-695310354a1c"},"vehicle_type_id":"4","last_reported":1747606137,"current_range_meters":10000,"station_id":"ce4bhsp2rcd13ifvqi50","pricing_plan_id":"cebpf4jnsgd1na2vs0mg"},{"bike_id":"3dced1d9-0c80-49d8-a25b-68d880296f3d","system_id":"levelo_inurba_marseille","lat":43.30427,"lon":5.39748,"is_reserved":false,"is_disabled":false,"rental_uris":{"android":"levelo://app?vid=3dced1d9-0c80-49d8-a25b-68d880296f3d","ios":"levelo://app?vid=3dced1d9-0c80-49d8-a25b-68d880296f3d"},"vehicle_type_id":"4","last_reported":1747606137,"current_range_meters":10800,"station_id":"ce4bh092rcd13ifvqd20","pricing_plan_id":"cebpf4jnsgd1na2vs0mg"},{"bike_id":"5d86bbef-94ca-4dcb-9edd-d128b7c97ecc","system_id":"levelo_inurba_marseille","lat":43.30887,"lon":5.39628,"is_reserved":false,"is_disabled":false,"rental_uris":{"android":"levelo://app?vid=5d86bbef-94ca-4dcb-9edd-d128b7c97ecc","ios":"levelo://app?vid=5d86bbef-94ca-4dcb-9edd-d128b7c97ecc"},"vehicle_type_id":"4","last_reported":1747606137,"current_range_meters":10800,"station_id":"ce4bh012rcd13ifvqcv0","pricing_plan_id":"cebpf4jnsgd1na2vs0mg"},{"bike_id":"e6b88a27-71bd-4dea-a96f-6290efbfefd4","system_id":"levelo_inurba_marseille","lat":43.26215,"lon":5.40454,"is_reserved":false,"is_disabled":false,"rental_uris":{"android":"levelo://app?vid=e6b88a27-71bd-4dea-a96f-6290efbfefd4","ios":"levelo://app?vid=e6b88a27-71bd-4dea-a96f-6290efbfefd4"},"vehicle_type_id":"4","last_reported":1747606137,"current_range_meters":10800,"station_id":"ce4bhmh2rcd13ifvqgmg","pricing_plan_id":"cebpf4jnsgd1na2vs0mg"},{"bike_id":"51a33848-f0f0-40ec-b6c6-8948c992d932","system_id":"levelo_inurba_marseille","lat":43.250916,"lon":5.395193,"is_reserved":false,"is_disabled":false,"rental_uris":{"android":"levelo://app?vid=51a33848-f0f0-40ec-b6c6-8948c992d932","ios":"levelo://app?vid=51a33848-f0f0-40ec-b6c6-8948c992d932"},"vehicle_type_id":"4","last_reported":1747606137,"current_range_meters":10800,"station_id":"ce4bhm12rcd13ifvqgkg","pricing_plan_id":"cebpf4jnsgd1na2vs0mg"},{"bike_id":"cbef9dc4-2cb3-4c71-9588-71406cbd38f4","system_id":"levelo_inurba_marseille","lat":43.27556,"lon":5.3842,"is_reserved":false,"is_disabled":false,"rental_uris":{"android":"levelo://app?vid=cbef9dc4-2cb3-4c71-9588-71406cbd38f4","ios":"levelo://app?vid=cbef9dc4-2cb3-4c71-9588-71406cbd38f4"},"vehicle_type_id":"4","last_reported":1747606137,"current_range_meters":10800,"station_id":"ce4bhh92rcd13ifvqfi0","pricing_plan_id":"cebpf4jnsgd1na2vs0mg"},{"bike_id":"bef7e93a-e408-4e22-9bc9-22f9c74f2943","system_id":"levelo_inurba_marseille","lat":43.29437,"lon":5.39751,"is_reserved":false,"is_disabled":false,"rental_uris":{"android":"levelo://app?vid=bef7e93a-e408-4e22-9bc9-22f9c74f2943","ios":"levelo://app?vid=bef7e93a-e408-4e22-9bc9-22f9c74f2943"},"vehicle_type_id":"4","last_reported":1747606137,"current_range_meters":10800,"station_id":"ce4bh3h2rcd13ifvqdo0","pricing_plan_id":"cebpf4jnsgd1na2vs0mg"},{"bike_id":"3fe4ee94-b4ae-4871-89c2-728f25947523","system_id":"levelo_inurba_marseille","lat":43.3243,"lon":5.38885,"is_reserved":false,"is_disabled":false,"rental_uris":{"android":"levelo://app?vid=3fe4ee94-b4ae-4871-89c2-728f25947523","ios":"levelo://app?vid=3fe4ee94-b4ae-4871-89c2-728f25947523"},"vehicle_type_id":"4","last_reported":1747606137,"current_range_meters":10800,"station_id":"ce4bhqp2rcd13ifvqhog","pricing_plan_id":"cebpf4jnsgd1na2vs0mg"},{"bike_id":"b26a0dd7-cbdc-4ab7-8def-31c4b88b224a","system_id":"levelo_inurba_marseille","lat":43.3122,"lon":5.39263,"is_reserved":false,"is_disabled":false,"rental_uris":{"android":"levelo://app?vid=b26a0dd7-cbdc-4ab7-8def-31c4b88b224a","ios":"levelo://app?vid=b26a0dd7-cbdc-4ab7-8def-31c4b88b224a"},"vehicle_type_id":"4","last_reported":1747606137,"current_range_meters":11200,"station_id":"","pricing_plan_id":"cebpf4jnsgd1na2vs0mg"},{"bike_id":"018dda92-33f7-4f9c-9997-940b853b8743","system_id":"levelo_inurba_marseille","lat":43.27412,"lon":5.39416,"is_reserved":false,"is_disabled":true,"rental_uris":{"android":"levelo://app?vid=018dda92-33f7-4f9c-9997-940b853b8743","ios":"levelo://app?vid=018dda92-33f7-4f9c-9997-940b853b8743"},"vehicle_type_id":"4","last_reported":1747606137,"current_range_meters":11200,"station_id":"ce4bhdp2rcd13ifvqf20","pricing_plan_id":"cebpf4jnsgd1na2vs0mg"},{"bike_id":"ca2a3cd1-9e0f-47c5-bfeb-3862db0c259f","system_id":"levelo_inurba_marseille","lat":43.30934,"lon":5.40143,"is_reserved":false,"is_disabled":false,"rental_uris":{"android":"levelo://app?vid=ca2a3cd1-9e0f-47c5-bfeb-3862db0c259f","ios":"levelo://app?vid=ca2a3cd1-9e0f-47c5-bfeb-3862db0c259f"},"vehicle_type_id":"4","last_reported":1747606137,"current_range_meters":11200,"station_id":"ce4bgvp2rcd13ifvqct0","pricing_plan_id":"cebpf4jnsgd1na2vs0mg"},{"bike_id":"e22366a5-a50f-4b78-ad79-900d58eb5bdb","system_id":"levelo_inurba_marseille","lat":43.30223,"lon":5.39988,"is_reserved":false,"is_disabled":false,"rental_uris":{"android":"levelo://app?vid=e22366a5-a50f-4b78-ad79-900d58eb5bdb","ios":"levelo://app?vid=e22366a5-a50f-4b78-ad79-900d58eb5bdb"},"vehicle_type_id":"4","last_reported":1747606137,"current_range_meters":11200,"station_id":"","pricing_plan_id":"cebpf4jnsgd1na2vs0mg"},{"bike_id":"51736835-8128-4840-b526-bf33d386a6e7","system_id":"levelo_inurba_marseille","lat":43.299049,"lon":5.436359,"is_reserved":false,"is_disabled":true,"rental_uris":{"android":"levelo://app?vid=51736835-8128-4840-b526-bf33d386a6e7","ios":"levelo://app?vid=51736835-8128-4840-b526-bf33d386a6e7"},"vehicle_type_id":"4","last_reported":1747606137,"current_range_meters":11200,"station_id":"ce4bhpp2rcd13ifvqhfg","pricing_plan_id":"cebpf4jnsgd1na2vs0mg"},{"bike_id":"07672ecb-c631-450f-8bc9-47acc1780ab4","system_id":"levelo_inurba_marseille","lat":43.30879,"lon":5.39604,"is_reserved":false,"is_disabled":false,"rental_uris":{"android":"levelo://app?vid=07672ecb-c631-450f-8bc9-47acc1780ab4","ios":"levelo://app?vid=07672ecb-c631-450f-8bc9-47acc1780ab4"},"vehicle_type_id":"4","last_reported":1747606137,"current_range_meters":11600,"station_id":"","pricing_plan_id":"cebpf4jnsgd1na2vs0mg"},{"bike_id":"c95edae8-90ce-4d52-a6a6-375c9efc7c36","system_id":"levelo_inurba_marseille","lat":43.30129,"lon":5.39875,"is_reserved":false,"is_disabled":false,"rental_uris":{"android":"levelo://app?vid=c95edae8-90ce-4d52-a6a6-375c9efc7c36","ios":"levelo://app?vid=c95edae8-90ce-4d52-a6a6-375c9efc7c36"},"vehicle_type_id":"4","last_reported":1747606137,"current_range_meters":11600,"station_id":"ce4bh0h2rcd13ifvqd40","pricing_plan_id":"cebpf4jnsgd1na2vs0mg"},{"bike_id":"1ce0d1d1-5750-42f3-aacb-ef7edcf196ee","system_id":"levelo_inurba_marseille","lat":43.255327,"lon":5.376127,"is_reserved":false,"is_disabled":true,"rental_uris":{"android":"levelo://app?vid=1ce0d1d1-5750-42f3-aacb-ef7edcf196ee","ios":"levelo://app?vid=1ce0d1d1-5750-42f3-aacb-ef7edcf196ee"},"vehicle_type_id":"4","last_reported":1747606137,"current_range_meters":11600,"station_id":"ce4bhh12rcd13ifvqff0","pricing_plan_id":"cebpf4jnsgd1na2vs0mg"},{"bike_id":"e3b78554-4d24-4011-be37-94a8a7d4a2fb","system_id":"levelo_inurba_marseille","lat":43.2649,"lon":5.39567,"is_reserved":false,"is_disabled":true,"rental_uris":{"android":"levelo://app?vid=e3b78554-4d24-4011-be37-94a8a7d4a2fb","ios":"levelo://app?vid=e3b78554-4d24-4011-be37-94a8a7d4a2fb"},"vehicle_type_id":"4","last_reported":1747606137,"current_range_meters":11600,"station_id":"ce4bhi12rcd13ifvqfq0","pricing_plan_id":"cebpf4jnsgd1na2vs0mg"},{"bike_id":"1e755959-071e-4e32-88c3-22fabc9da577","system_id":"levelo_inurba_marseille","lat":43.30661,"lon":5.40082,"is_reserved":false,"is_disabled":false,"rental_uris":{"android":"levelo://app?vid=1e755959-071e-4e32-88c3-22fabc9da577","ios":"levelo://app?vid=1e755959-071e-4e32-88c3-22fabc9da577"},"vehicle_type_id":"4","last_reported":1747606137,"current_range_meters":11600,"station_id":"ce4bh112rcd13ifvqda0","pricing_plan_id":"cebpf4jnsgd1na2vs0mg"},{"bike_id":"0b823a07-6962-4e0d-8e4a-dd2d68ba751f","system_id":"levelo_inurba_marseille","lat":43.27072,"lon":5.42284,"is_reserved":false,"is_disabled":false,"rental_uris":{"android":"levelo://app?vid=0b823a07-6962-4e0d-8e4a-dd2d68ba751f","ios":"levelo://app?vid=0b823a07-6962-4e0d-8e4a-dd2d68ba751f"},"vehicle_type_id":"4","last_reported":1747606137,"current_range_meters":11600,"station_id":"ce4bhk92rcd13ifvqgb0","pricing_plan_id":"cebpf4jnsgd1na2vs0mg"},{"bike_id":"c9098f0c-9735-4b11-b691-4a6b9418f24c","system_id":"levelo_inurba_marseille","lat":43.30649,"lon":5.40089,"is_reserved":false,"is_disabled":false,"rental_uris":{"android":"levelo://app?vid=c9098f0c-9735-4b11-b691-4a6b9418f24c","ios":"levelo://app?vid=c9098f0c-9735-4b11-b691-4a6b9418f24c"},"vehicle_type_id":"4","last_reported":1747606137,"current_range_meters":11600,"station_id":"ce4bh112rcd13ifvqda0","pricing_plan_id":"cebpf4jnsgd1na2vs0mg"},{"bike_id":"814e2930-a412-47af-849d-26da2abc07f6","system_id":"levelo_inurba_marseille","lat":43.278203,"lon":5.407141,"is_reserved":false,"is_disabled":true,"rental_uris":{"android":"levelo://app?vid=814e2930-a412-47af-849d-26da2abc07f6","ios":"levelo://app?vid=814e2930-a412-47af-849d-26da2abc07f6"},"vehicle_type_id":"4","last_reported":1747606137,"current_range_meters":11600,"station_id":"ce4bhnh2rcd13ifvqgtg","pricing_plan_id":"cebpf4jnsgd1na2vs0mg"},{"bike_id":"bfe2616a-ffe2-4507-a00a-544cad85d2ea","system_id":"levelo_inurba_marseille","lat":43.282001,"lon":5.390688,"is_reserved":false,"is_disabled":false,"rental_uris":{"android":"levelo://app?vid=bfe2616a-ffe2-4507-a00a-544cad85d2ea","ios":"levelo://app?vid=bfe2616a-ffe2-4507-a00a-544cad85d2ea"},"vehicle_type_id":"4","last_reported":1747606137,"current_range_meters":12000,"station_id":"","pricing_plan_id":"cebpf4jnsgd1na2vs0mg"},{"bike_id":"79922f2a-1d16-47ac-bf89-1334419d04ef","system_id":"levelo_inurba_marseille","lat":43.29195,"lon":5.39326,"is_reserved":false,"is_disabled":false,"rental_uris":{"android":"levelo://app?vid=79922f2a-1d16-47ac-bf89-1334419d04ef","ios":"levelo://app?vid=79922f2a-1d16-47ac-bf89-1334419d04ef"},"vehicle_type_id":"4","last_reported":1747606137,"current_range_meters":12000,"station_id":"ce4bh192rcd13ifvqdd0","pricing_plan_id":"cebpf4jnsgd1na2vs0mg"},{"bike_id":"26ca51f0-0394-4901-8d25-503030f49739","system_id":"levelo_inurba_marseille","lat":43.3012,"lon":5.39851,"is_reserved":false,"is_disabled":false,"rental_uris":{"android":"levelo://app?vid=26ca51f0-0394-4901-8d25-503030f49739","ios":"levelo://app?vid=26ca51f0-0394-4901-8d25-503030f49739"},"vehicle_type_id":"4","last_reported":1747606137,"current_range_meters":12000,"station_id":"ce4bh0h2rcd13ifvqd40","pricing_plan_id":"cebpf4jnsgd1na2vs0mg"},{"bike_id":"fa922033-5240-4d00-8a04-7369d98a6dcb","system_id":"levelo_inurba_marseille","lat":43.25102,"lon":5.40349,"is_reserved":false,"is_disabled":false,"rental_uris":{"android":"levelo://app?vid=fa922033-5240-4d00-8a04-7369d98a6dcb","ios":"levelo://app?vid=fa922033-5240-4d00-8a04-7369d98a6dcb"},"vehicle_type_id":"4","last_reported":1747606137,"current_range_meters":12000,"station_id":"ce4bhlh2rcd13ifvqgig","pricing_plan_id":"cebpf4jnsgd1na2vs0mg"},{"bike_id":"12c4d802-2c6a-4c71-888e-000ffe312a3f","system_id":"levelo_inurba_marseille","lat":43.32357,"lon":5.36762,"is_reserved":false,"is_disabled":false,"rental_uris":{"android":"levelo://app?vid=12c4d802-2c6a-4c71-888e-000ffe312a3f","ios":"levelo://app?vid=12c4d802-2c6a-4c71-888e-000ffe312a3f"},"vehicle_type_id":"4","last_reported":1747606137,"current_range_meters":12000,"station_id":"ce4bhsh2rcd13ifvqi2g","pricing_plan_id":"cebpf4jnsgd1na2vs0mg"},{"bike_id":"a85be539-0282-4f5c-add7-ff454bb1404c","system_id":"levelo_inurba_marseille","lat":43.2791,"lon":5.39591,"is_reserved":false,"is_disabled":false,"rental_uris":{"android":"levelo://app?vid=a85be539-0282-4f5c-add7-ff454bb1404c","ios":"levelo://app?vid=a85be539-0282-4f5c-add7-ff454bb1404c"},"vehicle_type_id":"4","last_reported":1747606137,"current_range_meters":12400,"station_id":"ce4bhf92rcd13ifvqf40","pricing_plan_id":"cebpf4jnsgd1na2vs0mg"},{"bike_id":"77e758c6-87b4-4f01-8c58-a3a1151b092c","system_id":"levelo_inurba_marseille","lat":43.31367,"lon":5.38501,"is_reserved":false,"is_disabled":false,"rental_uris":{"android":"levelo://app?vid=77e758c6-87b4-4f01-8c58-a3a1151b092c","ios":"levelo://app?vid=77e758c6-87b4-4f01-8c58-a3a1151b092c"},"vehicle_type_id":"4","last_reported":1747606137,"current_range_meters":12400,"station_id":"ce4bgt92rcd13ifvqcf0","pricing_plan_id":"cebpf4jnsgd1na2vs0mg"},{"bike_id":"356b2829-3ca0-4f70-8f78-46e79da913e0","system_id":"levelo_inurba_marseille","lat":43.281517,"lon":5.426491,"is_reserved":false,"is_disabled":false,"rental_uris":{"android":"levelo://app?vid=356b2829-3ca0-4f70-8f78-46e79da913e0","ios":"levelo://app?vid=356b2829-3ca0-4f70-8f78-46e79da913e0"},"vehicle_type_id":"4","last_reported":1747606137,"current_range_meters":12400,"station_id":"ce4bhnh2rcd13ifvqgug","pricing_plan_id":"cebpf4jnsgd1na2vs0mg"},{"bike_id":"e47dfc52-b270-4d90-b9f5-8f4bef61d077","system_id":"levelo_inurba_marseille","lat":43.25706,"lon":5.41115,"is_reserved":false,"is_disabled":false,"rental_uris":{"android":"levelo://app?vid=e47dfc52-b270-4d90-b9f5-8f4bef61d077","ios":"levelo://app?vid=e47dfc52-b270-4d90-b9f5-8f4bef61d077"},"vehicle_type_id":"4","last_reported":1747606137,"current_range_meters":12400,"station_id":"ce4bhkp2rcd13ifvqgd0","pricing_plan_id":"cebpf4jnsgd1na2vs0mg"},{"bike_id":"aa3bef31-ed81-4e5b-8311-6fffece70997","system_id":"levelo_inurba_marseille","lat":43.232,"lon":5.35545,"is_reserved":false,"is_disabled":false,"rental_uris":{"android":"levelo://app?vid=aa3bef31-ed81-4e5b-8311-6fffece70997","ios":"levelo://app?vid=aa3bef31-ed81-4e5b-8311-6fffece70997"},"vehicle_type_id":"4","last_reported":1747606137,"current_range_meters":12400,"station_id":"ce4bhu92rcd13ifvqi70","pricing_plan_id":"cebpf4jnsgd1na2vs0mg"},{"bike_id":"6e1bd625-3ec1-43df-9657-36d71ae09f8d","system_id":"levelo_inurba_marseille","lat":43.337443,"lon":5.374748,"is_reserved":false,"is_disabled":false,"rental_uris":{"android":"levelo://app?vid=6e1bd625-3ec1-43df-9657-36d71ae09f8d","ios":"levelo://app?vid=6e1bd625-3ec1-43df-9657-36d71ae09f8d"},"vehicle_type_id":"4","last_reported":1747606137,"current_range_meters":12400,"station_id":"","pricing_plan_id":"cebpf4jnsgd1na2vs0mg"},{"bike_id":"2d43dba1-6ff7-4289-91c8-c617d5aac932","system_id":"levelo_inurba_marseille","lat":43.29581,"lon":5.37499,"is_reserved":false,"is_disabled":true,"rental_uris":{"android":"levelo://app?vid=2d43dba1-6ff7-4289-91c8-c617d5aac932","ios":"levelo://app?vid=2d43dba1-6ff7-4289-91c8-c617d5aac932"},"vehicle_type_id":"4","last_reported":1747606137,"current_range_meters":12800,"station_id":"ce4bgh92rcd13ifvqb50","pricing_plan_id":"cebpf4jnsgd1na2vs0mg"},{"bike_id":"e472a7f3-1962-44a9-b366-ed0d4cb32e38","system_id":"levelo_inurba_marseille","lat":43.262291,"lon":5.404453,"is_reserved":false,"is_disabled":false,"rental_uris":{"android":"levelo://app?vid=e472a7f3-1962-44a9-b366-ed0d4cb32e38","ios":"levelo://app?vid=e472a7f3-1962-44a9-b366-ed0d4cb32e38"},"vehicle_type_id":"4","last_reported":1747606137,"current_range_meters":12800,"station_id":"ce4bhmh2rcd13ifvqgmg","pricing_plan_id":"cebpf4jnsgd1na2vs0mg"},{"bike_id":"b96a4e7c-0de7-41da-b086-8b5a8e70a687","system_id":"levelo_inurba_marseille","lat":43.27207,"lon":5.39199,"is_reserved":false,"is_disabled":true,"rental_uris":{"android":"levelo://app?vid=b96a4e7c-0de7-41da-b086-8b5a8e70a687","ios":"levelo://app?vid=b96a4e7c-0de7-41da-b086-8b5a8e70a687"},"vehicle_type_id":"4","last_reported":1747606137,"current_range_meters":12800,"station_id":"ce4bhhp2rcd13ifvqfm0","pricing_plan_id":"cebpf4jnsgd1na2vs0mg"},{"bike_id":"d60138cc-d1fe-426c-9536-5a41dbfe71a8","system_id":"levelo_inurba_marseille","lat":43.25723,"lon":5.41124,"is_reserved":false,"is_disabled":false,"rental_uris":{"android":"levelo://app?vid=d60138cc-d1fe-426c-9536-5a41dbfe71a8","ios":"levelo://app?vid=d60138cc-d1fe-426c-9536-5a41dbfe71a8"},"vehicle_type_id":"4","last_reported":1747606137,"current_range_meters":12800,"station_id":"ce4bhkp2rcd13ifvqgd0","pricing_plan_id":"cebpf4jnsgd1na2vs0mg"},{"bike_id":"0a26d763-84c8-40de-aa8f-fe78b016e90f","system_id":"levelo_inurba_marseille","lat":43.30418,"lon":5.41283,"is_reserved":false,"is_disabled":false,"rental_uris":{"android":"levelo://app?vid=0a26d763-84c8-40de-aa8f-fe78b016e90f","ios":"levelo://app?vid=0a26d763-84c8-40de-aa8f-fe78b016e90f"},"vehicle_type_id":"4","last_reported":1747606137,"current_range_meters":12800,"station_id":"ce4bhop2rcd13ifvqh8g","pricing_plan_id":"cebpf4jnsgd1na2vs0mg"},{"bike_id":"bf2b2bfb-9733-4bda-908d-03391ae976cc","system_id":"levelo_inurba_marseille","lat":43.31194,"lon":5.41608,"is_reserved":false,"is_disabled":false,"rental_uris":{"android":"levelo://app?vid=bf2b2bfb-9733-4bda-908d-03391ae976cc","ios":"levelo://app?vid=bf2b2bfb-9733-4bda-908d-03391ae976cc"},"vehicle_type_id":"4","last_reported":1747606137,"current_range_meters":12800,"station_id":"","pricing_plan_id":"cebpf4jnsgd1na2vs0mg"},{"bike_id":"19456222-7d38-48cf-a950-06daadd07927","system_id":"levelo_inurba_marseille","lat":43.25014,"lon":5.37533,"is_reserved":false,"is_disabled":false,"rental_uris":{"android":"levelo://app?vid=19456222-7d38-48cf-a950-06daadd07927","ios":"levelo://app?vid=19456222-7d38-48cf-a950-06daadd07927"},"vehicle_type_id":"4","last_reported":1747606137,"current_range_meters":13600,"station_id":"","pricing_plan_id":"cebpf4jnsgd1na2vs0mg"},{"bike_id":"cf81ba9f-4910-44ec-9b06-44209e8c04de","system_id":"levelo_inurba_marseille","lat":43.23655,"lon":5.36232,"is_reserved":false,"is_disabled":false,"rental_uris":{"android":"levelo://app?vid=cf81ba9f-4910-44ec-9b06-44209e8c04de","ios":"levelo://app?vid=cf81ba9f-4910-44ec-9b06-44209e8c04de"},"vehicle_type_id":"4","last_reported":1747606137,"current_range_meters":13600,"station_id":"","pricing_plan_id":"cebpf4jnsgd1na2vs0mg"},{"bike_id":"4b7c5fea-6b3e-41bc-9ccd-5bea79060561","system_id":"levelo_inurba_marseille","lat":43.31125,"lon":5.37767,"is_reserved":false,"is_disabled":false,"rental_uris":{"android":"levelo://app?vid=4b7c5fea-6b3e-41bc-9ccd-5bea79060561","ios":"levelo://app?vid=4b7c5fea-6b3e-41bc-9ccd-5bea79060561"},"vehicle_type_id":"4","last_reported":1747606137,"current_range_meters":13600,"station_id":"ce4bgt92rcd13ifvqcg0","pricing_plan_id":"cebpf4jnsgd1na2vs0mg"},{"bike_id":"5f80e75b-f4d7-4070-822c-ae0a8650959f","system_id":"levelo_inurba_marseille","lat":43.29038,"lon":5.35936,"is_reserved":false,"is_disabled":false,"rental_uris":{"android":"levelo://app?vid=5f80e75b-f4d7-4070-822c-ae0a8650959f","ios":"levelo://app?vid=5f80e75b-f4d7-4070-822c-ae0a8650959f"},"vehicle_type_id":"4","last_reported":1747606137,"current_range_meters":13600,"station_id":"ce4bha92rcd13ifvqeg0","pricing_plan_id":"cebpf4jnsgd1na2vs0mg"},{"bike_id":"a675f4e5-fc13-43cf-92f6-6acfa57913c0","system_id":"levelo_inurba_marseille","lat":43.290236,"lon":5.381167,"is_reserved":false,"is_disabled":true,"rental_uris":{"android":"levelo://app?vid=a675f4e5-fc13-43cf-92f6-6acfa57913c0","ios":"levelo://app?vid=a675f4e5-fc13-43cf-92f6-6acfa57913c0"},"vehicle_type_id":"4","last_reported":1747606137,"current_range_meters":13600,"station_id":"ce4bh4p2rcd13ifvqe1g","pricing_plan_id":"cebpf4jnsgd1na2vs0mg"},{"bike_id":"7e85683c-0527-4a85-9ab8-35d06ff2f9ad","system_id":"levelo_inurba_marseille","lat":43.294162,"lon":5.386032,"is_reserved":false,"is_disabled":true,"rental_uris":{"android":"levelo://app?vid=7e85683c-0527-4a85-9ab8-35d06ff2f9ad","ios":"levelo://app?vid=7e85683c-0527-4a85-9ab8-35d06ff2f9ad"},"vehicle_type_id":"4","last_reported":1747606137,"current_range_meters":13600,"station_id":"ce4bh2h2rcd13ifvqdh0","pricing_plan_id":"cebpf4jnsgd1na2vs0mg"},{"bike_id":"e8c092b6-ea1e-49b4-86f2-ae6140f06f6f","system_id":"levelo_inurba_marseille","lat":43.28911,"lon":5.38396,"is_reserved":false,"is_disabled":true,"rental_uris":{"android":"levelo://app?vid=e8c092b6-ea1e-49b4-86f2-ae6140f06f6f","ios":"levelo://app?vid=e8c092b6-ea1e-49b4-86f2-ae6140f06f6f"},"vehicle_type_id":"4","last_reported":1747606137,"current_range_meters":13600,"station_id":"ce4bh612rcd13ifvqe6g","pricing_plan_id":"cebpf4jnsgd1na2vs0mg"},{"bike_id":"ed34fad4-c48e-4c1a-b9b1-8eb1cd77d573","system_id":"levelo_inurba_marseille","lat":43.3096,"lon":5.38639,"is_reserved":false,"is_disabled":false,"rental_uris":{"android":"levelo://app?vid=ed34fad4-c48e-4c1a-b9b1-8eb1cd77d573","ios":"levelo://app?vid=ed34fad4-c48e-4c1a-b9b1-8eb1cd77d573"},"vehicle_type_id":"4","last_reported":1747606137,"current_range_meters":13600,"station_id":"ce4bgv12rcd13ifvqcp0","pricing_plan_id":"cebpf4jnsgd1na2vs0mg"},{"bike_id":"ff0350a7-1cef-4f09-9f83-3e3e21e50163","system_id":"levelo_inurba_marseille","lat":43.28923,"lon":5.36393,"is_reserved":false,"is_disabled":false,"rental_uris":{"android":"levelo://app?vid=ff0350a7-1cef-4f09-9f83-3e3e21e50163","ios":"levelo://app?vid=ff0350a7-1cef-4f09-9f83-3e3e21e50163"},"vehicle_type_id":"4","last_reported":1747606137,"current_range_meters":13600,"station_id":"ce4bhc92rcd13ifvqetg","pricing_plan_id":"cebpf4jnsgd1na2vs0mg"},{"bike_id":"bcbdbd69-7be8-42f8-a855-a4358565de8f","system_id":"levelo_inurba_marseille","lat":43.27727,"lon":5.41404,"is_reserved":false,"is_disabled":false,"rental_uris":{"android":"levelo://app?vid=bcbdbd69-7be8-42f8-a855-a4358565de8f","ios":"levelo://app?vid=bcbdbd69-7be8-42f8-a855-a4358565de8f"},"vehicle_type_id":"4","last_reported":1747606137,"current_range_meters":14000,"station_id":"","pricing_plan_id":"cebpf4jnsgd1na2vs0mg"},{"bike_id":"3347e92f-19a6-4dc9-bf1f-d804d0835e42","system_id":"levelo_inurba_marseille","lat":43.21196,"lon":5.35118,"is_reserved":false,"is_disabled":false,"rental_uris":{"android":"levelo://app?vid=3347e92f-19a6-4dc9-bf1f-d804d0835e42","ios":"levelo://app?vid=3347e92f-19a6-4dc9-bf1f-d804d0835e42"},"vehicle_type_id":"4","last_reported":1747606137,"current_range_meters":14000,"station_id":"st_cvj6sg6p6f1abm77japg","pricing_plan_id":"cebpf4jnsgd1na2vs0mg"},{"bike_id":"954f9a2f-3d92-4afe-8ccd-55ebda55dfe0","system_id":"levelo_inurba_marseille","lat":43.27066,"lon":5.42274,"is_reserved":false,"is_disabled":false,"rental_uris":{"android":"levelo://app?vid=954f9a2f-3d92-4afe-8ccd-55ebda55dfe0","ios":"levelo://app?vid=954f9a2f-3d92-4afe-8ccd-55ebda55dfe0"},"vehicle_type_id":"4","last_reported":1747606137,"current_range_meters":14000,"station_id":"ce4bhk92rcd13ifvqgb0","pricing_plan_id":"cebpf4jnsgd1na2vs0mg"},{"bike_id":"1a8bfaf9-d99b-4840-b157-cbfbec4af027","system_id":"levelo_inurba_marseille","lat":43.2871,"lon":5.37929,"is_reserved":false,"is_disabled":false,"rental_uris":{"android":"levelo://app?vid=1a8bfaf9-d99b-4840-b157-cbfbec4af027","ios":"levelo://app?vid=1a8bfaf9-d99b-4840-b157-cbfbec4af027"},"vehicle_type_id":"4","last_reported":1747606137,"current_range_meters":14000,"station_id":"ce4bh9p2rcd13ifvqec0","pricing_plan_id":"cebpf4jnsgd1na2vs0mg"},{"bike_id":"67eb2d48-4a91-47f5-8520-695b8b16224f","system_id":"levelo_inurba_marseille","lat":43.3013,"lon":5.39849,"is_reserved":false,"is_disabled":false,"rental_uris":{"android":"levelo://app?vid=67eb2d48-4a91-47f5-8520-695b8b16224f","ios":"levelo://app?vid=67eb2d48-4a91-47f5-8520-695b8b16224f"},"vehicle_type_id":"4","last_reported":1747606137,"current_range_meters":14000,"station_id":"ce4bh0h2rcd13ifvqd40","pricing_plan_id":"cebpf4jnsgd1na2vs0mg"},{"bike_id":"86603db7-b462-4e72-8622-a2dee8bb2920","system_id":"levelo_inurba_marseille","lat":43.337444,"lon":5.374475,"is_reserved":false,"is_disabled":false,"rental_uris":{"android":"levelo://app?vid=86603db7-b462-4e72-8622-a2dee8bb2920","ios":"levelo://app?vid=86603db7-b462-4e72-8622-a2dee8bb2920"},"vehicle_type_id":"4","last_reported":1747606137,"current_range_meters":14000,"station_id":"","pricing_plan_id":"cebpf4jnsgd1na2vs0mg"},{"bike_id":"cd882363-6fba-44e4-8f5c-05592e9ce81a","system_id":"levelo_inurba_marseille","lat":43.26216,"lon":5.40444,"is_reserved":false,"is_disabled":false,"rental_uris":{"android":"levelo://app?vid=cd882363-6fba-44e4-8f5c-05592e9ce81a","ios":"levelo://app?vid=cd882363-6fba-44e4-8f5c-05592e9ce81a"},"vehicle_type_id":"4","last_reported":1747606137,"current_range_meters":14400,"station_id":"ce4bhmh2rcd13ifvqgmg","pricing_plan_id":"cebpf4jnsgd1na2vs0mg"},{"bike_id":"e2483e33-e22f-4969-8812-f7cdcc75c59a","system_id":"levelo_inurba_marseille","lat":43.323595,"lon":5.367486,"is_reserved":false,"is_disabled":false,"rental_uris":{"android":"levelo://app?vid=e2483e33-e22f-4969-8812-f7cdcc75c59a","ios":"levelo://app?vid=e2483e33-e22f-4969-8812-f7cdcc75c59a"},"vehicle_type_id":"4","last_reported":1747606137,"current_range_meters":14400,"station_id":"ce4bhsh2rcd13ifvqi2g","pricing_plan_id":"cebpf4jnsgd1na2vs0mg"},{"bike_id":"98dfbc4f-742d-4de8-a3e7-707ea58489bc","system_id":"levelo_inurba_marseille","lat":43.28356,"lon":5.38085,"is_reserved":false,"is_disabled":false,"rental_uris":{"android":"levelo://app?vid=98dfbc4f-742d-4de8-a3e7-707ea58489bc","ios":"levelo://app?vid=98dfbc4f-742d-4de8-a3e7-707ea58489bc"},"vehicle_type_id":"4","last_reported":1747606137,"current_range_meters":14400,"station_id":"ce4bh412rcd13ifvqdr0","pricing_plan_id":"cebpf4jnsgd1na2vs0mg"},{"bike_id":"f0a690f3-aaef-41ef-91ff-088837a16951","system_id":"levelo_inurba_marseille","lat":43.25719,"lon":5.41092,"is_reserved":false,"is_disabled":false,"rental_uris":{"android":"levelo://app?vid=f0a690f3-aaef-41ef-91ff-088837a16951","ios":"levelo://app?vid=f0a690f3-aaef-41ef-91ff-088837a16951"},"vehicle_type_id":"4","last_reported":1747606137,"current_range_meters":14400,"station_id":"ce4bhkp2rcd13ifvqgd0","pricing_plan_id":"cebpf4jnsgd1na2vs0mg"},{"bike_id":"cbf22af3-6c8f-4023-8971-3961263cafe8","system_id":"levelo_inurba_marseille","lat":43.287061,"lon":5.373905,"is_reserved":false,"is_disabled":true,"rental_uris":{"android":"levelo://app?vid=cbf22af3-6c8f-4023-8971-3961263cafe8","ios":"levelo://app?vid=cbf22af3-6c8f-4023-8971-3961263cafe8"},"vehicle_type_id":"4","last_reported":1747606137,"current_range_meters":14400,"station_id":"ce4bh3p2rcd13ifvqdq0","pricing_plan_id":"cebpf4jnsgd1na2vs0mg"},{"bike_id":"83716387-b62a-46f5-aaba-b1b2f0e6a3a9","system_id":"levelo_inurba_marseille","lat":43.27556,"lon":5.38414,"is_reserved":false,"is_disabled":false,"rental_uris":{"android":"levelo://app?vid=83716387-b62a-46f5-aaba-b1b2f0e6a3a9","ios":"levelo://app?vid=83716387-b62a-46f5-aaba-b1b2f0e6a3a9"},"vehicle_type_id":"4","last_reported":1747606137,"current_range_meters":14400,"station_id":"ce4bhh92rcd13ifvqfi0","pricing_plan_id":"cebpf4jnsgd1na2vs0mg"},{"bike_id":"c009108f-0eac-4a49-9503-48406f87f7b1","system_id":"levelo_inurba_marseille","lat":43.29794,"lon":5.38085,"is_reserved":false,"is_disabled":false,"rental_uris":{"android":"levelo://app?vid=c009108f-0eac-4a49-9503-48406f87f7b1","ios":"levelo://app?vid=c009108f-0eac-4a49-9503-48406f87f7b1"},"vehicle_type_id":"4","last_reported":1747606137,"current_range_meters":14400,"station_id":"ce4bgip2rcd13ifvqbb0","pricing_plan_id":"cebpf4jnsgd1na2vs0mg"},{"bike_id":"54d2470c-98eb-4d24-a7f6-2fa6dab0e8b6","system_id":"levelo_inurba_marseille","lat":43.29256,"lon":5.40911,"is_reserved":false,"is_disabled":false,"rental_uris":{"android":"levelo://app?vid=54d2470c-98eb-4d24-a7f6-2fa6dab0e8b6","ios":"levelo://app?vid=54d2470c-98eb-4d24-a7f6-2fa6dab0e8b6"},"vehicle_type_id":"4","last_reported":1747606137,"current_range_meters":14800,"station_id":"ce4bh192rcd13ifvqdc0","pricing_plan_id":"cebpf4jnsgd1na2vs0mg"},{"bike_id":"a0ef91e8-eab4-4e92-9764-f8b59bed148c","system_id":"levelo_inurba_marseille","lat":43.31357,"lon":5.3846,"is_reserved":false,"is_disabled":false,"rental_uris":{"android":"levelo://app?vid=a0ef91e8-eab4-4e92-9764-f8b59bed148c","ios":"levelo://app?vid=a0ef91e8-eab4-4e92-9764-f8b59bed148c"},"vehicle_type_id":"4","last_reported":1747606137,"current_range_meters":14800,"station_id":"ce4bgt92rcd13ifvqcf0","pricing_plan_id":"cebpf4jnsgd1na2vs0mg"},{"bike_id":"47277d02-ad0c-4634-afcd-182a72e45154","system_id":"levelo_inurba_marseille","lat":43.341443,"lon":5.409023,"is_reserved":false,"is_disabled":false,"rental_uris":{"android":"levelo://app?vid=47277d02-ad0c-4634-afcd-182a72e45154","ios":"levelo://app?vid=47277d02-ad0c-4634-afcd-182a72e45154"},"vehicle_type_id":"4","last_reported":1747606137,"current_range_meters":14800,"station_id":"","pricing_plan_id":"cebpf4jnsgd1na2vs0mg"},{"bike_id":"352537b7-8455-4048-ba8e-b7ff7533ff5e","system_id":"levelo_inurba_marseille","lat":43.23194,"lon":5.35554,"is_reserved":false,"is_disabled":false,"rental_uris":{"android":"levelo://app?vid=352537b7-8455-4048-ba8e-b7ff7533ff5e","ios":"levelo://app?vid=352537b7-8455-4048-ba8e-b7ff7533ff5e"},"vehicle_type_id":"4","last_reported":1747606137,"current_range_meters":14800,"station_id":"ce4bhu92rcd13ifvqi70","pricing_plan_id":"cebpf4jnsgd1na2vs0mg"},{"bike_id":"43d95b57-3a1d-4bd4-b0f5-537a29764826","system_id":"levelo_inurba_marseille","lat":43.29255,"lon":5.40907,"is_reserved":false,"is_disabled":false,"rental_uris":{"android":"levelo://app?vid=43d95b57-3a1d-4bd4-b0f5-537a29764826","ios":"levelo://app?vid=43d95b57-3a1d-4bd4-b0f5-537a29764826"},"vehicle_type_id":"4","last_reported":1747606137,"current_range_meters":15200,"station_id":"ce4bh192rcd13ifvqdc0","pricing_plan_id":"cebpf4jnsgd1na2vs0mg"},{"bike_id":"03878927-5276-48f3-9931-2223fc78d61e","system_id":"levelo_inurba_marseille","lat":43.31383,"lon":5.38497,"is_reserved":false,"is_disabled":false,"rental_uris":{"android":"levelo://app?vid=03878927-5276-48f3-9931-2223fc78d61e","ios":"levelo://app?vid=03878927-5276-48f3-9931-2223fc78d61e"},"vehicle_type_id":"4","last_reported":1747606137,"current_range_meters":15200,"station_id":"ce4bgt92rcd13ifvqcf0","pricing_plan_id":"cebpf4jnsgd1na2vs0mg"},{"bike_id":"fba103a6-30ce-481c-a05a-9411e513bfcf","system_id":"levelo_inurba_marseille","lat":43.25945,"lon":5.40924,"is_reserved":false,"is_disabled":false,"rental_uris":{"android":"levelo://app?vid=fba103a6-30ce-481c-a05a-9411e513bfcf","ios":"levelo://app?vid=fba103a6-30ce-481c-a05a-9411e513bfcf"},"vehicle_type_id":"4","last_reported":1747606137,"current_range_meters":15200,"station_id":"ce4bhm92rcd13ifvqglg","pricing_plan_id":"cebpf4jnsgd1na2vs0mg"},{"bike_id":"41389e7c-6f3c-410d-88e7-f591b55a002a","system_id":"levelo_inurba_marseille","lat":43.240595,"lon":5.377663,"is_reserved":false,"is_disabled":false,"rental_uris":{"android":"levelo://app?vid=41389e7c-6f3c-410d-88e7-f591b55a002a","ios":"levelo://app?vid=41389e7c-6f3c-410d-88e7-f591b55a002a"},"vehicle_type_id":"4","last_reported":1747606137,"current_range_meters":16000,"station_id":"ce4bhnp2rcd13ifvqgvg","pricing_plan_id":"cebpf4jnsgd1na2vs0mg"},{"bike_id":"dc51b593-a5cd-4446-8449-f319ed28e729","system_id":"levelo_inurba_marseille","lat":43.3108,"lon":5.40084,"is_reserved":false,"is_disabled":false,"rental_uris":{"android":"levelo://app?vid=dc51b593-a5cd-4446-8449-f319ed28e729","ios":"levelo://app?vid=dc51b593-a5cd-4446-8449-f319ed28e729"},"vehicle_type_id":"4","last_reported":1747606137,"current_range_meters":16000,"station_id":"","pricing_plan_id":"cebpf4jnsgd1na2vs0mg"},{"bike_id":"2a88e114-925f-488b-b07f-3cd7b36267ee","system_id":"levelo_inurba_marseille","lat":43.29766,"lon":5.38135,"is_reserved":false,"is_disabled":true,"rental_uris":{"android":"levelo://app?vid=2a88e114-925f-488b-b07f-3cd7b36267ee","ios":"levelo://app?vid=2a88e114-925f-488b-b07f-3cd7b36267ee"},"vehicle_type_id":"4","last_reported":1747606137,"current_range_meters":16000,"station_id":"ce4bgip2rcd13ifvqbb0","pricing_plan_id":"cebpf4jnsgd1na2vs0mg"},{"bike_id":"2774ce48-67f6-4054-997b-82ef9e8373fc","system_id":"levelo_inurba_marseille","lat":43.29031,"lon":5.39973,"is_reserved":false,"is_disabled":false,"rental_uris":{"android":"levelo://app?vid=2774ce48-67f6-4054-997b-82ef9e8373fc","ios":"levelo://app?vid=2774ce48-67f6-4054-997b-82ef9e8373fc"},"vehicle_type_id":"4","last_reported":1747606137,"current_range_meters":16000,"station_id":"ce4bh392rcd13ifvqdm0","pricing_plan_id":"cebpf4jnsgd1na2vs0mg"},{"bike_id":"90bb7a19-74dd-4320-94b3-1629a4028834","system_id":"levelo_inurba_marseille","lat":43.21735,"lon":5.34596,"is_reserved":false,"is_disabled":true,"rental_uris":{"android":"levelo://app?vid=90bb7a19-74dd-4320-94b3-1629a4028834","ios":"levelo://app?vid=90bb7a19-74dd-4320-94b3-1629a4028834"},"vehicle_type_id":"4","last_reported":1747606137,"current_range_meters":16000,"station_id":"st_cvj6r9ubvosntc0bgbag","pricing_plan_id":"cebpf4jnsgd1na2vs0mg"},{"bike_id":"8275f03b-4d4c-479b-93d9-c02fc5ed4a75","system_id":"levelo_inurba_marseille","lat":43.30906,"lon":5.36843,"is_reserved":false,"is_disabled":false,"rental_uris":{"android":"levelo://app?vid=8275f03b-4d4c-479b-93d9-c02fc5ed4a75","ios":"levelo://app?vid=8275f03b-4d4c-479b-93d9-c02fc5ed4a75"},"vehicle_type_id":"4","last_reported":1747606137,"current_range_meters":16000,"station_id":"ce4bgn92rcd13ifvqbvg","pricing_plan_id":"cebpf4jnsgd1na2vs0mg"},{"bike_id":"0c698211-1f48-4c58-8241-20d705a14a6f","system_id":"levelo_inurba_marseille","lat":43.30939,"lon":5.40141,"is_reserved":false,"is_disabled":false,"rental_uris":{"android":"levelo://app?vid=0c698211-1f48-4c58-8241-20d705a14a6f","ios":"levelo://app?vid=0c698211-1f48-4c58-8241-20d705a14a6f"},"vehicle_type_id":"4","last_reported":1747606137,"current_range_meters":16000,"station_id":"ce4bgvp2rcd13ifvqct0","pricing_plan_id":"cebpf4jnsgd1na2vs0mg"},{"bike_id":"1dcdcf4d-a775-45b7-ba77-12918f1606de","system_id":"levelo_inurba_marseille","lat":43.2909,"lon":5.38165,"is_reserved":false,"is_disabled":false,"rental_uris":{"android":"levelo://app?vid=1dcdcf4d-a775-45b7-ba77-12918f1606de","ios":"levelo://app?vid=1dcdcf4d-a775-45b7-ba77-12918f1606de"},"vehicle_type_id":"4","last_reported":1747606137,"current_range_meters":16000,"station_id":"ce4bh512rcd13ifvqe2g","pricing_plan_id":"cebpf4jnsgd1na2vs0mg"},{"bike_id":"b4311bf2-80e9-47cd-b359-1dee057de5f9","system_id":"levelo_inurba_marseille","lat":43.25023,"lon":5.38941,"is_reserved":false,"is_disabled":false,"rental_uris":{"android":"levelo://app?vid=b4311bf2-80e9-47cd-b359-1dee057de5f9","ios":"levelo://app?vid=b4311bf2-80e9-47cd-b359-1dee057de5f9"},"vehicle_type_id":"4","last_reported":1747606137,"current_range_meters":16400,"station_id":"ce4bhgp2rcd13ifvqfd0","pricing_plan_id":"cebpf4jnsgd1na2vs0mg"},{"bike_id":"cee9f3b2-6646-46d3-b3c5-c5c5d44e6a13","system_id":"levelo_inurba_marseille","lat":43.27917,"lon":5.39576,"is_reserved":false,"is_disabled":false,"rental_uris":{"android":"levelo://app?vid=cee9f3b2-6646-46d3-b3c5-c5c5d44e6a13","ios":"levelo://app?vid=cee9f3b2-6646-46d3-b3c5-c5c5d44e6a13"},"vehicle_type_id":"4","last_reported":1747606137,"current_range_meters":16400,"station_id":"ce4bhf92rcd13ifvqf40","pricing_plan_id":"cebpf4jnsgd1na2vs0mg"},{"bike_id":"4d84e95c-d2af-4324-b46f-888d9bc5478f","system_id":"levelo_inurba_marseille","lat":43.31221,"lon":5.36842,"is_reserved":false,"is_disabled":false,"rental_uris":{"android":"levelo://app?vid=4d84e95c-d2af-4324-b46f-888d9bc5478f","ios":"levelo://app?vid=4d84e95c-d2af-4324-b46f-888d9bc5478f"},"vehicle_type_id":"4","last_reported":1747606137,"current_range_meters":16400,"station_id":"ce4bgl92rcd13ifvqbq0","pricing_plan_id":"cebpf4jnsgd1na2vs0mg"},{"bike_id":"7c288e5f-bf2e-426c-9424-762c5f2a6c72","system_id":"levelo_inurba_marseille","lat":43.29316,"lon":5.40123,"is_reserved":false,"is_disabled":false,"rental_uris":{"android":"levelo://app?vid=7c288e5f-bf2e-426c-9424-762c5f2a6c72","ios":"levelo://app?vid=7c288e5f-bf2e-426c-9424-762c5f2a6c72"},"vehicle_type_id":"4","last_reported":1747606137,"current_range_meters":16400,"station_id":"ce4bh312rcd13ifvqdk0","pricing_plan_id":"cebpf4jnsgd1na2vs0mg"},{"bike_id":"d39cae16-34b5-4b82-8fc6-cac28c889070","system_id":"levelo_inurba_marseille","lat":43.29472,"lon":5.3867,"is_reserved":false,"is_disabled":true,"rental_uris":{"android":"levelo://app?vid=d39cae16-34b5-4b82-8fc6-cac28c889070","ios":"levelo://app?vid=d39cae16-34b5-4b82-8fc6-cac28c889070"},"vehicle_type_id":"4","last_reported":1747606137,"current_range_meters":16400,"station_id":"","pricing_plan_id":"cebpf4jnsgd1na2vs0mg"},{"bike_id":"477bf49d-04fb-48c6-9dfe-f96deb783f31","system_id":"levelo_inurba_marseille","lat":43.284812,"lon":5.385359,"is_reserved":false,"is_disabled":true,"rental_uris":{"android":"levelo://app?vid=477bf49d-04fb-48c6-9dfe-f96deb783f31","ios":"levelo://app?vid=477bf49d-04fb-48c6-9dfe-f96deb783f31"},"vehicle_type_id":"4","last_reported":1747606137,"current_range_meters":16400,"station_id":"ce4bh8p2rcd13ifvqeb0","pricing_plan_id":"cebpf4jnsgd1na2vs0mg"},{"bike_id":"b0fdac88-a118-470b-9e6b-385ec3c37039","system_id":"levelo_inurba_marseille","lat":43.27505,"lon":5.42448,"is_reserved":false,"is_disabled":false,"rental_uris":{"android":"levelo://app?vid=b0fdac88-a118-470b-9e6b-385ec3c37039","ios":"levelo://app?vid=b0fdac88-a118-470b-9e6b-385ec3c37039"},"vehicle_type_id":"4","last_reported":1747606137,"current_range_meters":16400,"station_id":"ce4bhn92rcd13ifvqgrg","pricing_plan_id":"cebpf4jnsgd1na2vs0mg"},{"bike_id":"06c5d935-141e-4a2a-8a1c-99c6c936abb9","system_id":"levelo_inurba_marseille","lat":43.31017,"lon":5.42459,"is_reserved":false,"is_disabled":false,"rental_uris":{"android":"levelo://app?vid=06c5d935-141e-4a2a-8a1c-99c6c936abb9","ios":"levelo://app?vid=06c5d935-141e-4a2a-8a1c-99c6c936abb9"},"vehicle_type_id":"4","last_reported":1747606137,"current_range_meters":16400,"station_id":"ce4bhp92rcd13ifvqhag","pricing_plan_id":"cebpf4jnsgd1na2vs0mg"},{"bike_id":"e6012b0d-8438-48de-956b-1ee234dacdd6","system_id":"levelo_inurba_marseille","lat":43.30928,"lon":5.40141,"is_reserved":false,"is_disabled":false,"rental_uris":{"android":"levelo://app?vid=e6012b0d-8438-48de-956b-1ee234dacdd6","ios":"levelo://app?vid=e6012b0d-8438-48de-956b-1ee234dacdd6"},"vehicle_type_id":"4","last_reported":1747606137,"current_range_meters":16400,"station_id":"ce4bgvp2rcd13ifvqct0","pricing_plan_id":"cebpf4jnsgd1na2vs0mg"},{"bike_id":"e367dd02-92d9-4458-9649-0c3427aa378d","system_id":"levelo_inurba_marseille","lat":43.302815,"lon":5.400607,"is_reserved":false,"is_disabled":false,"rental_uris":{"android":"levelo://app?vid=e367dd02-92d9-4458-9649-0c3427aa378d","ios":"levelo://app?vid=e367dd02-92d9-4458-9649-0c3427aa378d"},"vehicle_type_id":"4","last_reported":1747606137,"current_range_meters":16800,"station_id":"ce4bgvh2rcd13ifvqcs0","pricing_plan_id":"cebpf4jnsgd1na2vs0mg"},{"bike_id":"5c1cfafc-efda-4c44-a512-0b0d7a09f432","system_id":"levelo_inurba_marseille","lat":43.27313,"lon":5.39093,"is_reserved":false,"is_disabled":true,"rental_uris":{"android":"levelo://app?vid=5c1cfafc-efda-4c44-a512-0b0d7a09f432","ios":"levelo://app?vid=5c1cfafc-efda-4c44-a512-0b0d7a09f432"},"vehicle_type_id":"4","last_reported":1747606137,"current_range_meters":16800,"station_id":"ce4bhgp2rcd13ifvqfe0","pricing_plan_id":"cebpf4jnsgd1na2vs0mg"},{"bike_id":"782456fb-5a1f-4410-ae1f-c74293353dd5","system_id":"levelo_inurba_marseille","lat":43.31357,"lon":5.38495,"is_reserved":false,"is_disabled":false,"rental_uris":{"android":"levelo://app?vid=782456fb-5a1f-4410-ae1f-c74293353dd5","ios":"levelo://app?vid=782456fb-5a1f-4410-ae1f-c74293353dd5"},"vehicle_type_id":"4","last_reported":1747606137,"current_range_meters":16800,"station_id":"ce4bgt92rcd13ifvqcf0","pricing_plan_id":"cebpf4jnsgd1na2vs0mg"},{"bike_id":"85565940-4488-4f36-b2b8-3744a871c8f3","system_id":"levelo_inurba_marseille","lat":43.30947,"lon":5.39033,"is_reserved":false,"is_disabled":false,"rental_uris":{"android":"levelo://app?vid=85565940-4488-4f36-b2b8-3744a871c8f3","ios":"levelo://app?vid=85565940-4488-4f36-b2b8-3744a871c8f3"},"vehicle_type_id":"4","last_reported":1747606137,"current_range_meters":16800,"station_id":"ce4bgup2rcd13ifvqco0","pricing_plan_id":"cebpf4jnsgd1na2vs0mg"},{"bike_id":"bffbaf88-357a-4e87-a68c-a9a27a6e01e6","system_id":"levelo_inurba_marseille","lat":43.26224,"lon":5.42134,"is_reserved":false,"is_disabled":false,"rental_uris":{"android":"levelo://app?vid=bffbaf88-357a-4e87-a68c-a9a27a6e01e6","ios":"levelo://app?vid=bffbaf88-357a-4e87-a68c-a9a27a6e01e6"},"vehicle_type_id":"4","last_reported":1747606137,"current_range_meters":16800,"station_id":"","pricing_plan_id":"cebpf4jnsgd1na2vs0mg"},{"bike_id":"fca86a55-22f2-4b7a-b972-9f8946fa6983","system_id":"levelo_inurba_marseille","lat":43.30296,"lon":5.39177,"is_reserved":false,"is_disabled":true,"rental_uris":{"android":"levelo://app?vid=fca86a55-22f2-4b7a-b972-9f8946fa6983","ios":"levelo://app?vid=fca86a55-22f2-4b7a-b972-9f8946fa6983"},"vehicle_type_id":"4","last_reported":1747606137,"current_range_meters":16800,"station_id":"ce4bgkh2rcd13ifvqbk0","pricing_plan_id":"cebpf4jnsgd1na2vs0mg"},{"bike_id":"a40c0dd9-3c1d-4ef8-bf5e-5a9bd92f17be","system_id":"levelo_inurba_marseille","lat":43.29033,"lon":5.39969,"is_reserved":false,"is_disabled":false,"rental_uris":{"android":"levelo://app?vid=a40c0dd9-3c1d-4ef8-bf5e-5a9bd92f17be","ios":"levelo://app?vid=a40c0dd9-3c1d-4ef8-bf5e-5a9bd92f17be"},"vehicle_type_id":"4","last_reported":1747606137,"current_range_meters":16800,"station_id":"ce4bh392rcd13ifvqdm0","pricing_plan_id":"cebpf4jnsgd1na2vs0mg"},{"bike_id":"83892c75-7a4d-4fc9-bc5f-bdd5906f8c37","system_id":"levelo_inurba_marseille","lat":43.27837,"lon":5.39201,"is_reserved":false,"is_disabled":false,"rental_uris":{"android":"levelo://app?vid=83892c75-7a4d-4fc9-bc5f-bdd5906f8c37","ios":"levelo://app?vid=83892c75-7a4d-4fc9-bc5f-bdd5906f8c37"},"vehicle_type_id":"4","last_reported":1747606137,"current_range_meters":16800,"station_id":"ce4bhjp2rcd13ifvqga0","pricing_plan_id":"cebpf4jnsgd1na2vs0mg"},{"bike_id":"f441b4d6-d50a-454a-9ff3-28bb0eb62a62","system_id":"levelo_inurba_marseille","lat":43.27067,"lon":5.42283,"is_reserved":false,"is_disabled":false,"rental_uris":{"android":"levelo://app?vid=f441b4d6-d50a-454a-9ff3-28bb0eb62a62","ios":"levelo://app?vid=f441b4d6-d50a-454a-9ff3-28bb0eb62a62"},"vehicle_type_id":"4","last_reported":1747606137,"current_range_meters":16800,"station_id":"ce4bhk92rcd13ifvqgb0","pricing_plan_id":"cebpf4jnsgd1na2vs0mg"},{"bike_id":"259e05f1-5815-4eaa-8326-1c0ec3259270","system_id":"levelo_inurba_marseille","lat":43.31067,"lon":5.38351,"is_reserved":false,"is_disabled":false,"rental_uris":{"android":"levelo://app?vid=259e05f1-5815-4eaa-8326-1c0ec3259270","ios":"levelo://app?vid=259e05f1-5815-4eaa-8326-1c0ec3259270"},"vehicle_type_id":"4","last_reported":1747606137,"current_range_meters":16800,"station_id":"ce4bgv92rcd13ifvqcr0","pricing_plan_id":"cebpf4jnsgd1na2vs0mg"},{"bike_id":"74779d32-87cf-4f23-b047-7955c944ddd2","system_id":"levelo_inurba_marseille","lat":43.29793,"lon":5.38092,"is_reserved":false,"is_disabled":true,"rental_uris":{"android":"levelo://app?vid=74779d32-87cf-4f23-b047-7955c944ddd2","ios":"levelo://app?vid=74779d32-87cf-4f23-b047-7955c944ddd2"},"vehicle_type_id":"4","last_reported":1747606137,"current_range_meters":16800,"station_id":"ce4bgip2rcd13ifvqbb0","pricing_plan_id":"cebpf4jnsgd1na2vs0mg"},{"bike_id":"bba77845-8b15-498e-8349-e0733711e31d","system_id":"levelo_inurba_marseille","lat":43.28069,"lon":5.39628,"is_reserved":false,"is_disabled":false,"rental_uris":{"android":"levelo://app?vid=bba77845-8b15-498e-8349-e0733711e31d","ios":"levelo://app?vid=bba77845-8b15-498e-8349-e0733711e31d"},"vehicle_type_id":"4","last_reported":1747606137,"current_range_meters":16800,"station_id":"ce4bho12rcd13ifvqh2g","pricing_plan_id":"cebpf4jnsgd1na2vs0mg"},{"bike_id":"f63c9346-f5de-4472-920c-b0cafb41a135","system_id":"levelo_inurba_marseille","lat":43.27077,"lon":5.40275,"is_reserved":false,"is_disabled":true,"rental_uris":{"android":"levelo://app?vid=f63c9346-f5de-4472-920c-b0cafb41a135","ios":"levelo://app?vid=f63c9346-f5de-4472-920c-b0cafb41a135"},"vehicle_type_id":"4","last_reported":1747606137,"current_range_meters":16800,"station_id":"ce4bhk92rcd13ifvqgc0","pricing_plan_id":"cebpf4jnsgd1na2vs0mg"},{"bike_id":"d31e5316-b217-479a-9407-2ccb9aee6e19","system_id":"levelo_inurba_marseille","lat":43.3113,"lon":5.39608,"is_reserved":false,"is_disabled":false,"rental_uris":{"android":"levelo://app?vid=d31e5316-b217-479a-9407-2ccb9aee6e19","ios":"levelo://app?vid=d31e5316-b217-479a-9407-2ccb9aee6e19"},"vehicle_type_id":"4","last_reported":1747606137,"current_range_meters":17200,"station_id":"","pricing_plan_id":"cebpf4jnsgd1na2vs0mg"},{"bike_id":"710241c1-46a3-4954-9e50-bd4b0b3c4335","system_id":"levelo_inurba_marseille","lat":43.31375,"lon":5.38506,"is_reserved":false,"is_disabled":true,"rental_uris":{"android":"levelo://app?vid=710241c1-46a3-4954-9e50-bd4b0b3c4335","ios":"levelo://app?vid=710241c1-46a3-4954-9e50-bd4b0b3c4335"},"vehicle_type_id":"4","last_reported":1747606137,"current_range_meters":17200,"station_id":"ce4bgt92rcd13ifvqcf0","pricing_plan_id":"cebpf4jnsgd1na2vs0mg"},{"bike_id":"22ee0c6a-6b7a-4329-87b1-be780bcc2765","system_id":"levelo_inurba_marseille","lat":43.24658,"lon":5.38886,"is_reserved":false,"is_disabled":false,"rental_uris":{"android":"levelo://app?vid=22ee0c6a-6b7a-4329-87b1-be780bcc2765","ios":"levelo://app?vid=22ee0c6a-6b7a-4329-87b1-be780bcc2765"},"vehicle_type_id":"4","last_reported":1747606137,"current_range_meters":17200,"station_id":"ce4bhg12rcd13ifvqf60","pricing_plan_id":"cebpf4jnsgd1na2vs0mg"},{"bike_id":"93bb0e99-2bb8-4c61-90e7-ea7c7adfa993","system_id":"levelo_inurba_marseille","lat":43.29947,"lon":5.36561,"is_reserved":false,"is_disabled":true,"rental_uris":{"android":"levelo://app?vid=93bb0e99-2bb8-4c61-90e7-ea7c7adfa993","ios":"levelo://app?vid=93bb0e99-2bb8-4c61-90e7-ea7c7adfa993"},"vehicle_type_id":"4","last_reported":1747606137,"current_range_meters":17200,"station_id":"ce4bgm92rcd13ifvqbr0","pricing_plan_id":"cebpf4jnsgd1na2vs0mg"},{"bike_id":"87e2ffe7-e2ac-484b-b2b1-fc1a1439801c","system_id":"levelo_inurba_marseille","lat":43.29261,"lon":5.38431,"is_reserved":false,"is_disabled":true,"rental_uris":{"android":"levelo://app?vid=87e2ffe7-e2ac-484b-b2b1-fc1a1439801c","ios":"levelo://app?vid=87e2ffe7-e2ac-484b-b2b1-fc1a1439801c"},"vehicle_type_id":"4","last_reported":1747606137,"current_range_meters":17200,"station_id":"ce4bh692rcd13ifvqea0","pricing_plan_id":"cebpf4jnsgd1na2vs0mg"},{"bike_id":"76ee76b0-73b2-42fe-9bbc-bc09871affe4","system_id":"levelo_inurba_marseille","lat":43.284709,"lon":5.384394,"is_reserved":false,"is_disabled":true,"rental_uris":{"android":"levelo://app?vid=76ee76b0-73b2-42fe-9bbc-bc09871affe4","ios":"levelo://app?vid=76ee76b0-73b2-42fe-9bbc-bc09871affe4"},"vehicle_type_id":"4","last_reported":1747606137,"current_range_meters":17200,"station_id":"ce4bh512rcd13ifvqe3g","pricing_plan_id":"cebpf4jnsgd1na2vs0mg"},{"bike_id":"bf96caf2-259d-4544-ba8b-a805d582ae5a","system_id":"levelo_inurba_marseille","lat":43.285811,"lon":5.39493,"is_reserved":false,"is_disabled":false,"rental_uris":{"android":"levelo://app?vid=bf96caf2-259d-4544-ba8b-a805d582ae5a","ios":"levelo://app?vid=bf96caf2-259d-4544-ba8b-a805d582ae5a"},"vehicle_type_id":"4","last_reported":1747606137,"current_range_meters":17200,"station_id":"ce4bh292rcd13ifvqdg0","pricing_plan_id":"cebpf4jnsgd1na2vs0mg"},{"bike_id":"eddc3e2f-204e-47a6-9d8f-809f554335b4","system_id":"levelo_inurba_marseille","lat":43.24066,"lon":5.377678,"is_reserved":false,"is_disabled":false,"rental_uris":{"android":"levelo://app?vid=eddc3e2f-204e-47a6-9d8f-809f554335b4","ios":"levelo://app?vid=eddc3e2f-204e-47a6-9d8f-809f554335b4"},"vehicle_type_id":"4","last_reported":1747606137,"current_range_meters":17200,"station_id":"ce4bhnp2rcd13ifvqgvg","pricing_plan_id":"cebpf4jnsgd1na2vs0mg"},{"bike_id":"ab40d454-2496-4967-a2a5-fd9afd944516","system_id":"levelo_inurba_marseille","lat":43.28699,"lon":5.37383,"is_reserved":false,"is_disabled":false,"rental_uris":{"android":"levelo://app?vid=ab40d454-2496-4967-a2a5-fd9afd944516","ios":"levelo://app?vid=ab40d454-2496-4967-a2a5-fd9afd944516"},"vehicle_type_id":"4","last_reported":1747606137,"current_range_meters":17200,"station_id":"ce4bh3p2rcd13ifvqdq0","pricing_plan_id":"cebpf4jnsgd1na2vs0mg"},{"bike_id":"31b0cfde-395e-49a2-8887-02a7b22edf3f","system_id":"levelo_inurba_marseille","lat":43.28629,"lon":5.35125,"is_reserved":false,"is_disabled":false,"rental_uris":{"android":"levelo://app?vid=31b0cfde-395e-49a2-8887-02a7b22edf3f","ios":"levelo://app?vid=31b0cfde-395e-49a2-8887-02a7b22edf3f"},"vehicle_type_id":"4","last_reported":1747606137,"current_range_meters":17200,"station_id":"ce4bhch2rcd13ifvqeug","pricing_plan_id":"cebpf4jnsgd1na2vs0mg"},{"bike_id":"45b58f5d-0d54-4a71-b40f-6ab3845fbdb3","system_id":"levelo_inurba_marseille","lat":43.27975,"lon":5.38748,"is_reserved":false,"is_disabled":false,"rental_uris":{"android":"levelo://app?vid=45b58f5d-0d54-4a71-b40f-6ab3845fbdb3","ios":"levelo://app?vid=45b58f5d-0d54-4a71-b40f-6ab3845fbdb3"},"vehicle_type_id":"4","last_reported":1747606137,"current_range_meters":17200,"station_id":"ce4bhg12rcd13ifvqf80","pricing_plan_id":"cebpf4jnsgd1na2vs0mg"},{"bike_id":"500fd7d1-4618-405d-9fe8-952d75dae93c","system_id":"levelo_inurba_marseille","lat":43.31218,"lon":5.36857,"is_reserved":false,"is_disabled":false,"rental_uris":{"android":"levelo://app?vid=500fd7d1-4618-405d-9fe8-952d75dae93c","ios":"levelo://app?vid=500fd7d1-4618-405d-9fe8-952d75dae93c"},"vehicle_type_id":"4","last_reported":1747606137,"current_range_meters":17600,"station_id":"ce4bgl92rcd13ifvqbq0","pricing_plan_id":"cebpf4jnsgd1na2vs0mg"},{"bike_id":"dd739f45-3eab-4b92-9449-7aa0e2a37938","system_id":"levelo_inurba_marseille","lat":43.31172,"lon":5.38718,"is_reserved":false,"is_disabled":false,"rental_uris":{"android":"levelo://app?vid=dd739f45-3eab-4b92-9449-7aa0e2a37938","ios":"levelo://app?vid=dd739f45-3eab-4b92-9449-7aa0e2a37938"},"vehicle_type_id":"4","last_reported":1747606137,"current_range_meters":18000,"station_id":"ce4bgv12rcd13ifvqcp0","pricing_plan_id":"cebpf4jnsgd1na2vs0mg"},{"bike_id":"c537d6a0-1373-40f9-b4bd-15d830a88104","system_id":"levelo_inurba_marseille","lat":43.303567,"lon":5.385831,"is_reserved":false,"is_disabled":false,"rental_uris":{"android":"levelo://app?vid=c537d6a0-1373-40f9-b4bd-15d830a88104","ios":"levelo://app?vid=c537d6a0-1373-40f9-b4bd-15d830a88104"},"vehicle_type_id":"4","last_reported":1747606137,"current_range_meters":18000,"station_id":"ce4bgt12rcd13ifvqce0","pricing_plan_id":"cebpf4jnsgd1na2vs0mg"},{"bike_id":"2b8eaed0-7195-4117-9102-0192d6a0abef","system_id":"levelo_inurba_marseille","lat":43.30786,"lon":5.37645,"is_reserved":false,"is_disabled":false,"rental_uris":{"android":"levelo://app?vid=2b8eaed0-7195-4117-9102-0192d6a0abef","ios":"levelo://app?vid=2b8eaed0-7195-4117-9102-0192d6a0abef"},"vehicle_type_id":"4","last_reported":1747606137,"current_range_meters":18000,"station_id":"ce4bgv92rcd13ifvqcq0","pricing_plan_id":"cebpf4jnsgd1na2vs0mg"},{"bike_id":"fee08e6f-b10c-44dd-a463-829384ac1a9b","system_id":"levelo_inurba_marseille","lat":43.28744,"lon":5.37354,"is_reserved":false,"is_disabled":false,"rental_uris":{"android":"levelo://app?vid=fee08e6f-b10c-44dd-a463-829384ac1a9b","ios":"levelo://app?vid=fee08e6f-b10c-44dd-a463-829384ac1a9b"},"vehicle_type_id":"4","last_reported":1747606137,"current_range_meters":18000,"station_id":"ce4bh3p2rcd13ifvqdq0","pricing_plan_id":"cebpf4jnsgd1na2vs0mg"},{"bike_id":"e8162579-a5ad-485f-ad83-fec8a2ebe7e1","system_id":"levelo_inurba_marseille","lat":43.26826,"lon":5.39099,"is_reserved":false,"is_disabled":false,"rental_uris":{"android":"levelo://app?vid=e8162579-a5ad-485f-ad83-fec8a2ebe7e1","ios":"levelo://app?vid=e8162579-a5ad-485f-ad83-fec8a2ebe7e1"},"vehicle_type_id":"4","last_reported":1747606137,"current_range_meters":18800,"station_id":"","pricing_plan_id":"cebpf4jnsgd1na2vs0mg"},{"bike_id":"a7f7c69f-8e30-4ab1-b0ad-53d7a45c0a15","system_id":"levelo_inurba_marseille","lat":43.243839,"lon":5.370697,"is_reserved":false,"is_disabled":true,"rental_uris":{"android":"levelo://app?vid=a7f7c69f-8e30-4ab1-b0ad-53d7a45c0a15","ios":"levelo://app?vid=a7f7c69f-8e30-4ab1-b0ad-53d7a45c0a15"},"vehicle_type_id":"4","last_reported":1747606137,"current_range_meters":18800,"station_id":"ce4bhhh2rcd13ifvqfk0","pricing_plan_id":"cebpf4jnsgd1na2vs0mg"},{"bike_id":"3ca647c1-fa54-4c23-9112-6d0d34f22bb0","system_id":"levelo_inurba_marseille","lat":43.29198,"lon":5.39317,"is_reserved":false,"is_disabled":false,"rental_uris":{"android":"levelo://app?vid=3ca647c1-fa54-4c23-9112-6d0d34f22bb0","ios":"levelo://app?vid=3ca647c1-fa54-4c23-9112-6d0d34f22bb0"},"vehicle_type_id":"4","last_reported":1747606137,"current_range_meters":18800,"station_id":"ce4bh192rcd13ifvqdd0","pricing_plan_id":"cebpf4jnsgd1na2vs0mg"},{"bike_id":"ea91362a-00d2-44b2-8245-e7abd185b362","system_id":"levelo_inurba_marseille","lat":43.27079,"lon":5.42297,"is_reserved":false,"is_disabled":false,"rental_uris":{"android":"levelo://app?vid=ea91362a-00d2-44b2-8245-e7abd185b362","ios":"levelo://app?vid=ea91362a-00d2-44b2-8245-e7abd185b362"},"vehicle_type_id":"4","last_reported":1747606137,"current_range_meters":18800,"station_id":"ce4bhk92rcd13ifvqgb0","pricing_plan_id":"cebpf4jnsgd1na2vs0mg"},{"bike_id":"090eff22-c1fd-4bcd-abb2-7f77530711d5","system_id":"levelo_inurba_marseille","lat":43.28572,"lon":5.39499,"is_reserved":false,"is_disabled":false,"rental_uris":{"android":"levelo://app?vid=090eff22-c1fd-4bcd-abb2-7f77530711d5","ios":"levelo://app?vid=090eff22-c1fd-4bcd-abb2-7f77530711d5"},"vehicle_type_id":"4","last_reported":1747606137,"current_range_meters":18800,"station_id":"ce4bh292rcd13ifvqdg0","pricing_plan_id":"cebpf4jnsgd1na2vs0mg"},{"bike_id":"10079349-e9e5-403f-a822-e397aa6d3540","system_id":"levelo_inurba_marseille","lat":43.3153,"lon":5.38045,"is_reserved":false,"is_disabled":false,"rental_uris":{"android":"levelo://app?vid=10079349-e9e5-403f-a822-e397aa6d3540","ios":"levelo://app?vid=10079349-e9e5-403f-a822-e397aa6d3540"},"vehicle_type_id":"4","last_reported":1747606137,"current_range_meters":18800,"station_id":"ce4bhsp2rcd13ifvqi50","pricing_plan_id":"cebpf4jnsgd1na2vs0mg"},{"bike_id":"ec5696db-b3a4-4ace-9494-c5ae12f4361d","system_id":"levelo_inurba_marseille","lat":43.274497,"lon":5.360706,"is_reserved":false,"is_disabled":true,"rental_uris":{"android":"levelo://app?vid=ec5696db-b3a4-4ace-9494-c5ae12f4361d","ios":"levelo://app?vid=ec5696db-b3a4-4ace-9494-c5ae12f4361d"},"vehicle_type_id":"4","last_reported":1747606137,"current_range_meters":18800,"station_id":"","pricing_plan_id":"cebpf4jnsgd1na2vs0mg"},{"bike_id":"bd35714c-43bc-4b8b-9cb8-ae32362adf0b","system_id":"levelo_inurba_marseille","lat":43.25115,"lon":5.4032,"is_reserved":false,"is_disabled":false,"rental_uris":{"android":"levelo://app?vid=bd35714c-43bc-4b8b-9cb8-ae32362adf0b","ios":"levelo://app?vid=bd35714c-43bc-4b8b-9cb8-ae32362adf0b"},"vehicle_type_id":"4","last_reported":1747606137,"current_range_meters":18800,"station_id":"ce4bhlh2rcd13ifvqgig","pricing_plan_id":"cebpf4jnsgd1na2vs0mg"},{"bike_id":"4582e055-67fa-41ba-a2c6-1d89aedd7e83","system_id":"levelo_inurba_marseille","lat":43.28934,"lon":5.38374,"is_reserved":false,"is_disabled":false,"rental_uris":{"android":"levelo://app?vid=4582e055-67fa-41ba-a2c6-1d89aedd7e83","ios":"levelo://app?vid=4582e055-67fa-41ba-a2c6-1d89aedd7e83"},"vehicle_type_id":"4","last_reported":1747606137,"current_range_meters":18800,"station_id":"","pricing_plan_id":"cebpf4jnsgd1na2vs0mg"},{"bike_id":"9035525d-8db2-478d-8eca-49e4b86cd727","system_id":"levelo_inurba_marseille","lat":43.29891,"lon":5.43661,"is_reserved":false,"is_disabled":false,"rental_uris":{"android":"levelo://app?vid=9035525d-8db2-478d-8eca-49e4b86cd727","ios":"levelo://app?vid=9035525d-8db2-478d-8eca-49e4b86cd727"},"vehicle_type_id":"4","last_reported":1747606137,"current_range_meters":19200,"station_id":"ce4bhpp2rcd13ifvqhfg","pricing_plan_id":"cebpf4jnsgd1na2vs0mg"},{"bike_id":"2b1a9abb-b4fe-48ac-a33c-e26414700371","system_id":"levelo_inurba_marseille","lat":43.251083,"lon":5.403224,"is_reserved":false,"is_disabled":false,"rental_uris":{"android":"levelo://app?vid=2b1a9abb-b4fe-48ac-a33c-e26414700371","ios":"levelo://app?vid=2b1a9abb-b4fe-48ac-a33c-e26414700371"},"vehicle_type_id":"4","last_reported":1747606137,"current_range_meters":19200,"station_id":"ce4bhlh2rcd13ifvqgig","pricing_plan_id":"cebpf4jnsgd1na2vs0mg"},{"bike_id":"4ddcf91b-c9ac-4a68-ad74-075eb8c0c356","system_id":"levelo_inurba_marseille","lat":43.31355,"lon":5.38494,"is_reserved":false,"is_disabled":false,"rental_uris":{"android":"levelo://app?vid=4ddcf91b-c9ac-4a68-ad74-075eb8c0c356","ios":"levelo://app?vid=4ddcf91b-c9ac-4a68-ad74-075eb8c0c356"},"vehicle_type_id":"4","last_reported":1747606137,"current_range_meters":19200,"station_id":"ce4bgt92rcd13ifvqcf0","pricing_plan_id":"cebpf4jnsgd1na2vs0mg"},{"bike_id":"0162ee7e-52a7-479d-91fd-dd08a70dfd39","system_id":"levelo_inurba_marseille","lat":43.29195,"lon":5.39338,"is_reserved":false,"is_disabled":false,"rental_uris":{"android":"levelo://app?vid=0162ee7e-52a7-479d-91fd-dd08a70dfd39","ios":"levelo://app?vid=0162ee7e-52a7-479d-91fd-dd08a70dfd39"},"vehicle_type_id":"4","last_reported":1747606137,"current_range_meters":19200,"station_id":"ce4bh192rcd13ifvqdd0","pricing_plan_id":"cebpf4jnsgd1na2vs0mg"},{"bike_id":"af1bb4f9-1339-4852-aa0c-c9bdb2fa0aea","system_id":"levelo_inurba_marseille","lat":43.28097,"lon":5.37826,"is_reserved":false,"is_disabled":false,"rental_uris":{"android":"levelo://app?vid=af1bb4f9-1339-4852-aa0c-c9bdb2fa0aea","ios":"levelo://app?vid=af1bb4f9-1339-4852-aa0c-c9bdb2fa0aea"},"vehicle_type_id":"4","last_reported":1747606137,"current_range_meters":19200,"station_id":"ce4bha12rcd13ifvqee0","pricing_plan_id":"cebpf4jnsgd1na2vs0mg"},{"bike_id":"e047b05a-36e0-4e37-b294-3b5ddd602af4","system_id":"levelo_inurba_marseille","lat":43.285812,"lon":5.394946,"is_reserved":false,"is_disabled":false,"rental_uris":{"android":"levelo://app?vid=e047b05a-36e0-4e37-b294-3b5ddd602af4","ios":"levelo://app?vid=e047b05a-36e0-4e37-b294-3b5ddd602af4"},"vehicle_type_id":"4","last_reported":1747606137,"current_range_meters":19200,"station_id":"","pricing_plan_id":"cebpf4jnsgd1na2vs0mg"},{"bike_id":"8e377f26-8ea7-4cfd-862b-3aa5e975f626","system_id":"levelo_inurba_marseille","lat":43.2978,"lon":5.39345,"is_reserved":false,"is_disabled":false,"rental_uris":{"android":"levelo://app?vid=8e377f26-8ea7-4cfd-862b-3aa5e975f626","ios":"levelo://app?vid=8e377f26-8ea7-4cfd-862b-3aa5e975f626"},"vehicle_type_id":"4","last_reported":1747606137,"current_range_meters":18800,"station_id":"chh1huq6cuj3fo74tm60","pricing_plan_id":"cebpf4jnsgd1na2vs0mg"},{"bike_id":"f198f61c-140a-45ab-9df5-fbdfbf1e2560","system_id":"levelo_inurba_marseille","lat":43.31989,"lon":5.3812,"is_reserved":false,"is_disabled":true,"rental_uris":{"android":"levelo://app?vid=f198f61c-140a-45ab-9df5-fbdfbf1e2560","ios":"levelo://app?vid=f198f61c-140a-45ab-9df5-fbdfbf1e2560"},"vehicle_type_id":"4","last_reported":1747606137,"current_range_meters":19200,"station_id":"ce4bhr12rcd13ifvqhpg","pricing_plan_id":"cebpf4jnsgd1na2vs0mg"},{"bike_id":"ab7d1ddb-c6ab-4c47-831b-69e06fb8bb1b","system_id":"levelo_inurba_marseille","lat":43.21748,"lon":5.34609,"is_reserved":false,"is_disabled":false,"rental_uris":{"android":"levelo://app?vid=ab7d1ddb-c6ab-4c47-831b-69e06fb8bb1b","ios":"levelo://app?vid=ab7d1ddb-c6ab-4c47-831b-69e06fb8bb1b"},"vehicle_type_id":"4","last_reported":1747606137,"current_range_meters":19600,"station_id":"st_cvj6r9ubvosntc0bgbag","pricing_plan_id":"cebpf4jnsgd1na2vs0mg"},{"bike_id":"192ae61e-5e2e-43d5-a32e-88cc0487ea7c","system_id":"levelo_inurba_marseille","lat":43.246515,"lon":5.38897,"is_reserved":false,"is_disabled":false,"rental_uris":{"android":"levelo://app?vid=192ae61e-5e2e-43d5-a32e-88cc0487ea7c","ios":"levelo://app?vid=192ae61e-5e2e-43d5-a32e-88cc0487ea7c"},"vehicle_type_id":"4","last_reported":1747606137,"current_range_meters":19600,"station_id":"ce4bhg12rcd13ifvqf60","pricing_plan_id":"cebpf4jnsgd1na2vs0mg"},{"bike_id":"431750b8-e0a2-4e9f-9b2b-7d4fb8bb5c04","system_id":"levelo_inurba_marseille","lat":43.23199,"lon":5.35555,"is_reserved":false,"is_disabled":false,"rental_uris":{"android":"levelo://app?vid=431750b8-e0a2-4e9f-9b2b-7d4fb8bb5c04","ios":"levelo://app?vid=431750b8-e0a2-4e9f-9b2b-7d4fb8bb5c04"},"vehicle_type_id":"4","last_reported":1747606137,"current_range_meters":19600,"station_id":"ce4bhu92rcd13ifvqi70","pricing_plan_id":"cebpf4jnsgd1na2vs0mg"},{"bike_id":"d0283942-91f4-4a79-a23c-24ce22d10510","system_id":"levelo_inurba_marseille","lat":43.30779,"lon":5.37645,"is_reserved":false,"is_disabled":false,"rental_uris":{"android":"levelo://app?vid=d0283942-91f4-4a79-a23c-24ce22d10510","ios":"levelo://app?vid=d0283942-91f4-4a79-a23c-24ce22d10510"},"vehicle_type_id":"4","last_reported":1747606137,"current_range_meters":20000,"station_id":"ce4bgv92rcd13ifvqcq0","pricing_plan_id":"cebpf4jnsgd1na2vs0mg"},{"bike_id":"e2e3a6f6-0f08-4185-b27b-75bc9500a96d","system_id":"levelo_inurba_marseille","lat":43.211906,"lon":5.350736,"is_reserved":false,"is_disabled":true,"rental_uris":{"android":"levelo://app?vid=e2e3a6f6-0f08-4185-b27b-75bc9500a96d","ios":"levelo://app?vid=e2e3a6f6-0f08-4185-b27b-75bc9500a96d"},"vehicle_type_id":"4","last_reported":1747606137,"current_range_meters":20000,"station_id":"st_cvj6sg6p6f1abm77japg","pricing_plan_id":"cebpf4jnsgd1na2vs0mg"},{"bike_id":"10257570-5ae2-4c89-ac35-38fe8ddd7a64","system_id":"levelo_inurba_marseille","lat":43.30142,"lon":5.37422,"is_reserved":false,"is_disabled":false,"rental_uris":{"android":"levelo://app?vid=10257570-5ae2-4c89-ac35-38fe8ddd7a64","ios":"levelo://app?vid=10257570-5ae2-4c89-ac35-38fe8ddd7a64"},"vehicle_type_id":"4","last_reported":1747606137,"current_range_meters":19600,"station_id":"ce4bgs92rcd13ifvqcc0","pricing_plan_id":"cebpf4jnsgd1na2vs0mg"},{"bike_id":"3552fbf2-b43a-446f-93f5-d695fc251b73","system_id":"levelo_inurba_marseille","lat":43.25181,"lon":5.37513,"is_reserved":false,"is_disabled":false,"rental_uris":{"android":"levelo://app?vid=3552fbf2-b43a-446f-93f5-d695fc251b73","ios":"levelo://app?vid=3552fbf2-b43a-446f-93f5-d695fc251b73"},"vehicle_type_id":"4","last_reported":1747606137,"current_range_meters":20000,"station_id":"","pricing_plan_id":"cebpf4jnsgd1na2vs0mg"},{"bike_id":"a0b410ab-d4d0-4dc9-bf03-0f37bdff5356","system_id":"levelo_inurba_marseille","lat":43.30425,"lon":5.38888,"is_reserved":false,"is_disabled":false,"rental_uris":{"android":"levelo://app?vid=a0b410ab-d4d0-4dc9-bf03-0f37bdff5356","ios":"levelo://app?vid=a0b410ab-d4d0-4dc9-bf03-0f37bdff5356"},"vehicle_type_id":"4","last_reported":1747606137,"current_range_meters":20000,"station_id":"ce4bgk12rcd13ifvqbi0","pricing_plan_id":"cebpf4jnsgd1na2vs0mg"},{"bike_id":"6219e431-0d10-4995-bdc1-dcd619339c50","system_id":"levelo_inurba_marseille","lat":43.23188,"lon":5.39983,"is_reserved":false,"is_disabled":false,"rental_uris":{"android":"levelo://app?vid=6219e431-0d10-4995-bdc1-dcd619339c50","ios":"levelo://app?vid=6219e431-0d10-4995-bdc1-dcd619339c50"},"vehicle_type_id":"4","last_reported":1747606137,"current_range_meters":20000,"station_id":"ce4bhn12rcd13ifvqgqg","pricing_plan_id":"cebpf4jnsgd1na2vs0mg"},{"bike_id":"2ba09f29-0ba6-488b-9952-1f4171f7eabf","system_id":"levelo_inurba_marseille","lat":43.31357,"lon":5.38505,"is_reserved":false,"is_disabled":false,"rental_uris":{"android":"levelo://app?vid=2ba09f29-0ba6-488b-9952-1f4171f7eabf","ios":"levelo://app?vid=2ba09f29-0ba6-488b-9952-1f4171f7eabf"},"vehicle_type_id":"4","last_reported":1747606137,"current_range_meters":20000,"station_id":"ce4bgt92rcd13ifvqcf0","pricing_plan_id":"cebpf4jnsgd1na2vs0mg"},{"bike_id":"0671b125-ec13-4ec6-9e80-483595638e44","system_id":"levelo_inurba_marseille","lat":43.27069,"lon":5.42279,"is_reserved":false,"is_disabled":false,"rental_uris":{"android":"levelo://app?vid=0671b125-ec13-4ec6-9e80-483595638e44","ios":"levelo://app?vid=0671b125-ec13-4ec6-9e80-483595638e44"},"vehicle_type_id":"4","last_reported":1747606137,"current_range_meters":20000,"station_id":"ce4bhk92rcd13ifvqgb0","pricing_plan_id":"cebpf4jnsgd1na2vs0mg"},{"bike_id":"0aa93a17-2c67-4401-bc28-11d2158b34f7","system_id":"levelo_inurba_marseille","lat":43.24059,"lon":5.37745,"is_reserved":false,"is_disabled":false,"rental_uris":{"android":"levelo://app?vid=0aa93a17-2c67-4401-bc28-11d2158b34f7","ios":"levelo://app?vid=0aa93a17-2c67-4401-bc28-11d2158b34f7"},"vehicle_type_id":"4","last_reported":1747606137,"current_range_meters":20400,"station_id":"ce4bhnp2rcd13ifvqgvg","pricing_plan_id":"cebpf4jnsgd1na2vs0mg"},{"bike_id":"34f8d693-6f29-4f39-b138-4e31bb2d12ab","system_id":"levelo_inurba_marseille","lat":43.3247,"lon":5.36574,"is_reserved":false,"is_disabled":false,"rental_uris":{"android":"levelo://app?vid=34f8d693-6f29-4f39-b138-4e31bb2d12ab","ios":"levelo://app?vid=34f8d693-6f29-4f39-b138-4e31bb2d12ab"},"vehicle_type_id":"4","last_reported":1747606137,"current_range_meters":20000,"station_id":"ce4bhs12rcd13ifvqhvg","pricing_plan_id":"cebpf4jnsgd1na2vs0mg"},{"bike_id":"338ab862-3eee-46b1-9f4f-ad12443dba67","system_id":"levelo_inurba_marseille","lat":43.28929,"lon":5.36632,"is_reserved":false,"is_disabled":false,"rental_uris":{"android":"levelo://app?vid=338ab862-3eee-46b1-9f4f-ad12443dba67","ios":"levelo://app?vid=338ab862-3eee-46b1-9f4f-ad12443dba67"},"vehicle_type_id":"4","last_reported":1747606137,"current_range_meters":20400,"station_id":"","pricing_plan_id":"cebpf4jnsgd1na2vs0mg"},{"bike_id":"31817c8f-fbb5-41fe-9496-8dec97fb5c43","system_id":"levelo_inurba_marseille","lat":43.30311,"lon":5.40432,"is_reserved":false,"is_disabled":true,"rental_uris":{"android":"levelo://app?vid=31817c8f-fbb5-41fe-9496-8dec97fb5c43","ios":"levelo://app?vid=31817c8f-fbb5-41fe-9496-8dec97fb5c43"},"vehicle_type_id":"4","last_reported":1747606137,"current_range_meters":20400,"station_id":"ce4bh012rcd13ifvqd10","pricing_plan_id":"cebpf4jnsgd1na2vs0mg"},{"bike_id":"a6134845-e374-43cc-a725-088924941529","system_id":"levelo_inurba_marseille","lat":43.31706,"lon":5.37757,"is_reserved":false,"is_disabled":false,"rental_uris":{"android":"levelo://app?vid=a6134845-e374-43cc-a725-088924941529","ios":"levelo://app?vid=a6134845-e374-43cc-a725-088924941529"},"vehicle_type_id":"4","last_reported":1747606137,"current_range_meters":20400,"station_id":"ce4bgth2rcd13ifvqch0","pricing_plan_id":"cebpf4jnsgd1na2vs0mg"},{"bike_id":"79f89771-0d0a-44a2-8063-72e0b54e0159","system_id":"levelo_inurba_marseille","lat":43.30135,"lon":5.37427,"is_reserved":false,"is_disabled":false,"rental_uris":{"android":"levelo://app?vid=79f89771-0d0a-44a2-8063-72e0b54e0159","ios":"levelo://app?vid=79f89771-0d0a-44a2-8063-72e0b54e0159"},"vehicle_type_id":"4","last_reported":1747606137,"current_range_meters":20800,"station_id":"ce4bgs92rcd13ifvqcc0","pricing_plan_id":"cebpf4jnsgd1na2vs0mg"},{"bike_id":"b16885dd-407c-4d5c-8611-d72348566c4c","system_id":"levelo_inurba_marseille","lat":43.26566,"lon":5.38996,"is_reserved":false,"is_disabled":false,"rental_uris":{"android":"levelo://app?vid=b16885dd-407c-4d5c-8611-d72348566c4c","ios":"levelo://app?vid=b16885dd-407c-4d5c-8611-d72348566c4c"},"vehicle_type_id":"4","last_reported":1747606137,"current_range_meters":20800,"station_id":"ce4bhe12rcd13ifvqf30","pricing_plan_id":"cebpf4jnsgd1na2vs0mg"},{"bike_id":"53466ec4-648a-4331-81fa-80b6bc3e3b06","system_id":"levelo_inurba_marseille","lat":43.30648,"lon":5.40098,"is_reserved":false,"is_disabled":false,"rental_uris":{"android":"levelo://app?vid=53466ec4-648a-4331-81fa-80b6bc3e3b06","ios":"levelo://app?vid=53466ec4-648a-4331-81fa-80b6bc3e3b06"},"vehicle_type_id":"4","last_reported":1747606137,"current_range_meters":20800,"station_id":"ce4bh112rcd13ifvqda0","pricing_plan_id":"cebpf4jnsgd1na2vs0mg"},{"bike_id":"5fe17c51-7652-437d-ba51-fc74a9fcd562","system_id":"levelo_inurba_marseille","lat":43.25821,"lon":5.39436,"is_reserved":false,"is_disabled":false,"rental_uris":{"android":"levelo://app?vid=5fe17c51-7652-437d-ba51-fc74a9fcd562","ios":"levelo://app?vid=5fe17c51-7652-437d-ba51-fc74a9fcd562"},"vehicle_type_id":"4","last_reported":1747606137,"current_range_meters":20400,"station_id":"ce4bhip2rcd13ifvqft0","pricing_plan_id":"cebpf4jnsgd1na2vs0mg"},{"bike_id":"143383ab-df8a-4bfb-bc09-4c05e3617dc8","system_id":"levelo_inurba_marseille","lat":43.311802,"lon":5.387166,"is_reserved":false,"is_disabled":true,"rental_uris":{"android":"levelo://app?vid=143383ab-df8a-4bfb-bc09-4c05e3617dc8","ios":"levelo://app?vid=143383ab-df8a-4bfb-bc09-4c05e3617dc8"},"vehicle_type_id":"4","last_reported":1747606137,"current_range_meters":20800,"station_id":"ce4bgv12rcd13ifvqcp0","pricing_plan_id":"cebpf4jnsgd1na2vs0mg"},{"bike_id":"1ddd815c-6a3b-46da-94aa-ca792f8675d1","system_id":"levelo_inurba_marseille","lat":43.2857,"lon":5.39478,"is_reserved":false,"is_disabled":false,"rental_uris":{"android":"levelo://app?vid=1ddd815c-6a3b-46da-94aa-ca792f8675d1","ios":"levelo://app?vid=1ddd815c-6a3b-46da-94aa-ca792f8675d1"},"vehicle_type_id":"4","last_reported":1747606137,"current_range_meters":20800,"station_id":"ce4bh292rcd13ifvqdg0","pricing_plan_id":"cebpf4jnsgd1na2vs0mg"},{"bike_id":"ab566d0d-c12a-42a4-8233-fc5019f75da4","system_id":"levelo_inurba_marseille","lat":43.31122,"lon":5.37769,"is_reserved":false,"is_disabled":false,"rental_uris":{"android":"levelo://app?vid=ab566d0d-c12a-42a4-8233-fc5019f75da4","ios":"levelo://app?vid=ab566d0d-c12a-42a4-8233-fc5019f75da4"},"vehicle_type_id":"4","last_reported":1747606137,"current_range_meters":20800,"station_id":"ce4bgt92rcd13ifvqcg0","pricing_plan_id":"cebpf4jnsgd1na2vs0mg"},{"bike_id":"65697743-73bf-4968-897d-104cbe4a0c71","system_id":"levelo_inurba_marseille","lat":43.29198,"lon":5.35801,"is_reserved":false,"is_disabled":false,"rental_uris":{"android":"levelo://app?vid=65697743-73bf-4968-897d-104cbe4a0c71","ios":"levelo://app?vid=65697743-73bf-4968-897d-104cbe4a0c71"},"vehicle_type_id":"4","last_reported":1747606137,"current_range_meters":20800,"station_id":"ce4bhb12rcd13ifvqel0","pricing_plan_id":"cebpf4jnsgd1na2vs0mg"},{"bike_id":"ce63605b-079e-4ac9-bed2-6c81ec5f5d76","system_id":"levelo_inurba_marseille","lat":43.28452,"lon":5.39191,"is_reserved":false,"is_disabled":false,"rental_uris":{"android":"levelo://app?vid=ce63605b-079e-4ac9-bed2-6c81ec5f5d76","ios":"levelo://app?vid=ce63605b-079e-4ac9-bed2-6c81ec5f5d76"},"vehicle_type_id":"4","last_reported":1747606137,"current_range_meters":20800,"station_id":"ce4bhoh2rcd13ifvqh5g","pricing_plan_id":"cebpf4jnsgd1na2vs0mg"},{"bike_id":"b97eb0a3-b7b2-4bad-9900-aae802e3b120","system_id":"levelo_inurba_marseille","lat":43.28931,"lon":5.36419,"is_reserved":false,"is_disabled":false,"rental_uris":{"android":"levelo://app?vid=b97eb0a3-b7b2-4bad-9900-aae802e3b120","ios":"levelo://app?vid=b97eb0a3-b7b2-4bad-9900-aae802e3b120"},"vehicle_type_id":"4","last_reported":1747606137,"current_range_meters":20800,"station_id":"ce4bhc92rcd13ifvqetg","pricing_plan_id":"cebpf4jnsgd1na2vs0mg"},{"bike_id":"c98d92f5-a698-4f6b-a674-ef0def653081","system_id":"levelo_inurba_marseille","lat":43.24649,"lon":5.38892,"is_reserved":false,"is_disabled":false,"rental_uris":{"android":"levelo://app?vid=c98d92f5-a698-4f6b-a674-ef0def653081","ios":"levelo://app?vid=c98d92f5-a698-4f6b-a674-ef0def653081"},"vehicle_type_id":"4","last_reported":1747606137,"current_range_meters":20400,"station_id":"ce4bhg12rcd13ifvqf60","pricing_plan_id":"cebpf4jnsgd1na2vs0mg"},{"bike_id":"1bce6cab-ba56-44f6-9bc8-12830f4cec77","system_id":"levelo_inurba_marseille","lat":43.30885,"lon":5.39628,"is_reserved":false,"is_disabled":false,"rental_uris":{"android":"levelo://app?vid=1bce6cab-ba56-44f6-9bc8-12830f4cec77","ios":"levelo://app?vid=1bce6cab-ba56-44f6-9bc8-12830f4cec77"},"vehicle_type_id":"4","last_reported":1747606137,"current_range_meters":21600,"station_id":"ce4bh012rcd13ifvqcv0","pricing_plan_id":"cebpf4jnsgd1na2vs0mg"},{"bike_id":"f452c622-b4bf-4226-bdc3-c26598e53179","system_id":"levelo_inurba_marseille","lat":43.291694,"lon":5.371456,"is_reserved":false,"is_disabled":true,"rental_uris":{"android":"levelo://app?vid=f452c622-b4bf-4226-bdc3-c26598e53179","ios":"levelo://app?vid=f452c622-b4bf-4226-bdc3-c26598e53179"},"vehicle_type_id":"4","last_reported":1747606137,"current_range_meters":21600,"station_id":"ce4bha92rcd13ifvqeh0","pricing_plan_id":"cebpf4jnsgd1na2vs0mg"},{"bike_id":"068d69a9-ad77-4ab6-af51-216ffdd78f59","system_id":"levelo_inurba_marseille","lat":43.29376,"lon":5.40179,"is_reserved":false,"is_disabled":false,"rental_uris":{"android":"levelo://app?vid=068d69a9-ad77-4ab6-af51-216ffdd78f59","ios":"levelo://app?vid=068d69a9-ad77-4ab6-af51-216ffdd78f59"},"vehicle_type_id":"4","last_reported":1747606137,"current_range_meters":21600,"station_id":"ce4bh312rcd13ifvqdk0","pricing_plan_id":"cebpf4jnsgd1na2vs0mg"},