{"last_updated":1743585027,"ttl":60,"version":"2.2","data":{"bikes":[{"bike_id":"c7bcbba6-145c-4844-926c-e4940415ba19","system_id":"levelo_inurba_marseille","lat":43.28468,"lon":5.38421,"is_reserved":false,"is_disabled":false,"rental_uris":{"android":"levelo://app?vid=c7bcbba6-145c-4844-926c-e4940415ba19","ios":"levelo://app?vid=c7bcbba6-145c-4844-926c-e4940415ba19"},"vehicle_type_id":"4","last_reported":1743585027,"current_range_meters":2800,"station_id":"ce4bh512rcd13ifvqe3g","pricing_plan_id":"cebpf4jnsgd1na2vs0mg"},{"bike_id":"3feb61f9-f9bd-403f-9fd4-21da5905c4d5","system_id":"levelo_inurba_marseille","lat":43.30152,"lon":5.37414,"is_reserved":false,"is_disabled":false,"rental_uris":{"android":"levelo://app?vid=3feb61f9-f9bd-403f-9fd4-21da5905c4d5","ios":"levelo://app?vid=3feb61f9-f9bd-403f-9fd4-21da5905c4d5"},"vehicle_type_id":"4","last_reported":1743585027,"current_range_meters":2800,"station_id":"ce4bgs92rcd13ifvqcc0","pricing_plan_id":"cebpf4jnsgd1na2vs0mg"},{"bike_id":"72c45e8d-c88b-4407-8f61-cf501ab37345","system_id":"levelo_inurba_marseille","lat":43.30547,"lon":5.36685,"is_reserved":false,"is_disabled":false,"rental_uris":{"android":"levelo://app?vid=72c45e8d-c88b-4407-8f61-cf501ab37345","ios":"levelo://app?vid=72c45e8d-c88b-4407-8f61-cf501ab37345"},"vehicle_type_id":"4","last_reported":1743585027,"current_range_meters":2800,"station_id":"ce4bgrp2rcd13ifvqc9g","pricing_plan_id":"cebpf4jnsgd1na2vs0mg"},{"bike_id":"6424c31c-7edc-4357-83f1-1ce1da852ccd","system_id":"levelo_inurba_marseille","lat":43.25499,"lon":5.37653,"is_reserved":false,"is_disabled":false,"rental_uris":{"android":"levelo://app?vid=6424c31c-7edc-4357-83f1-1ce1da852ccd","ios":"levelo://app?vid=6424c31c-7edc-4357-83f1-1ce1da852ccd"},"vehicle_type_id":"4","last_reported":1743585027,"current_range_meters":2800,"station_id":"ce4bhh12rcd13ifvqff0","pricing_plan_id":"cebpf4jnsgd1na2vs0mg"},{"bike_id":"f7e0ed50-9461-4587-a005-e21b89590d83","system_id":"levelo_inurba_marseille","lat":43.33616,"lon":5.41028,"is_reserved":false,"is_disabled":false,"rental_uris":{"android":"levelo://app?vid=f7e0ed50-9461-4587-a005-e21b89590d83","ios":"levelo://app?vid=f7e0ed50-9461-4587-a005-e21b89590d83"},"vehicle_type_id":"4","last_reported":1743585027,"current_range_meters":2800,"station_id":"ce4bhqh2rcd13ifvqhmg","pricing_plan_id":"cebpf4jnsgd1na2vs0mg"},{"bike_id":"882e0f90-3055-4b64-a5d7-3a77f1088b59","system_id":"levelo_inurba_marseille","lat":43.29031,"lon":5.39978,"is_reserved":false,"is_disabled":false,"rental_uris":{"android":"levelo://app?vid=882e0f90-3055-4b64-a5d7-3a77f1088b59","ios":"levelo://app?vid=882e0f90-3055-4b64-a5d7-3a77f1088b59"},"vehicle_type_id":"4","last_reported":1743585027,"current_range_meters":3200,"station_id":"ce4bh392rcd13ifvqdm0","pricing_plan_id":"cebpf4jnsgd1na2vs0mg"},{"bike_id":"a18a3e47-c3fa-43c5-ae05-ed5b444118bf","system_id":"levelo_inurba_marseille","lat":43.30545,"lon":5.36699,"is_reserved":false,"is_disabled":false,"rental_uris":{"android":"levelo://app?vid=a18a3e47-c3fa-43c5-ae05-ed5b444118bf","ios":"levelo://app?vid=a18a3e47-c3fa-43c5-ae05-ed5b444118bf"},"vehicle_type_id":"4","last_reported":1743585027,"current_range_meters":3200,"station_id":"ce4bgrp2rcd13ifvqc9g","pricing_plan_id":"cebpf4jnsgd1na2vs0mg"},{"bike_id":"524d7305-307f-4a4f-8041-da098cab26ff","system_id":"levelo_inurba_marseille","lat":43.29645,"lon":5.40594,"is_reserved":false,"is_disabled":false,"rental_uris":{"android":"levelo://app?vid=524d7305-307f-4a4f-8041-da098cab26ff","ios":"levelo://app?vid=524d7305-307f-4a4f-8041-da098cab26ff"},"vehicle_type_id":"4","last_reported":1743585027,"current_range_meters":3200,"station_id":"ce4bh0h2rcd13ifvqd60","pricing_plan_id":"cebpf4jnsgd1na2vs0mg"},{"bike_id":"379c35cc-9090-49d8-934b-47dc3faa3143","system_id":"levelo_inurba_marseille","lat":43.25955,"lon":5.40894,"is_reserved":false,"is_disabled":false,"rental_uris":{"android":"levelo://app?vid=379c35cc-9090-49d8-934b-47dc3faa3143","ios":"levelo://app?vid=379c35cc-9090-49d8-934b-47dc3faa3143"},"vehicle_type_id":"4","last_reported":1743585027,"current_range_meters":3600,"station_id":"ce4bhm92rcd13ifvqglg","pricing_plan_id":"cebpf4jnsgd1na2vs0mg"},{"bike_id":"3a141f3f-a2b3-453c-9c96-5d16d4e53540","system_id":"levelo_inurba_marseille","lat":43.29521,"lon":5.38548,"is_reserved":false,"is_disabled":false,"rental_uris":{"android":"levelo://app?vid=3a141f3f-a2b3-453c-9c96-5d16d4e53540","ios":"levelo://app?vid=3a141f3f-a2b3-453c-9c96-5d16d4e53540"},"vehicle_type_id":"4","last_reported":1743585027,"current_range_meters":4000,"station_id":"ce4bgih2rcd13ifvqba0","pricing_plan_id":"cebpf4jnsgd1na2vs0mg"},{"bike_id":"d662608d-504d-43ae-8d4a-6ba237d6c000","system_id":"levelo_inurba_marseille","lat":43.27838,"lon":5.38477,"is_reserved":false,"is_disabled":false,"rental_uris":{"android":"levelo://app?vid=d662608d-504d-43ae-8d4a-6ba237d6c000","ios":"levelo://app?vid=d662608d-504d-43ae-8d4a-6ba237d6c000"},"vehicle_type_id":"4","last_reported":1743585027,"current_range_meters":4400,"station_id":"","pricing_plan_id":"cebpf4jnsgd1na2vs0mg"},{"bike_id":"bcb97213-2abd-4a56-a558-9d6212242139","system_id":"levelo_inurba_marseille","lat":43.30971,"lon":5.3904,"is_reserved":false,"is_disabled":false,"rental_uris":{"android":"levelo://app?vid=bcb97213-2abd-4a56-a558-9d6212242139","ios":"levelo://app?vid=bcb97213-2abd-4a56-a558-9d6212242139"},"vehicle_type_id":"4","last_reported":1743585027,"current_range_meters":4400,"station_id":"ce4bgup2rcd13ifvqco0","pricing_plan_id":"cebpf4jnsgd1na2vs0mg"},{"bike_id":"4880365f-9c3e-49ed-9807-276d21891e9f","system_id":"levelo_inurba_marseille","lat":43.27072,"lon":5.42279,"is_reserved":false,"is_disabled":false,"rental_uris":{"android":"levelo://app?vid=4880365f-9c3e-49ed-9807-276d21891e9f","ios":"levelo://app?vid=4880365f-9c3e-49ed-9807-276d21891e9f"},"vehicle_type_id":"4","last_reported":1743585027,"current_range_meters":4800,"station_id":"ce4bhk92rcd13ifvqgb0","pricing_plan_id":"cebpf4jnsgd1na2vs0mg"},{"bike_id":"b5ab8f79-e1ae-4463-9749-4b3985e9e1f4","system_id":"levelo_inurba_marseille","lat":43.30209,"lon":5.39467,"is_reserved":false,"is_disabled":false,"rental_uris":{"android":"levelo://app?vid=b5ab8f79-e1ae-4463-9749-4b3985e9e1f4","ios":"levelo://app?vid=b5ab8f79-e1ae-4463-9749-4b3985e9e1f4"},"vehicle_type_id":"4","last_reported":1743585027,"current_range_meters":4800,"station_id":"ce4bh0p2rcd13ifvqd70","pricing_plan_id":"cebpf4jnsgd1na2vs0mg"},{"bike_id":"7018c222-b3c9-40cc-b215-7f60e9031f8b","system_id":"levelo_inurba_marseille","lat":43.23154,"lon":5.43716,"is_reserved":false,"is_disabled":false,"rental_uris":{"android":"levelo://app?vid=7018c222-b3c9-40cc-b215-7f60e9031f8b","ios":"levelo://app?vid=7018c222-b3c9-40cc-b215-7f60e9031f8b"},"vehicle_type_id":"4","last_reported":1743585027,"current_range_meters":4800,"station_id":"ce4bhmp2rcd13ifvqgog","pricing_plan_id":"cebpf4jnsgd1na2vs0mg"},{"bike_id":"4ad73676-975d-4eb4-8ab0-34916f3a4594","system_id":"levelo_inurba_marseille","lat":43.30659,"lon":5.37127,"is_reserved":false,"is_disabled":false,"rental_uris":{"android":"levelo://app?vid=4ad73676-975d-4eb4-8ab0-34916f3a4594","ios":"levelo://app?vid=4ad73676-975d-4eb4-8ab0-34916f3a4594"},"vehicle_type_id":"4","last_reported":1743585027,"current_range_meters":4800,"station_id":"","pricing_plan_id":"cebpf4jnsgd1na2vs0mg"},{"bike_id":"d654211b-4e34-4995-8255-b4ad241f080d","system_id":"levelo_inurba_marseille","lat":43.32541,"lon":5.41465,"is_reserved":false,"is_disabled":false,"rental_uris":{"android":"levelo://app?vid=d654211b-4e34-4995-8255-b4ad241f080d","ios":"levelo://app?vid=d654211b-4e34-4995-8255-b4ad241f080d"},"vehicle_type_id":"4","last_reported":1743585027,"current_range_meters":4800,"station_id":"ce4bhq12rcd13ifvqhhg","pricing_plan_id":"cebpf4jnsgd1na2vs0mg"},{"bike_id":"7d88daa7-1ee4-4a92-b15b-50a0802372f0","system_id":"levelo_inurba_marseille","lat":43.27214,"lon":5.39197,"is_reserved":false,"is_disabled":false,"rental_uris":{"android":"levelo://app?vid=7d88daa7-1ee4-4a92-b15b-50a0802372f0","ios":"levelo://app?vid=7d88daa7-1ee4-4a92-b15b-50a0802372f0"},"vehicle_type_id":"4","last_reported":1743585027,"current_range_meters":5600,"station_id":"ce4bhhp2rcd13ifvqfm0","pricing_plan_id":"cebpf4jnsgd1na2vs0mg"},{"bike_id":"e72967af-6b08-4c57-835e-72e327201e4b","system_id":"levelo_inurba_marseille","lat":43.23186,"lon":5.39988,"is_reserved":false,"is_disabled":false,"rental_uris":{"android":"levelo://app?vid=e72967af-6b08-4c57-835e-72e327201e4b","ios":"levelo://app?vid=e72967af-6b08-4c57-835e-72e327201e4b"},"vehicle_type_id":"4","last_reported":1743585027,"current_range_meters":5600,"station_id":"ce4bhn12rcd13ifvqgqg","pricing_plan_id":"cebpf4jnsgd1na2vs0mg"},{"bike_id":"b8cc3dd3-c469-44a6-b6a1-f73048c29c98","system_id":"levelo_inurba_marseille","lat":43.26789,"lon":5.39415,"is_reserved":false,"is_disabled":false,"rental_uris":{"android":"levelo://app?vid=b8cc3dd3-c469-44a6-b6a1-f73048c29c98","ios":"levelo://app?vid=b8cc3dd3-c469-44a6-b6a1-f73048c29c98"},"vehicle_type_id":"4","last_reported":1743585027,"current_range_meters":5600,"station_id":"ce4bhh12rcd13ifvqfg0","pricing_plan_id":"cebpf4jnsgd1na2vs0mg"},{"bike_id":"513ed6f6-9810-44cd-89f2-94f7846a584b","system_id":"levelo_inurba_marseille","lat":43.28476,"lon":5.38422,"is_reserved":false,"is_disabled":false,"rental_uris":{"android":"levelo://app?vid=513ed6f6-9810-44cd-89f2-94f7846a584b","ios":"levelo://app?vid=513ed6f6-9810-44cd-89f2-94f7846a584b"},"vehicle_type_id":"4","last_reported":1743585027,"current_range_meters":4800,"station_id":"ce4bh512rcd13ifvqe3g","pricing_plan_id":"cebpf4jnsgd1na2vs0mg"},{"bike_id":"fef1d547-feef-4239-90b2-e0f3b60672f8","system_id":"levelo_inurba_marseille","lat":43.2959,"lon":5.39957,"is_reserved":false,"is_disabled":true,"rental_uris":{"android":"levelo://app?vid=fef1d547-feef-4239-90b2-e0f3b60672f8","ios":"levelo://app?vid=fef1d547-feef-4239-90b2-e0f3b60672f8"},"vehicle_type_id":"4","last_reported":1743585027,"current_range_meters":6000,"station_id":"ce4bh312rcd13ifvqdj0","pricing_plan_id":"cebpf4jnsgd1na2vs0mg"},{"bike_id":"f12a2633-3956-4783-9f4a-f45abb56025c","system_id":"levelo_inurba_marseille","lat":43.31312,"lon":5.36832,"is_reserved":false,"is_disabled":false,"rental_uris":{"android":"levelo://app?vid=f12a2633-3956-4783-9f4a-f45abb56025c","ios":"levelo://app?vid=f12a2633-3956-4783-9f4a-f45abb56025c"},"vehicle_type_id":"4","last_reported":1743585027,"current_range_meters":6000,"station_id":"ce4bgl92rcd13ifvqbq0","pricing_plan_id":"cebpf4jnsgd1na2vs0mg"},{"bike_id":"54a9d78c-5146-4936-a1a9-706a9d043c71","system_id":"levelo_inurba_marseille","lat":43.25942,"lon":5.40879,"is_reserved":false,"is_disabled":false,"rental_uris":{"android":"levelo://app?vid=54a9d78c-5146-4936-a1a9-706a9d043c71","ios":"levelo://app?vid=54a9d78c-5146-4936-a1a9-706a9d043c71"},"vehicle_type_id":"4","last_reported":1743585027,"current_range_meters":6000,"station_id":"ce4bhm92rcd13ifvqglg","pricing_plan_id":"cebpf4jnsgd1na2vs0mg"},{"bike_id":"94e40b6f-f36d-47b7-9bab-8669337c6b1e","system_id":"levelo_inurba_marseille","lat":43.29304,"lon":5.36847,"is_reserved":false,"is_disabled":false,"rental_uris":{"android":"levelo://app?vid=94e40b6f-f36d-47b7-9bab-8669337c6b1e","ios":"levelo://app?vid=94e40b6f-f36d-47b7-9bab-8669337c6b1e"},"vehicle_type_id":"4","last_reported":1743585027,"current_range_meters":6000,"station_id":"ce4bhbp2rcd13ifvqesg","pricing_plan_id":"cebpf4jnsgd1na2vs0mg"},{"bike_id":"ee1b3876-5e76-4c3e-9e51-ace70be00697","system_id":"levelo_inurba_marseille","lat":43.29597,"lon":5.38102,"is_reserved":false,"is_disabled":false,"rental_uris":{"android":"levelo://app?vid=ee1b3876-5e76-4c3e-9e51-ace70be00697","ios":"levelo://app?vid=ee1b3876-5e76-4c3e-9e51-ace70be00697"},"vehicle_type_id":"4","last_reported":1743585027,"current_range_meters":6000,"station_id":"ce4bgl12rcd13ifvqbo0","pricing_plan_id":"cebpf4jnsgd1na2vs0mg"},{"bike_id":"0e3fd0f2-1256-4fcb-b5b6-2d498eed0785","system_id":"levelo_inurba_marseille","lat":43.244,"lon":5.38552,"is_reserved":false,"is_disabled":false,"rental_uris":{"android":"levelo://app?vid=0e3fd0f2-1256-4fcb-b5b6-2d498eed0785","ios":"levelo://app?vid=0e3fd0f2-1256-4fcb-b5b6-2d498eed0785"},"vehicle_type_id":"4","last_reported":1743585027,"current_range_meters":6000,"station_id":"","pricing_plan_id":"cebpf4jnsgd1na2vs0mg"},{"bike_id":"1e087142-78e8-4375-ae5d-79b21745c218","system_id":"levelo_inurba_marseille","lat":43.255,"lon":5.37653,"is_reserved":false,"is_disabled":false,"rental_uris":{"android":"levelo://app?vid=1e087142-78e8-4375-ae5d-79b21745c218","ios":"levelo://app?vid=1e087142-78e8-4375-ae5d-79b21745c218"},"vehicle_type_id":"4","last_reported":1743585027,"current_range_meters":6000,"station_id":"ce4bhh12rcd13ifvqff0","pricing_plan_id":"cebpf4jnsgd1na2vs0mg"},{"bike_id":"d10bd936-2fca-4607-82d0-6e154162cbfd","system_id":"levelo_inurba_marseille","lat":43.3091,"lon":5.39636,"is_reserved":false,"is_disabled":true,"rental_uris":{"android":"levelo://app?vid=d10bd936-2fca-4607-82d0-6e154162cbfd","ios":"levelo://app?vid=d10bd936-2fca-4607-82d0-6e154162cbfd"},"vehicle_type_id":"4","last_reported":1743585027,"current_range_meters":6400,"station_id":"ce4bh012rcd13ifvqcv0","pricing_plan_id":"cebpf4jnsgd1na2vs0mg"},{"bike_id":"9ffab469-7fa3-43c0-915c-7c86331fcc3a","system_id":"levelo_inurba_marseille","lat":43.25928,"lon":5.40923,"is_reserved":false,"is_disabled":false,"rental_uris":{"android":"levelo://app?vid=9ffab469-7fa3-43c0-915c-7c86331fcc3a","ios":"levelo://app?vid=9ffab469-7fa3-43c0-915c-7c86331fcc3a"},"vehicle_type_id":"4","last_reported":1743585027,"current_range_meters":6400,"station_id":"ce4bhm92rcd13ifvqglg","pricing_plan_id":"cebpf4jnsgd1na2vs0mg"},{"bike_id":"85b7488a-274e-4a57-a545-cd9b422c92bb","system_id":"levelo_inurba_marseille","lat":43.25926,"lon":5.40911,"is_reserved":false,"is_disabled":false,"rental_uris":{"android":"levelo://app?vid=85b7488a-274e-4a57-a545-cd9b422c92bb","ios":"levelo://app?vid=85b7488a-274e-4a57-a545-cd9b422c92bb"},"vehicle_type_id":"4","last_reported":1743585027,"current_range_meters":6400,"station_id":"ce4bhm92rcd13ifvqglg","pricing_plan_id":"cebpf4jnsgd1na2vs0mg"},{"bike_id":"21a60665-ff89-483b-842c-f6a543a052fe","system_id":"levelo_inurba_marseille","lat":43.303497,"lon":5.386284,"is_reserved":false,"is_disabled":false,"rental_uris":{"android":"levelo://app?vid=21a60665-ff89-483b-842c-f6a543a052fe","ios":"levelo://app?vid=21a60665-ff89-483b-842c-f6a543a052fe"},"vehicle_type_id":"4","last_reported":1743585027,"current_range_meters":11600,"station_id":"ce4bgk12rcd13ifvqbi0","pricing_plan_id":"cebpf4jnsgd1na2vs0mg"},{"bike_id":"577b084d-71c0-4e6e-b3d2-57cb9bf5c9c2","system_id":"levelo_inurba_marseille","lat":43.25948,"lon":5.40901,"is_reserved":false,"is_disabled":false,"rental_uris":{"android":"levelo://app?vid=577b084d-71c0-4e6e-b3d2-57cb9bf5c9c2","ios":"levelo://app?vid=577b084d-71c0-4e6e-b3d2-57cb9bf5c9c2"},"vehicle_type_id":"4","last_reported":1743585027,"current_range_meters":6400,"station_id":"ce4bhm92rcd13ifvqglg","pricing_plan_id":"cebpf4jnsgd1na2vs0mg"},{"bike_id":"7549bd43-15b2-4001-a4c7-d590c7fffdef","system_id":"levelo_inurba_marseille","lat":43.32119,"lon":5.36811,"is_reserved":false,"is_disabled":false,"rental_uris":{"android":"levelo://app?vid=7549bd43-15b2-4001-a4c7-d590c7fffdef","ios":"levelo://app?vid=7549bd43-15b2-4001-a4c7-d590c7fffdef"},"vehicle_type_id":"4","last_reported":1743585027,"current_range_meters":6400,"station_id":"ce4bhrh2rcd13ifvqhug","pricing_plan_id":"cebpf4jnsgd1na2vs0mg"},{"bike_id":"6221fca6-95b7-42fc-9895-f1d1deba1264","system_id":"levelo_inurba_marseille","lat":43.32524,"lon":5.41442,"is_reserved":false,"is_disabled":false,"rental_uris":{"android":"levelo://app?vid=6221fca6-95b7-42fc-9895-f1d1deba1264","ios":"levelo://app?vid=6221fca6-95b7-42fc-9895-f1d1deba1264"},"vehicle_type_id":"4","last_reported":1743585027,"current_range_meters":6400,"station_id":"ce4bhq12rcd13ifvqhhg","pricing_plan_id":"cebpf4jnsgd1na2vs0mg"},{"bike_id":"57b02208-066c-42ad-8bd7-c65c8554267b","system_id":"levelo_inurba_marseille","lat":43.2408,"lon":5.37751,"is_reserved":false,"is_disabled":false,"rental_uris":{"android":"levelo://app?vid=57b02208-066c-42ad-8bd7-c65c8554267b","ios":"levelo://app?vid=57b02208-066c-42ad-8bd7-c65c8554267b"},"vehicle_type_id":"4","last_reported":1743585027,"current_range_meters":6400,"station_id":"ce4bhnp2rcd13ifvqgvg","pricing_plan_id":"cebpf4jnsgd1na2vs0mg"},{"bike_id":"2d5b05ab-3fbf-4245-a566-4ad78ee6292a","system_id":"levelo_inurba_marseille","lat":43.25004,"lon":5.38922,"is_reserved":false,"is_disabled":false,"rental_uris":{"android":"levelo://app?vid=2d5b05ab-3fbf-4245-a566-4ad78ee6292a","ios":"levelo://app?vid=2d5b05ab-3fbf-4245-a566-4ad78ee6292a"},"vehicle_type_id":"4","last_reported":1743585027,"current_range_meters":6400,"station_id":"ce4bhgp2rcd13ifvqfd0","pricing_plan_id":"cebpf4jnsgd1na2vs0mg"},{"bike_id":"10f54bd1-9702-4099-924c-734c61a9e147","system_id":"levelo_inurba_marseille","lat":43.28457,"lon":5.38416,"is_reserved":false,"is_disabled":false,"rental_uris":{"android":"levelo://app?vid=10f54bd1-9702-4099-924c-734c61a9e147","ios":"levelo://app?vid=10f54bd1-9702-4099-924c-734c61a9e147"},"vehicle_type_id":"4","last_reported":1743585027,"current_range_meters":6400,"station_id":"ce4bh512rcd13ifvqe3g","pricing_plan_id":"cebpf4jnsgd1na2vs0mg"},{"bike_id":"fe749eb9-9a64-4176-a590-d59c50bc1038","system_id":"levelo_inurba_marseille","lat":43.32494,"lon":5.36577,"is_reserved":false,"is_disabled":false,"rental_uris":{"android":"levelo://app?vid=fe749eb9-9a64-4176-a590-d59c50bc1038","ios":"levelo://app?vid=fe749eb9-9a64-4176-a590-d59c50bc1038"},"vehicle_type_id":"4","last_reported":1743585027,"current_range_meters":6400,"station_id":"ce4bhs12rcd13ifvqhvg","pricing_plan_id":"cebpf4jnsgd1na2vs0mg"},{"bike_id":"b5f2dee7-4689-4d33-bee9-f81739af2e50","system_id":"levelo_inurba_marseille","lat":43.30317,"lon":5.36897,"is_reserved":false,"is_disabled":false,"rental_uris":{"android":"levelo://app?vid=b5f2dee7-4689-4d33-bee9-f81739af2e50","ios":"levelo://app?vid=b5f2dee7-4689-4d33-bee9-f81739af2e50"},"vehicle_type_id":"4","last_reported":1743585027,"current_range_meters":6400,"station_id":"ce4bgqh2rcd13ifvqc5g","pricing_plan_id":"cebpf4jnsgd1na2vs0mg"},{"bike_id":"e9d1891f-b99a-4e54-a633-279a3c77799b","system_id":"levelo_inurba_marseille","lat":43.30651,"lon":5.40069,"is_reserved":false,"is_disabled":false,"rental_uris":{"android":"levelo://app?vid=e9d1891f-b99a-4e54-a633-279a3c77799b","ios":"levelo://app?vid=e9d1891f-b99a-4e54-a633-279a3c77799b"},"vehicle_type_id":"4","last_reported":1743585027,"current_range_meters":6400,"station_id":"ce4bh112rcd13ifvqda0","pricing_plan_id":"cebpf4jnsgd1na2vs0mg"},{"bike_id":"d7a84d7b-5166-4b3e-bd55-dfe310ba5616","system_id":"levelo_inurba_marseille","lat":43.28666,"lon":5.38656,"is_reserved":false,"is_disabled":false,"rental_uris":{"android":"levelo://app?vid=d7a84d7b-5166-4b3e-bd55-dfe310ba5616","ios":"levelo://app?vid=d7a84d7b-5166-4b3e-bd55-dfe310ba5616"},"vehicle_type_id":"4","last_reported":1743585027,"current_range_meters":6400,"station_id":"ce4bh492rcd13ifvqdug","pricing_plan_id":"cebpf4jnsgd1na2vs0mg"},{"bike_id":"cc99df52-116b-4cd0-97e7-db87c9113250","system_id":"levelo_inurba_marseille","lat":43.33596,"lon":5.40981,"is_reserved":false,"is_disabled":false,"rental_uris":{"android":"levelo://app?vid=cc99df52-116b-4cd0-97e7-db87c9113250","ios":"levelo://app?vid=cc99df52-116b-4cd0-97e7-db87c9113250"},"vehicle_type_id":"4","last_reported":1743585027,"current_range_meters":6800,"station_id":"ce4bhqh2rcd13ifvqhmg","pricing_plan_id":"cebpf4jnsgd1na2vs0mg"},{"bike_id":"57e5d2a3-f06f-4f04-be6a-d1526b770ad7","system_id":"levelo_inurba_marseille","lat":43.26683,"lon":5.38269,"is_reserved":false,"is_disabled":false,"rental_uris":{"android":"levelo://app?vid=57e5d2a3-f06f-4f04-be6a-d1526b770ad7","ios":"levelo://app?vid=57e5d2a3-f06f-4f04-be6a-d1526b770ad7"},"vehicle_type_id":"4","last_reported":1743585027,"current_range_meters":6800,"station_id":"ce4bhg92rcd13ifvqf90","pricing_plan_id":"cebpf4jnsgd1na2vs0mg"},{"bike_id":"caf01e26-fddb-488e-b1a2-f4dfc8339f9a","system_id":"levelo_inurba_marseille","lat":43.29564,"lon":5.39976,"is_reserved":false,"is_disabled":false,"rental_uris":{"android":"levelo://app?vid=caf01e26-fddb-488e-b1a2-f4dfc8339f9a","ios":"levelo://app?vid=caf01e26-fddb-488e-b1a2-f4dfc8339f9a"},"vehicle_type_id":"4","last_reported":1743585027,"current_range_meters":6800,"station_id":"ce4bh312rcd13ifvqdj0","pricing_plan_id":"cebpf4jnsgd1na2vs0mg"},{"bike_id":"1167d76f-0701-42ca-9566-e6b8288b4501","system_id":"levelo_inurba_marseille","lat":43.2829,"lon":5.37857,"is_reserved":false,"is_disabled":false,"rental_uris":{"android":"levelo://app?vid=1167d76f-0701-42ca-9566-e6b8288b4501","ios":"levelo://app?vid=1167d76f-0701-42ca-9566-e6b8288b4501"},"vehicle_type_id":"4","last_reported":1743585027,"current_range_meters":6800,"station_id":"","pricing_plan_id":"cebpf4jnsgd1na2vs0mg"},{"bike_id":"cf7acf0d-95c6-4e2f-8b0d-38f5547fd6fb","system_id":"levelo_inurba_marseille","lat":43.25718,"lon":5.41119,"is_reserved":false,"is_disabled":false,"rental_uris":{"android":"levelo://app?vid=cf7acf0d-95c6-4e2f-8b0d-38f5547fd6fb","ios":"levelo://app?vid=cf7acf0d-95c6-4e2f-8b0d-38f5547fd6fb"},"vehicle_type_id":"4","last_reported":1743585027,"current_range_meters":6800,"station_id":"ce4bhkp2rcd13ifvqgd0","pricing_plan_id":"cebpf4jnsgd1na2vs0mg"},{"bike_id":"bc2ffde0-2a9a-4657-99ee-4f540f6f2514","system_id":"levelo_inurba_marseille","lat":43.30427,"lon":5.39752,"is_reserved":false,"is_disabled":false,"rental_uris":{"android":"levelo://app?vid=bc2ffde0-2a9a-4657-99ee-4f540f6f2514","ios":"levelo://app?vid=bc2ffde0-2a9a-4657-99ee-4f540f6f2514"},"vehicle_type_id":"4","last_reported":1743585027,"current_range_meters":6800,"station_id":"ce4bh092rcd13ifvqd20","pricing_plan_id":"cebpf4jnsgd1na2vs0mg"},{"bike_id":"5ef6b633-cf2f-42de-995a-43dea0a55a29","system_id":"levelo_inurba_marseille","lat":43.32117,"lon":5.36817,"is_reserved":false,"is_disabled":false,"rental_uris":{"android":"levelo://app?vid=5ef6b633-cf2f-42de-995a-43dea0a55a29","ios":"levelo://app?vid=5ef6b633-cf2f-42de-995a-43dea0a55a29"},"vehicle_type_id":"4","last_reported":1743585027,"current_range_meters":6800,"station_id":"","pricing_plan_id":"cebpf4jnsgd1na2vs0mg"},{"bike_id":"95ff45c5-0cac-4a4b-b7fb-1127071af21d","system_id":"levelo_inurba_marseille","lat":43.29267,"lon":5.37629,"is_reserved":false,"is_disabled":false,"rental_uris":{"android":"levelo://app?vid=95ff45c5-0cac-4a4b-b7fb-1127071af21d","ios":"levelo://app?vid=95ff45c5-0cac-4a4b-b7fb-1127071af21d"},"vehicle_type_id":"4","last_reported":1743585027,"current_range_meters":6800,"station_id":"ce4bgi12rcd13ifvqb80","pricing_plan_id":"cebpf4jnsgd1na2vs0mg"},{"bike_id":"c6c438e8-d3ab-4770-968b-7a1a93e8a8c6","system_id":"levelo_inurba_marseille","lat":43.28897,"lon":5.45878,"is_reserved":false,"is_disabled":false,"rental_uris":{"android":"levelo://app?vid=c6c438e8-d3ab-4770-968b-7a1a93e8a8c6","ios":"levelo://app?vid=c6c438e8-d3ab-4770-968b-7a1a93e8a8c6"},"vehicle_type_id":"4","last_reported":1743585027,"current_range_meters":6800,"station_id":"","pricing_plan_id":"cebpf4jnsgd1na2vs0mg"},{"bike_id":"1106dcfd-3f46-4603-98fb-4efa7f70d512","system_id":"levelo_inurba_marseille","lat":43.25926,"lon":5.40901,"is_reserved":false,"is_disabled":false,"rental_uris":{"android":"levelo://app?vid=1106dcfd-3f46-4603-98fb-4efa7f70d512","ios":"levelo://app?vid=1106dcfd-3f46-4603-98fb-4efa7f70d512"},"vehicle_type_id":"4","last_reported":1743585027,"current_range_meters":7200,"station_id":"ce4bhm92rcd13ifvqglg","pricing_plan_id":"cebpf4jnsgd1na2vs0mg"},{"bike_id":"cc75cbb7-4aab-480c-aa50-a37d894ca20e","system_id":"levelo_inurba_marseille","lat":43.246231,"lon":5.425077,"is_reserved":false,"is_disabled":false,"rental_uris":{"android":"levelo://app?vid=cc75cbb7-4aab-480c-aa50-a37d894ca20e","ios":"levelo://app?vid=cc75cbb7-4aab-480c-aa50-a37d894ca20e"},"vehicle_type_id":"4","last_reported":1743585027,"current_range_meters":7200,"station_id":"ce4bhmp2rcd13ifvqgog","pricing_plan_id":"cebpf4jnsgd1na2vs0mg"},{"bike_id":"721bcc92-6b82-4aac-988d-3c86699ef60a","system_id":"levelo_inurba_marseille","lat":43.27836,"lon":5.39204,"is_reserved":false,"is_disabled":true,"rental_uris":{"android":"levelo://app?vid=721bcc92-6b82-4aac-988d-3c86699ef60a","ios":"levelo://app?vid=721bcc92-6b82-4aac-988d-3c86699ef60a"},"vehicle_type_id":"4","last_reported":1743585027,"current_range_meters":7200,"station_id":"ce4bhjp2rcd13ifvqga0","pricing_plan_id":"cebpf4jnsgd1na2vs0mg"},{"bike_id":"5332b3c9-09f0-431c-bf47-b43be41b6780","system_id":"levelo_inurba_marseille","lat":43.25925,"lon":5.40913,"is_reserved":false,"is_disabled":false,"rental_uris":{"android":"levelo://app?vid=5332b3c9-09f0-431c-bf47-b43be41b6780","ios":"levelo://app?vid=5332b3c9-09f0-431c-bf47-b43be41b6780"},"vehicle_type_id":"4","last_reported":1743585027,"current_range_meters":7200,"station_id":"ce4bhm92rcd13ifvqglg","pricing_plan_id":"cebpf4jnsgd1na2vs0mg"},{"bike_id":"5ce42dbd-9f4f-439b-aba3-4b1abd8ce416","system_id":"levelo_inurba_marseille","lat":43.30293,"lon":5.36904,"is_reserved":false,"is_disabled":false,"rental_uris":{"android":"levelo://app?vid=5ce42dbd-9f4f-439b-aba3-4b1abd8ce416","ios":"levelo://app?vid=5ce42dbd-9f4f-439b-aba3-4b1abd8ce416"},"vehicle_type_id":"4","last_reported":1743585027,"current_range_meters":7200,"station_id":"ce4bgqh2rcd13ifvqc5g","pricing_plan_id":"cebpf4jnsgd1na2vs0mg"},{"bike_id":"30f9e2f9-f210-4dc4-b76a-42171b12ed7b","system_id":"levelo_inurba_marseille","lat":43.23169,"lon":5.43708,"is_reserved":false,"is_disabled":false,"rental_uris":{"android":"levelo://app?vid=30f9e2f9-f210-4dc4-b76a-42171b12ed7b","ios":"levelo://app?vid=30f9e2f9-f210-4dc4-b76a-42171b12ed7b"},"vehicle_type_id":"4","last_reported":1743585027,"current_range_meters":7200,"station_id":"ce4bhmp2rcd13ifvqgog","pricing_plan_id":"cebpf4jnsgd1na2vs0mg"},{"bike_id":"66a6759f-f104-404f-ba35-7dd5d87e6d0b","system_id":"levelo_inurba_marseille","lat":43.3014,"lon":5.37663,"is_reserved":false,"is_disabled":false,"rental_uris":{"android":"levelo://app?vid=66a6759f-f104-404f-ba35-7dd5d87e6d0b","ios":"levelo://app?vid=66a6759f-f104-404f-ba35-7dd5d87e6d0b"},"vehicle_type_id":"4","last_reported":1743585027,"current_range_meters":7200,"station_id":"","pricing_plan_id":"cebpf4jnsgd1na2vs0mg"},{"bike_id":"81668400-1ec2-432d-ae79-10c7492142a7","system_id":"levelo_inurba_marseille","lat":43.28941,"lon":5.3661,"is_reserved":false,"is_disabled":false,"rental_uris":{"android":"levelo://app?vid=81668400-1ec2-432d-ae79-10c7492142a7","ios":"levelo://app?vid=81668400-1ec2-432d-ae79-10c7492142a7"},"vehicle_type_id":"4","last_reported":1743585027,"current_range_meters":8000,"station_id":"ce4bhap2rcd13ifvqek0","pricing_plan_id":"cebpf4jnsgd1na2vs0mg"},{"bike_id":"8fc41098-0357-4caa-8be1-07a2db9f4273","system_id":"levelo_inurba_marseille","lat":43.304688,"lon":5.379099,"is_reserved":false,"is_disabled":false,"rental_uris":{"android":"levelo://app?vid=8fc41098-0357-4caa-8be1-07a2db9f4273","ios":"levelo://app?vid=8fc41098-0357-4caa-8be1-07a2db9f4273"},"vehicle_type_id":"4","last_reported":1743585027,"current_range_meters":8000,"station_id":"ce4bgup2rcd13ifvqcn0","pricing_plan_id":"cebpf4jnsgd1na2vs0mg"},{"bike_id":"86357635-2ce8-401c-8e2f-b72a21777653","system_id":"levelo_inurba_marseille","lat":43.25926,"lon":5.40911,"is_reserved":false,"is_disabled":false,"rental_uris":{"android":"levelo://app?vid=86357635-2ce8-401c-8e2f-b72a21777653","ios":"levelo://app?vid=86357635-2ce8-401c-8e2f-b72a21777653"},"vehicle_type_id":"4","last_reported":1743585027,"current_range_meters":8000,"station_id":"ce4bhm92rcd13ifvqglg","pricing_plan_id":"cebpf4jnsgd1na2vs0mg"},{"bike_id":"4f1fb305-fdac-49af-98f8-e5ebaa4429a4","system_id":"levelo_inurba_marseille","lat":43.24077,"lon":5.37759,"is_reserved":false,"is_disabled":false,"rental_uris":{"android":"levelo://app?vid=4f1fb305-fdac-49af-98f8-e5ebaa4429a4","ios":"levelo://app?vid=4f1fb305-fdac-49af-98f8-e5ebaa4429a4"},"vehicle_type_id":"4","last_reported":1743585027,"current_range_meters":8000,"station_id":"","pricing_plan_id":"cebpf4jnsgd1na2vs0mg"},{"bike_id":"a495ab47-72d1-4f9e-8b95-72d772792f33","system_id":"levelo_inurba_marseille","lat":43.30388,"lon":5.3688,"is_reserved":false,"is_disabled":false,"rental_uris":{"android":"levelo://app?vid=a495ab47-72d1-4f9e-8b95-72d772792f33","ios":"levelo://app?vid=a495ab47-72d1-4f9e-8b95-72d772792f33"},"vehicle_type_id":"4","last_reported":1743585027,"current_range_meters":8000,"station_id":"","pricing_plan_id":"cebpf4jnsgd1na2vs0mg"},{"bike_id":"e47bc61d-df2d-41b3-b26b-dd94e6e5e301","system_id":"levelo_inurba_marseille","lat":43.26254,"lon":5.42125,"is_reserved":false,"is_disabled":false,"rental_uris":{"android":"levelo://app?vid=e47bc61d-df2d-41b3-b26b-dd94e6e5e301","ios":"levelo://app?vid=e47bc61d-df2d-41b3-b26b-dd94e6e5e301"},"vehicle_type_id":"4","last_reported":1743585027,"current_range_meters":8000,"station_id":"","pricing_plan_id":"cebpf4jnsgd1na2vs0mg"},{"bike_id":"7bdf0d60-3026-4723-ac07-ebb25b9cf79f","system_id":"levelo_inurba_marseille","lat":43.28744,"lon":5.38727,"is_reserved":false,"is_disabled":false,"rental_uris":{"android":"levelo://app?vid=7bdf0d60-3026-4723-ac07-ebb25b9cf79f","ios":"levelo://app?vid=7bdf0d60-3026-4723-ac07-ebb25b9cf79f"},"vehicle_type_id":"4","last_reported":1743585027,"current_range_meters":8000,"station_id":"","pricing_plan_id":"cebpf4jnsgd1na2vs0mg"},{"bike_id":"1d1fcf5b-c1ba-42a5-a64a-efa6d25fc73d","system_id":"levelo_inurba_marseille","lat":43.23151,"lon":5.43713,"is_reserved":false,"is_disabled":false,"rental_uris":{"android":"levelo://app?vid=1d1fcf5b-c1ba-42a5-a64a-efa6d25fc73d","ios":"levelo://app?vid=1d1fcf5b-c1ba-42a5-a64a-efa6d25fc73d"},"vehicle_type_id":"4","last_reported":1743585027,"current_range_meters":8000,"station_id":"ce4bhmp2rcd13ifvqgog","pricing_plan_id":"cebpf4jnsgd1na2vs0mg"},{"bike_id":"3e6243d1-ba41-49a7-8891-b09296288717","system_id":"levelo_inurba_marseille","lat":43.24164,"lon":5.39654,"is_reserved":false,"is_disabled":false,"rental_uris":{"android":"levelo://app?vid=3e6243d1-ba41-49a7-8891-b09296288717","ios":"levelo://app?vid=3e6243d1-ba41-49a7-8891-b09296288717"},"vehicle_type_id":"4","last_reported":1743585027,"current_range_meters":8000,"station_id":"ce4bhn12rcd13ifvqgpg","pricing_plan_id":"cebpf4jnsgd1na2vs0mg"},{"bike_id":"312ed70b-1ac3-481a-88c0-b0159fcd0caf","system_id":"levelo_inurba_marseille","lat":43.23156,"lon":5.43712,"is_reserved":false,"is_disabled":false,"rental_uris":{"android":"levelo://app?vid=312ed70b-1ac3-481a-88c0-b0159fcd0caf","ios":"levelo://app?vid=312ed70b-1ac3-481a-88c0-b0159fcd0caf"},"vehicle_type_id":"4","last_reported":1743585027,"current_range_meters":8000,"station_id":"ce4bhmp2rcd13ifvqgog","pricing_plan_id":"cebpf4jnsgd1na2vs0mg"},{"bike_id":"93eb57be-6e76-46e4-a5ce-bf21001073ab","system_id":"levelo_inurba_marseille","lat":43.23154,"lon":5.43712,"is_reserved":false,"is_disabled":false,"rental_uris":{"android":"levelo://app?vid=93eb57be-6e76-46e4-a5ce-bf21001073ab","ios":"levelo://app?vid=93eb57be-6e76-46e4-a5ce-bf21001073ab"},"vehicle_type_id":"4","last_reported":1743585027,"current_range_meters":8400,"station_id":"ce4bhmp2rcd13ifvqgog","pricing_plan_id":"cebpf4jnsgd1na2vs0mg"},{"bike_id":"503d0e83-2014-4832-b89c-4d739861b05a","system_id":"levelo_inurba_marseille","lat":43.24069,"lon":5.37753,"is_reserved":false,"is_disabled":false,"rental_uris":{"android":"levelo://app?vid=503d0e83-2014-4832-b89c-4d739861b05a","ios":"levelo://app?vid=503d0e83-2014-4832-b89c-4d739861b05a"},"vehicle_type_id":"4","last_reported":1743585027,"current_range_meters":8400,"station_id":"ce4bhnp2rcd13ifvqgvg","pricing_plan_id":"cebpf4jnsgd1na2vs0mg"},{"bike_id":"89fe8972-dd2c-4d8c-9269-bdb5c639386f","system_id":"levelo_inurba_marseille","lat":43.27802,"lon":5.40663,"is_reserved":false,"is_disabled":false,"rental_uris":{"android":"levelo://app?vid=89fe8972-dd2c-4d8c-9269-bdb5c639386f","ios":"levelo://app?vid=89fe8972-dd2c-4d8c-9269-bdb5c639386f"},"vehicle_type_id":"4","last_reported":1743585027,"current_range_meters":8400,"station_id":"ce4bhnh2rcd13ifvqgtg","pricing_plan_id":"cebpf4jnsgd1na2vs0mg"},{"bike_id":"1eb0279b-3873-42b8-8895-61dd8b5fee1f","system_id":"levelo_inurba_marseille","lat":43.29915,"lon":5.37472,"is_reserved":false,"is_disabled":false,"rental_uris":{"android":"levelo://app?vid=1eb0279b-3873-42b8-8895-61dd8b5fee1f","ios":"levelo://app?vid=1eb0279b-3873-42b8-8895-61dd8b5fee1f"},"vehicle_type_id":"4","last_reported":1743585027,"current_range_meters":8400,"station_id":"ce4bgjh2rcd13ifvqbg0","pricing_plan_id":"cebpf4jnsgd1na2vs0mg"},{"bike_id":"3e5329f3-c0cd-422c-afb1-2f46242590da","system_id":"levelo_inurba_marseille","lat":43.31925,"lon":5.37556,"is_reserved":false,"is_disabled":false,"rental_uris":{"android":"levelo://app?vid=3e5329f3-c0cd-422c-afb1-2f46242590da","ios":"levelo://app?vid=3e5329f3-c0cd-422c-afb1-2f46242590da"},"vehicle_type_id":"4","last_reported":1743585027,"current_range_meters":8400,"station_id":"","pricing_plan_id":"cebpf4jnsgd1na2vs0mg"},{"bike_id":"a4727ece-10ee-4c54-bc34-6261b827b325","system_id":"levelo_inurba_marseille","lat":43.31504,"lon":5.37294,"is_reserved":false,"is_disabled":false,"rental_uris":{"android":"levelo://app?vid=a4727ece-10ee-4c54-bc34-6261b827b325","ios":"levelo://app?vid=a4727ece-10ee-4c54-bc34-6261b827b325"},"vehicle_type_id":"4","last_reported":1743585027,"current_range_meters":8400,"station_id":"ce4bgt12rcd13ifvqcd0","pricing_plan_id":"cebpf4jnsgd1na2vs0mg"},{"bike_id":"c3d999ae-956c-4221-9322-9277297a3004","system_id":"levelo_inurba_marseille","lat":43.30215,"lon":5.39477,"is_reserved":false,"is_disabled":false,"rental_uris":{"android":"levelo://app?vid=c3d999ae-956c-4221-9322-9277297a3004","ios":"levelo://app?vid=c3d999ae-956c-4221-9322-9277297a3004"},"vehicle_type_id":"4","last_reported":1743585027,"current_range_meters":8400,"station_id":"ce4bh0p2rcd13ifvqd70","pricing_plan_id":"cebpf4jnsgd1na2vs0mg"},{"bike_id":"eb792a86-5b76-49f9-bb27-4124da87820a","system_id":"levelo_inurba_marseille","lat":43.29898,"lon":5.39757,"is_reserved":false,"is_disabled":false,"rental_uris":{"android":"levelo://app?vid=eb792a86-5b76-49f9-bb27-4124da87820a","ios":"levelo://app?vid=eb792a86-5b76-49f9-bb27-4124da87820a"},"vehicle_type_id":"4","last_reported":1743585027,"current_range_meters":8400,"station_id":"ce4bh0h2rcd13ifvqd50","pricing_plan_id":"cebpf4jnsgd1na2vs0mg"},{"bike_id":"515eaab7-2244-45c1-80ac-64a7262e50ae","system_id":"levelo_inurba_marseille","lat":43.27945,"lon":5.41034,"is_reserved":false,"is_disabled":false,"rental_uris":{"android":"levelo://app?vid=515eaab7-2244-45c1-80ac-64a7262e50ae","ios":"levelo://app?vid=515eaab7-2244-45c1-80ac-64a7262e50ae"},"vehicle_type_id":"4","last_reported":1743585027,"current_range_meters":8400,"station_id":"ce4bhnp2rcd13ifvqh0g","pricing_plan_id":"cebpf4jnsgd1na2vs0mg"},{"bike_id":"27773214-4312-4127-aa54-e74cba3d6d07","system_id":"levelo_inurba_marseille","lat":43.27863,"lon":5.40884,"is_reserved":false,"is_disabled":false,"rental_uris":{"android":"levelo://app?vid=27773214-4312-4127-aa54-e74cba3d6d07","ios":"levelo://app?vid=27773214-4312-4127-aa54-e74cba3d6d07"},"vehicle_type_id":"4","last_reported":1743585027,"current_range_meters":8400,"station_id":"","pricing_plan_id":"cebpf4jnsgd1na2vs0mg"},{"bike_id":"23d0da24-4ddc-40f1-be6e-557cfd7a4740","system_id":"levelo_inurba_marseille","lat":43.31258,"lon":5.36862,"is_reserved":false,"is_disabled":false,"rental_uris":{"android":"levelo://app?vid=23d0da24-4ddc-40f1-be6e-557cfd7a4740","ios":"levelo://app?vid=23d0da24-4ddc-40f1-be6e-557cfd7a4740"},"vehicle_type_id":"4","last_reported":1743585027,"current_range_meters":8000,"station_id":"ce4bgl92rcd13ifvqbq0","pricing_plan_id":"cebpf4jnsgd1na2vs0mg"},{"bike_id":"4226cd08-239f-4562-874f-2205ae63af3c","system_id":"levelo_inurba_marseille","lat":43.297972,"lon":5.380946,"is_reserved":false,"is_disabled":false,"rental_uris":{"android":"levelo://app?vid=4226cd08-239f-4562-874f-2205ae63af3c","ios":"levelo://app?vid=4226cd08-239f-4562-874f-2205ae63af3c"},"vehicle_type_id":"4","last_reported":1743585027,"current_range_meters":8800,"station_id":"ce4bgip2rcd13ifvqbb0","pricing_plan_id":"cebpf4jnsgd1na2vs0mg"},{"bike_id":"60129d40-45b0-48c5-8fe5-8766c358d773","system_id":"levelo_inurba_marseille","lat":43.25096,"lon":5.39527,"is_reserved":false,"is_disabled":false,"rental_uris":{"android":"levelo://app?vid=60129d40-45b0-48c5-8fe5-8766c358d773","ios":"levelo://app?vid=60129d40-45b0-48c5-8fe5-8766c358d773"},"vehicle_type_id":"4","last_reported":1743585027,"current_range_meters":8800,"station_id":"ce4bhm12rcd13ifvqgkg","pricing_plan_id":"cebpf4jnsgd1na2vs0mg"},{"bike_id":"dd57aabe-70ab-468e-b57c-859ef160a8e2","system_id":"levelo_inurba_marseille","lat":43.25921,"lon":5.40878,"is_reserved":false,"is_disabled":false,"rental_uris":{"android":"levelo://app?vid=dd57aabe-70ab-468e-b57c-859ef160a8e2","ios":"levelo://app?vid=dd57aabe-70ab-468e-b57c-859ef160a8e2"},"vehicle_type_id":"4","last_reported":1743585027,"current_range_meters":8800,"station_id":"ce4bhm92rcd13ifvqglg","pricing_plan_id":"cebpf4jnsgd1na2vs0mg"},{"bike_id":"44ae5a48-6ab0-424d-b54f-7271cb338e96","system_id":"levelo_inurba_marseille","lat":43.27964,"lon":5.38693,"is_reserved":false,"is_disabled":false,"rental_uris":{"android":"levelo://app?vid=44ae5a48-6ab0-424d-b54f-7271cb338e96","ios":"levelo://app?vid=44ae5a48-6ab0-424d-b54f-7271cb338e96"},"vehicle_type_id":"4","last_reported":1743585027,"current_range_meters":8800,"station_id":"ce4bhg12rcd13ifvqf80","pricing_plan_id":"cebpf4jnsgd1na2vs0mg"},{"bike_id":"93b4ea4d-17b2-48f1-97dd-cca94d779b64","system_id":"levelo_inurba_marseille","lat":43.29647,"lon":5.40598,"is_reserved":false,"is_disabled":false,"rental_uris":{"android":"levelo://app?vid=93b4ea4d-17b2-48f1-97dd-cca94d779b64","ios":"levelo://app?vid=93b4ea4d-17b2-48f1-97dd-cca94d779b64"},"vehicle_type_id":"4","last_reported":1743585027,"current_range_meters":8400,"station_id":"ce4bh0h2rcd13ifvqd60","pricing_plan_id":"cebpf4jnsgd1na2vs0mg"},{"bike_id":"a3305333-c78a-4d3c-bdfb-463ffb01e5ec","system_id":"levelo_inurba_marseille","lat":43.27934,"lon":5.41042,"is_reserved":false,"is_disabled":false,"rental_uris":{"android":"levelo://app?vid=a3305333-c78a-4d3c-bdfb-463ffb01e5ec","ios":"levelo://app?vid=a3305333-c78a-4d3c-bdfb-463ffb01e5ec"},"vehicle_type_id":"4","last_reported":1743585027,"current_range_meters":8800,"station_id":"ce4bhnp2rcd13ifvqh0g","pricing_plan_id":"cebpf4jnsgd1na2vs0mg"},{"bike_id":"3ba6ccff-1eda-46d4-acbd-01dbdd65bb76","system_id":"levelo_inurba_marseille","lat":43.29887,"lon":5.43676,"is_reserved":false,"is_disabled":false,"rental_uris":{"android":"levelo://app?vid=3ba6ccff-1eda-46d4-acbd-01dbdd65bb76","ios":"levelo://app?vid=3ba6ccff-1eda-46d4-acbd-01dbdd65bb76"},"vehicle_type_id":"4","last_reported":1743585027,"current_range_meters":8800,"station_id":"ce4bhpp2rcd13ifvqhfg","pricing_plan_id":"cebpf4jnsgd1na2vs0mg"},{"bike_id":"bebeb3ed-ad16-4f23-8a95-f94fc6e8f2a1","system_id":"levelo_inurba_marseille","lat":43.29276,"lon":5.36839,"is_reserved":false,"is_disabled":false,"rental_uris":{"android":"levelo://app?vid=bebeb3ed-ad16-4f23-8a95-f94fc6e8f2a1","ios":"levelo://app?vid=bebeb3ed-ad16-4f23-8a95-f94fc6e8f2a1"},"vehicle_type_id":"4","last_reported":1743585027,"current_range_meters":9200,"station_id":"ce4bhbp2rcd13ifvqesg","pricing_plan_id":"cebpf4jnsgd1na2vs0mg"},{"bike_id":"386db587-117f-412a-9a63-c2aecd37f28f","system_id":"levelo_inurba_marseille","lat":43.31687,"lon":5.40478,"is_reserved":false,"is_disabled":false,"rental_uris":{"android":"levelo://app?vid=386db587-117f-412a-9a63-c2aecd37f28f","ios":"levelo://app?vid=386db587-117f-412a-9a63-c2aecd37f28f"},"vehicle_type_id":"4","last_reported":1743585027,"current_range_meters":9200,"station_id":"ce4bh012rcd13ifvqd00","pricing_plan_id":"cebpf4jnsgd1na2vs0mg"},{"bike_id":"f6c9313e-21e7-4f1e-89d6-777b5969cdfb","system_id":"levelo_inurba_marseille","lat":43.25941,"lon":5.40908,"is_reserved":false,"is_disabled":false,"rental_uris":{"android":"levelo://app?vid=f6c9313e-21e7-4f1e-89d6-777b5969cdfb","ios":"levelo://app?vid=f6c9313e-21e7-4f1e-89d6-777b5969cdfb"},"vehicle_type_id":"4","last_reported":1743585027,"current_range_meters":9200,"station_id":"ce4bhm92rcd13ifvqglg","pricing_plan_id":"cebpf4jnsgd1na2vs0mg"},{"bike_id":"2d0f009a-4cec-4e7e-a08a-d4fe6678642a","system_id":"levelo_inurba_marseille","lat":43.24175,"lon":5.39702,"is_reserved":false,"is_disabled":false,"rental_uris":{"android":"levelo://app?vid=2d0f009a-4cec-4e7e-a08a-d4fe6678642a","ios":"levelo://app?vid=2d0f009a-4cec-4e7e-a08a-d4fe6678642a"},"vehicle_type_id":"4","last_reported":1743585027,"current_range_meters":9200,"station_id":"ce4bhn12rcd13ifvqgpg","pricing_plan_id":"cebpf4jnsgd1na2vs0mg"},{"bike_id":"86dd6a48-678d-493e-81e0-fcdcc70febc0","system_id":"levelo_inurba_marseille","lat":43.24393,"lon":5.37058,"is_reserved":false,"is_disabled":false,"rental_uris":{"android":"levelo://app?vid=86dd6a48-678d-493e-81e0-fcdcc70febc0","ios":"levelo://app?vid=86dd6a48-678d-493e-81e0-fcdcc70febc0"},"vehicle_type_id":"4","last_reported":1743585027,"current_range_meters":9200,"station_id":"ce4bhhh2rcd13ifvqfk0","pricing_plan_id":"cebpf4jnsgd1na2vs0mg"},{"bike_id":"ed8d89e7-e3de-43f2-bdb2-22c10a2aaa8b","system_id":"levelo_inurba_marseille","lat":43.33601,"lon":5.41002,"is_reserved":false,"is_disabled":false,"rental_uris":{"android":"levelo://app?vid=ed8d89e7-e3de-43f2-bdb2-22c10a2aaa8b","ios":"levelo://app?vid=ed8d89e7-e3de-43f2-bdb2-22c10a2aaa8b"},"vehicle_type_id":"4","last_reported":1743585027,"current_range_meters":9200,"station_id":"ce4bhqh2rcd13ifvqhmg","pricing_plan_id":"cebpf4jnsgd1na2vs0mg"},{"bike_id":"c4596172-3277-4f4c-87de-01863585e42f","system_id":"levelo_inurba_marseille","lat":43.29917,"lon":5.37474,"is_reserved":false,"is_disabled":false,"rental_uris":{"android":"levelo://app?vid=c4596172-3277-4f4c-87de-01863585e42f","ios":"levelo://app?vid=c4596172-3277-4f4c-87de-01863585e42f"},"vehicle_type_id":"4","last_reported":1743585027,"current_range_meters":9200,"station_id":"ce4bgjh2rcd13ifvqbg0","pricing_plan_id":"cebpf4jnsgd1na2vs0mg"},{"bike_id":"16c82eca-3981-400e-991f-2adb3a8e456e","system_id":"levelo_inurba_marseille","lat":43.30543,"lon":5.36725,"is_reserved":false,"is_disabled":false,"rental_uris":{"android":"levelo://app?vid=16c82eca-3981-400e-991f-2adb3a8e456e","ios":"levelo://app?vid=16c82eca-3981-400e-991f-2adb3a8e456e"},"vehicle_type_id":"4","last_reported":1743585027,"current_range_meters":9600,"station_id":"ce4bgrp2rcd13ifvqc9g","pricing_plan_id":"cebpf4jnsgd1na2vs0mg"},{"bike_id":"c858b4f7-d3eb-42b8-b52f-557363f81fe0","system_id":"levelo_inurba_marseille","lat":43.30124,"lon":5.37436,"is_reserved":false,"is_disabled":false,"rental_uris":{"android":"levelo://app?vid=c858b4f7-d3eb-42b8-b52f-557363f81fe0","ios":"levelo://app?vid=c858b4f7-d3eb-42b8-b52f-557363f81fe0"},"vehicle_type_id":"4","last_reported":1743585027,"current_range_meters":9600,"station_id":"ce4bgs92rcd13ifvqcc0","pricing_plan_id":"cebpf4jnsgd1na2vs0mg"},{"bike_id":"e3d01a26-5542-45dc-8373-1b19a6bf2880","system_id":"levelo_inurba_marseille","lat":43.23159,"lon":5.43694,"is_reserved":false,"is_disabled":true,"rental_uris":{"android":"levelo://app?vid=e3d01a26-5542-45dc-8373-1b19a6bf2880","ios":"levelo://app?vid=e3d01a26-5542-45dc-8373-1b19a6bf2880"},"vehicle_type_id":"4","last_reported":1743585027,"current_range_meters":9600,"station_id":"ce4bhmp2rcd13ifvqgog","pricing_plan_id":"cebpf4jnsgd1na2vs0mg"},{"bike_id":"64b138f8-a6bf-42cb-9219-bf3992bc0927","system_id":"levelo_inurba_marseille","lat":43.33615,"lon":5.41039,"is_reserved":false,"is_disabled":false,"rental_uris":{"android":"levelo://app?vid=64b138f8-a6bf-42cb-9219-bf3992bc0927","ios":"levelo://app?vid=64b138f8-a6bf-42cb-9219-bf3992bc0927"},"vehicle_type_id":"4","last_reported":1743585027,"current_range_meters":9600,"station_id":"ce4bhqh2rcd13ifvqhmg","pricing_plan_id":"cebpf4jnsgd1na2vs0mg"},{"bike_id":"d0c9ce5f-6423-444f-bb05-192fa545b089","system_id":"levelo_inurba_marseille","lat":43.30967,"lon":5.3906,"is_reserved":false,"is_disabled":false,"rental_uris":{"android":"levelo://app?vid=d0c9ce5f-6423-444f-bb05-192fa545b089","ios":"levelo://app?vid=d0c9ce5f-6423-444f-bb05-192fa545b089"},"vehicle_type_id":"4","last_reported":1743585027,"current_range_meters":9600,"station_id":"ce4bgup2rcd13ifvqco0","pricing_plan_id":"cebpf4jnsgd1na2vs0mg"},{"bike_id":"3e95f7b4-8ed3-4161-b153-29f4097a239a","system_id":"levelo_inurba_marseille","lat":43.31253,"lon":5.36886,"is_reserved":false,"is_disabled":false,"rental_uris":{"android":"levelo://app?vid=3e95f7b4-8ed3-4161-b153-29f4097a239a","ios":"levelo://app?vid=3e95f7b4-8ed3-4161-b153-29f4097a239a"},"vehicle_type_id":"4","last_reported":1743585027,"current_range_meters":9600,"station_id":"ce4bgl92rcd13ifvqbq0","pricing_plan_id":"cebpf4jnsgd1na2vs0mg"},{"bike_id":"ffc53036-d059-4465-b88a-5b4b3e7aeb5e","system_id":"levelo_inurba_marseille","lat":43.22935,"lon":5.35379,"is_reserved":false,"is_disabled":false,"rental_uris":{"android":"levelo://app?vid=ffc53036-d059-4465-b88a-5b4b3e7aeb5e","ios":"levelo://app?vid=ffc53036-d059-4465-b88a-5b4b3e7aeb5e"},"vehicle_type_id":"4","last_reported":1743585027,"current_range_meters":9600,"station_id":"cpo3532slgdg3j2ikp40","pricing_plan_id":"cebpf4jnsgd1na2vs0mg"},{"bike_id":"7c4b729b-493d-4124-a3b7-48e6a1dd210e","system_id":"levelo_inurba_marseille","lat":43.27683,"lon":5.38909,"is_reserved":false,"is_disabled":false,"rental_uris":{"android":"levelo://app?vid=7c4b729b-493d-4124-a3b7-48e6a1dd210e","ios":"levelo://app?vid=7c4b729b-493d-4124-a3b7-48e6a1dd210e"},"vehicle_type_id":"4","last_reported":1743585027,"current_range_meters":9600,"station_id":"ce4bhi12rcd13ifvqfo0","pricing_plan_id":"cebpf4jnsgd1na2vs0mg"},{"bike_id":"af115b72-0275-43b9-b359-e3cd94c73b2a","system_id":"levelo_inurba_marseille","lat":43.29529,"lon":5.38555,"is_reserved":false,"is_disabled":false,"rental_uris":{"android":"levelo://app?vid=af115b72-0275-43b9-b359-e3cd94c73b2a","ios":"levelo://app?vid=af115b72-0275-43b9-b359-e3cd94c73b2a"},"vehicle_type_id":"4","last_reported":1743585027,"current_range_meters":9600,"station_id":"ce4bgih2rcd13ifvqba0","pricing_plan_id":"cebpf4jnsgd1na2vs0mg"},{"bike_id":"5e230549-71ee-474a-9b72-6ccb7e0d1d39","system_id":"levelo_inurba_marseille","lat":43.26505,"lon":5.39546,"is_reserved":false,"is_disabled":false,"rental_uris":{"android":"levelo://app?vid=5e230549-71ee-474a-9b72-6ccb7e0d1d39","ios":"levelo://app?vid=5e230549-71ee-474a-9b72-6ccb7e0d1d39"},"vehicle_type_id":"4","last_reported":1743585027,"current_range_meters":9600,"station_id":"ce4bhi12rcd13ifvqfq0","pricing_plan_id":"cebpf4jnsgd1na2vs0mg"},{"bike_id":"18646ae7-df2d-4a8c-a77d-6023c8ec24f5","system_id":"levelo_inurba_marseille","lat":43.29415,"lon":5.38621,"is_reserved":false,"is_disabled":false,"rental_uris":{"android":"levelo://app?vid=18646ae7-df2d-4a8c-a77d-6023c8ec24f5","ios":"levelo://app?vid=18646ae7-df2d-4a8c-a77d-6023c8ec24f5"},"vehicle_type_id":"4","last_reported":1743585027,"current_range_meters":9600,"station_id":"ce4bh2h2rcd13ifvqdh0","pricing_plan_id":"cebpf4jnsgd1na2vs0mg"},{"bike_id":"51b63f01-47dc-4fb4-8892-e6cba60fe4c6","system_id":"levelo_inurba_marseille","lat":43.29864,"lon":5.39737,"is_reserved":false,"is_disabled":false,"rental_uris":{"android":"levelo://app?vid=51b63f01-47dc-4fb4-8892-e6cba60fe4c6","ios":"levelo://app?vid=51b63f01-47dc-4fb4-8892-e6cba60fe4c6"},"vehicle_type_id":"4","last_reported":1743585027,"current_range_meters":9600,"station_id":"ce4bh0h2rcd13ifvqd50","pricing_plan_id":"cebpf4jnsgd1na2vs0mg"},{"bike_id":"673cd2fb-9a5c-412d-a385-2a1c87de78c8","system_id":"levelo_inurba_marseille","lat":43.28569,"lon":5.3709,"is_reserved":false,"is_disabled":false,"rental_uris":{"android":"levelo://app?vid=673cd2fb-9a5c-412d-a385-2a1c87de78c8","ios":"levelo://app?vid=673cd2fb-9a5c-412d-a385-2a1c87de78c8"},"vehicle_type_id":"4","last_reported":1743585027,"current_range_meters":9600,"station_id":"ce4bht12rcd13ifvqi60","pricing_plan_id":"cebpf4jnsgd1na2vs0mg"},{"bike_id":"5e96d776-0304-4403-a201-13e23ba50f87","system_id":"levelo_inurba_marseille","lat":43.32488,"lon":5.36567,"is_reserved":false,"is_disabled":false,"rental_uris":{"android":"levelo://app?vid=5e96d776-0304-4403-a201-13e23ba50f87","ios":"levelo://app?vid=5e96d776-0304-4403-a201-13e23ba50f87"},"vehicle_type_id":"4","last_reported":1743585027,"current_range_meters":10000,"station_id":"ce4bhs12rcd13ifvqhvg","pricing_plan_id":"cebpf4jnsgd1na2vs0mg"},{"bike_id":"c9b6df3f-92c4-4acd-8a61-30843442f23f","system_id":"levelo_inurba_marseille","lat":43.31079,"lon":5.42436,"is_reserved":false,"is_disabled":false,"rental_uris":{"android":"levelo://app?vid=c9b6df3f-92c4-4acd-8a61-30843442f23f","ios":"levelo://app?vid=c9b6df3f-92c4-4acd-8a61-30843442f23f"},"vehicle_type_id":"4","last_reported":1743585027,"current_range_meters":10000,"station_id":"ce4bhp92rcd13ifvqhag","pricing_plan_id":"cebpf4jnsgd1na2vs0mg"},{"bike_id":"d1b5d6c6-563b-4dc0-99fd-5e93b8acdd06","system_id":"levelo_inurba_marseille","lat":43.23144,"lon":5.43715,"is_reserved":false,"is_disabled":false,"rental_uris":{"android":"levelo://app?vid=d1b5d6c6-563b-4dc0-99fd-5e93b8acdd06","ios":"levelo://app?vid=d1b5d6c6-563b-4dc0-99fd-5e93b8acdd06"},"vehicle_type_id":"4","last_reported":1743585027,"current_range_meters":10000,"station_id":"ce4bhmp2rcd13ifvqgog","pricing_plan_id":"cebpf4jnsgd1na2vs0mg"},{"bike_id":"e0b3b247-4245-433c-8c4a-c90482426297","system_id":"levelo_inurba_marseille","lat":43.26696,"lon":5.38264,"is_reserved":false,"is_disabled":false,"rental_uris":{"android":"levelo://app?vid=e0b3b247-4245-433c-8c4a-c90482426297","ios":"levelo://app?vid=e0b3b247-4245-433c-8c4a-c90482426297"},"vehicle_type_id":"4","last_reported":1743585027,"current_range_meters":10000,"station_id":"ce4bhg92rcd13ifvqf90","pricing_plan_id":"cebpf4jnsgd1na2vs0mg"},{"bike_id":"6e6a66e5-58ca-4db1-9695-b46ed5c28827","system_id":"levelo_inurba_marseille","lat":43.31783,"lon":5.36699,"is_reserved":false,"is_disabled":false,"rental_uris":{"android":"levelo://app?vid=6e6a66e5-58ca-4db1-9695-b46ed5c28827","ios":"levelo://app?vid=6e6a66e5-58ca-4db1-9695-b46ed5c28827"},"vehicle_type_id":"4","last_reported":1743585027,"current_range_meters":10000,"station_id":"","pricing_plan_id":"cebpf4jnsgd1na2vs0mg"},{"bike_id":"5b574416-aaec-4ae8-871a-946b49f16fe0","system_id":"levelo_inurba_marseille","lat":43.28666,"lon":5.38666,"is_reserved":false,"is_disabled":false,"rental_uris":{"android":"levelo://app?vid=5b574416-aaec-4ae8-871a-946b49f16fe0","ios":"levelo://app?vid=5b574416-aaec-4ae8-871a-946b49f16fe0"},"vehicle_type_id":"4","last_reported":1743585027,"current_range_meters":10000,"station_id":"ce4bh492rcd13ifvqdug","pricing_plan_id":"cebpf4jnsgd1na2vs0mg"},{"bike_id":"4c6f4e20-55a2-479e-aa04-dafe8d4965a1","system_id":"levelo_inurba_marseille","lat":43.26062,"lon":5.394004,"is_reserved":false,"is_disabled":false,"rental_uris":{"android":"levelo://app?vid=4c6f4e20-55a2-479e-aa04-dafe8d4965a1","ios":"levelo://app?vid=4c6f4e20-55a2-479e-aa04-dafe8d4965a1"},"vehicle_type_id":"4","last_reported":1743585027,"current_range_meters":10000,"station_id":"ce4bhh92rcd13ifvqfj0","pricing_plan_id":"cebpf4jnsgd1na2vs0mg"},{"bike_id":"154642c7-eb24-41a0-b701-db99f08a17cf","system_id":"levelo_inurba_marseille","lat":43.30218,"lon":5.39465,"is_reserved":false,"is_disabled":true,"rental_uris":{"android":"levelo://app?vid=154642c7-eb24-41a0-b701-db99f08a17cf","ios":"levelo://app?vid=154642c7-eb24-41a0-b701-db99f08a17cf"},"vehicle_type_id":"4","last_reported":1743585027,"current_range_meters":10000,"station_id":"ce4bh0p2rcd13ifvqd70","pricing_plan_id":"cebpf4jnsgd1na2vs0mg"},{"bike_id":"7b869cea-1d61-42d2-b04b-29df5bd7497f","system_id":"levelo_inurba_marseille","lat":43.32123,"lon":5.36794,"is_reserved":false,"is_disabled":false,"rental_uris":{"android":"levelo://app?vid=7b869cea-1d61-42d2-b04b-29df5bd7497f","ios":"levelo://app?vid=7b869cea-1d61-42d2-b04b-29df5bd7497f"},"vehicle_type_id":"4","last_reported":1743585027,"current_range_meters":10800,"station_id":"ce4bhrh2rcd13ifvqhug","pricing_plan_id":"cebpf4jnsgd1na2vs0mg"},{"bike_id":"b80ee275-2592-4659-b2e9-175feb839700","system_id":"levelo_inurba_marseille","lat":43.23202,"lon":5.35546,"is_reserved":false,"is_disabled":false,"rental_uris":{"android":"levelo://app?vid=b80ee275-2592-4659-b2e9-175feb839700","ios":"levelo://app?vid=b80ee275-2592-4659-b2e9-175feb839700"},"vehicle_type_id":"4","last_reported":1743585027,"current_range_meters":10800,"station_id":"ce4bhu92rcd13ifvqi70","pricing_plan_id":"cebpf4jnsgd1na2vs0mg"},{"bike_id":"0a4a1d50-3bfa-4980-b4a2-18dc41214e2b","system_id":"levelo_inurba_marseille","lat":43.30544,"lon":5.36551,"is_reserved":false,"is_disabled":false,"rental_uris":{"android":"levelo://app?vid=0a4a1d50-3bfa-4980-b4a2-18dc41214e2b","ios":"levelo://app?vid=0a4a1d50-3bfa-4980-b4a2-18dc41214e2b"},"vehicle_type_id":"4","last_reported":1743585027,"current_range_meters":10800,"station_id":"ce4bgs12rcd13ifvqcag","pricing_plan_id":"cebpf4jnsgd1na2vs0mg"},{"bike_id":"f55695a6-b65f-4a30-99ab-94b2bfa63268","system_id":"levelo_inurba_marseille","lat":43.23188,"lon":5.35543,"is_reserved":false,"is_disabled":false,"rental_uris":{"android":"levelo://app?vid=f55695a6-b65f-4a30-99ab-94b2bfa63268","ios":"levelo://app?vid=f55695a6-b65f-4a30-99ab-94b2bfa63268"},"vehicle_type_id":"4","last_reported":1743585027,"current_range_meters":10800,"station_id":"ce4bhu92rcd13ifvqi70","pricing_plan_id":"cebpf4jnsgd1na2vs0mg"},{"bike_id":"3c7f7fa8-369b-4f85-862d-4cd6c5af790e","system_id":"levelo_inurba_marseille","lat":43.26951,"lon":5.38641,"is_reserved":false,"is_disabled":false,"rental_uris":{"android":"levelo://app?vid=3c7f7fa8-369b-4f85-862d-4cd6c5af790e","ios":"levelo://app?vid=3c7f7fa8-369b-4f85-862d-4cd6c5af790e"},"vehicle_type_id":"4","last_reported":1743585027,"current_range_meters":10800,"station_id":"ce4bhh92rcd13ifvqfh0","pricing_plan_id":"cebpf4jnsgd1na2vs0mg"},{"bike_id":"a6d25717-0db4-4a18-b77c-e49dc99dee91","system_id":"levelo_inurba_marseille","lat":43.25735,"lon":5.41114,"is_reserved":false,"is_disabled":false,"rental_uris":{"android":"levelo://app?vid=a6d25717-0db4-4a18-b77c-e49dc99dee91","ios":"levelo://app?vid=a6d25717-0db4-4a18-b77c-e49dc99dee91"},"vehicle_type_id":"4","last_reported":1743585027,"current_range_meters":10800,"station_id":"ce4bhkp2rcd13ifvqgd0","pricing_plan_id":"cebpf4jnsgd1na2vs0mg"},{"bike_id":"49428efe-bbd8-4963-9aaf-ed822fd5c61b","system_id":"levelo_inurba_marseille","lat":43.29175,"lon":5.44402,"is_reserved":false,"is_disabled":false,"rental_uris":{"android":"levelo://app?vid=49428efe-bbd8-4963-9aaf-ed822fd5c61b","ios":"levelo://app?vid=49428efe-bbd8-4963-9aaf-ed822fd5c61b"},"vehicle_type_id":"4","last_reported":1743585027,"current_range_meters":10800,"station_id":"","pricing_plan_id":"cebpf4jnsgd1na2vs0mg"},{"bike_id":"8c8c904f-4688-4edc-8d5e-ac5ec4c04aa2","system_id":"levelo_inurba_marseille","lat":43.26029,"lon":5.39428,"is_reserved":false,"is_disabled":true,"rental_uris":{"android":"levelo://app?vid=8c8c904f-4688-4edc-8d5e-ac5ec4c04aa2","ios":"levelo://app?vid=8c8c904f-4688-4edc-8d5e-ac5ec4c04aa2"},"vehicle_type_id":"4","last_reported":1743585027,"current_range_meters":11200,"station_id":"ce4bhh92rcd13ifvqfj0","pricing_plan_id":"cebpf4jnsgd1na2vs0mg"},{"bike_id":"a60c7dd7-415d-4440-8601-1a88083302c0","system_id":"levelo_inurba_marseille","lat":43.25089,"lon":5.39525,"is_reserved":false,"is_disabled":false,"rental_uris":{"android":"levelo://app?vid=a60c7dd7-415d-4440-8601-1a88083302c0","ios":"levelo://app?vid=a60c7dd7-415d-4440-8601-1a88083302c0"},"vehicle_type_id":"4","last_reported":1743585027,"current_range_meters":11200,"station_id":"ce4bhm12rcd13ifvqgkg","pricing_plan_id":"cebpf4jnsgd1na2vs0mg"},{"bike_id":"b62d20f3-28e9-4fcd-8c43-62982677fb19","system_id":"levelo_inurba_marseille","lat":43.258655,"lon":5.398954,"is_reserved":false,"is_disabled":false,"rental_uris":{"android":"levelo://app?vid=b62d20f3-28e9-4fcd-8c43-62982677fb19","ios":"levelo://app?vid=b62d20f3-28e9-4fcd-8c43-62982677fb19"},"vehicle_type_id":"4","last_reported":1743585027,"current_range_meters":11200,"station_id":"ce4bhhp2rcd13ifvqfm0","pricing_plan_id":"cebpf4jnsgd1na2vs0mg"},{"bike_id":"f87e996c-206a-47d9-8697-84a2d463fdc3","system_id":"levelo_inurba_marseille","lat":43.23203,"lon":5.35548,"is_reserved":false,"is_disabled":false,"rental_uris":{"android":"levelo://app?vid=f87e996c-206a-47d9-8697-84a2d463fdc3","ios":"levelo://app?vid=f87e996c-206a-47d9-8697-84a2d463fdc3"},"vehicle_type_id":"4","last_reported":1743585027,"current_range_meters":11200,"station_id":"ce4bhu92rcd13ifvqi70","pricing_plan_id":"cebpf4jnsgd1na2vs0mg"},{"bike_id":"dd3db03f-0f43-4986-9ec8-2a76818fb28c","system_id":"levelo_inurba_marseille","lat":43.23202,"lon":5.35565,"is_reserved":false,"is_disabled":false,"rental_uris":{"android":"levelo://app?vid=dd3db03f-0f43-4986-9ec8-2a76818fb28c","ios":"levelo://app?vid=dd3db03f-0f43-4986-9ec8-2a76818fb28c"},"vehicle_type_id":"4","last_reported":1743585027,"current_range_meters":11200,"station_id":"ce4bhu92rcd13ifvqi70","pricing_plan_id":"cebpf4jnsgd1na2vs0mg"},{"bike_id":"facaca46-7e62-4a2e-ab17-cc09f773590c","system_id":"levelo_inurba_marseille","lat":43.27614,"lon":5.36117,"is_reserved":false,"is_disabled":false,"rental_uris":{"android":"levelo://app?vid=facaca46-7e62-4a2e-ab17-cc09f773590c","ios":"levelo://app?vid=facaca46-7e62-4a2e-ab17-cc09f773590c"},"vehicle_type_id":"4","last_reported":1743585027,"current_range_meters":11600,"station_id":"ce4bgj92rcd13ifvqbe0","pricing_plan_id":"cebpf4jnsgd1na2vs0mg"},{"bike_id":"fc3640cc-9381-4673-beca-985fad96c21c","system_id":"levelo_inurba_marseille","lat":43.3128,"lon":5.36837,"is_reserved":false,"is_disabled":true,"rental_uris":{"android":"levelo://app?vid=fc3640cc-9381-4673-beca-985fad96c21c","ios":"levelo://app?vid=fc3640cc-9381-4673-beca-985fad96c21c"},"vehicle_type_id":"4","last_reported":1743585027,"current_range_meters":11600,"station_id":"ce4bgl92rcd13ifvqbq0","pricing_plan_id":"cebpf4jnsgd1na2vs0mg"},{"bike_id":"e65831ff-1b60-4ddf-944f-57b7316eaf67","system_id":"levelo_inurba_marseille","lat":43.28943,"lon":5.36634,"is_reserved":false,"is_disabled":false,"rental_uris":{"android":"levelo://app?vid=e65831ff-1b60-4ddf-944f-57b7316eaf67","ios":"levelo://app?vid=e65831ff-1b60-4ddf-944f-57b7316eaf67"},"vehicle_type_id":"4","last_reported":1743585027,"current_range_meters":11600,"station_id":"ce4bhap2rcd13ifvqek0","pricing_plan_id":"cebpf4jnsgd1na2vs0mg"},{"bike_id":"d157a8ac-f1ea-480a-a1ee-9ac00962bb01","system_id":"levelo_inurba_marseille","lat":43.29557,"lon":5.42272,"is_reserved":false,"is_disabled":false,"rental_uris":{"android":"levelo://app?vid=d157a8ac-f1ea-480a-a1ee-9ac00962bb01","ios":"levelo://app?vid=d157a8ac-f1ea-480a-a1ee-9ac00962bb01"},"vehicle_type_id":"4","last_reported":1743585027,"current_range_meters":11600,"station_id":"ce4bhph2rcd13ifvqhdg","pricing_plan_id":"cebpf4jnsgd1na2vs0mg"},{"bike_id":"a42e13ed-44d2-4c34-b324-9b63cc2cba60","system_id":"levelo_inurba_marseille","lat":43.23159,"lon":5.43711,"is_reserved":false,"is_disabled":false,"rental_uris":{"android":"levelo://app?vid=a42e13ed-44d2-4c34-b324-9b63cc2cba60","ios":"levelo://app?vid=a42e13ed-44d2-4c34-b324-9b63cc2cba60"},"vehicle_type_id":"4","last_reported":1743585027,"current_range_meters":11600,"station_id":"ce4bhmp2rcd13ifvqgog","pricing_plan_id":"cebpf4jnsgd1na2vs0mg"},{"bike_id":"d1d152b9-8f83-4dfd-819d-90885ae33fbf","system_id":"levelo_inurba_marseille","lat":43.29902,"lon":5.4366,"is_reserved":false,"is_disabled":false,"rental_uris":{"android":"levelo://app?vid=d1d152b9-8f83-4dfd-819d-90885ae33fbf","ios":"levelo://app?vid=d1d152b9-8f83-4dfd-819d-90885ae33fbf"},"vehicle_type_id":"4","last_reported":1743585027,"current_range_meters":11600,"station_id":"ce4bhpp2rcd13ifvqhfg","pricing_plan_id":"cebpf4jnsgd1na2vs0mg"},{"bike_id":"e8db9947-5ac0-4177-8798-1af9cdb816ad","system_id":"levelo_inurba_marseille","lat":43.24175,"lon":5.39735,"is_reserved":false,"is_disabled":false,"rental_uris":{"android":"levelo://app?vid=e8db9947-5ac0-4177-8798-1af9cdb816ad","ios":"levelo://app?vid=e8db9947-5ac0-4177-8798-1af9cdb816ad"},"vehicle_type_id":"4","last_reported":1743585027,"current_range_meters":11600,"station_id":"ce4bhn12rcd13ifvqgpg","pricing_plan_id":"cebpf4jnsgd1na2vs0mg"},{"bike_id":"1e44198f-d445-4475-b105-56494958cb5a","system_id":"levelo_inurba_marseille","lat":43.30537,"lon":5.36696,"is_reserved":false,"is_disabled":false,"rental_uris":{"android":"levelo://app?vid=1e44198f-d445-4475-b105-56494958cb5a","ios":"levelo://app?vid=1e44198f-d445-4475-b105-56494958cb5a"},"vehicle_type_id":"4","last_reported":1743585027,"current_range_meters":11600,"station_id":"ce4bgrp2rcd13ifvqc9g","pricing_plan_id":"cebpf4jnsgd1na2vs0mg"},{"bike_id":"8bc6827b-b28a-40b1-8892-73e8698e4d41","system_id":"levelo_inurba_marseille","lat":43.24171,"lon":5.39732,"is_reserved":false,"is_disabled":false,"rental_uris":{"android":"levelo://app?vid=8bc6827b-b28a-40b1-8892-73e8698e4d41","ios":"levelo://app?vid=8bc6827b-b28a-40b1-8892-73e8698e4d41"},"vehicle_type_id":"4","last_reported":1743585027,"current_range_meters":11600,"station_id":"ce4bhn12rcd13ifvqgpg","pricing_plan_id":"cebpf4jnsgd1na2vs0mg"},{"bike_id":"c94c8cd0-ffca-49ec-b3d7-7976a2a51407","system_id":"levelo_inurba_marseille","lat":43.28273,"lon":5.35072,"is_reserved":false,"is_disabled":false,"rental_uris":{"android":"levelo://app?vid=c94c8cd0-ffca-49ec-b3d7-7976a2a51407","ios":"levelo://app?vid=c94c8cd0-ffca-49ec-b3d7-7976a2a51407"},"vehicle_type_id":"4","last_reported":1743585027,"current_range_meters":11600,"station_id":"ce4bhbp2rcd13ifvqerg","pricing_plan_id":"cebpf4jnsgd1na2vs0mg"},{"bike_id":"75dae32f-059a-4b5b-a5e8-963c6eda2f66","system_id":"levelo_inurba_marseille","lat":43.27543,"lon":5.41008,"is_reserved":false,"is_disabled":false,"rental_uris":{"android":"levelo://app?vid=75dae32f-059a-4b5b-a5e8-963c6eda2f66","ios":"levelo://app?vid=75dae32f-059a-4b5b-a5e8-963c6eda2f66"},"vehicle_type_id":"4","last_reported":1743585027,"current_range_meters":11600,"station_id":"","pricing_plan_id":"cebpf4jnsgd1na2vs0mg"},{"bike_id":"eba8300c-183e-45c9-a7e8-0d76d3582079","system_id":"levelo_inurba_marseille","lat":43.30558,"lon":5.36702,"is_reserved":false,"is_disabled":true,"rental_uris":{"android":"levelo://app?vid=eba8300c-183e-45c9-a7e8-0d76d3582079","ios":"levelo://app?vid=eba8300c-183e-45c9-a7e8-0d76d3582079"},"vehicle_type_id":"4","last_reported":1743585027,"current_range_meters":12000,"station_id":"ce4bgrp2rcd13ifvqc9g","pricing_plan_id":"cebpf4jnsgd1na2vs0mg"},{"bike_id":"2c430292-bb1b-4168-b1f9-f8abf0b8081d","system_id":"levelo_inurba_marseille","lat":43.31251,"lon":5.36839,"is_reserved":false,"is_disabled":false,"rental_uris":{"android":"levelo://app?vid=2c430292-bb1b-4168-b1f9-f8abf0b8081d","ios":"levelo://app?vid=2c430292-bb1b-4168-b1f9-f8abf0b8081d"},"vehicle_type_id":"4","last_reported":1743585027,"current_range_meters":12000,"station_id":"ce4bgl92rcd13ifvqbq0","pricing_plan_id":"cebpf4jnsgd1na2vs0mg"},{"bike_id":"2d48cd09-9ee2-4630-8cab-be4140a04965","system_id":"levelo_inurba_marseille","lat":43.231894,"lon":5.355628,"is_reserved":false,"is_disabled":false,"rental_uris":{"android":"levelo://app?vid=2d48cd09-9ee2-4630-8cab-be4140a04965","ios":"levelo://app?vid=2d48cd09-9ee2-4630-8cab-be4140a04965"},"vehicle_type_id":"4","last_reported":1743585027,"current_range_meters":12000,"station_id":"ce4bhu92rcd13ifvqi70","pricing_plan_id":"cebpf4jnsgd1na2vs0mg"},{"bike_id":"aeb12a17-ec8b-418a-8dbb-c4d1dd0bcf12","system_id":"levelo_inurba_marseille","lat":43.26691,"lon":5.38272,"is_reserved":false,"is_disabled":false,"rental_uris":{"android":"levelo://app?vid=aeb12a17-ec8b-418a-8dbb-c4d1dd0bcf12","ios":"levelo://app?vid=aeb12a17-ec8b-418a-8dbb-c4d1dd0bcf12"},"vehicle_type_id":"4","last_reported":1743585027,"current_range_meters":12000,"station_id":"ce4bhg92rcd13ifvqf90","pricing_plan_id":"cebpf4jnsgd1na2vs0mg"},{"bike_id":"c1e09bd1-135e-46c4-a253-43b9efe61c0f","system_id":"levelo_inurba_marseille","lat":43.30297,"lon":5.36902,"is_reserved":false,"is_disabled":false,"rental_uris":{"android":"levelo://app?vid=c1e09bd1-135e-46c4-a253-43b9efe61c0f","ios":"levelo://app?vid=c1e09bd1-135e-46c4-a253-43b9efe61c0f"},"vehicle_type_id":"4","last_reported":1743585027,"current_range_meters":12000,"station_id":"ce4bgqh2rcd13ifvqc5g","pricing_plan_id":"cebpf4jnsgd1na2vs0mg"},{"bike_id":"62c0d548-413f-4b93-96a4-893583a02f8f","system_id":"levelo_inurba_marseille","lat":43.29622,"lon":5.3717,"is_reserved":false,"is_disabled":false,"rental_uris":{"android":"levelo://app?vid=62c0d548-413f-4b93-96a4-893583a02f8f","ios":"levelo://app?vid=62c0d548-413f-4b93-96a4-893583a02f8f"},"vehicle_type_id":"4","last_reported":1743585027,"current_range_meters":12000,"station_id":"ce4bgnh2rcd13ifvqc0g","pricing_plan_id":"cebpf4jnsgd1na2vs0mg"},{"bike_id":"9736db3a-4471-4edc-8dab-80865d99cf58","system_id":"levelo_inurba_marseille","lat":43.29584,"lon":5.36746,"is_reserved":false,"is_disabled":false,"rental_uris":{"android":"levelo://app?vid=9736db3a-4471-4edc-8dab-80865d99cf58","ios":"levelo://app?vid=9736db3a-4471-4edc-8dab-80865d99cf58"},"vehicle_type_id":"4","last_reported":1743585027,"current_range_meters":12000,"station_id":"ce4bgph2rcd13ifvqc2g","pricing_plan_id":"cebpf4jnsgd1na2vs0mg"},{"bike_id":"51db78ca-4e6c-4d6b-8a72-72189c57d1da","system_id":"levelo_inurba_marseille","lat":43.24179,"lon":5.39738,"is_reserved":false,"is_disabled":false,"rental_uris":{"android":"levelo://app?vid=51db78ca-4e6c-4d6b-8a72-72189c57d1da","ios":"levelo://app?vid=51db78ca-4e6c-4d6b-8a72-72189c57d1da"},"vehicle_type_id":"4","last_reported":1743585027,"current_range_meters":12400,"station_id":"ce4bhn12rcd13ifvqgpg","pricing_plan_id":"cebpf4jnsgd1na2vs0mg"},{"bike_id":"8ec70021-00f5-422a-928c-5a833c315b05","system_id":"levelo_inurba_marseille","lat":43.23153,"lon":5.4372,"is_reserved":false,"is_disabled":false,"rental_uris":{"android":"levelo://app?vid=8ec70021-00f5-422a-928c-5a833c315b05","ios":"levelo://app?vid=8ec70021-00f5-422a-928c-5a833c315b05"},"vehicle_type_id":"4","last_reported":1743585027,"current_range_meters":12400,"station_id":"ce4bhmp2rcd13ifvqgog","pricing_plan_id":"cebpf4jnsgd1na2vs0mg"},{"bike_id":"b6144d09-6dd1-4ca4-97f5-4ec37918d3dd","system_id":"levelo_inurba_marseille","lat":43.266996,"lon":5.382686,"is_reserved":false,"is_disabled":false,"rental_uris":{"android":"levelo://app?vid=b6144d09-6dd1-4ca4-97f5-4ec37918d3dd","ios":"levelo://app?vid=b6144d09-6dd1-4ca4-97f5-4ec37918d3dd"},"vehicle_type_id":"4","last_reported":1743585027,"current_range_meters":12400,"station_id":"ce4bhg92rcd13ifvqf90","pricing_plan_id":"cebpf4jnsgd1na2vs0mg"},{"bike_id":"7ba67d0a-4dd2-434e-9233-c217be617343","system_id":"levelo_inurba_marseille","lat":43.33815,"lon":5.37432,"is_reserved":false,"is_disabled":false,"rental_uris":{"android":"levelo://app?vid=7ba67d0a-4dd2-434e-9233-c217be617343","ios":"levelo://app?vid=7ba67d0a-4dd2-434e-9233-c217be617343"},"vehicle_type_id":"4","last_reported":1743585027,"current_range_meters":12800,"station_id":"","pricing_plan_id":"cebpf4jnsgd1na2vs0mg"},{"bike_id":"a9c7fdca-b712-459a-9cdb-1a2cf23a1bc4","system_id":"levelo_inurba_marseille","lat":43.30982,"lon":5.39067,"is_reserved":false,"is_disabled":false,"rental_uris":{"android":"levelo://app?vid=a9c7fdca-b712-459a-9cdb-1a2cf23a1bc4","ios":"levelo://app?vid=a9c7fdca-b712-459a-9cdb-1a2cf23a1bc4"},"vehicle_type_id":"4","last_reported":1743585027,"current_range_meters":12800,"station_id":"ce4bgup2rcd13ifvqco0","pricing_plan_id":"cebpf4jnsgd1na2vs0mg"},{"bike_id":"c6d627f4-5958-4573-9008-ffb1d00414bd","system_id":"levelo_inurba_marseille","lat":43.30958,"lon":5.39065,"is_reserved":false,"is_disabled":false,"rental_uris":{"android":"levelo://app?vid=c6d627f4-5958-4573-9008-ffb1d00414bd","ios":"levelo://app?vid=c6d627f4-5958-4573-9008-ffb1d00414bd"},"vehicle_type_id":"4","last_reported":1743585027,"current_range_meters":12800,"station_id":"ce4bgup2rcd13ifvqco0","pricing_plan_id":"cebpf4jnsgd1na2vs0mg"},{"bike_id":"e1fde2b3-5152-46c3-b6ec-dfaad76c9a01","system_id":"levelo_inurba_marseille","lat":43.23153,"lon":5.43705,"is_reserved":false,"is_disabled":false,"rental_uris":{"android":"levelo://app?vid=e1fde2b3-5152-46c3-b6ec-dfaad76c9a01","ios":"levelo://app?vid=e1fde2b3-5152-46c3-b6ec-dfaad76c9a01"},"vehicle_type_id":"4","last_reported":1743585027,"current_range_meters":12800,"station_id":"ce4bhmp2rcd13ifvqgog","pricing_plan_id":"cebpf4jnsgd1na2vs0mg"},{"bike_id":"9d9eca08-7d62-4de0-807b-eec15d99d175","system_id":"levelo_inurba_marseille","lat":43.28946,"lon":5.38387,"is_reserved":false,"is_disabled":false,"rental_uris":{"android":"levelo://app?vid=9d9eca08-7d62-4de0-807b-eec15d99d175","ios":"levelo://app?vid=9d9eca08-7d62-4de0-807b-eec15d99d175"},"vehicle_type_id":"4","last_reported":1743585027,"current_range_meters":12400,"station_id":"ce4bh612rcd13ifvqe6g","pricing_plan_id":"cebpf4jnsgd1na2vs0mg"},{"bike_id":"7a5cc168-8f6c-4d8f-86cb-7de15764bd5c","system_id":"levelo_inurba_marseille","lat":43.26557,"lon":5.39029,"is_reserved":false,"is_disabled":false,"rental_uris":{"android":"levelo://app?vid=7a5cc168-8f6c-4d8f-86cb-7de15764bd5c","ios":"levelo://app?vid=7a5cc168-8f6c-4d8f-86cb-7de15764bd5c"},"vehicle_type_id":"4","last_reported":1743585027,"current_range_meters":12800,"station_id":"ce4bhe12rcd13ifvqf30","pricing_plan_id":"cebpf4jnsgd1na2vs0mg"},{"bike_id":"eb79d1f9-7c91-4ea2-b5f8-796189743e1a","system_id":"levelo_inurba_marseille","lat":43.33728,"lon":5.3918,"is_reserved":false,"is_disabled":false,"rental_uris":{"android":"levelo://app?vid=eb79d1f9-7c91-4ea2-b5f8-796189743e1a","ios":"levelo://app?vid=eb79d1f9-7c91-4ea2-b5f8-796189743e1a"},"vehicle_type_id":"4","last_reported":1743585027,"current_range_meters":13600,"station_id":"ce4bhr92rcd13ifvqhsg","pricing_plan_id":"cebpf4jnsgd1na2vs0mg"},{"bike_id":"c2e6881a-04a3-4a38-9cc0-75cacf165e78","system_id":"levelo_inurba_marseille","lat":43.28832,"lon":5.364645,"is_reserved":false,"is_disabled":false,"rental_uris":{"android":"levelo://app?vid=c2e6881a-04a3-4a38-9cc0-75cacf165e78","ios":"levelo://app?vid=c2e6881a-04a3-4a38-9cc0-75cacf165e78"},"vehicle_type_id":"4","last_reported":1743585027,"current_range_meters":13600,"station_id":"","pricing_plan_id":"cebpf4jnsgd1na2vs0mg"},{"bike_id":"c66c1a39-d582-429f-8915-528c566967dc","system_id":"levelo_inurba_marseille","lat":43.24175,"lon":5.39715,"is_reserved":false,"is_disabled":false,"rental_uris":{"android":"levelo://app?vid=c66c1a39-d582-429f-8915-528c566967dc","ios":"levelo://app?vid=c66c1a39-d582-429f-8915-528c566967dc"},"vehicle_type_id":"4","last_reported":1743585027,"current_range_meters":13600,"station_id":"ce4bhn12rcd13ifvqgpg","pricing_plan_id":"cebpf4jnsgd1na2vs0mg"},{"bike_id":"f8ccad8b-bfb8-46df-ad9e-29c6db096841","system_id":"levelo_inurba_marseille","lat":43.26062,"lon":5.39388,"is_reserved":false,"is_disabled":false,"rental_uris":{"android":"levelo://app?vid=f8ccad8b-bfb8-46df-ad9e-29c6db096841","ios":"levelo://app?vid=f8ccad8b-bfb8-46df-ad9e-29c6db096841"},"vehicle_type_id":"4","last_reported":1743585027,"current_range_meters":13600,"station_id":"ce4bhh92rcd13ifvqfj0","pricing_plan_id":"cebpf4jnsgd1na2vs0mg"},{"bike_id":"7d49898d-4c6e-4131-9fdb-37de62f2c79c","system_id":"levelo_inurba_marseille","lat":43.28912,"lon":5.37159,"is_reserved":false,"is_disabled":false,"rental_uris":{"android":"levelo://app?vid=7d49898d-4c6e-4131-9fdb-37de62f2c79c","ios":"levelo://app?vid=7d49898d-4c6e-4131-9fdb-37de62f2c79c"},"vehicle_type_id":"4","last_reported":1743585027,"current_range_meters":13600,"station_id":"","pricing_plan_id":"cebpf4jnsgd1na2vs0mg"},{"bike_id":"199c0867-9c65-463e-9224-ccd04e1bd48d","system_id":"levelo_inurba_marseille","lat":43.29165,"lon":5.37153,"is_reserved":false,"is_disabled":false,"rental_uris":{"android":"levelo://app?vid=199c0867-9c65-463e-9224-ccd04e1bd48d","ios":"levelo://app?vid=199c0867-9c65-463e-9224-ccd04e1bd48d"},"vehicle_type_id":"4","last_reported":1743585027,"current_range_meters":13600,"station_id":"ce4bha92rcd13ifvqeh0","pricing_plan_id":"cebpf4jnsgd1na2vs0mg"},{"bike_id":"46572bb1-7848-4cef-adb2-eaf522c7f416","system_id":"levelo_inurba_marseille","lat":43.25923,"lon":5.4088,"is_reserved":false,"is_disabled":false,"rental_uris":{"android":"levelo://app?vid=46572bb1-7848-4cef-adb2-eaf522c7f416","ios":"levelo://app?vid=46572bb1-7848-4cef-adb2-eaf522c7f416"},"vehicle_type_id":"4","last_reported":1743585027,"current_range_meters":13600,"station_id":"ce4bhm92rcd13ifvqglg","pricing_plan_id":"cebpf4jnsgd1na2vs0mg"},{"bike_id":"70e5b39f-29e3-4ea9-aa83-5a60a8eec6f8","system_id":"levelo_inurba_marseille","lat":43.2572,"lon":5.41125,"is_reserved":false,"is_disabled":false,"rental_uris":{"android":"levelo://app?vid=70e5b39f-29e3-4ea9-aa83-5a60a8eec6f8","ios":"levelo://app?vid=70e5b39f-29e3-4ea9-aa83-5a60a8eec6f8"},"vehicle_type_id":"4","last_reported":1743585027,"current_range_meters":13600,"station_id":"ce4bhkp2rcd13ifvqgd0","pricing_plan_id":"cebpf4jnsgd1na2vs0mg"},{"bike_id":"0b5bfafd-088a-47f7-b610-ea18ecbe66ca","system_id":"levelo_inurba_marseille","lat":43.29192,"lon":5.35805,"is_reserved":false,"is_disabled":false,"rental_uris":{"android":"levelo://app?vid=0b5bfafd-088a-47f7-b610-ea18ecbe66ca","ios":"levelo://app?vid=0b5bfafd-088a-47f7-b610-ea18ecbe66ca"},"vehicle_type_id":"4","last_reported":1743585027,"current_range_meters":14000,"station_id":"ce4bhb12rcd13ifvqel0","pricing_plan_id":"cebpf4jnsgd1na2vs0mg"},{"bike_id":"84554551-6a42-488e-8a3a-e31132de9d2c","system_id":"levelo_inurba_marseille","lat":43.23143,"lon":5.43713,"is_reserved":false,"is_disabled":false,"rental_uris":{"android":"levelo://app?vid=84554551-6a42-488e-8a3a-e31132de9d2c","ios":"levelo://app?vid=84554551-6a42-488e-8a3a-e31132de9d2c"},"vehicle_type_id":"4","last_reported":1743585027,"current_range_meters":14000,"station_id":"ce4bhmp2rcd13ifvqgog","pricing_plan_id":"cebpf4jnsgd1na2vs0mg"},{"bike_id":"d0af5f19-45bd-4729-b88d-89f6bf25212c","system_id":"levelo_inurba_marseille","lat":43.30551,"lon":5.36704,"is_reserved":false,"is_disabled":false,"rental_uris":{"android":"levelo://app?vid=d0af5f19-45bd-4729-b88d-89f6bf25212c","ios":"levelo://app?vid=d0af5f19-45bd-4729-b88d-89f6bf25212c"},"vehicle_type_id":"4","last_reported":1743585027,"current_range_meters":14000,"station_id":"ce4bgrp2rcd13ifvqc9g","pricing_plan_id":"cebpf4jnsgd1na2vs0mg"},{"bike_id":"e1b03b21-5eb0-483c-b4ac-ea8a29304382","system_id":"levelo_inurba_marseille","lat":43.23061,"lon":5.35496,"is_reserved":false,"is_disabled":false,"rental_uris":{"android":"levelo://app?vid=e1b03b21-5eb0-483c-b4ac-ea8a29304382","ios":"levelo://app?vid=e1b03b21-5eb0-483c-b4ac-ea8a29304382"},"vehicle_type_id":"4","last_reported":1743585027,"current_range_meters":14400,"station_id":"cpo3342slgdg3j2ifvpg","pricing_plan_id":"cebpf4jnsgd1na2vs0mg"},{"bike_id":"2f696af5-2fe9-40bb-b2d3-a0eed2eb251e","system_id":"levelo_inurba_marseille","lat":43.23067,"lon":5.354918,"is_reserved":false,"is_disabled":false,"rental_uris":{"android":"levelo://app?vid=2f696af5-2fe9-40bb-b2d3-a0eed2eb251e","ios":"levelo://app?vid=2f696af5-2fe9-40bb-b2d3-a0eed2eb251e"},"vehicle_type_id":"4","last_reported":1743585027,"current_range_meters":14400,"station_id":"ce4bgr92rcd13ifvqc7g","pricing_plan_id":"cebpf4jnsgd1na2vs0mg"},{"bike_id":"bdc9b725-322b-4bc5-927b-cf0f12c829f9","system_id":"levelo_inurba_marseille","lat":43.26586,"lon":5.39021,"is_reserved":false,"is_disabled":false,"rental_uris":{"android":"levelo://app?vid=bdc9b725-322b-4bc5-927b-cf0f12c829f9","ios":"levelo://app?vid=bdc9b725-322b-4bc5-927b-cf0f12c829f9"},"vehicle_type_id":"4","last_reported":1743585027,"current_range_meters":14400,"station_id":"ce4bhe12rcd13ifvqf30","pricing_plan_id":"cebpf4jnsgd1na2vs0mg"},{"bike_id":"adb099cf-52ed-409b-a796-c724fb1ce34d","system_id":"levelo_inurba_marseille","lat":43.23165,"lon":5.43709,"is_reserved":false,"is_disabled":false,"rental_uris":{"android":"levelo://app?vid=adb099cf-52ed-409b-a796-c724fb1ce34d","ios":"levelo://app?vid=adb099cf-52ed-409b-a796-c724fb1ce34d"},"vehicle_type_id":"4","last_reported":1743585027,"current_range_meters":14400,"station_id":"ce4bhmp2rcd13ifvqgog","pricing_plan_id":"cebpf4jnsgd1na2vs0mg"},{"bike_id":"cbb1bb20-5dab-4554-8f14-df33adbfef7b","system_id":"levelo_inurba_marseille","lat":43.25926,"lon":5.40894,"is_reserved":false,"is_disabled":true,"rental_uris":{"android":"levelo://app?vid=cbb1bb20-5dab-4554-8f14-df33adbfef7b","ios":"levelo://app?vid=cbb1bb20-5dab-4554-8f14-df33adbfef7b"},"vehicle_type_id":"4","last_reported":1743585027,"current_range_meters":14400,"station_id":"ce4bhm92rcd13ifvqglg","pricing_plan_id":"cebpf4jnsgd1na2vs0mg"},{"bike_id":"18b33a43-8113-4d0f-b40c-6a7201a04dd5","system_id":"levelo_inurba_marseille","lat":43.32375,"lon":5.36755,"is_reserved":false,"is_disabled":false,"rental_uris":{"android":"levelo://app?vid=18b33a43-8113-4d0f-b40c-6a7201a04dd5","ios":"levelo://app?vid=18b33a43-8113-4d0f-b40c-6a7201a04dd5"},"vehicle_type_id":"4","last_reported":1743585027,"current_range_meters":14400,"station_id":"ce4bhsh2rcd13ifvqi2g","pricing_plan_id":"cebpf4jnsgd1na2vs0mg"},{"bike_id":"c97b1294-5f0b-441e-be02-a1cfaf95f162","system_id":"levelo_inurba_marseille","lat":43.24388,"lon":5.37066,"is_reserved":false,"is_disabled":false,"rental_uris":{"android":"levelo://app?vid=c97b1294-5f0b-441e-be02-a1cfaf95f162","ios":"levelo://app?vid=c97b1294-5f0b-441e-be02-a1cfaf95f162"},"vehicle_type_id":"4","last_reported":1743585027,"current_range_meters":14000,"station_id":"ce4bhhh2rcd13ifvqfk0","pricing_plan_id":"cebpf4jnsgd1na2vs0mg"},{"bike_id":"cd83c8ac-ed09-4369-9279-b6f36f2bbd3c","system_id":"levelo_inurba_marseille","lat":43.30769,"lon":5.38257,"is_reserved":false,"is_disabled":false,"rental_uris":{"android":"levelo://app?vid=cd83c8ac-ed09-4369-9279-b6f36f2bbd3c","ios":"levelo://app?vid=cd83c8ac-ed09-4369-9279-b6f36f2bbd3c"},"vehicle_type_id":"4","last_reported":1743585027,"current_range_meters":14800,"station_id":"","pricing_plan_id":"cebpf4jnsgd1na2vs0mg"},{"bike_id":"29516061-ad3b-407a-ac78-511e1bba7609","system_id":"levelo_inurba_marseille","lat":43.25577,"lon":5.38245,"is_reserved":false,"is_disabled":false,"rental_uris":{"android":"levelo://app?vid=29516061-ad3b-407a-ac78-511e1bba7609","ios":"levelo://app?vid=29516061-ad3b-407a-ac78-511e1bba7609"},"vehicle_type_id":"4","last_reported":1743585027,"current_range_meters":14800,"station_id":"ce4bhih2rcd13ifvqfs0","pricing_plan_id":"cebpf4jnsgd1na2vs0mg"},{"bike_id":"3327304f-d2ab-4f57-8316-05f5c7ef1dbd","system_id":"levelo_inurba_marseille","lat":43.31877,"lon":5.40741,"is_reserved":false,"is_disabled":false,"rental_uris":{"android":"levelo://app?vid=3327304f-d2ab-4f57-8316-05f5c7ef1dbd","ios":"levelo://app?vid=3327304f-d2ab-4f57-8316-05f5c7ef1dbd"},"vehicle_type_id":"4","last_reported":1743585027,"current_range_meters":14800,"station_id":"ce4bhq12rcd13ifvqhig","pricing_plan_id":"cebpf4jnsgd1na2vs0mg"},{"bike_id":"0751baa5-4e52-4d57-baaa-d5d943ca2dd9","system_id":"levelo_inurba_marseille","lat":43.30206,"lon":5.3945,"is_reserved":false,"is_disabled":false,"rental_uris":{"android":"levelo://app?vid=0751baa5-4e52-4d57-baaa-d5d943ca2dd9","ios":"levelo://app?vid=0751baa5-4e52-4d57-baaa-d5d943ca2dd9"},"vehicle_type_id":"4","last_reported":1743585027,"current_range_meters":14800,"station_id":"ce4bh0p2rcd13ifvqd70","pricing_plan_id":"cebpf4jnsgd1na2vs0mg"},{"bike_id":"ddf4f7bc-b429-4ca6-98cc-3ac180d0ed5f","system_id":"levelo_inurba_marseille","lat":43.23181,"lon":5.35561,"is_reserved":false,"is_disabled":false,"rental_uris":{"android":"levelo://app?vid=ddf4f7bc-b429-4ca6-98cc-3ac180d0ed5f","ios":"levelo://app?vid=ddf4f7bc-b429-4ca6-98cc-3ac180d0ed5f"},"vehicle_type_id":"4","last_reported":1743585027,"current_range_meters":14800,"station_id":"ce4bhu92rcd13ifvqi70","pricing_plan_id":"cebpf4jnsgd1na2vs0mg"},{"bike_id":"ec917238-7d96-418e-93b3-70a1fff69830","system_id":"levelo_inurba_marseille","lat":43.24171,"lon":5.36397,"is_reserved":false,"is_disabled":false,"rental_uris":{"android":"levelo://app?vid=ec917238-7d96-418e-93b3-70a1fff69830","ios":"levelo://app?vid=ec917238-7d96-418e-93b3-70a1fff69830"},"vehicle_type_id":"4","last_reported":1743585027,"current_range_meters":14800,"station_id":"cpo36qri1sfpv3e86is0","pricing_plan_id":"cebpf4jnsgd1na2vs0mg"},{"bike_id":"3026be77-df9c-4a4a-83d6-132b5a38a0dc","system_id":"levelo_inurba_marseille","lat":43.23199,"lon":5.39976,"is_reserved":false,"is_disabled":false,"rental_uris":{"android":"levelo://app?vid=3026be77-df9c-4a4a-83d6-132b5a38a0dc","ios":"levelo://app?vid=3026be77-df9c-4a4a-83d6-132b5a38a0dc"},"vehicle_type_id":"4","last_reported":1743585027,"current_range_meters":14800,"station_id":"ce4bhn12rcd13ifvqgqg","pricing_plan_id":"cebpf4jnsgd1na2vs0mg"},{"bike_id":"9bec7fbf-1be3-4052-a8fd-cc313ef13da6","system_id":"levelo_inurba_marseille","lat":43.25599,"lon":5.38237,"is_reserved":false,"is_disabled":false,"rental_uris":{"android":"levelo://app?vid=9bec7fbf-1be3-4052-a8fd-cc313ef13da6","ios":"levelo://app?vid=9bec7fbf-1be3-4052-a8fd-cc313ef13da6"},"vehicle_type_id":"4","last_reported":1743585027,"current_range_meters":15200,"station_id":"ce4bhih2rcd13ifvqfs0","pricing_plan_id":"cebpf4jnsgd1na2vs0mg"},{"bike_id":"2003c2c5-4e29-437a-ada3-c1c62717ff35","system_id":"levelo_inurba_marseille","lat":43.26944,"lon":5.3864,"is_reserved":false,"is_disabled":false,"rental_uris":{"android":"levelo://app?vid=2003c2c5-4e29-437a-ada3-c1c62717ff35","ios":"levelo://app?vid=2003c2c5-4e29-437a-ada3-c1c62717ff35"},"vehicle_type_id":"4","last_reported":1743585027,"current_range_meters":15200,"station_id":"ce4bhh92rcd13ifvqfh0","pricing_plan_id":"cebpf4jnsgd1na2vs0mg"},{"bike_id":"127083b8-bf13-40a0-9111-7132150b345c","system_id":"levelo_inurba_marseille","lat":43.27496,"lon":5.42459,"is_reserved":false,"is_disabled":false,"rental_uris":{"android":"levelo://app?vid=127083b8-bf13-40a0-9111-7132150b345c","ios":"levelo://app?vid=127083b8-bf13-40a0-9111-7132150b345c"},"vehicle_type_id":"4","last_reported":1743585027,"current_range_meters":15200,"station_id":"ce4bhn92rcd13ifvqgrg","pricing_plan_id":"cebpf4jnsgd1na2vs0mg"},{"bike_id":"1371215c-e0c4-4595-81e7-77c687728c6f","system_id":"levelo_inurba_marseille","lat":43.24101,"lon":5.37754,"is_reserved":false,"is_disabled":false,"rental_uris":{"android":"levelo://app?vid=1371215c-e0c4-4595-81e7-77c687728c6f","ios":"levelo://app?vid=1371215c-e0c4-4595-81e7-77c687728c6f"},"vehicle_type_id":"4","last_reported":1743585027,"current_range_meters":15200,"station_id":"ce4bhnp2rcd13ifvqgvg","pricing_plan_id":"cebpf4jnsgd1na2vs0mg"},{"bike_id":"eca000f3-7adb-462c-b7ed-61fb5b2098fc","system_id":"levelo_inurba_marseille","lat":43.23644,"lon":5.36232,"is_reserved":false,"is_disabled":false,"rental_uris":{"android":"levelo://app?vid=eca000f3-7adb-462c-b7ed-61fb5b2098fc","ios":"levelo://app?vid=eca000f3-7adb-462c-b7ed-61fb5b2098fc"},"vehicle_type_id":"4","last_reported":1743585027,"current_range_meters":15200,"station_id":"","pricing_plan_id":"cebpf4jnsgd1na2vs0mg"},{"bike_id":"05064e89-e340-4380-8907-72fb2193b4b1","system_id":"levelo_inurba_marseille","lat":43.32537,"lon":5.41471,"is_reserved":false,"is_disabled":false,"rental_uris":{"android":"levelo://app?vid=05064e89-e340-4380-8907-72fb2193b4b1","ios":"levelo://app?vid=05064e89-e340-4380-8907-72fb2193b4b1"},"vehicle_type_id":"4","last_reported":1743585027,"current_range_meters":15200,"station_id":"ce4bhq12rcd13ifvqhhg","pricing_plan_id":"cebpf4jnsgd1na2vs0mg"},{"bike_id":"9f62f29e-b083-4314-9e82-a49e79ecd17d","system_id":"levelo_inurba_marseille","lat":43.22935,"lon":5.35377,"is_reserved":false,"is_disabled":false,"rental_uris":{"android":"levelo://app?vid=9f62f29e-b083-4314-9e82-a49e79ecd17d","ios":"levelo://app?vid=9f62f29e-b083-4314-9e82-a49e79ecd17d"},"vehicle_type_id":"4","last_reported":1743585027,"current_range_meters":15200,"station_id":"cpo3532slgdg3j2ikp40","pricing_plan_id":"cebpf4jnsgd1na2vs0mg"},{"bike_id":"ce742e8a-70db-49d4-a7e0-dc4a70358402","system_id":"levelo_inurba_marseille","lat":43.29283,"lon":5.37603,"is_reserved":false,"is_disabled":false,"rental_uris":{"android":"levelo://app?vid=ce742e8a-70db-49d4-a7e0-dc4a70358402","ios":"levelo://app?vid=ce742e8a-70db-49d4-a7e0-dc4a70358402"},"vehicle_type_id":"4","last_reported":1743585027,"current_range_meters":16000,"station_id":"ce4bgi12rcd13ifvqb80","pricing_plan_id":"cebpf4jnsgd1na2vs0mg"},{"bike_id":"6e05811e-06e7-4304-8ce9-6c25e6bc01dd","system_id":"levelo_inurba_marseille","lat":43.32102,"lon":5.36795,"is_reserved":false,"is_disabled":false,"rental_uris":{"android":"levelo://app?vid=6e05811e-06e7-4304-8ce9-6c25e6bc01dd","ios":"levelo://app?vid=6e05811e-06e7-4304-8ce9-6c25e6bc01dd"},"vehicle_type_id":"4","last_reported":1743585027,"current_range_meters":16000,"station_id":"ce4bhrh2rcd13ifvqhug","pricing_plan_id":"cebpf4jnsgd1na2vs0mg"},{"bike_id":"e2a42280-52c3-4ef7-9e51-4bc3da7a368c","system_id":"levelo_inurba_marseille","lat":43.29622,"lon":5.37167,"is_reserved":false,"is_disabled":false,"rental_uris":{"android":"levelo://app?vid=e2a42280-52c3-4ef7-9e51-4bc3da7a368c","ios":"levelo://app?vid=e2a42280-52c3-4ef7-9e51-4bc3da7a368c"},"vehicle_type_id":"4","last_reported":1743585027,"current_range_meters":15200,"station_id":"ce4bgnh2rcd13ifvqc0g","pricing_plan_id":"cebpf4jnsgd1na2vs0mg"},{"bike_id":"6b663061-c426-47da-aa37-3a1bb136a458","system_id":"levelo_inurba_marseille","lat":43.31706,"lon":5.43713,"is_reserved":false,"is_disabled":false,"rental_uris":{"android":"levelo://app?vid=6b663061-c426-47da-aa37-3a1bb136a458","ios":"levelo://app?vid=6b663061-c426-47da-aa37-3a1bb136a458"},"vehicle_type_id":"4","last_reported":1743585027,"current_range_meters":16000,"station_id":"ce4bhp92rcd13ifvqhcg","pricing_plan_id":"cebpf4jnsgd1na2vs0mg"},{"bike_id":"19819bb6-3dc6-4984-8ff3-852240d750bc","system_id":"levelo_inurba_marseille","lat":43.30196,"lon":5.39466,"is_reserved":false,"is_disabled":false,"rental_uris":{"android":"levelo://app?vid=19819bb6-3dc6-4984-8ff3-852240d750bc","ios":"levelo://app?vid=19819bb6-3dc6-4984-8ff3-852240d750bc"},"vehicle_type_id":"4","last_reported":1743585027,"current_range_meters":16000,"station_id":"ce4bh0p2rcd13ifvqd70","pricing_plan_id":"cebpf4jnsgd1na2vs0mg"},{"bike_id":"dc82e7cc-fca9-407e-94b1-12a4b04232c9","system_id":"levelo_inurba_marseille","lat":43.28712,"lon":5.40008,"is_reserved":false,"is_disabled":true,"rental_uris":{"android":"levelo://app?vid=dc82e7cc-fca9-407e-94b1-12a4b04232c9","ios":"levelo://app?vid=dc82e7cc-fca9-407e-94b1-12a4b04232c9"},"vehicle_type_id":"4","last_reported":1743585027,"current_range_meters":16000,"station_id":"ce4bho92rcd13ifvqh3g","pricing_plan_id":"cebpf4jnsgd1na2vs0mg"},{"bike_id":"10f9987f-6e0d-46c5-89bb-59eb0a1f7723","system_id":"levelo_inurba_marseille","lat":43.24388,"lon":5.3706,"is_reserved":false,"is_disabled":false,"rental_uris":{"android":"levelo://app?vid=10f9987f-6e0d-46c5-89bb-59eb0a1f7723","ios":"levelo://app?vid=10f9987f-6e0d-46c5-89bb-59eb0a1f7723"},"vehicle_type_id":"4","last_reported":1743585027,"current_range_meters":16000,"station_id":"ce4bhhh2rcd13ifvqfk0","pricing_plan_id":"cebpf4jnsgd1na2vs0mg"},{"bike_id":"8b6d5071-7177-4272-8ae1-92127127365e","system_id":"levelo_inurba_marseille","lat":43.27074,"lon":5.42262,"is_reserved":false,"is_disabled":true,"rental_uris":{"android":"levelo://app?vid=8b6d5071-7177-4272-8ae1-92127127365e","ios":"levelo://app?vid=8b6d5071-7177-4272-8ae1-92127127365e"},"vehicle_type_id":"4","last_reported":1743585027,"current_range_meters":16000,"station_id":"ce4bhk92rcd13ifvqgb0","pricing_plan_id":"cebpf4jnsgd1na2vs0mg"},{"bike_id":"a1566f65-7974-4adb-bc5b-c64d03a44f23","system_id":"levelo_inurba_marseille","lat":43.25001,"lon":5.38924,"is_reserved":false,"is_disabled":false,"rental_uris":{"android":"levelo://app?vid=a1566f65-7974-4adb-bc5b-c64d03a44f23","ios":"levelo://app?vid=a1566f65-7974-4adb-bc5b-c64d03a44f23"},"vehicle_type_id":"4","last_reported":1743585027,"current_range_meters":16400,"station_id":"ce4bhgp2rcd13ifvqfd0","pricing_plan_id":"cebpf4jnsgd1na2vs0mg"},{"bike_id":"62a0631e-546d-40b2-a063-9ddec04e2276","system_id":"levelo_inurba_marseille","lat":43.32113,"lon":5.36771,"is_reserved":false,"is_disabled":false,"rental_uris":{"android":"levelo://app?vid=62a0631e-546d-40b2-a063-9ddec04e2276","ios":"levelo://app?vid=62a0631e-546d-40b2-a063-9ddec04e2276"},"vehicle_type_id":"4","last_reported":1743585027,"current_range_meters":16400,"station_id":"ce4bhrh2rcd13ifvqhug","pricing_plan_id":"cebpf4jnsgd1na2vs0mg"},{"bike_id":"22d47046-8bb1-41ae-9bb4-96eb088b2e63","system_id":"levelo_inurba_marseille","lat":43.320441,"lon":5.367754,"is_reserved":false,"is_disabled":false,"rental_uris":{"android":"levelo://app?vid=22d47046-8bb1-41ae-9bb4-96eb088b2e63","ios":"levelo://app?vid=22d47046-8bb1-41ae-9bb4-96eb088b2e63"},"vehicle_type_id":"4","last_reported":1743585027,"current_range_meters":16400,"station_id":"ce4bhrh2rcd13ifvqhug","pricing_plan_id":"cebpf4jnsgd1na2vs0mg"},{"bike_id":"59ffdbad-74d4-4146-8913-35084ea2807a","system_id":"levelo_inurba_marseille","lat":43.28373,"lon":5.38664,"is_reserved":false,"is_disabled":true,"rental_uris":{"android":"levelo://app?vid=59ffdbad-74d4-4146-8913-35084ea2807a","ios":"levelo://app?vid=59ffdbad-74d4-4146-8913-35084ea2807a"},"vehicle_type_id":"4","last_reported":1743585027,"current_range_meters":16400,"station_id":"ce4bh492rcd13ifvqdvg","pricing_plan_id":"cebpf4jnsgd1na2vs0mg"},{"bike_id":"bd6855eb-95eb-4295-998a-02f324943f58","system_id":"levelo_inurba_marseille","lat":43.25003,"lon":5.38933,"is_reserved":false,"is_disabled":false,"rental_uris":{"android":"levelo://app?vid=bd6855eb-95eb-4295-998a-02f324943f58","ios":"levelo://app?vid=bd6855eb-95eb-4295-998a-02f324943f58"},"vehicle_type_id":"4","last_reported":1743585027,"current_range_meters":16000,"station_id":"ce4bhgp2rcd13ifvqfd0","pricing_plan_id":"cebpf4jnsgd1na2vs0mg"},{"bike_id":"352e2f30-1c52-4033-a43a-dc92205d76f3","system_id":"levelo_inurba_marseille","lat":43.29988,"lon":5.41316,"is_reserved":false,"is_disabled":false,"rental_uris":{"android":"levelo://app?vid=352e2f30-1c52-4033-a43a-dc92205d76f3","ios":"levelo://app?vid=352e2f30-1c52-4033-a43a-dc92205d76f3"},"vehicle_type_id":"4","last_reported":1743585027,"current_range_meters":16400,"station_id":"ce4bhp12rcd13ifvqh9g","pricing_plan_id":"cebpf4jnsgd1na2vs0mg"},{"bike_id":"db4f2fea-dd78-4839-8016-eeab270922ec","system_id":"levelo_inurba_marseille","lat":43.23167,"lon":5.43703,"is_reserved":false,"is_disabled":true,"rental_uris":{"android":"levelo://app?vid=db4f2fea-dd78-4839-8016-eeab270922ec","ios":"levelo://app?vid=db4f2fea-dd78-4839-8016-eeab270922ec"},"vehicle_type_id":"4","last_reported":1743585027,"current_range_meters":16400,"station_id":"ce4bhmp2rcd13ifvqgog","pricing_plan_id":"cebpf4jnsgd1na2vs0mg"},{"bike_id":"01dc34fc-cdda-4408-aa4c-d9449d0a0654","system_id":"levelo_inurba_marseille","lat":43.29274,"lon":5.40924,"is_reserved":false,"is_disabled":false,"rental_uris":{"android":"levelo://app?vid=01dc34fc-cdda-4408-aa4c-d9449d0a0654","ios":"levelo://app?vid=01dc34fc-cdda-4408-aa4c-d9449d0a0654"},"vehicle_type_id":"4","last_reported":1743585027,"current_range_meters":16400,"station_id":"ce4bh192rcd13ifvqdc0","pricing_plan_id":"cebpf4jnsgd1na2vs0mg"},{"bike_id":"b86b5b87-f029-48ac-aa00-3a50d7e2c1d2","system_id":"levelo_inurba_marseille","lat":43.32384,"lon":5.36763,"is_reserved":false,"is_disabled":true,"rental_uris":{"android":"levelo://app?vid=b86b5b87-f029-48ac-aa00-3a50d7e2c1d2","ios":"levelo://app?vid=b86b5b87-f029-48ac-aa00-3a50d7e2c1d2"},"vehicle_type_id":"4","last_reported":1743585027,"current_range_meters":16400,"station_id":"ce4bhsh2rcd13ifvqi2g","pricing_plan_id":"cebpf4jnsgd1na2vs0mg"},{"bike_id":"e7b309fe-ae17-4463-bfd1-7e7e15593842","system_id":"levelo_inurba_marseille","lat":43.24371,"lon":5.37078,"is_reserved":false,"is_disabled":false,"rental_uris":{"android":"levelo://app?vid=e7b309fe-ae17-4463-bfd1-7e7e15593842","ios":"levelo://app?vid=e7b309fe-ae17-4463-bfd1-7e7e15593842"},"vehicle_type_id":"4","last_reported":1743585027,"current_range_meters":16400,"station_id":"ce4bhhh2rcd13ifvqfk0","pricing_plan_id":"cebpf4jnsgd1na2vs0mg"},{"bike_id":"c63f7233-1cfc-4a96-8baa-05f9c26be666","system_id":"levelo_inurba_marseille","lat":43.30482,"lon":5.3785,"is_reserved":false,"is_disabled":true,"rental_uris":{"android":"levelo://app?vid=c63f7233-1cfc-4a96-8baa-05f9c26be666","ios":"levelo://app?vid=c63f7233-1cfc-4a96-8baa-05f9c26be666"},"vehicle_type_id":"4","last_reported":1743585027,"current_range_meters":16400,"station_id":"ce4bgup2rcd13ifvqcn0","pricing_plan_id":"cebpf4jnsgd1na2vs0mg"},{"bike_id":"94ce65fd-4b4a-4349-b21d-580fec8fa1c1","system_id":"levelo_inurba_marseille","lat":43.25949,"lon":5.40884,"is_reserved":false,"is_disabled":false,"rental_uris":{"android":"levelo://app?vid=94ce65fd-4b4a-4349-b21d-580fec8fa1c1","ios":"levelo://app?vid=94ce65fd-4b4a-4349-b21d-580fec8fa1c1"},"vehicle_type_id":"4","last_reported":1743585027,"current_range_meters":16800,"station_id":"ce4bhm92rcd13ifvqglg","pricing_plan_id":"cebpf4jnsgd1na2vs0mg"},{"bike_id":"a31ac44b-6ea7-4827-9ace-82c694897e02","system_id":"levelo_inurba_marseille","lat":43.29004,"lon":5.35608,"is_reserved":false,"is_disabled":false,"rental_uris":{"android":"levelo://app?vid=a31ac44b-6ea7-4827-9ace-82c694897e02","ios":"levelo://app?vid=a31ac44b-6ea7-4827-9ace-82c694897e02"},"vehicle_type_id":"4","last_reported":1743585027,"current_range_meters":16800,"station_id":"ce4bhb92rcd13ifvqen0","pricing_plan_id":"cebpf4jnsgd1na2vs0mg"},{"bike_id":"6017bfc6-b273-4ba4-9488-310f242f3a92","system_id":"levelo_inurba_marseille","lat":43.31288,"lon":5.40161,"is_reserved":false,"is_disabled":true,"rental_uris":{"android":"levelo://app?vid=6017bfc6-b273-4ba4-9488-310f242f3a92","ios":"levelo://app?vid=6017bfc6-b273-4ba4-9488-310f242f3a92"},"vehicle_type_id":"4","last_reported":1743585027,"current_range_meters":16800,"station_id":"ce4bh092rcd13ifvqd30","pricing_plan_id":"cebpf4jnsgd1na2vs0mg"},{"bike_id":"e9895768-afa9-4e76-bd13-aca990c04658","system_id":"levelo_inurba_marseille","lat":43.31689,"lon":5.40468,"is_reserved":false,"is_disabled":false,"rental_uris":{"android":"levelo://app?vid=e9895768-afa9-4e76-bd13-aca990c04658","ios":"levelo://app?vid=e9895768-afa9-4e76-bd13-aca990c04658"},"vehicle_type_id":"4","last_reported":1743585027,"current_range_meters":16800,"station_id":"ce4bh012rcd13ifvqd00","pricing_plan_id":"cebpf4jnsgd1na2vs0mg"},{"bike_id":"77cf7cd2-7fb0-4af3-b65d-ece8e4f8d0f3","system_id":"levelo_inurba_marseille","lat":43.2767,"lon":5.38889,"is_reserved":false,"is_disabled":false,"rental_uris":{"android":"levelo://app?vid=77cf7cd2-7fb0-4af3-b65d-ece8e4f8d0f3","ios":"levelo://app?vid=77cf7cd2-7fb0-4af3-b65d-ece8e4f8d0f3"},"vehicle_type_id":"4","last_reported":1743585027,"current_range_meters":16800,"station_id":"ce4bhi12rcd13ifvqfo0","pricing_plan_id":"cebpf4jnsgd1na2vs0mg"},{"bike_id":"6fd15896-5697-470b-8f07-45b11106795c","system_id":"levelo_inurba_marseille","lat":43.32119,"lon":5.36799,"is_reserved":false,"is_disabled":false,"rental_uris":{"android":"levelo://app?vid=6fd15896-5697-470b-8f07-45b11106795c","ios":"levelo://app?vid=6fd15896-5697-470b-8f07-45b11106795c"},"vehicle_type_id":"4","last_reported":1743585027,"current_range_meters":16800,"station_id":"ce4bhrh2rcd13ifvqhug","pricing_plan_id":"cebpf4jnsgd1na2vs0mg"},{"bike_id":"4ac2000e-3962-48eb-aaf2-3b9ba0658f76","system_id":"levelo_inurba_marseille","lat":43.30476,"lon":5.37905,"is_reserved":false,"is_disabled":false,"rental_uris":{"android":"levelo://app?vid=4ac2000e-3962-48eb-aaf2-3b9ba0658f76","ios":"levelo://app?vid=4ac2000e-3962-48eb-aaf2-3b9ba0658f76"},"vehicle_type_id":"4","last_reported":1743585027,"current_range_meters":16800,"station_id":"ce4bgup2rcd13ifvqcn0","pricing_plan_id":"cebpf4jnsgd1na2vs0mg"},{"bike_id":"97aa5e6f-e45b-4e21-a47e-52761ee9cdb1","system_id":"levelo_inurba_marseille","lat":43.321163,"lon":5.367665,"is_reserved":false,"is_disabled":false,"rental_uris":{"android":"levelo://app?vid=97aa5e6f-e45b-4e21-a47e-52761ee9cdb1","ios":"levelo://app?vid=97aa5e6f-e45b-4e21-a47e-52761ee9cdb1"},"vehicle_type_id":"4","last_reported":1743585027,"current_range_meters":16800,"station_id":"ce4bhrh2rcd13ifvqhug","pricing_plan_id":"cebpf4jnsgd1na2vs0mg"},{"bike_id":"bfe6083f-48dc-440e-99f1-68c630b7154b","system_id":"levelo_inurba_marseille","lat":43.24674,"lon":5.38172,"is_reserved":false,"is_disabled":false,"rental_uris":{"android":"levelo://app?vid=bfe6083f-48dc-440e-99f1-68c630b7154b","ios":"levelo://app?vid=bfe6083f-48dc-440e-99f1-68c630b7154b"},"vehicle_type_id":"4","last_reported":1743585027,"current_range_meters":16800,"station_id":"ce4bhih2rcd13ifvqfr0","pricing_plan_id":"cebpf4jnsgd1na2vs0mg"},{"bike_id":"b96e3a8f-7773-4642-9093-c9040819e982","system_id":"levelo_inurba_marseille","lat":43.26946,"lon":5.38648,"is_reserved":false,"is_disabled":false,"rental_uris":{"android":"levelo://app?vid=b96e3a8f-7773-4642-9093-c9040819e982","ios":"levelo://app?vid=b96e3a8f-7773-4642-9093-c9040819e982"},"vehicle_type_id":"4","last_reported":1743585027,"current_range_meters":16800,"station_id":"ce4bhh92rcd13ifvqfh0","pricing_plan_id":"cebpf4jnsgd1na2vs0mg"},{"bike_id":"78ca934a-98c9-4dbc-b5b6-c2ca906050d2","system_id":"levelo_inurba_marseille","lat":43.29788,"lon":5.38929,"is_reserved":false,"is_disabled":false,"rental_uris":{"android":"levelo://app?vid=78ca934a-98c9-4dbc-b5b6-c2ca906050d2","ios":"levelo://app?vid=78ca934a-98c9-4dbc-b5b6-c2ca906050d2"},"vehicle_type_id":"4","last_reported":1743585027,"current_range_meters":16800,"station_id":"","pricing_plan_id":"cebpf4jnsgd1na2vs0mg"},{"bike_id":"cec113c5-9291-4ce2-9dbe-57e16b43118b","system_id":"levelo_inurba_marseille","lat":43.26582,"lon":5.39032,"is_reserved":false,"is_disabled":true,"rental_uris":{"android":"levelo://app?vid=cec113c5-9291-4ce2-9dbe-57e16b43118b","ios":"levelo://app?vid=cec113c5-9291-4ce2-9dbe-57e16b43118b"},"vehicle_type_id":"4","last_reported":1743585027,"current_range_meters":16800,"station_id":"ce4bhe12rcd13ifvqf30","pricing_plan_id":"cebpf4jnsgd1na2vs0mg"},{"bike_id":"e6f02e74-383c-4bae-b8c4-037430863270","system_id":"levelo_inurba_marseille","lat":43.23056,"lon":5.35495,"is_reserved":false,"is_disabled":false,"rental_uris":{"android":"levelo://app?vid=e6f02e74-383c-4bae-b8c4-037430863270","ios":"levelo://app?vid=e6f02e74-383c-4bae-b8c4-037430863270"},"vehicle_type_id":"4","last_reported":1743585027,"current_range_meters":16800,"station_id":"cpo3342slgdg3j2ifvpg","pricing_plan_id":"cebpf4jnsgd1na2vs0mg"},{"bike_id":"c1c63035-c83b-4419-8cbf-133778d95125","system_id":"levelo_inurba_marseille","lat":43.297926,"lon":5.393547,"is_reserved":false,"is_disabled":true,"rental_uris":{"android":"levelo://app?vid=c1c63035-c83b-4419-8cbf-133778d95125","ios":"levelo://app?vid=c1c63035-c83b-4419-8cbf-133778d95125"},"vehicle_type_id":"4","last_reported":1743585027,"current_range_meters":16800,"station_id":"chh1huq6cuj3fo74tm60","pricing_plan_id":"cebpf4jnsgd1na2vs0mg"},{"bike_id":"e6a402cf-cf73-466a-b817-14b44faddac2","system_id":"levelo_inurba_marseille","lat":43.33743,"lon":5.39178,"is_reserved":false,"is_disabled":false,"rental_uris":{"android":"levelo://app?vid=e6a402cf-cf73-466a-b817-14b44faddac2","ios":"levelo://app?vid=e6a402cf-cf73-466a-b817-14b44faddac2"},"vehicle_type_id":"4","last_reported":1743585027,"current_range_meters":16800,"station_id":"ce4bhr92rcd13ifvqhsg","pricing_plan_id":"cebpf4jnsgd1na2vs0mg"},{"bike_id":"bd90b5ce-1576-4e75-a69e-235016391eab","system_id":"levelo_inurba_marseille","lat":43.2668,"lon":5.38274,"is_reserved":false,"is_disabled":false,"rental_uris":{"android":"levelo://app?vid=bd90b5ce-1576-4e75-a69e-235016391eab","ios":"levelo://app?vid=bd90b5ce-1576-4e75-a69e-235016391eab"},