{"last_updated":1687021492,"ttl":30,"version":"2.2","data":{"bikes":[{"bike_id":"f860936c-166d-4d20-b447-98eb6c930e69","system_id":"levelo_inurba_marseille","lat":43.31225,"lon":5.36844,"is_reserved":false,"is_disabled":false,"rental_uris":{"android":"levelo://app?vid=f860936c-166d-4d20-b447-98eb6c930e69","ios":"levelo://app?vid=f860936c-166d-4d20-b447-98eb6c930e69"},"vehicle_type_id":"4","last_reported":1687021493,"current_range_meters":2400,"station_id":"ce4bgl92rcd13ifvqbq0","pricing_plan_id":"free"},{"bike_id":"bea29baf-a0da-486c-a6e4-7dc370bd29b9","system_id":"levelo_inurba_marseille","lat":43.312239,"lon":5.368562,"is_reserved":false,"is_disabled":false,"rental_uris":{"android":"levelo://app?vid=bea29baf-a0da-486c-a6e4-7dc370bd29b9","ios":"levelo://app?vid=bea29baf-a0da-486c-a6e4-7dc370bd29b9"},"vehicle_type_id":"4","last_reported":1687021493,"current_range_meters":1200,"station_id":"ce4bgl92rcd13ifvqbq0","pricing_plan_id":"free"},{"bike_id":"148f18ec-16af-4ef3-bf66-396c4886bad4","system_id":"levelo_inurba_marseille","lat":43.314811,"lon":5.373103,"is_reserved":false,"is_disabled":false,"rental_uris":{"android":"levelo://app?vid=148f18ec-16af-4ef3-bf66-396c4886bad4","ios":"levelo://app?vid=148f18ec-16af-4ef3-bf66-396c4886bad4"},"vehicle_type_id":"4","last_reported":1687021493,"current_range_meters":8800,"station_id":"ce4bgt12rcd13ifvqcd0","pricing_plan_id":"free"},{"bike_id":"9c746439-937e-436d-8c66-cb90c42aae7f","system_id":"levelo_inurba_marseille","lat":43.31447,"lon":5.37334,"is_reserved":false,"is_disabled":false,"rental_uris":{"android":"levelo://app?vid=9c746439-937e-436d-8c66-cb90c42aae7f","ios":"levelo://app?vid=9c746439-937e-436d-8c66-cb90c42aae7f"},"vehicle_type_id":"4","last_reported":1687021493,"current_range_meters":29600,"station_id":"","pricing_plan_id":"free"},{"bike_id":"cb3738be-a669-4092-9437-e82bb17cf968","system_id":"levelo_inurba_marseille","lat":43.305989,"lon":5.37225,"is_reserved":false,"is_disabled":false,"rental_uris":{"android":"levelo://app?vid=cb3738be-a669-4092-9437-e82bb17cf968","ios":"levelo://app?vid=cb3738be-a669-4092-9437-e82bb17cf968"},"vehicle_type_id":"4","last_reported":1687021493,"current_range_meters":18400,"station_id":"ce4bgqh2rcd13ifvqc4g","pricing_plan_id":"free"},{"bike_id":"5d35c248-1bfa-45c8-8a32-b9867728f3ba","system_id":"levelo_inurba_marseille","lat":43.311131,"lon":5.377651,"is_reserved":false,"is_disabled":false,"rental_uris":{"android":"levelo://app?vid=5d35c248-1bfa-45c8-8a32-b9867728f3ba","ios":"levelo://app?vid=5d35c248-1bfa-45c8-8a32-b9867728f3ba"},"vehicle_type_id":"4","last_reported":1687021493,"current_range_meters":17600,"station_id":"ce4bgt92rcd13ifvqcg0","pricing_plan_id":"free"},{"bike_id":"9444f87b-76de-4e0c-b87c-9ec563921bd2","system_id":"levelo_inurba_marseille","lat":43.305368,"lon":5.367343,"is_reserved":false,"is_disabled":false,"rental_uris":{"android":"levelo://app?vid=9444f87b-76de-4e0c-b87c-9ec563921bd2","ios":"levelo://app?vid=9444f87b-76de-4e0c-b87c-9ec563921bd2"},"vehicle_type_id":"4","last_reported":1687021493,"current_range_meters":25200,"station_id":"ce4bgrp2rcd13ifvqc9g","pricing_plan_id":"free"},{"bike_id":"2424216c-0462-4ad0-b127-d0366c91b61c","system_id":"levelo_inurba_marseille","lat":43.31704,"lon":5.37728,"is_reserved":false,"is_disabled":false,"rental_uris":{"android":"levelo://app?vid=2424216c-0462-4ad0-b127-d0366c91b61c","ios":"levelo://app?vid=2424216c-0462-4ad0-b127-d0366c91b61c"},"vehicle_type_id":"4","last_reported":1687021493,"current_range_meters":31200,"station_id":"ce4bgth2rcd13ifvqch0","pricing_plan_id":"free"},{"bike_id":"c922f15e-1b3e-4863-b582-8d2b57ac09b7","system_id":"levelo_inurba_marseille","lat":43.303046,"lon":5.368981,"is_reserved":false,"is_disabled":false,"rental_uris":{"android":"levelo://app?vid=c922f15e-1b3e-4863-b582-8d2b57ac09b7","ios":"levelo://app?vid=c922f15e-1b3e-4863-b582-8d2b57ac09b7"},"vehicle_type_id":"4","last_reported":1687021493,"current_range_meters":13200,"station_id":"ce4bgqh2rcd13ifvqc5g","pricing_plan_id":"free"},{"bike_id":"da9b013e-bfb8-4dc1-bc19-da912a1d85ca","system_id":"levelo_inurba_marseille","lat":43.31533,"lon":5.38033,"is_reserved":false,"is_disabled":false,"rental_uris":{"android":"levelo://app?vid=da9b013e-bfb8-4dc1-bc19-da912a1d85ca","ios":"levelo://app?vid=da9b013e-bfb8-4dc1-bc19-da912a1d85ca"},"vehicle_type_id":"4","last_reported":1687021493,"current_range_meters":22800,"station_id":"ce4bhsp2rcd13ifvqi50","pricing_plan_id":"free"},{"bike_id":"ae33307b-fcd5-479b-9ae1-9002ed226c6e","system_id":"levelo_inurba_marseille","lat":43.308012,"lon":5.381511,"is_reserved":false,"is_disabled":false,"rental_uris":{"android":"levelo://app?vid=ae33307b-fcd5-479b-9ae1-9002ed226c6e","ios":"levelo://app?vid=ae33307b-fcd5-479b-9ae1-9002ed226c6e"},"vehicle_type_id":"4","last_reported":1687021493,"current_range_meters":9200,"station_id":"ce4bgt12rcd13ifvqce0","pricing_plan_id":"free"},{"bike_id":"43fc693e-f2a9-4aec-8fd9-d094bb02cb70","system_id":"levelo_inurba_marseille","lat":43.304606,"lon":5.379026,"is_reserved":false,"is_disabled":false,"rental_uris":{"android":"levelo://app?vid=43fc693e-f2a9-4aec-8fd9-d094bb02cb70","ios":"levelo://app?vid=43fc693e-f2a9-4aec-8fd9-d094bb02cb70"},"vehicle_type_id":"4","last_reported":1687021493,"current_range_meters":20800,"station_id":"ce4bgup2rcd13ifvqcn0","pricing_plan_id":"free"},{"bike_id":"5003c2fa-8578-4b5b-aee0-bf9c6a52e3f5","system_id":"levelo_inurba_marseille","lat":43.31999,"lon":5.38151,"is_reserved":false,"is_disabled":false,"rental_uris":{"android":"levelo://app?vid=5003c2fa-8578-4b5b-aee0-bf9c6a52e3f5","ios":"levelo://app?vid=5003c2fa-8578-4b5b-aee0-bf9c6a52e3f5"},"vehicle_type_id":"4","last_reported":1687021493,"current_range_meters":0,"station_id":"ce4bhr12rcd13ifvqhpg","pricing_plan_id":"free"},{"bike_id":"8bae49f7-6144-4878-b0e0-ff288680e0ba","system_id":"levelo_inurba_marseille","lat":43.313571,"lon":5.384829,"is_reserved":false,"is_disabled":false,"rental_uris":{"android":"levelo://app?vid=8bae49f7-6144-4878-b0e0-ff288680e0ba","ios":"levelo://app?vid=8bae49f7-6144-4878-b0e0-ff288680e0ba"},"vehicle_type_id":"4","last_reported":1687021493,"current_range_meters":24800,"station_id":"ce4bgt92rcd13ifvqcf0","pricing_plan_id":"free"},{"bike_id":"aafe8de9-9bcf-4028-9959-c5b22974880a","system_id":"levelo_inurba_marseille","lat":43.313571,"lon":5.384829,"is_reserved":false,"is_disabled":false,"rental_uris":{"android":"levelo://app?vid=aafe8de9-9bcf-4028-9959-c5b22974880a","ios":"levelo://app?vid=aafe8de9-9bcf-4028-9959-c5b22974880a"},"vehicle_type_id":"4","last_reported":1687021493,"current_range_meters":12800,"station_id":"ce4bgt92rcd13ifvqcf0","pricing_plan_id":"free"},{"bike_id":"5705d367-d883-4d3f-8497-d412962a1c63","system_id":"levelo_inurba_marseille","lat":43.299144,"lon":5.365416,"is_reserved":false,"is_disabled":false,"rental_uris":{"android":"levelo://app?vid=5705d367-d883-4d3f-8497-d412962a1c63","ios":"levelo://app?vid=5705d367-d883-4d3f-8497-d412962a1c63"},"vehicle_type_id":"4","last_reported":1687021493,"current_range_meters":0,"station_id":"ce4bgn12rcd13ifvqbt0","pricing_plan_id":"free"},{"bike_id":"330412da-b9eb-49fa-9ba0-9288ee9ddd31","system_id":"levelo_inurba_marseille","lat":43.30038,"lon":5.3752,"is_reserved":false,"is_disabled":false,"rental_uris":{"android":"levelo://app?vid=330412da-b9eb-49fa-9ba0-9288ee9ddd31","ios":"levelo://app?vid=330412da-b9eb-49fa-9ba0-9288ee9ddd31"},"vehicle_type_id":"4","last_reported":1687021493,"current_range_meters":18400,"station_id":"","pricing_plan_id":"free"},{"bike_id":"abbc8bf9-18f8-4c7f-b3e3-8dd4623bd8fc","system_id":"levelo_inurba_marseille","lat":43.298433,"lon":5.362774,"is_reserved":false,"is_disabled":false,"rental_uris":{"android":"levelo://app?vid=abbc8bf9-18f8-4c7f-b3e3-8dd4623bd8fc","ios":"levelo://app?vid=abbc8bf9-18f8-4c7f-b3e3-8dd4623bd8fc"},"vehicle_type_id":"4","last_reported":1687021493,"current_range_meters":0,"station_id":"ce4bgpp2rcd13ifvqc3g","pricing_plan_id":"free"},{"bike_id":"dca11af4-2187-47d2-ad43-4c5a773b8b90","system_id":"levelo_inurba_marseille","lat":43.299243,"lon":5.37481,"is_reserved":false,"is_disabled":false,"rental_uris":{"android":"levelo://app?vid=dca11af4-2187-47d2-ad43-4c5a773b8b90","ios":"levelo://app?vid=dca11af4-2187-47d2-ad43-4c5a773b8b90"},"vehicle_type_id":"4","last_reported":1687021493,"current_range_meters":21600,"station_id":"ce4bgjh2rcd13ifvqbg0","pricing_plan_id":"free"},{"bike_id":"cb0989c5-ef0f-49ab-933f-9be341b8f004","system_id":"levelo_inurba_marseille","lat":43.328371,"lon":5.366909,"is_reserved":false,"is_disabled":false,"rental_uris":{"android":"levelo://app?vid=cb0989c5-ef0f-49ab-933f-9be341b8f004","ios":"levelo://app?vid=cb0989c5-ef0f-49ab-933f-9be341b8f004"},"vehicle_type_id":"4","last_reported":1687021493,"current_range_meters":21600,"station_id":"ce4bhs92rcd13ifvqi0g","pricing_plan_id":"free"},{"bike_id":"6d12bf08-ef93-4cae-ab6e-6233437e9a82","system_id":"levelo_inurba_marseille","lat":43.32824,"lon":5.36668,"is_reserved":false,"is_disabled":false,"rental_uris":{"android":"levelo://app?vid=6d12bf08-ef93-4cae-ab6e-6233437e9a82","ios":"levelo://app?vid=6d12bf08-ef93-4cae-ab6e-6233437e9a82"},"vehicle_type_id":"4","last_reported":1687021493,"current_range_meters":18400,"station_id":"ce4bhs92rcd13ifvqi0g","pricing_plan_id":"free"},{"bike_id":"4bf53da7-5b2e-4feb-ad64-d834c27b533d","system_id":"levelo_inurba_marseille","lat":43.32825,"lon":5.36678,"is_reserved":false,"is_disabled":false,"rental_uris":{"android":"levelo://app?vid=4bf53da7-5b2e-4feb-ad64-d834c27b533d","ios":"levelo://app?vid=4bf53da7-5b2e-4feb-ad64-d834c27b533d"},"vehicle_type_id":"4","last_reported":1687021493,"current_range_meters":25200,"station_id":"ce4bhs92rcd13ifvqi0g","pricing_plan_id":"free"},{"bike_id":"950915b5-629a-4eab-80e0-866902263e48","system_id":"levelo_inurba_marseille","lat":43.328371,"lon":5.366909,"is_reserved":false,"is_disabled":false,"rental_uris":{"android":"levelo://app?vid=950915b5-629a-4eab-80e0-866902263e48","ios":"levelo://app?vid=950915b5-629a-4eab-80e0-866902263e48"},"vehicle_type_id":"4","last_reported":1687021493,"current_range_meters":2000,"station_id":"ce4bhs92rcd13ifvqi0g","pricing_plan_id":"free"},{"bike_id":"4bb85f49-7f9a-477c-abaa-23a093d581e6","system_id":"levelo_inurba_marseille","lat":43.32829,"lon":5.36669,"is_reserved":false,"is_disabled":false,"rental_uris":{"android":"levelo://app?vid=4bb85f49-7f9a-477c-abaa-23a093d581e6","ios":"levelo://app?vid=4bb85f49-7f9a-477c-abaa-23a093d581e6"},"vehicle_type_id":"4","last_reported":1687021493,"current_range_meters":19200,"station_id":"ce4bhs92rcd13ifvqi0g","pricing_plan_id":"free"},{"bike_id":"176f4894-d7fc-460e-aa5d-7c8c1e206dc3","system_id":"levelo_inurba_marseille","lat":43.297163,"lon":5.365866,"is_reserved":false,"is_disabled":false,"rental_uris":{"android":"levelo://app?vid=176f4894-d7fc-460e-aa5d-7c8c1e206dc3","ios":"levelo://app?vid=176f4894-d7fc-460e-aa5d-7c8c1e206dc3"},"vehicle_type_id":"4","last_reported":1687021493,"current_range_meters":15200,"station_id":"ce4bgn12rcd13ifvqbt0","pricing_plan_id":"free"},{"bike_id":"0851357a-94e1-4cf6-ad37-5a7a49d00988","system_id":"levelo_inurba_marseille","lat":43.32821,"lon":5.36212,"is_reserved":false,"is_disabled":false,"rental_uris":{"android":"levelo://app?vid=0851357a-94e1-4cf6-ad37-5a7a49d00988","ios":"levelo://app?vid=0851357a-94e1-4cf6-ad37-5a7a49d00988"},"vehicle_type_id":"4","last_reported":1687021493,"current_range_meters":31200,"station_id":"","pricing_plan_id":"free"},{"bike_id":"88d0330c-5bb0-4a19-9b65-d4683b42e015","system_id":"levelo_inurba_marseille","lat":43.29683,"lon":5.36046,"is_reserved":false,"is_disabled":false,"rental_uris":{"android":"levelo://app?vid=88d0330c-5bb0-4a19-9b65-d4683b42e015","ios":"levelo://app?vid=88d0330c-5bb0-4a19-9b65-d4683b42e015"},"vehicle_type_id":"4","last_reported":1687021493,"current_range_meters":6000,"station_id":"ce4bgpp2rcd13ifvqc3g","pricing_plan_id":"free"},{"bike_id":"73d9d015-70d1-4214-8fa9-2c23cf48cb73","system_id":"levelo_inurba_marseille","lat":43.29573,"lon":5.367355,"is_reserved":false,"is_disabled":false,"rental_uris":{"android":"levelo://app?vid=73d9d015-70d1-4214-8fa9-2c23cf48cb73","ios":"levelo://app?vid=73d9d015-70d1-4214-8fa9-2c23cf48cb73"},"vehicle_type_id":"4","last_reported":1687021493,"current_range_meters":21600,"station_id":"ce4bgph2rcd13ifvqc2g","pricing_plan_id":"free"},{"bike_id":"24f41ca5-b432-4feb-a0c8-a15026b97306","system_id":"levelo_inurba_marseille","lat":43.296131,"lon":5.370773,"is_reserved":false,"is_disabled":false,"rental_uris":{"android":"levelo://app?vid=24f41ca5-b432-4feb-a0c8-a15026b97306","ios":"levelo://app?vid=24f41ca5-b432-4feb-a0c8-a15026b97306"},"vehicle_type_id":"4","last_reported":1687021493,"current_range_meters":15200,"station_id":"ce4bgnh2rcd13ifvqc0g","pricing_plan_id":"free"},{"bike_id":"cfc90b81-08f0-4405-a632-462c645fc98e","system_id":"levelo_inurba_marseille","lat":43.317557,"lon":5.390173,"is_reserved":false,"is_disabled":false,"rental_uris":{"android":"levelo://app?vid=cfc90b81-08f0-4405-a632-462c645fc98e","ios":"levelo://app?vid=cfc90b81-08f0-4405-a632-462c645fc98e"},"vehicle_type_id":"4","last_reported":1687021493,"current_range_meters":10000,"station_id":"ce4bhqp2rcd13ifvqhng","pricing_plan_id":"free"},{"bike_id":"07d1f31c-686c-4150-aa4a-5ac69fa4832b","system_id":"levelo_inurba_marseille","lat":43.31756,"lon":5.39022,"is_reserved":false,"is_disabled":false,"rental_uris":{"android":"levelo://app?vid=07d1f31c-686c-4150-aa4a-5ac69fa4832b","ios":"levelo://app?vid=07d1f31c-686c-4150-aa4a-5ac69fa4832b"},"vehicle_type_id":"4","last_reported":1687021493,"current_range_meters":10400,"station_id":"ce4bhqp2rcd13ifvqhng","pricing_plan_id":"free"},{"bike_id":"25615bfc-743b-4e0a-a0eb-031f9a022745","system_id":"levelo_inurba_marseille","lat":43.295748,"lon":5.37522,"is_reserved":false,"is_disabled":false,"rental_uris":{"android":"levelo://app?vid=25615bfc-743b-4e0a-a0eb-031f9a022745","ios":"levelo://app?vid=25615bfc-743b-4e0a-a0eb-031f9a022745"},"vehicle_type_id":"4","last_reported":1687021493,"current_range_meters":9200,"station_id":"ce4bgh92rcd13ifvqb50","pricing_plan_id":"free"},{"bike_id":"b34cd50d-89b2-4072-aa28-86328d013b87","system_id":"levelo_inurba_marseille","lat":43.304278,"lon":5.388868,"is_reserved":false,"is_disabled":false,"rental_uris":{"android":"levelo://app?vid=b34cd50d-89b2-4072-aa28-86328d013b87","ios":"levelo://app?vid=b34cd50d-89b2-4072-aa28-86328d013b87"},"vehicle_type_id":"4","last_reported":1687021493,"current_range_meters":0,"station_id":"ce4bgk12rcd13ifvqbi0","pricing_plan_id":"free"},{"bike_id":"b28c936e-eeb0-4dc9-9ab9-37c9cad03254","system_id":"levelo_inurba_marseille","lat":43.296263,"lon":5.377094,"is_reserved":false,"is_disabled":false,"rental_uris":{"android":"levelo://app?vid=b28c936e-eeb0-4dc9-9ab9-37c9cad03254","ios":"levelo://app?vid=b28c936e-eeb0-4dc9-9ab9-37c9cad03254"},"vehicle_type_id":"4","last_reported":1687021493,"current_range_meters":0,"station_id":"ce4bgi92rcd13ifvqb90","pricing_plan_id":"free"},{"bike_id":"250c8a96-8498-4211-b8f3-1b00a8d1fbaf","system_id":"levelo_inurba_marseille","lat":43.296477,"lon":5.37768,"is_reserved":false,"is_disabled":false,"rental_uris":{"android":"levelo://app?vid=250c8a96-8498-4211-b8f3-1b00a8d1fbaf","ios":"levelo://app?vid=250c8a96-8498-4211-b8f3-1b00a8d1fbaf"},"vehicle_type_id":"4","last_reported":1687021493,"current_range_meters":16000,"station_id":"","pricing_plan_id":"free"},{"bike_id":"eb56f040-d7e3-440c-9d05-82afe187dd21","system_id":"levelo_inurba_marseille","lat":43.299717,"lon":5.384845,"is_reserved":false,"is_disabled":false,"rental_uris":{"android":"levelo://app?vid=eb56f040-d7e3-440c-9d05-82afe187dd21","ios":"levelo://app?vid=eb56f040-d7e3-440c-9d05-82afe187dd21"},"vehicle_type_id":"4","last_reported":1687021493,"current_range_meters":30800,"station_id":"ce4bgj92rcd13ifvqbd0","pricing_plan_id":"free"},{"bike_id":"e25bbacf-225c-4f1a-a2b1-8f9c37a7c29f","system_id":"levelo_inurba_marseille","lat":43.2956,"lon":5.37719,"is_reserved":false,"is_disabled":false,"rental_uris":{"android":"levelo://app?vid=e25bbacf-225c-4f1a-a2b1-8f9c37a7c29f","ios":"levelo://app?vid=e25bbacf-225c-4f1a-a2b1-8f9c37a7c29f"},"vehicle_type_id":"4","last_reported":1687021493,"current_range_meters":12000,"station_id":"","pricing_plan_id":"free"},{"bike_id":"2c9ad911-25e0-4222-8751-d809dfadd582","system_id":"levelo_inurba_marseille","lat":43.32365,"lon":5.38877,"is_reserved":false,"is_disabled":false,"rental_uris":{"android":"levelo://app?vid=2c9ad911-25e0-4222-8751-d809dfadd582","ios":"levelo://app?vid=2c9ad911-25e0-4222-8751-d809dfadd582"},"vehicle_type_id":"4","last_reported":1687021493,"current_range_meters":25200,"station_id":"ce4bhqp2rcd13ifvqhog","pricing_plan_id":"free"},{"bike_id":"01072883-b351-4a13-97c4-67176e4fb3bc","system_id":"levelo_inurba_marseille","lat":43.32367,"lon":5.388836,"is_reserved":false,"is_disabled":false,"rental_uris":{"android":"levelo://app?vid=01072883-b351-4a13-97c4-67176e4fb3bc","ios":"levelo://app?vid=01072883-b351-4a13-97c4-67176e4fb3bc"},"vehicle_type_id":"4","last_reported":1687021493,"current_range_meters":19600,"station_id":"ce4bhqp2rcd13ifvqhog","pricing_plan_id":"free"},{"bike_id":"acef1262-6fcf-4ab0-b47f-4988993ecf44","system_id":"levelo_inurba_marseille","lat":43.293249,"lon":5.371578,"is_reserved":false,"is_disabled":false,"rental_uris":{"android":"levelo://app?vid=acef1262-6fcf-4ab0-b47f-4988993ecf44","ios":"levelo://app?vid=acef1262-6fcf-4ab0-b47f-4988993ecf44"},"vehicle_type_id":"4","last_reported":1687021493,"current_range_meters":0,"station_id":"ce4bgh92rcd13ifvqb40","pricing_plan_id":"free"},{"bike_id":"8b8d5567-66a4-4294-a03a-e5004d6129fd","system_id":"levelo_inurba_marseille","lat":43.302992,"lon":5.392136,"is_reserved":false,"is_disabled":false,"rental_uris":{"android":"levelo://app?vid=8b8d5567-66a4-4294-a03a-e5004d6129fd","ios":"levelo://app?vid=8b8d5567-66a4-4294-a03a-e5004d6129fd"},"vehicle_type_id":"4","last_reported":1687021493,"current_range_meters":400,"station_id":"ce4bgkh2rcd13ifvqbk0","pricing_plan_id":"free"},{"bike_id":"b0b45849-d290-4816-b461-c7422d1e8506","system_id":"levelo_inurba_marseille","lat":43.29228,"lon":5.36057,"is_reserved":false,"is_disabled":false,"rental_uris":{"android":"levelo://app?vid=b0b45849-d290-4816-b461-c7422d1e8506","ios":"levelo://app?vid=b0b45849-d290-4816-b461-c7422d1e8506"},"vehicle_type_id":"4","last_reported":1687021493,"current_range_meters":19200,"station_id":"ce4bhbh2rcd13ifvqeqg","pricing_plan_id":"free"},{"bike_id":"775604aa-e558-4399-8853-04c2fc3ab582","system_id":"levelo_inurba_marseille","lat":43.294162,"lon":5.386292,"is_reserved":false,"is_disabled":false,"rental_uris":{"android":"levelo://app?vid=775604aa-e558-4399-8853-04c2fc3ab582","ios":"levelo://app?vid=775604aa-e558-4399-8853-04c2fc3ab582"},"vehicle_type_id":"4","last_reported":1687021493,"current_range_meters":5200,"station_id":"ce4bh2h2rcd13ifvqdh0","pricing_plan_id":"free"},{"bike_id":"3011d71c-5a99-41ed-8989-a47274898b92","system_id":"levelo_inurba_marseille","lat":43.294153,"lon":5.386305,"is_reserved":false,"is_disabled":false,"rental_uris":{"android":"levelo://app?vid=3011d71c-5a99-41ed-8989-a47274898b92","ios":"levelo://app?vid=3011d71c-5a99-41ed-8989-a47274898b92"},"vehicle_type_id":"4","last_reported":1687021493,"current_range_meters":12000,"station_id":"ce4bh2h2rcd13ifvqdh0","pricing_plan_id":"free"},{"bike_id":"38eb09af-7166-42b9-865e-84246929498f","system_id":"levelo_inurba_marseille","lat":43.292642,"lon":5.384254,"is_reserved":false,"is_disabled":false,"rental_uris":{"android":"levelo://app?vid=38eb09af-7166-42b9-865e-84246929498f","ios":"levelo://app?vid=38eb09af-7166-42b9-865e-84246929498f"},"vehicle_type_id":"4","last_reported":1687021493,"current_range_meters":31200,"station_id":"ce4bh692rcd13ifvqea0","pricing_plan_id":"free"},{"bike_id":"fb7710a9-ad01-4796-a3e3-f66449c03d0c","system_id":"levelo_inurba_marseille","lat":43.330442,"lon":5.389148,"is_reserved":false,"is_disabled":false,"rental_uris":{"android":"levelo://app?vid=fb7710a9-ad01-4796-a3e3-f66449c03d0c","ios":"levelo://app?vid=fb7710a9-ad01-4796-a3e3-f66449c03d0c"},"vehicle_type_id":"4","last_reported":1687021493,"current_range_meters":19600,"station_id":"ce4bhr92rcd13ifvqhrg","pricing_plan_id":"free"},{"bike_id":"92aa50fa-d76f-4960-b2a6-bec9727bde0d","system_id":"levelo_inurba_marseille","lat":43.330442,"lon":5.389148,"is_reserved":false,"is_disabled":false,"rental_uris":{"android":"levelo://app?vid=92aa50fa-d76f-4960-b2a6-bec9727bde0d","ios":"levelo://app?vid=92aa50fa-d76f-4960-b2a6-bec9727bde0d"},"vehicle_type_id":"4","last_reported":1687021493,"current_range_meters":11600,"station_id":"ce4bhr92rcd13ifvqhrg","pricing_plan_id":"free"},{"bike_id":"b9b44b37-7edf-4ab6-8685-17eb58a26dbc","system_id":"levelo_inurba_marseille","lat":43.295169,"lon":5.390426,"is_reserved":false,"is_disabled":false,"rental_uris":{"android":"levelo://app?vid=b9b44b37-7edf-4ab6-8685-17eb58a26dbc","ios":"levelo://app?vid=b9b44b37-7edf-4ab6-8685-17eb58a26dbc"},"vehicle_type_id":"4","last_reported":1687021493,"current_range_meters":29600,"station_id":"ce4bh3p2rcd13ifvqdp0","pricing_plan_id":"free"},{"bike_id":"caa05b16-db96-4c16-a089-27a4a2e74e10","system_id":"levelo_inurba_marseille","lat":43.295169,"lon":5.390426,"is_reserved":false,"is_disabled":false,"rental_uris":{"android":"levelo://app?vid=caa05b16-db96-4c16-a089-27a4a2e74e10","ios":"levelo://app?vid=caa05b16-db96-4c16-a089-27a4a2e74e10"},"vehicle_type_id":"4","last_reported":1687021493,"current_range_meters":4800,"station_id":"ce4bh3p2rcd13ifvqdp0","pricing_plan_id":"free"},{"bike_id":"1810241a-fd61-4b85-ad8a-73b5e77f53da","system_id":"levelo_inurba_marseille","lat":43.28856,"lon":5.358371,"is_reserved":false,"is_disabled":false,"rental_uris":{"android":"levelo://app?vid=1810241a-fd61-4b85-ad8a-73b5e77f53da","ios":"levelo://app?vid=1810241a-fd61-4b85-ad8a-73b5e77f53da"},"vehicle_type_id":"4","last_reported":1687021493,"current_range_meters":4800,"station_id":"ce4bhb12rcd13ifvqem0","pricing_plan_id":"free"},{"bike_id":"c0fb8083-e02d-4dec-b1b9-fa095e6c5b75","system_id":"levelo_inurba_marseille","lat":43.337396,"lon":5.374526,"is_reserved":false,"is_disabled":false,"rental_uris":{"android":"levelo://app?vid=c0fb8083-e02d-4dec-b1b9-fa095e6c5b75","ios":"levelo://app?vid=c0fb8083-e02d-4dec-b1b9-fa095e6c5b75"},"vehicle_type_id":"4","last_reported":1687021493,"current_range_meters":0,"station_id":"ce4bhp92rcd13ifvqhag","pricing_plan_id":"free"},{"bike_id":"41a8749b-6d93-4d1b-8e52-c5f60f65ae7c","system_id":"levelo_inurba_marseille","lat":43.33752,"lon":5.37443,"is_reserved":false,"is_disabled":false,"rental_uris":{"android":"levelo://app?vid=41a8749b-6d93-4d1b-8e52-c5f60f65ae7c","ios":"levelo://app?vid=41a8749b-6d93-4d1b-8e52-c5f60f65ae7c"},"vehicle_type_id":"4","last_reported":1687021493,"current_range_meters":30400,"station_id":"","pricing_plan_id":"free"},{"bike_id":"0a806afd-7f51-497e-bc2a-ee1f2197b580","system_id":"levelo_inurba_marseille","lat":43.301117,"lon":5.398795,"is_reserved":false,"is_disabled":false,"rental_uris":{"android":"levelo://app?vid=0a806afd-7f51-497e-bc2a-ee1f2197b580","ios":"levelo://app?vid=0a806afd-7f51-497e-bc2a-ee1f2197b580"},"vehicle_type_id":"4","last_reported":1687021493,"current_range_meters":400,"station_id":"ce4bh0h2rcd13ifvqd40","pricing_plan_id":"free"},{"bike_id":"be3a1d76-c98d-43e3-af63-0f286cdd93d5","system_id":"levelo_inurba_marseille","lat":43.301117,"lon":5.398795,"is_reserved":false,"is_disabled":false,"rental_uris":{"android":"levelo://app?vid=be3a1d76-c98d-43e3-af63-0f286cdd93d5","ios":"levelo://app?vid=be3a1d76-c98d-43e3-af63-0f286cdd93d5"},"vehicle_type_id":"4","last_reported":1687021493,"current_range_meters":0,"station_id":"ce4bh0h2rcd13ifvqd40","pricing_plan_id":"free"},{"bike_id":"4f8fef4e-7b42-4f13-800b-87c12da5cbcb","system_id":"levelo_inurba_marseille","lat":43.301117,"lon":5.398795,"is_reserved":false,"is_disabled":false,"rental_uris":{"android":"levelo://app?vid=4f8fef4e-7b42-4f13-800b-87c12da5cbcb","ios":"levelo://app?vid=4f8fef4e-7b42-4f13-800b-87c12da5cbcb"},"vehicle_type_id":"4","last_reported":1687021493,"current_range_meters":3600,"station_id":"ce4bh0h2rcd13ifvqd40","pricing_plan_id":"free"},{"bike_id":"5561adf4-42d8-4c3f-a7cb-b72809a9e4b0","system_id":"levelo_inurba_marseille","lat":43.2866,"lon":5.36347,"is_reserved":false,"is_disabled":false,"rental_uris":{"android":"levelo://app?vid=5561adf4-42d8-4c3f-a7cb-b72809a9e4b0","ios":"levelo://app?vid=5561adf4-42d8-4c3f-a7cb-b72809a9e4b0"},"vehicle_type_id":"4","last_reported":1687021493,"current_range_meters":0,"station_id":"ce4bhah2rcd13ifvqej0","pricing_plan_id":"free"},{"bike_id":"bc67aa88-e3ee-4697-b89a-1e140c885be3","system_id":"levelo_inurba_marseille","lat":43.28736,"lon":5.37706,"is_reserved":false,"is_disabled":false,"rental_uris":{"android":"levelo://app?vid=bc67aa88-e3ee-4697-b89a-1e140c885be3","ios":"levelo://app?vid=bc67aa88-e3ee-4697-b89a-1e140c885be3"},"vehicle_type_id":"4","last_reported":1687021493,"current_range_meters":2400,"station_id":"","pricing_plan_id":"free"},{"bike_id":"09b9bb39-cb76-4697-b0d5-22aadd019f45","system_id":"levelo_inurba_marseille","lat":43.302759,"lon":5.400793,"is_reserved":false,"is_disabled":false,"rental_uris":{"android":"levelo://app?vid=09b9bb39-cb76-4697-b0d5-22aadd019f45","ios":"levelo://app?vid=09b9bb39-cb76-4697-b0d5-22aadd019f45"},"vehicle_type_id":"4","last_reported":1687021493,"current_range_meters":2400,"station_id":"ce4bgvh2rcd13ifvqcs0","pricing_plan_id":"free"},{"bike_id":"9a7d8b26-15a1-4a84-bb49-21d39bb7f22f","system_id":"levelo_inurba_marseille","lat":43.290345,"lon":5.38646,"is_reserved":false,"is_disabled":false,"rental_uris":{"android":"levelo://app?vid=9a7d8b26-15a1-4a84-bb49-21d39bb7f22f","ios":"levelo://app?vid=9a7d8b26-15a1-4a84-bb49-21d39bb7f22f"},"vehicle_type_id":"4","last_reported":1687021493,"current_range_meters":7600,"station_id":"ce4bh4p2rcd13ifvqe0g","pricing_plan_id":"free"},{"bike_id":"fab32c9c-bd74-453f-888e-08ae03b4a1c4","system_id":"levelo_inurba_marseille","lat":43.28609,"lon":5.37061,"is_reserved":false,"is_disabled":false,"rental_uris":{"android":"levelo://app?vid=fab32c9c-bd74-453f-888e-08ae03b4a1c4","ios":"levelo://app?vid=fab32c9c-bd74-453f-888e-08ae03b4a1c4"},"vehicle_type_id":"4","last_reported":1687021493,"current_range_meters":15200,"station_id":"ce4bht12rcd13ifvqi60","pricing_plan_id":"free"},{"bike_id":"f75e8b8b-e494-4dc0-a1f3-55ce297e6284","system_id":"levelo_inurba_marseille","lat":43.316517,"lon":5.404375,"is_reserved":false,"is_disabled":false,"rental_uris":{"android":"levelo://app?vid=f75e8b8b-e494-4dc0-a1f3-55ce297e6284","ios":"levelo://app?vid=f75e8b8b-e494-4dc0-a1f3-55ce297e6284"},"vehicle_type_id":"4","last_reported":1687021493,"current_range_meters":31200,"station_id":"ce4bh012rcd13ifvqd00","pricing_plan_id":"free"},{"bike_id":"c712ba7a-0398-4157-b272-0965b49b85cf","system_id":"levelo_inurba_marseille","lat":43.291994,"lon":5.392907,"is_reserved":false,"is_disabled":false,"rental_uris":{"android":"levelo://app?vid=c712ba7a-0398-4157-b272-0965b49b85cf","ios":"levelo://app?vid=c712ba7a-0398-4157-b272-0965b49b85cf"},"vehicle_type_id":"4","last_reported":1687021493,"current_range_meters":3200,"station_id":"ce4bh192rcd13ifvqdd0","pricing_plan_id":"free"},{"bike_id":"3df9c647-da8d-4b97-9b2f-0d2e5e3440f7","system_id":"levelo_inurba_marseille","lat":43.284534,"lon":5.358662,"is_reserved":false,"is_disabled":false,"rental_uris":{"android":"levelo://app?vid=3df9c647-da8d-4b97-9b2f-0d2e5e3440f7","ios":"levelo://app?vid=3df9c647-da8d-4b97-9b2f-0d2e5e3440f7"},"vehicle_type_id":"4","last_reported":1687021493,"current_range_meters":28400,"station_id":"ce4bhah2rcd13ifvqei0","pricing_plan_id":"free"},{"bike_id":"9d1f36b9-3218-4ecb-8e6c-d3d547b85284","system_id":"levelo_inurba_marseille","lat":43.284618,"lon":5.358888,"is_reserved":false,"is_disabled":false,"rental_uris":{"android":"levelo://app?vid=9d1f36b9-3218-4ecb-8e6c-d3d547b85284","ios":"levelo://app?vid=9d1f36b9-3218-4ecb-8e6c-d3d547b85284"},"vehicle_type_id":"4","last_reported":1687021493,"current_range_meters":7600,"station_id":"","pricing_plan_id":"free"},{"bike_id":"07424e45-9942-419d-b11f-ed727fbafe13","system_id":"levelo_inurba_marseille","lat":43.284534,"lon":5.358662,"is_reserved":false,"is_disabled":false,"rental_uris":{"android":"levelo://app?vid=07424e45-9942-419d-b11f-ed727fbafe13","ios":"levelo://app?vid=07424e45-9942-419d-b11f-ed727fbafe13"},"vehicle_type_id":"4","last_reported":1687021493,"current_range_meters":4400,"station_id":"ce4bhah2rcd13ifvqei0","pricing_plan_id":"free"},{"bike_id":"dbe989d1-bbe3-4147-b7dd-f54ed44c00bd","system_id":"levelo_inurba_marseille","lat":43.284534,"lon":5.358662,"is_reserved":false,"is_disabled":false,"rental_uris":{"android":"levelo://app?vid=dbe989d1-bbe3-4147-b7dd-f54ed44c00bd","ios":"levelo://app?vid=dbe989d1-bbe3-4147-b7dd-f54ed44c00bd"},"vehicle_type_id":"4","last_reported":1687021493,"current_range_meters":10000,"station_id":"ce4bhah2rcd13ifvqei0","pricing_plan_id":"free"},{"bike_id":"6c1046b6-60b8-4fe1-a281-8a22d6427902","system_id":"levelo_inurba_marseille","lat":43.28598,"lon":5.35102,"is_reserved":false,"is_disabled":false,"rental_uris":{"android":"levelo://app?vid=6c1046b6-60b8-4fe1-a281-8a22d6427902","ios":"levelo://app?vid=6c1046b6-60b8-4fe1-a281-8a22d6427902"},"vehicle_type_id":"4","last_reported":1687021493,"current_range_meters":28400,"station_id":"","pricing_plan_id":"free"},{"bike_id":"43275ef6-770c-4f0e-926c-1c3aecd7abec","system_id":"levelo_inurba_marseille","lat":43.287909,"lon":5.390554,"is_reserved":false,"is_disabled":false,"rental_uris":{"android":"levelo://app?vid=43275ef6-770c-4f0e-926c-1c3aecd7abec","ios":"levelo://app?vid=43275ef6-770c-4f0e-926c-1c3aecd7abec"},"vehicle_type_id":"4","last_reported":1687021493,"current_range_meters":15600,"station_id":"","pricing_plan_id":"free"},{"bike_id":"16e5fedd-6e86-436a-a0a2-72c7cd60a6ea","system_id":"levelo_inurba_marseille","lat":43.323464,"lon":5.406297,"is_reserved":false,"is_disabled":false,"rental_uris":{"android":"levelo://app?vid=16e5fedd-6e86-436a-a0a2-72c7cd60a6ea","ios":"levelo://app?vid=16e5fedd-6e86-436a-a0a2-72c7cd60a6ea"},"vehicle_type_id":"4","last_reported":1687021493,"current_range_meters":29600,"station_id":"ce4bhq92rcd13ifvqhjg","pricing_plan_id":"free"},{"bike_id":"1d162728-65d2-4118-bff4-5fd91aae5bf2","system_id":"levelo_inurba_marseille","lat":43.284787,"lon":5.384116,"is_reserved":false,"is_disabled":false,"rental_uris":{"android":"levelo://app?vid=1d162728-65d2-4118-bff4-5fd91aae5bf2","ios":"levelo://app?vid=1d162728-65d2-4118-bff4-5fd91aae5bf2"},"vehicle_type_id":"4","last_reported":1687021493,"current_range_meters":2400,"station_id":"ce4bh512rcd13ifvqe3g","pricing_plan_id":"free"},{"bike_id":"19830262-b022-4ec0-a4f2-bb3c52867a0b","system_id":"levelo_inurba_marseille","lat":43.31889,"lon":5.40823,"is_reserved":false,"is_disabled":false,"rental_uris":{"android":"levelo://app?vid=19830262-b022-4ec0-a4f2-bb3c52867a0b","ios":"levelo://app?vid=19830262-b022-4ec0-a4f2-bb3c52867a0b"},"vehicle_type_id":"4","last_reported":1687021493,"current_range_meters":23200,"station_id":"","pricing_plan_id":"free"},{"bike_id":"00b4d942-d645-4a17-a320-9c02b5ecca68","system_id":"levelo_inurba_marseille","lat":43.288501,"lon":5.393087,"is_reserved":false,"is_disabled":false,"rental_uris":{"android":"levelo://app?vid=00b4d942-d645-4a17-a320-9c02b5ecca68","ios":"levelo://app?vid=00b4d942-d645-4a17-a320-9c02b5ecca68"},"vehicle_type_id":"4","last_reported":1687021493,"current_range_meters":25200,"station_id":"ce4bh2p2rcd13ifvqdi0","pricing_plan_id":"free"},{"bike_id":"56407a43-42f6-4391-8f67-00393dc64e82","system_id":"levelo_inurba_marseille","lat":43.28416,"lon":5.34979,"is_reserved":false,"is_disabled":false,"rental_uris":{"android":"levelo://app?vid=56407a43-42f6-4391-8f67-00393dc64e82","ios":"levelo://app?vid=56407a43-42f6-4391-8f67-00393dc64e82"},"vehicle_type_id":"4","last_reported":1687021493,"current_range_meters":1600,"station_id":"ce4bhbh2rcd13ifvqepg","pricing_plan_id":"free"},{"bike_id":"569ba3df-19c6-47f4-9836-a904a783ad73","system_id":"levelo_inurba_marseille","lat":43.29048,"lon":5.39937,"is_reserved":false,"is_disabled":false,"rental_uris":{"android":"levelo://app?vid=569ba3df-19c6-47f4-9836-a904a783ad73","ios":"levelo://app?vid=569ba3df-19c6-47f4-9836-a904a783ad73"},"vehicle_type_id":"4","last_reported":1687021493,"current_range_meters":14000,"station_id":"","pricing_plan_id":"free"},{"bike_id":"563febb5-143b-4b09-8579-4c8b53767272","system_id":"levelo_inurba_marseille","lat":43.28039,"lon":5.369297,"is_reserved":false,"is_disabled":false,"rental_uris":{"android":"levelo://app?vid=563febb5-143b-4b09-8579-4c8b53767272","ios":"levelo://app?vid=563febb5-143b-4b09-8579-4c8b53767272"},"vehicle_type_id":"4","last_reported":1687021493,"current_range_meters":26800,"station_id":"ce4bha12rcd13ifvqef0","pricing_plan_id":"free"},{"bike_id":"1e4637b8-d4fd-488a-97e8-a7bcb42e022b","system_id":"levelo_inurba_marseille","lat":43.28039,"lon":5.369297,"is_reserved":false,"is_disabled":false,"rental_uris":{"android":"levelo://app?vid=1e4637b8-d4fd-488a-97e8-a7bcb42e022b","ios":"levelo://app?vid=1e4637b8-d4fd-488a-97e8-a7bcb42e022b"},"vehicle_type_id":"4","last_reported":1687021493,"current_range_meters":21200,"station_id":"ce4bha12rcd13ifvqef0","pricing_plan_id":"free"},{"bike_id":"d8971cff-2fda-4ee6-820f-1655b798df85","system_id":"levelo_inurba_marseille","lat":43.28104,"lon":5.37835,"is_reserved":false,"is_disabled":false,"rental_uris":{"android":"levelo://app?vid=d8971cff-2fda-4ee6-820f-1655b798df85","ios":"levelo://app?vid=d8971cff-2fda-4ee6-820f-1655b798df85"},"vehicle_type_id":"4","last_reported":1687021493,"current_range_meters":25200,"station_id":"ce4bha12rcd13ifvqee0","pricing_plan_id":"free"},{"bike_id":"1791edfc-d349-49b4-8692-691def8869c7","system_id":"levelo_inurba_marseille","lat":43.284462,"lon":5.392121,"is_reserved":false,"is_disabled":false,"rental_uris":{"android":"levelo://app?vid=1791edfc-d349-49b4-8692-691def8869c7","ios":"levelo://app?vid=1791edfc-d349-49b4-8692-691def8869c7"},"vehicle_type_id":"4","last_reported":1687021493,"current_range_meters":13600,"station_id":"ce4bhoh2rcd13ifvqh5g","pricing_plan_id":"free"},{"bike_id":"197f3d2b-8561-4f73-b95f-e8acb556b693","system_id":"levelo_inurba_marseille","lat":43.284462,"lon":5.392121,"is_reserved":false,"is_disabled":false,"rental_uris":{"android":"levelo://app?vid=197f3d2b-8561-4f73-b95f-e8acb556b693","ios":"levelo://app?vid=197f3d2b-8561-4f73-b95f-e8acb556b693"},"vehicle_type_id":"4","last_reported":1687021493,"current_range_meters":26800,"station_id":"ce4bhoh2rcd13ifvqh5g","pricing_plan_id":"free"},{"bike_id":"7adefb8e-5413-445c-8c9a-453501616b33","system_id":"levelo_inurba_marseille","lat":43.27618,"lon":5.361009,"is_reserved":false,"is_disabled":false,"rental_uris":{"android":"levelo://app?vid=7adefb8e-5413-445c-8c9a-453501616b33","ios":"levelo://app?vid=7adefb8e-5413-445c-8c9a-453501616b33"},"vehicle_type_id":"4","last_reported":1687021493,"current_range_meters":14400,"station_id":"ce4bgj92rcd13ifvqbe0","pricing_plan_id":"free"},{"bike_id":"9e20c55a-b690-4187-b236-01da45e83f55","system_id":"levelo_inurba_marseille","lat":43.27618,"lon":5.361009,"is_reserved":false,"is_disabled":false,"rental_uris":{"android":"levelo://app?vid=9e20c55a-b690-4187-b236-01da45e83f55","ios":"levelo://app?vid=9e20c55a-b690-4187-b236-01da45e83f55"},"vehicle_type_id":"4","last_reported":1687021493,"current_range_meters":8400,"station_id":"ce4bgj92rcd13ifvqbe0","pricing_plan_id":"free"},{"bike_id":"3afa5abb-0a64-479c-888a-cf99465cd00a","system_id":"levelo_inurba_marseille","lat":43.27819,"lon":5.38909,"is_reserved":false,"is_disabled":false,"rental_uris":{"android":"levelo://app?vid=3afa5abb-0a64-479c-888a-cf99465cd00a","ios":"levelo://app?vid=3afa5abb-0a64-479c-888a-cf99465cd00a"},"vehicle_type_id":"4","last_reported":1687021493,"current_range_meters":2000,"station_id":"","pricing_plan_id":"free"},{"bike_id":"16f5150b-222c-4435-bf55-dfc8707e4e02","system_id":"levelo_inurba_marseille","lat":43.27381,"lon":5.36257,"is_reserved":false,"is_disabled":false,"rental_uris":{"android":"levelo://app?vid=16f5150b-222c-4435-bf55-dfc8707e4e02","ios":"levelo://app?vid=16f5150b-222c-4435-bf55-dfc8707e4e02"},"vehicle_type_id":"4","last_reported":1687021493,"current_range_meters":31200,"station_id":"ce4bhbh2rcd13ifvqeo0","pricing_plan_id":"free"},{"bike_id":"621e84f8-0369-449e-8b74-f74eb9026a07","system_id":"levelo_inurba_marseille","lat":43.273613,"lon":5.362705,"is_reserved":false,"is_disabled":false,"rental_uris":{"android":"levelo://app?vid=621e84f8-0369-449e-8b74-f74eb9026a07","ios":"levelo://app?vid=621e84f8-0369-449e-8b74-f74eb9026a07"},"vehicle_type_id":"4","last_reported":1687021493,"current_range_meters":31200,"station_id":"ce4bhbh2rcd13ifvqeo0","pricing_plan_id":"free"},{"bike_id":"e51111b9-732c-4bed-bd74-14aeba5eed3d","system_id":"levelo_inurba_marseille","lat":43.273613,"lon":5.362705,"is_reserved":false,"is_disabled":false,"rental_uris":{"android":"levelo://app?vid=e51111b9-732c-4bed-bd74-14aeba5eed3d","ios":"levelo://app?vid=e51111b9-732c-4bed-bd74-14aeba5eed3d"},"vehicle_type_id":"4","last_reported":1687021493,"current_range_meters":800,"station_id":"ce4bhbh2rcd13ifvqeo0","pricing_plan_id":"free"},{"bike_id":"3d40ae05-ddd1-4931-bb7e-25d2790a90a5","system_id":"levelo_inurba_marseille","lat":43.273613,"lon":5.362705,"is_reserved":false,"is_disabled":false,"rental_uris":{"android":"levelo://app?vid=3d40ae05-ddd1-4931-bb7e-25d2790a90a5","ios":"levelo://app?vid=3d40ae05-ddd1-4931-bb7e-25d2790a90a5"},"vehicle_type_id":"4","last_reported":1687021493,"current_range_meters":800,"station_id":"ce4bhbh2rcd13ifvqeo0","pricing_plan_id":"free"},{"bike_id":"fa46bb14-3080-4095-99ad-8f702dfdea64","system_id":"levelo_inurba_marseille","lat":43.27371,"lon":5.36259,"is_reserved":false,"is_disabled":false,"rental_uris":{"android":"levelo://app?vid=fa46bb14-3080-4095-99ad-8f702dfdea64","ios":"levelo://app?vid=fa46bb14-3080-4095-99ad-8f702dfdea64"},"vehicle_type_id":"4","last_reported":1687021493,"current_range_meters":0,"station_id":"ce4bhbh2rcd13ifvqeo0","pricing_plan_id":"free"},{"bike_id":"8964dcfd-54ef-4ea0-a06f-e367d624d000","system_id":"levelo_inurba_marseille","lat":43.273609,"lon":5.362708,"is_reserved":false,"is_disabled":false,"rental_uris":{"android":"levelo://app?vid=8964dcfd-54ef-4ea0-a06f-e367d624d000","ios":"levelo://app?vid=8964dcfd-54ef-4ea0-a06f-e367d624d000"},"vehicle_type_id":"4","last_reported":1687021493,"current_range_meters":1600,"station_id":"ce4bhbh2rcd13ifvqeo0","pricing_plan_id":"free"},{"bike_id":"1ed24a88-d970-46fa-8564-4ee83b78dac4","system_id":"levelo_inurba_marseille","lat":43.317121,"lon":5.423936,"is_reserved":false,"is_disabled":false,"rental_uris":{"android":"levelo://app?vid=1ed24a88-d970-46fa-8564-4ee83b78dac4","ios":"levelo://app?vid=1ed24a88-d970-46fa-8564-4ee83b78dac4"},"vehicle_type_id":"4","last_reported":1687021493,"current_range_meters":15600,"station_id":"ce4bhp92rcd13ifvqhbg","pricing_plan_id":"free"},{"bike_id":"3d7d9d06-9901-42a0-92c1-7b49c08ce92c","system_id":"levelo_inurba_marseille","lat":43.310785,"lon":5.424305,"is_reserved":false,"is_disabled":false,"rental_uris":{"android":"levelo://app?vid=3d7d9d06-9901-42a0-92c1-7b49c08ce92c","ios":"levelo://app?vid=3d7d9d06-9901-42a0-92c1-7b49c08ce92c"},"vehicle_type_id":"4","last_reported":1687021493,"current_range_meters":19600,"station_id":"ce4bhp92rcd13ifvqhag","pricing_plan_id":"free"},{"bike_id":"49db0a8c-203f-4e11-997c-e55d56ac900f","system_id":"levelo_inurba_marseille","lat":43.310785,"lon":5.424305,"is_reserved":false,"is_disabled":false,"rental_uris":{"android":"levelo://app?vid=49db0a8c-203f-4e11-997c-e55d56ac900f","ios":"levelo://app?vid=49db0a8c-203f-4e11-997c-e55d56ac900f"},"vehicle_type_id":"4","last_reported":1687021493,"current_range_meters":10000,"station_id":"ce4bhp92rcd13ifvqhag","pricing_plan_id":"free"},{"bike_id":"1c535f06-488b-41a2-bbf0-73861fcf0fae","system_id":"levelo_inurba_marseille","lat":43.27365,"lon":5.390398,"is_reserved":false,"is_disabled":false,"rental_uris":{"android":"levelo://app?vid=1c535f06-488b-41a2-bbf0-73861fcf0fae","ios":"levelo://app?vid=1c535f06-488b-41a2-bbf0-73861fcf0fae"},"vehicle_type_id":"4","last_reported":1687021493,"current_range_meters":6400,"station_id":"","pricing_plan_id":"free"},{"bike_id":"f82c4e0b-ce86-4de4-962b-f266d6ba506e","system_id":"levelo_inurba_marseille","lat":43.273125,"lon":5.390731,"is_reserved":false,"is_disabled":false,"rental_uris":{"android":"levelo://app?vid=f82c4e0b-ce86-4de4-962b-f266d6ba506e","ios":"levelo://app?vid=f82c4e0b-ce86-4de4-962b-f266d6ba506e"},"vehicle_type_id":"4","last_reported":1687021493,"current_range_meters":29600,"station_id":"ce4bhgp2rcd13ifvqfe0","pricing_plan_id":"free"},{"bike_id":"6275aaca-a354-407f-be44-df40f2969d44","system_id":"levelo_inurba_marseille","lat":43.273125,"lon":5.390731,"is_reserved":false,"is_disabled":false,"rental_uris":{"android":"levelo://app?vid=6275aaca-a354-407f-be44-df40f2969d44","ios":"levelo://app?vid=6275aaca-a354-407f-be44-df40f2969d44"},"vehicle_type_id":"4","last_reported":1687021493,"current_range_meters":31200,"station_id":"ce4bhgp2rcd13ifvqfe0","pricing_plan_id":"free"},{"bike_id":"cfba2fbe-9ed5-423f-b411-8d6c38451715","system_id":"levelo_inurba_marseille","lat":43.27306,"lon":5.39101,"is_reserved":false,"is_disabled":false,"rental_uris":{"android":"levelo://app?vid=cfba2fbe-9ed5-423f-b411-8d6c38451715","ios":"levelo://app?vid=cfba2fbe-9ed5-423f-b411-8d6c38451715"},"vehicle_type_id":"4","last_reported":1687021493,"current_range_meters":31600,"station_id":"ce4bhgp2rcd13ifvqfe0","pricing_plan_id":"free"},{"bike_id":"b4c01bd4-6f9c-40a0-9afa-419154457d4e","system_id":"levelo_inurba_marseille","lat":43.295523,"lon":5.422926,"is_reserved":false,"is_disabled":false,"rental_uris":{"android":"levelo://app?vid=b4c01bd4-6f9c-40a0-9afa-419154457d4e","ios":"levelo://app?vid=b4c01bd4-6f9c-40a0-9afa-419154457d4e"},"vehicle_type_id":"4","last_reported":1687021493,"current_range_meters":22000,"station_id":"ce4bhph2rcd13ifvqhdg","pricing_plan_id":"free"},{"bike_id":"90d6893a-f1b0-4703-883c-6fbf42830f17","system_id":"levelo_inurba_marseille","lat":43.27177,"lon":5.39034,"is_reserved":false,"is_disabled":false,"rental_uris":{"android":"levelo://app?vid=90d6893a-f1b0-4703-883c-6fbf42830f17","ios":"levelo://app?vid=90d6893a-f1b0-4703-883c-6fbf42830f17"},"vehicle_type_id":"4","last_reported":1687021493,"current_range_meters":26000,"station_id":"","pricing_plan_id":"free"},{"bike_id":"467aca09-28e0-4045-b8c1-7ef2c56b1541","system_id":"levelo_inurba_marseille","lat":43.278128,"lon":5.407195,"is_reserved":false,"is_disabled":false,"rental_uris":{"android":"levelo://app?vid=467aca09-28e0-4045-b8c1-7ef2c56b1541","ios":"levelo://app?vid=467aca09-28e0-4045-b8c1-7ef2c56b1541"},"vehicle_type_id":"4","last_reported":1687021493,"current_range_meters":4800,"station_id":"ce4bhnh2rcd13ifvqgtg","pricing_plan_id":"free"},{"bike_id":"6cc44998-6727-4404-96d4-63178c715f25","system_id":"levelo_inurba_marseille","lat":43.26953,"lon":5.38621,"is_reserved":false,"is_disabled":false,"rental_uris":{"android":"levelo://app?vid=6cc44998-6727-4404-96d4-63178c715f25","ios":"levelo://app?vid=6cc44998-6727-4404-96d4-63178c715f25"},"vehicle_type_id":"4","last_reported":1687021493,"current_range_meters":0,"station_id":"ce4bhh92rcd13ifvqfh0","pricing_plan_id":"free"},{"bike_id":"a5242f68-4a02-426c-850e-d7dec17e0a96","system_id":"levelo_inurba_marseille","lat":43.26932,"lon":5.38906,"is_reserved":false,"is_disabled":false,"rental_uris":{"android":"levelo://app?vid=a5242f68-4a02-426c-850e-d7dec17e0a96","ios":"levelo://app?vid=a5242f68-4a02-426c-850e-d7dec17e0a96"},"vehicle_type_id":"4","last_reported":1687021493,"current_range_meters":18000,"station_id":"","pricing_plan_id":"free"},{"bike_id":"f95769bb-6c38-48ea-a5a3-ac59ca3a49fc","system_id":"levelo_inurba_marseille","lat":43.269319,"lon":5.389397,"is_reserved":false,"is_disabled":false,"rental_uris":{"android":"levelo://app?vid=f95769bb-6c38-48ea-a5a3-ac59ca3a49fc","ios":"levelo://app?vid=f95769bb-6c38-48ea-a5a3-ac59ca3a49fc"},"vehicle_type_id":"4","last_reported":1687021493,"current_range_meters":30000,"station_id":"ce4bhhh2rcd13ifvqfl0","pricing_plan_id":"free"},{"bike_id":"e0ccc3ca-6376-4fc0-a282-82d5453560ed","system_id":"levelo_inurba_marseille","lat":43.26685,"lon":5.38276,"is_reserved":false,"is_disabled":false,"rental_uris":{"android":"levelo://app?vid=e0ccc3ca-6376-4fc0-a282-82d5453560ed","ios":"levelo://app?vid=e0ccc3ca-6376-4fc0-a282-82d5453560ed"},"vehicle_type_id":"4","last_reported":1687021493,"current_range_meters":11600,"station_id":"ce4bhg92rcd13ifvqf90","pricing_plan_id":"free"},{"bike_id":"1ba77c4e-8291-4883-be0b-8623206c5902","system_id":"levelo_inurba_marseille","lat":43.26683,"lon":5.38271,"is_reserved":false,"is_disabled":false,"rental_uris":{"android":"levelo://app?vid=1ba77c4e-8291-4883-be0b-8623206c5902","ios":"levelo://app?vid=1ba77c4e-8291-4883-be0b-8623206c5902"},"vehicle_type_id":"4","last_reported":1687021493,"current_range_meters":27600,"station_id":"ce4bhg92rcd13ifvqf90","pricing_plan_id":"free"},{"bike_id":"81cc30b7-a85c-4f66-b6e8-9630705e15ef","system_id":"levelo_inurba_marseille","lat":43.26682,"lon":5.38268,"is_reserved":false,"is_disabled":false,"rental_uris":{"android":"levelo://app?vid=81cc30b7-a85c-4f66-b6e8-9630705e15ef","ios":"levelo://app?vid=81cc30b7-a85c-4f66-b6e8-9630705e15ef"},"vehicle_type_id":"4","last_reported":1687021493,"current_range_meters":5200,"station_id":"ce4bhg92rcd13ifvqf90","pricing_plan_id":"free"},{"bike_id":"a40d041c-543d-4715-9137-0befbd042a7f","system_id":"levelo_inurba_marseille","lat":43.26682,"lon":5.3827,"is_reserved":false,"is_disabled":false,"rental_uris":{"android":"levelo://app?vid=a40d041c-543d-4715-9137-0befbd042a7f","ios":"levelo://app?vid=a40d041c-543d-4715-9137-0befbd042a7f"},"vehicle_type_id":"4","last_reported":1687021493,"current_range_meters":16000,"station_id":"ce4bhg92rcd13ifvqf90","pricing_plan_id":"free"},{"bike_id":"80b55d8c-7ac0-4e8b-8f62-d49781de8e9b","system_id":"levelo_inurba_marseille","lat":43.26681,"lon":5.38272,"is_reserved":false,"is_disabled":false,"rental_uris":{"android":"levelo://app?vid=80b55d8c-7ac0-4e8b-8f62-d49781de8e9b","ios":"levelo://app?vid=80b55d8c-7ac0-4e8b-8f62-d49781de8e9b"},"vehicle_type_id":"4","last_reported":1687021493,"current_range_meters":26400,"station_id":"ce4bhg92rcd13ifvqf90","pricing_plan_id":"free"},{"bike_id":"2f065dcb-c530-441e-a1c4-37463df00b7f","system_id":"levelo_inurba_marseille","lat":43.26681,"lon":5.382694,"is_reserved":false,"is_disabled":false,"rental_uris":{"android":"levelo://app?vid=2f065dcb-c530-441e-a1c4-37463df00b7f","ios":"levelo://app?vid=2f065dcb-c530-441e-a1c4-37463df00b7f"},"vehicle_type_id":"4","last_reported":1687021493,"current_range_meters":6400,"station_id":"ce4bhg92rcd13ifvqf90","pricing_plan_id":"free"},{"bike_id":"805dd294-8c9f-4366-bba0-c6bedbd1112d","system_id":"levelo_inurba_marseille","lat":43.26681,"lon":5.382694,"is_reserved":false,"is_disabled":false,"rental_uris":{"android":"levelo://app?vid=805dd294-8c9f-4366-bba0-c6bedbd1112d","ios":"levelo://app?vid=805dd294-8c9f-4366-bba0-c6bedbd1112d"},"vehicle_type_id":"4","last_reported":1687021493,"current_range_meters":23200,"station_id":"ce4bhg92rcd13ifvqf90","pricing_plan_id":"free"},{"bike_id":"6f613e48-b307-4edc-87c4-5189cad8fc33","system_id":"levelo_inurba_marseille","lat":43.26681,"lon":5.382694,"is_reserved":false,"is_disabled":false,"rental_uris":{"android":"levelo://app?vid=6f613e48-b307-4edc-87c4-5189cad8fc33","ios":"levelo://app?vid=6f613e48-b307-4edc-87c4-5189cad8fc33"},"vehicle_type_id":"4","last_reported":1687021493,"current_range_meters":24400,"station_id":"ce4bhg92rcd13ifvqf90","pricing_plan_id":"free"},{"bike_id":"4b40d33a-7722-40ce-b035-002d0052c2ac","system_id":"levelo_inurba_marseille","lat":43.26681,"lon":5.382694,"is_reserved":false,"is_disabled":false,"rental_uris":{"android":"levelo://app?vid=4b40d33a-7722-40ce-b035-002d0052c2ac","ios":"levelo://app?vid=4b40d33a-7722-40ce-b035-002d0052c2ac"},"vehicle_type_id":"4","last_reported":1687021493,"current_range_meters":28000,"station_id":"ce4bhg92rcd13ifvqf90","pricing_plan_id":"free"},{"bike_id":"3987290e-fd4b-4f2b-81c0-57fca98f9cde","system_id":"levelo_inurba_marseille","lat":43.267966,"lon":5.393976,"is_reserved":false,"is_disabled":false,"rental_uris":{"android":"levelo://app?vid=3987290e-fd4b-4f2b-81c0-57fca98f9cde","ios":"levelo://app?vid=3987290e-fd4b-4f2b-81c0-57fca98f9cde"},"vehicle_type_id":"4","last_reported":1687021493,"current_range_meters":31200,"station_id":"ce4bhh12rcd13ifvqfg0","pricing_plan_id":"free"},{"bike_id":"e48bd678-b676-41f9-8018-f7840316a446","system_id":"levelo_inurba_marseille","lat":43.26195,"lon":5.37441,"is_reserved":false,"is_disabled":false,"rental_uris":{"android":"levelo://app?vid=e48bd678-b676-41f9-8018-f7840316a446","ios":"levelo://app?vid=e48bd678-b676-41f9-8018-f7840316a446"},"vehicle_type_id":"4","last_reported":1687021493,"current_range_meters":31200,"station_id":"ce4bhgp2rcd13ifvqfc0","pricing_plan_id":"free"},{"bike_id":"366c1c31-ccf7-41db-a0fc-fa72c85b8778","system_id":"levelo_inurba_marseille","lat":43.261948,"lon":5.37442,"is_reserved":false,"is_disabled":false,"rental_uris":{"android":"levelo://app?vid=366c1c31-ccf7-41db-a0fc-fa72c85b8778","ios":"levelo://app?vid=366c1c31-ccf7-41db-a0fc-fa72c85b8778"},"vehicle_type_id":"4","last_reported":1687021493,"current_range_meters":31200,"station_id":"ce4bhgp2rcd13ifvqfc0","pricing_plan_id":"free"},{"bike_id":"a912c44b-7ac5-43ed-95ff-59abaa3573b5","system_id":"levelo_inurba_marseille","lat":43.26194,"lon":5.37438,"is_reserved":false,"is_disabled":false,"rental_uris":{"android":"levelo://app?vid=a912c44b-7ac5-43ed-95ff-59abaa3573b5","ios":"levelo://app?vid=a912c44b-7ac5-43ed-95ff-59abaa3573b5"},"vehicle_type_id":"4","last_reported":1687021493,"current_range_meters":400,"station_id":"ce4bhgp2rcd13ifvqfc0","pricing_plan_id":"free"},{"bike_id":"0293997a-41d3-4615-9286-f3498677475b","system_id":"levelo_inurba_marseille","lat":43.261936,"lon":5.374421,"is_reserved":false,"is_disabled":false,"rental_uris":{"android":"levelo://app?vid=0293997a-41d3-4615-9286-f3498677475b","ios":"levelo://app?vid=0293997a-41d3-4615-9286-f3498677475b"},"vehicle_type_id":"4","last_reported":1687021493,"current_range_meters":31200,"station_id":"ce4bhgp2rcd13ifvqfc0","pricing_plan_id":"free"},{"bike_id":"a95dfe18-aef4-44fa-9acd-0791ab0e9223","system_id":"levelo_inurba_marseille","lat":43.261935,"lon":5.374418,"is_reserved":false,"is_disabled":false,"rental_uris":{"android":"levelo://app?vid=a95dfe18-aef4-44fa-9acd-0791ab0e9223","ios":"levelo://app?vid=a95dfe18-aef4-44fa-9acd-0791ab0e9223"},"vehicle_type_id":"4","last_reported":1687021493,"current_range_meters":22000,"station_id":"ce4bhgp2rcd13ifvqfc0","pricing_plan_id":"free"},{"bike_id":"cb5d088e-65c0-4525-b6cc-f2d18e057028","system_id":"levelo_inurba_marseille","lat":43.26191,"lon":5.37428,"is_reserved":false,"is_disabled":false,"rental_uris":{"android":"levelo://app?vid=cb5d088e-65c0-4525-b6cc-f2d18e057028","ios":"levelo://app?vid=cb5d088e-65c0-4525-b6cc-f2d18e057028"},"vehicle_type_id":"4","last_reported":1687021493,"current_range_meters":31200,"station_id":"ce4bhgp2rcd13ifvqfc0","pricing_plan_id":"free"},{"bike_id":"c94a4777-53e1-4df5-a7e5-c8e1b790b66e","system_id":"levelo_inurba_marseille","lat":43.261782,"lon":5.374515,"is_reserved":false,"is_disabled":false,"rental_uris":{"android":"levelo://app?vid=c94a4777-53e1-4df5-a7e5-c8e1b790b66e","ios":"levelo://app?vid=c94a4777-53e1-4df5-a7e5-c8e1b790b66e"},"vehicle_type_id":"4","last_reported":1687021493,"current_range_meters":31200,"station_id":"ce4bhgp2rcd13ifvqfc0","pricing_plan_id":"free"},{"bike_id":"f522bde3-59a4-4b18-ac64-faf803accafb","system_id":"levelo_inurba_marseille","lat":43.26192,"lon":5.37445,"is_reserved":false,"is_disabled":false,"rental_uris":{"android":"levelo://app?vid=f522bde3-59a4-4b18-ac64-faf803accafb","ios":"levelo://app?vid=f522bde3-59a4-4b18-ac64-faf803accafb"},"vehicle_type_id":"4","last_reported":1687021493,"current_range_meters":15200,"station_id":"ce4bhgp2rcd13ifvqfc0","pricing_plan_id":"free"},{"bike_id":"d671a9ff-b478-4fdf-9c92-7a33ba1eb6c7","system_id":"levelo_inurba_marseille","lat":43.261782,"lon":5.374515,"is_reserved":false,"is_disabled":false,"rental_uris":{"android":"levelo://app?vid=d671a9ff-b478-4fdf-9c92-7a33ba1eb6c7","ios":"levelo://app?vid=d671a9ff-b478-4fdf-9c92-7a33ba1eb6c7"},"vehicle_type_id":"4","last_reported":1687021493,"current_range_meters":29600,"station_id":"ce4bhgp2rcd13ifvqfc0","pricing_plan_id":"free"},{"bike_id":"fdc27c93-2398-4427-969a-d5f9cbf527b1","system_id":"levelo_inurba_marseille","lat":43.26199,"lon":5.37549,"is_reserved":false,"is_disabled":false,"rental_uris":{"android":"levelo://app?vid=fdc27c93-2398-4427-969a-d5f9cbf527b1","ios":"levelo://app?vid=fdc27c93-2398-4427-969a-d5f9cbf527b1"},"vehicle_type_id":"4","last_reported":1687021493,"current_range_meters":17200,"station_id":"","pricing_plan_id":"free"},{"bike_id":"279b1866-2ac0-4101-af6b-8da34ddbf0a2","system_id":"levelo_inurba_marseille","lat":43.2619,"lon":5.37442,"is_reserved":false,"is_disabled":false,"rental_uris":{"android":"levelo://app?vid=279b1866-2ac0-4101-af6b-8da34ddbf0a2","ios":"levelo://app?vid=279b1866-2ac0-4101-af6b-8da34ddbf0a2"},"vehicle_type_id":"4","last_reported":1687021493,"current_range_meters":31200,"station_id":"ce4bhgp2rcd13ifvqfc0","pricing_plan_id":"free"},{"bike_id":"eddb3313-a0b2-4b01-a5d0-5474034fb4a8","system_id":"levelo_inurba_marseille","lat":43.26188,"lon":5.37442,"is_reserved":false,"is_disabled":false,"rental_uris":{"android":"levelo://app?vid=eddb3313-a0b2-4b01-a5d0-5474034fb4a8","ios":"levelo://app?vid=eddb3313-a0b2-4b01-a5d0-5474034fb4a8"},"vehicle_type_id":"4","last_reported":1687021493,"current_range_meters":31200,"station_id":"ce4bhgp2rcd13ifvqfc0","pricing_plan_id":"free"},{"bike_id":"51e85b52-3e84-4b66-8bce-366b8bb93af4","system_id":"levelo_inurba_marseille","lat":43.26187,"lon":5.37438,"is_reserved":false,"is_disabled":false,"rental_uris":{"android":"levelo://app?vid=51e85b52-3e84-4b66-8bce-366b8bb93af4","ios":"levelo://app?vid=51e85b52-3e84-4b66-8bce-366b8bb93af4"},"vehicle_type_id":"4","last_reported":1687021493,"current_range_meters":31200,"station_id":"ce4bhgp2rcd13ifvqfc0","pricing_plan_id":"free"},{"bike_id":"9022c36e-736a-418e-a7df-008b229d313d","system_id":"levelo_inurba_marseille","lat":43.261874,"lon":5.374439,"is_reserved":false,"is_disabled":false,"rental_uris":{"android":"levelo://app?vid=9022c36e-736a-418e-a7df-008b229d313d","ios":"levelo://app?vid=9022c36e-736a-418e-a7df-008b229d313d"},"vehicle_type_id":"4","last_reported":1687021493,"current_range_meters":17600,"station_id":"ce4bhgp2rcd13ifvqfc0","pricing_plan_id":"free"},{"bike_id":"91c254b4-fef2-4a6b-9246-226657869095","system_id":"levelo_inurba_marseille","lat":43.26187,"lon":5.37442,"is_reserved":false,"is_disabled":false,"rental_uris":{"android":"levelo://app?vid=91c254b4-fef2-4a6b-9246-226657869095","ios":"levelo://app?vid=91c254b4-fef2-4a6b-9246-226657869095"},"vehicle_type_id":"4","last_reported":1687021493,"current_range_meters":31200,"station_id":"ce4bhgp2rcd13ifvqfc0","pricing_plan_id":"free"},{"bike_id":"2e37d1f6-4394-4836-b223-8a6e5f386185","system_id":"levelo_inurba_marseille","lat":43.26187,"lon":5.37443,"is_reserved":false,"is_disabled":false,"rental_uris":{"android":"levelo://app?vid=2e37d1f6-4394-4836-b223-8a6e5f386185","ios":"levelo://app?vid=2e37d1f6-4394-4836-b223-8a6e5f386185"},"vehicle_type_id":"4","last_reported":1687021493,"current_range_meters":20800,"station_id":"ce4bhgp2rcd13ifvqfc0","pricing_plan_id":"free"},{"bike_id":"f6de5261-2ec8-4898-aa4d-9f1956029baf","system_id":"levelo_inurba_marseille","lat":43.26187,"lon":5.37444,"is_reserved":false,"is_disabled":false,"rental_uris":{"android":"levelo://app?vid=f6de5261-2ec8-4898-aa4d-9f1956029baf","ios":"levelo://app?vid=f6de5261-2ec8-4898-aa4d-9f1956029baf"},"vehicle_type_id":"4","last_reported":1687021493,"current_range_meters":12800,"station_id":"ce4bhgp2rcd13ifvqfc0","pricing_plan_id":"free"},{"bike_id":"121f7621-6a2c-4063-b941-28063bda325f","system_id":"levelo_inurba_marseille","lat":43.261782,"lon":5.374515,"is_reserved":false,"is_disabled":false,"rental_uris":{"android":"levelo://app?vid=121f7621-6a2c-4063-b941-28063bda325f","ios":"levelo://app?vid=121f7621-6a2c-4063-b941-28063bda325f"},"vehicle_type_id":"4","last_reported":1687021493,"current_range_meters":31200,"station_id":"ce4bhgp2rcd13ifvqfc0","pricing_plan_id":"free"},{"bike_id":"5964e54a-7770-42d1-b654-e3599bf6b72c","system_id":"levelo_inurba_marseille","lat":43.261862,"lon":5.374454,"is_reserved":false,"is_disabled":false,"rental_uris":{"android":"levelo://app?vid=5964e54a-7770-42d1-b654-e3599bf6b72c","ios":"levelo://app?vid=5964e54a-7770-42d1-b654-e3599bf6b72c"},"vehicle_type_id":"4","last_reported":1687021493,"current_range_meters":31200,"station_id":"ce4bhgp2rcd13ifvqfc0","pricing_plan_id":"free"},{"bike_id":"857ebafb-267a-4f37-8824-53632cee37d4","system_id":"levelo_inurba_marseille","lat":43.261854,"lon":5.374457,"is_reserved":false,"is_disabled":false,"rental_uris":{"android":"levelo://app?vid=857ebafb-267a-4f37-8824-53632cee37d4","ios":"levelo://app?vid=857ebafb-267a-4f37-8824-53632cee37d4"},"vehicle_type_id":"4","last_reported":1687021493,"current_range_meters":31200,"station_id":"ce4bhgp2rcd13ifvqfc0","pricing_plan_id":"free"},{"bike_id":"b1b701c9-4ab0-47f3-9e49-cbb0fc571c34","system_id":"levelo_inurba_marseille","lat":43.26185,"lon":5.37441,"is_reserved":false,"is_disabled":false,"rental_uris":{"android":"levelo://app?vid=b1b701c9-4ab0-47f3-9e49-cbb0fc571c34","ios":"levelo://app?vid=b1b701c9-4ab0-47f3-9e49-cbb0fc571c34"},"vehicle_type_id":"4","last_reported":1687021493,"current_range_meters":13600,"station_id":"ce4bhgp2rcd13ifvqfc0","pricing_plan_id":"free"},{"bike_id":"ea3ac847-3746-4d01-a725-80e76edab382","system_id":"levelo_inurba_marseille","lat":43.26185,"lon":5.37442,"is_reserved":false,"is_disabled":false,"rental_uris":{"android":"levelo://app?vid=ea3ac847-3746-4d01-a725-80e76edab382","ios":"levelo://app?vid=ea3ac847-3746-4d01-a725-80e76edab382"},"vehicle_type_id":"4","last_reported":1687021493,"current_range_meters":18800,"station_id":"ce4bhgp2rcd13ifvqfc0","pricing_plan_id":"free"},{"bike_id":"4675d6d0-8f65-4505-a3d9-ae0724b3e1aa","system_id":"levelo_inurba_marseille","lat":43.26185,"lon":5.374434,"is_reserved":false,"is_disabled":false,"rental_uris":{"android":"levelo://app?vid=4675d6d0-8f65-4505-a3d9-ae0724b3e1aa","ios":"levelo://app?vid=4675d6d0-8f65-4505-a3d9-ae0724b3e1aa"},"vehicle_type_id":"4","last_reported":1687021493,"current_range_meters":30000,"station_id":"ce4bhgp2rcd13ifvqfc0","pricing_plan_id":"free"},{"bike_id":"2c2a662f-d645-4a0d-89bf-13b7bb7ffadc","system_id":"levelo_inurba_marseille","lat":43.26185,"lon":5.37446,"is_reserved":false,"is_disabled":false,"rental_uris":{"android":"levelo://app?vid=2c2a662f-d645-4a0d-89bf-13b7bb7ffadc","ios":"levelo://app?vid=2c2a662f-d645-4a0d-89bf-13b7bb7ffadc"},"vehicle_type_id":"4","last_reported":1687021493,"current_range_meters":6000,"station_id":"ce4bhgp2rcd13ifvqfc0","pricing_plan_id":"free"},{"bike_id":"3700f044-3ff8-4e35-ab86-449587ac7409","system_id":"levelo_inurba_marseille","lat":43.26184,"lon":5.37441,"is_reserved":false,"is_disabled":false,"rental_uris":{"android":"levelo://app?vid=3700f044-3ff8-4e35-ab86-449587ac7409","ios":"levelo://app?vid=3700f044-3ff8-4e35-ab86-449587ac7409"},"vehicle_type_id":"4","last_reported":1687021493,"current_range_meters":20000,"station_id":"ce4bhgp2rcd13ifvqfc0","pricing_plan_id":"free"},{"bike_id":"bd2475cb-5aab-4f93-b6d8-6d4eb1098577","system_id":"levelo_inurba_marseille","lat":43.26184,"lon":5.37444,"is_reserved":false,"is_disabled":false,"rental_uris":{"android":"levelo://app?vid=bd2475cb-5aab-4f93-b6d8-6d4eb1098577","ios":"levelo://app?vid=bd2475cb-5aab-4f93-b6d8-6d4eb1098577"},"vehicle_type_id":"4","last_reported":1687021493,"current_range_meters":31200,"station_id":"ce4bhgp2rcd13ifvqfc0","pricing_plan_id":"free"},{"bike_id":"ff175f9c-f54a-4c46-accd-15c20fb66a09","system_id":"levelo_inurba_marseille","lat":43.31713,"lon":5.43706,"is_reserved":false,"is_disabled":false,"rental_uris":{"android":"levelo://app?vid=ff175f9c-f54a-4c46-accd-15c20fb66a09","ios":"levelo://app?vid=ff175f9c-f54a-4c46-accd-15c20fb66a09"},"vehicle_type_id":"4","last_reported":1687021493,"current_range_meters":11200,"station_id":"ce4bhp92rcd13ifvqhcg","pricing_plan_id":"free"},{"bike_id":"96207399-40fa-4730-85d5-9420e59862bf","system_id":"levelo_inurba_marseille","lat":43.26181,"lon":5.37442,"is_reserved":false,"is_disabled":false,"rental_uris":{"android":"levelo://app?vid=96207399-40fa-4730-85d5-9420e59862bf","ios":"levelo://app?vid=96207399-40fa-4730-85d5-9420e59862bf"},"vehicle_type_id":"4","last_reported":1687021493,"current_range_meters":31200,"station_id":"ce4bhgp2rcd13ifvqfc0","pricing_plan_id":"free"},{"bike_id":"9d9aeb15-d069-470d-8416-952b433ccd31","system_id":"levelo_inurba_marseille","lat":43.26179,"lon":5.37425,"is_reserved":false,"is_disabled":false,"rental_uris":{"android":"levelo://app?vid=9d9aeb15-d069-470d-8416-952b433ccd31","ios":"levelo://app?vid=9d9aeb15-d069-470d-8416-952b433ccd31"},"vehicle_type_id":"4","last_reported":1687021493,"current_range_meters":800,"station_id":"ce4bhgp2rcd13ifvqfc0","pricing_plan_id":"free"},{"bike_id":"c110e53b-cf0c-412d-9d86-cdc6d0024913","system_id":"levelo_inurba_marseille","lat":43.26213,"lon":5.37923,"is_reserved":false,"is_disabled":false,"rental_uris":{"android":"levelo://app?vid=c110e53b-cf0c-412d-9d86-cdc6d0024913","ios":"levelo://app?vid=c110e53b-cf0c-412d-9d86-cdc6d0024913"},"vehicle_type_id":"4","last_reported":1687021493,"current_range_meters":20400,"station_id":"ce4bhjp2rcd13ifvqg90","pricing_plan_id":"free"},{"bike_id":"331f38bc-61f0-4b1a-ba09-5ed392b7f2f3","system_id":"levelo_inurba_marseille","lat":43.26213,"lon":5.37924,"is_reserved":false,"is_disabled":false,"rental_uris":{"android":"levelo://app?vid=331f38bc-61f0-4b1a-ba09-5ed392b7f2f3","ios":"levelo://app?vid=331f38bc-61f0-4b1a-ba09-5ed392b7f2f3"},"vehicle_type_id":"4","last_reported":1687021493,"current_range_meters":22000,"station_id":"ce4bhjp2rcd13ifvqg90","pricing_plan_id":"free"},{"bike_id":"7d384896-0137-4921-acd3-bc3badb3d20e","system_id":"levelo_inurba_marseille","lat":43.26212,"lon":5.37922,"is_reserved":false,"is_disabled":false,"rental_uris":{"android":"levelo://app?vid=7d384896-0137-4921-acd3-bc3badb3d20e","ios":"levelo://app?vid=7d384896-0137-4921-acd3-bc3badb3d20e"},"vehicle_type_id":"4","last_reported":1687021493,"current_range_meters":400,"station_id":"ce4bhjp2rcd13ifvqg90","pricing_plan_id":"free"},{"bike_id":"fc14b0b0-db18-45f8-ae29-152574302986","system_id":"levelo_inurba_marseille","lat":43.26211,"lon":5.37921,"is_reserved":false,"is_disabled":false,"rental_uris":{"android":"levelo://app?vid=fc14b0b0-db18-45f8-ae29-152574302986","ios":"levelo://app?vid=fc14b0b0-db18-45f8-ae29-152574302986"},"vehicle_type_id":"4","last_reported":1687021493,"current_range_meters":13200,"station_id":"ce4bhjp2rcd13ifvqg90","pricing_plan_id":"free"},{"bike_id":"ff0cd381-cf8f-40e5-a8fa-4669ac4eaee0","system_id":"levelo_inurba_marseille","lat":43.26211,"lon":5.37924,"is_reserved":false,"is_disabled":false,"rental_uris":{"android":"levelo://app?vid=ff0cd381-cf8f-40e5-a8fa-4669ac4eaee0","ios":"levelo://app?vid=ff0cd381-cf8f-40e5-a8fa-4669ac4eaee0"},"vehicle_type_id":"4","last_reported":1687021493,"current_range_meters":27200,"station_id":"ce4bhjp2rcd13ifvqg90","pricing_plan_id":"free"},{"bike_id":"6c5bad29-754d-4a11-97db-cf4dcd9f6095","system_id":"levelo_inurba_marseille","lat":43.26211,"lon":5.37927,"is_reserved":false,"is_disabled":false,"rental_uris":{"android":"levelo://app?vid=6c5bad29-754d-4a11-97db-cf4dcd9f6095","ios":"levelo://app?vid=6c5bad29-754d-4a11-97db-cf4dcd9f6095"},"vehicle_type_id":"4","last_reported":1687021493,"current_range_meters":6000,"station_id":"ce4bhjp2rcd13ifvqg90","pricing_plan_id":"free"},{"bike_id":"b76cc4f0-c162-477e-9775-3c477ba8fe87","system_id":"levelo_inurba_marseille","lat":43.2621,"lon":5.37924,"is_reserved":false,"is_disabled":false,"rental_uris":{"android":"levelo://app?vid=b76cc4f0-c162-477e-9775-3c477ba8fe87","ios":"levelo://app?vid=b76cc4f0-c162-477e-9775-3c477ba8fe87"},"vehicle_type_id":"4","last_reported":1687021493,"current_range_meters":30000,"station_id":"ce4bhjp2rcd13ifvqg90","pricing_plan_id":"free"},{"bike_id":"93b9ff2e-9e5d-4e65-97c6-41b850b52f25","system_id":"levelo_inurba_marseille","lat":43.26209,"lon":5.37922,"is_reserved":false,"is_disabled":false,"rental_uris":{"android":"levelo://app?vid=93b9ff2e-9e5d-4e65-97c6-41b850b52f25","ios":"levelo://app?vid=93b9ff2e-9e5d-4e65-97c6-41b850b52f25"},"vehicle_type_id":"4","last_reported":1687021493,"current_range_meters":25200,"station_id":"ce4bhjp2rcd13ifvqg90","pricing_plan_id":"free"},{"bike_id":"e002c8e0-d3a4-45be-a015-e49dbcdde71d","system_id":"levelo_inurba_marseille","lat":43.2621,"lon":5.37933,"is_reserved":false,"is_disabled":false,"rental_uris":{"android":"levelo://app?vid=e002c8e0-d3a4-45be-a015-e49dbcdde71d","ios":"levelo://app?vid=e002c8e0-d3a4-45be-a015-e49dbcdde71d"},"vehicle_type_id":"4","last_reported":1687021493,"current_range_meters":30000,"station_id":"ce4bhjp2rcd13ifvqg90","pricing_plan_id":"free"},{"bike_id":"bddd26ce-6b5c-4b34-85fc-515db0a13eaf","system_id":"levelo_inurba_marseille","lat":43.26209,"lon":5.37926,"is_reserved":false,"is_disabled":false,"rental_uris":{"android":"levelo://app?vid=bddd26ce-6b5c-4b34-85fc-515db0a13eaf","ios":"levelo://app?vid=bddd26ce-6b5c-4b34-85fc-515db0a13eaf"},"vehicle_type_id":"4","last_reported":1687021493,"current_range_meters":8800,"station_id":"ce4bhjp2rcd13ifvqg90","pricing_plan_id":"free"},{"bike_id":"2d0f0fe2-9dc3-4547-b7a3-e036c026eb7c","system_id":"levelo_inurba_marseille","lat":43.262012,"lon":5.379307,"is_reserved":false,"is_disabled":false,"rental_uris":{"android":"levelo://app?vid=2d0f0fe2-9dc3-4547-b7a3-e036c026eb7c","ios":"levelo://app?vid=2d0f0fe2-9dc3-4547-b7a3-e036c026eb7c"},"vehicle_type_id":"4","last_reported":1687021493,"current_range_meters":15600,"station_id":"ce4bhjp2rcd13ifvqg90","pricing_plan_id":"free"},{"bike_id":"dffe4ae7-0549-48b1-9186-50b43aa0d71b","system_id":"levelo_inurba_marseille","lat":43.26208,"lon":5.37926,"is_reserved":false,"is_disabled":false,"rental_uris":{"android":"levelo://app?vid=dffe4ae7-0549-48b1-9186-50b43aa0d71b","ios":"levelo://app?vid=dffe4ae7-0549-48b1-9186-50b43aa0d71b"},"vehicle_type_id":"4","last_reported":1687021493,"current_range_meters":14400,"station_id":"ce4bhjp2rcd13ifvqg90","pricing_plan_id":"free"},{"bike_id":"e8b6fafc-fab8-42a4-8ea0-9b2033819168","system_id":"levelo_inurba_marseille","lat":43.26208,"lon":5.37927,"is_reserved":false,"is_disabled":false,"rental_uris":{"android":"levelo://app?vid=e8b6fafc-fab8-42a4-8ea0-9b2033819168","ios":"levelo://app?vid=e8b6fafc-fab8-42a4-8ea0-9b2033819168"},"vehicle_type_id":"4","last_reported":1687021493,"current_range_meters":6000,"station_id":"ce4bhjp2rcd13ifvqg90","pricing_plan_id":"free"},{"bike_id":"169f9af3-aed2-4fdc-934f-663fee0188f6","system_id":"levelo_inurba_marseille","lat":43.26202,"lon":5.379299,"is_reserved":false,"is_disabled":false,"rental_uris":{"android":"levelo://app?vid=169f9af3-aed2-4fdc-934f-663fee0188f6","ios":"levelo://app?vid=169f9af3-aed2-4fdc-934f-663fee0188f6"},"vehicle_type_id":"4","last_reported":1687021493,"current_range_meters":20400,"station_id":"ce4bhjp2rcd13ifvqg90","pricing_plan_id":"free"},{"bike_id":"345386e5-0aa6-4b66-8386-c8304249d7e8","system_id":"levelo_inurba_marseille","lat":43.26208,"lon":5.37931,"is_reserved":false,"is_disabled":false,"rental_uris":{"android":"levelo://app?vid=345386e5-0aa6-4b66-8386-c8304249d7e8","ios":"levelo://app?vid=345386e5-0aa6-4b66-8386-c8304249d7e8"},"vehicle_type_id":"4","last_reported":1687021493,"current_range_meters":19200,"station_id":"ce4bhjp2rcd13ifvqg90","pricing_plan_id":"free"},{"bike_id":"1e06eb7f-d33a-44ad-b658-e04700a25e6f","system_id":"levelo_inurba_marseille","lat":43.26207,"lon":5.37924,"is_reserved":false,"is_disabled":false,"rental_uris":{"android":"levelo://app?vid=1e06eb7f-d33a-44ad-b658-e04700a25e6f","ios":"levelo://app?vid=1e06eb7f-d33a-44ad-b658-e04700a25e6f"},"vehicle_type_id":"4","last_reported":1687021493,"current_range_meters":4400,"station_id":"ce4bhjp2rcd13ifvqg90","pricing_plan_id":"free"},{"bike_id":"faab296f-48d1-46c5-b2d8-73e773fb8dde","system_id":"levelo_inurba_marseille","lat":43.26207,"lon":5.37924,"is_reserved":false,"is_disabled":false,"rental_uris":{"android":"levelo://app?vid=faab296f-48d1-46c5-b2d8-73e773fb8dde","ios":"levelo://app?vid=faab296f-48d1-46c5-b2d8-73e773fb8dde"},"vehicle_type_id":"4","last_reported":1687021493,"current_range_meters":22400,"station_id":"ce4bhjp2rcd13ifvqg90","pricing_plan_id":"free"},{"bike_id":"eb413128-7bf0-4167-8274-b43467d2c299","system_id":"levelo_inurba_marseille","lat":43.26207,"lon":5.37924,"is_reserved":false,"is_disabled":false,"rental_uris":{"android":"levelo://app?vid=eb413128-7bf0-4167-8274-b43467d2c299","ios":"levelo://app?vid=eb413128-7bf0-4167-8274-b43467d2c299"},"vehicle_type_id":"4","last_reported":1687021493,"current_range_meters":0,"station_id":"ce4bhjp2rcd13ifvqg90","pricing_plan_id":"free"},{"bike_id":"9d9d66d5-3cae-40ac-8709-6b524ba29811","system_id":"levelo_inurba_marseille","lat":43.26207,"lon":5.37925,"is_reserved":false,"is_disabled":false,"rental_uris":{"android":"levelo://app?vid=9d9d66d5-3cae-40ac-8709-6b524ba29811","ios":"levelo://app?vid=9d9d66d5-3cae-40ac-8709-6b524ba29811"},"vehicle_type_id":"4","last_reported":1687021493,"current_range_meters":18000,"station_id":"ce4bhjp2rcd13ifvqg90","pricing_plan_id":"free"},{"bike_id":"ab511131-7c27-4778-8d24-a26196192374","system_id":"levelo_inurba_marseille","lat":43.26207,"lon":5.37926,"is_reserved":false,"is_disabled":false,"rental_uris":{"android":"levelo://app?vid=ab511131-7c27-4778-8d24-a26196192374","ios":"levelo://app?vid=ab511131-7c27-4778-8d24-a26196192374"},"vehicle_type_id":"4","last_reported":1687021493,"current_range_meters":11600,"station_id":"ce4bhjp2rcd13ifvqg90","pricing_plan_id":"free"},{"bike_id":"a0e19f69-ff46-4cd1-a2b9-64ea9a24cf5d","system_id":"levelo_inurba_marseille","lat":43.26207,"lon":5.37928,"is_reserved":false,"is_disabled":false,"rental_uris":{"android":"levelo://app?vid=a0e19f69-ff46-4cd1-a2b9-64ea9a24cf5d","ios":"levelo://app?vid=a0e19f69-ff46-4cd1-a2b9-64ea9a24cf5d"},"vehicle_type_id":"4","last_reported":1687021493,"current_range_meters":11600,"station_id":"ce4bhjp2rcd13ifvqg90","pricing_plan_id":"free"},{"bike_id":"6f79e5b2-cd04-4e4b-9552-3e65771dce9e","system_id":"levelo_inurba_marseille","lat":43.26206,"lon":5.37923,"is_reserved":false,"is_disabled":false,"rental_uris":{"android":"levelo://app?vid=6f79e5b2-cd04-4e4b-9552-3e65771dce9e","ios":"levelo://app?vid=6f79e5b2-cd04-4e4b-9552-3e65771dce9e"},"vehicle_type_id":"4","last_reported":1687021493,"current_range_meters":18800,"station_id":"ce4bhjp2rcd13ifvqg90","pricing_plan_id":"free"},{"bike_id":"d6387107-c643-44c3-b3d3-cb93dfe84911","system_id":"levelo_inurba_marseille","lat":43.26206,"lon":5.37926,"is_reserved":false,"is_disabled":false,"rental_uris":{"android":"levelo://app?vid=d6387107-c643-44c3-b3d3-cb93dfe84911","ios":"levelo://app?vid=d6387107-c643-44c3-b3d3-cb93dfe84911"},"vehicle_type_id":"4","last_reported":1687021493,"current_range_meters":20800,"station_id":"ce4bhjp2rcd13ifvqg90","pricing_plan_id":"free"},{"bike_id":"e12747e2-cb30-40ae-8ccc-5f1f274383f1","system_id":"levelo_inurba_marseille","lat":43.26202,"lon":5.379299,"is_reserved":false,"is_disabled":false,"rental_uris":{"android":"levelo://app?vid=e12747e2-cb30-40ae-8ccc-5f1f274383f1","ios":"levelo://app?vid=e12747e2-cb30-40ae-8ccc-5f1f274383f1"},"vehicle_type_id":"4","last_reported":1687021493,"current_range_meters":13600,"station_id":"ce4bhjp2rcd13ifvqg90","pricing_plan_id":"free"},{"bike_id":"abd9f73a-dd35-47ee-8053-6243488dbb0c","system_id":"levelo_inurba_marseille","lat":43.26205,"lon":5.37922,"is_reserved":false,"is_disabled":false,"rental_uris":{"android":"levelo://app?vid=abd9f73a-dd35-47ee-8053-6243488dbb0c","ios":"levelo://app?vid=abd9f73a-dd35-47ee-8053-6243488dbb0c"},"vehicle_type_id":"4","last_reported":1687021493,"current_range_meters":19200,"station_id":"ce4bhjp2rcd13ifvqg90","pricing_plan_id":"free"},{"bike_id":"c399ea41-3739-433c-8f2a-ffdd523ae783","system_id":"levelo_inurba_marseille","lat":43.26206,"lon":5.3793,"is_reserved":false,"is_disabled":false,"rental_uris":{"android":"levelo://app?vid=c399ea41-3739-433c-8f2a-ffdd523ae783","ios":"levelo://app?vid=c399ea41-3739-433c-8f2a-ffdd523ae783"},"vehicle_type_id":"4","last_reported":1687021493,"current_range_meters":8400,"station_id":"ce4bhjp2rcd13ifvqg90","pricing_plan_id":"free"},{"bike_id":"4d0f0de9-e360-4980-86a0-e12c39ac1f0a","system_id":"levelo_inurba_marseille","lat":43.26205,"lon":5.37924,"is_reserved":false,"is_disabled":false,"rental_uris":{"android":"levelo://app?vid=4d0f0de9-e360-4980-86a0-e12c39ac1f0a","ios":"levelo://app?vid=4d0f0de9-e360-4980-86a0-e12c39ac1f0a"},"vehicle_type_id":"4","last_reported":1687021493,"current_range_meters":14400,"station_id":"ce4bhjp2rcd13ifvqg90","pricing_plan_id":"free"},{"bike_id":"0c46b4e4-940f-4f8a-bdcc-8b0dcbac7d4d","system_id":"levelo_inurba_marseille","lat":43.26205,"lon":5.37924,"is_reserved":false,"is_disabled":false,"rental_uris":{"android":"levelo://app?vid=0c46b4e4-940f-4f8a-bdcc-8b0dcbac7d4d","ios":"levelo://app?vid=0c46b4e4-940f-4f8a-bdcc-8b0dcbac7d4d"},"vehicle_type_id":"4","last_reported":1687021493,"current_range_meters":6000,"station_id":"ce4bhjp2rcd13ifvqg90","pricing_plan_id":"free"},{"bike_id":"335e3a95-5f2e-490b-ad5f-189fac58a5be","system_id":"levelo_inurba_marseille","lat":43.26205,"lon":5.37925,"is_reserved":false,"is_disabled":false,"rental_uris":{"android":"levelo://app?vid=335e3a95-5f2e-490b-ad5f-189fac58a5be","ios":"levelo://app?vid=335e3a95-5f2e-490b-ad5f-189fac58a5be"},"vehicle_type_id":"4","last_reported":1687021493,"current_range_meters":0,"station_id":"ce4bhjp2rcd13ifvqg90","pricing_plan_id":"free"},{"bike_id":"054cfede-5a42-4d0f-a983-73e96ac2748d","system_id":"levelo_inurba_marseille","lat":43.26205,"lon":5.37928,"is_reserved":false,"is_disabled":false,"rental_uris":{"android":"levelo://app?vid=054cfede-5a42-4d0f-a983-73e96ac2748d","ios":"levelo://app?vid=054cfede-5a42-4d0f-a983-73e96ac2748d"},"vehicle_type_id":"4","last_reported":1687021493,"current_range_meters":18000,"station_id":"ce4bhjp2rcd13ifvqg90","pricing_plan_id":"free"},{"bike_id":"1e75134c-00b5-437a-be60-db87eb6c35a0","system_id":"levelo_inurba_marseille","lat":43.26204,"lon":5.37921,"is_reserved":false,"is_disabled":false,"rental_uris":{"android":"levelo://app?vid=1e75134c-00b5-437a-be60-db87eb6c35a0","ios":"levelo://app?vid=1e75134c-00b5-437a-be60-db87eb6c35a0"},"vehicle_type_id":"4","last_reported":1687021493,"current_range_meters":22400,"station_id":"ce4bhjp2rcd13ifvqg90","pricing_plan_id":"free"},{"bike_id":"5c2e1f1a-4f2e-449d-bbe7-8a7b3cb59a51","system_id":"levelo_inurba_marseille","lat":43.26205,"lon":5.37931,"is_reserved":false,"is_disabled":false,"rental_uris":{"android":"levelo://app?vid=5c2e1f1a-4f2e-449d-bbe7-8a7b3cb59a51","ios":"levelo://app?vid=5c2e1f1a-4f2e-449d-bbe7-8a7b3cb59a51"},"vehicle_type_id":"4","last_reported":1687021493,"current_range_meters":13600,"station_id":"ce4bhjp2rcd13ifvqg90","pricing_plan_id":"free"},{"bike_id":"c02d7797-b855-4777-9f2b-f73e85522ec9","system_id":"levelo_inurba_marseille","lat":43.26204,"lon":5.37926,"is_reserved":false,"is_disabled":false,"rental_uris":{"android":"levelo://app?vid=c02d7797-b855-4777-9f2b-f73e85522ec9","ios":"levelo://app?vid=c02d7797-b855-4777-9f2b-f73e85522ec9"},"vehicle_type_id":"4","last_reported":1687021493,"current_range_meters":16800,"station_id":"ce4bhjp2rcd13ifvqg90","pricing_plan_id":"free"},{"bike_id":"ea24ec08-e563-459b-8966-b31f0841148d","system_id":"levelo_inurba_marseille","lat":43.26204,"lon":5.37926,"is_reserved":false,"is_disabled":false,"rental_uris":{"android":"levelo://app?vid=ea24ec08-e563-459b-8966-b31f0841148d","ios":"levelo://app?vid=ea24ec08-e563-459b-8966-b31f0841148d"},"vehicle_type_id":"4","last_reported":1687021493,"current_range_meters":25600,"station_id":"ce4bhjp2rcd13ifvqg90","pricing_plan_id":"free"},{"bike_id":"cb819c0f-6ffa-4f80-a81f-88af8c3cc91d","system_id":"levelo_inurba_marseille","lat":43.26204,"lon":5.37926,"is_reserved":false,"is_disabled":false,"rental_uris":{"android":"levelo://app?vid=cb819c0f-6ffa-4f80-a81f-88af8c3cc91d","ios":"levelo://app?vid=cb819c0f-6ffa-4f80-a81f-88af8c3cc91d"},"vehicle_type_id":"4","last_reported":1687021493,"current_range_meters":9600,"station_id":"ce4bhjp2rcd13ifvqg90","pricing_plan_id":"free"},{"bike_id":"b96d5945-6f97-4a59-8b7a-00c4ce796834","system_id":"levelo_inurba_marseille","lat":43.26204,"lon":5.37928,"is_reserved":false,"is_disabled":false,"rental_uris":{"android":"levelo://app?vid=b96d5945-6f97-4a59-8b7a-00c4ce796834","ios":"levelo://app?vid=b96d5945-6f97-4a59-8b7a-00c4ce796834"},"vehicle_type_id":"4","last_reported":1687021493,"current_range_meters":1600,"station_id":"ce4bhjp2rcd13ifvqg90","pricing_plan_id":"free"},{"bike_id":"a3a5017f-f229-4c95-a65f-5320b6a86295","system_id":"levelo_inurba_marseille","lat":43.262012,"lon":5.379307,"is_reserved":false,"is_disabled":false,"rental_uris":{"android":"levelo://app?vid=a3a5017f-f229-4c95-a65f-5320b6a86295","ios":"levelo://app?vid=a3a5017f-f229-4c95-a65f-5320b6a86295"},"vehicle_type_id":"4","last_reported":1687021493,"current_range_meters":1600,"station_id":"ce4bhjp2rcd13ifvqg90","pricing_plan_id":"free"},{"bike_id":"0f32807b-3989-43d0-8336-df89a6bbc3de","system_id":"levelo_inurba_marseille","lat":43.26204,"lon":5.37929,"is_reserved":false,"is_disabled":false,"rental_uris":{"android":"levelo://app?vid=0f32807b-3989-43d0-8336-df89a6bbc3de","ios":"levelo://app?vid=0f32807b-3989-43d0-8336-df89a6bbc3de"},"vehicle_type_id":"4","last_reported":1687021493,"current_range_meters":21600,"station_id":"ce4bhjp2rcd13ifvqg90","pricing_plan_id":"free"},{"bike_id":"b66ee968-f311-40a9-86d7-6297db3c3882","system_id":"levelo_inurba_marseille","lat":43.26203,"lon":5.37923,"is_reserved":false,"is_disabled":false,"rental_uris":{"android":"levelo://app?vid=b66ee968-f311-40a9-86d7-6297db3c3882","ios":"levelo://app?vid=b66ee968-f311-40a9-86d7-6297db3c3882"},"vehicle_type_id":"4","last_reported":1687021493,"current_range_meters":17600,"station_id":"ce4bhjp2rcd13ifvqg90","pricing_plan_id":"free"},{"bike_id":"7891bf97-4eb1-4cae-8d6e-efdfff2479a5","system_id":"levelo_inurba_marseille","lat":43.26202,"lon":5.379299,"is_reserved":false,"is_disabled":false,"rental_uris":{"android":"levelo://app?vid=7891bf97-4eb1-4cae-8d6e-efdfff2479a5","ios":"levelo://app?vid=7891bf97-4eb1-4cae-8d6e-efdfff2479a5"},"vehicle_type_id":"4","last_reported":1687021493,"current_range_meters":16400,"station_id":"ce4bhjp2rcd13ifvqg90","pricing_plan_id":"free"},{"bike_id":"105aba82-4d29-4740-ae55-0a1d2d67eac8","system_id":"levelo_inurba_marseille","lat":43.26202,"lon":5.379299,"is_reserved":false,"is_disabled":false,"rental_uris":{"android":"levelo://app?vid=105aba82-4d29-4740-ae55-0a1d2d67eac8","ios":"levelo://app?vid=105aba82-4d29-4740-ae55-0a1d2d67eac8"},"vehicle_type_id":"4","last_reported":1687021493,"current_range_meters":10000,"station_id":"ce4bhjp2rcd13ifvqg90","pricing_plan_id":"free"},{"bike_id":"badef50d-2ca5-49b5-81fd-5c6463b43555","system_id":"levelo_inurba_marseille","lat":43.26203,"lon":5.37928,"is_reserved":false,"is_disabled":false,"rental_uris":{"android":"levelo://app?vid=badef50d-2ca5-49b5-81fd-5c6463b43555","ios":"levelo://app?vid=badef50d-2ca5-49b5-81fd-5c6463b43555"},"vehicle_type_id":"4","last_reported":1687021493,"current_range_meters":9200,"station_id":"ce4bhjp2rcd13ifvqg90","pricing_plan_id":"free"},{"bike_id":"d7292054-79ef-46c8-b12f-5831db458894","system_id":"levelo_inurba_marseille","lat":43.26203,"lon":5.37928,"is_reserved":false,"is_disabled":false,"rental_uris":{"android":"levelo://app?vid=d7292054-79ef-46c8-b12f-5831db458894","ios":"levelo://app?vid=d7292054-79ef-46c8-b12f-5831db458894"},"vehicle_type_id":"4","last_reported":1687021493,"current_range_meters":0,"station_id":"ce4bhjp2rcd13ifvqg90","pricing_plan_id":"free"},{"bike_id":"e2dc7dfa-610e-4a4e-97f1-c2c501cba8c1","system_id":"levelo_inurba_marseille","lat":43.26202,"lon":5.379299,"is_reserved":false,"is_disabled":false,"rental_uris":{"android":"levelo://app?vid=e2dc7dfa-610e-4a4e-97f1-c2c501cba8c1","ios":"levelo://app?vid=e2dc7dfa-610e-4a4e-97f1-c2c501cba8c1"},"vehicle_type_id":"4","last_reported":1687021493,"current_range_meters":18000,"station_id":"ce4bhjp2rcd13ifvqg90","pricing_plan_id":"free"},{"bike_id":"60c9d739-5601-4d3c-8a49-d3d0a470fe73","system_id":"levelo_inurba_marseille","lat":43.26203,"lon":5.37929,"is_reserved":false,"is_disabled":false,"rental_uris":{"android":"levelo://app?vid=60c9d739-5601-4d3c-8a49-d3d0a470fe73","ios":"levelo://app?vid=60c9d739-5601-4d3c-8a49-d3d0a470fe73"},"vehicle_type_id":"4","last_reported":1687021493,"current_range_meters":20400,"station_id":"ce4bhjp2rcd13ifvqg90","pricing_plan_id":"free"},{"bike_id":"a979245b-5546-4539-97e4-67e7026c16d8","system_id":"levelo_inurba_marseille","lat":43.26202,"lon":5.37924,"is_reserved":false,"is_disabled":false,"rental_uris":{"android":"levelo://app?vid=a979245b-5546-4539-97e4-67e7026c16d8","ios":"levelo://app?vid=a979245b-5546-4539-97e4-67e7026c16d8"},"vehicle_type_id":"4","last_reported":1687021493,"current_range_meters":2800,"station_id":"ce4bhjp2rcd13ifvqg90","pricing_plan_id":"free"},{"bike_id":"5235f36c-90e9-47f4-8a63-79e0921267af","system_id":"levelo_inurba_marseille","lat":43.26202,"lon":5.37925,"is_reserved":false,"is_disabled":false,"rental_uris":{"android":"levelo://app?vid=5235f36c-90e9-47f4-8a63-79e0921267af","ios":"levelo://app?vid=5235f36c-90e9-47f4-8a63-79e0921267af"},"vehicle_type_id":"4","last_reported":1687021493,"current_range_meters":8800,"station_id":"ce4bhjp2rcd13ifvqg90","pricing_plan_id":"free"},{"bike_id":"350b9ea5-6643-4a3a-b826-0bf340ae4c16","system_id":"levelo_inurba_marseille","lat":43.26202,"lon":5.37925,"is_reserved":false,"is_disabled":false,"rental_uris":{"android":"levelo://app?vid=350b9ea5-6643-4a3a-b826-0bf340ae4c16","ios":"levelo://app?vid=350b9ea5-6643-4a3a-b826-0bf340ae4c16"},"vehicle_type_id":"4","last_reported":1687021493,"current_range_meters":21600,"station_id":"ce4bhjp2rcd13ifvqg90","pricing_plan_id":"free"},{"bike_id":"7d4c1512-d870-4f23-bf5a-049a1c75566f","system_id":"levelo_inurba_marseille","lat":43.26202,"lon":5.37925,"is_reserved":false,"is_disabled":false,"rental_uris":{"android":"levelo://app?vid=7d4c1512-d870-4f23-bf5a-049a1c75566f","ios":"levelo://app?vid=7d4c1512-d870-4f23-bf5a-049a1c75566f"},"vehicle_type_id":"4","last_reported":1687021493,"current_range_meters":0,"station_id":"ce4bhjp2rcd13ifvqg90","pricing_plan_id":"free"},{"bike_id":"4221ef51-b6f7-48eb-89db-3c2c7f768117","system_id":"levelo_inurba_marseille","lat":43.262012,"lon":5.379307,"is_reserved":false,"is_disabled":false,"rental_uris":{"android":"levelo://app?vid=4221ef51-b6f7-48eb-89db-3c2c7f768117","ios":"levelo://app?vid=4221ef51-b6f7-48eb-89db-3c2c7f768117"},"vehicle_type_id":"4","last_reported":1687021493,"current_range_meters":0,"station_id":"ce4bhjp2rcd13ifvqg90","pricing_plan_id":"free"},{"bike_id":"14f91770-e5bd-49c9-ab9c-18d480a04fee","system_id":"levelo_inurba_marseille","lat":43.26201,"lon":5.37923,"is_reserved":false,"is_disabled":false,"rental_uris":{"android":"levelo://app?vid=14f91770-e5bd-49c9-ab9c-18d480a04fee","ios":"levelo://app?vid=14f91770-e5bd-49c9-ab9c-18d480a04fee"},"vehicle_type_id":"4","last_reported":1687021493,"current_range_meters":18400,"station_id":"ce4bhjp2rcd13ifvqg90","pricing_plan_id":"free"},{"bike_id":"3c5b1740-bc31-4744-acf7-44c3afca5eef","system_id":"levelo_inurba_marseille","lat":43.26202,"lon":5.37931,"is_reserved":false,"is_disabled":false,"rental_uris":{"android":"levelo://app?vid=3c5b1740-bc31-4744-acf7-44c3afca5eef","ios":"levelo://app?vid=3c5b1740-bc31-4744-acf7-44c3afca5eef"},"vehicle_type_id":"4","last_reported":1687021493,"current_range_meters":10400,"station_id":"ce4bhjp2rcd13ifvqg90","pricing_plan_id":"free"},{"bike_id":"84b9db6e-3ff6-4fc5-9588-de39363ea0a4","system_id":"levelo_inurba_marseille","lat":43.26201,"lon":5.37926,"is_reserved":false,"is_disabled":false,"rental_uris":{"android":"levelo://app?vid=84b9db6e-3ff6-4fc5-9588-de39363ea0a4","ios":"levelo://app?vid=84b9db6e-3ff6-4fc5-9588-de39363ea0a4"},"vehicle_type_id":"4","last_reported":1687021493,"current_range_meters":6000,"station_id":"ce4bhjp2rcd13ifvqg90","pricing_plan_id":"free"},{"bike_id":"df8c5a99-1a8a-4d96-95a6-0abfa7bf3a63","system_id":"levelo_inurba_marseille","lat":43.26201,"lon":5.37926,"is_reserved":false,"is_disabled":false,"rental_uris":{"android":"levelo://app?vid=df8c5a99-1a8a-4d96-95a6-0abfa7bf3a63","ios":"levelo://app?vid=df8c5a99-1a8a-4d96-95a6-0abfa7bf3a63"},"vehicle_type_id":"4","last_reported":1687021493,"current_range_meters":13200,"station_id":"ce4bhjp2rcd13ifvqg90","pricing_plan_id":"free"},{"bike_id":"7b97506e-ee8f-4885-a673-6a0a3edbcc6e","system_id":"levelo_inurba_marseille","lat":43.26202,"lon":5.379299,"is_reserved":false,"is_disabled":false,"rental_uris":{"android":"levelo://app?vid=7b97506e-ee8f-4885-a673-6a0a3edbcc6e","ios":"levelo://app?vid=7b97506e-ee8f-4885-a673-6a0a3edbcc6e"},"vehicle_type_id":"4","last_reported":1687021493,"current_range_meters":14800,"station_id":"ce4bhjp2rcd13ifvqg90","pricing_plan_id":"free"},{"bike_id":"703a8786-ddd0-4f61-843e-fadf0bf61061","system_id":"levelo_inurba_marseille","lat":43.26201,"lon":5.3793,"is_reserved":false,"is_disabled":false,"rental_uris":{"android":"levelo://app?vid=703a8786-ddd0-4f61-843e-fadf0bf61061","ios":"levelo://app?vid=703a8786-ddd0-4f61-843e-fadf0bf61061"},"vehicle_type_id":"4","last_reported":1687021493,"current_range_meters":14800,"station_id":"ce4bhjp2rcd13ifvqg90","pricing_plan_id":"free"},{"bike_id":"255f1d55-73f2-4691-adc3-2cc7cbe003f7","system_id":"levelo_inurba_marseille","lat":43.262012,"lon":5.379307,"is_reserved":false,"is_disabled":false,"rental_uris":{"android":"levelo://app?vid=255f1d55-73f2-4691-adc3-2cc7cbe003f7","ios":"levelo://app?vid=255f1d55-73f2-4691-adc3-2cc7cbe003f7"},"vehicle_type_id":"4","last_reported":1687021493,"current_range_meters":10800,"station_id":"ce4bhjp2rcd13ifvqg90","pricing_plan_id":"free"},{"bike_id":"147de1b6-47ac-4c8a-a576-b040c57c3e49","system_id":"levelo_inurba_marseille","lat":43.262,"lon":5.37928,"is_reserved":false,"is_disabled":false,"rental_uris":{"android":"levelo://app?vid=147de1b6-47ac-4c8a-a576-b040c57c3e49","ios":"levelo://app?vid=147de1b6-47ac-4c8a-a576-b040c57c3e49"},"vehicle_type_id":"4","last_reported":1687021493,"current_range_meters":8800,"station_id":"ce4bhjp2rcd13ifvqg90","pricing_plan_id":"free"},{"bike_id":"2b7dd8e6-5e8b-433f-b78a-c88e67a91e0a","system_id":"levelo_inurba_marseille","lat":43.262,"lon":5.3793,"is_reserved":false,"is_disabled":false,"rental_uris":{"android":"levelo://app?vid=2b7dd8e6-5e8b-433f-b78a-c88e67a91e0a","ios":"levelo://app?vid=2b7dd8e6-5e8b-433f-b78a-c88e67a91e0a"},"vehicle_type_id":"4","last_reported":1687021493,"current_range_meters":22400,"station_id":"ce4bhjp2rcd13ifvqg90","pricing_plan_id":"free"},{"bike_id":"eb82b6b3-daf9-4f09-bed8-2b784cf070fa","system_id":"levelo_inurba_marseille","lat":43.262,"lon":5.37931,"is_reserved":false,"is_disabled":false,"rental_uris":{"android":"levelo://app?vid=eb82b6b3-daf9-4f09-bed8-2b784cf070fa","ios":"levelo://app?vid=eb82b6b3-daf9-4f09-bed8-2b784cf070fa"},"vehicle_type_id":"4","last_reported":1687021493,"current_range_meters":5600,"station_id":"ce4bhjp2rcd13ifvqg90","pricing_plan_id":"free"},{"bike_id":"ea62e870-934e-46c7-b7e6-8e74ec0b9b90","system_id":"levelo_inurba_marseille","lat":43.26199,"lon":5.37924,"is_reserved":false,"is_disabled":false,"rental_uris":{"android":"levelo://app?vid=ea62e870-934e-46c7-b7e6-8e74ec0b9b90","ios":"levelo://app?vid=ea62e870-934e-46c7-b7e6-8e74ec0b9b90"},"vehicle_type_id":"4","last_reported":1687021493,"current_range_meters":25600,"station_id":"ce4bhjp2rcd13ifvqg90","pricing_plan_id":"free"},{"bike_id":"03c63a22-5af4-4731-b58c-68faf2f7a292","system_id":"levelo_inurba_marseille","lat":43.261995,"lon":5.379333,"is_reserved":false,"is_disabled":false,"rental_uris":{"android":"levelo://app?vid=03c63a22-5af4-4731-b58c-68faf2f7a292","ios":"levelo://app?vid=03c63a22-5af4-4731-b58c-68faf2f7a292"},"vehicle_type_id":"4","last_reported":1687021493,"current_range_meters":31200,"station_id":"ce4bhjp2rcd13ifvqg90","pricing_plan_id":"free"},{"bike_id":"3096f713-b093-493f-9a5b-0467126c255f","system_id":"levelo_inurba_marseille","lat":43.26199,"lon":5.3793,"is_reserved":false,"is_disabled":false,"rental_uris":{"android":"levelo://app?vid=3096f713-b093-493f-9a5b-0467126c255f","ios":"levelo://app?vid=3096f713-b093-493f-9a5b-0467126c255f"},"vehicle_type_id":"4","last_reported":1687021493,"current_range_meters":4800,"station_id":"ce4bhjp2rcd13ifvqg90","pricing_plan_id":"free"},{"bike_id":"34b78aa5-f66b-433e-848f-3a318f520e7b","system_id":"levelo_inurba_marseille","lat":43.26198,"lon":5.37925,"is_reserved":false,"is_disabled":false,"rental_uris":{"android":"levelo://app?vid=34b78aa5-f66b-433e-848f-3a318f520e7b","ios":"levelo://app?vid=34b78aa5-f66b-433e-848f-3a318f520e7b"},"vehicle_type_id":"4","last_reported":1687021493,"current_range_meters":16000,"station_id":"ce4bhjp2rcd13ifvqg90","pricing_plan_id":"free"},{"bike_id":"e089fcd0-5c11-4680-bfc5-59ceb0e18f58","system_id":"levelo_inurba_marseille","lat":43.26199,"lon":5.37933,"is_reserved":false,"is_disabled":false,"rental_uris":{"android":"levelo://app?vid=e089fcd0-5c11-4680-bfc5-59ceb0e18f58","ios":"levelo://app?vid=e089fcd0-5c11-4680-bfc5-59ceb0e18f58"},"vehicle_type_id":"4","last_reported":1687021493,"current_range_meters":31600,"station_id":"ce4bhjp2rcd13ifvqg90","pricing_plan_id":"free"},{"bike_id":"f64f9c25-ba0f-4934-8b5e-83e02bbd4828","system_id":"levelo_inurba_marseille","lat":43.26199,"lon":5.37935,"is_reserved":false,"is_disabled":false,"rental_uris":{"android":"levelo://app?vid=f64f9c25-ba0f-4934-8b5e-83e02bbd4828","ios":"levelo://app?vid=f64f9c25-ba0f-4934-8b5e-83e02bbd4828"},"vehicle_type_id":"4","last_reported":1687021493,"current_range_meters":1200,"station_id":"ce4bhjp2rcd13ifvqg90","pricing_plan_id":"free"},{"bike_id":"1290350e-c139-492d-bc0a-49bd9a893d1f","system_id":"levelo_inurba_marseille","lat":43.262012,"lon":5.379307,"is_reserved":false,"is_disabled":false,"rental_uris":{"android":"levelo://app?vid=1290350e-c139-492d-bc0a-49bd9a893d1f","ios":"levelo://app?vid=1290350e-c139-492d-bc0a-49bd9a893d1f"},"vehicle_type_id":"4","last_reported":1687021493,"current_range_meters":18400,"station_id":"ce4bhjp2rcd13ifvqg90","pricing_plan_id":"free"},{"bike_id":"5adcf72d-a1a4-4e65-ac2c-0805baf51994","system_id":"levelo_inurba_marseille","lat":43.261987,"lon":5.379368,"is_reserved":false,"is_disabled":false,"rental_uris":{"android":"levelo://app?vid=5adcf72d-a1a4-4e65-ac2c-0805baf51994","ios":"levelo://app?vid=5adcf72d-a1a4-4e65-ac2c-0805baf51994"},"vehicle_type_id":"4","last_reported":1687021493,"current_range_meters":22800,"station_id":"ce4bhjp2rcd13ifvqg90","pricing_plan_id":"free"},{"bike_id":"ab378214-b701-4916-8132-48240331f637","system_id":"levelo_inurba_marseille","lat":43.262012,"lon":5.379307,"is_reserved":false,"is_disabled":false,"rental_uris":{"android":"levelo://app?vid=ab378214-b701-4916-8132-48240331f637","ios":"levelo://app?vid=ab378214-b701-4916-8132-48240331f637"},"vehicle_type_id":"4","last_reported":1687021493,"current_range_meters":12800,"station_id":"ce4bhjp2rcd13ifvqg90","pricing_plan_id":"free"},{"bike_id":"6e57d335-6dd5-4de1-9798-f96614239d95","system_id":"levelo_inurba_marseille","lat":43.262012,"lon":5.379307,"is_reserved":false,"is_disabled":false,"rental_uris":{"android":"levelo://app?vid=6e57d335-6dd5-4de1-9798-f96614239d95","ios":"levelo://app?vid=6e57d335-6dd5-4de1-9798-f96614239d95"},"vehicle_type_id":"4","last_reported":1687021493,"current_range_meters":22800,"station_id":"ce4bhjp2rcd13ifvqg90","pricing_plan_id":"free"},{"bike_id":"655f9f23-a7cb-4ebb-9e58-09bbd6c998ed","system_id":"levelo_inurba_marseille","lat":43.26194,"lon":5.37927,"is_reserved":false,"is_disabled":false,"rental_uris":{"android":"levelo://app?vid=655f9f23-a7cb-4ebb-9e58-09bbd6c998ed","ios":"levelo://app?vid=655f9f23-a7cb-4ebb-9e58-09bbd6c998ed"},"vehicle_type_id":"4","last_reported":1687021493,"current_range_meters":13200,"station_id":"ce4bhjp2rcd13ifvqg90","pricing_plan_id":"free"},{"bike_id":"3ce3f8d5-822f-43c7-b878-d1de4963a2c5","system_id":"levelo_inurba_marseille","lat":43.26193,"lon":5.37926,"is_reserved":false,"is_disabled":false,"rental_uris":{"android":"levelo://app?vid=3ce3f8d5-822f-43c7-b878-d1de4963a2c5","ios":"levelo://app?vid=3ce3f8d5-822f-43c7-b878-d1de4963a2c5"},"vehicle_type_id":"4","last_reported":1687021493,"current_range_meters":31600,"station_id":"ce4bhjp2rcd13ifvqg90","pricing_plan_id":"free"},{"bike_id":"fa11bb5b-8649-4d40-975e-6e9e9ac9a7ee","system_id":"levelo_inurba_marseille","lat":43.26192,"lon":5.37932,"is_reserved":false,"is_disabled":false,"rental_uris":{"android":"levelo://app?vid=fa11bb5b-8649-4d40-975e-6e9e9ac9a7ee","ios":"levelo://app?vid=fa11bb5b-8649-4d40-975e-6e9e9ac9a7ee"},"vehicle_type_id":"4","last_reported":1687021493,"current_range_meters":18400,"station_id":"ce4bhjp2rcd13ifvqg90","pricing_plan_id":"free"},{"bike_id":"c635d51d-9125-4f52-bd3e-a3a693a945d6","system_id":"levelo_inurba_marseille","lat":43.2619,"lon":5.37934,"is_reserved":false,"is_disabled":false,"rental_uris":{"android":"levelo://app?vid=c635d51d-9125-4f52-bd3e-a3a693a945d6","ios":"levelo://app?vid=c635d51d-9125-4f52-bd3e-a3a693a945d6"},"vehicle_type_id":"4","last_reported":1687021493,"current_range_meters":31600,"station_id":"ce4bhjp2rcd13ifvqg90","pricing_plan_id":"free"},{"bike_id":"a3b180f5-b67f-450a-89e7-19fab420d225","system_id":"levelo_inurba_marseille","lat":43.267959,"lon":5.402685,"is_reserved":false,"is_disabled":false,"rental_uris":{"android":"levelo://app?vid=a3b180f5-b67f-450a-89e7-19fab420d225","ios":"levelo://app?vid=a3b180f5-b67f-450a-89e7-19fab420d225"},"vehicle_type_id":"4","last_reported":1687021493,"current_range_meters":6000,"station_id":"ce501612rcd8frsf0b60","pricing_plan_id":"free"},{"bike_id":"f34dcf16-6cc0-460e-8fc9-887032e985cb","system_id":"levelo_inurba_marseille","lat":43.267959,"lon":5.402685,"is_reserved":false,"is_disabled":false,"rental_uris":{"android":"levelo://app?vid=f34dcf16-6cc0-460e-8fc9-887032e985cb","ios":"levelo://app?vid=f34dcf16-6cc0-460e-8fc9-887032e985cb"},"vehicle_type_id":"4","last_reported":1687021493,"current_range_meters":18800,"station_id":"ce501612rcd8frsf0b60","pricing_plan_id":"free"},{"bike_id":"61815ecb-b091-48a9-ad23-13f67bbc74f0","system_id":"levelo_inurba_marseille","lat":43.298768,"lon":5.43643,"is_reserved":false,"is_disabled":false,"rental_uris":{"android":"levelo://app?vid=61815ecb-b091-48a9-ad23-13f67bbc74f0","ios":"levelo://app?vid=61815ecb-b091-48a9-ad23-13f67bbc74f0"},"vehicle_type_id":"4","last_reported":1687021493,"current_range_meters":23200,"station_id":"ce4bhpp2rcd13ifvqhfg","pricing_plan_id":"free"},{"bike_id":"14c9e122-3c23-4a4c-a960-55ef9bf06474","system_id":"levelo_inurba_marseille","lat":43.298768,"lon":5.43643,"is_reserved":false,"is_disabled":false,"rental_uris":{"android":"levelo://app?vid=14c9e122-3c23-4a4c-a960-55ef9bf06474","ios":"levelo://app?vid=14c9e122-3c23-4a4c-a960-55ef9bf06474"},"vehicle_type_id":"4","last_reported":1687021493,"current_range_meters":24400,"station_id":"ce4bhpp2rcd13ifvqhfg","pricing_plan_id":"free"},{"bike_id":"a35e62bc-fd16-4146-a0bd-9f93f5fceea9","system_id":"levelo_inurba_marseille","lat":43.298768,"lon":5.43643,"is_reserved":false,"is_disabled":false,"rental_uris":{"android":"levelo://app?vid=a35e62bc-fd16-4146-a0bd-9f93f5fceea9","ios":"levelo://app?vid=a35e62bc-fd16-4146-a0bd-9f93f5fceea9"},"vehicle_type_id":"4","last_reported":1687021493,"current_range_meters":800,"station_id":"ce4bhpp2rcd13ifvqhfg","pricing_plan_id":"free"},{"bike_id":"f226ee7c-0d13-4620-b289-67209de1c178","system_id":"levelo_inurba_marseille","lat":43.260225,"lon":5.375455,"is_reserved":false,"is_disabled":false,"rental_uris":{"android":"levelo://app?vid=f226ee7c-0d13-4620-b289-67209de1c178","ios":"levelo://app?vid=f226ee7c-0d13-4620-b289-67209de1c178"},"vehicle_type_id":"4","last_reported":1687021493,"current_range_meters":7600,"station_id":"ce4bhgh2rcd13ifvqfa0","pricing_plan_id":"free"},{"bike_id":"73132d44-ee1d-4012-91fe-526812cd4785","system_id":"levelo_inurba_marseille","lat":43.26066,"lon":5.39393,"is_reserved":false,"is_disabled":false,"rental_uris":{"android":"levelo://app?vid=73132d44-ee1d-4012-91fe-526812cd4785","ios":"levelo://app?vid=73132d44-ee1d-4012-91fe-526812cd4785"},"vehicle_type_id":"4","last_reported":1687021493,"current_range_meters":9600,"station_id":"ce4bhh92rcd13ifvqfj0","pricing_plan_id":"free"},{"bike_id":"4e890d81-0e08-490f-82fc-5c6c85bd0a66","system_id":"levelo_inurba_marseille","lat":43.2607,"lon":5.393983,"is_reserved":false,"is_disabled":false,"rental_uris":{"android":"levelo://app?vid=4e890d81-0e08-490f-82fc-5c6c85bd0a66","ios":"levelo://app?vid=4e890d81-0e08-490f-82fc-5c6c85bd0a66"},"vehicle_type_id":"4","last_reported":1687021493,"current_range_meters":7200,"station_id":"ce4bhh92rcd13ifvqfj0","pricing_plan_id":"free"},{"bike_id":"91b6675d-d865-494a-9fdc-0af4efe1155e","system_id":"levelo_inurba_marseille","lat":43.275028,"lon":5.424534,"is_reserved":false,"is_disabled":false,"rental_uris":{"android":"levelo://app?vid=91b6675d-d865-494a-9fdc-0af4efe1155e","ios":"levelo://app?vid=91b6675d-d865-494a-9fdc-0af4efe1155e"},"vehicle_type_id":"4","last_reported":1687021493,"current_range_meters":22800,"station_id":"ce4bhn92rcd13ifvqgrg","pricing_plan_id":"free"},{"bike_id":"ae973ab5-f928-423e-af66-98b9ea044290","system_id":"levelo_inurba_marseille","lat":43.255756,"lon":5.382303,"is_reserved":false,"is_disabled":false,"rental_uris":{"android":"levelo://app?vid=ae973ab5-f928-423e-af66-98b9ea044290","ios":"levelo://app?vid=ae973ab5-f928-423e-af66-98b9ea044290"},"vehicle_type_id":"4","last_reported":1687021493,"current_range_meters":31200,"station_id":"ce4bhih2rcd13ifvqfs0","pricing_plan_id":"free"},{"bike_id":"f5d71c03-5e1f-487e-8538-b631bcc4036c","system_id":"levelo_inurba_marseille","lat":43.254947,"lon":5.376454,"is_reserved":false,"is_disabled":false,"rental_uris":{"android":"levelo://app?vid=f5d71c03-5e1f-487e-8538-b631bcc4036c","ios":"levelo://app?vid=f5d71c03-5e1f-487e-8538-b631bcc4036c"},"vehicle_type_id":"4","last_reported":1687021493,"current_range_meters":13200,"station_id":"ce4bhh12rcd13ifvqff0","pricing_plan_id":"free"},{"bike_id":"ce9cc4f3-0a9d-47b8-8b34-d95dc82cb87d","system_id":"levelo_inurba_marseille","lat":43.25501,"lon":5.3765,"is_reserved":false,"is_disabled":false,"rental_uris":{"android":"levelo://app?vid=ce9cc4f3-0a9d-47b8-8b34-d95dc82cb87d","ios":"levelo://app?vid=ce9cc4f3-0a9d-47b8-8b34-d95dc82cb87d"},"vehicle_type_id":"4","last_reported":1687021493,"current_range_meters":28800,"station_id":"ce4bhh12rcd13ifvqff0","pricing_plan_id":"free"},{"bike_id":"70454c25-aafe-475e-afe5-823dfe26258a","system_id":"levelo_inurba_marseille","lat":43.254945,"lon":5.376454,"is_reserved":false,"is_disabled":false,"rental_uris":{"android":"levelo://app?vid=70454c25-aafe-475e-afe5-823dfe26258a","ios":"levelo://app?vid=70454c25-aafe-475e-afe5-823dfe26258a"},"vehicle_type_id":"4","last_reported":1687021493,"current_range_meters":30800,"station_id":"ce4bhh12rcd13ifvqff0","pricing_plan_id":"free"},