{"last_updated":1730639625,"ttl":60,"version":"2.2","data":{"bikes":[{"bike_id":"daa5500f-6039-4d77-bf02-00710b3acec6","system_id":"levelo_inurba_marseille","lat":43.25931,"lon":5.40907,"is_reserved":false,"is_disabled":false,"rental_uris":{"android":"levelo://app?vid=daa5500f-6039-4d77-bf02-00710b3acec6","ios":"levelo://app?vid=daa5500f-6039-4d77-bf02-00710b3acec6"},"vehicle_type_id":"4","last_reported":1730639625,"current_range_meters":4800,"station_id":"ce4bhm92rcd13ifvqglg","pricing_plan_id":"cebpf4jnsgd1na2vs0mg"},{"bike_id":"751cdbd3-9783-45ba-a3c6-03a0086f40bc","system_id":"levelo_inurba_marseille","lat":43.3204,"lon":5.41553,"is_reserved":false,"is_disabled":false,"rental_uris":{"android":"levelo://app?vid=751cdbd3-9783-45ba-a3c6-03a0086f40bc","ios":"levelo://app?vid=751cdbd3-9783-45ba-a3c6-03a0086f40bc"},"vehicle_type_id":"4","last_reported":1730639625,"current_range_meters":26000,"station_id":"ce4bhq92rcd13ifvqhkg","pricing_plan_id":"cebpf4jnsgd1na2vs0mg"},{"bike_id":"5662c3ec-16ac-4646-ad92-7b800105b64d","system_id":"levelo_inurba_marseille","lat":43.2511,"lon":5.40325,"is_reserved":false,"is_disabled":false,"rental_uris":{"android":"levelo://app?vid=5662c3ec-16ac-4646-ad92-7b800105b64d","ios":"levelo://app?vid=5662c3ec-16ac-4646-ad92-7b800105b64d"},"vehicle_type_id":"4","last_reported":1730639625,"current_range_meters":7200,"station_id":"ce4bhlh2rcd13ifvqgig","pricing_plan_id":"cebpf4jnsgd1na2vs0mg"},{"bike_id":"8c2cc48d-9ab8-4fc0-82ef-7cafd31d7aa7","system_id":"levelo_inurba_marseille","lat":43.32473,"lon":5.36563,"is_reserved":false,"is_disabled":false,"rental_uris":{"android":"levelo://app?vid=8c2cc48d-9ab8-4fc0-82ef-7cafd31d7aa7","ios":"levelo://app?vid=8c2cc48d-9ab8-4fc0-82ef-7cafd31d7aa7"},"vehicle_type_id":"4","last_reported":1730639625,"current_range_meters":18800,"station_id":"ce4bhs12rcd13ifvqhvg","pricing_plan_id":"cebpf4jnsgd1na2vs0mg"},{"bike_id":"84254659-2dee-4aa5-8185-6dbc5d2f0da7","system_id":"levelo_inurba_marseille","lat":43.2396,"lon":5.36622,"is_reserved":false,"is_disabled":false,"rental_uris":{"android":"levelo://app?vid=84254659-2dee-4aa5-8185-6dbc5d2f0da7","ios":"levelo://app?vid=84254659-2dee-4aa5-8185-6dbc5d2f0da7"},"vehicle_type_id":"4","last_reported":1730639625,"current_range_meters":13600,"station_id":"ce4bhi12rcd13ifvqfp0","pricing_plan_id":"cebpf4jnsgd1na2vs0mg"},{"bike_id":"9a70ca6a-3596-4702-bfb5-ee36fbaa923f","system_id":"levelo_inurba_marseille","lat":43.27377,"lon":5.36263,"is_reserved":false,"is_disabled":false,"rental_uris":{"android":"levelo://app?vid=9a70ca6a-3596-4702-bfb5-ee36fbaa923f","ios":"levelo://app?vid=9a70ca6a-3596-4702-bfb5-ee36fbaa923f"},"vehicle_type_id":"4","last_reported":1730639625,"current_range_meters":38000,"station_id":"ce4bhbh2rcd13ifvqeo0","pricing_plan_id":"cebpf4jnsgd1na2vs0mg"},{"bike_id":"ee32c2ee-4a09-428f-bc58-074640a29f23","system_id":"levelo_inurba_marseille","lat":43.29511,"lon":5.39404,"is_reserved":false,"is_disabled":false,"rental_uris":{"android":"levelo://app?vid=ee32c2ee-4a09-428f-bc58-074640a29f23","ios":"levelo://app?vid=ee32c2ee-4a09-428f-bc58-074640a29f23"},"vehicle_type_id":"4","last_reported":1730639625,"current_range_meters":37600,"station_id":"ce4bh292rcd13ifvqdf0","pricing_plan_id":"cebpf4jnsgd1na2vs0mg"},{"bike_id":"f09a2e3e-a687-4ccb-9ce7-accc19389448","system_id":"levelo_inurba_marseille","lat":43.23959,"lon":5.36635,"is_reserved":false,"is_disabled":false,"rental_uris":{"android":"levelo://app?vid=f09a2e3e-a687-4ccb-9ce7-accc19389448","ios":"levelo://app?vid=f09a2e3e-a687-4ccb-9ce7-accc19389448"},"vehicle_type_id":"4","last_reported":1730639625,"current_range_meters":38800,"station_id":"ce4bhi12rcd13ifvqfp0","pricing_plan_id":"cebpf4jnsgd1na2vs0mg"},{"bike_id":"478fab93-45e1-422f-bb58-b8205e41dc7d","system_id":"levelo_inurba_marseille","lat":43.3053,"lon":5.36538,"is_reserved":false,"is_disabled":false,"rental_uris":{"android":"levelo://app?vid=478fab93-45e1-422f-bb58-b8205e41dc7d","ios":"levelo://app?vid=478fab93-45e1-422f-bb58-b8205e41dc7d"},"vehicle_type_id":"4","last_reported":1730639625,"current_range_meters":6000,"station_id":"ce4bgs12rcd13ifvqcag","pricing_plan_id":"cebpf4jnsgd1na2vs0mg"},{"bike_id":"f3e674d5-e6c2-469f-81d8-1cfc8b6f22cb","system_id":"levelo_inurba_marseille","lat":43.26209,"lon":5.37443,"is_reserved":false,"is_disabled":false,"rental_uris":{"android":"levelo://app?vid=f3e674d5-e6c2-469f-81d8-1cfc8b6f22cb","ios":"levelo://app?vid=f3e674d5-e6c2-469f-81d8-1cfc8b6f22cb"},"vehicle_type_id":"4","last_reported":1730639625,"current_range_meters":22000,"station_id":"ce4bhgp2rcd13ifvqfc0","pricing_plan_id":"cebpf4jnsgd1na2vs0mg"},{"bike_id":"92a0073c-20f6-4c2f-a53a-1975e2f6500a","system_id":"levelo_inurba_marseille","lat":43.2306,"lon":5.35486,"is_reserved":false,"is_disabled":false,"rental_uris":{"android":"levelo://app?vid=92a0073c-20f6-4c2f-a53a-1975e2f6500a","ios":"levelo://app?vid=92a0073c-20f6-4c2f-a53a-1975e2f6500a"},"vehicle_type_id":"4","last_reported":1730639625,"current_range_meters":14800,"station_id":"cpo3342slgdg3j2ifvpg","pricing_plan_id":"cebpf4jnsgd1na2vs0mg"},{"bike_id":"b6746235-1c9c-4789-b1ab-4c149fe22457","system_id":"levelo_inurba_marseille","lat":43.26209,"lon":5.37447,"is_reserved":false,"is_disabled":false,"rental_uris":{"android":"levelo://app?vid=b6746235-1c9c-4789-b1ab-4c149fe22457","ios":"levelo://app?vid=b6746235-1c9c-4789-b1ab-4c149fe22457"},"vehicle_type_id":"4","last_reported":1730639625,"current_range_meters":28800,"station_id":"ce4bhgp2rcd13ifvqfc0","pricing_plan_id":"cebpf4jnsgd1na2vs0mg"},{"bike_id":"4a7fc2b8-1796-4c4e-a92c-ac60a62e7d7a","system_id":"levelo_inurba_marseille","lat":43.28616,"lon":5.351,"is_reserved":false,"is_disabled":false,"rental_uris":{"android":"levelo://app?vid=4a7fc2b8-1796-4c4e-a92c-ac60a62e7d7a","ios":"levelo://app?vid=4a7fc2b8-1796-4c4e-a92c-ac60a62e7d7a"},"vehicle_type_id":"4","last_reported":1730639625,"current_range_meters":36400,"station_id":"ce4bhch2rcd13ifvqeug","pricing_plan_id":"cebpf4jnsgd1na2vs0mg"},{"bike_id":"cc125771-aee1-4ad2-93df-dc49f9b2d265","system_id":"levelo_inurba_marseille","lat":43.23954,"lon":5.3665,"is_reserved":false,"is_disabled":false,"rental_uris":{"android":"levelo://app?vid=cc125771-aee1-4ad2-93df-dc49f9b2d265","ios":"levelo://app?vid=cc125771-aee1-4ad2-93df-dc49f9b2d265"},"vehicle_type_id":"4","last_reported":1730639625,"current_range_meters":36800,"station_id":"ce4bhi12rcd13ifvqfp0","pricing_plan_id":"cebpf4jnsgd1na2vs0mg"},{"bike_id":"5818a6ac-2d40-4bf0-a920-aefa2e8a89fa","system_id":"levelo_inurba_marseille","lat":43.26484,"lon":5.39556,"is_reserved":false,"is_disabled":false,"rental_uris":{"android":"levelo://app?vid=5818a6ac-2d40-4bf0-a920-aefa2e8a89fa","ios":"levelo://app?vid=5818a6ac-2d40-4bf0-a920-aefa2e8a89fa"},"vehicle_type_id":"4","last_reported":1730639625,"current_range_meters":24400,"station_id":"ce4bhi12rcd13ifvqfq0","pricing_plan_id":"cebpf4jnsgd1na2vs0mg"},{"bike_id":"3449ebcb-21da-4bc9-af24-f5f474a0d56c","system_id":"levelo_inurba_marseille","lat":43.24392,"lon":5.37067,"is_reserved":false,"is_disabled":false,"rental_uris":{"android":"levelo://app?vid=3449ebcb-21da-4bc9-af24-f5f474a0d56c","ios":"levelo://app?vid=3449ebcb-21da-4bc9-af24-f5f474a0d56c"},"vehicle_type_id":"4","last_reported":1730639625,"current_range_meters":6400,"station_id":"ce4bhhh2rcd13ifvqfk0","pricing_plan_id":"cebpf4jnsgd1na2vs0mg"},{"bike_id":"3aae935e-f19b-4b82-860a-9e86c4796487","system_id":"levelo_inurba_marseille","lat":43.25863,"lon":5.39898,"is_reserved":false,"is_disabled":false,"rental_uris":{"android":"levelo://app?vid=3aae935e-f19b-4b82-860a-9e86c4796487","ios":"levelo://app?vid=3aae935e-f19b-4b82-860a-9e86c4796487"},"vehicle_type_id":"4","last_reported":1730639625,"current_range_meters":4000,"station_id":"ce4bhl92rcd13ifvqghg","pricing_plan_id":"cebpf4jnsgd1na2vs0mg"},{"bike_id":"c5550cd3-a332-4b05-910d-1a2cb5c3c20a","system_id":"levelo_inurba_marseille","lat":43.23191,"lon":5.35557,"is_reserved":false,"is_disabled":false,"rental_uris":{"android":"levelo://app?vid=c5550cd3-a332-4b05-910d-1a2cb5c3c20a","ios":"levelo://app?vid=c5550cd3-a332-4b05-910d-1a2cb5c3c20a"},"vehicle_type_id":"4","last_reported":1730639625,"current_range_meters":35600,"station_id":"ce4bhu92rcd13ifvqi70","pricing_plan_id":"cebpf4jnsgd1na2vs0mg"},{"bike_id":"0a10e7fb-89b5-446d-8da6-585397251955","system_id":"levelo_inurba_marseille","lat":43.27382,"lon":5.36257,"is_reserved":false,"is_disabled":false,"rental_uris":{"android":"levelo://app?vid=0a10e7fb-89b5-446d-8da6-585397251955","ios":"levelo://app?vid=0a10e7fb-89b5-446d-8da6-585397251955"},"vehicle_type_id":"4","last_reported":1730639625,"current_range_meters":17600,"station_id":"ce4bhbh2rcd13ifvqeo0","pricing_plan_id":"cebpf4jnsgd1na2vs0mg"},{"bike_id":"032c5ccb-82ca-4dd2-bdab-887da89f51d4","system_id":"levelo_inurba_marseille","lat":43.27485,"lon":5.42455,"is_reserved":false,"is_disabled":false,"rental_uris":{"android":"levelo://app?vid=032c5ccb-82ca-4dd2-bdab-887da89f51d4","ios":"levelo://app?vid=032c5ccb-82ca-4dd2-bdab-887da89f51d4"},"vehicle_type_id":"4","last_reported":1730639625,"current_range_meters":27600,"station_id":"ce4bhn92rcd13ifvqgrg","pricing_plan_id":"cebpf4jnsgd1na2vs0mg"},{"bike_id":"3c330f08-508b-4866-b688-f0374209e3dc","system_id":"levelo_inurba_marseille","lat":43.2511,"lon":5.40312,"is_reserved":false,"is_disabled":false,"rental_uris":{"android":"levelo://app?vid=3c330f08-508b-4866-b688-f0374209e3dc","ios":"levelo://app?vid=3c330f08-508b-4866-b688-f0374209e3dc"},"vehicle_type_id":"4","last_reported":1730639625,"current_range_meters":32000,"station_id":"ce4bhlh2rcd13ifvqgig","pricing_plan_id":"cebpf4jnsgd1na2vs0mg"},{"bike_id":"4147bbfb-4b14-4aca-b782-8ec6c0473609","system_id":"levelo_inurba_marseille","lat":43.23587,"lon":5.40341,"is_reserved":false,"is_disabled":false,"rental_uris":{"android":"levelo://app?vid=4147bbfb-4b14-4aca-b782-8ec6c0473609","ios":"levelo://app?vid=4147bbfb-4b14-4aca-b782-8ec6c0473609"},"vehicle_type_id":"4","last_reported":1730639625,"current_range_meters":21600,"station_id":"","pricing_plan_id":"cebpf4jnsgd1na2vs0mg"},{"bike_id":"22e0687f-e2cc-4582-8141-7137fc3d70c2","system_id":"levelo_inurba_marseille","lat":43.24804,"lon":5.37452,"is_reserved":false,"is_disabled":false,"rental_uris":{"android":"levelo://app?vid=22e0687f-e2cc-4582-8141-7137fc3d70c2","ios":"levelo://app?vid=22e0687f-e2cc-4582-8141-7137fc3d70c2"},"vehicle_type_id":"4","last_reported":1730639625,"current_range_meters":19200,"station_id":"ce4bhgh2rcd13ifvqfb0","pricing_plan_id":"cebpf4jnsgd1na2vs0mg"},{"bike_id":"768ab267-68c0-4d75-ab7e-f70793be3c63","system_id":"levelo_inurba_marseille","lat":43.28615,"lon":5.35097,"is_reserved":false,"is_disabled":false,"rental_uris":{"android":"levelo://app?vid=768ab267-68c0-4d75-ab7e-f70793be3c63","ios":"levelo://app?vid=768ab267-68c0-4d75-ab7e-f70793be3c63"},"vehicle_type_id":"4","last_reported":1730639625,"current_range_meters":37600,"station_id":"ce4bhch2rcd13ifvqeug","pricing_plan_id":"cebpf4jnsgd1na2vs0mg"},{"bike_id":"9a77ecac-32a3-490e-8fba-f625af793734","system_id":"levelo_inurba_marseille","lat":43.27072,"lon":5.42278,"is_reserved":false,"is_disabled":false,"rental_uris":{"android":"levelo://app?vid=9a77ecac-32a3-490e-8fba-f625af793734","ios":"levelo://app?vid=9a77ecac-32a3-490e-8fba-f625af793734"},"vehicle_type_id":"4","last_reported":1730639625,"current_range_meters":28000,"station_id":"ce4bhk92rcd13ifvqgb0","pricing_plan_id":"cebpf4jnsgd1na2vs0mg"},{"bike_id":"04a2c752-46b2-4be6-bd08-dc3b6ce21740","system_id":"levelo_inurba_marseille","lat":43.23962,"lon":5.36625,"is_reserved":false,"is_disabled":false,"rental_uris":{"android":"levelo://app?vid=04a2c752-46b2-4be6-bd08-dc3b6ce21740","ios":"levelo://app?vid=04a2c752-46b2-4be6-bd08-dc3b6ce21740"},"vehicle_type_id":"4","last_reported":1730639625,"current_range_meters":29600,"station_id":"ce4bhi12rcd13ifvqfp0","pricing_plan_id":"cebpf4jnsgd1na2vs0mg"},{"bike_id":"eeda0a49-c95e-447a-b118-263faeb6a58f","system_id":"levelo_inurba_marseille","lat":43.31452,"lon":5.37382,"is_reserved":false,"is_disabled":false,"rental_uris":{"android":"levelo://app?vid=eeda0a49-c95e-447a-b118-263faeb6a58f","ios":"levelo://app?vid=eeda0a49-c95e-447a-b118-263faeb6a58f"},"vehicle_type_id":"4","last_reported":1730639625,"current_range_meters":15200,"station_id":"","pricing_plan_id":"cebpf4jnsgd1na2vs0mg"},{"bike_id":"cd323f5c-82a5-43e0-8121-4140df26161f","system_id":"levelo_inurba_marseille","lat":43.26211,"lon":5.37441,"is_reserved":false,"is_disabled":false,"rental_uris":{"android":"levelo://app?vid=cd323f5c-82a5-43e0-8121-4140df26161f","ios":"levelo://app?vid=cd323f5c-82a5-43e0-8121-4140df26161f"},"vehicle_type_id":"4","last_reported":1730639625,"current_range_meters":32000,"station_id":"ce4bhgp2rcd13ifvqfc0","pricing_plan_id":"cebpf4jnsgd1na2vs0mg"},{"bike_id":"606a935e-1222-44f3-9729-6ce8493d6cf1","system_id":"levelo_inurba_marseille","lat":43.26557,"lon":5.37296,"is_reserved":false,"is_disabled":false,"rental_uris":{"android":"levelo://app?vid=606a935e-1222-44f3-9729-6ce8493d6cf1","ios":"levelo://app?vid=606a935e-1222-44f3-9729-6ce8493d6cf1"},"vehicle_type_id":"4","last_reported":1730639625,"current_range_meters":35600,"station_id":"ce4bhg12rcd13ifvqf70","pricing_plan_id":"cebpf4jnsgd1na2vs0mg"},{"bike_id":"0e93e300-48fa-4764-b7d1-04a256e13558","system_id":"levelo_inurba_marseille","lat":43.22926,"lon":5.35377,"is_reserved":false,"is_disabled":false,"rental_uris":{"android":"levelo://app?vid=0e93e300-48fa-4764-b7d1-04a256e13558","ios":"levelo://app?vid=0e93e300-48fa-4764-b7d1-04a256e13558"},"vehicle_type_id":"4","last_reported":1730639625,"current_range_meters":4800,"station_id":"cpo3532slgdg3j2ikp40","pricing_plan_id":"cebpf4jnsgd1na2vs0mg"},{"bike_id":"19a6d47e-53d7-42cf-9934-34fc3fd9053c","system_id":"levelo_inurba_marseille","lat":43.32287,"lon":5.38269,"is_reserved":false,"is_disabled":false,"rental_uris":{"android":"levelo://app?vid=19a6d47e-53d7-42cf-9934-34fc3fd9053c","ios":"levelo://app?vid=19a6d47e-53d7-42cf-9934-34fc3fd9053c"},"vehicle_type_id":"4","last_reported":1730639625,"current_range_meters":34800,"station_id":"ce4bhr12rcd13ifvqhqg","pricing_plan_id":"cebpf4jnsgd1na2vs0mg"},{"bike_id":"0c134fa5-bacf-4992-9469-2ff7aea126e4","system_id":"levelo_inurba_marseille","lat":43.28271,"lon":5.35071,"is_reserved":false,"is_disabled":false,"rental_uris":{"android":"levelo://app?vid=0c134fa5-bacf-4992-9469-2ff7aea126e4","ios":"levelo://app?vid=0c134fa5-bacf-4992-9469-2ff7aea126e4"},"vehicle_type_id":"4","last_reported":1730639625,"current_range_meters":33600,"station_id":"ce4bhbp2rcd13ifvqerg","pricing_plan_id":"cebpf4jnsgd1na2vs0mg"},{"bike_id":"0823e016-fbdb-4dbd-857c-17b9d461e3bf","system_id":"levelo_inurba_marseille","lat":43.262,"lon":5.37446,"is_reserved":false,"is_disabled":false,"rental_uris":{"android":"levelo://app?vid=0823e016-fbdb-4dbd-857c-17b9d461e3bf","ios":"levelo://app?vid=0823e016-fbdb-4dbd-857c-17b9d461e3bf"},"vehicle_type_id":"4","last_reported":1730639625,"current_range_meters":3600,"station_id":"ce4bhgp2rcd13ifvqfc0","pricing_plan_id":"cebpf4jnsgd1na2vs0mg"},{"bike_id":"41300ebb-502d-4299-829a-1b914f11e1c1","system_id":"levelo_inurba_marseille","lat":43.28411,"lon":5.37504,"is_reserved":false,"is_disabled":false,"rental_uris":{"android":"levelo://app?vid=41300ebb-502d-4299-829a-1b914f11e1c1","ios":"levelo://app?vid=41300ebb-502d-4299-829a-1b914f11e1c1"},"vehicle_type_id":"4","last_reported":1730639625,"current_range_meters":11200,"station_id":"ce4bh412rcd13ifvqds0","pricing_plan_id":"cebpf4jnsgd1na2vs0mg"},{"bike_id":"fbb69f4b-3dc6-4e69-8496-70ed995da3c8","system_id":"levelo_inurba_marseille","lat":43.28416,"lon":5.34996,"is_reserved":false,"is_disabled":false,"rental_uris":{"android":"levelo://app?vid=fbb69f4b-3dc6-4e69-8496-70ed995da3c8","ios":"levelo://app?vid=fbb69f4b-3dc6-4e69-8496-70ed995da3c8"},"vehicle_type_id":"4","last_reported":1730639625,"current_range_meters":38800,"station_id":"ce4bhbh2rcd13ifvqepg","pricing_plan_id":"cebpf4jnsgd1na2vs0mg"},{"bike_id":"598535da-1e32-42e0-bd65-4ba25549dd70","system_id":"levelo_inurba_marseille","lat":43.31451,"lon":5.37385,"is_reserved":false,"is_disabled":false,"rental_uris":{"android":"levelo://app?vid=598535da-1e32-42e0-bd65-4ba25549dd70","ios":"levelo://app?vid=598535da-1e32-42e0-bd65-4ba25549dd70"},"vehicle_type_id":"4","last_reported":1730639625,"current_range_meters":30400,"station_id":"","pricing_plan_id":"cebpf4jnsgd1na2vs0mg"},{"bike_id":"2378f453-72a7-4eb2-ab3b-946285d406fd","system_id":"levelo_inurba_marseille","lat":43.29215,"lon":5.37724,"is_reserved":false,"is_disabled":false,"rental_uris":{"android":"levelo://app?vid=2378f453-72a7-4eb2-ab3b-946285d406fd","ios":"levelo://app?vid=2378f453-72a7-4eb2-ab3b-946285d406fd"},"vehicle_type_id":"4","last_reported":1730639625,"current_range_meters":13600,"station_id":"ce4bgi12rcd13ifvqb70","pricing_plan_id":"cebpf4jnsgd1na2vs0mg"},{"bike_id":"d8fe1c30-26b7-480e-9c25-2c2268d4fc32","system_id":"levelo_inurba_marseille","lat":43.29579,"lon":5.36734,"is_reserved":false,"is_disabled":false,"rental_uris":{"android":"levelo://app?vid=d8fe1c30-26b7-480e-9c25-2c2268d4fc32","ios":"levelo://app?vid=d8fe1c30-26b7-480e-9c25-2c2268d4fc32"},"vehicle_type_id":"4","last_reported":1730639625,"current_range_meters":11200,"station_id":"ce4bgph2rcd13ifvqc2g","pricing_plan_id":"cebpf4jnsgd1na2vs0mg"},{"bike_id":"8e526b37-6c7f-4eb0-b6c1-598a862ea86d","system_id":"levelo_inurba_marseille","lat":43.27066,"lon":5.42279,"is_reserved":false,"is_disabled":false,"rental_uris":{"android":"levelo://app?vid=8e526b37-6c7f-4eb0-b6c1-598a862ea86d","ios":"levelo://app?vid=8e526b37-6c7f-4eb0-b6c1-598a862ea86d"},"vehicle_type_id":"4","last_reported":1730639625,"current_range_meters":24800,"station_id":"ce4bhk92rcd13ifvqgb0","pricing_plan_id":"cebpf4jnsgd1na2vs0mg"},{"bike_id":"ea6eac24-7b51-434a-8f51-d28eece06440","system_id":"levelo_inurba_marseille","lat":43.288023,"lon":5.360986,"is_reserved":false,"is_disabled":false,"rental_uris":{"android":"levelo://app?vid=ea6eac24-7b51-434a-8f51-d28eece06440","ios":"levelo://app?vid=ea6eac24-7b51-434a-8f51-d28eece06440"},"vehicle_type_id":"4","last_reported":1730639625,"current_range_meters":8800,"station_id":"","pricing_plan_id":"cebpf4jnsgd1na2vs0mg"},{"bike_id":"e54252ee-56b4-49de-9c60-3e51b567abd7","system_id":"levelo_inurba_marseille","lat":43.29318,"lon":5.37463,"is_reserved":false,"is_disabled":false,"rental_uris":{"android":"levelo://app?vid=e54252ee-56b4-49de-9c60-3e51b567abd7","ios":"levelo://app?vid=e54252ee-56b4-49de-9c60-3e51b567abd7"},"vehicle_type_id":"4","last_reported":1730639625,"current_range_meters":38800,"station_id":"ce4bgi12rcd13ifvqb70","pricing_plan_id":"cebpf4jnsgd1na2vs0mg"},{"bike_id":"2139192a-4508-4261-9837-0aa4c64d85ec","system_id":"levelo_inurba_marseille","lat":43.23063,"lon":5.35489,"is_reserved":false,"is_disabled":false,"rental_uris":{"android":"levelo://app?vid=2139192a-4508-4261-9837-0aa4c64d85ec","ios":"levelo://app?vid=2139192a-4508-4261-9837-0aa4c64d85ec"},"vehicle_type_id":"4","last_reported":1730639625,"current_range_meters":20400,"station_id":"cpo3342slgdg3j2ifvpg","pricing_plan_id":"cebpf4jnsgd1na2vs0mg"},{"bike_id":"a1ec2dcd-2526-4b25-98b6-5aab15754bd3","system_id":"levelo_inurba_marseille","lat":43.24386,"lon":5.37066,"is_reserved":false,"is_disabled":false,"rental_uris":{"android":"levelo://app?vid=a1ec2dcd-2526-4b25-98b6-5aab15754bd3","ios":"levelo://app?vid=a1ec2dcd-2526-4b25-98b6-5aab15754bd3"},"vehicle_type_id":"4","last_reported":1730639625,"current_range_meters":34000,"station_id":"ce4bhhh2rcd13ifvqfk0","pricing_plan_id":"cebpf4jnsgd1na2vs0mg"},{"bike_id":"d6e9ba07-8ec2-4b9a-bba8-91760d5204ec","system_id":"levelo_inurba_marseille","lat":43.28419,"lon":5.34967,"is_reserved":false,"is_disabled":false,"rental_uris":{"android":"levelo://app?vid=d6e9ba07-8ec2-4b9a-bba8-91760d5204ec","ios":"levelo://app?vid=d6e9ba07-8ec2-4b9a-bba8-91760d5204ec"},"vehicle_type_id":"4","last_reported":1730639625,"current_range_meters":33200,"station_id":"ce4bhbh2rcd13ifvqepg","pricing_plan_id":"cebpf4jnsgd1na2vs0mg"},{"bike_id":"c8893d8e-f81f-4744-85fb-448d69741653","system_id":"levelo_inurba_marseille","lat":43.27611,"lon":5.36115,"is_reserved":false,"is_disabled":false,"rental_uris":{"android":"levelo://app?vid=c8893d8e-f81f-4744-85fb-448d69741653","ios":"levelo://app?vid=c8893d8e-f81f-4744-85fb-448d69741653"},"vehicle_type_id":"4","last_reported":1730639625,"current_range_meters":7200,"station_id":"ce4bgj92rcd13ifvqbe0","pricing_plan_id":"cebpf4jnsgd1na2vs0mg"},{"bike_id":"f247c454-7df5-4bdf-a008-ea88cb715e0b","system_id":"levelo_inurba_marseille","lat":43.29582,"lon":5.36748,"is_reserved":false,"is_disabled":false,"rental_uris":{"android":"levelo://app?vid=f247c454-7df5-4bdf-a008-ea88cb715e0b","ios":"levelo://app?vid=f247c454-7df5-4bdf-a008-ea88cb715e0b"},"vehicle_type_id":"4","last_reported":1730639625,"current_range_meters":37600,"station_id":"ce4bgph2rcd13ifvqc2g","pricing_plan_id":"cebpf4jnsgd1na2vs0mg"},{"bike_id":"54d501f9-fba0-46c9-bdce-a5308cfee88a","system_id":"levelo_inurba_marseille","lat":43.29311,"lon":5.37167,"is_reserved":false,"is_disabled":false,"rental_uris":{"android":"levelo://app?vid=54d501f9-fba0-46c9-bdce-a5308cfee88a","ios":"levelo://app?vid=54d501f9-fba0-46c9-bdce-a5308cfee88a"},"vehicle_type_id":"4","last_reported":1730639625,"current_range_meters":22800,"station_id":"ce4bgh92rcd13ifvqb40","pricing_plan_id":"cebpf4jnsgd1na2vs0mg"},{"bike_id":"0c0e9036-82c0-4ae7-8f06-f2a0e4e21cf1","system_id":"levelo_inurba_marseille","lat":43.27369,"lon":5.36275,"is_reserved":false,"is_disabled":false,"rental_uris":{"android":"levelo://app?vid=0c0e9036-82c0-4ae7-8f06-f2a0e4e21cf1","ios":"levelo://app?vid=0c0e9036-82c0-4ae7-8f06-f2a0e4e21cf1"},"vehicle_type_id":"4","last_reported":1730639625,"current_range_meters":34000,"station_id":"ce4bhbh2rcd13ifvqeo0","pricing_plan_id":"cebpf4jnsgd1na2vs0mg"},{"bike_id":"dcda6d62-942d-4cfc-b0c3-e7315a082712","system_id":"levelo_inurba_marseille","lat":43.2781,"lon":5.40711,"is_reserved":false,"is_disabled":false,"rental_uris":{"android":"levelo://app?vid=dcda6d62-942d-4cfc-b0c3-e7315a082712","ios":"levelo://app?vid=dcda6d62-942d-4cfc-b0c3-e7315a082712"},"vehicle_type_id":"4","last_reported":1730639625,"current_range_meters":36800,"station_id":"ce4bhnh2rcd13ifvqgtg","pricing_plan_id":"cebpf4jnsgd1na2vs0mg"},{"bike_id":"4fc7c4d2-4fd6-42d7-be32-18427ff175d7","system_id":"levelo_inurba_marseille","lat":43.24807,"lon":5.37458,"is_reserved":false,"is_disabled":false,"rental_uris":{"android":"levelo://app?vid=4fc7c4d2-4fd6-42d7-be32-18427ff175d7","ios":"levelo://app?vid=4fc7c4d2-4fd6-42d7-be32-18427ff175d7"},"vehicle_type_id":"4","last_reported":1730639625,"current_range_meters":14000,"station_id":"ce4bhgh2rcd13ifvqfb0","pricing_plan_id":"cebpf4jnsgd1na2vs0mg"},{"bike_id":"75576e24-6890-4288-9aa5-db2804891d6f","system_id":"levelo_inurba_marseille","lat":43.26939,"lon":5.40247,"is_reserved":false,"is_disabled":false,"rental_uris":{"android":"levelo://app?vid=75576e24-6890-4288-9aa5-db2804891d6f","ios":"levelo://app?vid=75576e24-6890-4288-9aa5-db2804891d6f"},"vehicle_type_id":"4","last_reported":1730639625,"current_range_meters":38000,"station_id":"cjm6bp8fraef2m0cb0m0","pricing_plan_id":"cebpf4jnsgd1na2vs0mg"},{"bike_id":"54337fac-085e-4782-bad6-db9a84abd2e2","system_id":"levelo_inurba_marseille","lat":43.31676,"lon":5.37775,"is_reserved":false,"is_disabled":false,"rental_uris":{"android":"levelo://app?vid=54337fac-085e-4782-bad6-db9a84abd2e2","ios":"levelo://app?vid=54337fac-085e-4782-bad6-db9a84abd2e2"},"vehicle_type_id":"4","last_reported":1730639625,"current_range_meters":39200,"station_id":"ce4bgth2rcd13ifvqch0","pricing_plan_id":"cebpf4jnsgd1na2vs0mg"},{"bike_id":"791b215e-cb2d-4eab-9fb2-3ab5f0951911","system_id":"levelo_inurba_marseille","lat":43.31526,"lon":5.38045,"is_reserved":false,"is_disabled":false,"rental_uris":{"android":"levelo://app?vid=791b215e-cb2d-4eab-9fb2-3ab5f0951911","ios":"levelo://app?vid=791b215e-cb2d-4eab-9fb2-3ab5f0951911"},"vehicle_type_id":"4","last_reported":1730639625,"current_range_meters":36800,"station_id":"ce4bhsp2rcd13ifvqi50","pricing_plan_id":"cebpf4jnsgd1na2vs0mg"},{"bike_id":"f6938099-8d6d-4921-966d-9399ba5ffaf9","system_id":"levelo_inurba_marseille","lat":43.30141,"lon":5.38093,"is_reserved":false,"is_disabled":false,"rental_uris":{"android":"levelo://app?vid=f6938099-8d6d-4921-966d-9399ba5ffaf9","ios":"levelo://app?vid=f6938099-8d6d-4921-966d-9399ba5ffaf9"},"vehicle_type_id":"4","last_reported":1730639625,"current_range_meters":16400,"station_id":"ce4bgjp2rcd13ifvqbh0","pricing_plan_id":"cebpf4jnsgd1na2vs0mg"},{"bike_id":"a9e32352-0ca8-4535-87fc-d3cfff86084b","system_id":"levelo_inurba_marseille","lat":43.32477,"lon":5.36562,"is_reserved":false,"is_disabled":false,"rental_uris":{"android":"levelo://app?vid=a9e32352-0ca8-4535-87fc-d3cfff86084b","ios":"levelo://app?vid=a9e32352-0ca8-4535-87fc-d3cfff86084b"},"vehicle_type_id":"4","last_reported":1730639625,"current_range_meters":32000,"station_id":"ce4bhs12rcd13ifvqhvg","pricing_plan_id":"cebpf4jnsgd1na2vs0mg"},{"bike_id":"933e88ac-d979-43a7-a64b-221565f81a6f","system_id":"levelo_inurba_marseille","lat":43.2395,"lon":5.36636,"is_reserved":false,"is_disabled":false,"rental_uris":{"android":"levelo://app?vid=933e88ac-d979-43a7-a64b-221565f81a6f","ios":"levelo://app?vid=933e88ac-d979-43a7-a64b-221565f81a6f"},"vehicle_type_id":"4","last_reported":1730639625,"current_range_meters":37600,"station_id":"ce4bhi12rcd13ifvqfp0","pricing_plan_id":"cebpf4jnsgd1na2vs0mg"},{"bike_id":"05ce730c-be4d-41f9-bdc3-24a9557532bc","system_id":"levelo_inurba_marseille","lat":43.28421,"lon":5.34983,"is_reserved":false,"is_disabled":false,"rental_uris":{"android":"levelo://app?vid=05ce730c-be4d-41f9-bdc3-24a9557532bc","ios":"levelo://app?vid=05ce730c-be4d-41f9-bdc3-24a9557532bc"},"vehicle_type_id":"4","last_reported":1730639625,"current_range_meters":39200,"station_id":"ce4bhbh2rcd13ifvqepg","pricing_plan_id":"cebpf4jnsgd1na2vs0mg"},{"bike_id":"09415cc9-fd87-4370-a02f-ae7b69dc0a76","system_id":"levelo_inurba_marseille","lat":43.29003,"lon":5.35606,"is_reserved":false,"is_disabled":false,"rental_uris":{"android":"levelo://app?vid=09415cc9-fd87-4370-a02f-ae7b69dc0a76","ios":"levelo://app?vid=09415cc9-fd87-4370-a02f-ae7b69dc0a76"},"vehicle_type_id":"4","last_reported":1730639625,"current_range_meters":39200,"station_id":"ce4bhb92rcd13ifvqen0","pricing_plan_id":"cebpf4jnsgd1na2vs0mg"},{"bike_id":"9871620c-a3ac-4995-b682-c70b76b9c645","system_id":"levelo_inurba_marseille","lat":43.23063,"lon":5.3549,"is_reserved":false,"is_disabled":false,"rental_uris":{"android":"levelo://app?vid=9871620c-a3ac-4995-b682-c70b76b9c645","ios":"levelo://app?vid=9871620c-a3ac-4995-b682-c70b76b9c645"},"vehicle_type_id":"4","last_reported":1730639625,"current_range_meters":8400,"station_id":"cpo3342slgdg3j2ifvpg","pricing_plan_id":"cebpf4jnsgd1na2vs0mg"},{"bike_id":"9a28f87a-3668-4822-8e09-6d08932482d8","system_id":"levelo_inurba_marseille","lat":43.30138,"lon":5.37417,"is_reserved":false,"is_disabled":false,"rental_uris":{"android":"levelo://app?vid=9a28f87a-3668-4822-8e09-6d08932482d8","ios":"levelo://app?vid=9a28f87a-3668-4822-8e09-6d08932482d8"},"vehicle_type_id":"4","last_reported":1730639625,"current_range_meters":38800,"station_id":"ce4bgs92rcd13ifvqcc0","pricing_plan_id":"cebpf4jnsgd1na2vs0mg"},{"bike_id":"19769287-7b21-4414-8932-851cac3d7947","system_id":"levelo_inurba_marseille","lat":43.2319,"lon":5.35556,"is_reserved":false,"is_disabled":false,"rental_uris":{"android":"levelo://app?vid=19769287-7b21-4414-8932-851cac3d7947","ios":"levelo://app?vid=19769287-7b21-4414-8932-851cac3d7947"},"vehicle_type_id":"4","last_reported":1730639625,"current_range_meters":20400,"station_id":"ce4bhu92rcd13ifvqi70","pricing_plan_id":"cebpf4jnsgd1na2vs0mg"},{"bike_id":"e7b2e8ea-c807-4d28-9da9-d79d6f447019","system_id":"levelo_inurba_marseille","lat":43.22935,"lon":5.35379,"is_reserved":false,"is_disabled":false,"rental_uris":{"android":"levelo://app?vid=e7b2e8ea-c807-4d28-9da9-d79d6f447019","ios":"levelo://app?vid=e7b2e8ea-c807-4d28-9da9-d79d6f447019"},"vehicle_type_id":"4","last_reported":1730639625,"current_range_meters":18800,"station_id":"cpo3532slgdg3j2ikp40","pricing_plan_id":"cebpf4jnsgd1na2vs0mg"},{"bike_id":"c26fa19c-a53e-4cea-b5e4-555ffdfd6c13","system_id":"levelo_inurba_marseille","lat":43.27171,"lon":5.4099,"is_reserved":false,"is_disabled":false,"rental_uris":{"android":"levelo://app?vid=c26fa19c-a53e-4cea-b5e4-555ffdfd6c13","ios":"levelo://app?vid=c26fa19c-a53e-4cea-b5e4-555ffdfd6c13"},"vehicle_type_id":"4","last_reported":1730639625,"current_range_meters":5600,"station_id":"ce4bhl12rcd13ifvqgf0","pricing_plan_id":"cebpf4jnsgd1na2vs0mg"},{"bike_id":"a5e5686b-78b3-4a90-88b3-8326b4aff7e8","system_id":"levelo_inurba_marseille","lat":43.31056,"lon":5.38344,"is_reserved":false,"is_disabled":false,"rental_uris":{"android":"levelo://app?vid=a5e5686b-78b3-4a90-88b3-8326b4aff7e8","ios":"levelo://app?vid=a5e5686b-78b3-4a90-88b3-8326b4aff7e8"},"vehicle_type_id":"4","last_reported":1730639625,"current_range_meters":32800,"station_id":"ce4bgv92rcd13ifvqcr0","pricing_plan_id":"cebpf4jnsgd1na2vs0mg"},{"bike_id":"261c4d70-e88a-4503-999a-4e763611e52b","system_id":"levelo_inurba_marseille","lat":43.28662,"lon":5.3867,"is_reserved":false,"is_disabled":false,"rental_uris":{"android":"levelo://app?vid=261c4d70-e88a-4503-999a-4e763611e52b","ios":"levelo://app?vid=261c4d70-e88a-4503-999a-4e763611e52b"},"vehicle_type_id":"4","last_reported":1730639625,"current_range_meters":20000,"station_id":"ce4bh492rcd13ifvqdug","pricing_plan_id":"cebpf4jnsgd1na2vs0mg"},{"bike_id":"e999ae27-65e2-4a3c-971e-706139fb7f96","system_id":"levelo_inurba_marseille","lat":43.24807,"lon":5.37459,"is_reserved":false,"is_disabled":false,"rental_uris":{"android":"levelo://app?vid=e999ae27-65e2-4a3c-971e-706139fb7f96","ios":"levelo://app?vid=e999ae27-65e2-4a3c-971e-706139fb7f96"},"vehicle_type_id":"4","last_reported":1730639625,"current_range_meters":36400,"station_id":"ce4bhgh2rcd13ifvqfb0","pricing_plan_id":"cebpf4jnsgd1na2vs0mg"},{"bike_id":"d4a28ca7-1d3a-4051-997f-1c7a07b61d86","system_id":"levelo_inurba_marseille","lat":43.270463,"lon":5.382126,"is_reserved":false,"is_disabled":false,"rental_uris":{"android":"levelo://app?vid=d4a28ca7-1d3a-4051-997f-1c7a07b61d86","ios":"levelo://app?vid=d4a28ca7-1d3a-4051-997f-1c7a07b61d86"},"vehicle_type_id":"4","last_reported":1730639625,"current_range_meters":19200,"station_id":"ce4bhi12rcd13ifvqfp0","pricing_plan_id":"cebpf4jnsgd1na2vs0mg"},{"bike_id":"ef11cc93-f30b-4864-9c47-a06ba98b6168","system_id":"levelo_inurba_marseille","lat":43.24378,"lon":5.37058,"is_reserved":false,"is_disabled":false,"rental_uris":{"android":"levelo://app?vid=ef11cc93-f30b-4864-9c47-a06ba98b6168","ios":"levelo://app?vid=ef11cc93-f30b-4864-9c47-a06ba98b6168"},"vehicle_type_id":"4","last_reported":1730639625,"current_range_meters":35200,"station_id":"ce4bhhh2rcd13ifvqfk0","pricing_plan_id":"cebpf4jnsgd1na2vs0mg"},{"bike_id":"ca1b5efc-c25e-4578-8ed4-153e1091bba7","system_id":"levelo_inurba_marseille","lat":43.25862,"lon":5.39898,"is_reserved":false,"is_disabled":false,"rental_uris":{"android":"levelo://app?vid=ca1b5efc-c25e-4578-8ed4-153e1091bba7","ios":"levelo://app?vid=ca1b5efc-c25e-4578-8ed4-153e1091bba7"},"vehicle_type_id":"4","last_reported":1730639625,"current_range_meters":16800,"station_id":"ce4bhl92rcd13ifvqghg","pricing_plan_id":"cebpf4jnsgd1na2vs0mg"},{"bike_id":"3dfc58a0-0cfa-44c1-8b72-a7fa58fea48f","system_id":"levelo_inurba_marseille","lat":43.2905,"lon":5.35914,"is_reserved":false,"is_disabled":false,"rental_uris":{"android":"levelo://app?vid=3dfc58a0-0cfa-44c1-8b72-a7fa58fea48f","ios":"levelo://app?vid=3dfc58a0-0cfa-44c1-8b72-a7fa58fea48f"},"vehicle_type_id":"4","last_reported":1730639625,"current_range_meters":39200,"station_id":"ce4bha92rcd13ifvqeg0","pricing_plan_id":"cebpf4jnsgd1na2vs0mg"},{"bike_id":"edc5af78-c59e-4ad3-97fa-2ad187ab3e6e","system_id":"levelo_inurba_marseille","lat":43.268,"lon":5.40274,"is_reserved":false,"is_disabled":false,"rental_uris":{"android":"levelo://app?vid=edc5af78-c59e-4ad3-97fa-2ad187ab3e6e","ios":"levelo://app?vid=edc5af78-c59e-4ad3-97fa-2ad187ab3e6e"},"vehicle_type_id":"4","last_reported":1730639625,"current_range_meters":28000,"station_id":"ce501612rcd8frsf0b60","pricing_plan_id":"cebpf4jnsgd1na2vs0mg"},{"bike_id":"61497ec0-6b91-4085-893e-2dc4cbab5392","system_id":"levelo_inurba_marseille","lat":43.32368,"lon":5.38886,"is_reserved":false,"is_disabled":false,"rental_uris":{"android":"levelo://app?vid=61497ec0-6b91-4085-893e-2dc4cbab5392","ios":"levelo://app?vid=61497ec0-6b91-4085-893e-2dc4cbab5392"},"vehicle_type_id":"4","last_reported":1730639625,"current_range_meters":22800,"station_id":"ce4bhqp2rcd13ifvqhog","pricing_plan_id":"cebpf4jnsgd1na2vs0mg"},{"bike_id":"8dab96c7-c0af-4d10-94fa-35fca6e8dbab","system_id":"levelo_inurba_marseille","lat":43.29006,"lon":5.356182,"is_reserved":false,"is_disabled":false,"rental_uris":{"android":"levelo://app?vid=8dab96c7-c0af-4d10-94fa-35fca6e8dbab","ios":"levelo://app?vid=8dab96c7-c0af-4d10-94fa-35fca6e8dbab"},"vehicle_type_id":"4","last_reported":1730639625,"current_range_meters":39200,"station_id":"ce4bha92rcd13ifvqeg0","pricing_plan_id":"cebpf4jnsgd1na2vs0mg"},{"bike_id":"7e819d23-40bb-4756-aca2-bdce3e026dfa","system_id":"levelo_inurba_marseille","lat":43.25499,"lon":5.37653,"is_reserved":false,"is_disabled":false,"rental_uris":{"android":"levelo://app?vid=7e819d23-40bb-4756-aca2-bdce3e026dfa","ios":"levelo://app?vid=7e819d23-40bb-4756-aca2-bdce3e026dfa"},"vehicle_type_id":"4","last_reported":1730639625,"current_range_meters":4800,"station_id":"ce4bhh12rcd13ifvqff0","pricing_plan_id":"cebpf4jnsgd1na2vs0mg"},{"bike_id":"e55d8d6f-7394-4584-af8a-c65aaa7989ef","system_id":"levelo_inurba_marseille","lat":43.26064,"lon":5.39382,"is_reserved":false,"is_disabled":false,"rental_uris":{"android":"levelo://app?vid=e55d8d6f-7394-4584-af8a-c65aaa7989ef","ios":"levelo://app?vid=e55d8d6f-7394-4584-af8a-c65aaa7989ef"},"vehicle_type_id":"4","last_reported":1730639625,"current_range_meters":5600,"station_id":"ce4bhh92rcd13ifvqfj0","pricing_plan_id":"cebpf4jnsgd1na2vs0mg"},{"bike_id":"12e2a17d-b267-46ea-b046-7d399d7c3544","system_id":"levelo_inurba_marseille","lat":43.33718,"lon":5.39179,"is_reserved":false,"is_disabled":false,"rental_uris":{"android":"levelo://app?vid=12e2a17d-b267-46ea-b046-7d399d7c3544","ios":"levelo://app?vid=12e2a17d-b267-46ea-b046-7d399d7c3544"},"vehicle_type_id":"4","last_reported":1730639625,"current_range_meters":8800,"station_id":"ce4bhr92rcd13ifvqhsg","pricing_plan_id":"cebpf4jnsgd1na2vs0mg"},{"bike_id":"97dcc311-ab5f-498a-b7d7-e271faa2ccaa","system_id":"levelo_inurba_marseille","lat":43.24071,"lon":5.37761,"is_reserved":false,"is_disabled":false,"rental_uris":{"android":"levelo://app?vid=97dcc311-ab5f-498a-b7d7-e271faa2ccaa","ios":"levelo://app?vid=97dcc311-ab5f-498a-b7d7-e271faa2ccaa"},"vehicle_type_id":"4","last_reported":1730639625,"current_range_meters":8000,"station_id":"ce4bhnp2rcd13ifvqgvg","pricing_plan_id":"cebpf4jnsgd1na2vs0mg"},{"bike_id":"50c61d10-796e-41ff-8615-d9fb252ecb98","system_id":"levelo_inurba_marseille","lat":43.23947,"lon":5.36647,"is_reserved":false,"is_disabled":false,"rental_uris":{"android":"levelo://app?vid=50c61d10-796e-41ff-8615-d9fb252ecb98","ios":"levelo://app?vid=50c61d10-796e-41ff-8615-d9fb252ecb98"},"vehicle_type_id":"4","last_reported":1730639625,"current_range_meters":33600,"station_id":"ce4bhi12rcd13ifvqfp0","pricing_plan_id":"cebpf4jnsgd1na2vs0mg"},{"bike_id":"36fa9450-955c-4ac8-9735-e69a1c898584","system_id":"levelo_inurba_marseille","lat":43.30534,"lon":5.36525,"is_reserved":false,"is_disabled":false,"rental_uris":{"android":"levelo://app?vid=36fa9450-955c-4ac8-9735-e69a1c898584","ios":"levelo://app?vid=36fa9450-955c-4ac8-9735-e69a1c898584"},"vehicle_type_id":"4","last_reported":1730639625,"current_range_meters":11600,"station_id":"ce4bgs12rcd13ifvqcag","pricing_plan_id":"cebpf4jnsgd1na2vs0mg"},{"bike_id":"cbf35fb1-7487-48cd-84f5-f7af6d5fc895","system_id":"levelo_inurba_marseille","lat":43.24659,"lon":5.38161,"is_reserved":false,"is_disabled":false,"rental_uris":{"android":"levelo://app?vid=cbf35fb1-7487-48cd-84f5-f7af6d5fc895","ios":"levelo://app?vid=cbf35fb1-7487-48cd-84f5-f7af6d5fc895"},"vehicle_type_id":"4","last_reported":1730639625,"current_range_meters":38000,"station_id":"ce4bhih2rcd13ifvqfr0","pricing_plan_id":"cebpf4jnsgd1na2vs0mg"},{"bike_id":"a484a607-5ddc-4226-8a7c-a164e2d01fb1","system_id":"levelo_inurba_marseille","lat":43.29622,"lon":5.37148,"is_reserved":false,"is_disabled":false,"rental_uris":{"android":"levelo://app?vid=a484a607-5ddc-4226-8a7c-a164e2d01fb1","ios":"levelo://app?vid=a484a607-5ddc-4226-8a7c-a164e2d01fb1"},"vehicle_type_id":"4","last_reported":1730639625,"current_range_meters":32800,"station_id":"ce4bgnh2rcd13ifvqc0g","pricing_plan_id":"cebpf4jnsgd1na2vs0mg"},{"bike_id":"d4472d20-9c4b-4c70-ad00-3a005519a429","system_id":"levelo_inurba_marseille","lat":43.354219,"lon":5.357096,"is_reserved":false,"is_disabled":false,"rental_uris":{"android":"levelo://app?vid=d4472d20-9c4b-4c70-ad00-3a005519a429","ios":"levelo://app?vid=d4472d20-9c4b-4c70-ad00-3a005519a429"},"vehicle_type_id":"4","last_reported":1730639625,"current_range_meters":15200,"station_id":"","pricing_plan_id":"cebpf4jnsgd1na2vs0mg"},{"bike_id":"6338020e-474a-4c99-b365-eea26fe54739","system_id":"levelo_inurba_marseille","lat":43.32284,"lon":5.38285,"is_reserved":false,"is_disabled":false,"rental_uris":{"android":"levelo://app?vid=6338020e-474a-4c99-b365-eea26fe54739","ios":"levelo://app?vid=6338020e-474a-4c99-b365-eea26fe54739"},"vehicle_type_id":"4","last_reported":1730639625,"current_range_meters":39200,"station_id":"ce4bhr12rcd13ifvqhqg","pricing_plan_id":"cebpf4jnsgd1na2vs0mg"},{"bike_id":"a9a6c491-49a0-4baf-99f2-b015402e65b3","system_id":"levelo_inurba_marseille","lat":43.24389,"lon":5.37051,"is_reserved":false,"is_disabled":false,"rental_uris":{"android":"levelo://app?vid=a9a6c491-49a0-4baf-99f2-b015402e65b3","ios":"levelo://app?vid=a9a6c491-49a0-4baf-99f2-b015402e65b3"},"vehicle_type_id":"4","last_reported":1730639625,"current_range_meters":23200,"station_id":"ce4bhhh2rcd13ifvqfk0","pricing_plan_id":"cebpf4jnsgd1na2vs0mg"},{"bike_id":"ca8a4401-c84d-446c-a791-9b65e8728255","system_id":"levelo_inurba_marseille","lat":43.28038,"lon":5.36954,"is_reserved":false,"is_disabled":false,"rental_uris":{"android":"levelo://app?vid=ca8a4401-c84d-446c-a791-9b65e8728255","ios":"levelo://app?vid=ca8a4401-c84d-446c-a791-9b65e8728255"},"vehicle_type_id":"4","last_reported":1730639625,"current_range_meters":25600,"station_id":"ce4bha12rcd13ifvqef0","pricing_plan_id":"cebpf4jnsgd1na2vs0mg"},{"bike_id":"0506889d-15a4-4df6-832b-e0ad41c4a7da","system_id":"levelo_inurba_marseille","lat":43.23957,"lon":5.36639,"is_reserved":false,"is_disabled":false,"rental_uris":{"android":"levelo://app?vid=0506889d-15a4-4df6-832b-e0ad41c4a7da","ios":"levelo://app?vid=0506889d-15a4-4df6-832b-e0ad41c4a7da"},"vehicle_type_id":"4","last_reported":1730639625,"current_range_meters":32800,"station_id":"ce4bhi12rcd13ifvqfp0","pricing_plan_id":"cebpf4jnsgd1na2vs0mg"},{"bike_id":"4d838921-ecf0-47e9-891e-f3ee5c37121f","system_id":"levelo_inurba_marseille","lat":43.28269,"lon":5.35065,"is_reserved":false,"is_disabled":false,"rental_uris":{"android":"levelo://app?vid=4d838921-ecf0-47e9-891e-f3ee5c37121f","ios":"levelo://app?vid=4d838921-ecf0-47e9-891e-f3ee5c37121f"},"vehicle_type_id":"4","last_reported":1730639625,"current_range_meters":35200,"station_id":"ce4bhbp2rcd13ifvqerg","pricing_plan_id":"cebpf4jnsgd1na2vs0mg"},{"bike_id":"6e9dfb8e-c8f9-42a6-9d41-c02eb62af443","system_id":"levelo_inurba_marseille","lat":43.23147,"lon":5.43715,"is_reserved":false,"is_disabled":false,"rental_uris":{"android":"levelo://app?vid=6e9dfb8e-c8f9-42a6-9d41-c02eb62af443","ios":"levelo://app?vid=6e9dfb8e-c8f9-42a6-9d41-c02eb62af443"},"vehicle_type_id":"4","last_reported":1730639625,"current_range_meters":13600,"station_id":"ce4bhmp2rcd13ifvqgog","pricing_plan_id":"cebpf4jnsgd1na2vs0mg"},{"bike_id":"f8833f7b-49c8-440c-b671-beb72799bdec","system_id":"levelo_inurba_marseille","lat":43.24975,"lon":5.37508,"is_reserved":false,"is_disabled":false,"rental_uris":{"android":"levelo://app?vid=f8833f7b-49c8-440c-b671-beb72799bdec","ios":"levelo://app?vid=f8833f7b-49c8-440c-b671-beb72799bdec"},"vehicle_type_id":"4","last_reported":1730639625,"current_range_meters":30800,"station_id":"","pricing_plan_id":"cebpf4jnsgd1na2vs0mg"},{"bike_id":"8e2c05be-bb63-4667-bbf2-08bd24c66ea1","system_id":"levelo_inurba_marseille","lat":43.2417,"lon":5.36398,"is_reserved":false,"is_disabled":false,"rental_uris":{"android":"levelo://app?vid=8e2c05be-bb63-4667-bbf2-08bd24c66ea1","ios":"levelo://app?vid=8e2c05be-bb63-4667-bbf2-08bd24c66ea1"},"vehicle_type_id":"4","last_reported":1730639625,"current_range_meters":17200,"station_id":"cpo36qri1sfpv3e86is0","pricing_plan_id":"cebpf4jnsgd1na2vs0mg"},{"bike_id":"7d1d8b3c-0803-4bf6-9721-d7161499653f","system_id":"levelo_inurba_marseille","lat":43.24074,"lon":5.37757,"is_reserved":false,"is_disabled":false,"rental_uris":{"android":"levelo://app?vid=7d1d8b3c-0803-4bf6-9721-d7161499653f","ios":"levelo://app?vid=7d1d8b3c-0803-4bf6-9721-d7161499653f"},"vehicle_type_id":"4","last_reported":1730639625,"current_range_meters":20400,"station_id":"ce4bhnp2rcd13ifvqgvg","pricing_plan_id":"cebpf4jnsgd1na2vs0mg"},{"bike_id":"f35cd096-8317-409a-9875-97da0ea574d4","system_id":"levelo_inurba_marseille","lat":43.32537,"lon":5.4145,"is_reserved":false,"is_disabled":false,"rental_uris":{"android":"levelo://app?vid=f35cd096-8317-409a-9875-97da0ea574d4","ios":"levelo://app?vid=f35cd096-8317-409a-9875-97da0ea574d4"},"vehicle_type_id":"4","last_reported":1730639625,"current_range_meters":36800,"station_id":"ce4bhq12rcd13ifvqhhg","pricing_plan_id":"cebpf4jnsgd1na2vs0mg"},{"bike_id":"5bdeb517-1a4b-4c75-910b-1f223b816670","system_id":"levelo_inurba_marseille","lat":43.32468,"lon":5.36558,"is_reserved":false,"is_disabled":false,"rental_uris":{"android":"levelo://app?vid=5bdeb517-1a4b-4c75-910b-1f223b816670","ios":"levelo://app?vid=5bdeb517-1a4b-4c75-910b-1f223b816670"},"vehicle_type_id":"4","last_reported":1730639625,"current_range_meters":37600,"station_id":"ce4bhs12rcd13ifvqhvg","pricing_plan_id":"cebpf4jnsgd1na2vs0mg"},{"bike_id":"6ec2e87a-cd12-4f83-9957-3576a72e23ec","system_id":"levelo_inurba_marseille","lat":43.25822,"lon":5.39439,"is_reserved":false,"is_disabled":false,"rental_uris":{"android":"levelo://app?vid=6ec2e87a-cd12-4f83-9957-3576a72e23ec","ios":"levelo://app?vid=6ec2e87a-cd12-4f83-9957-3576a72e23ec"},"vehicle_type_id":"4","last_reported":1730639625,"current_range_meters":18800,"station_id":"ce4bhip2rcd13ifvqft0","pricing_plan_id":"cebpf4jnsgd1na2vs0mg"},{"bike_id":"1ddde7ff-3953-4942-bfab-1d2712b93546","system_id":"levelo_inurba_marseille","lat":43.31703,"lon":5.37752,"is_reserved":false,"is_disabled":false,"rental_uris":{"android":"levelo://app?vid=1ddde7ff-3953-4942-bfab-1d2712b93546","ios":"levelo://app?vid=1ddde7ff-3953-4942-bfab-1d2712b93546"},"vehicle_type_id":"4","last_reported":1730639625,"current_range_meters":40000,"station_id":"ce4bgth2rcd13ifvqch0","pricing_plan_id":"cebpf4jnsgd1na2vs0mg"},{"bike_id":"7261abbc-bef1-40b4-8225-29e060af6a97","system_id":"levelo_inurba_marseille","lat":43.2799,"lon":5.4166,"is_reserved":false,"is_disabled":false,"rental_uris":{"android":"levelo://app?vid=7261abbc-bef1-40b4-8225-29e060af6a97","ios":"levelo://app?vid=7261abbc-bef1-40b4-8225-29e060af6a97"},"vehicle_type_id":"4","last_reported":1730639625,"current_range_meters":37600,"station_id":"ce4bho12rcd13ifvqh1g","pricing_plan_id":"cebpf4jnsgd1na2vs0mg"},{"bike_id":"9b83c467-696c-4a85-b81a-739bb3a33b5a","system_id":"levelo_inurba_marseille","lat":43.25083,"lon":5.39515,"is_reserved":false,"is_disabled":false,"rental_uris":{"android":"levelo://app?vid=9b83c467-696c-4a85-b81a-739bb3a33b5a","ios":"levelo://app?vid=9b83c467-696c-4a85-b81a-739bb3a33b5a"},"vehicle_type_id":"4","last_reported":1730639625,"current_range_meters":39200,"station_id":"ce4bhm12rcd13ifvqgkg","pricing_plan_id":"cebpf4jnsgd1na2vs0mg"},{"bike_id":"44642f4d-6acc-46fe-bd97-7c50fc803f39","system_id":"levelo_inurba_marseille","lat":43.32114,"lon":5.36775,"is_reserved":false,"is_disabled":false,"rental_uris":{"android":"levelo://app?vid=44642f4d-6acc-46fe-bd97-7c50fc803f39","ios":"levelo://app?vid=44642f4d-6acc-46fe-bd97-7c50fc803f39"},"vehicle_type_id":"4","last_reported":1730639625,"current_range_meters":8800,"station_id":"ce4bhrh2rcd13ifvqhug","pricing_plan_id":"cebpf4jnsgd1na2vs0mg"},{"bike_id":"18402065-9e87-476b-95ad-30853de181a0","system_id":"levelo_inurba_marseille","lat":43.32455,"lon":5.45543,"is_reserved":false,"is_disabled":false,"rental_uris":{"android":"levelo://app?vid=18402065-9e87-476b-95ad-30853de181a0","ios":"levelo://app?vid=18402065-9e87-476b-95ad-30853de181a0"},"vehicle_type_id":"4","last_reported":1730639625,"current_range_meters":3600,"station_id":"","pricing_plan_id":"cebpf4jnsgd1na2vs0mg"},{"bike_id":"0795f4cf-259d-417a-8820-3a6b012ae7cb","system_id":"levelo_inurba_marseille","lat":43.23188,"lon":5.35549,"is_reserved":false,"is_disabled":false,"rental_uris":{"android":"levelo://app?vid=0795f4cf-259d-417a-8820-3a6b012ae7cb","ios":"levelo://app?vid=0795f4cf-259d-417a-8820-3a6b012ae7cb"},"vehicle_type_id":"4","last_reported":1730639625,"current_range_meters":29600,"station_id":"ce4bhu92rcd13ifvqi70","pricing_plan_id":"cebpf4jnsgd1na2vs0mg"},{"bike_id":"dba991c6-8bb5-40ca-ab8e-83b6a7c18e6f","system_id":"levelo_inurba_marseille","lat":43.289856,"lon":5.356184,"is_reserved":false,"is_disabled":false,"rental_uris":{"android":"levelo://app?vid=dba991c6-8bb5-40ca-ab8e-83b6a7c18e6f","ios":"levelo://app?vid=dba991c6-8bb5-40ca-ab8e-83b6a7c18e6f"},"vehicle_type_id":"4","last_reported":1730639625,"current_range_meters":10000,"station_id":"ce4bhb92rcd13ifvqen0","pricing_plan_id":"cebpf4jnsgd1na2vs0mg"},{"bike_id":"4eb01b0d-49fc-48ee-b782-54d621657f1b","system_id":"levelo_inurba_marseille","lat":43.31888,"lon":5.40752,"is_reserved":false,"is_disabled":false,"rental_uris":{"android":"levelo://app?vid=4eb01b0d-49fc-48ee-b782-54d621657f1b","ios":"levelo://app?vid=4eb01b0d-49fc-48ee-b782-54d621657f1b"},"vehicle_type_id":"4","last_reported":1730639625,"current_range_meters":30800,"station_id":"ce4bhq12rcd13ifvqhig","pricing_plan_id":"cebpf4jnsgd1na2vs0mg"},{"bike_id":"f90730aa-8241-4aad-86b2-c4b4611fa5ea","system_id":"levelo_inurba_marseille","lat":43.25929,"lon":5.40904,"is_reserved":false,"is_disabled":false,"rental_uris":{"android":"levelo://app?vid=f90730aa-8241-4aad-86b2-c4b4611fa5ea","ios":"levelo://app?vid=f90730aa-8241-4aad-86b2-c4b4611fa5ea"},"vehicle_type_id":"4","last_reported":1730639625,"current_range_meters":16000,"station_id":"ce4bhm92rcd13ifvqglg","pricing_plan_id":"cebpf4jnsgd1na2vs0mg"},{"bike_id":"8d5e10f9-f0cf-43fe-a81e-7f88ce3f164d","system_id":"levelo_inurba_marseille","lat":43.28615,"lon":5.351,"is_reserved":false,"is_disabled":false,"rental_uris":{"android":"levelo://app?vid=8d5e10f9-f0cf-43fe-a81e-7f88ce3f164d","ios":"levelo://app?vid=8d5e10f9-f0cf-43fe-a81e-7f88ce3f164d"},"vehicle_type_id":"4","last_reported":1730639625,"current_range_meters":38800,"station_id":"ce4bhch2rcd13ifvqeug","pricing_plan_id":"cebpf4jnsgd1na2vs0mg"},{"bike_id":"5a98aa4c-fb3e-4b94-bbf4-81045c1c5828","system_id":"levelo_inurba_marseille","lat":43.28428,"lon":5.34997,"is_reserved":false,"is_disabled":false,"rental_uris":{"android":"levelo://app?vid=5a98aa4c-fb3e-4b94-bbf4-81045c1c5828","ios":"levelo://app?vid=5a98aa4c-fb3e-4b94-bbf4-81045c1c5828"},"vehicle_type_id":"4","last_reported":1730639625,"current_range_meters":23200,"station_id":"ce4bhbh2rcd13ifvqepg","pricing_plan_id":"cebpf4jnsgd1na2vs0mg"},{"bike_id":"a391737f-84ff-466c-8a2e-8a9944704898","system_id":"levelo_inurba_marseille","lat":43.27926,"lon":5.39572,"is_reserved":false,"is_disabled":false,"rental_uris":{"android":"levelo://app?vid=a391737f-84ff-466c-8a2e-8a9944704898","ios":"levelo://app?vid=a391737f-84ff-466c-8a2e-8a9944704898"},"vehicle_type_id":"4","last_reported":1730639625,"current_range_meters":26800,"station_id":"ce4bhf92rcd13ifvqf40","pricing_plan_id":"cebpf4jnsgd1na2vs0mg"},{"bike_id":"69e8e244-7afd-48f7-87cc-a6062d557c47","system_id":"levelo_inurba_marseille","lat":43.27997,"lon":5.41666,"is_reserved":false,"is_disabled":false,"rental_uris":{"android":"levelo://app?vid=69e8e244-7afd-48f7-87cc-a6062d557c47","ios":"levelo://app?vid=69e8e244-7afd-48f7-87cc-a6062d557c47"},"vehicle_type_id":"4","last_reported":1730639625,"current_range_meters":18800,"station_id":"ce4bho12rcd13ifvqh1g","pricing_plan_id":"cebpf4jnsgd1na2vs0mg"},{"bike_id":"751eec01-23b0-49aa-a2a3-e2d658155f8b","system_id":"levelo_inurba_marseille","lat":43.27172,"lon":5.40981,"is_reserved":false,"is_disabled":false,"rental_uris":{"android":"levelo://app?vid=751eec01-23b0-49aa-a2a3-e2d658155f8b","ios":"levelo://app?vid=751eec01-23b0-49aa-a2a3-e2d658155f8b"},"vehicle_type_id":"4","last_reported":1730639625,"current_range_meters":39200,"station_id":"ce4bhl12rcd13ifvqgf0","pricing_plan_id":"cebpf4jnsgd1na2vs0mg"},{"bike_id":"c7a6a60a-ebc3-43dc-847c-5817f23f3b49","system_id":"levelo_inurba_marseille","lat":43.25723,"lon":5.41108,"is_reserved":false,"is_disabled":false,"rental_uris":{"android":"levelo://app?vid=c7a6a60a-ebc3-43dc-847c-5817f23f3b49","ios":"levelo://app?vid=c7a6a60a-ebc3-43dc-847c-5817f23f3b49"},"vehicle_type_id":"4","last_reported":1730639625,"current_range_meters":4400,"station_id":"ce4bhkp2rcd13ifvqgd0","pricing_plan_id":"cebpf4jnsgd1na2vs0mg"},{"bike_id":"d5541a12-439a-4845-841b-6ce96c9850ba","system_id":"levelo_inurba_marseille","lat":43.24805,"lon":5.37452,"is_reserved":false,"is_disabled":false,"rental_uris":{"android":"levelo://app?vid=d5541a12-439a-4845-841b-6ce96c9850ba","ios":"levelo://app?vid=d5541a12-439a-4845-841b-6ce96c9850ba"},"vehicle_type_id":"4","last_reported":1730639625,"current_range_meters":16800,"station_id":"ce4bhgh2rcd13ifvqfb0","pricing_plan_id":"cebpf4jnsgd1na2vs0mg"},{"bike_id":"1cabbeb2-44e1-4279-a840-6957acdae304","system_id":"levelo_inurba_marseille","lat":43.27625,"lon":5.36108,"is_reserved":false,"is_disabled":false,"rental_uris":{"android":"levelo://app?vid=1cabbeb2-44e1-4279-a840-6957acdae304","ios":"levelo://app?vid=1cabbeb2-44e1-4279-a840-6957acdae304"},"vehicle_type_id":"4","last_reported":1730639625,"current_range_meters":38800,"station_id":"ce4bgj92rcd13ifvqbe0","pricing_plan_id":"cebpf4jnsgd1na2vs0mg"},{"bike_id":"3de79b57-7daf-468c-b183-8c3c9299d270","system_id":"levelo_inurba_marseille","lat":43.28428,"lon":5.35004,"is_reserved":false,"is_disabled":false,"rental_uris":{"android":"levelo://app?vid=3de79b57-7daf-468c-b183-8c3c9299d270","ios":"levelo://app?vid=3de79b57-7daf-468c-b183-8c3c9299d270"},"vehicle_type_id":"4","last_reported":1730639625,"current_range_meters":28800,"station_id":"ce4bhbh2rcd13ifvqepg","pricing_plan_id":"cebpf4jnsgd1na2vs0mg"},{"bike_id":"10ed327e-9437-4dd8-87ff-793db08671ae","system_id":"levelo_inurba_marseille","lat":43.25498,"lon":5.37653,"is_reserved":false,"is_disabled":false,"rental_uris":{"android":"levelo://app?vid=10ed327e-9437-4dd8-87ff-793db08671ae","ios":"levelo://app?vid=10ed327e-9437-4dd8-87ff-793db08671ae"},"vehicle_type_id":"4","last_reported":1730639625,"current_range_meters":39200,"station_id":"ce4bhh12rcd13ifvqff0","pricing_plan_id":"cebpf4jnsgd1na2vs0mg"},{"bike_id":"3b0d9f27-15e7-4761-984b-3eb58f143dab","system_id":"levelo_inurba_marseille","lat":43.27984,"lon":5.40025,"is_reserved":false,"is_disabled":false,"rental_uris":{"android":"levelo://app?vid=3b0d9f27-15e7-4761-984b-3eb58f143dab","ios":"levelo://app?vid=3b0d9f27-15e7-4761-984b-3eb58f143dab"},"vehicle_type_id":"4","last_reported":1730639625,"current_range_meters":38800,"station_id":"ce4bho92rcd13ifvqh4g","pricing_plan_id":"cebpf4jnsgd1na2vs0mg"},{"bike_id":"24ffd7c5-6473-484d-9c6b-b6420825c8ed","system_id":"levelo_inurba_marseille","lat":43.29896,"lon":5.43666,"is_reserved":false,"is_disabled":false,"rental_uris":{"android":"levelo://app?vid=24ffd7c5-6473-484d-9c6b-b6420825c8ed","ios":"levelo://app?vid=24ffd7c5-6473-484d-9c6b-b6420825c8ed"},"vehicle_type_id":"4","last_reported":1730639625,"current_range_meters":38000,"station_id":"ce4bhpp2rcd13ifvqhfg","pricing_plan_id":"cebpf4jnsgd1na2vs0mg"},{"bike_id":"e4aa7f36-b0fe-47e3-9ec1-0dd54baac1d5","system_id":"levelo_inurba_marseille","lat":43.23197,"lon":5.35552,"is_reserved":false,"is_disabled":false,"rental_uris":{"android":"levelo://app?vid=e4aa7f36-b0fe-47e3-9ec1-0dd54baac1d5","ios":"levelo://app?vid=e4aa7f36-b0fe-47e3-9ec1-0dd54baac1d5"},"vehicle_type_id":"4","last_reported":1730639625,"current_range_meters":35600,"station_id":"ce4bhu92rcd13ifvqi70","pricing_plan_id":"cebpf4jnsgd1na2vs0mg"},{"bike_id":"7ae58d61-3106-4e88-9715-d33fc378d68f","system_id":"levelo_inurba_marseille","lat":43.28715,"lon":5.37942,"is_reserved":false,"is_disabled":false,"rental_uris":{"android":"levelo://app?vid=7ae58d61-3106-4e88-9715-d33fc378d68f","ios":"levelo://app?vid=7ae58d61-3106-4e88-9715-d33fc378d68f"},"vehicle_type_id":"4","last_reported":1730639625,"current_range_meters":39200,"station_id":"ce4bh9p2rcd13ifvqec0","pricing_plan_id":"cebpf4jnsgd1na2vs0mg"},{"bike_id":"086366aa-b8a0-482c-b4ac-e470df673ca9","system_id":"levelo_inurba_marseille","lat":43.27171,"lon":5.40988,"is_reserved":false,"is_disabled":false,"rental_uris":{"android":"levelo://app?vid=086366aa-b8a0-482c-b4ac-e470df673ca9","ios":"levelo://app?vid=086366aa-b8a0-482c-b4ac-e470df673ca9"},"vehicle_type_id":"4","last_reported":1730639625,"current_range_meters":31200,"station_id":"ce4bhl12rcd13ifvqgf0","pricing_plan_id":"cebpf4jnsgd1na2vs0mg"},{"bike_id":"15fe47c8-0304-4d3c-b4bb-eb0c0993cab9","system_id":"levelo_inurba_marseille","lat":43.31079,"lon":5.38351,"is_reserved":false,"is_disabled":false,"rental_uris":{"android":"levelo://app?vid=15fe47c8-0304-4d3c-b4bb-eb0c0993cab9","ios":"levelo://app?vid=15fe47c8-0304-4d3c-b4bb-eb0c0993cab9"},"vehicle_type_id":"4","last_reported":1730639625,"current_range_meters":29600,"station_id":"ce4bgv92rcd13ifvqcr0","pricing_plan_id":"cebpf4jnsgd1na2vs0mg"},{"bike_id":"1da54a2a-a2b9-469c-bcc3-4599706d447b","system_id":"levelo_inurba_marseille","lat":43.23194,"lon":5.35552,"is_reserved":false,"is_disabled":false,"rental_uris":{"android":"levelo://app?vid=1da54a2a-a2b9-469c-bcc3-4599706d447b","ios":"levelo://app?vid=1da54a2a-a2b9-469c-bcc3-4599706d447b"},"vehicle_type_id":"4","last_reported":1730639625,"current_range_meters":32000,"station_id":"ce4bhu92rcd13ifvqi70","pricing_plan_id":"cebpf4jnsgd1na2vs0mg"},{"bike_id":"9cf0d3e8-f636-4a47-9b48-43e2ed3f7957","system_id":"levelo_inurba_marseille","lat":43.28694,"lon":5.39984,"is_reserved":false,"is_disabled":false,"rental_uris":{"android":"levelo://app?vid=9cf0d3e8-f636-4a47-9b48-43e2ed3f7957","ios":"levelo://app?vid=9cf0d3e8-f636-4a47-9b48-43e2ed3f7957"},"vehicle_type_id":"4","last_reported":1730639625,"current_range_meters":33600,"station_id":"ce4bho92rcd13ifvqh3g","pricing_plan_id":"cebpf4jnsgd1na2vs0mg"},{"bike_id":"333d893b-1d01-4233-aca1-350d81f7cd60","system_id":"levelo_inurba_marseille","lat":43.32036,"lon":5.41569,"is_reserved":false,"is_disabled":false,"rental_uris":{"android":"levelo://app?vid=333d893b-1d01-4233-aca1-350d81f7cd60","ios":"levelo://app?vid=333d893b-1d01-4233-aca1-350d81f7cd60"},"vehicle_type_id":"4","last_reported":1730639625,"current_range_meters":18000,"station_id":"ce4bhq92rcd13ifvqhkg","pricing_plan_id":"cebpf4jnsgd1na2vs0mg"},{"bike_id":"e1481e95-d6e7-4b28-a470-50971aa10960","system_id":"levelo_inurba_marseille","lat":43.31709,"lon":5.43716,"is_reserved":false,"is_disabled":false,"rental_uris":{"android":"levelo://app?vid=e1481e95-d6e7-4b28-a470-50971aa10960","ios":"levelo://app?vid=e1481e95-d6e7-4b28-a470-50971aa10960"},"vehicle_type_id":"4","last_reported":1730639625,"current_range_meters":16800,"station_id":"ce4bhp92rcd13ifvqhcg","pricing_plan_id":"cebpf4jnsgd1na2vs0mg"},{"bike_id":"3bd6119d-d638-4146-a4b1-500bfb92e1e4","system_id":"levelo_inurba_marseille","lat":43.25823,"lon":5.39428,"is_reserved":false,"is_disabled":false,"rental_uris":{"android":"levelo://app?vid=3bd6119d-d638-4146-a4b1-500bfb92e1e4","ios":"levelo://app?vid=3bd6119d-d638-4146-a4b1-500bfb92e1e4"},"vehicle_type_id":"4","last_reported":1730639625,"current_range_meters":35600,"station_id":"ce4bhip2rcd13ifvqft0","pricing_plan_id":"cebpf4jnsgd1na2vs0mg"},{"bike_id":"cb260b96-8c2f-480d-ae38-1fe9d868e6c9","system_id":"levelo_inurba_marseille","lat":43.24166,"lon":5.36396,"is_reserved":false,"is_disabled":false,"rental_uris":{"android":"levelo://app?vid=cb260b96-8c2f-480d-ae38-1fe9d868e6c9","ios":"levelo://app?vid=cb260b96-8c2f-480d-ae38-1fe9d868e6c9"},"vehicle_type_id":"4","last_reported":1730639625,"current_range_meters":12400,"station_id":"cpo36qri1sfpv3e86is0","pricing_plan_id":"cebpf4jnsgd1na2vs0mg"},{"bike_id":"fae3d841-73a6-480d-a659-e0564a7a8dd8","system_id":"levelo_inurba_marseille","lat":43.30541,"lon":5.36552,"is_reserved":false,"is_disabled":false,"rental_uris":{"android":"levelo://app?vid=fae3d841-73a6-480d-a659-e0564a7a8dd8","ios":"levelo://app?vid=fae3d841-73a6-480d-a659-e0564a7a8dd8"},"vehicle_type_id":"4","last_reported":1730639625,"current_range_meters":16000,"station_id":"ce4bgs12rcd13ifvqcag","pricing_plan_id":"cebpf4jnsgd1na2vs0mg"},{"bike_id":"ea16dcf0-c487-46de-8792-a524571c7d70","system_id":"levelo_inurba_marseille","lat":43.24801,"lon":5.37456,"is_reserved":false,"is_disabled":false,"rental_uris":{"android":"levelo://app?vid=ea16dcf0-c487-46de-8792-a524571c7d70","ios":"levelo://app?vid=ea16dcf0-c487-46de-8792-a524571c7d70"},"vehicle_type_id":"4","last_reported":1730639625,"current_range_meters":24400,"station_id":"ce4bhgh2rcd13ifvqfb0","pricing_plan_id":"cebpf4jnsgd1na2vs0mg"},{"bike_id":"ea2283c2-03de-4916-a548-3120280ebd33","system_id":"levelo_inurba_marseille","lat":43.30535,"lon":5.36553,"is_reserved":false,"is_disabled":false,"rental_uris":{"android":"levelo://app?vid=ea2283c2-03de-4916-a548-3120280ebd33","ios":"levelo://app?vid=ea2283c2-03de-4916-a548-3120280ebd33"},"vehicle_type_id":"4","last_reported":1730639625,"current_range_meters":24400,"station_id":"ce4bgs12rcd13ifvqcag","pricing_plan_id":"cebpf4jnsgd1na2vs0mg"},{"bike_id":"581392ef-bf00-4538-9de0-6e66c216240f","system_id":"levelo_inurba_marseille","lat":43.24647,"lon":5.38889,"is_reserved":false,"is_disabled":false,"rental_uris":{"android":"levelo://app?vid=581392ef-bf00-4538-9de0-6e66c216240f","ios":"levelo://app?vid=581392ef-bf00-4538-9de0-6e66c216240f"},"vehicle_type_id":"4","last_reported":1730639625,"current_range_meters":36000,"station_id":"ce4bhg12rcd13ifvqf60","pricing_plan_id":"cebpf4jnsgd1na2vs0mg"},{"bike_id":"8c67d340-801d-46e5-b910-2f8aff3ff078","system_id":"levelo_inurba_marseille","lat":43.33314,"lon":5.37062,"is_reserved":false,"is_disabled":false,"rental_uris":{"android":"levelo://app?vid=8c67d340-801d-46e5-b910-2f8aff3ff078","ios":"levelo://app?vid=8c67d340-801d-46e5-b910-2f8aff3ff078"},"vehicle_type_id":"4","last_reported":1730639625,"current_range_meters":6400,"station_id":"","pricing_plan_id":"cebpf4jnsgd1na2vs0mg"},{"bike_id":"b8bcaf07-d07f-4706-b7c9-79ba3ce14bca","system_id":"levelo_inurba_marseille","lat":43.27475,"lon":5.42445,"is_reserved":false,"is_disabled":false,"rental_uris":{"android":"levelo://app?vid=b8bcaf07-d07f-4706-b7c9-79ba3ce14bca","ios":"levelo://app?vid=b8bcaf07-d07f-4706-b7c9-79ba3ce14bca"},"vehicle_type_id":"4","last_reported":1730639625,"current_range_meters":29600,"station_id":"ce4bhn92rcd13ifvqgrg","pricing_plan_id":"cebpf4jnsgd1na2vs0mg"},{"bike_id":"921069e2-e506-477e-8730-9e0ff76dae61","system_id":"levelo_inurba_marseille","lat":43.2407,"lon":5.37759,"is_reserved":false,"is_disabled":false,"rental_uris":{"android":"levelo://app?vid=921069e2-e506-477e-8730-9e0ff76dae61","ios":"levelo://app?vid=921069e2-e506-477e-8730-9e0ff76dae61"},"vehicle_type_id":"4","last_reported":1730639625,"current_range_meters":36400,"station_id":"ce4bhnp2rcd13ifvqgvg","pricing_plan_id":"cebpf4jnsgd1na2vs0mg"},{"bike_id":"79f5032c-4427-40bb-bbad-7f35acb21ebc","system_id":"levelo_inurba_marseille","lat":43.32287,"lon":5.3828,"is_reserved":false,"is_disabled":false,"rental_uris":{"android":"levelo://app?vid=79f5032c-4427-40bb-bbad-7f35acb21ebc","ios":"levelo://app?vid=79f5032c-4427-40bb-bbad-7f35acb21ebc"},"vehicle_type_id":"4","last_reported":1730639625,"current_range_meters":18000,"station_id":"ce4bhr12rcd13ifvqhqg","pricing_plan_id":"cebpf4jnsgd1na2vs0mg"},{"bike_id":"28607402-8164-47b9-81c4-7229bc0a3424","system_id":"levelo_inurba_marseille","lat":43.29806,"lon":5.40409,"is_reserved":false,"is_disabled":false,"rental_uris":{"android":"levelo://app?vid=28607402-8164-47b9-81c4-7229bc0a3424","ios":"levelo://app?vid=28607402-8164-47b9-81c4-7229bc0a3424"},"vehicle_type_id":"4","last_reported":1730639625,"current_range_meters":39200,"station_id":"ce4bh112rcd13ifvqd90","pricing_plan_id":"cebpf4jnsgd1na2vs0mg"},{"bike_id":"885fd0ae-1b94-44a7-82ef-3062b31b5b1e","system_id":"levelo_inurba_marseille","lat":43.26198,"lon":5.37933,"is_reserved":false,"is_disabled":false,"rental_uris":{"android":"levelo://app?vid=885fd0ae-1b94-44a7-82ef-3062b31b5b1e","ios":"levelo://app?vid=885fd0ae-1b94-44a7-82ef-3062b31b5b1e"},"vehicle_type_id":"4","last_reported":1730639625,"current_range_meters":17200,"station_id":"ce4bhjp2rcd13ifvqg90","pricing_plan_id":"cebpf4jnsgd1na2vs0mg"},{"bike_id":"dc84963c-b913-4484-aea2-59ca619051f5","system_id":"levelo_inurba_marseille","lat":43.283677,"lon":5.386337,"is_reserved":false,"is_disabled":false,"rental_uris":{"android":"levelo://app?vid=dc84963c-b913-4484-aea2-59ca619051f5","ios":"levelo://app?vid=dc84963c-b913-4484-aea2-59ca619051f5"},"vehicle_type_id":"4","last_reported":1730639625,"current_range_meters":26800,"station_id":"ce4bh492rcd13ifvqdvg","pricing_plan_id":"cebpf4jnsgd1na2vs0mg"},{"bike_id":"1b76da04-24af-4551-be92-5b5e0e7c5288","system_id":"levelo_inurba_marseille","lat":43.27484,"lon":5.4245,"is_reserved":false,"is_disabled":false,"rental_uris":{"android":"levelo://app?vid=1b76da04-24af-4551-be92-5b5e0e7c5288","ios":"levelo://app?vid=1b76da04-24af-4551-be92-5b5e0e7c5288"},"vehicle_type_id":"4","last_reported":1730639625,"current_range_meters":38800,"station_id":"ce4bhn92rcd13ifvqgrg","pricing_plan_id":"cebpf4jnsgd1na2vs0mg"},{"bike_id":"d4279f92-49bc-424d-a700-70391e3249d5","system_id":"levelo_inurba_marseille","lat":43.22932,"lon":5.35388,"is_reserved":false,"is_disabled":false,"rental_uris":{"android":"levelo://app?vid=d4279f92-49bc-424d-a700-70391e3249d5","ios":"levelo://app?vid=d4279f92-49bc-424d-a700-70391e3249d5"},"vehicle_type_id":"4","last_reported":1730639625,"current_range_meters":24000,"station_id":"cpo3532slgdg3j2ikp40","pricing_plan_id":"cebpf4jnsgd1na2vs0mg"},{"bike_id":"f138e776-1ec3-4faf-bdec-6cd18a511ee8","system_id":"levelo_inurba_marseille","lat":43.28433,"lon":5.34995,"is_reserved":false,"is_disabled":false,"rental_uris":{"android":"levelo://app?vid=f138e776-1ec3-4faf-bdec-6cd18a511ee8","ios":"levelo://app?vid=f138e776-1ec3-4faf-bdec-6cd18a511ee8"},"vehicle_type_id":"4","last_reported":1730639625,"current_range_meters":13600,"station_id":"ce4bhbh2rcd13ifvqepg","pricing_plan_id":"cebpf4jnsgd1na2vs0mg"},{"bike_id":"fa9e6bfe-937a-4cbb-883b-0de597b7ca1c","system_id":"levelo_inurba_marseille","lat":43.27375,"lon":5.36263,"is_reserved":false,"is_disabled":false,"rental_uris":{"android":"levelo://app?vid=fa9e6bfe-937a-4cbb-883b-0de597b7ca1c","ios":"levelo://app?vid=fa9e6bfe-937a-4cbb-883b-0de597b7ca1c"},"vehicle_type_id":"4","last_reported":1730639625,"current_range_meters":7200,"station_id":"ce4bhbh2rcd13ifvqeo0","pricing_plan_id":"cebpf4jnsgd1na2vs0mg"},{"bike_id":"d5324ca5-5a3a-4892-bb8c-7dbf331e6ea6","system_id":"levelo_inurba_marseille","lat":43.32471,"lon":5.36571,"is_reserved":false,"is_disabled":false,"rental_uris":{"android":"levelo://app?vid=d5324ca5-5a3a-4892-bb8c-7dbf331e6ea6","ios":"levelo://app?vid=d5324ca5-5a3a-4892-bb8c-7dbf331e6ea6"},"vehicle_type_id":"4","last_reported":1730639625,"current_range_meters":38800,"station_id":"ce4bhs12rcd13ifvqhvg","pricing_plan_id":"cebpf4jnsgd1na2vs0mg"},{"bike_id":"00fa2031-46a9-49f9-a788-1b41648c535a","system_id":"levelo_inurba_marseille","lat":43.22928,"lon":5.35381,"is_reserved":false,"is_disabled":false,"rental_uris":{"android":"levelo://app?vid=00fa2031-46a9-49f9-a788-1b41648c535a","ios":"levelo://app?vid=00fa2031-46a9-49f9-a788-1b41648c535a"},"vehicle_type_id":"4","last_reported":1730639625,"current_range_meters":28800,"station_id":"cpo3532slgdg3j2ikp40","pricing_plan_id":"cebpf4jnsgd1na2vs0mg"},{"bike_id":"3e5789a9-8473-4354-a555-f09907fe1728","system_id":"levelo_inurba_marseille","lat":43.28276,"lon":5.35081,"is_reserved":false,"is_disabled":false,"rental_uris":{"android":"levelo://app?vid=3e5789a9-8473-4354-a555-f09907fe1728","ios":"levelo://app?vid=3e5789a9-8473-4354-a555-f09907fe1728"},"vehicle_type_id":"4","last_reported":1730639625,"current_range_meters":38800,"station_id":"ce4bhbp2rcd13ifvqerg","pricing_plan_id":"cebpf4jnsgd1na2vs0mg"},{"bike_id":"7b8934ab-1a6b-4c2d-b5fa-40771c000556","system_id":"levelo_inurba_marseille","lat":43.27071,"lon":5.42273,"is_reserved":false,"is_disabled":false,"rental_uris":{"android":"levelo://app?vid=7b8934ab-1a6b-4c2d-b5fa-40771c000556","ios":"levelo://app?vid=7b8934ab-1a6b-4c2d-b5fa-40771c000556"},"vehicle_type_id":"4","last_reported":1730639625,"current_range_meters":23200,"station_id":"ce4bhk92rcd13ifvqgb0","pricing_plan_id":"cebpf4jnsgd1na2vs0mg"},{"bike_id":"dcc7c2b1-530d-4e28-acd2-0b28b7f9aec7","system_id":"levelo_inurba_marseille","lat":43.28616,"lon":5.35103,"is_reserved":false,"is_disabled":false,"rental_uris":{"android":"levelo://app?vid=dcc7c2b1-530d-4e28-acd2-0b28b7f9aec7","ios":"levelo://app?vid=dcc7c2b1-530d-4e28-acd2-0b28b7f9aec7"},"vehicle_type_id":"4","last_reported":1730639625,"current_range_meters":35200,"station_id":"ce4bhch2rcd13ifvqeug","pricing_plan_id":"cebpf4jnsgd1na2vs0mg"},{"bike_id":"08920b5f-8bad-4021-bfd9-662285f9e0e5","system_id":"levelo_inurba_marseille","lat":43.25937,"lon":5.38616,"is_reserved":false,"is_disabled":false,"rental_uris":{"android":"levelo://app?vid=08920b5f-8bad-4021-bfd9-662285f9e0e5","ios":"levelo://app?vid=08920b5f-8bad-4021-bfd9-662285f9e0e5"},"vehicle_type_id":"4","last_reported":1730639625,"current_range_meters":27600,"station_id":"ce4bhih2rcd13ifvqfs0","pricing_plan_id":"cebpf4jnsgd1na2vs0mg"},{"bike_id":"4bb355ab-4134-4dcf-a0f6-8cfd2225d6bb","system_id":"levelo_inurba_marseille","lat":43.31494,"lon":5.3731,"is_reserved":false,"is_disabled":false,"rental_uris":{"android":"levelo://app?vid=4bb355ab-4134-4dcf-a0f6-8cfd2225d6bb","ios":"levelo://app?vid=4bb355ab-4134-4dcf-a0f6-8cfd2225d6bb"},"vehicle_type_id":"4","last_reported":1730639625,"current_range_meters":26800,"station_id":"ce4bgt12rcd13ifvqcd0","pricing_plan_id":"cebpf4jnsgd1na2vs0mg"},{"bike_id":"f18f00f3-ce38-4565-9a7a-f492a3e96a14","system_id":"levelo_inurba_marseille","lat":43.3055,"lon":5.36541,"is_reserved":false,"is_disabled":false,"rental_uris":{"android":"levelo://app?vid=f18f00f3-ce38-4565-9a7a-f492a3e96a14","ios":"levelo://app?vid=f18f00f3-ce38-4565-9a7a-f492a3e96a14"},"vehicle_type_id":"4","last_reported":1730639625,"current_range_meters":11600,"station_id":"ce4bgs12rcd13ifvqcag","pricing_plan_id":"cebpf4jnsgd1na2vs0mg"},{"bike_id":"04b55f9a-b28b-4505-a7ac-dbe57ec6aab8","system_id":"levelo_inurba_marseille","lat":43.23064,"lon":5.35488,"is_reserved":false,"is_disabled":false,"rental_uris":{"android":"levelo://app?vid=04b55f9a-b28b-4505-a7ac-dbe57ec6aab8","ios":"levelo://app?vid=04b55f9a-b28b-4505-a7ac-dbe57ec6aab8"},"vehicle_type_id":"4","last_reported":1730639625,"current_range_meters":25200,"station_id":"cpo3342slgdg3j2ifvpg","pricing_plan_id":"cebpf4jnsgd1na2vs0mg"},{"bike_id":"c36500d8-3c1b-40b4-b412-de69c457b9cb","system_id":"levelo_inurba_marseille","lat":43.27599,"lon":5.41767,"is_reserved":false,"is_disabled":false,"rental_uris":{"android":"levelo://app?vid=c36500d8-3c1b-40b4-b412-de69c457b9cb","ios":"levelo://app?vid=c36500d8-3c1b-40b4-b412-de69c457b9cb"},"vehicle_type_id":"4","last_reported":1730639625,"current_range_meters":7200,"station_id":"","pricing_plan_id":"cebpf4jnsgd1na2vs0mg"},{"bike_id":"c7565bc2-ea5f-4206-9533-ebb55df6b670","system_id":"levelo_inurba_marseille","lat":43.26192,"lon":5.37453,"is_reserved":false,"is_disabled":false,"rental_uris":{"android":"levelo://app?vid=c7565bc2-ea5f-4206-9533-ebb55df6b670","ios":"levelo://app?vid=c7565bc2-ea5f-4206-9533-ebb55df6b670"},"vehicle_type_id":"4","last_reported":1730639625,"current_range_meters":36800,"station_id":"ce4bhgp2rcd13ifvqfc0","pricing_plan_id":"cebpf4jnsgd1na2vs0mg"},{"bike_id":"61b5c281-8ce6-4a4d-9201-7286f862d85c","system_id":"levelo_inurba_marseille","lat":43.28429,"lon":5.3499,"is_reserved":false,"is_disabled":false,"rental_uris":{"android":"levelo://app?vid=61b5c281-8ce6-4a4d-9201-7286f862d85c","ios":"levelo://app?vid=61b5c281-8ce6-4a4d-9201-7286f862d85c"},"vehicle_type_id":"4","last_reported":1730639625,"current_range_meters":23200,"station_id":"ce4bhbh2rcd13ifvqepg","pricing_plan_id":"cebpf4jnsgd1na2vs0mg"},{"bike_id":"6687323e-8c35-4929-a04a-7297876b4919","system_id":"levelo_inurba_marseille","lat":43.2621,"lon":5.37447,"is_reserved":false,"is_disabled":false,"rental_uris":{"android":"levelo://app?vid=6687323e-8c35-4929-a04a-7297876b4919","ios":"levelo://app?vid=6687323e-8c35-4929-a04a-7297876b4919"},"vehicle_type_id":"4","last_reported":1730639625,"current_range_meters":28800,"station_id":"ce4bhgp2rcd13ifvqfc0","pricing_plan_id":"cebpf4jnsgd1na2vs0mg"},{"bike_id":"c5240f36-8240-4ee5-8a5b-f6352f14c639","system_id":"levelo_inurba_marseille","lat":43.24804,"lon":5.37454,"is_reserved":false,"is_disabled":false,"rental_uris":{"android":"levelo://app?vid=c5240f36-8240-4ee5-8a5b-f6352f14c639","ios":"levelo://app?vid=c5240f36-8240-4ee5-8a5b-f6352f14c639"},"vehicle_type_id":"4","last_reported":1730639625,"current_range_meters":39200,"station_id":"ce4bhgh2rcd13ifvqfb0","pricing_plan_id":"cebpf4jnsgd1na2vs0mg"},{"bike_id":"1e185788-9907-4bdb-b6af-00236c99911a","system_id":"levelo_inurba_marseille","lat":43.27069,"lon":5.42277,"is_reserved":false,"is_disabled":false,"rental_uris":{"android":"levelo://app?vid=1e185788-9907-4bdb-b6af-00236c99911a","ios":"levelo://app?vid=1e185788-9907-4bdb-b6af-00236c99911a"},"vehicle_type_id":"4","last_reported":1730639625,"current_range_meters":20800,"station_id":"ce4bhk92rcd13ifvqgb0","pricing_plan_id":"cebpf4jnsgd1na2vs0mg"},{"bike_id":"fd10ef77-d05e-4331-8aed-58b9ee82e018","system_id":"levelo_inurba_marseille","lat":43.29063,"lon":5.37164,"is_reserved":false,"is_disabled":false,"rental_uris":{"android":"levelo://app?vid=fd10ef77-d05e-4331-8aed-58b9ee82e018","ios":"levelo://app?vid=fd10ef77-d05e-4331-8aed-58b9ee82e018"},"vehicle_type_id":"4","last_reported":1730639625,"current_range_meters":39200,"station_id":"ce4bh5p2rcd13ifvqe4g","pricing_plan_id":"cebpf4jnsgd1na2vs0mg"},{"bike_id":"6ddabdc2-6a0c-4633-9194-8ef9d0164759","system_id":"levelo_inurba_marseille","lat":43.24652,"lon":5.3816,"is_reserved":false,"is_disabled":false,"rental_uris":{"android":"levelo://app?vid=6ddabdc2-6a0c-4633-9194-8ef9d0164759","ios":"levelo://app?vid=6ddabdc2-6a0c-4633-9194-8ef9d0164759"},"vehicle_type_id":"4","last_reported":1730639625,"current_range_meters":37600,"station_id":"ce4bhih2rcd13ifvqfr0","pricing_plan_id":"cebpf4jnsgd1na2vs0mg"},{"bike_id":"baeb82a5-aab2-4d15-b1fc-e43d5b5e30ae","system_id":"levelo_inurba_marseille","lat":43.27618,"lon":5.3611,"is_reserved":false,"is_disabled":false,"rental_uris":{"android":"levelo://app?vid=baeb82a5-aab2-4d15-b1fc-e43d5b5e30ae","ios":"levelo://app?vid=baeb82a5-aab2-4d15-b1fc-e43d5b5e30ae"},"vehicle_type_id":"4","last_reported":1730639625,"current_range_meters":12400,"station_id":"ce4bgj92rcd13ifvqbe0","pricing_plan_id":"cebpf4jnsgd1na2vs0mg"},{"bike_id":"f4ed2854-93d3-4329-9045-e88661c61d8a","system_id":"levelo_inurba_marseille","lat":43.30595,"lon":5.3721,"is_reserved":false,"is_disabled":false,"rental_uris":{"android":"levelo://app?vid=f4ed2854-93d3-4329-9045-e88661c61d8a","ios":"levelo://app?vid=f4ed2854-93d3-4329-9045-e88661c61d8a"},"vehicle_type_id":"4","last_reported":1730639625,"current_range_meters":33600,"station_id":"ce4bgqh2rcd13ifvqc4g","pricing_plan_id":"cebpf4jnsgd1na2vs0mg"},{"bike_id":"fd7f1df3-e226-4e18-ae23-a86c9180372b","system_id":"levelo_inurba_marseille","lat":43.28418,"lon":5.34975,"is_reserved":false,"is_disabled":false,"rental_uris":{"android":"levelo://app?vid=fd7f1df3-e226-4e18-ae23-a86c9180372b","ios":"levelo://app?vid=fd7f1df3-e226-4e18-ae23-a86c9180372b"},"vehicle_type_id":"4","last_reported":1730639625,"current_range_meters":19600,"station_id":"ce4bhbh2rcd13ifvqepg","pricing_plan_id":"cebpf4jnsgd1na2vs0mg"},{"bike_id":"318bdcdb-57f8-4898-9e24-373e9ac64999","system_id":"levelo_inurba_marseille","lat":43.28428,"lon":5.34991,"is_reserved":false,"is_disabled":false,"rental_uris":{"android":"levelo://app?vid=318bdcdb-57f8-4898-9e24-373e9ac64999","ios":"levelo://app?vid=318bdcdb-57f8-4898-9e24-373e9ac64999"},"vehicle_type_id":"4","last_reported":1730639625,"current_range_meters":18000,"station_id":"ce4bhbh2rcd13ifvqepg","pricing_plan_id":"cebpf4jnsgd1na2vs0mg"},{"bike_id":"5e7aef04-5f8f-4931-b686-969187b73c69","system_id":"levelo_inurba_marseille","lat":43.27368,"lon":5.36245,"is_reserved":false,"is_disabled":false,"rental_uris":{"android":"levelo://app?vid=5e7aef04-5f8f-4931-b686-969187b73c69","ios":"levelo://app?vid=5e7aef04-5f8f-4931-b686-969187b73c69"},"vehicle_type_id":"4","last_reported":1730639625,"current_range_meters":38800,"station_id":"ce4bhbh2rcd13ifvqeo0","pricing_plan_id":"cebpf4jnsgd1na2vs0mg"},{"bike_id":"03aef94f-5140-441d-b2ce-c6381504c7d6","system_id":"levelo_inurba_marseille","lat":43.28268,"lon":5.35075,"is_reserved":false,"is_disabled":false,"rental_uris":{"android":"levelo://app?vid=03aef94f-5140-441d-b2ce-c6381504c7d6","ios":"levelo://app?vid=03aef94f-5140-441d-b2ce-c6381504c7d6"},"vehicle_type_id":"4","last_reported":1730639625,"current_range_meters":29600,"station_id":"ce4bhbp2rcd13ifvqerg","pricing_plan_id":"cebpf4jnsgd1na2vs0mg"},{"bike_id":"229cf544-54d8-464e-b8fa-aa1110307e62","system_id":"levelo_inurba_marseille","lat":43.30431,"lon":5.3889,"is_reserved":false,"is_disabled":false,"rental_uris":{"android":"levelo://app?vid=229cf544-54d8-464e-b8fa-aa1110307e62","ios":"levelo://app?vid=229cf544-54d8-464e-b8fa-aa1110307e62"},"vehicle_type_id":"4","last_reported":1730639625,"current_range_meters":38800,"station_id":"ce4bgk12rcd13ifvqbi0","pricing_plan_id":"cebpf4jnsgd1na2vs0mg"},{"bike_id":"6efea875-820b-4867-b242-d472f161c362","system_id":"levelo_inurba_marseille","lat":43.29933,"lon":5.36562,"is_reserved":false,"is_disabled":false,"rental_uris":{"android":"levelo://app?vid=6efea875-820b-4867-b242-d472f161c362","ios":"levelo://app?vid=6efea875-820b-4867-b242-d472f161c362"},"vehicle_type_id":"4","last_reported":1730639625,"current_range_meters":17600,"station_id":"ce4bgm92rcd13ifvqbr0","pricing_plan_id":"cebpf4jnsgd1na2vs0mg"},{"bike_id":"3071d0c6-3f46-41bb-b869-23de633feb3c","system_id":"levelo_inurba_marseille","lat":43.29223,"lon":5.36071,"is_reserved":false,"is_disabled":false,"rental_uris":{"android":"levelo://app?vid=3071d0c6-3f46-41bb-b869-23de633feb3c","ios":"levelo://app?vid=3071d0c6-3f46-41bb-b869-23de633feb3c"},"vehicle_type_id":"4","last_reported":1730639625,"current_range_meters":28000,"station_id":"ce4bhbh2rcd13ifvqeqg","pricing_plan_id":"cebpf4jnsgd1na2vs0mg"},{"bike_id":"1471c4b6-396d-4122-85f6-0b5130696822","system_id":"levelo_inurba_marseille","lat":43.27666,"lon":5.38904,"is_reserved":false,"is_disabled":false,"rental_uris":{"android":"levelo://app?vid=1471c4b6-396d-4122-85f6-0b5130696822","ios":"levelo://app?vid=1471c4b6-396d-4122-85f6-0b5130696822"},"vehicle_type_id":"4","last_reported":1730639625,"current_range_meters":37600,"station_id":"ce4bhi12rcd13ifvqfo0","pricing_plan_id":"cebpf4jnsgd1na2vs0mg"},{"bike_id":"45a9d9a7-83a5-4e18-b464-0249954955c8","system_id":"levelo_inurba_marseille","lat":43.23151,"lon":5.43698,"is_reserved":false,"is_disabled":false,"rental_uris":{"android":"levelo://app?vid=45a9d9a7-83a5-4e18-b464-0249954955c8","ios":"levelo://app?vid=45a9d9a7-83a5-4e18-b464-0249954955c8"},"vehicle_type_id":"4","last_reported":1730639625,"current_range_meters":36800,"station_id":"ce4bhmp2rcd13ifvqgog","pricing_plan_id":"cebpf4jnsgd1na2vs0mg"},{"bike_id":"8561fc65-032c-435f-ac39-528616726c3d","system_id":"levelo_inurba_marseille","lat":43.24167,"lon":5.36395,"is_reserved":false,"is_disabled":false,"rental_uris":{"android":"levelo://app?vid=8561fc65-032c-435f-ac39-528616726c3d","ios":"levelo://app?vid=8561fc65-032c-435f-ac39-528616726c3d"},"vehicle_type_id":"4","last_reported":1730639625,"current_range_meters":14800,"station_id":"cpo36qri1sfpv3e86is0","pricing_plan_id":"cebpf4jnsgd1na2vs0mg"},{"bike_id":"a13a6f27-c8b2-42b7-996f-8e1c0665131f","system_id":"levelo_inurba_marseille","lat":43.25108,"lon":5.40324,"is_reserved":false,"is_disabled":false,"rental_uris":{"android":"levelo://app?vid=a13a6f27-c8b2-42b7-996f-8e1c0665131f","ios":"levelo://app?vid=a13a6f27-c8b2-42b7-996f-8e1c0665131f"},"vehicle_type_id":"4","last_reported":1730639625,"current_range_meters":25600,"station_id":"ce4bhlh2rcd13ifvqgig","pricing_plan_id":"cebpf4jnsgd1na2vs0mg"},{"bike_id":"4a956f0c-3665-471b-ab66-f31f5cac3b19","system_id":"levelo_inurba_marseille","lat":43.25094,"lon":5.40323,"is_reserved":false,"is_disabled":false,"rental_uris":{"android":"levelo://app?vid=4a956f0c-3665-471b-ab66-f31f5cac3b19","ios":"levelo://app?vid=4a956f0c-3665-471b-ab66-f31f5cac3b19"},"vehicle_type_id":"4","last_reported":1730639625,"current_range_meters":25600,"station_id":"ce4bhlh2rcd13ifvqgig","pricing_plan_id":"cebpf4jnsgd1na2vs0mg"},{"bike_id":"d7f4aa50-cdd2-4733-ae0c-18cd5aa4b206","system_id":"levelo_inurba_marseille","lat":43.31696,"lon":5.37765,"is_reserved":false,"is_disabled":false,"rental_uris":{"android":"levelo://app?vid=d7f4aa50-cdd2-4733-ae0c-18cd5aa4b206","ios":"levelo://app?vid=d7f4aa50-cdd2-4733-ae0c-18cd5aa4b206"},"vehicle_type_id":"4","last_reported":1730639625,"current_range_meters":40000,"station_id":"ce4bgth2rcd13ifvqch0","pricing_plan_id":"cebpf4jnsgd1na2vs0mg"},{"bike_id":"70ac64b1-abec-4ad2-86f4-de1ac0242fdd","system_id":"levelo_inurba_marseille","lat":43.29009,"lon":5.35608,"is_reserved":false,"is_disabled":false,"rental_uris":{"android":"levelo://app?vid=70ac64b1-abec-4ad2-86f4-de1ac0242fdd","ios":"levelo://app?vid=70ac64b1-abec-4ad2-86f4-de1ac0242fdd"},"vehicle_type_id":"4","last_reported":1730639625,"current_range_meters":3600,"station_id":"ce4bhb92rcd13ifvqen0","pricing_plan_id":"cebpf4jnsgd1na2vs0mg"},{"bike_id":"fa585716-4602-4f3b-9bc0-21834f66c62a","system_id":"levelo_inurba_marseille","lat":43.23194,"lon":5.35556,"is_reserved":false,"is_disabled":false,"rental_uris":{"android":"levelo://app?vid=fa585716-4602-4f3b-9bc0-21834f66c62a","ios":"levelo://app?vid=fa585716-4602-4f3b-9bc0-21834f66c62a"},"vehicle_type_id":"4","last_reported":1730639625,"current_range_meters":10000,"station_id":"ce4bhu92rcd13ifvqi70","pricing_plan_id":"cebpf4jnsgd1na2vs0mg"},{"bike_id":"5bc03093-2f4b-48b7-b833-e34c3626c10e","system_id":"levelo_inurba_marseille","lat":43.28076,"lon":5.39659,"is_reserved":false,"is_disabled":false,"rental_uris":{"android":"levelo://app?vid=5bc03093-2f4b-48b7-b833-e34c3626c10e","ios":"levelo://app?vid=5bc03093-2f4b-48b7-b833-e34c3626c10e"},"vehicle_type_id":"4","last_reported":1730639625,"current_range_meters":30800,"station_id":"ce4bho12rcd13ifvqh2g","pricing_plan_id":"cebpf4jnsgd1na2vs0mg"},{"bike_id":"4549687f-f986-4750-85fb-e6b533b2c4a8","system_id":"levelo_inurba_marseille","lat":43.23054,"lon":5.35494,"is_reserved":false,"is_disabled":false,"rental_uris":{"android":"levelo://app?vid=4549687f-f986-4750-85fb-e6b533b2c4a8","ios":"levelo://app?vid=4549687f-f986-4750-85fb-e6b533b2c4a8"},"vehicle_type_id":"4","last_reported":1730639625,"current_range_meters":18000,"station_id":"cpo3342slgdg3j2ifvpg","pricing_plan_id":"cebpf4jnsgd1na2vs0mg"},{"bike_id":"ac6e4d7c-4cf4-4233-aca4-0f9953ecb824","system_id":"levelo_inurba_marseille","lat":43.31989,"lon":5.38149,"is_reserved":false,"is_disabled":false,"rental_uris":{"android":"levelo://app?vid=ac6e4d7c-4cf4-4233-aca4-0f9953ecb824","ios":"levelo://app?vid=ac6e4d7c-4cf4-4233-aca4-0f9953ecb824"},"vehicle_type_id":"4","last_reported":1730639625,"current_range_meters":39200,"station_id":"ce4bhr12rcd13ifvqhpg","pricing_plan_id":"cebpf4jnsgd1na2vs0mg"},{"bike_id":"282b7390-6e5c-4d57-bc05-655a59eeab6d","system_id":"levelo_inurba_marseille","lat":43.30543,"lon":5.3653,"is_reserved":false,"is_disabled":false,"rental_uris":{"android":"levelo://app?vid=282b7390-6e5c-4d57-bc05-655a59eeab6d","ios":"levelo://app?vid=282b7390-6e5c-4d57-bc05-655a59eeab6d"},"vehicle_type_id":"4","last_reported":1730639625,"current_range_meters":32000,"station_id":"ce4bgs12rcd13ifvqcag","pricing_plan_id":"cebpf4jnsgd1na2vs0mg"},{"bike_id":"4e44e1a4-d80b-416d-b078-33d5b9784d05","system_id":"levelo_inurba_marseille","lat":43.239624,"lon":5.366233,"is_reserved":false,"is_disabled":false,"rental_uris":{"android":"levelo://app?vid=4e44e1a4-d80b-416d-b078-33d5b9784d05","ios":"levelo://app?vid=4e44e1a4-d80b-416d-b078-33d5b9784d05"},"vehicle_type_id":"4","last_reported":1730639625,"current_range_meters":10800,"station_id":"ce4bhi12rcd13ifvqfp0","pricing_plan_id":"cebpf4jnsgd1na2vs0mg"},{"bike_id":"74512091-7000-4bee-92e6-80e777ce0731","system_id":"levelo_inurba_marseille","lat":43.22925,"lon":5.35384,"is_reserved":false,"is_disabled":false,"rental_uris":{"android":"levelo://app?vid=74512091-7000-4bee-92e6-80e777ce0731","ios":"levelo://app?vid=74512091-7000-4bee-92e6-80e777ce0731"},"vehicle_type_id":"4","last_reported":1730639625,"current_range_meters":28000,"station_id":"cpo3532slgdg3j2ikp40","pricing_plan_id":"cebpf4jnsgd1na2vs0mg"},{"bike_id":"6915b584-85be-4103-b769-35073f31532e","system_id":"levelo_inurba_marseille","lat":43.27373,"lon":5.36253,"is_reserved":false,"is_disabled":false,"rental_uris":{"android":"levelo://app?vid=6915b584-85be-4103-b769-35073f31532e","ios":"levelo://app?vid=6915b584-85be-4103-b769-35073f31532e"},"vehicle_type_id":"4","last_reported":1730639625,"current_range_meters":39200,"station_id":"ce4bhbh2rcd13ifvqeo0","pricing_plan_id":"cebpf4jnsgd1na2vs0mg"},{"bike_id":"1fc6ca2e-f8cd-4ecc-a0c8-dea568089524","system_id":"levelo_inurba_marseille","lat":43.28271,"lon":5.35083,"is_reserved":false,"is_disabled":false,"rental_uris":{"android":"levelo://app?vid=1fc6ca2e-f8cd-4ecc-a0c8-dea568089524","ios":"levelo://app?vid=1fc6ca2e-f8cd-4ecc-a0c8-dea568089524"},"vehicle_type_id":"4","last_reported":1730639625,"current_range_meters":5600,"station_id":"ce4bhbp2rcd13ifvqerg","pricing_plan_id":"cebpf4jnsgd1na2vs0mg"},{"bike_id":"d05095f2-4d86-430f-ba04-d7b23abcd815","system_id":"levelo_inurba_marseille","lat":43.279883,"lon":5.387467,"is_reserved":false,"is_disabled":false,"rental_uris":{"android":"levelo://app?vid=d05095f2-4d86-430f-ba04-d7b23abcd815","ios":"levelo://app?vid=d05095f2-4d86-430f-ba04-d7b23abcd815"},"vehicle_type_id":"4","last_reported":1730639625,"current_range_meters":38000,"station_id":"ce4bhjp2rcd13ifvqga0","pricing_plan_id":"cebpf4jnsgd1na2vs0mg"},{"bike_id":"8a9bbd41-3c71-4f47-b2e6-c897d7309d46","system_id":"levelo_inurba_marseille","lat":43.28419,"lon":5.35,"is_reserved":false,"is_disabled":false,"rental_uris":{"android":"levelo://app?vid=8a9bbd41-3c71-4f47-b2e6-c897d7309d46","ios":"levelo://app?vid=8a9bbd41-3c71-4f47-b2e6-c897d7309d46"},"vehicle_type_id":"4","last_reported":1730639625,"current_range_meters":37600,"station_id":"ce4bhbh2rcd13ifvqepg","pricing_plan_id":"cebpf4jnsgd1na2vs0mg"},{"bike_id":"5063b31e-668f-4f17-acf1-d5b4ff4b9c3c","system_id":"levelo_inurba_marseille","lat":43.23066,"lon":5.35488,"is_reserved":false,"is_disabled":false,"rental_uris":{"android":"levelo://app?vid=5063b31e-668f-4f17-acf1-d5b4ff4b9c3c","ios":"levelo://app?vid=5063b31e-668f-4f17-acf1-d5b4ff4b9c3c"},"vehicle_type_id":"4","last_reported":1730639625,"current_range_meters":25200,"station_id":"cpo3342slgdg3j2ifvpg","pricing_plan_id":"cebpf4jnsgd1na2vs0mg"},{"bike_id":"b92d31d0-89fd-461b-a460-8c64fa1cf8e7","system_id":"levelo_inurba_marseille","lat":43.28267,"lon":5.35072,"is_reserved":false,"is_disabled":false,"rental_uris":{"android":"levelo://app?vid=b92d31d0-89fd-461b-a460-8c64fa1cf8e7","ios":"levelo://app?vid=b92d31d0-89fd-461b-a460-8c64fa1cf8e7"},"vehicle_type_id":"4","last_reported":1730639625,"current_range_meters":17200,"station_id":"ce4bhbp2rcd13ifvqerg","pricing_plan_id":"cebpf4jnsgd1na2vs0mg"},{"bike_id":"e0cd829e-28dc-433a-9b35-3d2cd4f2f3b1","system_id":"levelo_inurba_marseille","lat":43.26193,"lon":5.37461,"is_reserved":false,"is_disabled":false,"rental_uris":{"android":"levelo://app?vid=e0cd829e-28dc-433a-9b35-3d2cd4f2f3b1","ios":"levelo://app?vid=e0cd829e-28dc-433a-9b35-3d2cd4f2f3b1"},"vehicle_type_id":"4","last_reported":1730639625,"current_range_meters":4800,"station_id":"ce4bhgp2rcd13ifvqfc0","pricing_plan_id":"cebpf4jnsgd1na2vs0mg"},{"bike_id":"3e9b85d7-96fb-4b65-9acd-5723483a3709","system_id":"levelo_inurba_marseille","lat":43.31695,"lon":5.3776,"is_reserved":false,"is_disabled":false,"rental_uris":{"android":"levelo://app?vid=3e9b85d7-96fb-4b65-9acd-5723483a3709","ios":"levelo://app?vid=3e9b85d7-96fb-4b65-9acd-5723483a3709"},"vehicle_type_id":"4","last_reported":1730639625,"current_range_meters":39200,"station_id":"ce4bgth2rcd13ifvqch0","pricing_plan_id":"cebpf4jnsgd1na2vs0mg"},{"bike_id":"240240da-0024-4b23-bebe-941bc13f0f3b","system_id":"levelo_inurba_marseille","lat":43.28371,"lon":5.3864,"is_reserved":false,"is_disabled":false,"rental_uris":{"android":"levelo://app?vid=240240da-0024-4b23-bebe-941bc13f0f3b","ios":"levelo://app?vid=240240da-0024-4b23-bebe-941bc13f0f3b"},"vehicle_type_id":"4","last_reported":1730639625,"current_range_meters":25200,"station_id":"ce4bh492rcd13ifvqdvg","pricing_plan_id":"cebpf4jnsgd1na2vs0mg"},{"bike_id":"ad6b9979-2833-497c-ae59-5afeb88a87ce","system_id":"levelo_inurba_marseille","lat":43.32358,"lon":5.36759,"is_reserved":false,"is_disabled":false,"rental_uris":{"android":"levelo://app?vid=ad6b9979-2833-497c-ae59-5afeb88a87ce","ios":"levelo://app?vid=ad6b9979-2833-497c-ae59-5afeb88a87ce"},"vehicle_type_id":"4","last_reported":1730639625,"current_range_meters":6400,"station_id":"ce4bhsh2rcd13ifvqi2g","pricing_plan_id":"cebpf4jnsgd1na2vs0mg"},{"bike_id":"fd90bf8a-a8fd-442b-9df8-59f91e3552fc","system_id":"levelo_inurba_marseille","lat":43.28269,"lon":5.35073,"is_reserved":false,"is_disabled":false,"rental_uris":{"android":"levelo://app?vid=fd90bf8a-a8fd-442b-9df8-59f91e3552fc","ios":"levelo://app?vid=fd90bf8a-a8fd-442b-9df8-59f91e3552fc"},"vehicle_type_id":"4","last_reported":1730639625,"current_range_meters":20400,"station_id":"ce4bhbp2rcd13ifvqerg","pricing_plan_id":"cebpf4jnsgd1na2vs0mg"},{"bike_id":"adca5c05-8bb8-46b4-b14e-b772eef1eba6","system_id":"levelo_inurba_marseille","lat":43.27994,"lon":5.40012,"is_reserved":false,"is_disabled":false,"rental_uris":{"android":"levelo://app?vid=adca5c05-8bb8-46b4-b14e-b772eef1eba6","ios":"levelo://app?vid=adca5c05-8bb8-46b4-b14e-b772eef1eba6"},"vehicle_type_id":"4","last_reported":1730639625,"current_range_meters":34000,"station_id":"ce4bho92rcd13ifvqh4g","pricing_plan_id":"cebpf4jnsgd1na2vs0mg"},{"bike_id":"e5e771f7-0a43-4248-a6f6-39f289dd9782","system_id":"levelo_inurba_marseille","lat":43.29038,"lon":5.37562,"is_reserved":false,"is_disabled":false,"rental_uris":{"android":"levelo://app?vid=e5e771f7-0a43-4248-a6f6-39f289dd9782","ios":"levelo://app?vid=e5e771f7-0a43-4248-a6f6-39f289dd9782"},"vehicle_type_id":"4","last_reported":1730639625,"current_range_meters":2800,"station_id":"ce4bh692rcd13ifvqe90","pricing_plan_id":"cebpf4jnsgd1na2vs0mg"},{"bike_id":"378fe2c8-8934-4499-9703-140f3e837055","system_id":"levelo_inurba_marseille","lat":43.30541,"lon":5.36534,"is_reserved":false,"is_disabled":false,"rental_uris":{"android":"levelo://app?vid=378fe2c8-8934-4499-9703-140f3e837055","ios":"levelo://app?vid=378fe2c8-8934-4499-9703-140f3e837055"},"vehicle_type_id":"4","last_reported":1730639625,"current_range_meters":30800,"station_id":"ce4bgs12rcd13ifvqcag","pricing_plan_id":"cebpf4jnsgd1na2vs0mg"},{"bike_id":"92bc432d-2cef-4b20-81b9-b4caa977d30d","system_id":"levelo_inurba_marseille","lat":43.23061,"lon":5.3549,"is_reserved":false,"is_disabled":false,"rental_uris":{"android":"levelo://app?vid=92bc432d-2cef-4b20-81b9-b4caa977d30d","ios":"levelo://app?vid=92bc432d-2cef-4b20-81b9-b4caa977d30d"},"vehicle_type_id":"4","last_reported":1730639625,"current_range_meters":22400,"station_id":"cpo3342slgdg3j2ifvpg","pricing_plan_id":"cebpf4jnsgd1na2vs0mg"},{"bike_id":"c9bb2850-5e28-41a1-b9c9-283fe8cf0a5d","system_id":"levelo_inurba_marseille","lat":43.28269,"lon":5.35071,"is_reserved":false,"is_disabled":false,"rental_uris":{"android":"levelo://app?vid=c9bb2850-5e28-41a1-b9c9-283fe8cf0a5d","ios":"levelo://app?vid=c9bb2850-5e28-41a1-b9c9-283fe8cf0a5d"},"vehicle_type_id":"4","last_reported":1730639625,"current_range_meters":36800,"station_id":"ce4bhbp2rcd13ifvqerg","pricing_plan_id":"cebpf4jnsgd1na2vs0mg"},{"bike_id":"73b8545d-4982-4838-bf7d-3271b8d0a217","system_id":"levelo_inurba_marseille","lat":43.24161,"lon":5.36406,"is_reserved":false,"is_disabled":false,"rental_uris":{"android":"levelo://app?vid=73b8545d-4982-4838-bf7d-3271b8d0a217","ios":"levelo://app?vid=73b8545d-4982-4838-bf7d-3271b8d0a217"},"vehicle_type_id":"4","last_reported":1730639625,"current_range_meters":30800,"station_id":"cpo36qri1sfpv3e86is0","pricing_plan_id":"cebpf4jnsgd1na2vs0mg"},{"bike_id":"22277462-ea58-4946-ba2c-ef08f6cd7659","system_id":"levelo_inurba_marseille","lat":43.2797,"lon":5.4105,"is_reserved":false,"is_disabled":false,"rental_uris":{"android":"levelo://app?vid=22277462-ea58-4946-ba2c-ef08f6cd7659","ios":"levelo://app?vid=22277462-ea58-4946-ba2c-ef08f6cd7659"},"vehicle_type_id":"4","last_reported":1730639625,"current_range_meters":16800,"station_id":"","pricing_plan_id":"cebpf4jnsgd1na2vs0mg"},{"bike_id":"0d600896-793a-4170-a27f-0f9efe7015a8","system_id":"levelo_inurba_marseille","lat":43.27067,"lon":5.42271,"is_reserved":false,"is_disabled":false,"rental_uris":{"android":"levelo://app?vid=0d600896-793a-4170-a27f-0f9efe7015a8","ios":"levelo://app?vid=0d600896-793a-4170-a27f-0f9efe7015a8"},"vehicle_type_id":"4","last_reported":1730639625,"current_range_meters":23200,"station_id":"ce4bhk92rcd13ifvqgb0","pricing_plan_id":"cebpf4jnsgd1na2vs0mg"},{"bike_id":"c07332d5-f871-4d7c-9894-5a99fdbe9ec1","system_id":"levelo_inurba_marseille","lat":43.25085,"lon":5.3953,"is_reserved":false,"is_disabled":false,"rental_uris":{"android":"levelo://app?vid=c07332d5-f871-4d7c-9894-5a99fdbe9ec1","ios":"levelo://app?vid=c07332d5-f871-4d7c-9894-5a99fdbe9ec1"},"vehicle_type_id":"4","last_reported":1730639625,"current_range_meters":28800,"station_id":"ce4bhm12rcd13ifvqgkg","pricing_plan_id":"cebpf4jnsgd1na2vs0mg"},{"bike_id":"a00e4e3b-1ded-4418-a06d-97bc75c3361c","system_id":"levelo_inurba_marseille","lat":43.28411,"lon":5.37514,"is_reserved":false,"is_disabled":false,"rental_uris":{"android":"levelo://app?vid=a00e4e3b-1ded-4418-a06d-97bc75c3361c","ios":"levelo://app?vid=a00e4e3b-1ded-4418-a06d-97bc75c3361c"},"vehicle_type_id":"4","last_reported":1730639625,"current_range_meters":28400,"station_id":"ce4bh412rcd13ifvqds0","pricing_plan_id":"cebpf4jnsgd1na2vs0mg"},{"bike_id":"f054eed4-80e1-4935-aa4a-d1d0e0939682","system_id":"levelo_inurba_marseille","lat":43.23958,"lon":5.36629,"is_reserved":false,"is_disabled":false,"rental_uris":{"android":"levelo://app?vid=f054eed4-80e1-4935-aa4a-d1d0e0939682","ios":"levelo://app?vid=f054eed4-80e1-4935-aa4a-d1d0e0939682"},"vehicle_type_id":"4","last_reported":1730639625,"current_range_meters":27600,"station_id":"ce4bhi12rcd13ifvqfp0","pricing_plan_id":"cebpf4jnsgd1na2vs0mg"},{"bike_id":"9a0c6b7c-1af9-43e3-b5a6-a549aa97687c","system_id":"levelo_inurba_marseille","lat":43.28272,"lon":5.35074,"is_reserved":false,"is_disabled":false,"rental_uris":{"android":"levelo://app?vid=9a0c6b7c-1af9-43e3-b5a6-a549aa97687c","ios":"levelo://app?vid=9a0c6b7c-1af9-43e3-b5a6-a549aa97687c"},"vehicle_type_id":"4","last_reported":1730639625,"current_range_meters":16000,"station_id":"ce4bhbp2rcd13ifvqerg","pricing_plan_id":"cebpf4jnsgd1na2vs0mg"},{"bike_id":"807469a2-81d0-40a4-bf41-581af620ef86","system_id":"levelo_inurba_marseille","lat":43.27379,"lon":5.36245,"is_reserved":false,"is_disabled":false,"rental_uris":{"android":"levelo://app?vid=807469a2-81d0-40a4-bf41-581af620ef86","ios":"levelo://app?vid=807469a2-81d0-40a4-bf41-581af620ef86"},"vehicle_type_id":"4","last_reported":1730639625,"current_range_meters":20400,"station_id":"ce4bhbh2rcd13ifvqeo0","pricing_plan_id":"cebpf4jnsgd1na2vs0mg"},{"bike_id":"9ae5611f-b235-427b-a3ef-70794a5f464b","system_id":"levelo_inurba_marseille","lat":43.28425,"lon":5.34996,"is_reserved":false,"is_disabled":false,"rental_uris":{"android":"levelo://app?vid=9ae5611f-b235-427b-a3ef-70794a5f464b","ios":"levelo://app?vid=9ae5611f-b235-427b-a3ef-70794a5f464b"},"vehicle_type_id":"4","last_reported":1730639625,"current_range_meters":32000,"station_id":"ce4bhbh2rcd13ifvqepg","pricing_plan_id":"cebpf4jnsgd1na2vs0mg"},{"bike_id":"58e7b314-77c5-4411-b74c-8276142971a5","system_id":"levelo_inurba_marseille","lat":43.308952,"lon":5.39659,"is_reserved":false,"is_disabled":false,"rental_uris":{"android":"levelo://app?vid=58e7b314-77c5-4411-b74c-8276142971a5","ios":"levelo://app?vid=58e7b314-77c5-4411-b74c-8276142971a5"},"vehicle_type_id":"4","last_reported":1730639625,"current_range_meters":32400,"station_id":"ce4bh012rcd13ifvqcv0","pricing_plan_id":"cebpf4jnsgd1na2vs0mg"},{"bike_id":"4e87b800-1902-4271-990b-13d8104ade25","system_id":"levelo_inurba_marseille","lat":43.28605,"lon":5.37076,"is_reserved":false,"is_disabled":false,"rental_uris":{"android":"levelo://app?vid=4e87b800-1902-4271-990b-13d8104ade25","ios":"levelo://app?vid=4e87b800-1902-4271-990b-13d8104ade25"},"vehicle_type_id":"4","last_reported":1730639625,"current_range_meters":38000,"station_id":"ce4bht12rcd13ifvqi60","pricing_plan_id":"cebpf4jnsgd1na2vs0mg"},{"bike_id":"b2f3abe9-843b-4c1b-94df-47cafb71cedd","system_id":"levelo_inurba_marseille","lat":43.2407,"lon":5.37746,"is_reserved":false,"is_disabled":false,"rental_uris":{"android":"levelo://app?vid=b2f3abe9-843b-4c1b-94df-47cafb71cedd","ios":"levelo://app?vid=b2f3abe9-843b-4c1b-94df-47cafb71cedd"},"vehicle_type_id":"4","last_reported":1730639625,"current_range_meters":24800,"station_id":"ce4bhnp2rcd13ifvqgvg","pricing_plan_id":"cebpf4jnsgd1na2vs0mg"},{"bike_id":"1bebc034-af97-4a34-b363-027f18275760","system_id":"levelo_inurba_marseille","lat":43.31361,"lon":5.38494,"is_reserved":false,"is_disabled":false,"rental_uris":{"android":"levelo://app?vid=1bebc034-af97-4a34-b363-027f18275760","ios":"levelo://app?vid=1bebc034-af97-4a34-b363-027f18275760"},"vehicle_type_id":"4","last_reported":1730639625,"current_range_meters":8400,"station_id":"ce4bgt92rcd13ifvqcf0","pricing_plan_id":"cebpf4jnsgd1na2vs0mg"},{"bike_id":"aa71cd7d-5c8f-45b0-bfad-65c2a2038acf","system_id":"levelo_inurba_marseille","lat":43.31993,"lon":5.3814,"is_reserved":false,"is_disabled":false,"rental_uris":{"android":"levelo://app?vid=aa71cd7d-5c8f-45b0-bfad-65c2a2038acf","ios":"levelo://app?vid=aa71cd7d-5c8f-45b0-bfad-65c2a2038acf"},"vehicle_type_id":"4","last_reported":1730639625,"current_range_meters":36800,"station_id":"ce4bhr12rcd13ifvqhpg","pricing_plan_id":"cebpf4jnsgd1na2vs0mg"},{"bike_id":"d3fedb30-0c97-4e65-8c1c-4bfd87e57895","system_id":"levelo_inurba_marseille","lat":43.24797,"lon":5.37449,"is_reserved":false,"is_disabled":false,"rental_uris":{"android":"levelo://app?vid=d3fedb30-0c97-4e65-8c1c-4bfd87e57895","ios":"levelo://app?vid=d3fedb30-0c97-4e65-8c1c-4bfd87e57895"},"vehicle_type_id":"4","last_reported":1730639625,"current_range_meters":21600,"station_id":"ce4bhgh2rcd13ifvqfb0","pricing_plan_id":"cebpf4jnsgd1na2vs0mg"},{"bike_id":"5f807689-a89a-46a9-a38d-8502a89e111d","system_id":"levelo_inurba_marseille","lat":43.27372,"lon":5.36248,"is_reserved":false,"is_disabled":false,"rental_uris":{"android":"levelo://app?vid=5f807689-a89a-46a9-a38d-8502a89e111d","ios":"levelo://app?vid=5f807689-a89a-46a9-a38d-8502a89e111d"},"vehicle_type_id":"4","last_reported":1730639625,"current_range_meters":39200,"station_id":"ce4bhbh2rcd13ifvqeo0","pricing_plan_id":"cebpf4jnsgd1na2vs0mg"},{"bike_id":"d0a9121d-7e41-4f7a-9097-98bde8772b1d","system_id":"levelo_inurba_marseille","lat":43.29006,"lon":5.3561,"is_reserved":false,"is_disabled":false,"rental_uris":{"android":"levelo://app?vid=d0a9121d-7e41-4f7a-9097-98bde8772b1d","ios":"levelo://app?vid=d0a9121d-7e41-4f7a-9097-98bde8772b1d"},"vehicle_type_id":"4","last_reported":1730639625,"current_range_meters":4400,"station_id":"ce4bhb92rcd13ifvqen0","pricing_plan_id":"cebpf4jnsgd1na2vs0mg"},{"bike_id":"17fb7703-ec83-4a26-83a3-02b2d27dd7b5","system_id":"levelo_inurba_marseille","lat":43.28474,"lon":5.3842,"is_reserved":false,"is_disabled":false,"rental_uris":{"android":"levelo://app?vid=17fb7703-ec83-4a26-83a3-02b2d27dd7b5","ios":"levelo://app?vid=17fb7703-ec83-4a26-83a3-02b2d27dd7b5"},"vehicle_type_id":"4","last_reported":1730639625,"current_range_meters":39200,"station_id":"ce4bh512rcd13ifvqe3g","pricing_plan_id":"cebpf4jnsgd1na2vs0mg"},{"bike_id":"0c523561-c190-44ae-a283-124c72729911","system_id":"levelo_inurba_marseille","lat":43.27802,"lon":5.40711,"is_reserved":false,"is_disabled":false,"rental_uris":{"android":"levelo://app?vid=0c523561-c190-44ae-a283-124c72729911","ios":"levelo://app?vid=0c523561-c190-44ae-a283-124c72729911"},"vehicle_type_id":"4","last_reported":1730639625,"current_range_meters":33200,"station_id":"ce4bhnh2rcd13ifvqgtg","pricing_plan_id":"cebpf4jnsgd1na2vs0mg"},{"bike_id":"9d60ab59-6eef-4315-b0ac-c2909ceaacbe","system_id":"levelo_inurba_marseille","lat":43.27376,"lon":5.36252,"is_reserved":false,"is_disabled":false,"rental_uris":{"android":"levelo://app?vid=9d60ab59-6eef-4315-b0ac-c2909ceaacbe","ios":"levelo://app?vid=9d60ab59-6eef-4315-b0ac-c2909ceaacbe"},"vehicle_type_id":"4","last_reported":1730639625,"current_range_meters":39200,"station_id":"ce4bhbh2rcd13ifvqeo0","pricing_plan_id":"cebpf4jnsgd1na2vs0mg"},{"bike_id":"a4a83595-a8d7-4995-bf4e-e61a6e9aa656","system_id":"levelo_inurba_marseille","lat":43.28101,"lon":5.37837,"is_reserved":false,"is_disabled":false,"rental_uris":{"android":"levelo://app?vid=a4a83595-a8d7-4995-bf4e-e61a6e9aa656","ios":"levelo://app?vid=a4a83595-a8d7-4995-bf4e-e61a6e9aa656"},"vehicle_type_id":"4","last_reported":1730639625,"current_range_meters":39200,"station_id":"ce4bha12rcd13ifvqee0","pricing_plan_id":"cebpf4jnsgd1na2vs0mg"},{"bike_id":"bd799327-1808-45ef-960b-d4bc67cebc5e","system_id":"levelo_inurba_marseille","lat":43.33722,"lon":5.39198,"is_reserved":false,"is_disabled":false,"rental_uris":{"android":"levelo://app?vid=bd799327-1808-45ef-960b-d4bc67cebc5e","ios":"levelo://app?vid=bd799327-1808-45ef-960b-d4bc67cebc5e"},"vehicle_type_id":"4","last_reported":1730639625,"current_range_meters":19200,"station_id":"ce4bhr92rcd13ifvqhsg","pricing_plan_id":"cebpf4jnsgd1na2vs0mg"},{"bike_id":"b85d05d9-0c10-4ef8-ac78-4c085a29d4a9","system_id":"levelo_inurba_marseille","lat":43.265683,"lon":5.390004,"is_reserved":false,"is_disabled":false,"rental_uris":{"android":"levelo://app?vid=b85d05d9-0c10-4ef8-ac78-4c085a29d4a9","ios":"levelo://app?vid=b85d05d9-0c10-4ef8-ac78-4c085a29d4a9"},"vehicle_type_id":"4","last_reported":1730639625,"current_range_meters":36800,"station_id":"ce4bhe12rcd13ifvqf30","pricing_plan_id":"cebpf4jnsgd1na2vs0mg"},