{"last_updated":1735654061,"ttl":60,"version":"2.2","data":{"bikes":[{"bike_id":"474c001f-8474-406d-ae88-70642aa13495","system_id":"levelo_inurba_marseille","lat":43.28424,"lon":5.39189,"is_reserved":false,"is_disabled":false,"rental_uris":{"android":"levelo://app?vid=474c001f-8474-406d-ae88-70642aa13495","ios":"levelo://app?vid=474c001f-8474-406d-ae88-70642aa13495"},"vehicle_type_id":"4","last_reported":1735654061,"current_range_meters":39200,"station_id":"ce4bhoh2rcd13ifvqh5g","pricing_plan_id":"cebpf4jnsgd1na2vs0mg"},{"bike_id":"dfe733a5-4ff0-4b3d-be5f-5f6c47573692","system_id":"levelo_inurba_marseille","lat":43.27989,"lon":5.40022,"is_reserved":false,"is_disabled":false,"rental_uris":{"android":"levelo://app?vid=dfe733a5-4ff0-4b3d-be5f-5f6c47573692","ios":"levelo://app?vid=dfe733a5-4ff0-4b3d-be5f-5f6c47573692"},"vehicle_type_id":"4","last_reported":1735654061,"current_range_meters":22000,"station_id":"ce4bho92rcd13ifvqh4g","pricing_plan_id":"cebpf4jnsgd1na2vs0mg"},{"bike_id":"446d3da9-7829-402c-97cb-ca1dad65cd97","system_id":"levelo_inurba_marseille","lat":43.27165,"lon":5.40997,"is_reserved":false,"is_disabled":false,"rental_uris":{"android":"levelo://app?vid=446d3da9-7829-402c-97cb-ca1dad65cd97","ios":"levelo://app?vid=446d3da9-7829-402c-97cb-ca1dad65cd97"},"vehicle_type_id":"4","last_reported":1735654061,"current_range_meters":29600,"station_id":"ce4bhl12rcd13ifvqgf0","pricing_plan_id":"cebpf4jnsgd1na2vs0mg"},{"bike_id":"6febface-44b5-4638-b160-88b255c07d01","system_id":"levelo_inurba_marseille","lat":43.23192,"lon":5.35551,"is_reserved":false,"is_disabled":false,"rental_uris":{"android":"levelo://app?vid=6febface-44b5-4638-b160-88b255c07d01","ios":"levelo://app?vid=6febface-44b5-4638-b160-88b255c07d01"},"vehicle_type_id":"4","last_reported":1735654061,"current_range_meters":38800,"station_id":"ce4bhu92rcd13ifvqi70","pricing_plan_id":"cebpf4jnsgd1na2vs0mg"},{"bike_id":"9d8ed9b4-4a00-4233-adb9-c5daf11ce666","system_id":"levelo_inurba_marseille","lat":43.29023,"lon":5.38146,"is_reserved":false,"is_disabled":false,"rental_uris":{"android":"levelo://app?vid=9d8ed9b4-4a00-4233-adb9-c5daf11ce666","ios":"levelo://app?vid=9d8ed9b4-4a00-4233-adb9-c5daf11ce666"},"vehicle_type_id":"4","last_reported":1735654061,"current_range_meters":23200,"station_id":"ce4bh4p2rcd13ifvqe1g","pricing_plan_id":"cebpf4jnsgd1na2vs0mg"},{"bike_id":"7135a48b-cb43-4a1b-8aac-0699abe422db","system_id":"levelo_inurba_marseille","lat":43.27942,"lon":5.41039,"is_reserved":false,"is_disabled":false,"rental_uris":{"android":"levelo://app?vid=7135a48b-cb43-4a1b-8aac-0699abe422db","ios":"levelo://app?vid=7135a48b-cb43-4a1b-8aac-0699abe422db"},"vehicle_type_id":"4","last_reported":1735654061,"current_range_meters":24800,"station_id":"ce4bhnp2rcd13ifvqh0g","pricing_plan_id":"cebpf4jnsgd1na2vs0mg"},{"bike_id":"a0c124c9-3c60-4a2e-a0f3-69bfc4ba35d5","system_id":"levelo_inurba_marseille","lat":43.255736,"lon":5.382417,"is_reserved":false,"is_disabled":false,"rental_uris":{"android":"levelo://app?vid=a0c124c9-3c60-4a2e-a0f3-69bfc4ba35d5","ios":"levelo://app?vid=a0c124c9-3c60-4a2e-a0f3-69bfc4ba35d5"},"vehicle_type_id":"4","last_reported":1735654061,"current_range_meters":6400,"station_id":"ce4bhih2rcd13ifvqfs0","pricing_plan_id":"cebpf4jnsgd1na2vs0mg"},{"bike_id":"3991aac2-ec7f-43c8-801f-23e11845f2d6","system_id":"levelo_inurba_marseille","lat":43.2814,"lon":5.42627,"is_reserved":false,"is_disabled":false,"rental_uris":{"android":"levelo://app?vid=3991aac2-ec7f-43c8-801f-23e11845f2d6","ios":"levelo://app?vid=3991aac2-ec7f-43c8-801f-23e11845f2d6"},"vehicle_type_id":"4","last_reported":1735654061,"current_range_meters":39200,"station_id":"ce4bhnh2rcd13ifvqgug","pricing_plan_id":"cebpf4jnsgd1na2vs0mg"},{"bike_id":"2561e3aa-bdd3-4bda-8cd5-8d8f3722968c","system_id":"levelo_inurba_marseille","lat":43.22936,"lon":5.35391,"is_reserved":false,"is_disabled":false,"rental_uris":{"android":"levelo://app?vid=2561e3aa-bdd3-4bda-8cd5-8d8f3722968c","ios":"levelo://app?vid=2561e3aa-bdd3-4bda-8cd5-8d8f3722968c"},"vehicle_type_id":"4","last_reported":1735654061,"current_range_meters":8800,"station_id":"cpo3532slgdg3j2ikp40","pricing_plan_id":"cebpf4jnsgd1na2vs0mg"},{"bike_id":"184f0b74-fbdc-4c26-a6fe-91f3d90e1451","system_id":"levelo_inurba_marseille","lat":43.24175,"lon":5.39728,"is_reserved":false,"is_disabled":false,"rental_uris":{"android":"levelo://app?vid=184f0b74-fbdc-4c26-a6fe-91f3d90e1451","ios":"levelo://app?vid=184f0b74-fbdc-4c26-a6fe-91f3d90e1451"},"vehicle_type_id":"4","last_reported":1735654061,"current_range_meters":7200,"station_id":"ce4bhn12rcd13ifvqgpg","pricing_plan_id":"cebpf4jnsgd1na2vs0mg"},{"bike_id":"4a606822-e9f0-4a05-b24d-aefbbf534d02","system_id":"levelo_inurba_marseille","lat":43.29021,"lon":5.35928,"is_reserved":false,"is_disabled":false,"rental_uris":{"android":"levelo://app?vid=4a606822-e9f0-4a05-b24d-aefbbf534d02","ios":"levelo://app?vid=4a606822-e9f0-4a05-b24d-aefbbf534d02"},"vehicle_type_id":"4","last_reported":1735654061,"current_range_meters":29600,"station_id":"ce4bha92rcd13ifvqeg0","pricing_plan_id":"cebpf4jnsgd1na2vs0mg"},{"bike_id":"30a5adec-692c-47fc-a838-a6e3206aab84","system_id":"levelo_inurba_marseille","lat":43.29699,"lon":5.37703,"is_reserved":false,"is_disabled":false,"rental_uris":{"android":"levelo://app?vid=30a5adec-692c-47fc-a838-a6e3206aab84","ios":"levelo://app?vid=30a5adec-692c-47fc-a838-a6e3206aab84"},"vehicle_type_id":"4","last_reported":1735654061,"current_range_meters":38800,"station_id":"ce4bgkh2rcd13ifvqbl0","pricing_plan_id":"cebpf4jnsgd1na2vs0mg"},{"bike_id":"8ad09b60-3a79-4fc1-9f8d-63dc687108f3","system_id":"levelo_inurba_marseille","lat":43.337444,"lon":5.374475,"is_reserved":false,"is_disabled":false,"rental_uris":{"android":"levelo://app?vid=8ad09b60-3a79-4fc1-9f8d-63dc687108f3","ios":"levelo://app?vid=8ad09b60-3a79-4fc1-9f8d-63dc687108f3"},"vehicle_type_id":"4","last_reported":1735654061,"current_range_meters":38800,"station_id":"","pricing_plan_id":"cebpf4jnsgd1na2vs0mg"},{"bike_id":"d3d30c5e-be0b-4780-90cc-ff13d0799f61","system_id":"levelo_inurba_marseille","lat":43.26195,"lon":5.37442,"is_reserved":false,"is_disabled":false,"rental_uris":{"android":"levelo://app?vid=d3d30c5e-be0b-4780-90cc-ff13d0799f61","ios":"levelo://app?vid=d3d30c5e-be0b-4780-90cc-ff13d0799f61"},"vehicle_type_id":"4","last_reported":1735654061,"current_range_meters":36800,"station_id":"ce4bhgp2rcd13ifvqfc0","pricing_plan_id":"cebpf4jnsgd1na2vs0mg"},{"bike_id":"34746fd6-7d22-4962-bfa1-605bd86ec832","system_id":"levelo_inurba_marseille","lat":43.25504,"lon":5.37673,"is_reserved":false,"is_disabled":false,"rental_uris":{"android":"levelo://app?vid=34746fd6-7d22-4962-bfa1-605bd86ec832","ios":"levelo://app?vid=34746fd6-7d22-4962-bfa1-605bd86ec832"},"vehicle_type_id":"4","last_reported":1735654061,"current_range_meters":37600,"station_id":"ce4bhh12rcd13ifvqff0","pricing_plan_id":"cebpf4jnsgd1na2vs0mg"},{"bike_id":"a6d96a10-8654-43e1-a269-aa0800b72273","system_id":"levelo_inurba_marseille","lat":43.24382,"lon":5.37058,"is_reserved":false,"is_disabled":false,"rental_uris":{"android":"levelo://app?vid=a6d96a10-8654-43e1-a269-aa0800b72273","ios":"levelo://app?vid=a6d96a10-8654-43e1-a269-aa0800b72273"},"vehicle_type_id":"4","last_reported":1735654061,"current_range_meters":35600,"station_id":"ce4bhhh2rcd13ifvqfk0","pricing_plan_id":"cebpf4jnsgd1na2vs0mg"},{"bike_id":"666a7749-2bd4-4d65-8672-90c8365eb66d","system_id":"levelo_inurba_marseille","lat":43.30146,"lon":5.38092,"is_reserved":false,"is_disabled":false,"rental_uris":{"android":"levelo://app?vid=666a7749-2bd4-4d65-8672-90c8365eb66d","ios":"levelo://app?vid=666a7749-2bd4-4d65-8672-90c8365eb66d"},"vehicle_type_id":"4","last_reported":1735654061,"current_range_meters":37600,"station_id":"ce4bgjp2rcd13ifvqbh0","pricing_plan_id":"cebpf4jnsgd1na2vs0mg"},{"bike_id":"ac9edfbd-2c81-4be2-9272-e6762f5e5829","system_id":"levelo_inurba_marseille","lat":43.29612,"lon":5.3774,"is_reserved":false,"is_disabled":false,"rental_uris":{"android":"levelo://app?vid=ac9edfbd-2c81-4be2-9272-e6762f5e5829","ios":"levelo://app?vid=ac9edfbd-2c81-4be2-9272-e6762f5e5829"},"vehicle_type_id":"4","last_reported":1735654061,"current_range_meters":36400,"station_id":"ce4bgi92rcd13ifvqb90","pricing_plan_id":"cebpf4jnsgd1na2vs0mg"},{"bike_id":"d3e356d4-0a21-45a5-9cc5-32567fc97512","system_id":"levelo_inurba_marseille","lat":43.29845,"lon":5.36253,"is_reserved":false,"is_disabled":false,"rental_uris":{"android":"levelo://app?vid=d3e356d4-0a21-45a5-9cc5-32567fc97512","ios":"levelo://app?vid=d3e356d4-0a21-45a5-9cc5-32567fc97512"},"vehicle_type_id":"4","last_reported":1735654061,"current_range_meters":23200,"station_id":"ce4bgpp2rcd13ifvqc3g","pricing_plan_id":"cebpf4jnsgd1na2vs0mg"},{"bike_id":"07abed00-5289-4968-ad13-b97801099ad4","system_id":"levelo_inurba_marseille","lat":43.29165,"lon":5.38599,"is_reserved":false,"is_disabled":false,"rental_uris":{"android":"levelo://app?vid=07abed00-5289-4968-ad13-b97801099ad4","ios":"levelo://app?vid=07abed00-5289-4968-ad13-b97801099ad4"},"vehicle_type_id":"4","last_reported":1735654061,"current_range_meters":30400,"station_id":"","pricing_plan_id":"cebpf4jnsgd1na2vs0mg"},{"bike_id":"366bdfc4-d748-464b-8053-ad07172ea69e","system_id":"levelo_inurba_marseille","lat":43.30722,"lon":5.37437,"is_reserved":false,"is_disabled":false,"rental_uris":{"android":"levelo://app?vid=366bdfc4-d748-464b-8053-ad07172ea69e","ios":"levelo://app?vid=366bdfc4-d748-464b-8053-ad07172ea69e"},"vehicle_type_id":"4","last_reported":1735654061,"current_range_meters":30400,"station_id":"ce4bgqh2rcd13ifvqc4g","pricing_plan_id":"cebpf4jnsgd1na2vs0mg"},{"bike_id":"0e5a5f49-bc78-4b22-94c8-1c303a81b9cf","system_id":"levelo_inurba_marseille","lat":43.29537,"lon":5.37493,"is_reserved":false,"is_disabled":false,"rental_uris":{"android":"levelo://app?vid=0e5a5f49-bc78-4b22-94c8-1c303a81b9cf","ios":"levelo://app?vid=0e5a5f49-bc78-4b22-94c8-1c303a81b9cf"},"vehicle_type_id":"4","last_reported":1735654061,"current_range_meters":33200,"station_id":"ce4bgkp2rcd13ifvqbmg","pricing_plan_id":"cebpf4jnsgd1na2vs0mg"},{"bike_id":"f80486c0-769f-4f08-94f5-daaa1ac79068","system_id":"levelo_inurba_marseille","lat":43.24801,"lon":5.37449,"is_reserved":false,"is_disabled":false,"rental_uris":{"android":"levelo://app?vid=f80486c0-769f-4f08-94f5-daaa1ac79068","ios":"levelo://app?vid=f80486c0-769f-4f08-94f5-daaa1ac79068"},"vehicle_type_id":"4","last_reported":1735654061,"current_range_meters":28400,"station_id":"ce4bhgh2rcd13ifvqfb0","pricing_plan_id":"cebpf4jnsgd1na2vs0mg"},{"bike_id":"fc039bbf-3954-49ff-ad4c-9dd7f2f74491","system_id":"levelo_inurba_marseille","lat":43.26561,"lon":5.39033,"is_reserved":false,"is_disabled":false,"rental_uris":{"android":"levelo://app?vid=fc039bbf-3954-49ff-ad4c-9dd7f2f74491","ios":"levelo://app?vid=fc039bbf-3954-49ff-ad4c-9dd7f2f74491"},"vehicle_type_id":"4","last_reported":1735654061,"current_range_meters":16000,"station_id":"ce4bhe12rcd13ifvqf30","pricing_plan_id":"cebpf4jnsgd1na2vs0mg"},{"bike_id":"217f6fce-7f38-41a2-9286-1fca76d60505","system_id":"levelo_inurba_marseille","lat":43.272,"lon":5.39184,"is_reserved":false,"is_disabled":false,"rental_uris":{"android":"levelo://app?vid=217f6fce-7f38-41a2-9286-1fca76d60505","ios":"levelo://app?vid=217f6fce-7f38-41a2-9286-1fca76d60505"},"vehicle_type_id":"4","last_reported":1735654061,"current_range_meters":38800,"station_id":"ce4bhhp2rcd13ifvqfm0","pricing_plan_id":"cebpf4jnsgd1na2vs0mg"},{"bike_id":"48c5678b-ec2a-480e-bf26-48997d493918","system_id":"levelo_inurba_marseille","lat":43.27301,"lon":5.39116,"is_reserved":false,"is_disabled":false,"rental_uris":{"android":"levelo://app?vid=48c5678b-ec2a-480e-bf26-48997d493918","ios":"levelo://app?vid=48c5678b-ec2a-480e-bf26-48997d493918"},"vehicle_type_id":"4","last_reported":1735654061,"current_range_meters":7200,"station_id":"ce4bhgp2rcd13ifvqfe0","pricing_plan_id":"cebpf4jnsgd1na2vs0mg"},{"bike_id":"68fe914d-78e4-4773-bb6b-5e8407fd5609","system_id":"levelo_inurba_marseille","lat":43.29536,"lon":5.37496,"is_reserved":false,"is_disabled":false,"rental_uris":{"android":"levelo://app?vid=68fe914d-78e4-4773-bb6b-5e8407fd5609","ios":"levelo://app?vid=68fe914d-78e4-4773-bb6b-5e8407fd5609"},"vehicle_type_id":"4","last_reported":1735654061,"current_range_meters":28800,"station_id":"ce4bgkp2rcd13ifvqbmg","pricing_plan_id":"cebpf4jnsgd1na2vs0mg"},{"bike_id":"e48e9654-e170-4c27-bbc2-34d378d2f03f","system_id":"levelo_inurba_marseille","lat":43.27211,"lon":5.39188,"is_reserved":false,"is_disabled":false,"rental_uris":{"android":"levelo://app?vid=e48e9654-e170-4c27-bbc2-34d378d2f03f","ios":"levelo://app?vid=e48e9654-e170-4c27-bbc2-34d378d2f03f"},"vehicle_type_id":"4","last_reported":1735654061,"current_range_meters":14400,"station_id":"ce4bhhp2rcd13ifvqfm0","pricing_plan_id":"cebpf4jnsgd1na2vs0mg"},{"bike_id":"f390e0a7-3d51-4aeb-a1cd-e4aac533a40f","system_id":"levelo_inurba_marseille","lat":43.29765,"lon":5.40412,"is_reserved":false,"is_disabled":false,"rental_uris":{"android":"levelo://app?vid=f390e0a7-3d51-4aeb-a1cd-e4aac533a40f","ios":"levelo://app?vid=f390e0a7-3d51-4aeb-a1cd-e4aac533a40f"},"vehicle_type_id":"4","last_reported":1735654061,"current_range_meters":26800,"station_id":"ce4bh112rcd13ifvqd90","pricing_plan_id":"cebpf4jnsgd1na2vs0mg"},{"bike_id":"ff2f1a47-8134-40ba-9fd8-d8221c60d229","system_id":"levelo_inurba_marseille","lat":43.30569,"lon":5.36504,"is_reserved":false,"is_disabled":false,"rental_uris":{"android":"levelo://app?vid=ff2f1a47-8134-40ba-9fd8-d8221c60d229","ios":"levelo://app?vid=ff2f1a47-8134-40ba-9fd8-d8221c60d229"},"vehicle_type_id":"4","last_reported":1735654061,"current_range_meters":38800,"station_id":"ce4bgs12rcd13ifvqcag","pricing_plan_id":"cebpf4jnsgd1na2vs0mg"},{"bike_id":"37b5c94a-c717-42bf-b960-d5cd6c7e2be3","system_id":"levelo_inurba_marseille","lat":43.29549,"lon":5.42285,"is_reserved":false,"is_disabled":false,"rental_uris":{"android":"levelo://app?vid=37b5c94a-c717-42bf-b960-d5cd6c7e2be3","ios":"levelo://app?vid=37b5c94a-c717-42bf-b960-d5cd6c7e2be3"},"vehicle_type_id":"4","last_reported":1735654061,"current_range_meters":37600,"station_id":"ce4bhph2rcd13ifvqhdg","pricing_plan_id":"cebpf4jnsgd1na2vs0mg"},{"bike_id":"3e90302f-f220-44a8-9d81-4d013e538f37","system_id":"levelo_inurba_marseille","lat":43.23145,"lon":5.43707,"is_reserved":false,"is_disabled":false,"rental_uris":{"android":"levelo://app?vid=3e90302f-f220-44a8-9d81-4d013e538f37","ios":"levelo://app?vid=3e90302f-f220-44a8-9d81-4d013e538f37"},"vehicle_type_id":"4","last_reported":1735654061,"current_range_meters":38800,"station_id":"ce4bhmp2rcd13ifvqgog","pricing_plan_id":"cebpf4jnsgd1na2vs0mg"},{"bike_id":"ff49d49a-53c3-499a-b296-89a67f332a8a","system_id":"levelo_inurba_marseille","lat":43.24188,"lon":5.36365,"is_reserved":false,"is_disabled":false,"rental_uris":{"android":"levelo://app?vid=ff49d49a-53c3-499a-b296-89a67f332a8a","ios":"levelo://app?vid=ff49d49a-53c3-499a-b296-89a67f332a8a"},"vehicle_type_id":"4","last_reported":1735654061,"current_range_meters":36400,"station_id":"cpo36qri1sfpv3e86is0","pricing_plan_id":"cebpf4jnsgd1na2vs0mg"},{"bike_id":"42fbc91b-af76-4ca1-807c-30a385024ffd","system_id":"levelo_inurba_marseille","lat":43.29842,"lon":5.36244,"is_reserved":false,"is_disabled":false,"rental_uris":{"android":"levelo://app?vid=42fbc91b-af76-4ca1-807c-30a385024ffd","ios":"levelo://app?vid=42fbc91b-af76-4ca1-807c-30a385024ffd"},"vehicle_type_id":"4","last_reported":1735654061,"current_range_meters":38800,"station_id":"ce4bgpp2rcd13ifvqc3g","pricing_plan_id":"cebpf4jnsgd1na2vs0mg"},{"bike_id":"0c9061c5-02f4-44a1-844e-71b9a0231046","system_id":"levelo_inurba_marseille","lat":43.30183,"lon":5.36628,"is_reserved":false,"is_disabled":false,"rental_uris":{"android":"levelo://app?vid=0c9061c5-02f4-44a1-844e-71b9a0231046","ios":"levelo://app?vid=0c9061c5-02f4-44a1-844e-71b9a0231046"},"vehicle_type_id":"4","last_reported":1735654061,"current_range_meters":24000,"station_id":"ce4bgrh2rcd13ifvqc8g","pricing_plan_id":"cebpf4jnsgd1na2vs0mg"},{"bike_id":"d841d641-2f56-46e3-be38-87db9829533f","system_id":"levelo_inurba_marseille","lat":43.27799,"lon":5.40715,"is_reserved":false,"is_disabled":false,"rental_uris":{"android":"levelo://app?vid=d841d641-2f56-46e3-be38-87db9829533f","ios":"levelo://app?vid=d841d641-2f56-46e3-be38-87db9829533f"},"vehicle_type_id":"4","last_reported":1735654061,"current_range_meters":27200,"station_id":"ce4bhnh2rcd13ifvqgtg","pricing_plan_id":"cebpf4jnsgd1na2vs0mg"},{"bike_id":"68ce89d7-2c49-47a3-af51-4cee0b21d337","system_id":"levelo_inurba_marseille","lat":43.27966,"lon":5.387,"is_reserved":false,"is_disabled":false,"rental_uris":{"android":"levelo://app?vid=68ce89d7-2c49-47a3-af51-4cee0b21d337","ios":"levelo://app?vid=68ce89d7-2c49-47a3-af51-4cee0b21d337"},"vehicle_type_id":"4","last_reported":1735654061,"current_range_meters":35200,"station_id":"ce4bhg12rcd13ifvqf80","pricing_plan_id":"cebpf4jnsgd1na2vs0mg"},{"bike_id":"294c14cb-577f-4c56-859e-2380db7a357a","system_id":"levelo_inurba_marseille","lat":43.23145,"lon":5.43721,"is_reserved":false,"is_disabled":false,"rental_uris":{"android":"levelo://app?vid=294c14cb-577f-4c56-859e-2380db7a357a","ios":"levelo://app?vid=294c14cb-577f-4c56-859e-2380db7a357a"},"vehicle_type_id":"4","last_reported":1735654061,"current_range_meters":38000,"station_id":"ce4bhmp2rcd13ifvqgog","pricing_plan_id":"cebpf4jnsgd1na2vs0mg"},{"bike_id":"01caa74a-f316-4e7e-b2eb-0a06455283e3","system_id":"levelo_inurba_marseille","lat":43.24393,"lon":5.37059,"is_reserved":false,"is_disabled":false,"rental_uris":{"android":"levelo://app?vid=01caa74a-f316-4e7e-b2eb-0a06455283e3","ios":"levelo://app?vid=01caa74a-f316-4e7e-b2eb-0a06455283e3"},"vehicle_type_id":"4","last_reported":1735654061,"current_range_meters":24800,"station_id":"ce4bhhh2rcd13ifvqfk0","pricing_plan_id":"cebpf4jnsgd1na2vs0mg"},{"bike_id":"13f84696-4405-43e0-b0f5-1a61d67abe32","system_id":"levelo_inurba_marseille","lat":43.27813,"lon":5.39206,"is_reserved":false,"is_disabled":false,"rental_uris":{"android":"levelo://app?vid=13f84696-4405-43e0-b0f5-1a61d67abe32","ios":"levelo://app?vid=13f84696-4405-43e0-b0f5-1a61d67abe32"},"vehicle_type_id":"4","last_reported":1735654061,"current_range_meters":14000,"station_id":"ce4bhjp2rcd13ifvqga0","pricing_plan_id":"cebpf4jnsgd1na2vs0mg"},{"bike_id":"084f20e0-058f-4845-bcf8-330201a6e3a6","system_id":"levelo_inurba_marseille","lat":43.31274,"lon":5.40173,"is_reserved":false,"is_disabled":false,"rental_uris":{"android":"levelo://app?vid=084f20e0-058f-4845-bcf8-330201a6e3a6","ios":"levelo://app?vid=084f20e0-058f-4845-bcf8-330201a6e3a6"},"vehicle_type_id":"4","last_reported":1735654061,"current_range_meters":37600,"station_id":"ce4bh092rcd13ifvqd30","pricing_plan_id":"cebpf4jnsgd1na2vs0mg"},{"bike_id":"6275c667-9408-4738-96cb-6278121ca45a","system_id":"levelo_inurba_marseille","lat":43.27445,"lon":5.39414,"is_reserved":false,"is_disabled":false,"rental_uris":{"android":"levelo://app?vid=6275c667-9408-4738-96cb-6278121ca45a","ios":"levelo://app?vid=6275c667-9408-4738-96cb-6278121ca45a"},"vehicle_type_id":"4","last_reported":1735654061,"current_range_meters":8800,"station_id":"ce4bhdp2rcd13ifvqf20","pricing_plan_id":"cebpf4jnsgd1na2vs0mg"},{"bike_id":"317bbece-85f5-4709-8e50-643ba25a75ff","system_id":"levelo_inurba_marseille","lat":43.337444,"lon":5.374475,"is_reserved":false,"is_disabled":false,"rental_uris":{"android":"levelo://app?vid=317bbece-85f5-4709-8e50-643ba25a75ff","ios":"levelo://app?vid=317bbece-85f5-4709-8e50-643ba25a75ff"},"vehicle_type_id":"4","last_reported":1735654061,"current_range_meters":23200,"station_id":"","pricing_plan_id":"cebpf4jnsgd1na2vs0mg"},{"bike_id":"e7774da4-c308-4bfa-aba8-31efca07b3a0","system_id":"levelo_inurba_marseille","lat":43.33751,"lon":5.37462,"is_reserved":false,"is_disabled":false,"rental_uris":{"android":"levelo://app?vid=e7774da4-c308-4bfa-aba8-31efca07b3a0","ios":"levelo://app?vid=e7774da4-c308-4bfa-aba8-31efca07b3a0"},"vehicle_type_id":"4","last_reported":1735654061,"current_range_meters":38000,"station_id":"","pricing_plan_id":"cebpf4jnsgd1na2vs0mg"},{"bike_id":"8e93d70a-d0ee-4fc3-a7e7-63e94e7a481d","system_id":"levelo_inurba_marseille","lat":43.30119,"lon":5.37432,"is_reserved":false,"is_disabled":false,"rental_uris":{"android":"levelo://app?vid=8e93d70a-d0ee-4fc3-a7e7-63e94e7a481d","ios":"levelo://app?vid=8e93d70a-d0ee-4fc3-a7e7-63e94e7a481d"},"vehicle_type_id":"4","last_reported":1735654061,"current_range_meters":39200,"station_id":"ce4bgs92rcd13ifvqcc0","pricing_plan_id":"cebpf4jnsgd1na2vs0mg"},{"bike_id":"cb97c7ba-1edf-46c0-b0a5-43188f79be9f","system_id":"levelo_inurba_marseille","lat":43.24543,"lon":5.39521,"is_reserved":false,"is_disabled":true,"rental_uris":{"android":"levelo://app?vid=cb97c7ba-1edf-46c0-b0a5-43188f79be9f","ios":"levelo://app?vid=cb97c7ba-1edf-46c0-b0a5-43188f79be9f"},"vehicle_type_id":"4","last_reported":1735654061,"current_range_meters":1200,"station_id":"ce4bhlp2rcd13ifvqgjg","pricing_plan_id":"cebpf4jnsgd1na2vs0mg"},{"bike_id":"ad09079b-2a66-443a-a13d-b1f84ab569d5","system_id":"levelo_inurba_marseille","lat":43.24997,"lon":5.38933,"is_reserved":false,"is_disabled":false,"rental_uris":{"android":"levelo://app?vid=ad09079b-2a66-443a-a13d-b1f84ab569d5","ios":"levelo://app?vid=ad09079b-2a66-443a-a13d-b1f84ab569d5"},"vehicle_type_id":"4","last_reported":1735654061,"current_range_meters":38800,"station_id":"ce4bhgp2rcd13ifvqfd0","pricing_plan_id":"cebpf4jnsgd1na2vs0mg"},{"bike_id":"da3075ee-8070-42f9-8350-58e475a60c82","system_id":"levelo_inurba_marseille","lat":43.27565,"lon":5.38445,"is_reserved":false,"is_disabled":false,"rental_uris":{"android":"levelo://app?vid=da3075ee-8070-42f9-8350-58e475a60c82","ios":"levelo://app?vid=da3075ee-8070-42f9-8350-58e475a60c82"},"vehicle_type_id":"4","last_reported":1735654061,"current_range_meters":39200,"station_id":"ce4bhh92rcd13ifvqfi0","pricing_plan_id":"cebpf4jnsgd1na2vs0mg"},{"bike_id":"ddaa3bfb-84cb-4869-a201-30bf8fe7e311","system_id":"levelo_inurba_marseille","lat":43.29372,"lon":5.37851,"is_reserved":false,"is_disabled":false,"rental_uris":{"android":"levelo://app?vid=ddaa3bfb-84cb-4869-a201-30bf8fe7e311","ios":"levelo://app?vid=ddaa3bfb-84cb-4869-a201-30bf8fe7e311"},"vehicle_type_id":"4","last_reported":1735654061,"current_range_meters":38800,"station_id":"ce4bgjh2rcd13ifvqbf0","pricing_plan_id":"cebpf4jnsgd1na2vs0mg"},{"bike_id":"2651c3c0-0475-48f8-ba4a-52f75a9e00c8","system_id":"levelo_inurba_marseille","lat":43.29192,"lon":5.39317,"is_reserved":false,"is_disabled":false,"rental_uris":{"android":"levelo://app?vid=2651c3c0-0475-48f8-ba4a-52f75a9e00c8","ios":"levelo://app?vid=2651c3c0-0475-48f8-ba4a-52f75a9e00c8"},"vehicle_type_id":"4","last_reported":1735654061,"current_range_meters":35200,"station_id":"ce4bh192rcd13ifvqdd0","pricing_plan_id":"cebpf4jnsgd1na2vs0mg"},{"bike_id":"07c99ec9-f027-47a4-9b93-3697bcc5f573","system_id":"levelo_inurba_marseille","lat":43.269307,"lon":5.402513,"is_reserved":false,"is_disabled":false,"rental_uris":{"android":"levelo://app?vid=07c99ec9-f027-47a4-9b93-3697bcc5f573","ios":"levelo://app?vid=07c99ec9-f027-47a4-9b93-3697bcc5f573"},"vehicle_type_id":"4","last_reported":1735654061,"current_range_meters":25600,"station_id":"cjm6bp8fraef2m0cb0m0","pricing_plan_id":"cebpf4jnsgd1na2vs0mg"},{"bike_id":"749f111c-214e-4166-b331-0b5d1ae21780","system_id":"levelo_inurba_marseille","lat":43.29462,"lon":5.39734,"is_reserved":false,"is_disabled":false,"rental_uris":{"android":"levelo://app?vid=749f111c-214e-4166-b331-0b5d1ae21780","ios":"levelo://app?vid=749f111c-214e-4166-b331-0b5d1ae21780"},"vehicle_type_id":"4","last_reported":1735654061,"current_range_meters":38800,"station_id":"ce4bh3h2rcd13ifvqdo0","pricing_plan_id":"cebpf4jnsgd1na2vs0mg"},{"bike_id":"c754264e-2257-42b1-89f9-0bf9a740ba42","system_id":"levelo_inurba_marseille","lat":43.27549,"lon":5.38434,"is_reserved":false,"is_disabled":false,"rental_uris":{"android":"levelo://app?vid=c754264e-2257-42b1-89f9-0bf9a740ba42","ios":"levelo://app?vid=c754264e-2257-42b1-89f9-0bf9a740ba42"},"vehicle_type_id":"4","last_reported":1735654061,"current_range_meters":30400,"station_id":"ce4bhh92rcd13ifvqfi0","pricing_plan_id":"cebpf4jnsgd1na2vs0mg"},{"bike_id":"aa1b7729-786d-4861-8241-6fe4aeb79943","system_id":"levelo_inurba_marseille","lat":43.30511,"lon":5.36529,"is_reserved":false,"is_disabled":false,"rental_uris":{"android":"levelo://app?vid=aa1b7729-786d-4861-8241-6fe4aeb79943","ios":"levelo://app?vid=aa1b7729-786d-4861-8241-6fe4aeb79943"},"vehicle_type_id":"4","last_reported":1735654061,"current_range_meters":36400,"station_id":"","pricing_plan_id":"cebpf4jnsgd1na2vs0mg"},{"bike_id":"63d3d27f-f4c2-4cfa-99f6-359012ea8eb1","system_id":"levelo_inurba_marseille","lat":43.29564,"lon":5.37535,"is_reserved":false,"is_disabled":false,"rental_uris":{"android":"levelo://app?vid=63d3d27f-f4c2-4cfa-99f6-359012ea8eb1","ios":"levelo://app?vid=63d3d27f-f4c2-4cfa-99f6-359012ea8eb1"},"vehicle_type_id":"4","last_reported":1735654061,"current_range_meters":21600,"station_id":"ce4bgh92rcd13ifvqb50","pricing_plan_id":"cebpf4jnsgd1na2vs0mg"},{"bike_id":"711375a4-5689-42ea-a27c-d36b9acf3b32","system_id":"levelo_inurba_marseille","lat":43.27166,"lon":5.40989,"is_reserved":false,"is_disabled":false,"rental_uris":{"android":"levelo://app?vid=711375a4-5689-42ea-a27c-d36b9acf3b32","ios":"levelo://app?vid=711375a4-5689-42ea-a27c-d36b9acf3b32"},"vehicle_type_id":"4","last_reported":1735654061,"current_range_meters":18800,"station_id":"ce4bhl12rcd13ifvqgf0","pricing_plan_id":"cebpf4jnsgd1na2vs0mg"},{"bike_id":"53c1c1d5-441d-4554-a91b-a88559a36e29","system_id":"levelo_inurba_marseille","lat":43.28607,"lon":5.37062,"is_reserved":false,"is_disabled":false,"rental_uris":{"android":"levelo://app?vid=53c1c1d5-441d-4554-a91b-a88559a36e29","ios":"levelo://app?vid=53c1c1d5-441d-4554-a91b-a88559a36e29"},"vehicle_type_id":"4","last_reported":1735654061,"current_range_meters":21600,"station_id":"ce4bht12rcd13ifvqi60","pricing_plan_id":"cebpf4jnsgd1na2vs0mg"},{"bike_id":"8fe303ae-3cee-4d41-b887-00e4cda30a00","system_id":"levelo_inurba_marseille","lat":43.305311,"lon":5.367143,"is_reserved":false,"is_disabled":false,"rental_uris":{"android":"levelo://app?vid=8fe303ae-3cee-4d41-b887-00e4cda30a00","ios":"levelo://app?vid=8fe303ae-3cee-4d41-b887-00e4cda30a00"},"vehicle_type_id":"4","last_reported":1735654061,"current_range_meters":37600,"station_id":"ce4bgrp2rcd13ifvqc9g","pricing_plan_id":"cebpf4jnsgd1na2vs0mg"},{"bike_id":"f5237a56-7c3e-482c-81f6-629b1f9ac345","system_id":"levelo_inurba_marseille","lat":43.296191,"lon":5.371487,"is_reserved":false,"is_disabled":false,"rental_uris":{"android":"levelo://app?vid=f5237a56-7c3e-482c-81f6-629b1f9ac345","ios":"levelo://app?vid=f5237a56-7c3e-482c-81f6-629b1f9ac345"},"vehicle_type_id":"4","last_reported":1735654061,"current_range_meters":38400,"station_id":"ce4bgnh2rcd13ifvqc0g","pricing_plan_id":"cebpf4jnsgd1na2vs0mg"},{"bike_id":"cd85b716-8cf0-4caa-b767-250083b8bce6","system_id":"levelo_inurba_marseille","lat":43.2918,"lon":5.35817,"is_reserved":false,"is_disabled":false,"rental_uris":{"android":"levelo://app?vid=cd85b716-8cf0-4caa-b767-250083b8bce6","ios":"levelo://app?vid=cd85b716-8cf0-4caa-b767-250083b8bce6"},"vehicle_type_id":"4","last_reported":1735654061,"current_range_meters":38800,"station_id":"ce4bhb12rcd13ifvqel0","pricing_plan_id":"cebpf4jnsgd1na2vs0mg"},{"bike_id":"a871e8bb-4f17-4f79-8bac-42efdc696fa0","system_id":"levelo_inurba_marseille","lat":43.29002,"lon":5.35598,"is_reserved":false,"is_disabled":false,"rental_uris":{"android":"levelo://app?vid=a871e8bb-4f17-4f79-8bac-42efdc696fa0","ios":"levelo://app?vid=a871e8bb-4f17-4f79-8bac-42efdc696fa0"},"vehicle_type_id":"4","last_reported":1735654061,"current_range_meters":32800,"station_id":"ce4bhb92rcd13ifvqen0","pricing_plan_id":"cebpf4jnsgd1na2vs0mg"},{"bike_id":"0e2f82cb-6b44-4d96-9b88-3e8aacbe754f","system_id":"levelo_inurba_marseille","lat":43.30177,"lon":5.38077,"is_reserved":false,"is_disabled":false,"rental_uris":{"android":"levelo://app?vid=0e2f82cb-6b44-4d96-9b88-3e8aacbe754f","ios":"levelo://app?vid=0e2f82cb-6b44-4d96-9b88-3e8aacbe754f"},"vehicle_type_id":"4","last_reported":1735654061,"current_range_meters":38800,"station_id":"ce4bgjp2rcd13ifvqbh0","pricing_plan_id":"cebpf4jnsgd1na2vs0mg"},{"bike_id":"e72c6d65-0b04-411e-bf0f-f72d15cad0d7","system_id":"levelo_inurba_marseille","lat":43.33743,"lon":5.39179,"is_reserved":false,"is_disabled":false,"rental_uris":{"android":"levelo://app?vid=e72c6d65-0b04-411e-bf0f-f72d15cad0d7","ios":"levelo://app?vid=e72c6d65-0b04-411e-bf0f-f72d15cad0d7"},"vehicle_type_id":"4","last_reported":1735654061,"current_range_meters":38800,"station_id":"ce4bhr92rcd13ifvqhsg","pricing_plan_id":"cebpf4jnsgd1na2vs0mg"},{"bike_id":"b6b864a4-e397-43ad-8ee7-03725a1bcd2b","system_id":"levelo_inurba_marseille","lat":43.28855,"lon":5.35849,"is_reserved":false,"is_disabled":false,"rental_uris":{"android":"levelo://app?vid=b6b864a4-e397-43ad-8ee7-03725a1bcd2b","ios":"levelo://app?vid=b6b864a4-e397-43ad-8ee7-03725a1bcd2b"},"vehicle_type_id":"4","last_reported":1735654061,"current_range_meters":23200,"station_id":"ce4bhb12rcd13ifvqem0","pricing_plan_id":"cebpf4jnsgd1na2vs0mg"},{"bike_id":"44c33bee-fe37-4148-9fab-0084162adb4a","system_id":"levelo_inurba_marseille","lat":43.30899,"lon":5.37214,"is_reserved":false,"is_disabled":false,"rental_uris":{"android":"levelo://app?vid=44c33bee-fe37-4148-9fab-0084162adb4a","ios":"levelo://app?vid=44c33bee-fe37-4148-9fab-0084162adb4a"},"vehicle_type_id":"4","last_reported":1735654061,"current_range_meters":30000,"station_id":"ce4bguh2rcd13ifvqckg","pricing_plan_id":"cebpf4jnsgd1na2vs0mg"},{"bike_id":"c2e14256-c92f-4d39-88d3-fbb49fcae5a7","system_id":"levelo_inurba_marseille","lat":43.26681,"lon":5.38267,"is_reserved":false,"is_disabled":false,"rental_uris":{"android":"levelo://app?vid=c2e14256-c92f-4d39-88d3-fbb49fcae5a7","ios":"levelo://app?vid=c2e14256-c92f-4d39-88d3-fbb49fcae5a7"},"vehicle_type_id":"4","last_reported":1735654061,"current_range_meters":34000,"station_id":"ce4bhg92rcd13ifvqf90","pricing_plan_id":"cebpf4jnsgd1na2vs0mg"},{"bike_id":"6f311cc1-cc01-4177-9c9a-f9919ed68eff","system_id":"levelo_inurba_marseille","lat":43.29595,"lon":5.38102,"is_reserved":false,"is_disabled":false,"rental_uris":{"android":"levelo://app?vid=6f311cc1-cc01-4177-9c9a-f9919ed68eff","ios":"levelo://app?vid=6f311cc1-cc01-4177-9c9a-f9919ed68eff"},"vehicle_type_id":"4","last_reported":1735654061,"current_range_meters":30400,"station_id":"ce4bgl12rcd13ifvqbo0","pricing_plan_id":"cebpf4jnsgd1na2vs0mg"},{"bike_id":"54b47f4d-54ec-4b4d-aded-f8fb3a6e8f5e","system_id":"levelo_inurba_marseille","lat":43.29691,"lon":5.37283,"is_reserved":false,"is_disabled":false,"rental_uris":{"android":"levelo://app?vid=54b47f4d-54ec-4b4d-aded-f8fb3a6e8f5e","ios":"levelo://app?vid=54b47f4d-54ec-4b4d-aded-f8fb3a6e8f5e"},"vehicle_type_id":"4","last_reported":1735654061,"current_range_meters":25200,"station_id":"ce4bgk12rcd13ifvqbj0","pricing_plan_id":"cebpf4jnsgd1na2vs0mg"},{"bike_id":"a26095db-4f23-48c6-bf5a-dd810c1fb24d","system_id":"levelo_inurba_marseille","lat":43.272,"lon":5.39186,"is_reserved":false,"is_disabled":false,"rental_uris":{"android":"levelo://app?vid=a26095db-4f23-48c6-bf5a-dd810c1fb24d","ios":"levelo://app?vid=a26095db-4f23-48c6-bf5a-dd810c1fb24d"},"vehicle_type_id":"4","last_reported":1735654061,"current_range_meters":16000,"station_id":"ce4bhhp2rcd13ifvqfm0","pricing_plan_id":"cebpf4jnsgd1na2vs0mg"},{"bike_id":"57103b12-06fc-494b-9a1a-1903f8f245d5","system_id":"levelo_inurba_marseille","lat":43.27995,"lon":5.41673,"is_reserved":false,"is_disabled":false,"rental_uris":{"android":"levelo://app?vid=57103b12-06fc-494b-9a1a-1903f8f245d5","ios":"levelo://app?vid=57103b12-06fc-494b-9a1a-1903f8f245d5"},"vehicle_type_id":"4","last_reported":1735654061,"current_range_meters":8000,"station_id":"ce4bho12rcd13ifvqh1g","pricing_plan_id":"cebpf4jnsgd1na2vs0mg"},{"bike_id":"c93a8900-340a-4a6d-ac3e-8882057837af","system_id":"levelo_inurba_marseille","lat":43.27382,"lon":5.36257,"is_reserved":false,"is_disabled":false,"rental_uris":{"android":"levelo://app?vid=c93a8900-340a-4a6d-ac3e-8882057837af","ios":"levelo://app?vid=c93a8900-340a-4a6d-ac3e-8882057837af"},"vehicle_type_id":"4","last_reported":1735654061,"current_range_meters":27600,"station_id":"ce4bhbh2rcd13ifvqeo0","pricing_plan_id":"cebpf4jnsgd1na2vs0mg"},{"bike_id":"b5491ed9-2804-41d6-9fda-fa1453788175","system_id":"levelo_inurba_marseille","lat":43.26199,"lon":5.37934,"is_reserved":false,"is_disabled":false,"rental_uris":{"android":"levelo://app?vid=b5491ed9-2804-41d6-9fda-fa1453788175","ios":"levelo://app?vid=b5491ed9-2804-41d6-9fda-fa1453788175"},"vehicle_type_id":"4","last_reported":1735654061,"current_range_meters":23200,"station_id":"ce4bhjp2rcd13ifvqg90","pricing_plan_id":"cebpf4jnsgd1na2vs0mg"},{"bike_id":"602938e9-5a0d-48cd-9073-bca96485ca77","system_id":"levelo_inurba_marseille","lat":43.26216,"lon":5.37449,"is_reserved":false,"is_disabled":false,"rental_uris":{"android":"levelo://app?vid=602938e9-5a0d-48cd-9073-bca96485ca77","ios":"levelo://app?vid=602938e9-5a0d-48cd-9073-bca96485ca77"},"vehicle_type_id":"4","last_reported":1735654061,"current_range_meters":11200,"station_id":"ce4bhgp2rcd13ifvqfc0","pricing_plan_id":"cebpf4jnsgd1na2vs0mg"},{"bike_id":"dad825e9-c481-4ecb-8e5a-ab3402dc32ab","system_id":"levelo_inurba_marseille","lat":43.301295,"lon":5.374201,"is_reserved":false,"is_disabled":false,"rental_uris":{"android":"levelo://app?vid=dad825e9-c481-4ecb-8e5a-ab3402dc32ab","ios":"levelo://app?vid=dad825e9-c481-4ecb-8e5a-ab3402dc32ab"},"vehicle_type_id":"4","last_reported":1735654061,"current_range_meters":39200,"station_id":"ce4bgs92rcd13ifvqcc0","pricing_plan_id":"cebpf4jnsgd1na2vs0mg"},{"bike_id":"c445e321-71b2-4f2a-b489-cce94c4974be","system_id":"levelo_inurba_marseille","lat":43.28618,"lon":5.35099,"is_reserved":false,"is_disabled":false,"rental_uris":{"android":"levelo://app?vid=c445e321-71b2-4f2a-b489-cce94c4974be","ios":"levelo://app?vid=c445e321-71b2-4f2a-b489-cce94c4974be"},"vehicle_type_id":"4","last_reported":1735654061,"current_range_meters":27600,"station_id":"ce4bhch2rcd13ifvqeug","pricing_plan_id":"cebpf4jnsgd1na2vs0mg"},{"bike_id":"30a49652-d136-44e4-a4d9-d7c1b83f0627","system_id":"levelo_inurba_marseille","lat":43.337444,"lon":5.374475,"is_reserved":false,"is_disabled":false,"rental_uris":{"android":"levelo://app?vid=30a49652-d136-44e4-a4d9-d7c1b83f0627","ios":"levelo://app?vid=30a49652-d136-44e4-a4d9-d7c1b83f0627"},"vehicle_type_id":"4","last_reported":1735654061,"current_range_meters":18800,"station_id":"","pricing_plan_id":"cebpf4jnsgd1na2vs0mg"},{"bike_id":"4d09da81-c598-4276-bcd1-1d0971ab92b4","system_id":"levelo_inurba_marseille","lat":43.27614,"lon":5.36116,"is_reserved":false,"is_disabled":false,"rental_uris":{"android":"levelo://app?vid=4d09da81-c598-4276-bcd1-1d0971ab92b4","ios":"levelo://app?vid=4d09da81-c598-4276-bcd1-1d0971ab92b4"},"vehicle_type_id":"4","last_reported":1735654061,"current_range_meters":35600,"station_id":"ce4bgj92rcd13ifvqbe0","pricing_plan_id":"cebpf4jnsgd1na2vs0mg"},{"bike_id":"b8f199fc-2ec3-4cea-89a8-539f8a9d9d79","system_id":"levelo_inurba_marseille","lat":43.29016,"lon":5.38135,"is_reserved":false,"is_disabled":false,"rental_uris":{"android":"levelo://app?vid=b8f199fc-2ec3-4cea-89a8-539f8a9d9d79","ios":"levelo://app?vid=b8f199fc-2ec3-4cea-89a8-539f8a9d9d79"},"vehicle_type_id":"4","last_reported":1735654061,"current_range_meters":38800,"station_id":"ce4bh4p2rcd13ifvqe1g","pricing_plan_id":"cebpf4jnsgd1na2vs0mg"},{"bike_id":"6763a312-2ab1-476a-9194-d3479037489c","system_id":"levelo_inurba_marseille","lat":43.31713,"lon":5.37759,"is_reserved":false,"is_disabled":false,"rental_uris":{"android":"levelo://app?vid=6763a312-2ab1-476a-9194-d3479037489c","ios":"levelo://app?vid=6763a312-2ab1-476a-9194-d3479037489c"},"vehicle_type_id":"4","last_reported":1735654061,"current_range_meters":38000,"station_id":"ce4bgth2rcd13ifvqch0","pricing_plan_id":"cebpf4jnsgd1na2vs0mg"},{"bike_id":"c880d37a-eca8-47a1-8687-f714254e6dbc","system_id":"levelo_inurba_marseille","lat":43.29372,"lon":5.3784,"is_reserved":false,"is_disabled":false,"rental_uris":{"android":"levelo://app?vid=c880d37a-eca8-47a1-8687-f714254e6dbc","ios":"levelo://app?vid=c880d37a-eca8-47a1-8687-f714254e6dbc"},"vehicle_type_id":"4","last_reported":1735654061,"current_range_meters":38800,"station_id":"ce4bgjh2rcd13ifvqbf0","pricing_plan_id":"cebpf4jnsgd1na2vs0mg"},{"bike_id":"f261481d-b27f-4d09-91b1-3c6c3212e7e9","system_id":"levelo_inurba_marseille","lat":43.29032,"lon":5.37572,"is_reserved":false,"is_disabled":false,"rental_uris":{"android":"levelo://app?vid=f261481d-b27f-4d09-91b1-3c6c3212e7e9","ios":"levelo://app?vid=f261481d-b27f-4d09-91b1-3c6c3212e7e9"},"vehicle_type_id":"4","last_reported":1735654061,"current_range_meters":27600,"station_id":"ce4bh692rcd13ifvqe90","pricing_plan_id":"cebpf4jnsgd1na2vs0mg"},{"bike_id":"d203d68c-f812-46e9-a236-76cb359102b0","system_id":"levelo_inurba_marseille","lat":43.29932,"lon":5.36554,"is_reserved":false,"is_disabled":false,"rental_uris":{"android":"levelo://app?vid=d203d68c-f812-46e9-a236-76cb359102b0","ios":"levelo://app?vid=d203d68c-f812-46e9-a236-76cb359102b0"},"vehicle_type_id":"4","last_reported":1735654061,"current_range_meters":36400,"station_id":"ce4bgm92rcd13ifvqbr0","pricing_plan_id":"cebpf4jnsgd1na2vs0mg"},{"bike_id":"2124d77c-c95e-44c8-9c31-7d549ce5e346","system_id":"levelo_inurba_marseille","lat":43.24397,"lon":5.37056,"is_reserved":false,"is_disabled":false,"rental_uris":{"android":"levelo://app?vid=2124d77c-c95e-44c8-9c31-7d549ce5e346","ios":"levelo://app?vid=2124d77c-c95e-44c8-9c31-7d549ce5e346"},"vehicle_type_id":"4","last_reported":1735654061,"current_range_meters":8400,"station_id":"ce4bhhh2rcd13ifvqfk0","pricing_plan_id":"cebpf4jnsgd1na2vs0mg"},{"bike_id":"b0c8f239-3c62-493a-9cd8-0466543fe7e8","system_id":"levelo_inurba_marseille","lat":43.299545,"lon":5.41318,"is_reserved":false,"is_disabled":false,"rental_uris":{"android":"levelo://app?vid=b0c8f239-3c62-493a-9cd8-0466543fe7e8","ios":"levelo://app?vid=b0c8f239-3c62-493a-9cd8-0466543fe7e8"},"vehicle_type_id":"4","last_reported":1735654061,"current_range_meters":37600,"station_id":"ce4bhp12rcd13ifvqh9g","pricing_plan_id":"cebpf4jnsgd1na2vs0mg"},{"bike_id":"a94d6e59-9b11-40c5-ba0e-22d05a10499d","system_id":"levelo_inurba_marseille","lat":43.29268,"lon":5.38444,"is_reserved":false,"is_disabled":false,"rental_uris":{"android":"levelo://app?vid=a94d6e59-9b11-40c5-ba0e-22d05a10499d","ios":"levelo://app?vid=a94d6e59-9b11-40c5-ba0e-22d05a10499d"},"vehicle_type_id":"4","last_reported":1735654061,"current_range_meters":38800,"station_id":"ce4bh692rcd13ifvqea0","pricing_plan_id":"cebpf4jnsgd1na2vs0mg"},{"bike_id":"1ce05690-65ba-4e15-b28c-5fd535e467f0","system_id":"levelo_inurba_marseille","lat":43.32081,"lon":5.41536,"is_reserved":false,"is_disabled":false,"rental_uris":{"android":"levelo://app?vid=1ce05690-65ba-4e15-b28c-5fd535e467f0","ios":"levelo://app?vid=1ce05690-65ba-4e15-b28c-5fd535e467f0"},"vehicle_type_id":"4","last_reported":1735654061,"current_range_meters":12400,"station_id":"ce4bhq92rcd13ifvqhkg","pricing_plan_id":"cebpf4jnsgd1na2vs0mg"},{"bike_id":"d996ebe6-a085-4671-8aef-57e91ba860dc","system_id":"levelo_inurba_marseille","lat":43.26799,"lon":5.40271,"is_reserved":false,"is_disabled":false,"rental_uris":{"android":"levelo://app?vid=d996ebe6-a085-4671-8aef-57e91ba860dc","ios":"levelo://app?vid=d996ebe6-a085-4671-8aef-57e91ba860dc"},"vehicle_type_id":"4","last_reported":1735654061,"current_range_meters":34800,"station_id":"ce501612rcd8frsf0b60","pricing_plan_id":"cebpf4jnsgd1na2vs0mg"},{"bike_id":"ca7be5f3-259c-468b-8a65-267efe746b0c","system_id":"levelo_inurba_marseille","lat":43.30551,"lon":5.36712,"is_reserved":false,"is_disabled":false,"rental_uris":{"android":"levelo://app?vid=ca7be5f3-259c-468b-8a65-267efe746b0c","ios":"levelo://app?vid=ca7be5f3-259c-468b-8a65-267efe746b0c"},"vehicle_type_id":"4","last_reported":1735654061,"current_range_meters":28000,"station_id":"ce4bgrp2rcd13ifvqc9g","pricing_plan_id":"cebpf4jnsgd1na2vs0mg"},{"bike_id":"e14efc3d-5986-4bc8-bf36-c37208d7b5e9","system_id":"levelo_inurba_marseille","lat":43.29373,"lon":5.37845,"is_reserved":false,"is_disabled":false,"rental_uris":{"android":"levelo://app?vid=e14efc3d-5986-4bc8-bf36-c37208d7b5e9","ios":"levelo://app?vid=e14efc3d-5986-4bc8-bf36-c37208d7b5e9"},"vehicle_type_id":"4","last_reported":1735654061,"current_range_meters":37600,"station_id":"ce4bgjh2rcd13ifvqbf0","pricing_plan_id":"cebpf4jnsgd1na2vs0mg"},{"bike_id":"261f84eb-7209-4691-ba89-1395784a623f","system_id":"levelo_inurba_marseille","lat":43.27554,"lon":5.38439,"is_reserved":false,"is_disabled":false,"rental_uris":{"android":"levelo://app?vid=261f84eb-7209-4691-ba89-1395784a623f","ios":"levelo://app?vid=261f84eb-7209-4691-ba89-1395784a623f"},"vehicle_type_id":"4","last_reported":1735654061,"current_range_meters":32800,"station_id":"ce4bhh92rcd13ifvqfi0","pricing_plan_id":"cebpf4jnsgd1na2vs0mg"},{"bike_id":"ee970bd2-03e3-45d8-9920-35ca0e47ef20","system_id":"levelo_inurba_marseille","lat":43.24986,"lon":5.38929,"is_reserved":false,"is_disabled":false,"rental_uris":{"android":"levelo://app?vid=ee970bd2-03e3-45d8-9920-35ca0e47ef20","ios":"levelo://app?vid=ee970bd2-03e3-45d8-9920-35ca0e47ef20"},"vehicle_type_id":"4","last_reported":1735654061,"current_range_meters":19600,"station_id":"ce4bhgp2rcd13ifvqfd0","pricing_plan_id":"cebpf4jnsgd1na2vs0mg"},{"bike_id":"ea990fc9-5f95-4acd-a2be-29105099e24e","system_id":"levelo_inurba_marseille","lat":43.23063,"lon":5.35489,"is_reserved":false,"is_disabled":false,"rental_uris":{"android":"levelo://app?vid=ea990fc9-5f95-4acd-a2be-29105099e24e","ios":"levelo://app?vid=ea990fc9-5f95-4acd-a2be-29105099e24e"},"vehicle_type_id":"4","last_reported":1735654061,"current_range_meters":35200,"station_id":"cpo3342slgdg3j2ifvpg","pricing_plan_id":"cebpf4jnsgd1na2vs0mg"},{"bike_id":"89255d41-724b-4c7c-bb49-a2ec4857dbc1","system_id":"levelo_inurba_marseille","lat":43.29832,"lon":5.36264,"is_reserved":false,"is_disabled":false,"rental_uris":{"android":"levelo://app?vid=89255d41-724b-4c7c-bb49-a2ec4857dbc1","ios":"levelo://app?vid=89255d41-724b-4c7c-bb49-a2ec4857dbc1"},"vehicle_type_id":"4","last_reported":1735654061,"current_range_meters":36800,"station_id":"ce4bgpp2rcd13ifvqc3g","pricing_plan_id":"cebpf4jnsgd1na2vs0mg"},{"bike_id":"d79c51db-d4d0-4792-af5c-8dc533939040","system_id":"levelo_inurba_marseille","lat":43.30072,"lon":5.39087,"is_reserved":false,"is_disabled":false,"rental_uris":{"android":"levelo://app?vid=d79c51db-d4d0-4792-af5c-8dc533939040","ios":"levelo://app?vid=d79c51db-d4d0-4792-af5c-8dc533939040"},"vehicle_type_id":"4","last_reported":1735654061,"current_range_meters":21600,"station_id":"ce4bh192rcd13ifvqdb0","pricing_plan_id":"cebpf4jnsgd1na2vs0mg"},{"bike_id":"49e19ac1-9da1-47f2-921a-89dac4cfdac2","system_id":"levelo_inurba_marseille","lat":43.27825,"lon":5.39204,"is_reserved":false,"is_disabled":false,"rental_uris":{"android":"levelo://app?vid=49e19ac1-9da1-47f2-921a-89dac4cfdac2","ios":"levelo://app?vid=49e19ac1-9da1-47f2-921a-89dac4cfdac2"},"vehicle_type_id":"4","last_reported":1735654061,"current_range_meters":14800,"station_id":"ce4bhjp2rcd13ifvqga0","pricing_plan_id":"cebpf4jnsgd1na2vs0mg"},{"bike_id":"6fe0c686-8ac1-4ca4-9215-5bdce1a7f464","system_id":"levelo_inurba_marseille","lat":43.26554,"lon":5.37292,"is_reserved":false,"is_disabled":false,"rental_uris":{"android":"levelo://app?vid=6fe0c686-8ac1-4ca4-9215-5bdce1a7f464","ios":"levelo://app?vid=6fe0c686-8ac1-4ca4-9215-5bdce1a7f464"},"vehicle_type_id":"4","last_reported":1735654061,"current_range_meters":35600,"station_id":"ce4bhg12rcd13ifvqf70","pricing_plan_id":"cebpf4jnsgd1na2vs0mg"},{"bike_id":"c2c56de4-87e8-4eb7-a2bd-84ad7418d961","system_id":"levelo_inurba_marseille","lat":43.28461,"lon":5.35901,"is_reserved":false,"is_disabled":false,"rental_uris":{"android":"levelo://app?vid=c2c56de4-87e8-4eb7-a2bd-84ad7418d961","ios":"levelo://app?vid=c2c56de4-87e8-4eb7-a2bd-84ad7418d961"},"vehicle_type_id":"4","last_reported":1735654061,"current_range_meters":38400,"station_id":"ce4bhah2rcd13ifvqei0","pricing_plan_id":"cebpf4jnsgd1na2vs0mg"},{"bike_id":"756e7833-1b9a-456c-9189-b487bbe33de7","system_id":"levelo_inurba_marseille","lat":43.29269,"lon":5.3685,"is_reserved":false,"is_disabled":false,"rental_uris":{"android":"levelo://app?vid=756e7833-1b9a-456c-9189-b487bbe33de7","ios":"levelo://app?vid=756e7833-1b9a-456c-9189-b487bbe33de7"},"vehicle_type_id":"4","last_reported":1735654061,"current_range_meters":32400,"station_id":"ce4bhbp2rcd13ifvqesg","pricing_plan_id":"cebpf4jnsgd1na2vs0mg"},{"bike_id":"32afc6cc-1544-4f88-ab5c-34496cc35b04","system_id":"levelo_inurba_marseille","lat":43.23063,"lon":5.35495,"is_reserved":false,"is_disabled":false,"rental_uris":{"android":"levelo://app?vid=32afc6cc-1544-4f88-ab5c-34496cc35b04","ios":"levelo://app?vid=32afc6cc-1544-4f88-ab5c-34496cc35b04"},"vehicle_type_id":"4","last_reported":1735654061,"current_range_meters":17200,"station_id":"cpo3342slgdg3j2ifvpg","pricing_plan_id":"cebpf4jnsgd1na2vs0mg"},{"bike_id":"1fbbb53e-d679-4797-bfc5-ea8c228afe3b","system_id":"levelo_inurba_marseille","lat":43.27054,"lon":5.40265,"is_reserved":false,"is_disabled":false,"rental_uris":{"android":"levelo://app?vid=1fbbb53e-d679-4797-bfc5-ea8c228afe3b","ios":"levelo://app?vid=1fbbb53e-d679-4797-bfc5-ea8c228afe3b"},"vehicle_type_id":"4","last_reported":1735654061,"current_range_meters":26800,"station_id":"ce4bhk92rcd13ifvqgc0","pricing_plan_id":"cebpf4jnsgd1na2vs0mg"},{"bike_id":"9deb79b2-d873-447b-8063-0447587cd1ae","system_id":"levelo_inurba_marseille","lat":43.29626,"lon":5.37147,"is_reserved":false,"is_disabled":true,"rental_uris":{"android":"levelo://app?vid=9deb79b2-d873-447b-8063-0447587cd1ae","ios":"levelo://app?vid=9deb79b2-d873-447b-8063-0447587cd1ae"},"vehicle_type_id":"4","last_reported":1735654061,"current_range_meters":800,"station_id":"ce4bgnh2rcd13ifvqc0g","pricing_plan_id":"cebpf4jnsgd1na2vs0mg"},{"bike_id":"2e968598-e0ce-439c-be74-4ce3d7745c8a","system_id":"levelo_inurba_marseille","lat":43.29961,"lon":5.38502,"is_reserved":false,"is_disabled":false,"rental_uris":{"android":"levelo://app?vid=2e968598-e0ce-439c-be74-4ce3d7745c8a","ios":"levelo://app?vid=2e968598-e0ce-439c-be74-4ce3d7745c8a"},"vehicle_type_id":"4","last_reported":1735654061,"current_range_meters":32000,"station_id":"ce4bgj92rcd13ifvqbd0","pricing_plan_id":"cebpf4jnsgd1na2vs0mg"},{"bike_id":"e4e2680e-cdca-48b8-80be-274e9f0757d0","system_id":"levelo_inurba_marseille","lat":43.30137,"lon":5.37417,"is_reserved":false,"is_disabled":false,"rental_uris":{"android":"levelo://app?vid=e4e2680e-cdca-48b8-80be-274e9f0757d0","ios":"levelo://app?vid=e4e2680e-cdca-48b8-80be-274e9f0757d0"},"vehicle_type_id":"4","last_reported":1735654061,"current_range_meters":22000,"station_id":"ce4bgs92rcd13ifvqcc0","pricing_plan_id":"cebpf4jnsgd1na2vs0mg"},{"bike_id":"55e5bb48-d03c-42b0-885b-e5af4696496a","system_id":"levelo_inurba_marseille","lat":43.29554,"lon":5.37516,"is_reserved":false,"is_disabled":false,"rental_uris":{"android":"levelo://app?vid=55e5bb48-d03c-42b0-885b-e5af4696496a","ios":"levelo://app?vid=55e5bb48-d03c-42b0-885b-e5af4696496a"},"vehicle_type_id":"4","last_reported":1735654061,"current_range_meters":19600,"station_id":"ce4bgh92rcd13ifvqb50","pricing_plan_id":"cebpf4jnsgd1na2vs0mg"},{"bike_id":"d9039fb6-1526-43a5-ab47-bf6c74051347","system_id":"levelo_inurba_marseille","lat":43.28147,"lon":5.42646,"is_reserved":false,"is_disabled":false,"rental_uris":{"android":"levelo://app?vid=d9039fb6-1526-43a5-ab47-bf6c74051347","ios":"levelo://app?vid=d9039fb6-1526-43a5-ab47-bf6c74051347"},"vehicle_type_id":"4","last_reported":1735654061,"current_range_meters":11200,"station_id":"ce4bhnh2rcd13ifvqgug","pricing_plan_id":"cebpf4jnsgd1na2vs0mg"},{"bike_id":"e791c80d-0f00-4cc4-b22d-eb1100d0352a","system_id":"levelo_inurba_marseille","lat":43.30104,"lon":5.39067,"is_reserved":false,"is_disabled":false,"rental_uris":{"android":"levelo://app?vid=e791c80d-0f00-4cc4-b22d-eb1100d0352a","ios":"levelo://app?vid=e791c80d-0f00-4cc4-b22d-eb1100d0352a"},"vehicle_type_id":"4","last_reported":1735654061,"current_range_meters":38800,"station_id":"ce4bh192rcd13ifvqdb0","pricing_plan_id":"cebpf4jnsgd1na2vs0mg"},{"bike_id":"5016f44c-c8b8-4ca7-8151-4f5ed6d912b4","system_id":"levelo_inurba_marseille","lat":43.2994,"lon":5.36515,"is_reserved":false,"is_disabled":false,"rental_uris":{"android":"levelo://app?vid=5016f44c-c8b8-4ca7-8151-4f5ed6d912b4","ios":"levelo://app?vid=5016f44c-c8b8-4ca7-8151-4f5ed6d912b4"},"vehicle_type_id":"4","last_reported":1735654061,"current_range_meters":37600,"station_id":"ce4bgm92rcd13ifvqbr0","pricing_plan_id":"cebpf4jnsgd1na2vs0mg"},{"bike_id":"ce872ff4-1114-4dbb-a1cd-0587f9a75e23","system_id":"levelo_inurba_marseille","lat":43.24821,"lon":5.37471,"is_reserved":false,"is_disabled":false,"rental_uris":{"android":"levelo://app?vid=ce872ff4-1114-4dbb-a1cd-0587f9a75e23","ios":"levelo://app?vid=ce872ff4-1114-4dbb-a1cd-0587f9a75e23"},"vehicle_type_id":"4","last_reported":1735654061,"current_range_meters":38800,"station_id":"ce4bhgh2rcd13ifvqfb0","pricing_plan_id":"cebpf4jnsgd1na2vs0mg"},{"bike_id":"022d826a-d31d-48ef-b07e-f8dd0ceaa746","system_id":"levelo_inurba_marseille","lat":43.24994,"lon":5.38932,"is_reserved":false,"is_disabled":false,"rental_uris":{"android":"levelo://app?vid=022d826a-d31d-48ef-b07e-f8dd0ceaa746","ios":"levelo://app?vid=022d826a-d31d-48ef-b07e-f8dd0ceaa746"},"vehicle_type_id":"4","last_reported":1735654061,"current_range_meters":36800,"station_id":"ce4bhgp2rcd13ifvqfd0","pricing_plan_id":"cebpf4jnsgd1na2vs0mg"},{"bike_id":"b4b32194-72fa-499b-a464-e87c46a2d5f0","system_id":"levelo_inurba_marseille","lat":43.25823,"lon":5.39425,"is_reserved":false,"is_disabled":false,"rental_uris":{"android":"levelo://app?vid=b4b32194-72fa-499b-a464-e87c46a2d5f0","ios":"levelo://app?vid=b4b32194-72fa-499b-a464-e87c46a2d5f0"},"vehicle_type_id":"4","last_reported":1735654061,"current_range_meters":22800,"station_id":"ce4bhip2rcd13ifvqft0","pricing_plan_id":"cebpf4jnsgd1na2vs0mg"},{"bike_id":"04e7867a-1371-4222-a6db-9d80083cea73","system_id":"levelo_inurba_marseille","lat":43.28858,"lon":5.35829,"is_reserved":false,"is_disabled":true,"rental_uris":{"android":"levelo://app?vid=04e7867a-1371-4222-a6db-9d80083cea73","ios":"levelo://app?vid=04e7867a-1371-4222-a6db-9d80083cea73"},"vehicle_type_id":"4","last_reported":1735654061,"current_range_meters":34800,"station_id":"ce4bhb12rcd13ifvqem0","pricing_plan_id":"cebpf4jnsgd1na2vs0mg"},{"bike_id":"f56516e3-ff26-47ca-a709-ad4e335e61e0","system_id":"levelo_inurba_marseille","lat":43.317553,"lon":5.390167,"is_reserved":false,"is_disabled":false,"rental_uris":{"android":"levelo://app?vid=f56516e3-ff26-47ca-a709-ad4e335e61e0","ios":"levelo://app?vid=f56516e3-ff26-47ca-a709-ad4e335e61e0"},"vehicle_type_id":"4","last_reported":1735654061,"current_range_meters":38800,"station_id":"ce4bhqp2rcd13ifvqhng","pricing_plan_id":"cebpf4jnsgd1na2vs0mg"},{"bike_id":"97a26378-897a-4cc3-94fc-ef7846cd6637","system_id":"levelo_inurba_marseille","lat":43.31358,"lon":5.3672,"is_reserved":false,"is_disabled":true,"rental_uris":{"android":"levelo://app?vid=97a26378-897a-4cc3-94fc-ef7846cd6637","ios":"levelo://app?vid=97a26378-897a-4cc3-94fc-ef7846cd6637"},"vehicle_type_id":"4","last_reported":1735654061,"current_range_meters":0,"station_id":"ce4bgr92rcd13ifvqc6g","pricing_plan_id":"cebpf4jnsgd1na2vs0mg"},{"bike_id":"33d5ad23-6606-4405-9a62-b9dcf01335b3","system_id":"levelo_inurba_marseille","lat":43.31343,"lon":5.36765,"is_reserved":false,"is_disabled":false,"rental_uris":{"android":"levelo://app?vid=33d5ad23-6606-4405-9a62-b9dcf01335b3","ios":"levelo://app?vid=33d5ad23-6606-4405-9a62-b9dcf01335b3"},"vehicle_type_id":"4","last_reported":1735654061,"current_range_meters":38800,"station_id":"ce4bgr92rcd13ifvqc6g","pricing_plan_id":"cebpf4jnsgd1na2vs0mg"},{"bike_id":"266b3f09-67f7-4c77-a95d-8b79de7c6118","system_id":"levelo_inurba_marseille","lat":43.29896,"lon":5.43671,"is_reserved":false,"is_disabled":false,"rental_uris":{"android":"levelo://app?vid=266b3f09-67f7-4c77-a95d-8b79de7c6118","ios":"levelo://app?vid=266b3f09-67f7-4c77-a95d-8b79de7c6118"},"vehicle_type_id":"4","last_reported":1735654061,"current_range_meters":18000,"station_id":"ce4bhpp2rcd13ifvqhfg","pricing_plan_id":"cebpf4jnsgd1na2vs0mg"},{"bike_id":"648a0dd9-526e-4748-a8f3-0aa4d163b5fa","system_id":"levelo_inurba_marseille","lat":43.29807,"lon":5.40409,"is_reserved":false,"is_disabled":false,"rental_uris":{"android":"levelo://app?vid=648a0dd9-526e-4748-a8f3-0aa4d163b5fa","ios":"levelo://app?vid=648a0dd9-526e-4748-a8f3-0aa4d163b5fa"},"vehicle_type_id":"4","last_reported":1735654061,"current_range_meters":37600,"station_id":"ce4bh112rcd13ifvqd90","pricing_plan_id":"cebpf4jnsgd1na2vs0mg"},{"bike_id":"35c2c095-e215-44a0-bbc2-feea0af9e5d1","system_id":"levelo_inurba_marseille","lat":43.26699,"lon":5.38271,"is_reserved":false,"is_disabled":false,"rental_uris":{"android":"levelo://app?vid=35c2c095-e215-44a0-bbc2-feea0af9e5d1","ios":"levelo://app?vid=35c2c095-e215-44a0-bbc2-feea0af9e5d1"},"vehicle_type_id":"4","last_reported":1735654061,"current_range_meters":39200,"station_id":"ce4bhg92rcd13ifvqf90","pricing_plan_id":"cebpf4jnsgd1na2vs0mg"},{"bike_id":"016e9495-5958-43c7-8a33-5362090be415","system_id":"levelo_inurba_marseille","lat":43.29004,"lon":5.35616,"is_reserved":false,"is_disabled":false,"rental_uris":{"android":"levelo://app?vid=016e9495-5958-43c7-8a33-5362090be415","ios":"levelo://app?vid=016e9495-5958-43c7-8a33-5362090be415"},"vehicle_type_id":"4","last_reported":1735654061,"current_range_meters":28800,"station_id":"ce4bhb92rcd13ifvqen0","pricing_plan_id":"cebpf4jnsgd1na2vs0mg"},{"bike_id":"828f8732-bd29-4118-9b4a-bbc66a8c1686","system_id":"levelo_inurba_marseille","lat":43.24559,"lon":5.39527,"is_reserved":false,"is_disabled":false,"rental_uris":{"android":"levelo://app?vid=828f8732-bd29-4118-9b4a-bbc66a8c1686","ios":"levelo://app?vid=828f8732-bd29-4118-9b4a-bbc66a8c1686"},"vehicle_type_id":"4","last_reported":1735654061,"current_range_meters":38800,"station_id":"ce4bhlp2rcd13ifvqgjg","pricing_plan_id":"cebpf4jnsgd1na2vs0mg"},{"bike_id":"ba48c954-cfdc-4161-9476-771c321a4ac6","system_id":"levelo_inurba_marseille","lat":43.23978,"lon":5.36633,"is_reserved":false,"is_disabled":false,"rental_uris":{"android":"levelo://app?vid=ba48c954-cfdc-4161-9476-771c321a4ac6","ios":"levelo://app?vid=ba48c954-cfdc-4161-9476-771c321a4ac6"},"vehicle_type_id":"4","last_reported":1735654061,"current_range_meters":33200,"station_id":"ce4bhi12rcd13ifvqfp0","pricing_plan_id":"cebpf4jnsgd1na2vs0mg"},{"bike_id":"f6c3569e-efa4-4a1c-b75b-94ded8df3e64","system_id":"levelo_inurba_marseille","lat":43.27921,"lon":5.38694,"is_reserved":false,"is_disabled":false,"rental_uris":{"android":"levelo://app?vid=f6c3569e-efa4-4a1c-b75b-94ded8df3e64","ios":"levelo://app?vid=f6c3569e-efa4-4a1c-b75b-94ded8df3e64"},"vehicle_type_id":"4","last_reported":1735654061,"current_range_meters":32800,"station_id":"","pricing_plan_id":"cebpf4jnsgd1na2vs0mg"},{"bike_id":"1b6ebad1-297a-48f0-9911-f4462b938642","system_id":"levelo_inurba_marseille","lat":43.32108,"lon":5.36774,"is_reserved":false,"is_disabled":false,"rental_uris":{"android":"levelo://app?vid=1b6ebad1-297a-48f0-9911-f4462b938642","ios":"levelo://app?vid=1b6ebad1-297a-48f0-9911-f4462b938642"},"vehicle_type_id":"4","last_reported":1735654061,"current_range_meters":38000,"station_id":"ce4bhrh2rcd13ifvqhug","pricing_plan_id":"cebpf4jnsgd1na2vs0mg"},{"bike_id":"4c39f437-a5ef-4ec6-98f1-e0f11722d3df","system_id":"levelo_inurba_marseille","lat":43.29612,"lon":5.37724,"is_reserved":false,"is_disabled":false,"rental_uris":{"android":"levelo://app?vid=4c39f437-a5ef-4ec6-98f1-e0f11722d3df","ios":"levelo://app?vid=4c39f437-a5ef-4ec6-98f1-e0f11722d3df"},"vehicle_type_id":"4","last_reported":1735654061,"current_range_meters":12400,"station_id":"ce4bgi92rcd13ifvqb90","pricing_plan_id":"cebpf4jnsgd1na2vs0mg"},{"bike_id":"3f85ce8b-2fdd-4846-86c7-195e7b202f6b","system_id":"levelo_inurba_marseille","lat":43.26693,"lon":5.3826,"is_reserved":false,"is_disabled":false,"rental_uris":{"android":"levelo://app?vid=3f85ce8b-2fdd-4846-86c7-195e7b202f6b","ios":"levelo://app?vid=3f85ce8b-2fdd-4846-86c7-195e7b202f6b"},"vehicle_type_id":"4","last_reported":1735654061,"current_range_meters":31200,"station_id":"ce4bhg92rcd13ifvqf90","pricing_plan_id":"cebpf4jnsgd1na2vs0mg"},{"bike_id":"76895917-ff67-4257-b25f-c9b91f11e981","system_id":"levelo_inurba_marseille","lat":43.28693,"lon":5.39985,"is_reserved":false,"is_disabled":false,"rental_uris":{"android":"levelo://app?vid=76895917-ff67-4257-b25f-c9b91f11e981","ios":"levelo://app?vid=76895917-ff67-4257-b25f-c9b91f11e981"},"vehicle_type_id":"4","last_reported":1735654061,"current_range_meters":38000,"station_id":"ce4bho92rcd13ifvqh3g","pricing_plan_id":"cebpf4jnsgd1na2vs0mg"},{"bike_id":"dfd0134d-73ec-4fd9-b561-a804c0959d48","system_id":"levelo_inurba_marseille","lat":43.27428,"lon":5.39409,"is_reserved":false,"is_disabled":false,"rental_uris":{"android":"levelo://app?vid=dfd0134d-73ec-4fd9-b561-a804c0959d48","ios":"levelo://app?vid=dfd0134d-73ec-4fd9-b561-a804c0959d48"},"vehicle_type_id":"4","last_reported":1735654061,"current_range_meters":39200,"station_id":"ce4bhdp2rcd13ifvqf20","pricing_plan_id":"cebpf4jnsgd1na2vs0mg"},{"bike_id":"bf67025f-105f-4c5d-8c1a-1561c1435c13","system_id":"levelo_inurba_marseille","lat":43.27168,"lon":5.40998,"is_reserved":false,"is_disabled":false,"rental_uris":{"android":"levelo://app?vid=bf67025f-105f-4c5d-8c1a-1561c1435c13","ios":"levelo://app?vid=bf67025f-105f-4c5d-8c1a-1561c1435c13"},"vehicle_type_id":"4","last_reported":1735654061,"current_range_meters":24000,"station_id":"ce4bhl12rcd13ifvqgf0","pricing_plan_id":"cebpf4jnsgd1na2vs0mg"},{"bike_id":"7bc2c992-296b-471e-a191-e9957f218908","system_id":"levelo_inurba_marseille","lat":43.2848,"lon":5.38567,"is_reserved":false,"is_disabled":false,"rental_uris":{"android":"levelo://app?vid=7bc2c992-296b-471e-a191-e9957f218908","ios":"levelo://app?vid=7bc2c992-296b-471e-a191-e9957f218908"},"vehicle_type_id":"4","last_reported":1735654061,"current_range_meters":21600,"station_id":"ce4bh8p2rcd13ifvqeb0","pricing_plan_id":"cebpf4jnsgd1na2vs0mg"},{"bike_id":"1636a898-fbad-4f15-b1db-ef6a81dd0bb6","system_id":"levelo_inurba_marseille","lat":43.292022,"lon":5.358027,"is_reserved":false,"is_disabled":false,"rental_uris":{"android":"levelo://app?vid=1636a898-fbad-4f15-b1db-ef6a81dd0bb6","ios":"levelo://app?vid=1636a898-fbad-4f15-b1db-ef6a81dd0bb6"},"vehicle_type_id":"4","last_reported":1735654061,"current_range_meters":37600,"station_id":"ce4bhb12rcd13ifvqel0","pricing_plan_id":"cebpf4jnsgd1na2vs0mg"},{"bike_id":"d62a4688-84db-40f3-ab82-a078c326c52a","system_id":"levelo_inurba_marseille","lat":43.30527,"lon":5.36554,"is_reserved":false,"is_disabled":false,"rental_uris":{"android":"levelo://app?vid=d62a4688-84db-40f3-ab82-a078c326c52a","ios":"levelo://app?vid=d62a4688-84db-40f3-ab82-a078c326c52a"},"vehicle_type_id":"4","last_reported":1735654061,"current_range_meters":33600,"station_id":"ce4bgs12rcd13ifvqcag","pricing_plan_id":"cebpf4jnsgd1na2vs0mg"},{"bike_id":"d62de993-7642-4856-a504-ff6a4fa22887","system_id":"levelo_inurba_marseille","lat":43.337444,"lon":5.374475,"is_reserved":false,"is_disabled":false,"rental_uris":{"android":"levelo://app?vid=d62de993-7642-4856-a504-ff6a4fa22887","ios":"levelo://app?vid=d62de993-7642-4856-a504-ff6a4fa22887"},"vehicle_type_id":"4","last_reported":1735654061,"current_range_meters":38800,"station_id":"","pricing_plan_id":"cebpf4jnsgd1na2vs0mg"},{"bike_id":"1a821a66-e0f6-4530-86b3-250338051818","system_id":"levelo_inurba_marseille","lat":43.27068,"lon":5.42294,"is_reserved":false,"is_disabled":false,"rental_uris":{"android":"levelo://app?vid=1a821a66-e0f6-4530-86b3-250338051818","ios":"levelo://app?vid=1a821a66-e0f6-4530-86b3-250338051818"},"vehicle_type_id":"4","last_reported":1735654061,"current_range_meters":38800,"station_id":"ce4bhk92rcd13ifvqgb0","pricing_plan_id":"cebpf4jnsgd1na2vs0mg"},{"bike_id":"f245617d-a787-4211-9327-d50956fbd801","system_id":"levelo_inurba_marseille","lat":43.22924,"lon":5.35385,"is_reserved":false,"is_disabled":false,"rental_uris":{"android":"levelo://app?vid=f245617d-a787-4211-9327-d50956fbd801","ios":"levelo://app?vid=f245617d-a787-4211-9327-d50956fbd801"},"vehicle_type_id":"4","last_reported":1735654061,"current_range_meters":20000,"station_id":"cpo3532slgdg3j2ikp40","pricing_plan_id":"cebpf4jnsgd1na2vs0mg"},{"bike_id":"a63d74e4-f257-4d94-9bc6-8b8c030a11c2","system_id":"levelo_inurba_marseille","lat":43.23135,"lon":5.43715,"is_reserved":false,"is_disabled":false,"rental_uris":{"android":"levelo://app?vid=a63d74e4-f257-4d94-9bc6-8b8c030a11c2","ios":"levelo://app?vid=a63d74e4-f257-4d94-9bc6-8b8c030a11c2"},"vehicle_type_id":"4","last_reported":1735654061,"current_range_meters":36400,"station_id":"ce4bhmp2rcd13ifvqgog","pricing_plan_id":"cebpf4jnsgd1na2vs0mg"},{"bike_id":"f5997a88-606e-48c9-933e-041b10894cea","system_id":"levelo_inurba_marseille","lat":43.2707,"lon":5.42281,"is_reserved":false,"is_disabled":false,"rental_uris":{"android":"levelo://app?vid=f5997a88-606e-48c9-933e-041b10894cea","ios":"levelo://app?vid=f5997a88-606e-48c9-933e-041b10894cea"},"vehicle_type_id":"4","last_reported":1735654061,"current_range_meters":24400,"station_id":"ce4bhk92rcd13ifvqgb0","pricing_plan_id":"cebpf4jnsgd1na2vs0mg"},{"bike_id":"0450aa1d-2e3c-4e15-b1dc-91e114518a27","system_id":"levelo_inurba_marseille","lat":43.2985,"lon":5.3627,"is_reserved":false,"is_disabled":false,"rental_uris":{"android":"levelo://app?vid=0450aa1d-2e3c-4e15-b1dc-91e114518a27","ios":"levelo://app?vid=0450aa1d-2e3c-4e15-b1dc-91e114518a27"},"vehicle_type_id":"4","last_reported":1735654061,"current_range_meters":33200,"station_id":"ce4bgpp2rcd13ifvqc3g","pricing_plan_id":"cebpf4jnsgd1na2vs0mg"},{"bike_id":"73ca5d84-a6e3-49c9-a8ea-23faa3eb40bb","system_id":"levelo_inurba_marseille","lat":43.30526,"lon":5.36708,"is_reserved":false,"is_disabled":false,"rental_uris":{"android":"levelo://app?vid=73ca5d84-a6e3-49c9-a8ea-23faa3eb40bb","ios":"levelo://app?vid=73ca5d84-a6e3-49c9-a8ea-23faa3eb40bb"},"vehicle_type_id":"4","last_reported":1735654061,"current_range_meters":38800,"station_id":"ce4bgrp2rcd13ifvqc9g","pricing_plan_id":"cebpf4jnsgd1na2vs0mg"},{"bike_id":"f8632b8a-dba7-414c-9580-e3984c6c4549","system_id":"levelo_inurba_marseille","lat":43.295906,"lon":5.367392,"is_reserved":false,"is_disabled":false,"rental_uris":{"android":"levelo://app?vid=f8632b8a-dba7-414c-9580-e3984c6c4549","ios":"levelo://app?vid=f8632b8a-dba7-414c-9580-e3984c6c4549"},"vehicle_type_id":"4","last_reported":1735654061,"current_range_meters":38800,"station_id":"ce4bgph2rcd13ifvqc2g","pricing_plan_id":"cebpf4jnsgd1na2vs0mg"},{"bike_id":"dbc25549-89f2-4e1d-87df-8fa80a5742c7","system_id":"levelo_inurba_marseille","lat":43.29552,"lon":5.42289,"is_reserved":false,"is_disabled":false,"rental_uris":{"android":"levelo://app?vid=dbc25549-89f2-4e1d-87df-8fa80a5742c7","ios":"levelo://app?vid=dbc25549-89f2-4e1d-87df-8fa80a5742c7"},"vehicle_type_id":"4","last_reported":1735654061,"current_range_meters":38800,"station_id":"ce4bhph2rcd13ifvqhdg","pricing_plan_id":"cebpf4jnsgd1na2vs0mg"},{"bike_id":"4ae90592-e920-400e-8a25-b327a1d3d78f","system_id":"levelo_inurba_marseille","lat":43.24656,"lon":5.38158,"is_reserved":false,"is_disabled":false,"rental_uris":{"android":"levelo://app?vid=4ae90592-e920-400e-8a25-b327a1d3d78f","ios":"levelo://app?vid=4ae90592-e920-400e-8a25-b327a1d3d78f"},"vehicle_type_id":"4","last_reported":1735654061,"current_range_meters":6800,"station_id":"ce4bhih2rcd13ifvqfr0","pricing_plan_id":"cebpf4jnsgd1na2vs0mg"},{"bike_id":"4667387b-d7de-42f7-a615-87f091e510ef","system_id":"levelo_inurba_marseille","lat":43.26673,"lon":5.38265,"is_reserved":false,"is_disabled":false,"rental_uris":{"android":"levelo://app?vid=4667387b-d7de-42f7-a615-87f091e510ef","ios":"levelo://app?vid=4667387b-d7de-42f7-a615-87f091e510ef"},"vehicle_type_id":"4","last_reported":1735654061,"current_range_meters":39200,"station_id":"ce4bhg92rcd13ifvqf90","pricing_plan_id":"cebpf4jnsgd1na2vs0mg"},{"bike_id":"947c605f-d4aa-46b6-9f88-c4b1c90bca37","system_id":"levelo_inurba_marseille","lat":43.23191,"lon":5.35559,"is_reserved":false,"is_disabled":false,"rental_uris":{"android":"levelo://app?vid=947c605f-d4aa-46b6-9f88-c4b1c90bca37","ios":"levelo://app?vid=947c605f-d4aa-46b6-9f88-c4b1c90bca37"},"vehicle_type_id":"4","last_reported":1735654061,"current_range_meters":37600,"station_id":"ce4bhu92rcd13ifvqi70","pricing_plan_id":"cebpf4jnsgd1na2vs0mg"},{"bike_id":"1e7e0009-7be7-499a-a4d2-a6c912d4dc6f","system_id":"levelo_inurba_marseille","lat":43.295694,"lon":5.37515,"is_reserved":false,"is_disabled":false,"rental_uris":{"android":"levelo://app?vid=1e7e0009-7be7-499a-a4d2-a6c912d4dc6f","ios":"levelo://app?vid=1e7e0009-7be7-499a-a4d2-a6c912d4dc6f"},"vehicle_type_id":"4","last_reported":1735654061,"current_range_meters":35200,"station_id":"ce4bgh92rcd13ifvqb50","pricing_plan_id":"cebpf4jnsgd1na2vs0mg"},{"bike_id":"d4928f38-a45b-4a47-ab4b-9ff0d5257970","system_id":"levelo_inurba_marseille","lat":43.29022,"lon":5.38133,"is_reserved":false,"is_disabled":false,"rental_uris":{"android":"levelo://app?vid=d4928f38-a45b-4a47-ab4b-9ff0d5257970","ios":"levelo://app?vid=d4928f38-a45b-4a47-ab4b-9ff0d5257970"},"vehicle_type_id":"4","last_reported":1735654061,"current_range_meters":34000,"station_id":"ce4bh4p2rcd13ifvqe1g","pricing_plan_id":"cebpf4jnsgd1na2vs0mg"},{"bike_id":"e2e37fcf-bdca-4703-b57b-04e9ac7eb714","system_id":"levelo_inurba_marseille","lat":43.309,"lon":5.37198,"is_reserved":false,"is_disabled":false,"rental_uris":{"android":"levelo://app?vid=e2e37fcf-bdca-4703-b57b-04e9ac7eb714","ios":"levelo://app?vid=e2e37fcf-bdca-4703-b57b-04e9ac7eb714"},"vehicle_type_id":"4","last_reported":1735654061,"current_range_meters":22400,"station_id":"ce4bguh2rcd13ifvqckg","pricing_plan_id":"cebpf4jnsgd1na2vs0mg"},{"bike_id":"3bab2653-c962-46e7-8d14-0cb64372ec3d","system_id":"levelo_inurba_marseille","lat":43.32068,"lon":5.41552,"is_reserved":false,"is_disabled":false,"rental_uris":{"android":"levelo://app?vid=3bab2653-c962-46e7-8d14-0cb64372ec3d","ios":"levelo://app?vid=3bab2653-c962-46e7-8d14-0cb64372ec3d"},"vehicle_type_id":"4","last_reported":1735654061,"current_range_meters":14000,"station_id":"ce4bhq92rcd13ifvqhkg","pricing_plan_id":"cebpf4jnsgd1na2vs0mg"},{"bike_id":"3ea149ac-d8ec-4809-9088-684a254397cf","system_id":"levelo_inurba_marseille","lat":43.273079,"lon":5.39089,"is_reserved":false,"is_disabled":false,"rental_uris":{"android":"levelo://app?vid=3ea149ac-d8ec-4809-9088-684a254397cf","ios":"levelo://app?vid=3ea149ac-d8ec-4809-9088-684a254397cf"},"vehicle_type_id":"4","last_reported":1735654061,"current_range_meters":38800,"station_id":"ce4bhgp2rcd13ifvqfe0","pricing_plan_id":"cebpf4jnsgd1na2vs0mg"},{"bike_id":"7a12a1e2-2584-4ab0-a847-cc76ad81df1c","system_id":"levelo_inurba_marseille","lat":43.29389,"lon":5.37863,"is_reserved":false,"is_disabled":false,"rental_uris":{"android":"levelo://app?vid=7a12a1e2-2584-4ab0-a847-cc76ad81df1c","ios":"levelo://app?vid=7a12a1e2-2584-4ab0-a847-cc76ad81df1c"},"vehicle_type_id":"4","last_reported":1735654061,"current_range_meters":38800,"station_id":"ce4bgjh2rcd13ifvqbf0","pricing_plan_id":"cebpf4jnsgd1na2vs0mg"},{"bike_id":"94e6dee2-3159-449e-9ee5-297188ebe26e","system_id":"levelo_inurba_marseille","lat":43.299213,"lon":5.374595,"is_reserved":false,"is_disabled":false,"rental_uris":{"android":"levelo://app?vid=94e6dee2-3159-449e-9ee5-297188ebe26e","ios":"levelo://app?vid=94e6dee2-3159-449e-9ee5-297188ebe26e"},"vehicle_type_id":"4","last_reported":1735654061,"current_range_meters":25600,"station_id":"ce4bgjh2rcd13ifvqbg0","pricing_plan_id":"cebpf4jnsgd1na2vs0mg"},{"bike_id":"29b57e46-5943-4209-8f6c-25e9857be7af","system_id":"levelo_inurba_marseille","lat":43.29705,"lon":5.37711,"is_reserved":false,"is_disabled":true,"rental_uris":{"android":"levelo://app?vid=29b57e46-5943-4209-8f6c-25e9857be7af","ios":"levelo://app?vid=29b57e46-5943-4209-8f6c-25e9857be7af"},"vehicle_type_id":"4","last_reported":1735654061,"current_range_meters":0,"station_id":"ce4bgkh2rcd13ifvqbl0","pricing_plan_id":"cebpf4jnsgd1na2vs0mg"},{"bike_id":"abb384d4-50ff-4793-a8c5-8fc16babe629","system_id":"levelo_inurba_marseille","lat":43.301321,"lon":5.37435,"is_reserved":false,"is_disabled":false,"rental_uris":{"android":"levelo://app?vid=abb384d4-50ff-4793-a8c5-8fc16babe629","ios":"levelo://app?vid=abb384d4-50ff-4793-a8c5-8fc16babe629"},"vehicle_type_id":"4","last_reported":1735654061,"current_range_meters":38800,"station_id":"ce4bgs92rcd13ifvqcc0","pricing_plan_id":"cebpf4jnsgd1na2vs0mg"},{"bike_id":"56731e3e-7f36-4713-a4bd-24b5ee5d43d3","system_id":"levelo_inurba_marseille","lat":43.28029,"lon":5.36946,"is_reserved":false,"is_disabled":false,"rental_uris":{"android":"levelo://app?vid=56731e3e-7f36-4713-a4bd-24b5ee5d43d3","ios":"levelo://app?vid=56731e3e-7f36-4713-a4bd-24b5ee5d43d3"},"vehicle_type_id":"4","last_reported":1735654061,"current_range_meters":36800,"station_id":"ce4bha12rcd13ifvqef0","pricing_plan_id":"cebpf4jnsgd1na2vs0mg"},{"bike_id":"8cbc8b99-428c-4040-b86c-4e2c4fffea65","system_id":"levelo_inurba_marseille","lat":43.337477,"lon":5.374878,"is_reserved":false,"is_disabled":true,"rental_uris":{"android":"levelo://app?vid=8cbc8b99-428c-4040-b86c-4e2c4fffea65","ios":"levelo://app?vid=8cbc8b99-428c-4040-b86c-4e2c4fffea65"},"vehicle_type_id":"4","last_reported":1735654061,"current_range_meters":38000,"station_id":"","pricing_plan_id":"cebpf4jnsgd1na2vs0mg"},{"bike_id":"65e47f8e-8281-4877-9957-4bbb63858c4d","system_id":"levelo_inurba_marseille","lat":43.2573,"lon":5.41111,"is_reserved":false,"is_disabled":false,"rental_uris":{"android":"levelo://app?vid=65e47f8e-8281-4877-9957-4bbb63858c4d","ios":"levelo://app?vid=65e47f8e-8281-4877-9957-4bbb63858c4d"},"vehicle_type_id":"4","last_reported":1735654061,"current_range_meters":28400,"station_id":"ce4bhkp2rcd13ifvqgd0","pricing_plan_id":"cebpf4jnsgd1na2vs0mg"},{"bike_id":"2e8d009b-afdb-4a51-bba7-ca605c95a3ee","system_id":"levelo_inurba_marseille","lat":43.29149,"lon":5.37167,"is_reserved":false,"is_disabled":false,"rental_uris":{"android":"levelo://app?vid=2e8d009b-afdb-4a51-bba7-ca605c95a3ee","ios":"levelo://app?vid=2e8d009b-afdb-4a51-bba7-ca605c95a3ee"},"vehicle_type_id":"4","last_reported":1735654061,"current_range_meters":30400,"station_id":"ce4bha92rcd13ifvqeh0","pricing_plan_id":"cebpf4jnsgd1na2vs0mg"},{"bike_id":"73a8b095-bee6-42fb-a11d-f93149228c21","system_id":"levelo_inurba_marseille","lat":43.30611,"lon":5.37244,"is_reserved":false,"is_disabled":false,"rental_uris":{"android":"levelo://app?vid=73a8b095-bee6-42fb-a11d-f93149228c21","ios":"levelo://app?vid=73a8b095-bee6-42fb-a11d-f93149228c21"},"vehicle_type_id":"4","last_reported":1735654061,"current_range_meters":27200,"station_id":"ce4bgqh2rcd13ifvqc4g","pricing_plan_id":"cebpf4jnsgd1na2vs0mg"},{"bike_id":"dfade048-e7e3-4b76-9002-9c24cbac4e5c","system_id":"levelo_inurba_marseille","lat":43.29716,"lon":5.37694,"is_reserved":false,"is_disabled":false,"rental_uris":{"android":"levelo://app?vid=dfade048-e7e3-4b76-9002-9c24cbac4e5c","ios":"levelo://app?vid=dfade048-e7e3-4b76-9002-9c24cbac4e5c"},"vehicle_type_id":"4","last_reported":1735654061,"current_range_meters":35200,"station_id":"ce4bgkh2rcd13ifvqbl0","pricing_plan_id":"cebpf4jnsgd1na2vs0mg"},{"bike_id":"9841b93f-e8a5-4096-a194-738fd19d97be","system_id":"levelo_inurba_marseille","lat":43.26488,"lon":5.39566,"is_reserved":false,"is_disabled":false,"rental_uris":{"android":"levelo://app?vid=9841b93f-e8a5-4096-a194-738fd19d97be","ios":"levelo://app?vid=9841b93f-e8a5-4096-a194-738fd19d97be"},"vehicle_type_id":"4","last_reported":1735654061,"current_range_meters":9600,"station_id":"ce4bhi12rcd13ifvqfq0","pricing_plan_id":"cebpf4jnsgd1na2vs0mg"},{"bike_id":"316dc9b3-b8df-4136-86b6-c2c057b83675","system_id":"levelo_inurba_marseille","lat":43.264938,"lon":5.39553,"is_reserved":false,"is_disabled":false,"rental_uris":{"android":"levelo://app?vid=316dc9b3-b8df-4136-86b6-c2c057b83675","ios":"levelo://app?vid=316dc9b3-b8df-4136-86b6-c2c057b83675"},"vehicle_type_id":"4","last_reported":1735654061,"current_range_meters":11200,"station_id":"ce4bhi12rcd13ifvqfq0","pricing_plan_id":"cebpf4jnsgd1na2vs0mg"},{"bike_id":"e613d054-aaa4-41e3-932f-9df454174d11","system_id":"levelo_inurba_marseille","lat":43.29458,"lon":5.39749,"is_reserved":false,"is_disabled":false,"rental_uris":{"android":"levelo://app?vid=e613d054-aaa4-41e3-932f-9df454174d11","ios":"levelo://app?vid=e613d054-aaa4-41e3-932f-9df454174d11"},"vehicle_type_id":"4","last_reported":1735654061,"current_range_meters":38400,"station_id":"ce4bh3h2rcd13ifvqdo0","pricing_plan_id":"cebpf4jnsgd1na2vs0mg"},{"bike_id":"74bfd52b-7e46-465d-8766-e79667dc7763","system_id":"levelo_inurba_marseille","lat":43.320588,"lon":5.415379,"is_reserved":false,"is_disabled":false,"rental_uris":{"android":"levelo://app?vid=74bfd52b-7e46-465d-8766-e79667dc7763","ios":"levelo://app?vid=74bfd52b-7e46-465d-8766-e79667dc7763"},"vehicle_type_id":"4","last_reported":1735654061,"current_range_meters":38800,"station_id":"ce4bhq92rcd13ifvqhkg","pricing_plan_id":"cebpf4jnsgd1na2vs0mg"},{"bike_id":"393e71c9-0198-4d45-bd8d-1ec9c786b251","system_id":"levelo_inurba_marseille","lat":43.30093,"lon":5.39079,"is_reserved":false,"is_disabled":false,"rental_uris":{"android":"levelo://app?vid=393e71c9-0198-4d45-bd8d-1ec9c786b251","ios":"levelo://app?vid=393e71c9-0198-4d45-bd8d-1ec9c786b251"},"vehicle_type_id":"4","last_reported":1735654061,"current_range_meters":36800,"station_id":"ce4bh192rcd13ifvqdb0","pricing_plan_id":"cebpf4jnsgd1na2vs0mg"},{"bike_id":"a9ad46d6-1750-405f-8074-9378a5ffcb62","system_id":"levelo_inurba_marseille","lat":43.29568,"lon":5.37515,"is_reserved":false,"is_disabled":false,"rental_uris":{"android":"levelo://app?vid=a9ad46d6-1750-405f-8074-9378a5ffcb62","ios":"levelo://app?vid=a9ad46d6-1750-405f-8074-9378a5ffcb62"},"vehicle_type_id":"4","last_reported":1735654061,"current_range_meters":25200,"station_id":"ce4bgh92rcd13ifvqb50","pricing_plan_id":"cebpf4jnsgd1na2vs0mg"},{"bike_id":"df334d50-4421-42a5-a762-fb7f39807cc1","system_id":"levelo_inurba_marseille","lat":43.33779,"lon":5.37425,"is_reserved":false,"is_disabled":false,"rental_uris":{"android":"levelo://app?vid=df334d50-4421-42a5-a762-fb7f39807cc1","ios":"levelo://app?vid=df334d50-4421-42a5-a762-fb7f39807cc1"},"vehicle_type_id":"4","last_reported":1735654061,"current_range_meters":24400,"station_id":"","pricing_plan_id":"cebpf4jnsgd1na2vs0mg"},{"bike_id":"06a845ee-9c64-4db7-8cf7-04ee769e84b3","system_id":"levelo_inurba_marseille","lat":43.25113,"lon":5.4032,"is_reserved":false,"is_disabled":false,"rental_uris":{"android":"levelo://app?vid=06a845ee-9c64-4db7-8cf7-04ee769e84b3","ios":"levelo://app?vid=06a845ee-9c64-4db7-8cf7-04ee769e84b3"},"vehicle_type_id":"4","last_reported":1735654061,"current_range_meters":22800,"station_id":"ce4bhlh2rcd13ifvqgig","pricing_plan_id":"cebpf4jnsgd1na2vs0mg"},{"bike_id":"db32cf0d-643f-4166-93d9-c2dd42363683","system_id":"levelo_inurba_marseille","lat":43.303054,"lon":5.369049,"is_reserved":false,"is_disabled":false,"rental_uris":{"android":"levelo://app?vid=db32cf0d-643f-4166-93d9-c2dd42363683","ios":"levelo://app?vid=db32cf0d-643f-4166-93d9-c2dd42363683"},"vehicle_type_id":"4","last_reported":1735654061,"current_range_meters":27600,"station_id":"ce4bgqh2rcd13ifvqc5g","pricing_plan_id":"cebpf4jnsgd1na2vs0mg"},{"bike_id":"1dc87019-fa98-4031-b231-2836c686eb68","system_id":"levelo_inurba_marseille","lat":43.2841,"lon":5.34992,"is_reserved":false,"is_disabled":false,"rental_uris":{"android":"levelo://app?vid=1dc87019-fa98-4031-b231-2836c686eb68","ios":"levelo://app?vid=1dc87019-fa98-4031-b231-2836c686eb68"},"vehicle_type_id":"4","last_reported":1735654061,"current_range_meters":11600,"station_id":"ce4bhbh2rcd13ifvqepg","pricing_plan_id":"cebpf4jnsgd1na2vs0mg"},{"bike_id":"b0286157-8666-4de5-bcfc-57adf665a11a","system_id":"levelo_inurba_marseille","lat":43.30599,"lon":5.37234,"is_reserved":false,"is_disabled":false,"rental_uris":{"android":"levelo://app?vid=b0286157-8666-4de5-bcfc-57adf665a11a","ios":"levelo://app?vid=b0286157-8666-4de5-bcfc-57adf665a11a"},"vehicle_type_id":"4","last_reported":1735654061,"current_range_meters":38800,"station_id":"ce4bgqh2rcd13ifvqc4g","pricing_plan_id":"cebpf4jnsgd1na2vs0mg"},{"bike_id":"923c8f4c-11ee-4d68-88a4-4f22af762798","system_id":"levelo_inurba_marseille","lat":43.32485,"lon":5.36571,"is_reserved":false,"is_disabled":false,"rental_uris":{"android":"levelo://app?vid=923c8f4c-11ee-4d68-88a4-4f22af762798","ios":"levelo://app?vid=923c8f4c-11ee-4d68-88a4-4f22af762798"},"vehicle_type_id":"4","last_reported":1735654061,"current_range_meters":31200,"station_id":"ce4bhs12rcd13ifvqhvg","pricing_plan_id":"cebpf4jnsgd1na2vs0mg"},{"bike_id":"5367a292-5564-4681-91cd-97babb89fc00","system_id":"levelo_inurba_marseille","lat":43.22927,"lon":5.35359,"is_reserved":false,"is_disabled":false,"rental_uris":{"android":"levelo://app?vid=5367a292-5564-4681-91cd-97babb89fc00","ios":"levelo://app?vid=5367a292-5564-4681-91cd-97babb89fc00"},"vehicle_type_id":"4","last_reported":1735654061,"current_range_meters":27600,"station_id":"cpo3532slgdg3j2ikp40","pricing_plan_id":"cebpf4jnsgd1na2vs0mg"},{"bike_id":"0483d5a5-12c2-4b90-8e6c-47d6d5a4b82c","system_id":"levelo_inurba_marseille","lat":43.25822,"lon":5.39437,"is_reserved":false,"is_disabled":false,"rental_uris":{"android":"levelo://app?vid=0483d5a5-12c2-4b90-8e6c-47d6d5a4b82c","ios":"levelo://app?vid=0483d5a5-12c2-4b90-8e6c-47d6d5a4b82c"},"vehicle_type_id":"4","last_reported":1735654061,"current_range_meters":38800,"station_id":"ce4bhip2rcd13ifvqft0","pricing_plan_id":"cebpf4jnsgd1na2vs0mg"},{"bike_id":"523f53b8-d5fa-4c60-a25e-8902b398e89d","system_id":"levelo_inurba_marseille","lat":43.29554,"lon":5.42275,"is_reserved":false,"is_disabled":false,"rental_uris":{"android":"levelo://app?vid=523f53b8-d5fa-4c60-a25e-8902b398e89d","ios":"levelo://app?vid=523f53b8-d5fa-4c60-a25e-8902b398e89d"},"vehicle_type_id":"4","last_reported":1735654061,"current_range_meters":38800,"station_id":"ce4bhph2rcd13ifvqhdg","pricing_plan_id":"cebpf4jnsgd1na2vs0mg"},{"bike_id":"742a68bc-68fb-48aa-aad7-6fa68f68cfb6","system_id":"levelo_inurba_marseille","lat":43.3087,"lon":5.37192,"is_reserved":false,"is_disabled":false,"rental_uris":{"android":"levelo://app?vid=742a68bc-68fb-48aa-aad7-6fa68f68cfb6","ios":"levelo://app?vid=742a68bc-68fb-48aa-aad7-6fa68f68cfb6"},"vehicle_type_id":"4","last_reported":1735654061,"current_range_meters":38000,"station_id":"ce4bguh2rcd13ifvqckg","pricing_plan_id":"cebpf4jnsgd1na2vs0mg"},{"bike_id":"c6eedc9a-d2e0-4edf-a75c-a45a3178a9ec","system_id":"levelo_inurba_marseille","lat":43.26032,"lon":5.37548,"is_reserved":false,"is_disabled":false,"rental_uris":{"android":"levelo://app?vid=c6eedc9a-d2e0-4edf-a75c-a45a3178a9ec","ios":"levelo://app?vid=c6eedc9a-d2e0-4edf-a75c-a45a3178a9ec"},"vehicle_type_id":"4","last_reported":1735654061,"current_range_meters":38800,"station_id":"ce4bhgh2rcd13ifvqfa0","pricing_plan_id":"cebpf4jnsgd1na2vs0mg"},{"bike_id":"94d38955-21a2-4852-a963-0a3cc1374e49","system_id":"levelo_inurba_marseille","lat":43.23196,"lon":5.35549,"is_reserved":false,"is_disabled":false,"rental_uris":{"android":"levelo://app?vid=94d38955-21a2-4852-a963-0a3cc1374e49","ios":"levelo://app?vid=94d38955-21a2-4852-a963-0a3cc1374e49"},"vehicle_type_id":"4","last_reported":1735654061,"current_range_meters":38000,"station_id":"ce4bhu92rcd13ifvqi70","pricing_plan_id":"cebpf4jnsgd1na2vs0mg"},{"bike_id":"e53a814f-c190-4153-a68e-519bc61d22d3","system_id":"levelo_inurba_marseille","lat":43.24542,"lon":5.39518,"is_reserved":false,"is_disabled":false,"rental_uris":{"android":"levelo://app?vid=e53a814f-c190-4153-a68e-519bc61d22d3","ios":"levelo://app?vid=e53a814f-c190-4153-a68e-519bc61d22d3"},"vehicle_type_id":"4","last_reported":1735654061,"current_range_meters":20000,"station_id":"ce4bhlp2rcd13ifvqgjg","pricing_plan_id":"cebpf4jnsgd1na2vs0mg"},{"bike_id":"456e17e5-82ab-4078-bcdd-3c2f5d184ff4","system_id":"levelo_inurba_marseille","lat":43.29253,"lon":5.38449,"is_reserved":false,"is_disabled":false,"rental_uris":{"android":"levelo://app?vid=456e17e5-82ab-4078-bcdd-3c2f5d184ff4","ios":"levelo://app?vid=456e17e5-82ab-4078-bcdd-3c2f5d184ff4"},"vehicle_type_id":"4","last_reported":1735654061,"current_range_meters":39200,"station_id":"ce4bh692rcd13ifvqea0","pricing_plan_id":"cebpf4jnsgd1na2vs0mg"},{"bike_id":"3c86290a-bf40-45fc-9b03-c6c2acf613b8","system_id":"levelo_inurba_marseille","lat":43.29591,"lon":5.38093,"is_reserved":false,"is_disabled":false,"rental_uris":{"android":"levelo://app?vid=3c86290a-bf40-45fc-9b03-c6c2acf613b8","ios":"levelo://app?vid=3c86290a-bf40-45fc-9b03-c6c2acf613b8"},"vehicle_type_id":"4","last_reported":1735654061,"current_range_meters":32400,"station_id":"ce4bgl12rcd13ifvqbo0","pricing_plan_id":"cebpf4jnsgd1na2vs0mg"},{"bike_id":"eda2af5f-a7e4-44d9-a394-a09ec9bad586","system_id":"levelo_inurba_marseille","lat":43.29879,"lon":5.3891,"is_reserved":false,"is_disabled":false,"rental_uris":{"android":"levelo://app?vid=eda2af5f-a7e4-44d9-a394-a09ec9bad586","ios":"levelo://app?vid=eda2af5f-a7e4-44d9-a394-a09ec9bad586"},"vehicle_type_id":"4","last_reported":1735654061,"current_range_meters":16400,"station_id":"ce4bh392rcd13ifvqdl0","pricing_plan_id":"cebpf4jnsgd1na2vs0mg"},{"bike_id":"ca497fc6-cd22-4171-8d71-508c45bf12cf","system_id":"levelo_inurba_marseille","lat":43.2962,"lon":5.3717,"is_reserved":false,"is_disabled":false,"rental_uris":{"android":"levelo://app?vid=ca497fc6-cd22-4171-8d71-508c45bf12cf","ios":"levelo://app?vid=ca497fc6-cd22-4171-8d71-508c45bf12cf"},"vehicle_type_id":"4","last_reported":1735654061,"current_range_meters":17200,"station_id":"ce4bgnh2rcd13ifvqc0g","pricing_plan_id":"cebpf4jnsgd1na2vs0mg"},{"bike_id":"fdcb93a4-8a39-475e-8a0d-caf375d10c96","system_id":"levelo_inurba_marseille","lat":43.29566,"lon":5.37509,"is_reserved":false,"is_disabled":false,"rental_uris":{"android":"levelo://app?vid=fdcb93a4-8a39-475e-8a0d-caf375d10c96","ios":"levelo://app?vid=fdcb93a4-8a39-475e-8a0d-caf375d10c96"},"vehicle_type_id":"4","last_reported":1735654061,"current_range_meters":36400,"station_id":"ce4bgh92rcd13ifvqb50","pricing_plan_id":"cebpf4jnsgd1na2vs0mg"},{"bike_id":"179f7c7e-cf60-4979-b064-1b4336e1db8c","system_id":"levelo_inurba_marseille","lat":43.27825,"lon":5.39219,"is_reserved":false,"is_disabled":false,"rental_uris":{"android":"levelo://app?vid=179f7c7e-cf60-4979-b064-1b4336e1db8c","ios":"levelo://app?vid=179f7c7e-cf60-4979-b064-1b4336e1db8c"},"vehicle_type_id":"4","last_reported":1735654061,"current_range_meters":37600,"station_id":"ce4bhjp2rcd13ifvqga0","pricing_plan_id":"cebpf4jnsgd1na2vs0mg"},{"bike_id":"c7a5c9c7-3430-4156-9d90-b61acb6089ec","system_id":"levelo_inurba_marseille","lat":43.27434,"lon":5.39417,"is_reserved":false,"is_disabled":false,"rental_uris":{"android":"levelo://app?vid=c7a5c9c7-3430-4156-9d90-b61acb6089ec","ios":"levelo://app?vid=c7a5c9c7-3430-4156-9d90-b61acb6089ec"},"vehicle_type_id":"4","last_reported":1735654061,"current_range_meters":27600,"station_id":"ce4bhdp2rcd13ifvqf20","pricing_plan_id":"cebpf4jnsgd1na2vs0mg"},{"bike_id":"625418e1-f1a6-4f0a-83f3-7b3b4a929d32","system_id":"levelo_inurba_marseille","lat":43.27192,"lon":5.39178,"is_reserved":false,"is_disabled":false,"rental_uris":{"android":"levelo://app?vid=625418e1-f1a6-4f0a-83f3-7b3b4a929d32","ios":"levelo://app?vid=625418e1-f1a6-4f0a-83f3-7b3b4a929d32"},"vehicle_type_id":"4","last_reported":1735654061,"current_range_meters":38400,"station_id":"ce4bhhp2rcd13ifvqfm0","pricing_plan_id":"cebpf4jnsgd1na2vs0mg"},{"bike_id":"dac94ecf-3203-4c89-acc0-21c14e979588","system_id":"levelo_inurba_marseille","lat":43.26686,"lon":5.38275,"is_reserved":false,"is_disabled":false,"rental_uris":{"android":"levelo://app?vid=dac94ecf-3203-4c89-acc0-21c14e979588","ios":"levelo://app?vid=dac94ecf-3203-4c89-acc0-21c14e979588"},"vehicle_type_id":"4","last_reported":1735654061,"current_range_meters":16000,"station_id":"ce4bhg92rcd13ifvqf90","pricing_plan_id":"cebpf4jnsgd1na2vs0mg"},{"bike_id":"b291cca0-9b42-4483-ae19-0803205cf5d8","system_id":"levelo_inurba_marseille","lat":43.29263,"lon":5.38443,"is_reserved":false,"is_disabled":false,"rental_uris":{"android":"levelo://app?vid=b291cca0-9b42-4483-ae19-0803205cf5d8","ios":"levelo://app?vid=b291cca0-9b42-4483-ae19-0803205cf5d8"},"vehicle_type_id":"4","last_reported":1735654061,"current_range_meters":29600,"station_id":"ce4bh692rcd13ifvqea0","pricing_plan_id":"cebpf4jnsgd1na2vs0mg"},{"bike_id":"d0187ed9-1b0c-469e-9167-b3ccc990fe12","system_id":"levelo_inurba_marseille","lat":43.32533,"lon":5.41452,"is_reserved":false,"is_disabled":false,"rental_uris":{"android":"levelo://app?vid=d0187ed9-1b0c-469e-9167-b3ccc990fe12","ios":"levelo://app?vid=d0187ed9-1b0c-469e-9167-b3ccc990fe12"},"vehicle_type_id":"4","last_reported":1735654061,"current_range_meters":38400,"station_id":"ce4bhq12rcd13ifvqhhg","pricing_plan_id":"cebpf4jnsgd1na2vs0mg"},{"bike_id":"9c42c59a-a990-48ee-91ac-32ebebcaabf5","system_id":"levelo_inurba_marseille","lat":43.275681,"lon":5.384121,"is_reserved":false,"is_disabled":false,"rental_uris":{"android":"levelo://app?vid=9c42c59a-a990-48ee-91ac-32ebebcaabf5","ios":"levelo://app?vid=9c42c59a-a990-48ee-91ac-32ebebcaabf5"},"vehicle_type_id":"4","last_reported":1735654061,"current_range_meters":39200,"station_id":"ce4bhh92rcd13ifvqfi0","pricing_plan_id":"cebpf4jnsgd1na2vs0mg"},{"bike_id":"33627164-74dc-4db2-a6ec-b1f60092e8e5","system_id":"levelo_inurba_marseille","lat":43.30292,"lon":5.36912,"is_reserved":false,"is_disabled":false,"rental_uris":{"android":"levelo://app?vid=33627164-74dc-4db2-a6ec-b1f60092e8e5","ios":"levelo://app?vid=33627164-74dc-4db2-a6ec-b1f60092e8e5"},"vehicle_type_id":"4","last_reported":1735654061,"current_range_meters":33200,"station_id":"ce4bgqh2rcd13ifvqc5g","pricing_plan_id":"cebpf4jnsgd1na2vs0mg"},{"bike_id":"d302ac21-f9d9-4202-903a-56cd6afc41c0","system_id":"levelo_inurba_marseille","lat":43.29291,"lon":5.37455,"is_reserved":false,"is_disabled":false,"rental_uris":{"android":"levelo://app?vid=d302ac21-f9d9-4202-903a-56cd6afc41c0","ios":"levelo://app?vid=d302ac21-f9d9-4202-903a-56cd6afc41c0"},"vehicle_type_id":"4","last_reported":1735654061,"current_range_meters":32400,"station_id":"ce4bgi12rcd13ifvqb70","pricing_plan_id":"cebpf4jnsgd1na2vs0mg"},{"bike_id":"c7aba7d9-d022-4fb9-82fc-f90434ca21be","system_id":"levelo_inurba_marseille","lat":43.29046,"lon":5.39954,"is_reserved":false,"is_disabled":false,"rental_uris":{"android":"levelo://app?vid=c7aba7d9-d022-4fb9-82fc-f90434ca21be","ios":"levelo://app?vid=c7aba7d9-d022-4fb9-82fc-f90434ca21be"},"vehicle_type_id":"4","last_reported":1735654061,"current_range_meters":6800,"station_id":"ce4bh392rcd13ifvqdm0","pricing_plan_id":"cebpf4jnsgd1na2vs0mg"},{"bike_id":"058dbc98-6f64-4f32-b9b0-2195949715f4","system_id":"levelo_inurba_marseille","lat":43.27817,"lon":5.39212,"is_reserved":false,"is_disabled":false,"rental_uris":{"android":"levelo://app?vid=058dbc98-6f64-4f32-b9b0-2195949715f4","ios":"levelo://app?vid=058dbc98-6f64-4f32-b9b0-2195949715f4"},"vehicle_type_id":"4","last_reported":1735654061,"current_range_meters":4800,"station_id":"ce4bhjp2rcd13ifvqga0","pricing_plan_id":"cebpf4jnsgd1na2vs0mg"},{"bike_id":"477549f8-3ea7-4189-964f-26bca2791d6d","system_id":"levelo_inurba_marseille","lat":43.32536,"lon":5.41458,"is_reserved":false,"is_disabled":false,"rental_uris":{"android":"levelo://app?vid=477549f8-3ea7-4189-964f-26bca2791d6d","ios":"levelo://app?vid=477549f8-3ea7-4189-964f-26bca2791d6d"},"vehicle_type_id":"4","last_reported":1735654061,"current_range_meters":37600,"station_id":"ce4bhq12rcd13ifvqhhg","pricing_plan_id":"cebpf4jnsgd1na2vs0mg"},{"bike_id":"ddaa2fb9-dbb8-4086-8c94-de0ff251173c","system_id":"levelo_inurba_marseille","lat":43.27816,"lon":5.39213,"is_reserved":false,"is_disabled":false,"rental_uris":{"android":"levelo://app?vid=ddaa2fb9-dbb8-4086-8c94-de0ff251173c","ios":"levelo://app?vid=ddaa2fb9-dbb8-4086-8c94-de0ff251173c"},"vehicle_type_id":"4","last_reported":1735654061,"current_range_meters":38000,"station_id":"ce4bhjp2rcd13ifvqga0","pricing_plan_id":"cebpf4jnsgd1na2vs0mg"},{"bike_id":"b5f1cb34-1fef-4806-9758-3cf4cf172f13","system_id":"levelo_inurba_marseille","lat":43.28034,"lon":5.36936,"is_reserved":false,"is_disabled":false,"rental_uris":{"android":"levelo://app?vid=b5f1cb34-1fef-4806-9758-3cf4cf172f13","ios":"levelo://app?vid=b5f1cb34-1fef-4806-9758-3cf4cf172f13"},"vehicle_type_id":"4","last_reported":1735654061,"current_range_meters":38800,"station_id":"ce4bha12rcd13ifvqef0","pricing_plan_id":"cebpf4jnsgd1na2vs0mg"},{"bike_id":"9c1ff583-8c67-46c7-9cc0-403d0e93a126","system_id":"levelo_inurba_marseille","lat":43.28661,"lon":5.36103,"is_reserved":false,"is_disabled":false,"rental_uris":{"android":"levelo://app?vid=9c1ff583-8c67-46c7-9cc0-403d0e93a126","ios":"levelo://app?vid=9c1ff583-8c67-46c7-9cc0-403d0e93a126"},"vehicle_type_id":"4","last_reported":1735654061,"current_range_meters":38800,"station_id":"cki0cbj6b192h4jlfktg","pricing_plan_id":"cebpf4jnsgd1na2vs0mg"},{"bike_id":"c3f42f77-53b0-4928-ba37-aa03113e5742","system_id":"levelo_inurba_marseille","lat":43.26682,"lon":5.38255,"is_reserved":false,"is_disabled":false,"rental_uris":{"android":"levelo://app?vid=c3f42f77-53b0-4928-ba37-aa03113e5742","ios":"levelo://app?vid=c3f42f77-53b0-4928-ba37-aa03113e5742"},"vehicle_type_id":"4","last_reported":1735654061,"current_range_meters":38000,"station_id":"ce4bhg92rcd13ifvqf90","pricing_plan_id":"cebpf4jnsgd1na2vs0mg"},{"bike_id":"b4ad7508-3e5f-4fca-8741-2498272963d1","system_id":"levelo_inurba_marseille","lat":43.28275,"lon":5.35087,"is_reserved":false,"is_disabled":false,"rental_uris":{"android":"levelo://app?vid=b4ad7508-3e5f-4fca-8741-2498272963d1","ios":"levelo://app?vid=b4ad7508-3e5f-4fca-8741-2498272963d1"},"vehicle_type_id":"4","last_reported":1735654061,"current_range_meters":36800,"station_id":"ce4bhbp2rcd13ifvqerg","pricing_plan_id":"cebpf4jnsgd1na2vs0mg"},{"bike_id":"0d02c513-ca2e-4e40-9108-e87868ca0473","system_id":"levelo_inurba_marseille","lat":43.28156,"lon":5.42635,"is_reserved":false,"is_disabled":false,"rental_uris":{"android":"levelo://app?vid=0d02c513-ca2e-4e40-9108-e87868ca0473","ios":"levelo://app?vid=0d02c513-ca2e-4e40-9108-e87868ca0473"},"vehicle_type_id":"4","last_reported":1735654061,"current_range_meters":27600,"station_id":"ce4bhnh2rcd13ifvqgug","pricing_plan_id":"cebpf4jnsgd1na2vs0mg"},{"bike_id":"15638521-26ba-4496-94b7-cbefac6b558d","system_id":"levelo_inurba_marseille","lat":43.23062,"lon":5.35482,"is_reserved":false,"is_disabled":false,"rental_uris":{"android":"levelo://app?vid=15638521-26ba-4496-94b7-cbefac6b558d","ios":"levelo://app?vid=15638521-26ba-4496-94b7-cbefac6b558d"},"vehicle_type_id":"4","last_reported":1735654061,"current_range_meters":17600,"station_id":"cpo3342slgdg3j2ifvpg","pricing_plan_id":"cebpf4jnsgd1na2vs0mg"},{"bike_id":"aba77de7-e5c5-4bb0-82c3-f89fc6727dc8","system_id":"levelo_inurba_marseille","lat":43.25724,"lon":5.4111,"is_reserved":false,"is_disabled":false,"rental_uris":{"android":"levelo://app?vid=aba77de7-e5c5-4bb0-82c3-f89fc6727dc8","ios":"levelo://app?vid=aba77de7-e5c5-4bb0-82c3-f89fc6727dc8"},"vehicle_type_id":"4","last_reported":1735654061,"current_range_meters":38800,"station_id":"ce4bhkp2rcd13ifvqgd0","pricing_plan_id":"cebpf4jnsgd1na2vs0mg"},{"bike_id":"9491c45b-577c-4aa6-a7cc-82502b6825b0","system_id":"levelo_inurba_marseille","lat":43.29672,"lon":5.37297,"is_reserved":false,"is_disabled":false,"rental_uris":{"android":"levelo://app?vid=9491c45b-577c-4aa6-a7cc-82502b6825b0","ios":"levelo://app?vid=9491c45b-577c-4aa6-a7cc-82502b6825b0"},"vehicle_type_id":"4","last_reported":1735654061,"current_range_meters":39200,"station_id":"ce4bgk12rcd13ifvqbj0","pricing_plan_id":"cebpf4jnsgd1na2vs0mg"},{"bike_id":"06e6f4bf-73d4-4c64-a08b-f60c3ad8da9c","system_id":"levelo_inurba_marseille","lat":43.30154,"lon":5.36638,"is_reserved":false,"is_disabled":false,"rental_uris":{"android":"levelo://app?vid=06e6f4bf-73d4-4c64-a08b-f60c3ad8da9c","ios":"levelo://app?vid=06e6f4bf-73d4-4c64-a08b-f60c3ad8da9c"},"vehicle_type_id":"4","last_reported":1735654061,"current_range_meters":39200,"station_id":"ce4bgrh2rcd13ifvqc8g","pricing_plan_id":"cebpf4jnsgd1na2vs0mg"},{"bike_id":"424dd3f3-53bf-4715-a29e-26ccf182f0e1","system_id":"levelo_inurba_marseille","lat":43.29277,"lon":5.36847,"is_reserved":false,"is_disabled":false,"rental_uris":{"android":"levelo://app?vid=424dd3f3-53bf-4715-a29e-26ccf182f0e1","ios":"levelo://app?vid=424dd3f3-53bf-4715-a29e-26ccf182f0e1"},"vehicle_type_id":"4","last_reported":1735654061,"current_range_meters":30400,"station_id":"ce4bhbp2rcd13ifvqesg","pricing_plan_id":"cebpf4jnsgd1na2vs0mg"},{"bike_id":"cc6187a7-9348-475a-94e1-760441b17aaf","system_id":"levelo_inurba_marseille","lat":43.29016,"lon":5.38147,"is_reserved":false,"is_disabled":false,"rental_uris":{"android":"levelo://app?vid=cc6187a7-9348-475a-94e1-760441b17aaf","ios":"levelo://app?vid=cc6187a7-9348-475a-94e1-760441b17aaf"},"vehicle_type_id":"4","last_reported":1735654061,"current_range_meters":38800,"station_id":"ce4bh4p2rcd13ifvqe1g","pricing_plan_id":"cebpf4jnsgd1na2vs0mg"},{"bike_id":"a2c981a9-118a-4e0c-9c91-df48407f1dcd","system_id":"levelo_inurba_marseille","lat":43.23069,"lon":5.35499,"is_reserved":false,"is_disabled":false,"rental_uris":{"android":"levelo://app?vid=a2c981a9-118a-4e0c-9c91-df48407f1dcd","ios":"levelo://app?vid=a2c981a9-118a-4e0c-9c91-df48407f1dcd"},"vehicle_type_id":"4","last_reported":1735654061,"current_range_meters":36400,"station_id":"cpo3342slgdg3j2ifvpg","pricing_plan_id":"cebpf4jnsgd1na2vs0mg"},{"bike_id":"da0f5ee6-ff02-4c0a-8090-7c3eb90aa225","system_id":"levelo_inurba_marseille","lat":43.2919,"lon":5.36033,"is_reserved":false,"is_disabled":false,"rental_uris":{"android":"levelo://app?vid=da0f5ee6-ff02-4c0a-8090-7c3eb90aa225","ios":"levelo://app?vid=da0f5ee6-ff02-4c0a-8090-7c3eb90aa225"},"vehicle_type_id":"4","last_reported":1735654061,"current_range_meters":26000,"station_id":"ce4bhbh2rcd13ifvqeqg","pricing_plan_id":"cebpf4jnsgd1na2vs0mg"},{"bike_id":"cd94eb7e-0628-465d-8394-6b4b166ba69b","system_id":"levelo_inurba_marseille","lat":43.26789,"lon":5.39427,"is_reserved":false,"is_disabled":false,"rental_uris":{"android":"levelo://app?vid=cd94eb7e-0628-465d-8394-6b4b166ba69b","ios":"levelo://app?vid=cd94eb7e-0628-465d-8394-6b4b166ba69b"},"vehicle_type_id":"4","last_reported":1735654061,"current_range_meters":38800,"station_id":"ce4bhh12rcd13ifvqfg0","pricing_plan_id":"cebpf4jnsgd1na2vs0mg"},{"bike_id":"3fdbca98-341e-4a99-b37b-90394d708c9d","system_id":"levelo_inurba_marseille","lat":43.29369,"lon":5.37849,"is_reserved":false,"is_disabled":false,"rental_uris":{"android":"levelo://app?vid=3fdbca98-341e-4a99-b37b-90394d708c9d","ios":"levelo://app?vid=3fdbca98-341e-4a99-b37b-90394d708c9d"},"vehicle_type_id":"4","last_reported":1735654061,"current_range_meters":32400,"station_id":"ce4bgjh2rcd13ifvqbf0","pricing_plan_id":"cebpf4jnsgd1na2vs0mg"},{"bike_id":"0b70a3fd-cd64-4597-b1e3-c9c4cb5327b0","system_id":"levelo_inurba_marseille","lat":43.25865,"lon":5.39907,"is_reserved":false,"is_disabled":false,"rental_uris":{"android":"levelo://app?vid=0b70a3fd-cd64-4597-b1e3-c9c4cb5327b0","ios":"levelo://app?vid=0b70a3fd-cd64-4597-b1e3-c9c4cb5327b0"},"vehicle_type_id":"4","last_reported":1735654061,"current_range_meters":38800,"station_id":"ce4bhl92rcd13ifvqghg","pricing_plan_id":"cebpf4jnsgd1na2vs0mg"},{"bike_id":"e6b5eb0c-b0ca-4323-beaa-86130528ab40","system_id":"levelo_inurba_marseille","lat":43.28995,"lon":5.35626,"is_reserved":false,"is_disabled":false,"rental_uris":{"android":"levelo://app?vid=e6b5eb0c-b0ca-4323-beaa-86130528ab40","ios":"levelo://app?vid=e6b5eb0c-b0ca-4323-beaa-86130528ab40"},"vehicle_type_id":"4","last_reported":1735654061,"current_range_meters":34000,"station_id":"ce4bhb92rcd13ifvqen0","pricing_plan_id":"cebpf4jnsgd1na2vs0mg"},{"bike_id":"86aa6f0b-a7f6-467a-90c7-6a5aadae74e1","system_id":"levelo_inurba_marseille","lat":43.272091,"lon":5.392035,"is_reserved":false,"is_disabled":false,"rental_uris":{"android":"levelo://app?vid=86aa6f0b-a7f6-467a-90c7-6a5aadae74e1","ios":"levelo://app?vid=86aa6f0b-a7f6-467a-90c7-6a5aadae74e1"},"vehicle_type_id":"4","last_reported":1735654061,"current_range_meters":32400,"station_id":"ce4bhhp2rcd13ifvqfm0","pricing_plan_id":"cebpf4jnsgd1na2vs0mg"},{"bike_id":"62a66a29-bae2-4f50-983e-6ffc57057bae","system_id":"levelo_inurba_marseille","lat":43.25874,"lon":5.39922,"is_reserved":false,"is_disabled":false,"rental_uris":{"android":"levelo://app?vid=62a66a29-bae2-4f50-983e-6ffc57057bae","ios":"levelo://app?vid=62a66a29-bae2-4f50-983e-6ffc57057bae"},"vehicle_type_id":"4","last_reported":1735654061,"current_range_meters":6800,"station_id":"ce4bhl92rcd13ifvqghg","pricing_plan_id":"cebpf4jnsgd1na2vs0mg"},{"bike_id":"3eb06b53-0495-461f-921b-d9f51438e376","system_id":"levelo_inurba_marseille","lat":43.27425,"lon":5.39417,"is_reserved":false,"is_disabled":false,"rental_uris":{"android":"levelo://app?vid=3eb06b53-0495-461f-921b-d9f51438e376","ios":"levelo://app?vid=3eb06b53-0495-461f-921b-d9f51438e376"},"vehicle_type_id":"4","last_reported":1735654061,"current_range_meters":38800,"station_id":"ce4bhdp2rcd13ifvqf20","pricing_plan_id":"cebpf4jnsgd1na2vs0mg"},{"bike_id":"a06e3c0a-750d-4c5c-b0ac-872018e7f41d","system_id":"levelo_inurba_marseille","lat":43.27816,"lon":5.392,"is_reserved":false,"is_disabled":false,"rental_uris":{"android":"levelo://app?vid=a06e3c0a-750d-4c5c-b0ac-872018e7f41d","ios":"levelo://app?vid=a06e3c0a-750d-4c5c-b0ac-872018e7f41d"},"vehicle_type_id":"4","last_reported":1735654061,"current_range_meters":36400,"station_id":"ce4bhjp2rcd13ifvqga0","pricing_plan_id":"cebpf4jnsgd1na2vs0mg"},{"bike_id":"4f763647-ea12-4015-b80f-643e4288be4b","system_id":"levelo_inurba_marseille","lat":43.31324,"lon":5.39681,"is_reserved":false,"is_disabled":false,"rental_uris":{"android":"levelo://app?vid=4f763647-ea12-4015-b80f-643e4288be4b","ios":"levelo://app?vid=4f763647-ea12-4015-b80f-643e4288be4b"},"vehicle_type_id":"4","last_reported":1735654061,"current_range_meters":37600,"station_id":"ce4bgvp2rcd13ifvqcu0","pricing_plan_id":"cebpf4jnsgd1na2vs0mg"},{"bike_id":"6aed4963-ca93-4704-bf3f-b0d795e7e7c7","system_id":"levelo_inurba_marseille","lat":43.24803,"lon":5.37456,"is_reserved":false,"is_disabled":false,"rental_uris":{"android":"levelo://app?vid=6aed4963-ca93-4704-bf3f-b0d795e7e7c7","ios":"levelo://app?vid=6aed4963-ca93-4704-bf3f-b0d795e7e7c7"},"vehicle_type_id":"4","last_reported":1735654061,"current_range_meters":35600,"station_id":"ce4bhgh2rcd13ifvqfb0","pricing_plan_id":"cebpf4jnsgd1na2vs0mg"},{"bike_id":"68012c00-8f6f-4261-8a09-ca735b753c7b","system_id":"levelo_inurba_marseille","lat":43.26786,"lon":5.39414,"is_reserved":false,"is_disabled":false,"rental_uris":{"android":"levelo://app?vid=68012c00-8f6f-4261-8a09-ca735b753c7b","ios":"levelo://app?vid=68012c00-8f6f-4261-8a09-ca735b753c7b"},"vehicle_type_id":"4","last_reported":1735654061,"current_range_meters":32000,"station_id":"ce4bhh12rcd13ifvqfg0","pricing_plan_id":"cebpf4jnsgd1na2vs0mg"},{"bike_id":"78c586c7-6d21-482a-b8a1-f42a70ad2a53","system_id":"levelo_inurba_marseille","lat":43.2606,"lon":5.39392,"is_reserved":false,"is_disabled":false,"rental_uris":{"android":"levelo://app?vid=78c586c7-6d21-482a-b8a1-f42a70ad2a53","ios":"levelo://app?vid=78c586c7-6d21-482a-b8a1-f42a70ad2a53"},"vehicle_type_id":"4","last_reported":1735654061,"current_range_meters":35200,"station_id":"ce4bhh92rcd13ifvqfj0","pricing_plan_id":"cebpf4jnsgd1na2vs0mg"},