{"last_updated":1740247864,"ttl":60,"version":"2.2","data":{"bikes":[{"bike_id":"b07b93dc-636d-45df-92dc-e20892161b76","system_id":"levelo_inurba_marseille","lat":43.29251,"lon":5.409,"is_reserved":false,"is_disabled":false,"rental_uris":{"android":"levelo://app?vid=b07b93dc-636d-45df-92dc-e20892161b76","ios":"levelo://app?vid=b07b93dc-636d-45df-92dc-e20892161b76"},"vehicle_type_id":"4","last_reported":1740247864,"current_range_meters":2800,"station_id":"ce4bh192rcd13ifvqdc0","pricing_plan_id":"cebpf4jnsgd1na2vs0mg"},{"bike_id":"967da9cc-683b-4cdd-b913-73dd303bd11d","system_id":"levelo_inurba_marseille","lat":43.29293,"lon":5.37171,"is_reserved":false,"is_disabled":false,"rental_uris":{"android":"levelo://app?vid=967da9cc-683b-4cdd-b913-73dd303bd11d","ios":"levelo://app?vid=967da9cc-683b-4cdd-b913-73dd303bd11d"},"vehicle_type_id":"4","last_reported":1740247864,"current_range_meters":2800,"station_id":"ce4bgh92rcd13ifvqb40","pricing_plan_id":"cebpf4jnsgd1na2vs0mg"},{"bike_id":"d9934196-9321-467d-ac89-0cb8a3e30da9","system_id":"levelo_inurba_marseille","lat":43.31684,"lon":5.40472,"is_reserved":false,"is_disabled":false,"rental_uris":{"android":"levelo://app?vid=d9934196-9321-467d-ac89-0cb8a3e30da9","ios":"levelo://app?vid=d9934196-9321-467d-ac89-0cb8a3e30da9"},"vehicle_type_id":"4","last_reported":1740247864,"current_range_meters":2800,"station_id":"ce4bh012rcd13ifvqd00","pricing_plan_id":"cebpf4jnsgd1na2vs0mg"},{"bike_id":"4cd7e05d-4845-4f42-94fa-6b66fa4a36c7","system_id":"levelo_inurba_marseille","lat":43.29555,"lon":5.4228,"is_reserved":false,"is_disabled":false,"rental_uris":{"android":"levelo://app?vid=4cd7e05d-4845-4f42-94fa-6b66fa4a36c7","ios":"levelo://app?vid=4cd7e05d-4845-4f42-94fa-6b66fa4a36c7"},"vehicle_type_id":"4","last_reported":1740247864,"current_range_meters":2800,"station_id":"ce4bhph2rcd13ifvqhdg","pricing_plan_id":"cebpf4jnsgd1na2vs0mg"},{"bike_id":"7ae9de09-5637-488a-8dcb-bdfcc6f6377f","system_id":"levelo_inurba_marseille","lat":43.3211,"lon":5.36769,"is_reserved":false,"is_disabled":false,"rental_uris":{"android":"levelo://app?vid=7ae9de09-5637-488a-8dcb-bdfcc6f6377f","ios":"levelo://app?vid=7ae9de09-5637-488a-8dcb-bdfcc6f6377f"},"vehicle_type_id":"4","last_reported":1740247864,"current_range_meters":2800,"station_id":"ce4bhrh2rcd13ifvqhug","pricing_plan_id":"cebpf4jnsgd1na2vs0mg"},{"bike_id":"ce7c8e88-92e7-492c-a154-10da7828f29b","system_id":"levelo_inurba_marseille","lat":43.28096,"lon":5.37832,"is_reserved":false,"is_disabled":false,"rental_uris":{"android":"levelo://app?vid=ce7c8e88-92e7-492c-a154-10da7828f29b","ios":"levelo://app?vid=ce7c8e88-92e7-492c-a154-10da7828f29b"},"vehicle_type_id":"4","last_reported":1740247864,"current_range_meters":2800,"station_id":"ce4bha12rcd13ifvqee0","pricing_plan_id":"cebpf4jnsgd1na2vs0mg"},{"bike_id":"82a1c59a-8133-4ded-85a2-3a76c112f6c7","system_id":"levelo_inurba_marseille","lat":43.30116,"lon":5.3986,"is_reserved":false,"is_disabled":false,"rental_uris":{"android":"levelo://app?vid=82a1c59a-8133-4ded-85a2-3a76c112f6c7","ios":"levelo://app?vid=82a1c59a-8133-4ded-85a2-3a76c112f6c7"},"vehicle_type_id":"4","last_reported":1740247864,"current_range_meters":3200,"station_id":"ce4bh0h2rcd13ifvqd40","pricing_plan_id":"cebpf4jnsgd1na2vs0mg"},{"bike_id":"14dd8369-b2d6-4bc2-9c7f-a5ec00571b38","system_id":"levelo_inurba_marseille","lat":43.28852,"lon":5.393176,"is_reserved":false,"is_disabled":false,"rental_uris":{"android":"levelo://app?vid=14dd8369-b2d6-4bc2-9c7f-a5ec00571b38","ios":"levelo://app?vid=14dd8369-b2d6-4bc2-9c7f-a5ec00571b38"},"vehicle_type_id":"4","last_reported":1740247864,"current_range_meters":3200,"station_id":"ce4bh2p2rcd13ifvqdi0","pricing_plan_id":"cebpf4jnsgd1na2vs0mg"},{"bike_id":"60418559-a4c1-4c57-a7c0-0fb7a70c436e","system_id":"levelo_inurba_marseille","lat":43.25123,"lon":5.4031,"is_reserved":false,"is_disabled":false,"rental_uris":{"android":"levelo://app?vid=60418559-a4c1-4c57-a7c0-0fb7a70c436e","ios":"levelo://app?vid=60418559-a4c1-4c57-a7c0-0fb7a70c436e"},"vehicle_type_id":"4","last_reported":1740247864,"current_range_meters":3200,"station_id":"ce4bhlh2rcd13ifvqgig","pricing_plan_id":"cebpf4jnsgd1na2vs0mg"},{"bike_id":"dcd8aa13-e979-4368-9c3a-9f9c77869045","system_id":"levelo_inurba_marseille","lat":43.29048,"lon":5.39996,"is_reserved":false,"is_disabled":false,"rental_uris":{"android":"levelo://app?vid=dcd8aa13-e979-4368-9c3a-9f9c77869045","ios":"levelo://app?vid=dcd8aa13-e979-4368-9c3a-9f9c77869045"},"vehicle_type_id":"4","last_reported":1740247864,"current_range_meters":3200,"station_id":"ce4bh392rcd13ifvqdm0","pricing_plan_id":"cebpf4jnsgd1na2vs0mg"},{"bike_id":"dc43cb91-18e0-48cd-bbe2-c23067e4bfe3","system_id":"levelo_inurba_marseille","lat":43.26956,"lon":5.38635,"is_reserved":false,"is_disabled":false,"rental_uris":{"android":"levelo://app?vid=dc43cb91-18e0-48cd-bbe2-c23067e4bfe3","ios":"levelo://app?vid=dc43cb91-18e0-48cd-bbe2-c23067e4bfe3"},"vehicle_type_id":"4","last_reported":1740247864,"current_range_meters":3600,"station_id":"ce4bhh92rcd13ifvqfh0","pricing_plan_id":"cebpf4jnsgd1na2vs0mg"},{"bike_id":"326b7353-fe19-439e-9476-299069c402d0","system_id":"levelo_inurba_marseille","lat":43.23966,"lon":5.36628,"is_reserved":false,"is_disabled":false,"rental_uris":{"android":"levelo://app?vid=326b7353-fe19-439e-9476-299069c402d0","ios":"levelo://app?vid=326b7353-fe19-439e-9476-299069c402d0"},"vehicle_type_id":"4","last_reported":1740247864,"current_range_meters":4000,"station_id":"ce4bhi12rcd13ifvqfp0","pricing_plan_id":"cebpf4jnsgd1na2vs0mg"},{"bike_id":"f2e5b7dc-4ecb-4a89-afcd-161b852d64a0","system_id":"levelo_inurba_marseille","lat":43.29571,"lon":5.39964,"is_reserved":false,"is_disabled":true,"rental_uris":{"android":"levelo://app?vid=f2e5b7dc-4ecb-4a89-afcd-161b852d64a0","ios":"levelo://app?vid=f2e5b7dc-4ecb-4a89-afcd-161b852d64a0"},"vehicle_type_id":"4","last_reported":1740247864,"current_range_meters":4000,"station_id":"ce4bh312rcd13ifvqdj0","pricing_plan_id":"cebpf4jnsgd1na2vs0mg"},{"bike_id":"7c8f3d05-5401-4545-847e-9fcee9ea83d5","system_id":"levelo_inurba_marseille","lat":43.26568,"lon":5.39874,"is_reserved":false,"is_disabled":false,"rental_uris":{"android":"levelo://app?vid=7c8f3d05-5401-4545-847e-9fcee9ea83d5","ios":"levelo://app?vid=7c8f3d05-5401-4545-847e-9fcee9ea83d5"},"vehicle_type_id":"4","last_reported":1740247864,"current_range_meters":4000,"station_id":"","pricing_plan_id":"cebpf4jnsgd1na2vs0mg"},{"bike_id":"b0f86eb8-0184-4134-8f53-a753780ddf46","system_id":"levelo_inurba_marseille","lat":43.31327,"lon":5.39688,"is_reserved":false,"is_disabled":false,"rental_uris":{"android":"levelo://app?vid=b0f86eb8-0184-4134-8f53-a753780ddf46","ios":"levelo://app?vid=b0f86eb8-0184-4134-8f53-a753780ddf46"},"vehicle_type_id":"4","last_reported":1740247864,"current_range_meters":4000,"station_id":"ce4bgvp2rcd13ifvqcu0","pricing_plan_id":"cebpf4jnsgd1na2vs0mg"},{"bike_id":"5dfe3040-143a-422e-bf1a-876e4a228772","system_id":"levelo_inurba_marseille","lat":43.25498,"lon":5.37648,"is_reserved":false,"is_disabled":false,"rental_uris":{"android":"levelo://app?vid=5dfe3040-143a-422e-bf1a-876e4a228772","ios":"levelo://app?vid=5dfe3040-143a-422e-bf1a-876e4a228772"},"vehicle_type_id":"4","last_reported":1740247864,"current_range_meters":4000,"station_id":"ce4bhh12rcd13ifvqff0","pricing_plan_id":"cebpf4jnsgd1na2vs0mg"},{"bike_id":"a85d2963-ae1f-4bea-a7f2-11cb5fda9496","system_id":"levelo_inurba_marseille","lat":43.29529,"lon":5.37494,"is_reserved":false,"is_disabled":false,"rental_uris":{"android":"levelo://app?vid=a85d2963-ae1f-4bea-a7f2-11cb5fda9496","ios":"levelo://app?vid=a85d2963-ae1f-4bea-a7f2-11cb5fda9496"},"vehicle_type_id":"4","last_reported":1740247864,"current_range_meters":4000,"station_id":"ce4bgkp2rcd13ifvqbmg","pricing_plan_id":"cebpf4jnsgd1na2vs0mg"},{"bike_id":"7513a470-27ae-4803-984c-3d01857f3acd","system_id":"levelo_inurba_marseille","lat":43.30818,"lon":5.37296,"is_reserved":false,"is_disabled":false,"rental_uris":{"android":"levelo://app?vid=7513a470-27ae-4803-984c-3d01857f3acd","ios":"levelo://app?vid=7513a470-27ae-4803-984c-3d01857f3acd"},"vehicle_type_id":"4","last_reported":1740247864,"current_range_meters":4400,"station_id":"","pricing_plan_id":"cebpf4jnsgd1na2vs0mg"},{"bike_id":"1b3e200a-6263-4027-b717-f95f433dba7d","system_id":"levelo_inurba_marseille","lat":43.292847,"lon":5.401154,"is_reserved":false,"is_disabled":false,"rental_uris":{"android":"levelo://app?vid=1b3e200a-6263-4027-b717-f95f433dba7d","ios":"levelo://app?vid=1b3e200a-6263-4027-b717-f95f433dba7d"},"vehicle_type_id":"4","last_reported":1740247864,"current_range_meters":4400,"station_id":"cpo3532slgdg3j2ikp40","pricing_plan_id":"cebpf4jnsgd1na2vs0mg"},{"bike_id":"b3688e12-fe9d-45ae-a348-a1c821eb01e6","system_id":"levelo_inurba_marseille","lat":43.32506,"lon":5.36579,"is_reserved":false,"is_disabled":false,"rental_uris":{"android":"levelo://app?vid=b3688e12-fe9d-45ae-a348-a1c821eb01e6","ios":"levelo://app?vid=b3688e12-fe9d-45ae-a348-a1c821eb01e6"},"vehicle_type_id":"4","last_reported":1740247864,"current_range_meters":4400,"station_id":"ce4bhs12rcd13ifvqhvg","pricing_plan_id":"cebpf4jnsgd1na2vs0mg"},{"bike_id":"c428a377-df4a-4d69-8d27-1884b3e34b58","system_id":"levelo_inurba_marseille","lat":43.23134,"lon":5.43694,"is_reserved":false,"is_disabled":false,"rental_uris":{"android":"levelo://app?vid=c428a377-df4a-4d69-8d27-1884b3e34b58","ios":"levelo://app?vid=c428a377-df4a-4d69-8d27-1884b3e34b58"},"vehicle_type_id":"4","last_reported":1740247864,"current_range_meters":4800,"station_id":"ce4bhmp2rcd13ifvqgog","pricing_plan_id":"cebpf4jnsgd1na2vs0mg"},{"bike_id":"e06a5e51-884b-4021-a6aa-38076e5c4adf","system_id":"levelo_inurba_marseille","lat":43.29264,"lon":5.37623,"is_reserved":false,"is_disabled":false,"rental_uris":{"android":"levelo://app?vid=e06a5e51-884b-4021-a6aa-38076e5c4adf","ios":"levelo://app?vid=e06a5e51-884b-4021-a6aa-38076e5c4adf"},"vehicle_type_id":"4","last_reported":1740247864,"current_range_meters":4800,"station_id":"ce4bgi12rcd13ifvqb80","pricing_plan_id":"cebpf4jnsgd1na2vs0mg"},{"bike_id":"36deab70-c4a0-4106-b6aa-b363bf1c6a1b","system_id":"levelo_inurba_marseille","lat":43.24083,"lon":5.37751,"is_reserved":false,"is_disabled":false,"rental_uris":{"android":"levelo://app?vid=36deab70-c4a0-4106-b6aa-b363bf1c6a1b","ios":"levelo://app?vid=36deab70-c4a0-4106-b6aa-b363bf1c6a1b"},"vehicle_type_id":"4","last_reported":1740247864,"current_range_meters":4800,"station_id":"ce4bhnp2rcd13ifvqgvg","pricing_plan_id":"cebpf4jnsgd1na2vs0mg"},{"bike_id":"aa184cfe-3d94-4b1b-a9d4-04117d7397ef","system_id":"levelo_inurba_marseille","lat":43.29882,"lon":5.38913,"is_reserved":false,"is_disabled":false,"rental_uris":{"android":"levelo://app?vid=aa184cfe-3d94-4b1b-a9d4-04117d7397ef","ios":"levelo://app?vid=aa184cfe-3d94-4b1b-a9d4-04117d7397ef"},"vehicle_type_id":"4","last_reported":1740247864,"current_range_meters":7200,"station_id":"ce4bh392rcd13ifvqdl0","pricing_plan_id":"cebpf4jnsgd1na2vs0mg"},{"bike_id":"caa3bb11-d9f3-41e0-b6ae-f8b61389c8cd","system_id":"levelo_inurba_marseille","lat":43.28148,"lon":5.42641,"is_reserved":false,"is_disabled":false,"rental_uris":{"android":"levelo://app?vid=caa3bb11-d9f3-41e0-b6ae-f8b61389c8cd","ios":"levelo://app?vid=caa3bb11-d9f3-41e0-b6ae-f8b61389c8cd"},"vehicle_type_id":"4","last_reported":1740247864,"current_range_meters":5600,"station_id":"ce4bhnh2rcd13ifvqgug","pricing_plan_id":"cebpf4jnsgd1na2vs0mg"},{"bike_id":"2963a125-98e6-4016-9299-3ffcdc8ba498","system_id":"levelo_inurba_marseille","lat":43.29794,"lon":5.39336,"is_reserved":false,"is_disabled":false,"rental_uris":{"android":"levelo://app?vid=2963a125-98e6-4016-9299-3ffcdc8ba498","ios":"levelo://app?vid=2963a125-98e6-4016-9299-3ffcdc8ba498"},"vehicle_type_id":"4","last_reported":1740247864,"current_range_meters":6000,"station_id":"chh1huq6cuj3fo74tm60","pricing_plan_id":"cebpf4jnsgd1na2vs0mg"},{"bike_id":"c5816546-192e-4118-b1db-46a98f98ea3f","system_id":"levelo_inurba_marseille","lat":43.268768,"lon":5.403222,"is_reserved":false,"is_disabled":false,"rental_uris":{"android":"levelo://app?vid=c5816546-192e-4118-b1db-46a98f98ea3f","ios":"levelo://app?vid=c5816546-192e-4118-b1db-46a98f98ea3f"},"vehicle_type_id":"4","last_reported":1740247864,"current_range_meters":6000,"station_id":"cjm6bp8fraef2m0cb0m0","pricing_plan_id":"cebpf4jnsgd1na2vs0mg"},{"bike_id":"59f665ea-7bf8-4ee3-acf0-2e581947d563","system_id":"levelo_inurba_marseille","lat":43.24652,"lon":5.38893,"is_reserved":false,"is_disabled":false,"rental_uris":{"android":"levelo://app?vid=59f665ea-7bf8-4ee3-acf0-2e581947d563","ios":"levelo://app?vid=59f665ea-7bf8-4ee3-acf0-2e581947d563"},"vehicle_type_id":"4","last_reported":1740247864,"current_range_meters":6000,"station_id":"ce4bhg12rcd13ifvqf60","pricing_plan_id":"cebpf4jnsgd1na2vs0mg"},{"bike_id":"da0eca24-e346-4b84-8788-0b4b214de219","system_id":"levelo_inurba_marseille","lat":43.29919,"lon":5.37477,"is_reserved":false,"is_disabled":false,"rental_uris":{"android":"levelo://app?vid=da0eca24-e346-4b84-8788-0b4b214de219","ios":"levelo://app?vid=da0eca24-e346-4b84-8788-0b4b214de219"},"vehicle_type_id":"4","last_reported":1740247864,"current_range_meters":7200,"station_id":"ce4bgjh2rcd13ifvqbg0","pricing_plan_id":"cebpf4jnsgd1na2vs0mg"},{"bike_id":"45572caa-f62e-4c72-ac38-071090a40a00","system_id":"levelo_inurba_marseille","lat":43.250037,"lon":5.389263,"is_reserved":false,"is_disabled":false,"rental_uris":{"android":"levelo://app?vid=45572caa-f62e-4c72-ac38-071090a40a00","ios":"levelo://app?vid=45572caa-f62e-4c72-ac38-071090a40a00"},"vehicle_type_id":"4","last_reported":1740247864,"current_range_meters":6400,"station_id":"ce4bhgp2rcd13ifvqfd0","pricing_plan_id":"cebpf4jnsgd1na2vs0mg"},{"bike_id":"04748308-4773-42a2-babb-26a0517c8183","system_id":"levelo_inurba_marseille","lat":43.27618,"lon":5.36107,"is_reserved":false,"is_disabled":false,"rental_uris":{"android":"levelo://app?vid=04748308-4773-42a2-babb-26a0517c8183","ios":"levelo://app?vid=04748308-4773-42a2-babb-26a0517c8183"},"vehicle_type_id":"4","last_reported":1740247864,"current_range_meters":4000,"station_id":"ce4bgj92rcd13ifvqbe0","pricing_plan_id":"cebpf4jnsgd1na2vs0mg"},{"bike_id":"fce08287-a922-4951-8c4c-a5d9aaae531b","system_id":"levelo_inurba_marseille","lat":43.2978,"lon":5.37104,"is_reserved":false,"is_disabled":false,"rental_uris":{"android":"levelo://app?vid=fce08287-a922-4951-8c4c-a5d9aaae531b","ios":"levelo://app?vid=fce08287-a922-4951-8c4c-a5d9aaae531b"},"vehicle_type_id":"4","last_reported":1740247864,"current_range_meters":4000,"station_id":"ce4bgop2rcd13ifvqc1g","pricing_plan_id":"cebpf4jnsgd1na2vs0mg"},{"bike_id":"fa83beb1-2405-4db0-9826-c091cb751783","system_id":"levelo_inurba_marseille","lat":43.2511,"lon":5.40326,"is_reserved":false,"is_disabled":false,"rental_uris":{"android":"levelo://app?vid=fa83beb1-2405-4db0-9826-c091cb751783","ios":"levelo://app?vid=fa83beb1-2405-4db0-9826-c091cb751783"},"vehicle_type_id":"4","last_reported":1740247864,"current_range_meters":4000,"station_id":"ce4bhlh2rcd13ifvqgig","pricing_plan_id":"cebpf4jnsgd1na2vs0mg"},{"bike_id":"54392dcf-9098-4ade-a5f9-07d42853ec29","system_id":"levelo_inurba_marseille","lat":43.23962,"lon":5.36639,"is_reserved":false,"is_disabled":false,"rental_uris":{"android":"levelo://app?vid=54392dcf-9098-4ade-a5f9-07d42853ec29","ios":"levelo://app?vid=54392dcf-9098-4ade-a5f9-07d42853ec29"},"vehicle_type_id":"4","last_reported":1740247864,"current_range_meters":6400,"station_id":"ce4bhi12rcd13ifvqfp0","pricing_plan_id":"cebpf4jnsgd1na2vs0mg"},{"bike_id":"796f8f9a-a275-4738-8ac7-938c4d42bed5","system_id":"levelo_inurba_marseille","lat":43.30603,"lon":5.39327,"is_reserved":false,"is_disabled":false,"rental_uris":{"android":"levelo://app?vid=796f8f9a-a275-4738-8ac7-938c4d42bed5","ios":"levelo://app?vid=796f8f9a-a275-4738-8ac7-938c4d42bed5"},"vehicle_type_id":"4","last_reported":1740247864,"current_range_meters":6800,"station_id":"ce4bh0p2rcd13ifvqd80","pricing_plan_id":"cebpf4jnsgd1na2vs0mg"},{"bike_id":"6e49de4a-7298-476e-9cb3-16b473a53074","system_id":"levelo_inurba_marseille","lat":43.29323,"lon":5.3717,"is_reserved":false,"is_disabled":false,"rental_uris":{"android":"levelo://app?vid=6e49de4a-7298-476e-9cb3-16b473a53074","ios":"levelo://app?vid=6e49de4a-7298-476e-9cb3-16b473a53074"},"vehicle_type_id":"4","last_reported":1740247864,"current_range_meters":6800,"station_id":"ce4bgh92rcd13ifvqb40","pricing_plan_id":"cebpf4jnsgd1na2vs0mg"},{"bike_id":"62be82be-00c6-4544-849f-67cfe021b0c1","system_id":"levelo_inurba_marseille","lat":43.323109,"lon":5.388753,"is_reserved":false,"is_disabled":false,"rental_uris":{"android":"levelo://app?vid=62be82be-00c6-4544-849f-67cfe021b0c1","ios":"levelo://app?vid=62be82be-00c6-4544-849f-67cfe021b0c1"},"vehicle_type_id":"4","last_reported":1740247864,"current_range_meters":6800,"station_id":"","pricing_plan_id":"cebpf4jnsgd1na2vs0mg"},{"bike_id":"aae35c93-315d-4e58-8829-b60a6ac2f5a0","system_id":"levelo_inurba_marseille","lat":43.29169,"lon":5.37165,"is_reserved":false,"is_disabled":false,"rental_uris":{"android":"levelo://app?vid=aae35c93-315d-4e58-8829-b60a6ac2f5a0","ios":"levelo://app?vid=aae35c93-315d-4e58-8829-b60a6ac2f5a0"},"vehicle_type_id":"4","last_reported":1740247864,"current_range_meters":6800,"station_id":"ce4bha92rcd13ifvqeh0","pricing_plan_id":"cebpf4jnsgd1na2vs0mg"},{"bike_id":"fbe67b56-53a3-4dc1-b4de-889b04f1a221","system_id":"levelo_inurba_marseille","lat":43.27375,"lon":5.36255,"is_reserved":false,"is_disabled":false,"rental_uris":{"android":"levelo://app?vid=fbe67b56-53a3-4dc1-b4de-889b04f1a221","ios":"levelo://app?vid=fbe67b56-53a3-4dc1-b4de-889b04f1a221"},"vehicle_type_id":"4","last_reported":1740247864,"current_range_meters":6800,"station_id":"ce4bhbh2rcd13ifvqeo0","pricing_plan_id":"cebpf4jnsgd1na2vs0mg"},{"bike_id":"3b090a6c-0b41-4087-b019-aa2125511f08","system_id":"levelo_inurba_marseille","lat":43.29794,"lon":5.38131,"is_reserved":false,"is_disabled":false,"rental_uris":{"android":"levelo://app?vid=3b090a6c-0b41-4087-b019-aa2125511f08","ios":"levelo://app?vid=3b090a6c-0b41-4087-b019-aa2125511f08"},"vehicle_type_id":"4","last_reported":1740247864,"current_range_meters":4800,"station_id":"ce4bgip2rcd13ifvqbb0","pricing_plan_id":"cebpf4jnsgd1na2vs0mg"},{"bike_id":"99e75760-16b2-47b8-a597-cefb01e528c8","system_id":"levelo_inurba_marseille","lat":43.25003,"lon":5.38924,"is_reserved":false,"is_disabled":false,"rental_uris":{"android":"levelo://app?vid=99e75760-16b2-47b8-a597-cefb01e528c8","ios":"levelo://app?vid=99e75760-16b2-47b8-a597-cefb01e528c8"},"vehicle_type_id":"4","last_reported":1740247864,"current_range_meters":6400,"station_id":"ce4bhgp2rcd13ifvqfd0","pricing_plan_id":"cebpf4jnsgd1na2vs0mg"},{"bike_id":"2c5430a7-3583-4ae1-abd7-31976bb7717c","system_id":"levelo_inurba_marseille","lat":43.30354,"lon":5.41885,"is_reserved":false,"is_disabled":false,"rental_uris":{"android":"levelo://app?vid=2c5430a7-3583-4ae1-abd7-31976bb7717c","ios":"levelo://app?vid=2c5430a7-3583-4ae1-abd7-31976bb7717c"},"vehicle_type_id":"4","last_reported":1740247864,"current_range_meters":6800,"station_id":"ce4bhop2rcd13ifvqh7g","pricing_plan_id":"cebpf4jnsgd1na2vs0mg"},{"bike_id":"b11399a3-d484-43f0-b4b5-0586c42906c5","system_id":"levelo_inurba_marseille","lat":43.24179,"lon":5.39729,"is_reserved":false,"is_disabled":false,"rental_uris":{"android":"levelo://app?vid=b11399a3-d484-43f0-b4b5-0586c42906c5","ios":"levelo://app?vid=b11399a3-d484-43f0-b4b5-0586c42906c5"},"vehicle_type_id":"4","last_reported":1740247864,"current_range_meters":6800,"station_id":"ce4bhn12rcd13ifvqgpg","pricing_plan_id":"cebpf4jnsgd1na2vs0mg"},{"bike_id":"a796ac80-1911-4214-a458-24bc9f421151","system_id":"levelo_inurba_marseille","lat":43.31324,"lon":5.37349,"is_reserved":false,"is_disabled":false,"rental_uris":{"android":"levelo://app?vid=a796ac80-1911-4214-a458-24bc9f421151","ios":"levelo://app?vid=a796ac80-1911-4214-a458-24bc9f421151"},"vehicle_type_id":"4","last_reported":1740247864,"current_range_meters":6800,"station_id":"","pricing_plan_id":"cebpf4jnsgd1na2vs0mg"},{"bike_id":"60a7a41d-8036-4f4a-a82d-29942b1d0e7b","system_id":"levelo_inurba_marseille","lat":43.29039,"lon":5.37564,"is_reserved":false,"is_disabled":false,"rental_uris":{"android":"levelo://app?vid=60a7a41d-8036-4f4a-a82d-29942b1d0e7b","ios":"levelo://app?vid=60a7a41d-8036-4f4a-a82d-29942b1d0e7b"},"vehicle_type_id":"4","last_reported":1740247864,"current_range_meters":3200,"station_id":"ce4bh692rcd13ifvqe90","pricing_plan_id":"cebpf4jnsgd1na2vs0mg"},{"bike_id":"c3b9be2e-b257-4f64-8882-ea41b3bf3812","system_id":"levelo_inurba_marseille","lat":43.32309,"lon":5.39241,"is_reserved":false,"is_disabled":false,"rental_uris":{"android":"levelo://app?vid=c3b9be2e-b257-4f64-8882-ea41b3bf3812","ios":"levelo://app?vid=c3b9be2e-b257-4f64-8882-ea41b3bf3812"},"vehicle_type_id":"4","last_reported":1740247864,"current_range_meters":7200,"station_id":"","pricing_plan_id":"cebpf4jnsgd1na2vs0mg"},{"bike_id":"97e60459-cc06-4bc4-9745-231d5e38914b","system_id":"levelo_inurba_marseille","lat":43.27954,"lon":5.41038,"is_reserved":false,"is_disabled":false,"rental_uris":{"android":"levelo://app?vid=97e60459-cc06-4bc4-9745-231d5e38914b","ios":"levelo://app?vid=97e60459-cc06-4bc4-9745-231d5e38914b"},"vehicle_type_id":"4","last_reported":1740247864,"current_range_meters":7200,"station_id":"ce4bhnp2rcd13ifvqh0g","pricing_plan_id":"cebpf4jnsgd1na2vs0mg"},{"bike_id":"2b8d73ad-5137-4320-bf7a-9fcaea6cd84f","system_id":"levelo_inurba_marseille","lat":43.27994,"lon":5.40025,"is_reserved":false,"is_disabled":false,"rental_uris":{"android":"levelo://app?vid=2b8d73ad-5137-4320-bf7a-9fcaea6cd84f","ios":"levelo://app?vid=2b8d73ad-5137-4320-bf7a-9fcaea6cd84f"},"vehicle_type_id":"4","last_reported":1740247864,"current_range_meters":7200,"station_id":"ce4bho92rcd13ifvqh4g","pricing_plan_id":"cebpf4jnsgd1na2vs0mg"},{"bike_id":"cb152748-85f7-4f0b-89d4-186826edb154","system_id":"levelo_inurba_marseille","lat":43.26558,"lon":5.39007,"is_reserved":false,"is_disabled":false,"rental_uris":{"android":"levelo://app?vid=cb152748-85f7-4f0b-89d4-186826edb154","ios":"levelo://app?vid=cb152748-85f7-4f0b-89d4-186826edb154"},"vehicle_type_id":"4","last_reported":1740247864,"current_range_meters":7200,"station_id":"ce4bhe12rcd13ifvqf30","pricing_plan_id":"cebpf4jnsgd1na2vs0mg"},{"bike_id":"ce0042bc-0158-45a5-b488-6d8e95acbba9","system_id":"levelo_inurba_marseille","lat":43.26232,"lon":5.40459,"is_reserved":false,"is_disabled":false,"rental_uris":{"android":"levelo://app?vid=ce0042bc-0158-45a5-b488-6d8e95acbba9","ios":"levelo://app?vid=ce0042bc-0158-45a5-b488-6d8e95acbba9"},"vehicle_type_id":"4","last_reported":1740247864,"current_range_meters":8000,"station_id":"ce4bhmh2rcd13ifvqgmg","pricing_plan_id":"cebpf4jnsgd1na2vs0mg"},{"bike_id":"91cd9c50-a708-4ca7-8c38-9684716b8855","system_id":"levelo_inurba_marseille","lat":43.33808,"lon":5.37414,"is_reserved":false,"is_disabled":false,"rental_uris":{"android":"levelo://app?vid=91cd9c50-a708-4ca7-8c38-9684716b8855","ios":"levelo://app?vid=91cd9c50-a708-4ca7-8c38-9684716b8855"},"vehicle_type_id":"4","last_reported":1740247864,"current_range_meters":8000,"station_id":"","pricing_plan_id":"cebpf4jnsgd1na2vs0mg"},{"bike_id":"4342ff57-71d4-4761-a13e-427a7d7d3754","system_id":"levelo_inurba_marseille","lat":43.28156,"lon":5.42643,"is_reserved":false,"is_disabled":false,"rental_uris":{"android":"levelo://app?vid=4342ff57-71d4-4761-a13e-427a7d7d3754","ios":"levelo://app?vid=4342ff57-71d4-4761-a13e-427a7d7d3754"},"vehicle_type_id":"4","last_reported":1740247864,"current_range_meters":8000,"station_id":"ce4bhnh2rcd13ifvqgug","pricing_plan_id":"cebpf4jnsgd1na2vs0mg"},{"bike_id":"ab46b189-6bae-4129-a7fd-10b3ccd5a48e","system_id":"levelo_inurba_marseille","lat":43.2719,"lon":5.39989,"is_reserved":false,"is_disabled":false,"rental_uris":{"android":"levelo://app?vid=ab46b189-6bae-4129-a7fd-10b3ccd5a48e","ios":"levelo://app?vid=ab46b189-6bae-4129-a7fd-10b3ccd5a48e"},"vehicle_type_id":"4","last_reported":1740247864,"current_range_meters":8000,"station_id":"","pricing_plan_id":"cebpf4jnsgd1na2vs0mg"},{"bike_id":"d0386847-89a5-48f6-8c65-4f1d9fc4d37c","system_id":"levelo_inurba_marseille","lat":43.26789,"lon":5.39415,"is_reserved":false,"is_disabled":false,"rental_uris":{"android":"levelo://app?vid=d0386847-89a5-48f6-8c65-4f1d9fc4d37c","ios":"levelo://app?vid=d0386847-89a5-48f6-8c65-4f1d9fc4d37c"},"vehicle_type_id":"4","last_reported":1740247864,"current_range_meters":8000,"station_id":"ce4bhh12rcd13ifvqfg0","pricing_plan_id":"cebpf4jnsgd1na2vs0mg"},{"bike_id":"78b97302-9c59-42d1-a13f-5e8c85841d45","system_id":"levelo_inurba_marseille","lat":43.2656,"lon":5.39028,"is_reserved":false,"is_disabled":false,"rental_uris":{"android":"levelo://app?vid=78b97302-9c59-42d1-a13f-5e8c85841d45","ios":"levelo://app?vid=78b97302-9c59-42d1-a13f-5e8c85841d45"},"vehicle_type_id":"4","last_reported":1740247864,"current_range_meters":8000,"station_id":"ce4bhe12rcd13ifvqf30","pricing_plan_id":"cebpf4jnsgd1na2vs0mg"},{"bike_id":"a404738f-d592-4923-bb7f-8cad6bf8fec4","system_id":"levelo_inurba_marseille","lat":43.27959,"lon":5.38488,"is_reserved":false,"is_disabled":false,"rental_uris":{"android":"levelo://app?vid=a404738f-d592-4923-bb7f-8cad6bf8fec4","ios":"levelo://app?vid=a404738f-d592-4923-bb7f-8cad6bf8fec4"},"vehicle_type_id":"4","last_reported":1740247864,"current_range_meters":8400,"station_id":"","pricing_plan_id":"cebpf4jnsgd1na2vs0mg"},{"bike_id":"70a9f6cd-6f8f-45e9-b247-00a9aec8526a","system_id":"levelo_inurba_marseille","lat":43.26777,"lon":5.39424,"is_reserved":false,"is_disabled":false,"rental_uris":{"android":"levelo://app?vid=70a9f6cd-6f8f-45e9-b247-00a9aec8526a","ios":"levelo://app?vid=70a9f6cd-6f8f-45e9-b247-00a9aec8526a"},"vehicle_type_id":"4","last_reported":1740247864,"current_range_meters":8400,"station_id":"ce4bhh12rcd13ifvqfg0","pricing_plan_id":"cebpf4jnsgd1na2vs0mg"},{"bike_id":"91817d94-291a-47c9-91fa-831208abfdc7","system_id":"levelo_inurba_marseille","lat":43.230657,"lon":5.354862,"is_reserved":false,"is_disabled":false,"rental_uris":{"android":"levelo://app?vid=91817d94-291a-47c9-91fa-831208abfdc7","ios":"levelo://app?vid=91817d94-291a-47c9-91fa-831208abfdc7"},"vehicle_type_id":"4","last_reported":1740247864,"current_range_meters":8400,"station_id":"cpo3342slgdg3j2ifvpg","pricing_plan_id":"cebpf4jnsgd1na2vs0mg"},{"bike_id":"fd33a6d6-2251-4eb7-b756-71d0f337bcab","system_id":"levelo_inurba_marseille","lat":43.27988,"lon":5.41654,"is_reserved":false,"is_disabled":false,"rental_uris":{"android":"levelo://app?vid=fd33a6d6-2251-4eb7-b756-71d0f337bcab","ios":"levelo://app?vid=fd33a6d6-2251-4eb7-b756-71d0f337bcab"},"vehicle_type_id":"4","last_reported":1740247864,"current_range_meters":8800,"station_id":"ce4bho12rcd13ifvqh1g","pricing_plan_id":"cebpf4jnsgd1na2vs0mg"},{"bike_id":"229bc48e-a0a9-4119-a402-287fb146bc3a","system_id":"levelo_inurba_marseille","lat":43.30599,"lon":5.37235,"is_reserved":false,"is_disabled":false,"rental_uris":{"android":"levelo://app?vid=229bc48e-a0a9-4119-a402-287fb146bc3a","ios":"levelo://app?vid=229bc48e-a0a9-4119-a402-287fb146bc3a"},"vehicle_type_id":"4","last_reported":1740247864,"current_range_meters":11600,"station_id":"ce4bgqh2rcd13ifvqc4g","pricing_plan_id":"cebpf4jnsgd1na2vs0mg"},{"bike_id":"f32fe46d-1120-4c2c-97c5-cdbf2de4ccec","system_id":"levelo_inurba_marseille","lat":43.25931,"lon":5.40891,"is_reserved":false,"is_disabled":false,"rental_uris":{"android":"levelo://app?vid=f32fe46d-1120-4c2c-97c5-cdbf2de4ccec","ios":"levelo://app?vid=f32fe46d-1120-4c2c-97c5-cdbf2de4ccec"},"vehicle_type_id":"4","last_reported":1740247864,"current_range_meters":8800,"station_id":"ce4bhm92rcd13ifvqglg","pricing_plan_id":"cebpf4jnsgd1na2vs0mg"},{"bike_id":"e7745d79-39b0-43d2-8b66-c5c2372270d6","system_id":"levelo_inurba_marseille","lat":43.27381,"lon":5.36257,"is_reserved":false,"is_disabled":false,"rental_uris":{"android":"levelo://app?vid=e7745d79-39b0-43d2-8b66-c5c2372270d6","ios":"levelo://app?vid=e7745d79-39b0-43d2-8b66-c5c2372270d6"},"vehicle_type_id":"4","last_reported":1740247864,"current_range_meters":8800,"station_id":"ce4bhbh2rcd13ifvqeo0","pricing_plan_id":"cebpf4jnsgd1na2vs0mg"},{"bike_id":"740e1064-cdb8-4e3e-a7b0-a7ae88ba4b5f","system_id":"levelo_inurba_marseille","lat":43.24072,"lon":5.37768,"is_reserved":false,"is_disabled":false,"rental_uris":{"android":"levelo://app?vid=740e1064-cdb8-4e3e-a7b0-a7ae88ba4b5f","ios":"levelo://app?vid=740e1064-cdb8-4e3e-a7b0-a7ae88ba4b5f"},"vehicle_type_id":"4","last_reported":1740247864,"current_range_meters":8800,"station_id":"ce4bhnp2rcd13ifvqgvg","pricing_plan_id":"cebpf4jnsgd1na2vs0mg"},{"bike_id":"6d48938c-9b80-49b7-89e5-950ba7a6ce63","system_id":"levelo_inurba_marseille","lat":43.25927,"lon":5.40898,"is_reserved":false,"is_disabled":false,"rental_uris":{"android":"levelo://app?vid=6d48938c-9b80-49b7-89e5-950ba7a6ce63","ios":"levelo://app?vid=6d48938c-9b80-49b7-89e5-950ba7a6ce63"},"vehicle_type_id":"4","last_reported":1740247864,"current_range_meters":8800,"station_id":"ce4bhm92rcd13ifvqglg","pricing_plan_id":"cebpf4jnsgd1na2vs0mg"},{"bike_id":"4403d6fb-bedb-4021-bc9d-a44511f49ab9","system_id":"levelo_inurba_marseille","lat":43.27916,"lon":5.39579,"is_reserved":false,"is_disabled":false,"rental_uris":{"android":"levelo://app?vid=4403d6fb-bedb-4021-bc9d-a44511f49ab9","ios":"levelo://app?vid=4403d6fb-bedb-4021-bc9d-a44511f49ab9"},"vehicle_type_id":"4","last_reported":1740247864,"current_range_meters":8800,"station_id":"ce4bhf92rcd13ifvqf40","pricing_plan_id":"cebpf4jnsgd1na2vs0mg"},{"bike_id":"f668bdd3-22f1-44a6-959a-688ea59c08bf","system_id":"levelo_inurba_marseille","lat":43.29595,"lon":5.381,"is_reserved":false,"is_disabled":false,"rental_uris":{"android":"levelo://app?vid=f668bdd3-22f1-44a6-959a-688ea59c08bf","ios":"levelo://app?vid=f668bdd3-22f1-44a6-959a-688ea59c08bf"},"vehicle_type_id":"4","last_reported":1740247864,"current_range_meters":8800,"station_id":"ce4bgl12rcd13ifvqbo0","pricing_plan_id":"cebpf4jnsgd1na2vs0mg"},{"bike_id":"51f6de87-0444-48bf-b2ba-75171108f133","system_id":"levelo_inurba_marseille","lat":43.30949,"lon":5.39028,"is_reserved":false,"is_disabled":false,"rental_uris":{"android":"levelo://app?vid=51f6de87-0444-48bf-b2ba-75171108f133","ios":"levelo://app?vid=51f6de87-0444-48bf-b2ba-75171108f133"},"vehicle_type_id":"4","last_reported":1740247864,"current_range_meters":9200,"station_id":"ce4bgup2rcd13ifvqco0","pricing_plan_id":"cebpf4jnsgd1na2vs0mg"},{"bike_id":"b985ad1f-1942-453b-b5eb-7462cafd1e31","system_id":"levelo_inurba_marseille","lat":43.231879,"lon":5.35552,"is_reserved":false,"is_disabled":false,"rental_uris":{"android":"levelo://app?vid=b985ad1f-1942-453b-b5eb-7462cafd1e31","ios":"levelo://app?vid=b985ad1f-1942-453b-b5eb-7462cafd1e31"},"vehicle_type_id":"4","last_reported":1740247864,"current_range_meters":9200,"station_id":"ce4bhu92rcd13ifvqi70","pricing_plan_id":"cebpf4jnsgd1na2vs0mg"},{"bike_id":"58f4f72f-7cd5-456c-ab24-6823b780f369","system_id":"levelo_inurba_marseille","lat":43.30637,"lon":5.401,"is_reserved":false,"is_disabled":false,"rental_uris":{"android":"levelo://app?vid=58f4f72f-7cd5-456c-ab24-6823b780f369","ios":"levelo://app?vid=58f4f72f-7cd5-456c-ab24-6823b780f369"},"vehicle_type_id":"4","last_reported":1740247864,"current_range_meters":9600,"station_id":"ce4bh112rcd13ifvqda0","pricing_plan_id":"cebpf4jnsgd1na2vs0mg"},{"bike_id":"5d2d1a8c-deab-4dc2-9082-406187fb677f","system_id":"levelo_inurba_marseille","lat":43.27905,"lon":5.38,"is_reserved":false,"is_disabled":false,"rental_uris":{"android":"levelo://app?vid=5d2d1a8c-deab-4dc2-9082-406187fb677f","ios":"levelo://app?vid=5d2d1a8c-deab-4dc2-9082-406187fb677f"},"vehicle_type_id":"4","last_reported":1740247864,"current_range_meters":9600,"station_id":"ce4bhf92rcd13ifvqf50","pricing_plan_id":"cebpf4jnsgd1na2vs0mg"},{"bike_id":"6b42034c-3d31-4543-aebc-b03e8643c20b","system_id":"levelo_inurba_marseille","lat":43.25099,"lon":5.40321,"is_reserved":false,"is_disabled":false,"rental_uris":{"android":"levelo://app?vid=6b42034c-3d31-4543-aebc-b03e8643c20b","ios":"levelo://app?vid=6b42034c-3d31-4543-aebc-b03e8643c20b"},"vehicle_type_id":"4","last_reported":1740247864,"current_range_meters":9600,"station_id":"ce4bhlh2rcd13ifvqgig","pricing_plan_id":"cebpf4jnsgd1na2vs0mg"},{"bike_id":"78ccc1b5-e05d-4c30-bc5b-473f9d97e2cd","system_id":"levelo_inurba_marseille","lat":43.30121,"lon":5.37808,"is_reserved":false,"is_disabled":false,"rental_uris":{"android":"levelo://app?vid=78ccc1b5-e05d-4c30-bc5b-473f9d97e2cd","ios":"levelo://app?vid=78ccc1b5-e05d-4c30-bc5b-473f9d97e2cd"},"vehicle_type_id":"4","last_reported":1740247864,"current_range_meters":9600,"station_id":"","pricing_plan_id":"cebpf4jnsgd1na2vs0mg"},{"bike_id":"1a3ceab6-ed06-46e5-8f3c-bc79a5dfc649","system_id":"levelo_inurba_marseille","lat":43.26056,"lon":5.39385,"is_reserved":false,"is_disabled":false,"rental_uris":{"android":"levelo://app?vid=1a3ceab6-ed06-46e5-8f3c-bc79a5dfc649","ios":"levelo://app?vid=1a3ceab6-ed06-46e5-8f3c-bc79a5dfc649"},"vehicle_type_id":"4","last_reported":1740247864,"current_range_meters":9600,"station_id":"ce4bhh92rcd13ifvqfj0","pricing_plan_id":"cebpf4jnsgd1na2vs0mg"},{"bike_id":"a8212a69-6a3d-4b67-811e-4d877db78983","system_id":"levelo_inurba_marseille","lat":43.30156,"lon":5.3988,"is_reserved":false,"is_disabled":false,"rental_uris":{"android":"levelo://app?vid=a8212a69-6a3d-4b67-811e-4d877db78983","ios":"levelo://app?vid=a8212a69-6a3d-4b67-811e-4d877db78983"},"vehicle_type_id":"4","last_reported":1740247864,"current_range_meters":9600,"station_id":"ce4bh0h2rcd13ifvqd40","pricing_plan_id":"cebpf4jnsgd1na2vs0mg"},{"bike_id":"7bf9524e-fea9-4ff8-800d-d66c5e1b6889","system_id":"levelo_inurba_marseille","lat":43.23152,"lon":5.43701,"is_reserved":false,"is_disabled":false,"rental_uris":{"android":"levelo://app?vid=7bf9524e-fea9-4ff8-800d-d66c5e1b6889","ios":"levelo://app?vid=7bf9524e-fea9-4ff8-800d-d66c5e1b6889"},"vehicle_type_id":"4","last_reported":1740247864,"current_range_meters":9600,"station_id":"ce4bhmp2rcd13ifvqgog","pricing_plan_id":"cebpf4jnsgd1na2vs0mg"},{"bike_id":"47b263ca-ea38-40b5-9b50-56d2ef748ea5","system_id":"levelo_inurba_marseille","lat":43.29022,"lon":5.38141,"is_reserved":false,"is_disabled":false,"rental_uris":{"android":"levelo://app?vid=47b263ca-ea38-40b5-9b50-56d2ef748ea5","ios":"levelo://app?vid=47b263ca-ea38-40b5-9b50-56d2ef748ea5"},"vehicle_type_id":"4","last_reported":1740247864,"current_range_meters":9600,"station_id":"ce4bh4p2rcd13ifvqe1g","pricing_plan_id":"cebpf4jnsgd1na2vs0mg"},{"bike_id":"aa820ec7-7f35-4387-8fea-99b9db869428","system_id":"levelo_inurba_marseille","lat":43.29616,"lon":5.38096,"is_reserved":false,"is_disabled":false,"rental_uris":{"android":"levelo://app?vid=aa820ec7-7f35-4387-8fea-99b9db869428","ios":"levelo://app?vid=aa820ec7-7f35-4387-8fea-99b9db869428"},"vehicle_type_id":"4","last_reported":1740247864,"current_range_meters":9600,"station_id":"ce4bgl12rcd13ifvqbo0","pricing_plan_id":"cebpf4jnsgd1na2vs0mg"},{"bike_id":"4a2d4025-43d5-412e-8f09-8ffaadd19824","system_id":"levelo_inurba_marseille","lat":43.23202,"lon":5.35546,"is_reserved":false,"is_disabled":false,"rental_uris":{"android":"levelo://app?vid=4a2d4025-43d5-412e-8f09-8ffaadd19824","ios":"levelo://app?vid=4a2d4025-43d5-412e-8f09-8ffaadd19824"},"vehicle_type_id":"4","last_reported":1740247864,"current_range_meters":9600,"station_id":"ce4bhu92rcd13ifvqi70","pricing_plan_id":"cebpf4jnsgd1na2vs0mg"},{"bike_id":"07e4e78f-155f-46ba-b47c-845e3199ae6c","system_id":"levelo_inurba_marseille","lat":43.239716,"lon":5.366255,"is_reserved":false,"is_disabled":false,"rental_uris":{"android":"levelo://app?vid=07e4e78f-155f-46ba-b47c-845e3199ae6c","ios":"levelo://app?vid=07e4e78f-155f-46ba-b47c-845e3199ae6c"},"vehicle_type_id":"4","last_reported":1740247864,"current_range_meters":9600,"station_id":"ce4bhlh2rcd13ifvqgig","pricing_plan_id":"cebpf4jnsgd1na2vs0mg"},{"bike_id":"3c232bab-88ac-4592-9031-c21395fd8a78","system_id":"levelo_inurba_marseille","lat":43.32359,"lon":5.36766,"is_reserved":false,"is_disabled":false,"rental_uris":{"android":"levelo://app?vid=3c232bab-88ac-4592-9031-c21395fd8a78","ios":"levelo://app?vid=3c232bab-88ac-4592-9031-c21395fd8a78"},"vehicle_type_id":"4","last_reported":1740247864,"current_range_meters":10000,"station_id":"ce4bhsh2rcd13ifvqi2g","pricing_plan_id":"cebpf4jnsgd1na2vs0mg"},{"bike_id":"ef73e067-e342-4ea1-a21d-5bab7be015a4","system_id":"levelo_inurba_marseille","lat":43.32307,"lon":5.39226,"is_reserved":false,"is_disabled":false,"rental_uris":{"android":"levelo://app?vid=ef73e067-e342-4ea1-a21d-5bab7be015a4","ios":"levelo://app?vid=ef73e067-e342-4ea1-a21d-5bab7be015a4"},"vehicle_type_id":"4","last_reported":1740247864,"current_range_meters":10000,"station_id":"","pricing_plan_id":"cebpf4jnsgd1na2vs0mg"},{"bike_id":"aeafc93e-d7a3-4386-a16b-6d5c2d21332b","system_id":"levelo_inurba_marseille","lat":43.2926,"lon":5.37626,"is_reserved":false,"is_disabled":false,"rental_uris":{"android":"levelo://app?vid=aeafc93e-d7a3-4386-a16b-6d5c2d21332b","ios":"levelo://app?vid=aeafc93e-d7a3-4386-a16b-6d5c2d21332b"},"vehicle_type_id":"4","last_reported":1740247864,"current_range_meters":10000,"station_id":"ce4bgi12rcd13ifvqb80","pricing_plan_id":"cebpf4jnsgd1na2vs0mg"},{"bike_id":"204095dc-2960-40ef-aa61-b9afac8d1238","system_id":"levelo_inurba_marseille","lat":43.27881,"lon":5.38044,"is_reserved":false,"is_disabled":false,"rental_uris":{"android":"levelo://app?vid=204095dc-2960-40ef-aa61-b9afac8d1238","ios":"levelo://app?vid=204095dc-2960-40ef-aa61-b9afac8d1238"},"vehicle_type_id":"4","last_reported":1740247864,"current_range_meters":9600,"station_id":"ce4bhf92rcd13ifvqf50","pricing_plan_id":"cebpf4jnsgd1na2vs0mg"},{"bike_id":"d4c2bf95-8d10-423b-bf49-456789e477c2","system_id":"levelo_inurba_marseille","lat":43.2842,"lon":5.37502,"is_reserved":false,"is_disabled":false,"rental_uris":{"android":"levelo://app?vid=d4c2bf95-8d10-423b-bf49-456789e477c2","ios":"levelo://app?vid=d4c2bf95-8d10-423b-bf49-456789e477c2"},"vehicle_type_id":"4","last_reported":1740247864,"current_range_meters":10000,"station_id":"ce4bh412rcd13ifvqds0","pricing_plan_id":"cebpf4jnsgd1na2vs0mg"},{"bike_id":"e7d86e51-54a6-4b4d-9947-776227cd3847","system_id":"levelo_inurba_marseille","lat":43.27072,"lon":5.42266,"is_reserved":false,"is_disabled":false,"rental_uris":{"android":"levelo://app?vid=e7d86e51-54a6-4b4d-9947-776227cd3847","ios":"levelo://app?vid=e7d86e51-54a6-4b4d-9947-776227cd3847"},"vehicle_type_id":"4","last_reported":1740247864,"current_range_meters":10000,"station_id":"ce4bhk92rcd13ifvqgb0","pricing_plan_id":"cebpf4jnsgd1na2vs0mg"},{"bike_id":"827ec7e5-1ae5-45b8-890e-b6822ea9bc11","system_id":"levelo_inurba_marseille","lat":43.23956,"lon":5.36646,"is_reserved":false,"is_disabled":false,"rental_uris":{"android":"levelo://app?vid=827ec7e5-1ae5-45b8-890e-b6822ea9bc11","ios":"levelo://app?vid=827ec7e5-1ae5-45b8-890e-b6822ea9bc11"},"vehicle_type_id":"4","last_reported":1740247864,"current_range_meters":10000,"station_id":"ce4bhi12rcd13ifvqfp0","pricing_plan_id":"cebpf4jnsgd1na2vs0mg"},{"bike_id":"6c2befcc-d36d-4770-8667-6d4b38119c6b","system_id":"levelo_inurba_marseille","lat":43.27951,"lon":5.41048,"is_reserved":false,"is_disabled":false,"rental_uris":{"android":"levelo://app?vid=6c2befcc-d36d-4770-8667-6d4b38119c6b","ios":"levelo://app?vid=6c2befcc-d36d-4770-8667-6d4b38119c6b"},"vehicle_type_id":"4","last_reported":1740247864,"current_range_meters":10800,"station_id":"ce4bhnp2rcd13ifvqh0g","pricing_plan_id":"cebpf4jnsgd1na2vs0mg"},{"bike_id":"ba113183-374c-4d98-80f0-8303ec95b01f","system_id":"levelo_inurba_marseille","lat":43.26071,"lon":5.39379,"is_reserved":false,"is_disabled":false,"rental_uris":{"android":"levelo://app?vid=ba113183-374c-4d98-80f0-8303ec95b01f","ios":"levelo://app?vid=ba113183-374c-4d98-80f0-8303ec95b01f"},"vehicle_type_id":"4","last_reported":1740247864,"current_range_meters":10800,"station_id":"ce4bhh92rcd13ifvqfj0","pricing_plan_id":"cebpf4jnsgd1na2vs0mg"},{"bike_id":"e0724dec-3a71-4c3f-801c-446b1984cd11","system_id":"levelo_inurba_marseille","lat":43.27812,"lon":5.40713,"is_reserved":false,"is_disabled":false,"rental_uris":{"android":"levelo://app?vid=e0724dec-3a71-4c3f-801c-446b1984cd11","ios":"levelo://app?vid=e0724dec-3a71-4c3f-801c-446b1984cd11"},"vehicle_type_id":"4","last_reported":1740247864,"current_range_meters":11200,"station_id":"ce4bhnh2rcd13ifvqgtg","pricing_plan_id":"cebpf4jnsgd1na2vs0mg"},{"bike_id":"33e66008-9ce8-4ce9-a934-515d76a303e5","system_id":"levelo_inurba_marseille","lat":43.2679,"lon":5.39408,"is_reserved":false,"is_disabled":false,"rental_uris":{"android":"levelo://app?vid=33e66008-9ce8-4ce9-a934-515d76a303e5","ios":"levelo://app?vid=33e66008-9ce8-4ce9-a934-515d76a303e5"},"vehicle_type_id":"4","last_reported":1740247864,"current_range_meters":10800,"station_id":"ce4bhh12rcd13ifvqfg0","pricing_plan_id":"cebpf4jnsgd1na2vs0mg"},{"bike_id":"142dd829-4ceb-4d8e-a91d-126b9ddb9899","system_id":"levelo_inurba_marseille","lat":43.29266,"lon":5.38428,"is_reserved":false,"is_disabled":false,"rental_uris":{"android":"levelo://app?vid=142dd829-4ceb-4d8e-a91d-126b9ddb9899","ios":"levelo://app?vid=142dd829-4ceb-4d8e-a91d-126b9ddb9899"},"vehicle_type_id":"4","last_reported":1740247864,"current_range_meters":10800,"station_id":"ce4bh692rcd13ifvqea0","pricing_plan_id":"cebpf4jnsgd1na2vs0mg"},{"bike_id":"7c4f070a-5676-461f-8300-06eb94dcdceb","system_id":"levelo_inurba_marseille","lat":43.29564,"lon":5.37517,"is_reserved":false,"is_disabled":false,"rental_uris":{"android":"levelo://app?vid=7c4f070a-5676-461f-8300-06eb94dcdceb","ios":"levelo://app?vid=7c4f070a-5676-461f-8300-06eb94dcdceb"},"vehicle_type_id":"4","last_reported":1740247864,"current_range_meters":10800,"station_id":"ce4bgh92rcd13ifvqb50","pricing_plan_id":"cebpf4jnsgd1na2vs0mg"},{"bike_id":"8d436272-13a2-4fad-bffe-7e52173d707d","system_id":"levelo_inurba_marseille","lat":43.27811,"lon":5.40715,"is_reserved":false,"is_disabled":false,"rental_uris":{"android":"levelo://app?vid=8d436272-13a2-4fad-bffe-7e52173d707d","ios":"levelo://app?vid=8d436272-13a2-4fad-bffe-7e52173d707d"},"vehicle_type_id":"4","last_reported":1740247864,"current_range_meters":10000,"station_id":"ce4bhnh2rcd13ifvqgtg","pricing_plan_id":"cebpf4jnsgd1na2vs0mg"},{"bike_id":"2f45fbce-9b64-47dc-a24f-9bc4d5936877","system_id":"levelo_inurba_marseille","lat":43.29423,"lon":5.3862,"is_reserved":false,"is_disabled":false,"rental_uris":{"android":"levelo://app?vid=2f45fbce-9b64-47dc-a24f-9bc4d5936877","ios":"levelo://app?vid=2f45fbce-9b64-47dc-a24f-9bc4d5936877"},"vehicle_type_id":"4","last_reported":1740247864,"current_range_meters":10800,"station_id":"ce4bh2h2rcd13ifvqdh0","pricing_plan_id":"cebpf4jnsgd1na2vs0mg"},{"bike_id":"c6a1ef00-1084-493b-8248-9658c4452943","system_id":"levelo_inurba_marseille","lat":43.28257,"lon":5.39023,"is_reserved":false,"is_disabled":false,"rental_uris":{"android":"levelo://app?vid=c6a1ef00-1084-493b-8248-9658c4452943","ios":"levelo://app?vid=c6a1ef00-1084-493b-8248-9658c4452943"},"vehicle_type_id":"4","last_reported":1740247864,"current_range_meters":10800,"station_id":"","pricing_plan_id":"cebpf4jnsgd1na2vs0mg"},{"bike_id":"e1d0ef38-3d84-4447-8364-5e8d3bb1510d","system_id":"levelo_inurba_marseille","lat":43.2962,"lon":5.37152,"is_reserved":false,"is_disabled":false,"rental_uris":{"android":"levelo://app?vid=e1d0ef38-3d84-4447-8364-5e8d3bb1510d","ios":"levelo://app?vid=e1d0ef38-3d84-4447-8364-5e8d3bb1510d"},"vehicle_type_id":"4","last_reported":1740247864,"current_range_meters":10800,"station_id":"ce4bgnh2rcd13ifvqc0g","pricing_plan_id":"cebpf4jnsgd1na2vs0mg"},{"bike_id":"06b0093a-0f4f-460b-ae5b-3c4200fc85a6","system_id":"levelo_inurba_marseille","lat":43.28041,"lon":5.36951,"is_reserved":false,"is_disabled":false,"rental_uris":{"android":"levelo://app?vid=06b0093a-0f4f-460b-ae5b-3c4200fc85a6","ios":"levelo://app?vid=06b0093a-0f4f-460b-ae5b-3c4200fc85a6"},"vehicle_type_id":"4","last_reported":1740247864,"current_range_meters":9200,"station_id":"ce4bha12rcd13ifvqef0","pricing_plan_id":"cebpf4jnsgd1na2vs0mg"},{"bike_id":"c76531ac-1214-4592-9c1c-6b2ce2bc0cf8","system_id":"levelo_inurba_marseille","lat":43.2319,"lon":5.35547,"is_reserved":false,"is_disabled":false,"rental_uris":{"android":"levelo://app?vid=c76531ac-1214-4592-9c1c-6b2ce2bc0cf8","ios":"levelo://app?vid=c76531ac-1214-4592-9c1c-6b2ce2bc0cf8"},"vehicle_type_id":"4","last_reported":1740247864,"current_range_meters":11200,"station_id":"ce4bhu92rcd13ifvqi70","pricing_plan_id":"cebpf4jnsgd1na2vs0mg"},{"bike_id":"407784b0-8dc0-4f97-855d-6892371d8acc","system_id":"levelo_inurba_marseille","lat":43.2797,"lon":5.38725,"is_reserved":false,"is_disabled":false,"rental_uris":{"android":"levelo://app?vid=407784b0-8dc0-4f97-855d-6892371d8acc","ios":"levelo://app?vid=407784b0-8dc0-4f97-855d-6892371d8acc"},"vehicle_type_id":"4","last_reported":1740247864,"current_range_meters":11600,"station_id":"ce4bhg12rcd13ifvqf80","pricing_plan_id":"cebpf4jnsgd1na2vs0mg"},{"bike_id":"519c0d90-c598-4074-9c80-d5e1565ff705","system_id":"levelo_inurba_marseille","lat":43.23059,"lon":5.35478,"is_reserved":false,"is_disabled":false,"rental_uris":{"android":"levelo://app?vid=519c0d90-c598-4074-9c80-d5e1565ff705","ios":"levelo://app?vid=519c0d90-c598-4074-9c80-d5e1565ff705"},"vehicle_type_id":"4","last_reported":1740247864,"current_range_meters":11600,"station_id":"cpo3342slgdg3j2ifvpg","pricing_plan_id":"cebpf4jnsgd1na2vs0mg"},{"bike_id":"08bd1cfc-52f1-4d42-a306-9a4f64aa2414","system_id":"levelo_inurba_marseille","lat":43.29619,"lon":5.37175,"is_reserved":false,"is_disabled":false,"rental_uris":{"android":"levelo://app?vid=08bd1cfc-52f1-4d42-a306-9a4f64aa2414","ios":"levelo://app?vid=08bd1cfc-52f1-4d42-a306-9a4f64aa2414"},"vehicle_type_id":"4","last_reported":1740247864,"current_range_meters":10000,"station_id":"ce4bgnh2rcd13ifvqc0g","pricing_plan_id":"cebpf4jnsgd1na2vs0mg"},{"bike_id":"ddb48cd1-bcb3-4cac-8164-1ae412ca1019","system_id":"levelo_inurba_marseille","lat":43.29324,"lon":5.37236,"is_reserved":false,"is_disabled":false,"rental_uris":{"android":"levelo://app?vid=ddb48cd1-bcb3-4cac-8164-1ae412ca1019","ios":"levelo://app?vid=ddb48cd1-bcb3-4cac-8164-1ae412ca1019"},"vehicle_type_id":"4","last_reported":1740247864,"current_range_meters":11600,"station_id":"ce4bgh92rcd13ifvqb40","pricing_plan_id":"cebpf4jnsgd1na2vs0mg"},{"bike_id":"a2556d49-a842-4281-aa13-3d4dd518c104","system_id":"levelo_inurba_marseille","lat":43.26781,"lon":5.394132,"is_reserved":false,"is_disabled":false,"rental_uris":{"android":"levelo://app?vid=a2556d49-a842-4281-aa13-3d4dd518c104","ios":"levelo://app?vid=a2556d49-a842-4281-aa13-3d4dd518c104"},"vehicle_type_id":"4","last_reported":1740247864,"current_range_meters":7200,"station_id":"ce4bhl12rcd13ifvqgf0","pricing_plan_id":"cebpf4jnsgd1na2vs0mg"},{"bike_id":"0b35ef10-1d1d-4e8a-949e-c3122c5e3874","system_id":"levelo_inurba_marseille","lat":43.23956,"lon":5.36635,"is_reserved":false,"is_disabled":false,"rental_uris":{"android":"levelo://app?vid=0b35ef10-1d1d-4e8a-949e-c3122c5e3874","ios":"levelo://app?vid=0b35ef10-1d1d-4e8a-949e-c3122c5e3874"},"vehicle_type_id":"4","last_reported":1740247864,"current_range_meters":12000,"station_id":"ce4bhi12rcd13ifvqfp0","pricing_plan_id":"cebpf4jnsgd1na2vs0mg"},{"bike_id":"912251b5-6bb0-4ffc-874e-269d5ad9ec9b","system_id":"levelo_inurba_marseille","lat":43.30185,"lon":5.36625,"is_reserved":false,"is_disabled":false,"rental_uris":{"android":"levelo://app?vid=912251b5-6bb0-4ffc-874e-269d5ad9ec9b","ios":"levelo://app?vid=912251b5-6bb0-4ffc-874e-269d5ad9ec9b"},"vehicle_type_id":"4","last_reported":1740247864,"current_range_meters":12000,"station_id":"ce4bgrh2rcd13ifvqc8g","pricing_plan_id":"cebpf4jnsgd1na2vs0mg"},{"bike_id":"0dd7a6a7-a2db-4a68-977f-712cd46b599f","system_id":"levelo_inurba_marseille","lat":43.26914,"lon":5.40257,"is_reserved":false,"is_disabled":false,"rental_uris":{"android":"levelo://app?vid=0dd7a6a7-a2db-4a68-977f-712cd46b599f","ios":"levelo://app?vid=0dd7a6a7-a2db-4a68-977f-712cd46b599f"},"vehicle_type_id":"4","last_reported":1740247864,"current_range_meters":12000,"station_id":"cjm6bp8fraef2m0cb0m0","pricing_plan_id":"cebpf4jnsgd1na2vs0mg"},{"bike_id":"aa2a34d2-7c57-465b-8072-5c6169a80dbc","system_id":"levelo_inurba_marseille","lat":43.29575,"lon":5.37508,"is_reserved":false,"is_disabled":false,"rental_uris":{"android":"levelo://app?vid=aa2a34d2-7c57-465b-8072-5c6169a80dbc","ios":"levelo://app?vid=aa2a34d2-7c57-465b-8072-5c6169a80dbc"},"vehicle_type_id":"4","last_reported":1740247864,"current_range_meters":12000,"station_id":"ce4bgh92rcd13ifvqb50","pricing_plan_id":"cebpf4jnsgd1na2vs0mg"},{"bike_id":"c3e52c73-d5a6-4495-93d8-58a72c86c1ed","system_id":"levelo_inurba_marseille","lat":43.29217,"lon":5.38315,"is_reserved":false,"is_disabled":false,"rental_uris":{"android":"levelo://app?vid=c3e52c73-d5a6-4495-93d8-58a72c86c1ed","ios":"levelo://app?vid=c3e52c73-d5a6-4495-93d8-58a72c86c1ed"},"vehicle_type_id":"4","last_reported":1740247864,"current_range_meters":12000,"station_id":"","pricing_plan_id":"cebpf4jnsgd1na2vs0mg"},{"bike_id":"c327cb3d-704d-4df3-91ff-967b6ed638ca","system_id":"levelo_inurba_marseille","lat":43.290323,"lon":5.375618,"is_reserved":false,"is_disabled":false,"rental_uris":{"android":"levelo://app?vid=c327cb3d-704d-4df3-91ff-967b6ed638ca","ios":"levelo://app?vid=c327cb3d-704d-4df3-91ff-967b6ed638ca"},"vehicle_type_id":"4","last_reported":1740247864,"current_range_meters":12000,"station_id":"ce4bhh92rcd13ifvqfi0","pricing_plan_id":"cebpf4jnsgd1na2vs0mg"},{"bike_id":"3337cd90-bf48-41f0-a733-5e782d6f712b","system_id":"levelo_inurba_marseille","lat":43.29726,"lon":5.37689,"is_reserved":false,"is_disabled":true,"rental_uris":{"android":"levelo://app?vid=3337cd90-bf48-41f0-a733-5e782d6f712b","ios":"levelo://app?vid=3337cd90-bf48-41f0-a733-5e782d6f712b"},"vehicle_type_id":"4","last_reported":1740247864,"current_range_meters":12400,"station_id":"ce4bgkh2rcd13ifvqbl0","pricing_plan_id":"cebpf4jnsgd1na2vs0mg"},{"bike_id":"0cbdc7db-e372-42dd-8a51-fce12b0398e6","system_id":"levelo_inurba_marseille","lat":43.2813,"lon":5.37862,"is_reserved":false,"is_disabled":false,"rental_uris":{"android":"levelo://app?vid=0cbdc7db-e372-42dd-8a51-fce12b0398e6","ios":"levelo://app?vid=0cbdc7db-e372-42dd-8a51-fce12b0398e6"},"vehicle_type_id":"4","last_reported":1740247864,"current_range_meters":12400,"station_id":"ce4bha12rcd13ifvqee0","pricing_plan_id":"cebpf4jnsgd1na2vs0mg"},{"bike_id":"647681d7-7507-414c-a31f-f8ec01d4a662","system_id":"levelo_inurba_marseille","lat":43.28828,"lon":5.38445,"is_reserved":false,"is_disabled":false,"rental_uris":{"android":"levelo://app?vid=647681d7-7507-414c-a31f-f8ec01d4a662","ios":"levelo://app?vid=647681d7-7507-414c-a31f-f8ec01d4a662"},"vehicle_type_id":"4","last_reported":1740247864,"current_range_meters":12400,"station_id":"","pricing_plan_id":"cebpf4jnsgd1na2vs0mg"},{"bike_id":"1b5b87c8-f96f-4740-8b60-bcc62c6e3f59","system_id":"levelo_inurba_marseille","lat":43.31399,"lon":5.38441,"is_reserved":false,"is_disabled":false,"rental_uris":{"android":"levelo://app?vid=1b5b87c8-f96f-4740-8b60-bcc62c6e3f59","ios":"levelo://app?vid=1b5b87c8-f96f-4740-8b60-bcc62c6e3f59"},"vehicle_type_id":"4","last_reported":1740247864,"current_range_meters":12400,"station_id":"","pricing_plan_id":"cebpf4jnsgd1na2vs0mg"},{"bike_id":"f91cc6b0-e755-4e0f-bbb6-7e3a01fe243a","system_id":"levelo_inurba_marseille","lat":43.29921,"lon":5.37474,"is_reserved":false,"is_disabled":false,"rental_uris":{"android":"levelo://app?vid=f91cc6b0-e755-4e0f-bbb6-7e3a01fe243a","ios":"levelo://app?vid=f91cc6b0-e755-4e0f-bbb6-7e3a01fe243a"},"vehicle_type_id":"4","last_reported":1740247864,"current_range_meters":11600,"station_id":"ce4bgjh2rcd13ifvqbg0","pricing_plan_id":"cebpf4jnsgd1na2vs0mg"},{"bike_id":"1b0d6542-f74d-4dd5-b78b-1cd1115ff80b","system_id":"levelo_inurba_marseille","lat":43.30602,"lon":5.37389,"is_reserved":false,"is_disabled":false,"rental_uris":{"android":"levelo://app?vid=1b0d6542-f74d-4dd5-b78b-1cd1115ff80b","ios":"levelo://app?vid=1b0d6542-f74d-4dd5-b78b-1cd1115ff80b"},"vehicle_type_id":"4","last_reported":1740247864,"current_range_meters":12800,"station_id":"","pricing_plan_id":"cebpf4jnsgd1na2vs0mg"},{"bike_id":"b1e0e0af-86d3-412b-9b05-0dbdbea5b339","system_id":"levelo_inurba_marseille","lat":43.28488,"lon":5.38433,"is_reserved":false,"is_disabled":false,"rental_uris":{"android":"levelo://app?vid=b1e0e0af-86d3-412b-9b05-0dbdbea5b339","ios":"levelo://app?vid=b1e0e0af-86d3-412b-9b05-0dbdbea5b339"},"vehicle_type_id":"4","last_reported":1740247864,"current_range_meters":12800,"station_id":"ce4bh512rcd13ifvqe3g","pricing_plan_id":"cebpf4jnsgd1na2vs0mg"},{"bike_id":"eea79a06-f164-4b36-9ab2-e3ff22c5137d","system_id":"levelo_inurba_marseille","lat":43.29285,"lon":5.37434,"is_reserved":false,"is_disabled":false,"rental_uris":{"android":"levelo://app?vid=eea79a06-f164-4b36-9ab2-e3ff22c5137d","ios":"levelo://app?vid=eea79a06-f164-4b36-9ab2-e3ff22c5137d"},"vehicle_type_id":"4","last_reported":1740247864,"current_range_meters":12800,"station_id":"ce4bgi12rcd13ifvqb70","pricing_plan_id":"cebpf4jnsgd1na2vs0mg"},{"bike_id":"d88699b9-7a50-415c-9cdb-a35fdc00ed80","system_id":"levelo_inurba_marseille","lat":43.29934,"lon":5.37193,"is_reserved":false,"is_disabled":false,"rental_uris":{"android":"levelo://app?vid=d88699b9-7a50-415c-9cdb-a35fdc00ed80","ios":"levelo://app?vid=d88699b9-7a50-415c-9cdb-a35fdc00ed80"},"vehicle_type_id":"4","last_reported":1740247864,"current_range_meters":12800,"station_id":"","pricing_plan_id":"cebpf4jnsgd1na2vs0mg"},{"bike_id":"0dc10df1-2422-4347-8406-45044f046857","system_id":"levelo_inurba_marseille","lat":43.27384,"lon":5.36265,"is_reserved":false,"is_disabled":false,"rental_uris":{"android":"levelo://app?vid=0dc10df1-2422-4347-8406-45044f046857","ios":"levelo://app?vid=0dc10df1-2422-4347-8406-45044f046857"},"vehicle_type_id":"4","last_reported":1740247864,"current_range_meters":12800,"station_id":"ce4bhbh2rcd13ifvqeo0","pricing_plan_id":"cebpf4jnsgd1na2vs0mg"},{"bike_id":"95362cba-5fbe-4836-b460-9fb97e092a0d","system_id":"levelo_inurba_marseille","lat":43.25005,"lon":5.38924,"is_reserved":false,"is_disabled":false,"rental_uris":{"android":"levelo://app?vid=95362cba-5fbe-4836-b460-9fb97e092a0d","ios":"levelo://app?vid=95362cba-5fbe-4836-b460-9fb97e092a0d"},"vehicle_type_id":"4","last_reported":1740247864,"current_range_meters":12800,"station_id":"ce4bhgp2rcd13ifvqfd0","pricing_plan_id":"cebpf4jnsgd1na2vs0mg"},{"bike_id":"47a7282b-8e55-4c12-91ff-7d8949ecb506","system_id":"levelo_inurba_marseille","lat":43.29415,"lon":5.38625,"is_reserved":false,"is_disabled":false,"rental_uris":{"android":"levelo://app?vid=47a7282b-8e55-4c12-91ff-7d8949ecb506","ios":"levelo://app?vid=47a7282b-8e55-4c12-91ff-7d8949ecb506"},"vehicle_type_id":"4","last_reported":1740247864,"current_range_meters":12800,"station_id":"ce4bh2h2rcd13ifvqdh0","pricing_plan_id":"cebpf4jnsgd1na2vs0mg"},{"bike_id":"f2c1cb01-98c3-4bbf-a1a0-7be1546f3865","system_id":"levelo_inurba_marseille","lat":43.292167,"lon":5.359267,"is_reserved":false,"is_disabled":false,"rental_uris":{"android":"levelo://app?vid=f2c1cb01-98c3-4bbf-a1a0-7be1546f3865","ios":"levelo://app?vid=f2c1cb01-98c3-4bbf-a1a0-7be1546f3865"},"vehicle_type_id":"4","last_reported":1740247864,"current_range_meters":10000,"station_id":"ce4bhb12rcd13ifvqel0","pricing_plan_id":"cebpf4jnsgd1na2vs0mg"},{"bike_id":"49f1d6cd-820b-4f4a-af58-adbb03aaeaa2","system_id":"levelo_inurba_marseille","lat":43.282837,"lon":5.350752,"is_reserved":false,"is_disabled":false,"rental_uris":{"android":"levelo://app?vid=49f1d6cd-820b-4f4a-af58-adbb03aaeaa2","ios":"levelo://app?vid=49f1d6cd-820b-4f4a-af58-adbb03aaeaa2"},"vehicle_type_id":"4","last_reported":1740247864,"current_range_meters":12800,"station_id":"ce4bhbp2rcd13ifvqerg","pricing_plan_id":"cebpf4jnsgd1na2vs0mg"},{"bike_id":"a295e3b4-b31b-4d71-989a-12f449db7098","system_id":"levelo_inurba_marseille","lat":43.29533,"lon":5.37501,"is_reserved":false,"is_disabled":false,"rental_uris":{"android":"levelo://app?vid=a295e3b4-b31b-4d71-989a-12f449db7098","ios":"levelo://app?vid=a295e3b4-b31b-4d71-989a-12f449db7098"},"vehicle_type_id":"4","last_reported":1740247864,"current_range_meters":12800,"station_id":"ce4bgkp2rcd13ifvqbmg","pricing_plan_id":"cebpf4jnsgd1na2vs0mg"},{"bike_id":"b2616e31-79a9-48f4-961d-0249f5973ee0","system_id":"levelo_inurba_marseille","lat":43.29601,"lon":5.38088,"is_reserved":false,"is_disabled":false,"rental_uris":{"android":"levelo://app?vid=b2616e31-79a9-48f4-961d-0249f5973ee0","ios":"levelo://app?vid=b2616e31-79a9-48f4-961d-0249f5973ee0"},"vehicle_type_id":"4","last_reported":1740247864,"current_range_meters":12800,"station_id":"ce4bgl12rcd13ifvqbo0","pricing_plan_id":"cebpf4jnsgd1na2vs0mg"},{"bike_id":"1f7411cd-9379-4bab-a8bc-411b928d8602","system_id":"levelo_inurba_marseille","lat":43.27493,"lon":5.42457,"is_reserved":false,"is_disabled":false,"rental_uris":{"android":"levelo://app?vid=1f7411cd-9379-4bab-a8bc-411b928d8602","ios":"levelo://app?vid=1f7411cd-9379-4bab-a8bc-411b928d8602"},"vehicle_type_id":"4","last_reported":1740247864,"current_range_meters":13600,"station_id":"ce4bhn92rcd13ifvqgrg","pricing_plan_id":"cebpf4jnsgd1na2vs0mg"},{"bike_id":"5229174d-8735-4dc8-ad5d-7f5e817282c9","system_id":"levelo_inurba_marseille","lat":43.29276,"lon":5.36846,"is_reserved":false,"is_disabled":false,"rental_uris":{"android":"levelo://app?vid=5229174d-8735-4dc8-ad5d-7f5e817282c9","ios":"levelo://app?vid=5229174d-8735-4dc8-ad5d-7f5e817282c9"},"vehicle_type_id":"4","last_reported":1740247864,"current_range_meters":13600,"station_id":"ce4bhbp2rcd13ifvqesg","pricing_plan_id":"cebpf4jnsgd1na2vs0mg"},{"bike_id":"ab8e4fa1-a748-4b68-9f46-2fdc2afb052f","system_id":"levelo_inurba_marseille","lat":43.25832,"lon":5.39434,"is_reserved":false,"is_disabled":false,"rental_uris":{"android":"levelo://app?vid=ab8e4fa1-a748-4b68-9f46-2fdc2afb052f","ios":"levelo://app?vid=ab8e4fa1-a748-4b68-9f46-2fdc2afb052f"},"vehicle_type_id":"4","last_reported":1740247864,"current_range_meters":13600,"station_id":"ce4bhip2rcd13ifvqft0","pricing_plan_id":"cebpf4jnsgd1na2vs0mg"},{"bike_id":"205903f3-7eb7-45a4-a2ac-125a5dae63b1","system_id":"levelo_inurba_marseille","lat":43.29262,"lon":5.38429,"is_reserved":false,"is_disabled":false,"rental_uris":{"android":"levelo://app?vid=205903f3-7eb7-45a4-a2ac-125a5dae63b1","ios":"levelo://app?vid=205903f3-7eb7-45a4-a2ac-125a5dae63b1"},"vehicle_type_id":"4","last_reported":1740247864,"current_range_meters":13600,"station_id":"ce4bh692rcd13ifvqea0","pricing_plan_id":"cebpf4jnsgd1na2vs0mg"},{"bike_id":"214751c8-afbe-4bba-b104-863cbcae144e","system_id":"levelo_inurba_marseille","lat":43.291745,"lon":5.371472,"is_reserved":false,"is_disabled":false,"rental_uris":{"android":"levelo://app?vid=214751c8-afbe-4bba-b104-863cbcae144e","ios":"levelo://app?vid=214751c8-afbe-4bba-b104-863cbcae144e"},"vehicle_type_id":"4","last_reported":1740247864,"current_range_meters":8800,"station_id":"ce4bh3h2rcd13ifvqdo0","pricing_plan_id":"cebpf4jnsgd1na2vs0mg"},{"bike_id":"ce12cf56-bf54-4615-8895-a2e1e805c111","system_id":"levelo_inurba_marseille","lat":43.30463,"lon":5.37909,"is_reserved":false,"is_disabled":false,"rental_uris":{"android":"levelo://app?vid=ce12cf56-bf54-4615-8895-a2e1e805c111","ios":"levelo://app?vid=ce12cf56-bf54-4615-8895-a2e1e805c111"},"vehicle_type_id":"4","last_reported":1740247864,"current_range_meters":13600,"station_id":"ce4bgup2rcd13ifvqcn0","pricing_plan_id":"cebpf4jnsgd1na2vs0mg"},{"bike_id":"4cc1b263-c509-4659-950d-f8de49907c13","system_id":"levelo_inurba_marseille","lat":43.29562,"lon":5.3749,"is_reserved":false,"is_disabled":false,"rental_uris":{"android":"levelo://app?vid=4cc1b263-c509-4659-950d-f8de49907c13","ios":"levelo://app?vid=4cc1b263-c509-4659-950d-f8de49907c13"},"vehicle_type_id":"4","last_reported":1740247864,"current_range_meters":13600,"station_id":"ce4bgkp2rcd13ifvqbmg","pricing_plan_id":"cebpf4jnsgd1na2vs0mg"},{"bike_id":"ba5d0a02-6d25-4dd6-b762-7aa4a1955a19","system_id":"levelo_inurba_marseille","lat":43.30137,"lon":5.39873,"is_reserved":false,"is_disabled":false,"rental_uris":{"android":"levelo://app?vid=ba5d0a02-6d25-4dd6-b762-7aa4a1955a19","ios":"levelo://app?vid=ba5d0a02-6d25-4dd6-b762-7aa4a1955a19"},"vehicle_type_id":"4","last_reported":1740247864,"current_range_meters":14000,"station_id":"ce4bh0h2rcd13ifvqd40","pricing_plan_id":"cebpf4jnsgd1na2vs0mg"},{"bike_id":"9608ad17-0f97-4e11-abf5-e8c92d8f8ac5","system_id":"levelo_inurba_marseille","lat":43.27835,"lon":5.39207,"is_reserved":false,"is_disabled":false,"rental_uris":{"android":"levelo://app?vid=9608ad17-0f97-4e11-abf5-e8c92d8f8ac5","ios":"levelo://app?vid=9608ad17-0f97-4e11-abf5-e8c92d8f8ac5"},"vehicle_type_id":"4","last_reported":1740247864,"current_range_meters":11200,"station_id":"ce4bhjp2rcd13ifvqga0","pricing_plan_id":"cebpf4jnsgd1na2vs0mg"},{"bike_id":"029edfd1-00eb-4ff7-8e59-974c8fe45f33","system_id":"levelo_inurba_marseille","lat":43.26595,"lon":5.39036,"is_reserved":false,"is_disabled":false,"rental_uris":{"android":"levelo://app?vid=029edfd1-00eb-4ff7-8e59-974c8fe45f33","ios":"levelo://app?vid=029edfd1-00eb-4ff7-8e59-974c8fe45f33"},"vehicle_type_id":"4","last_reported":1740247864,"current_range_meters":14000,"station_id":"ce4bhe12rcd13ifvqf30","pricing_plan_id":"cebpf4jnsgd1na2vs0mg"},{"bike_id":"3fd2a98c-7939-498c-8625-9658300a849b","system_id":"levelo_inurba_marseille","lat":43.25925,"lon":5.40889,"is_reserved":false,"is_disabled":false,"rental_uris":{"android":"levelo://app?vid=3fd2a98c-7939-498c-8625-9658300a849b","ios":"levelo://app?vid=3fd2a98c-7939-498c-8625-9658300a849b"},"vehicle_type_id":"4","last_reported":1740247864,"current_range_meters":14400,"station_id":"ce4bhm92rcd13ifvqglg","pricing_plan_id":"cebpf4jnsgd1na2vs0mg"},{"bike_id":"9590d963-d922-4c1b-94b4-ecdacf1e6266","system_id":"levelo_inurba_marseille","lat":43.3041,"lon":5.38867,"is_reserved":false,"is_disabled":false,"rental_uris":{"android":"levelo://app?vid=9590d963-d922-4c1b-94b4-ecdacf1e6266","ios":"levelo://app?vid=9590d963-d922-4c1b-94b4-ecdacf1e6266"},"vehicle_type_id":"4","last_reported":1740247864,"current_range_meters":9200,"station_id":"ce4bgk12rcd13ifvqbi0","pricing_plan_id":"cebpf4jnsgd1na2vs0mg"},{"bike_id":"d3d3e97f-08ed-4b0a-8d34-8a003b86a4f8","system_id":"levelo_inurba_marseille","lat":43.2656,"lon":5.39034,"is_reserved":false,"is_disabled":false,"rental_uris":{"android":"levelo://app?vid=d3d3e97f-08ed-4b0a-8d34-8a003b86a4f8","ios":"levelo://app?vid=d3d3e97f-08ed-4b0a-8d34-8a003b86a4f8"},"vehicle_type_id":"4","last_reported":1740247864,"current_range_meters":14400,"station_id":"ce4bhe12rcd13ifvqf30","pricing_plan_id":"cebpf4jnsgd1na2vs0mg"},{"bike_id":"07e94c33-65a8-4be0-90bf-399fe126c10e","system_id":"levelo_inurba_marseille","lat":43.25005,"lon":5.38921,"is_reserved":false,"is_disabled":false,"rental_uris":{"android":"levelo://app?vid=07e94c33-65a8-4be0-90bf-399fe126c10e","ios":"levelo://app?vid=07e94c33-65a8-4be0-90bf-399fe126c10e"},"vehicle_type_id":"4","last_reported":1740247864,"current_range_meters":14400,"station_id":"ce4bhgp2rcd13ifvqfd0","pricing_plan_id":"cebpf4jnsgd1na2vs0mg"},{"bike_id":"1b53e3d4-b770-4f76-b1de-4fff2228f420","system_id":"levelo_inurba_marseille","lat":43.29615,"lon":5.38081,"is_reserved":false,"is_disabled":false,"rental_uris":{"android":"levelo://app?vid=1b53e3d4-b770-4f76-b1de-4fff2228f420","ios":"levelo://app?vid=1b53e3d4-b770-4f76-b1de-4fff2228f420"},"vehicle_type_id":"4","last_reported":1740247864,"current_range_meters":14400,"station_id":"ce4bgl12rcd13ifvqbo0","pricing_plan_id":"cebpf4jnsgd1na2vs0mg"},{"bike_id":"ad5d970e-426b-4f89-94bd-e7196f45d370","system_id":"levelo_inurba_marseille","lat":43.32119,"lon":5.36766,"is_reserved":false,"is_disabled":false,"rental_uris":{"android":"levelo://app?vid=ad5d970e-426b-4f89-94bd-e7196f45d370","ios":"levelo://app?vid=ad5d970e-426b-4f89-94bd-e7196f45d370"},"vehicle_type_id":"4","last_reported":1740247864,"current_range_meters":14400,"station_id":"ce4bhrh2rcd13ifvqhug","pricing_plan_id":"cebpf4jnsgd1na2vs0mg"},{"bike_id":"4bc5763a-4dbb-4a3a-b2ef-922b46daadb5","system_id":"levelo_inurba_marseille","lat":43.2706,"lon":5.40257,"is_reserved":false,"is_disabled":false,"rental_uris":{"android":"levelo://app?vid=4bc5763a-4dbb-4a3a-b2ef-922b46daadb5","ios":"levelo://app?vid=4bc5763a-4dbb-4a3a-b2ef-922b46daadb5"},"vehicle_type_id":"4","last_reported":1740247864,"current_range_meters":14800,"station_id":"ce4bhk92rcd13ifvqgc0","pricing_plan_id":"cebpf4jnsgd1na2vs0mg"},{"bike_id":"6bb44f71-e2a4-4da1-9a53-fbfa8fde2d17","system_id":"levelo_inurba_marseille","lat":43.28372,"lon":5.38645,"is_reserved":false,"is_disabled":false,"rental_uris":{"android":"levelo://app?vid=6bb44f71-e2a4-4da1-9a53-fbfa8fde2d17","ios":"levelo://app?vid=6bb44f71-e2a4-4da1-9a53-fbfa8fde2d17"},"vehicle_type_id":"4","last_reported":1740247864,"current_range_meters":14800,"station_id":"ce4bh492rcd13ifvqdvg","pricing_plan_id":"cebpf4jnsgd1na2vs0mg"},{"bike_id":"07806cbe-43f2-4710-9696-459edd425e9b","system_id":"levelo_inurba_marseille","lat":43.31345,"lon":5.39692,"is_reserved":false,"is_disabled":false,"rental_uris":{"android":"levelo://app?vid=07806cbe-43f2-4710-9696-459edd425e9b","ios":"levelo://app?vid=07806cbe-43f2-4710-9696-459edd425e9b"},"vehicle_type_id":"4","last_reported":1740247864,"current_range_meters":17200,"station_id":"ce4bh092rcd13ifvqd30","pricing_plan_id":"cebpf4jnsgd1na2vs0mg"},{"bike_id":"8e403f8a-b998-4fb1-bb90-54bf70e024a5","system_id":"levelo_inurba_marseille","lat":43.26935,"lon":5.389166,"is_reserved":false,"is_disabled":false,"rental_uris":{"android":"levelo://app?vid=8e403f8a-b998-4fb1-bb90-54bf70e024a5","ios":"levelo://app?vid=8e403f8a-b998-4fb1-bb90-54bf70e024a5"},"vehicle_type_id":"4","last_reported":1740247864,"current_range_meters":14800,"station_id":"ce4bhhh2rcd13ifvqfl0","pricing_plan_id":"cebpf4jnsgd1na2vs0mg"},{"bike_id":"2b55d732-7264-4751-841c-f63cdb42bafe","system_id":"levelo_inurba_marseille","lat":43.30951,"lon":5.39041,"is_reserved":false,"is_disabled":false,"rental_uris":{"android":"levelo://app?vid=2b55d732-7264-4751-841c-f63cdb42bafe","ios":"levelo://app?vid=2b55d732-7264-4751-841c-f63cdb42bafe"},"vehicle_type_id":"4","last_reported":1740247864,"current_range_meters":15200,"station_id":"ce4bgup2rcd13ifvqco0","pricing_plan_id":"cebpf4jnsgd1na2vs0mg"},{"bike_id":"87960040-de76-45c5-899a-b02fe185e865","system_id":"levelo_inurba_marseille","lat":43.28916,"lon":5.38388,"is_reserved":false,"is_disabled":false,"rental_uris":{"android":"levelo://app?vid=87960040-de76-45c5-899a-b02fe185e865","ios":"levelo://app?vid=87960040-de76-45c5-899a-b02fe185e865"},"vehicle_type_id":"4","last_reported":1740247864,"current_range_meters":15200,"station_id":"ce4bh612rcd13ifvqe6g","pricing_plan_id":"cebpf4jnsgd1na2vs0mg"},{"bike_id":"025e813a-671a-4ec8-9fc4-a9ae492304f7","system_id":"levelo_inurba_marseille","lat":43.31995,"lon":5.38148,"is_reserved":false,"is_disabled":false,"rental_uris":{"android":"levelo://app?vid=025e813a-671a-4ec8-9fc4-a9ae492304f7","ios":"levelo://app?vid=025e813a-671a-4ec8-9fc4-a9ae492304f7"},"vehicle_type_id":"4","last_reported":1740247864,"current_range_meters":16000,"station_id":"ce4bhr12rcd13ifvqhpg","pricing_plan_id":"cebpf4jnsgd1na2vs0mg"},{"bike_id":"056f4025-d7ac-40f8-85af-14d8cbbd861d","system_id":"levelo_inurba_marseille","lat":43.2962,"lon":5.38107,"is_reserved":false,"is_disabled":false,"rental_uris":{"android":"levelo://app?vid=056f4025-d7ac-40f8-85af-14d8cbbd861d","ios":"levelo://app?vid=056f4025-d7ac-40f8-85af-14d8cbbd861d"},"vehicle_type_id":"4","last_reported":1740247864,"current_range_meters":16000,"station_id":"ce4bgl12rcd13ifvqbo0","pricing_plan_id":"cebpf4jnsgd1na2vs0mg"},{"bike_id":"bf955d35-f5d5-4c7a-acee-2eb7e71c40f9","system_id":"levelo_inurba_marseille","lat":43.26692,"lon":5.38255,"is_reserved":false,"is_disabled":false,"rental_uris":{"android":"levelo://app?vid=bf955d35-f5d5-4c7a-acee-2eb7e71c40f9","ios":"levelo://app?vid=bf955d35-f5d5-4c7a-acee-2eb7e71c40f9"},"vehicle_type_id":"4","last_reported":1740247864,"current_range_meters":16000,"station_id":"ce4bhg92rcd13ifvqf90","pricing_plan_id":"cebpf4jnsgd1na2vs0mg"},{"bike_id":"095d5026-b6cb-411c-ab71-6c60703e2b2f","system_id":"levelo_inurba_marseille","lat":43.23054,"lon":5.3549,"is_reserved":false,"is_disabled":true,"rental_uris":{"android":"levelo://app?vid=095d5026-b6cb-411c-ab71-6c60703e2b2f","ios":"levelo://app?vid=095d5026-b6cb-411c-ab71-6c60703e2b2f"},"vehicle_type_id":"4","last_reported":1740247864,"current_range_meters":16000,"station_id":"cpo3342slgdg3j2ifvpg","pricing_plan_id":"cebpf4jnsgd1na2vs0mg"},{"bike_id":"49f0cfbd-4a05-40e7-84e3-188b77d24ee2","system_id":"levelo_inurba_marseille","lat":43.29321,"lon":5.37162,"is_reserved":false,"is_disabled":false,"rental_uris":{"android":"levelo://app?vid=49f0cfbd-4a05-40e7-84e3-188b77d24ee2","ios":"levelo://app?vid=49f0cfbd-4a05-40e7-84e3-188b77d24ee2"},"vehicle_type_id":"4","last_reported":1740247864,"current_range_meters":16000,"station_id":"ce4bgh92rcd13ifvqb40","pricing_plan_id":"cebpf4jnsgd1na2vs0mg"},{"bike_id":"27fbdb13-6250-4da6-a292-878b65e631be","system_id":"levelo_inurba_marseille","lat":43.26782,"lon":5.39416,"is_reserved":false,"is_disabled":false,"rental_uris":{"android":"levelo://app?vid=27fbdb13-6250-4da6-a292-878b65e631be","ios":"levelo://app?vid=27fbdb13-6250-4da6-a292-878b65e631be"},"vehicle_type_id":"4","last_reported":1740247864,"current_range_meters":16000,"station_id":"ce4bhh12rcd13ifvqfg0","pricing_plan_id":"cebpf4jnsgd1na2vs0mg"},{"bike_id":"d0bb6e41-80c1-4c43-b652-1b70203c66ac","system_id":"levelo_inurba_marseille","lat":43.29898,"lon":5.43655,"is_reserved":false,"is_disabled":false,"rental_uris":{"android":"levelo://app?vid=d0bb6e41-80c1-4c43-b652-1b70203c66ac","ios":"levelo://app?vid=d0bb6e41-80c1-4c43-b652-1b70203c66ac"},"vehicle_type_id":"4","last_reported":1740247864,"current_range_meters":16000,"station_id":"ce4bhpp2rcd13ifvqhfg","pricing_plan_id":"cebpf4jnsgd1na2vs0mg"},{"bike_id":"9de7bc96-f5c6-48ae-86b6-887443faf6de","system_id":"levelo_inurba_marseille","lat":43.2732,"lon":5.39122,"is_reserved":false,"is_disabled":false,"rental_uris":{"android":"levelo://app?vid=9de7bc96-f5c6-48ae-86b6-887443faf6de","ios":"levelo://app?vid=9de7bc96-f5c6-48ae-86b6-887443faf6de"},"vehicle_type_id":"4","last_reported":1740247864,"current_range_meters":16000,"station_id":"ce4bhgp2rcd13ifvqfe0","pricing_plan_id":"cebpf4jnsgd1na2vs0mg"},{"bike_id":"5d805d80-16e4-44f6-9af0-59f508a3355e","system_id":"levelo_inurba_marseille","lat":43.24996,"lon":5.38933,"is_reserved":false,"is_disabled":false,"rental_uris":{"android":"levelo://app?vid=5d805d80-16e4-44f6-9af0-59f508a3355e","ios":"levelo://app?vid=5d805d80-16e4-44f6-9af0-59f508a3355e"},"vehicle_type_id":"4","last_reported":1740247864,"current_range_meters":14800,"station_id":"ce4bhgp2rcd13ifvqfd0","pricing_plan_id":"cebpf4jnsgd1na2vs0mg"},{"bike_id":"cd1c00f0-c8b9-4e04-b4b5-658ee63fda16","system_id":"levelo_inurba_marseille","lat":43.29239,"lon":5.3764,"is_reserved":false,"is_disabled":false,"rental_uris":{"android":"levelo://app?vid=cd1c00f0-c8b9-4e04-b4b5-658ee63fda16","ios":"levelo://app?vid=cd1c00f0-c8b9-4e04-b4b5-658ee63fda16"},"vehicle_type_id":"4","last_reported":1740247864,"current_range_meters":16000,"station_id":"ce4bgi12rcd13ifvqb80","pricing_plan_id":"cebpf4jnsgd1na2vs0mg"},{"bike_id":"6cee15f5-f5b0-4f78-80d2-62dd5deb5a0a","system_id":"levelo_inurba_marseille","lat":43.26551,"lon":5.39036,"is_reserved":false,"is_disabled":false,"rental_uris":{"android":"levelo://app?vid=6cee15f5-f5b0-4f78-80d2-62dd5deb5a0a","ios":"levelo://app?vid=6cee15f5-f5b0-4f78-80d2-62dd5deb5a0a"},"vehicle_type_id":"4","last_reported":1740247864,"current_range_meters":16400,"station_id":"ce4bhe12rcd13ifvqf30","pricing_plan_id":"cebpf4jnsgd1na2vs0mg"},{"bike_id":"119a724c-04ff-41a5-9bed-6e6327781c3e","system_id":"levelo_inurba_marseille","lat":43.30807,"lon":5.43523,"is_reserved":false,"is_disabled":false,"rental_uris":{"android":"levelo://app?vid=119a724c-04ff-41a5-9bed-6e6327781c3e","ios":"levelo://app?vid=119a724c-04ff-41a5-9bed-6e6327781c3e"},"vehicle_type_id":"4","last_reported":1740247864,"current_range_meters":14800,"station_id":"ce4bhph2rcd13ifvqheg","pricing_plan_id":"cebpf4jnsgd1na2vs0mg"},{"bike_id":"2e193ad2-1d43-4cac-8342-bcef9743f59a","system_id":"levelo_inurba_marseille","lat":43.23206,"lon":5.35553,"is_reserved":false,"is_disabled":false,"rental_uris":{"android":"levelo://app?vid=2e193ad2-1d43-4cac-8342-bcef9743f59a","ios":"levelo://app?vid=2e193ad2-1d43-4cac-8342-bcef9743f59a"},"vehicle_type_id":"4","last_reported":1740247864,"current_range_meters":16400,"station_id":"ce4bhu92rcd13ifvqi70","pricing_plan_id":"cebpf4jnsgd1na2vs0mg"},{"bike_id":"4262437a-7f00-4b16-8724-a70cfff4e6b1","system_id":"levelo_inurba_marseille","lat":43.29612,"lon":5.37723,"is_reserved":false,"is_disabled":false,"rental_uris":{"android":"levelo://app?vid=4262437a-7f00-4b16-8724-a70cfff4e6b1","ios":"levelo://app?vid=4262437a-7f00-4b16-8724-a70cfff4e6b1"},"vehicle_type_id":"4","last_reported":1740247864,"current_range_meters":16400,"station_id":"ce4bgi92rcd13ifvqb90","pricing_plan_id":"cebpf4jnsgd1na2vs0mg"},{"bike_id":"f74e9b2d-e3d5-495e-8fad-d139f9826434","system_id":"levelo_inurba_marseille","lat":43.29539,"lon":5.39025,"is_reserved":false,"is_disabled":false,"rental_uris":{"android":"levelo://app?vid=f74e9b2d-e3d5-495e-8fad-d139f9826434","ios":"levelo://app?vid=f74e9b2d-e3d5-495e-8fad-d139f9826434"},"vehicle_type_id":"4","last_reported":1740247864,"current_range_meters":16400,"station_id":"ce4bh3p2rcd13ifvqdp0","pricing_plan_id":"cebpf4jnsgd1na2vs0mg"},{"bike_id":"33cc0fcb-f6e1-44bc-9328-d3f75a5791c5","system_id":"levelo_inurba_marseille","lat":43.23193,"lon":5.35547,"is_reserved":false,"is_disabled":false,"rental_uris":{"android":"levelo://app?vid=33cc0fcb-f6e1-44bc-9328-d3f75a5791c5","ios":"levelo://app?vid=33cc0fcb-f6e1-44bc-9328-d3f75a5791c5"},"vehicle_type_id":"4","last_reported":1740247864,"current_range_meters":16400,"station_id":"ce4bhu92rcd13ifvqi70","pricing_plan_id":"cebpf4jnsgd1na2vs0mg"},{"bike_id":"f5043b92-9d4a-4bb2-9e78-864d7e12fcea","system_id":"levelo_inurba_marseille","lat":43.28702,"lon":5.37386,"is_reserved":false,"is_disabled":false,"rental_uris":{"android":"levelo://app?vid=f5043b92-9d4a-4bb2-9e78-864d7e12fcea","ios":"levelo://app?vid=f5043b92-9d4a-4bb2-9e78-864d7e12fcea"},"vehicle_type_id":"4","last_reported":1740247864,"current_range_meters":16400,"station_id":"ce4bh3p2rcd13ifvqdq0","pricing_plan_id":"cebpf4jnsgd1na2vs0mg"},{"bike_id":"820bcee4-0535-405d-b51e-82e0795c3011","system_id":"levelo_inurba_marseille","lat":43.27995,"lon":5.4001,"is_reserved":false,"is_disabled":false,"rental_uris":{"android":"levelo://app?vid=820bcee4-0535-405d-b51e-82e0795c3011","ios":"levelo://app?vid=820bcee4-0535-405d-b51e-82e0795c3011"},"vehicle_type_id":"4","last_reported":1740247864,"current_range_meters":16400,"station_id":"ce4bho92rcd13ifvqh4g","pricing_plan_id":"cebpf4jnsgd1na2vs0mg"},{"bike_id":"7bedf901-337a-4f21-8d0e-e69546e45b9b","system_id":"levelo_inurba_marseille","lat":43.2656,"lon":5.38975,"is_reserved":false,"is_disabled":false,"rental_uris":{"android":"levelo://app?vid=7bedf901-337a-4f21-8d0e-e69546e45b9b","ios":"levelo://app?vid=7bedf901-337a-4f21-8d0e-e69546e45b9b"},"vehicle_type_id":"4","last_reported":1740247864,"current_range_meters":16800,"station_id":"ce4bhe12rcd13ifvqf30","pricing_plan_id":"cebpf4jnsgd1na2vs0mg"},{"bike_id":"28461393-61f9-4035-a3a1-f2dc97d1f71d","system_id":"levelo_inurba_marseille","lat":43.32015,"lon":5.416,"is_reserved":false,"is_disabled":false,"rental_uris":{"android":"levelo://app?vid=28461393-61f9-4035-a3a1-f2dc97d1f71d","ios":"levelo://app?vid=28461393-61f9-4035-a3a1-f2dc97d1f71d"},"vehicle_type_id":"4","last_reported":1740247864,"current_range_meters":16800,"station_id":"ce4bhq92rcd13ifvqhkg","pricing_plan_id":"cebpf4jnsgd1na2vs0mg"},{"bike_id":"38f07b8e-be63-4680-ae34-efd0d91d6911","system_id":"levelo_inurba_marseille","lat":43.30216,"lon":5.39467,"is_reserved":false,"is_disabled":false,"rental_uris":{"android":"levelo://app?vid=38f07b8e-be63-4680-ae34-efd0d91d6911","ios":"levelo://app?vid=38f07b8e-be63-4680-ae34-efd0d91d6911"},"vehicle_type_id":"4","last_reported":1740247864,"current_range_meters":16000,"station_id":"ce4bh0p2rcd13ifvqd70","pricing_plan_id":"cebpf4jnsgd1na2vs0mg"},{"bike_id":"536778cb-90f1-4216-9cac-428da036efea","system_id":"levelo_inurba_marseille","lat":43.29885,"lon":5.39765,"is_reserved":false,"is_disabled":false,"rental_uris":{"android":"levelo://app?vid=536778cb-90f1-4216-9cac-428da036efea","ios":"levelo://app?vid=536778cb-90f1-4216-9cac-428da036efea"},"vehicle_type_id":"4","last_reported":1740247864,"current_range_meters":16800,"station_id":"ce4bh0h2rcd13ifvqd50","pricing_plan_id":"cebpf4jnsgd1na2vs0mg"},{"bike_id":"d177532c-4da6-47f4-af5f-2df390bd0d91","system_id":"levelo_inurba_marseille","lat":43.31478,"lon":5.3731,"is_reserved":false,"is_disabled":false,"rental_uris":{"android":"levelo://app?vid=d177532c-4da6-47f4-af5f-2df390bd0d91","ios":"levelo://app?vid=d177532c-4da6-47f4-af5f-2df390bd0d91"},"vehicle_type_id":"4","last_reported":1740247864,"current_range_meters":16800,"station_id":"ce4bgt12rcd13ifvqcd0","pricing_plan_id":"cebpf4jnsgd1na2vs0mg"},{"bike_id":"0c7b46d7-02f1-45f7-9b26-504787f6b2bd","system_id":"levelo_inurba_marseille","lat":43.28727,"lon":5.37961,"is_reserved":false,"is_disabled":false,"rental_uris":{"android":"levelo://app?vid=0c7b46d7-02f1-45f7-9b26-504787f6b2bd","ios":"levelo://app?vid=0c7b46d7-02f1-45f7-9b26-504787f6b2bd"},"vehicle_type_id":"4","last_reported":1740247864,"current_range_meters":16800,"station_id":"ce4bh9p2rcd13ifvqec0","pricing_plan_id":"cebpf4jnsgd1na2vs0mg"},{"bike_id":"01188ce1-661f-4372-8886-ef71d55204ca","system_id":"levelo_inurba_marseille","lat":43.28866,"lon":5.39315,"is_reserved":false,"is_disabled":false,"rental_uris":{"android":"levelo://app?vid=01188ce1-661f-4372-8886-ef71d55204ca","ios":"levelo://app?vid=01188ce1-661f-4372-8886-ef71d55204ca"},"vehicle_type_id":"4","last_reported":1740247864,"current_range_meters":16800,"station_id":"ce4bh2p2rcd13ifvqdi0","pricing_plan_id":"cebpf4jnsgd1na2vs0mg"},{"bike_id":"5b0c8dd0-6c48-4996-973b-c5c99c9160c9","system_id":"levelo_inurba_marseille","lat":43.30607,"lon":5.37226,"is_reserved":false,"is_disabled":false,"rental_uris":{"android":"levelo://app?vid=5b0c8dd0-6c48-4996-973b-c5c99c9160c9","ios":"levelo://app?vid=5b0c8dd0-6c48-4996-973b-c5c99c9160c9"},"vehicle_type_id":"4","last_reported":1740247864,"current_range_meters":16800,"station_id":"ce4bgqh2rcd13ifvqc4g","pricing_plan_id":"cebpf4jnsgd1na2vs0mg"},{"bike_id":"4caf490d-10e5-4073-8dae-a68a285775aa","system_id":"levelo_inurba_marseille","lat":43.24391,"lon":5.37059,"is_reserved":false,"is_disabled":false,"rental_uris":{"android":"levelo://app?vid=4caf490d-10e5-4073-8dae-a68a285775aa","ios":"levelo://app?vid=4caf490d-10e5-4073-8dae-a68a285775aa"},"vehicle_type_id":"4","last_reported":1740247864,"current_range_meters":17200,"station_id":"ce4bhhh2rcd13ifvqfk0","pricing_plan_id":"cebpf4jnsgd1na2vs0mg"},{"bike_id":"e636832d-d31d-492b-9bcd-b899a106503d","system_id":"levelo_inurba_marseille","lat":43.2417,"lon":5.3639,"is_reserved":false,"is_disabled":false,"rental_uris":{"android":"levelo://app?vid=e636832d-d31d-492b-9bcd-b899a106503d","ios":"levelo://app?vid=e636832d-d31d-492b-9bcd-b899a106503d"},"vehicle_type_id":"4","last_reported":1740247864,"current_range_meters":17200,"station_id":"cpo36qri1sfpv3e86is0","pricing_plan_id":"cebpf4jnsgd1na2vs0mg"},{"bike_id":"7d4b257a-c60d-48e8-85d7-7dc3f985241e","system_id":"levelo_inurba_marseille","lat":43.29629,"lon":5.38562,"is_reserved":false,"is_disabled":false,"rental_uris":{"android":"levelo://app?vid=7d4b257a-c60d-48e8-85d7-7dc3f985241e","ios":"levelo://app?vid=7d4b257a-c60d-48e8-85d7-7dc3f985241e"},"vehicle_type_id":"4","last_reported":1740247864,"current_range_meters":17200,"station_id":"","pricing_plan_id":"cebpf4jnsgd1na2vs0mg"},{"bike_id":"e3884540-ee93-4340-9fd2-27ce1015d1c0","system_id":"levelo_inurba_marseille","lat":43.2762,"lon":5.36105,"is_reserved":false,"is_disabled":false,"rental_uris":{"android":"levelo://app?vid=e3884540-ee93-4340-9fd2-27ce1015d1c0","ios":"levelo://app?vid=e3884540-ee93-4340-9fd2-27ce1015d1c0"},"vehicle_type_id":"4","last_reported":1740247864,"current_range_meters":16400,"station_id":"ce4bgj92rcd13ifvqbe0","pricing_plan_id":"cebpf4jnsgd1na2vs0mg"},{"bike_id":"2b2b1dee-169e-43e8-9266-1e301aa27a5d","system_id":"levelo_inurba_marseille","lat":43.30261,"lon":5.40041,"is_reserved":false,"is_disabled":false,"rental_uris":{"android":"levelo://app?vid=2b2b1dee-169e-43e8-9266-1e301aa27a5d","ios":"levelo://app?vid=2b2b1dee-169e-43e8-9266-1e301aa27a5d"},"vehicle_type_id":"4","last_reported":1740247864,"current_range_meters":17200,"station_id":"ce4bgvh2rcd13ifvqcs0","pricing_plan_id":"cebpf4jnsgd1na2vs0mg"},{"bike_id":"7edad6f1-bb02-4747-8467-5494540e990b","system_id":"levelo_inurba_marseille","lat":43.25,"lon":5.38909,"is_reserved":false,"is_disabled":false,"rental_uris":{"android":"levelo://app?vid=7edad6f1-bb02-4747-8467-5494540e990b","ios":"levelo://app?vid=7edad6f1-bb02-4747-8467-5494540e990b"},"vehicle_type_id":"4","last_reported":1740247864,"current_range_meters":17200,"station_id":"ce4bhgp2rcd13ifvqfd0","pricing_plan_id":"cebpf4jnsgd1na2vs0mg"},{"bike_id":"a3610751-bbe4-4d3e-a717-1a0eebd2fb2a","system_id":"levelo_inurba_marseille","lat":43.30647,"lon":5.37529,"is_reserved":false,"is_disabled":false,"rental_uris":{"android":"levelo://app?vid=a3610751-bbe4-4d3e-a717-1a0eebd2fb2a","ios":"levelo://app?vid=a3610751-bbe4-4d3e-a717-1a0eebd2fb2a"},"vehicle_type_id":"4","last_reported":1740247864,"current_range_meters":17200,"station_id":"","pricing_plan_id":"cebpf4jnsgd1na2vs0mg"},{"bike_id":"b0651741-c935-4225-8323-ba9210add48c","system_id":"levelo_inurba_marseille","lat":43.28672,"lon":5.38659,"is_reserved":false,"is_disabled":false,"rental_uris":{"android":"levelo://app?vid=b0651741-c935-4225-8323-ba9210add48c","ios":"levelo://app?vid=b0651741-c935-4225-8323-ba9210add48c"},"vehicle_type_id":"4","last_reported":1740247864,"current_range_meters":17600,"station_id":"ce4bh492rcd13ifvqdug","pricing_plan_id":"cebpf4jnsgd1na2vs0mg"},{"bike_id":"80e30e07-59ff-4807-b06b-c6dc1a9e08e2","system_id":"levelo_inurba_marseille","lat":43.33593,"lon":5.41006,"is_reserved":false,"is_disabled":true,"rental_uris":{"android":"levelo://app?vid=80e30e07-59ff-4807-b06b-c6dc1a9e08e2","ios":"levelo://app?vid=80e30e07-59ff-4807-b06b-c6dc1a9e08e2"},"vehicle_type_id":"4","last_reported":1740247864,"current_range_meters":17600,"station_id":"ce4bhqh2rcd13ifvqhmg","pricing_plan_id":"cebpf4jnsgd1na2vs0mg"},{"bike_id":"98b864e7-2c66-4fb2-89ff-3e402e0a7127","system_id":"levelo_inurba_marseille","lat":43.28569,"lon":5.39496,"is_reserved":false,"is_disabled":false,"rental_uris":{"android":"levelo://app?vid=98b864e7-2c66-4fb2-89ff-3e402e0a7127","ios":"levelo://app?vid=98b864e7-2c66-4fb2-89ff-3e402e0a7127"},"vehicle_type_id":"4","last_reported":1740247864,"current_range_meters":19200,"station_id":"ce4bh292rcd13ifvqdg0","pricing_plan_id":"cebpf4jnsgd1na2vs0mg"},{"bike_id":"db622913-e7f7-4d66-b908-f7db4ccf1911","system_id":"levelo_inurba_marseille","lat":43.29617,"lon":5.37727,"is_reserved":false,"is_disabled":false,"rental_uris":{"android":"levelo://app?vid=db622913-e7f7-4d66-b908-f7db4ccf1911","ios":"levelo://app?vid=db622913-e7f7-4d66-b908-f7db4ccf1911"},"vehicle_type_id":"4","last_reported":1740247864,"current_range_meters":17600,"station_id":"ce4bgi92rcd13ifvqb90","pricing_plan_id":"cebpf4jnsgd1na2vs0mg"},{"bike_id":"36dc3c21-673f-4e99-961b-1d4286426787","system_id":"levelo_inurba_marseille","lat":43.289763,"lon":5.356737,"is_reserved":false,"is_disabled":false,"rental_uris":{"android":"levelo://app?vid=36dc3c21-673f-4e99-961b-1d4286426787","ios":"levelo://app?vid=36dc3c21-673f-4e99-961b-1d4286426787"},"vehicle_type_id":"4","last_reported":1740247864,"current_range_meters":17600,"station_id":"ce4bhb12rcd13ifvqem0","pricing_plan_id":"cebpf4jnsgd1na2vs0mg"},{"bike_id":"e9008209-eea8-4263-ae5e-3ed13736550d","system_id":"levelo_inurba_marseille","lat":43.30649,"lon":5.40106,"is_reserved":false,"is_disabled":false,"rental_uris":{"android":"levelo://app?vid=e9008209-eea8-4263-ae5e-3ed13736550d","ios":"levelo://app?vid=e9008209-eea8-4263-ae5e-3ed13736550d"},"vehicle_type_id":"4","last_reported":1740247864,"current_range_meters":19200,"station_id":"ce4bh112rcd13ifvqda0","pricing_plan_id":"cebpf4jnsgd1na2vs0mg"},{"bike_id":"61d23409-5051-4c66-8e2a-da18287c489b","system_id":"levelo_inurba_marseille","lat":43.29267,"lon":5.38443,"is_reserved":false,"is_disabled":false,"rental_uris":{"android":"levelo://app?vid=61d23409-5051-4c66-8e2a-da18287c489b","ios":"levelo://app?vid=61d23409-5051-4c66-8e2a-da18287c489b"},"vehicle_type_id":"4","last_reported":1740247864,"current_range_meters":17600,"station_id":"ce4bh692rcd13ifvqea0","pricing_plan_id":"cebpf4jnsgd1na2vs0mg"},{"bike_id":"7ac38605-0052-4e04-b281-efc85aed7fd5","system_id":"levelo_inurba_marseille","lat":43.29613,"lon":5.38087,"is_reserved":false,"is_disabled":false,"rental_uris":{"android":"levelo://app?vid=7ac38605-0052-4e04-b281-efc85aed7fd5","ios":"levelo://app?vid=7ac38605-0052-4e04-b281-efc85aed7fd5"},"vehicle_type_id":"4","last_reported":1740247864,"current_range_meters":17600,"station_id":"ce4bgl12rcd13ifvqbo0","pricing_plan_id":"cebpf4jnsgd1na2vs0mg"},{"bike_id":"f8e0c506-a5c2-4179-b682-2f9a9880071e","system_id":"levelo_inurba_marseille","lat":43.28661,"lon":5.36345,"is_reserved":false,"is_disabled":false,"rental_uris":{"android":"levelo://app?vid=f8e0c506-a5c2-4179-b682-2f9a9880071e","ios":"levelo://app?vid=f8e0c506-a5c2-4179-b682-2f9a9880071e"},"vehicle_type_id":"4","last_reported":1740247864,"current_range_meters":17200,"station_id":"ce4bhah2rcd13ifvqej0","pricing_plan_id":"cebpf4jnsgd1na2vs0mg"},{"bike_id":"2500fa15-91ee-4850-8ce9-eb499fcb7083","system_id":"levelo_inurba_marseille","lat":43.29541,"lon":5.38533,"is_reserved":false,"is_disabled":false,"rental_uris":{"android":"levelo://app?vid=2500fa15-91ee-4850-8ce9-eb499fcb7083","ios":"levelo://app?vid=2500fa15-91ee-4850-8ce9-eb499fcb7083"},"vehicle_type_id":"4","last_reported":1740247864,"current_range_meters":17600,"station_id":"ce4bgih2rcd13ifvqba0","pricing_plan_id":"cebpf4jnsgd1na2vs0mg"},{"bike_id":"6248a360-4474-4a3b-b25a-18a1b7656004","system_id":"levelo_inurba_marseille","lat":43.296,"lon":5.38101,"is_reserved":false,"is_disabled":false,"rental_uris":{"android":"levelo://app?vid=6248a360-4474-4a3b-b25a-18a1b7656004","ios":"levelo://app?vid=6248a360-4474-4a3b-b25a-18a1b7656004"},"vehicle_type_id":"4","last_reported":1740247864,"current_range_meters":18000,"station_id":"ce4bgl12rcd13ifvqbo0","pricing_plan_id":"cebpf4jnsgd1na2vs0mg"},{"bike_id":"0e323633-b9b5-4343-bed5-c5f746e30f43","system_id":"levelo_inurba_marseille","lat":43.2956,"lon":5.3748,"is_reserved":false,"is_disabled":false,"rental_uris":{"android":"levelo://app?vid=0e323633-b9b5-4343-bed5-c5f746e30f43","ios":"levelo://app?vid=0e323633-b9b5-4343-bed5-c5f746e30f43"},"vehicle_type_id":"4","last_reported":1740247864,"current_range_meters":18000,"station_id":"ce4bgh92rcd13ifvqb50","pricing_plan_id":"cebpf4jnsgd1na2vs0mg"},{"bike_id":"94d81672-f077-455d-ad5d-d4332136c2a8","system_id":"levelo_inurba_marseille","lat":43.22932,"lon":5.35381,"is_reserved":false,"is_disabled":false,"rental_uris":{"android":"levelo://app?vid=94d81672-f077-455d-ad5d-d4332136c2a8","ios":"levelo://app?vid=94d81672-f077-455d-ad5d-d4332136c2a8"},"vehicle_type_id":"4","last_reported":1740247864,"current_range_meters":18000,"station_id":"cpo3532slgdg3j2ikp40","pricing_plan_id":"cebpf4jnsgd1na2vs0mg"},{"bike_id":"8e167635-3901-414e-97ad-700eaf178302","system_id":"levelo_inurba_marseille","lat":43.28972,"lon":5.35642,"is_reserved":false,"is_disabled":false,"rental_uris":{"android":"levelo://app?vid=8e167635-3901-414e-97ad-700eaf178302","ios":"levelo://app?vid=8e167635-3901-414e-97ad-700eaf178302"},"vehicle_type_id":"4","last_reported":1740247864,"current_range_meters":18000,"station_id":"ce4bhb92rcd13ifvqen0","pricing_plan_id":"cebpf4jnsgd1na2vs0mg"},{"bike_id":"09f6cceb-66c3-4834-b2a6-8bbe92a51d74","system_id":"levelo_inurba_marseille","lat":43.28933,"lon":5.38385,"is_reserved":false,"is_disabled":false,"rental_uris":{"android":"levelo://app?vid=09f6cceb-66c3-4834-b2a6-8bbe92a51d74","ios":"levelo://app?vid=09f6cceb-66c3-4834-b2a6-8bbe92a51d74"},"vehicle_type_id":"4","last_reported":1740247864,"current_range_meters":18000,"station_id":"ce4bh612rcd13ifvqe6g","pricing_plan_id":"cebpf4jnsgd1na2vs0mg"},{"bike_id":"24c85528-2e94-42c8-810a-70b04018934c","system_id":"levelo_inurba_marseille","lat":43.29261,"lon":5.40918,"is_reserved":false,"is_disabled":false,"rental_uris":{"android":"levelo://app?vid=24c85528-2e94-42c8-810a-70b04018934c","ios":"levelo://app?vid=24c85528-2e94-42c8-810a-70b04018934c"},"vehicle_type_id":"4","last_reported":1740247864,"current_range_meters":18000,"station_id":"ce4bh192rcd13ifvqdc0","pricing_plan_id":"cebpf4jnsgd1na2vs0mg"},{"bike_id":"5a79ad23-9b30-4908-98cc-b500126f5f6d","system_id":"levelo_inurba_marseille","lat":43.30888,"lon":5.39653,"is_reserved":false,"is_disabled":false,"rental_uris":{"android":"levelo://app?vid=5a79ad23-9b30-4908-98cc-b500126f5f6d","ios":"levelo://app?vid=5a79ad23-9b30-4908-98cc-b500126f5f6d"},"vehicle_type_id":"4","last_reported":1740247864,"current_range_meters":17200,"station_id":"ce4bh012rcd13ifvqcv0","pricing_plan_id":"cebpf4jnsgd1na2vs0mg"},{"bike_id":"35f7fe5f-b05d-405c-a155-dda0758733e2","system_id":"levelo_inurba_marseille","lat":43.28154,"lon":5.42637,"is_reserved":false,"is_disabled":true,"rental_uris":{"android":"levelo://app?vid=35f7fe5f-b05d-405c-a155-dda0758733e2","ios":"levelo://app?vid=35f7fe5f-b05d-405c-a155-dda0758733e2"},"vehicle_type_id":"4","last_reported":1740247864,"current_range_meters":18000,"station_id":"ce4bhnh2rcd13ifvqgug","pricing_plan_id":"cebpf4jnsgd1na2vs0mg"},{"bike_id":"d53720bf-bb9a-493e-a965-c0754ac375f4","system_id":"levelo_inurba_marseille","lat":43.29261,"lon":5.38437,"is_reserved":false,"is_disabled":false,"rental_uris":{"android":"levelo://app?vid=d53720bf-bb9a-493e-a965-c0754ac375f4","ios":"levelo://app?vid=d53720bf-bb9a-493e-a965-c0754ac375f4"},"vehicle_type_id":"4","last_reported":1740247864,"current_range_meters":18000,"station_id":"ce4bh692rcd13ifvqea0","pricing_plan_id":"cebpf4jnsgd1na2vs0mg"},{"bike_id":"f0800b18-6c6b-4e48-aa86-5855ad75793b","system_id":"levelo_inurba_marseille","lat":43.29624,"lon":5.3717,"is_reserved":false,"is_disabled":false,"rental_uris":{"android":"levelo://app?vid=f0800b18-6c6b-4e48-aa86-5855ad75793b","ios":"levelo://app?vid=f0800b18-6c6b-4e48-aa86-5855ad75793b"},"vehicle_type_id":"4","last_reported":1740247864,"current_range_meters":18000,"station_id":"ce4bgnh2rcd13ifvqc0g","pricing_plan_id":"cebpf4jnsgd1na2vs0mg"},{"bike_id":"47c58b1f-0f04-4a95-ba73-4d794abee5f2","system_id":"levelo_inurba_marseille","lat":43.30456,"lon":5.38911,"is_reserved":false,"is_disabled":true,"rental_uris":{"android":"levelo://app?vid=47c58b1f-0f04-4a95-ba73-4d794abee5f2","ios":"levelo://app?vid=47c58b1f-0f04-4a95-ba73-4d794abee5f2"},"vehicle_type_id":"4","last_reported":1740247864,"current_range_meters":18800,"station_id":"ce4bgk12rcd13ifvqbi0","pricing_plan_id":"cebpf4jnsgd1na2vs0mg"},{"bike_id":"1839fecf-d678-4be0-bdf8-f905885808d4","system_id":"levelo_inurba_marseille","lat":43.299685,"lon":5.384938,"is_reserved":false,"is_disabled":false,"rental_uris":{"android":"levelo://app?vid=1839fecf-d678-4be0-bdf8-f905885808d4","ios":"levelo://app?vid=1839fecf-d678-4be0-bdf8-f905885808d4"},"vehicle_type_id":"4","last_reported":1740247864,"current_range_meters":18800,"station_id":"ce4bgj92rcd13ifvqbd0","pricing_plan_id":"cebpf4jnsgd1na2vs0mg"},{"bike_id":"9faf844a-413f-419f-bdea-64830f7f2bfb","system_id":"levelo_inurba_marseille","lat":43.29898,"lon":5.37873,"is_reserved":false,"is_disabled":false,"rental_uris":{"android":"levelo://app?vid=9faf844a-413f-419f-bdea-64830f7f2bfb","ios":"levelo://app?vid=9faf844a-413f-419f-bdea-64830f7f2bfb"},"vehicle_type_id":"4","last_reported":1740247864,"current_range_meters":18800,"station_id":"","pricing_plan_id":"cebpf4jnsgd1na2vs0mg"},{"bike_id":"ceadee61-f043-4a2d-8be0-14c8d26fe957","system_id":"levelo_inurba_marseille","lat":43.27367,"lon":5.36248,"is_reserved":false,"is_disabled":false,"rental_uris":{"android":"levelo://app?vid=ceadee61-f043-4a2d-8be0-14c8d26fe957","ios":"levelo://app?vid=ceadee61-f043-4a2d-8be0-14c8d26fe957"},"vehicle_type_id":"4","last_reported":1740247864,"current_range_meters":18800,"station_id":"ce4bhbh2rcd13ifvqeo0","pricing_plan_id":"cebpf4jnsgd1na2vs0mg"},{"bike_id":"e501be99-a171-4e91-9e5b-ac547e4c06f2","system_id":"levelo_inurba_marseille","lat":43.23187,"lon":5.35551,"is_reserved":false,"is_disabled":false,"rental_uris":{"android":"levelo://app?vid=e501be99-a171-4e91-9e5b-ac547e4c06f2","ios":"levelo://app?vid=e501be99-a171-4e91-9e5b-ac547e4c06f2"},"vehicle_type_id":"4","last_reported":1740247864,"current_range_meters":18800,"station_id":"ce4bhu92rcd13ifvqi70","pricing_plan_id":"cebpf4jnsgd1na2vs0mg"},{"bike_id":"0900b9d7-fcd7-4d9d-9f28-ba583a56952e","system_id":"levelo_inurba_marseille","lat":43.23145,"lon":5.43707,"is_reserved":false,"is_disabled":false,"rental_uris":{"android":"levelo://app?vid=0900b9d7-fcd7-4d9d-9f28-ba583a56952e","ios":"levelo://app?vid=0900b9d7-fcd7-4d9d-9f28-ba583a56952e"},"vehicle_type_id":"4","last_reported":1740247864,"current_range_meters":18800,"station_id":"ce4bhmp2rcd13ifvqgog","pricing_plan_id":"cebpf4jnsgd1na2vs0mg"},{"bike_id":"09fb0036-1bcc-4ceb-b23b-7af3f9b54a1b","system_id":"levelo_inurba_marseille","lat":43.2657,"lon":5.39022,"is_reserved":false,"is_disabled":false,"rental_uris":{"android":"levelo://app?vid=09fb0036-1bcc-4ceb-b23b-7af3f9b54a1b","ios":"levelo://app?vid=09fb0036-1bcc-4ceb-b23b-7af3f9b54a1b"},"vehicle_type_id":"4","last_reported":1740247864,"current_range_meters":18800,"station_id":"ce4bhe12rcd13ifvqf30","pricing_plan_id":"cebpf4jnsgd1na2vs0mg"},{"bike_id":"36cf056d-b53f-4ee7-8343-895c29f1fd8d","system_id":"levelo_inurba_marseille","lat":43.26796,"lon":5.39405,"is_reserved":false,"is_disabled":false,"rental_uris":{"android":"levelo://app?vid=36cf056d-b53f-4ee7-8343-895c29f1fd8d","ios":"levelo://app?vid=36cf056d-b53f-4ee7-8343-895c29f1fd8d"},"vehicle_type_id":"4","last_reported":1740247864,"current_range_meters":18800,"station_id":"ce4bhh12rcd13ifvqfg0","pricing_plan_id":"cebpf4jnsgd1na2vs0mg"},{"bike_id":"8fbe6dfc-0c7b-4bb6-aad7-f8ef7105e1ea","system_id":"levelo_inurba_marseille","lat":43.26946,"lon":5.38627,"is_reserved":false,"is_disabled":false,"rental_uris":{"android":"levelo://app?vid=8fbe6dfc-0c7b-4bb6-aad7-f8ef7105e1ea","ios":"levelo://app?vid=8fbe6dfc-0c7b-4bb6-aad7-f8ef7105e1ea"},"vehicle_type_id":"4","last_reported":1740247864,"current_range_meters":19200,"station_id":"ce4bhh92rcd13ifvqfh0","pricing_plan_id":"cebpf4jnsgd1na2vs0mg"},{"bike_id":"213af00a-d2d2-4db5-bac4-54e8a7d147ee","system_id":"levelo_inurba_marseille","lat":43.298026,"lon":5.403827,"is_reserved":false,"is_disabled":false,"rental_uris":{"android":"levelo://app?vid=213af00a-d2d2-4db5-bac4-54e8a7d147ee","ios":"levelo://app?vid=213af00a-d2d2-4db5-bac4-54e8a7d147ee"},"vehicle_type_id":"4","last_reported":1740247864,"current_range_meters":19200,"station_id":"ce4bh112rcd13ifvqd90","pricing_plan_id":"cebpf4jnsgd1na2vs0mg"},{"bike_id":"4ba6a99d-830c-4bb8-9a76-0c7748bbd81e","system_id":"levelo_inurba_marseille","lat":43.30465,"lon":5.37914,"is_reserved":false,"is_disabled":false,"rental_uris":{"android":"levelo://app?vid=4ba6a99d-830c-4bb8-9a76-0c7748bbd81e","ios":"levelo://app?vid=4ba6a99d-830c-4bb8-9a76-0c7748bbd81e"},"vehicle_type_id":"4","last_reported":1740247864,"current_range_meters":19200,"station_id":"ce4bgup2rcd13ifvqcn0","pricing_plan_id":"cebpf4jnsgd1na2vs0mg"},{"bike_id":"df850c20-d149-451a-9a6c-05d67efdc7c5","system_id":"levelo_inurba_marseille","lat":43.292019,"lon":5.393202,"is_reserved":false,"is_disabled":false,"rental_uris":{"android":"levelo://app?vid=df850c20-d149-451a-9a6c-05d67efdc7c5","ios":"levelo://app?vid=df850c20-d149-451a-9a6c-05d67efdc7c5"},"vehicle_type_id":"4","last_reported":1740247864,"current_range_meters":19200,"station_id":"ce4bh192rcd13ifvqdd0","pricing_plan_id":"cebpf4jnsgd1na2vs0mg"},{"bike_id":"3aec2dab-bc77-4dc7-a0c2-7bc60351ec11","system_id":"levelo_inurba_marseille","lat":43.30218,"lon":5.3947,"is_reserved":false,"is_disabled":false,"rental_uris":{"android":"levelo://app?vid=3aec2dab-bc77-4dc7-a0c2-7bc60351ec11","ios":"levelo://app?vid=3aec2dab-bc77-4dc7-a0c2-7bc60351ec11"},"vehicle_type_id":"4","last_reported":1740247864,"current_range_meters":18800,"station_id":"ce4bh0p2rcd13ifvqd70","pricing_plan_id":"cebpf4jnsgd1na2vs0mg"},{"bike_id":"27fee4ed-d2dc-4c05-af9b-045461d28406","system_id":"levelo_inurba_marseille","lat":43.306,"lon":5.37219,"is_reserved":false,"is_disabled":false,"rental_uris":{"android":"levelo://app?vid=27fee4ed-d2dc-4c05-af9b-045461d28406","ios":"levelo://app?vid=27fee4ed-d2dc-4c05-af9b-045461d28406"},"vehicle_type_id":"4","last_reported":1740247864,"current_range_meters":20400,"station_id":"ce4bgqh2rcd13ifvqc4g","pricing_plan_id":"cebpf4jnsgd1na2vs0mg"},{"bike_id":"2bb0e61e-894d-4bc4-9881-1e30f10aca01","system_id":"levelo_inurba_marseille","lat":43.284711,"lon":5.384208,"is_reserved":false,"is_disabled":false,"rental_uris":{"android":"levelo://app?vid=2bb0e61e-894d-4bc4-9881-1e30f10aca01","ios":"levelo://app?vid=2bb0e61e-894d-4bc4-9881-1e30f10aca01"},"vehicle_type_id":"4","last_reported":1740247864,"current_range_meters":19200,"station_id":"ce4bgn12rcd13ifvqbt0","pricing_plan_id":"cebpf4jnsgd1na2vs0mg"},{"bike_id":"537ee8e8-b4db-4112-b3d6-d7eba1a81adc","system_id":"levelo_inurba_marseille","lat":43.29416,"lon":5.38626,"is_reserved":false,"is_disabled":false,"rental_uris":{"android":"levelo://app?vid=537ee8e8-b4db-4112-b3d6-d7eba1a81adc","ios":"levelo://app?vid=537ee8e8-b4db-4112-b3d6-d7eba1a81adc"},"vehicle_type_id":"4","last_reported":1740247864,"current_range_meters":19200,"station_id":"ce4bh2h2rcd13ifvqdh0","pricing_plan_id":"cebpf4jnsgd1na2vs0mg"},{"bike_id":"3b669aa9-99e3-4868-9434-44378c553f51","system_id":"levelo_inurba_marseille","lat":43.31694,"lon":5.40424,"is_reserved":false,"is_disabled":false,"rental_uris":{"android":"levelo://app?vid=3b669aa9-99e3-4868-9434-44378c553f51","ios":"levelo://app?vid=3b669aa9-99e3-4868-9434-44378c553f51"},"vehicle_type_id":"4","last_reported":1740247864,"current_range_meters":19200,"station_id":"ce4bh012rcd13ifvqd00","pricing_plan_id":"cebpf4jnsgd1na2vs0mg"},{"bike_id":"9b400a83-408b-44c0-84c3-40f162088147","system_id":"levelo_inurba_marseille","lat":43.32337,"lon":5.40622,"is_reserved":false,"is_disabled":false,"rental_uris":{"android":"levelo://app?vid=9b400a83-408b-44c0-84c3-40f162088147","ios":"levelo://app?vid=9b400a83-408b-44c0-84c3-40f162088147"},"vehicle_type_id":"4","last_reported":1740247864,"current_range_meters":19200,"station_id":"ce4bhq92rcd13ifvqhjg","pricing_plan_id":"cebpf4jnsgd1na2vs0mg"},{"bike_id":"2ea0cbd8-6c8f-41dd-9444-c0db2867cbc2","system_id":"levelo_inurba_marseille","lat":43.23149,"lon":5.43716,"is_reserved":false,"is_disabled":false,"rental_uris":{"android":"levelo://app?vid=2ea0cbd8-6c8f-41dd-9444-c0db2867cbc2","ios":"levelo://app?vid=2ea0cbd8-6c8f-41dd-9444-c0db2867cbc2"},"vehicle_type_id":"4","last_reported":1740247864,"current_range_meters":19200,"station_id":"ce4bhmp2rcd13ifvqgog","pricing_plan_id":"cebpf4jnsgd1na2vs0mg"},{"bike_id":"7330758a-b186-4c5c-af68-65980e50c2ac","system_id":"levelo_inurba_marseille","lat":43.28035,"lon":5.36945,"is_reserved":false,"is_disabled":false,"rental_uris":{"android":"levelo://app?vid=7330758a-b186-4c5c-af68-65980e50c2ac","ios":"levelo://app?vid=7330758a-b186-4c5c-af68-65980e50c2ac"},