{"last_updated":1746641706,"ttl":60,"version":"2.2","data":{"bikes":[{"bike_id":"646ce932-e3b6-448c-a87b-52e6b01e32fa","system_id":"levelo_inurba_marseille","lat":43.26181,"lon":5.38753,"is_reserved":false,"is_disabled":true,"rental_uris":{"android":"levelo://app?vid=646ce932-e3b6-448c-a87b-52e6b01e32fa","ios":"levelo://app?vid=646ce932-e3b6-448c-a87b-52e6b01e32fa"},"vehicle_type_id":"4","last_reported":1746641707,"current_range_meters":0,"station_id":"","pricing_plan_id":"cebpf4jnsgd1na2vs0mg"},{"bike_id":"9afdaa32-5437-40bb-b5dc-0e42f55a33ee","system_id":"levelo_inurba_marseille","lat":43.25419,"lon":5.41837,"is_reserved":false,"is_disabled":true,"rental_uris":{"android":"levelo://app?vid=9afdaa32-5437-40bb-b5dc-0e42f55a33ee","ios":"levelo://app?vid=9afdaa32-5437-40bb-b5dc-0e42f55a33ee"},"vehicle_type_id":"4","last_reported":1746641707,"current_range_meters":0,"station_id":"","pricing_plan_id":"cebpf4jnsgd1na2vs0mg"},{"bike_id":"66b646b3-6352-44bb-9bfb-21570512e3e5","system_id":"levelo_inurba_marseille","lat":43.28103,"lon":5.40407,"is_reserved":false,"is_disabled":true,"rental_uris":{"android":"levelo://app?vid=66b646b3-6352-44bb-9bfb-21570512e3e5","ios":"levelo://app?vid=66b646b3-6352-44bb-9bfb-21570512e3e5"},"vehicle_type_id":"4","last_reported":1746641707,"current_range_meters":0,"station_id":"","pricing_plan_id":"cebpf4jnsgd1na2vs0mg"},{"bike_id":"a8fb7564-b729-41af-991e-41b7240b9536","system_id":"levelo_inurba_marseille","lat":43.29794,"lon":5.39916,"is_reserved":false,"is_disabled":true,"rental_uris":{"android":"levelo://app?vid=a8fb7564-b729-41af-991e-41b7240b9536","ios":"levelo://app?vid=a8fb7564-b729-41af-991e-41b7240b9536"},"vehicle_type_id":"4","last_reported":1746641707,"current_range_meters":0,"station_id":"","pricing_plan_id":"cebpf4jnsgd1na2vs0mg"},{"bike_id":"b56eeeb9-9ded-4dd2-9efa-c8d4f8a5e387","system_id":"levelo_inurba_marseille","lat":43.27377,"lon":5.42249,"is_reserved":false,"is_disabled":true,"rental_uris":{"android":"levelo://app?vid=b56eeeb9-9ded-4dd2-9efa-c8d4f8a5e387","ios":"levelo://app?vid=b56eeeb9-9ded-4dd2-9efa-c8d4f8a5e387"},"vehicle_type_id":"4","last_reported":1746641707,"current_range_meters":0,"station_id":"","pricing_plan_id":"cebpf4jnsgd1na2vs0mg"},{"bike_id":"88c3c6c1-a33a-48ed-b2a4-48c16332184c","system_id":"levelo_inurba_marseille","lat":43.27946,"lon":5.37377,"is_reserved":false,"is_disabled":true,"rental_uris":{"android":"levelo://app?vid=88c3c6c1-a33a-48ed-b2a4-48c16332184c","ios":"levelo://app?vid=88c3c6c1-a33a-48ed-b2a4-48c16332184c"},"vehicle_type_id":"4","last_reported":1746641707,"current_range_meters":0,"station_id":"","pricing_plan_id":"cebpf4jnsgd1na2vs0mg"},{"bike_id":"77f59214-f429-4425-8487-9600e7eabd23","system_id":"levelo_inurba_marseille","lat":43.3148,"lon":5.36932,"is_reserved":false,"is_disabled":true,"rental_uris":{"android":"levelo://app?vid=77f59214-f429-4425-8487-9600e7eabd23","ios":"levelo://app?vid=77f59214-f429-4425-8487-9600e7eabd23"},"vehicle_type_id":"4","last_reported":1746641707,"current_range_meters":0,"station_id":"","pricing_plan_id":"cebpf4jnsgd1na2vs0mg"},{"bike_id":"edaf51df-2b4b-4d63-a4ec-c1762e310aff","system_id":"levelo_inurba_marseille","lat":43.30603,"lon":5.37598,"is_reserved":false,"is_disabled":true,"rental_uris":{"android":"levelo://app?vid=edaf51df-2b4b-4d63-a4ec-c1762e310aff","ios":"levelo://app?vid=edaf51df-2b4b-4d63-a4ec-c1762e310aff"},"vehicle_type_id":"4","last_reported":1746641707,"current_range_meters":0,"station_id":"","pricing_plan_id":"cebpf4jnsgd1na2vs0mg"},{"bike_id":"2d251c8d-e9d0-476f-8622-cb88831f30c3","system_id":"levelo_inurba_marseille","lat":43.27048,"lon":5.38775,"is_reserved":false,"is_disabled":true,"rental_uris":{"android":"levelo://app?vid=2d251c8d-e9d0-476f-8622-cb88831f30c3","ios":"levelo://app?vid=2d251c8d-e9d0-476f-8622-cb88831f30c3"},"vehicle_type_id":"4","last_reported":1746641707,"current_range_meters":0,"station_id":"","pricing_plan_id":"cebpf4jnsgd1na2vs0mg"},{"bike_id":"a7f5857e-51cb-4093-89f8-858adc05d31d","system_id":"levelo_inurba_marseille","lat":43.28657,"lon":5.38687,"is_reserved":false,"is_disabled":true,"rental_uris":{"android":"levelo://app?vid=a7f5857e-51cb-4093-89f8-858adc05d31d","ios":"levelo://app?vid=a7f5857e-51cb-4093-89f8-858adc05d31d"},"vehicle_type_id":"4","last_reported":1746641707,"current_range_meters":0,"station_id":"ce4bh492rcd13ifvqdug","pricing_plan_id":"cebpf4jnsgd1na2vs0mg"},{"bike_id":"3d9076ec-d82a-4e21-92a5-1e2ff4a86473","system_id":"levelo_inurba_marseille","lat":43.29026,"lon":5.35752,"is_reserved":false,"is_disabled":true,"rental_uris":{"android":"levelo://app?vid=3d9076ec-d82a-4e21-92a5-1e2ff4a86473","ios":"levelo://app?vid=3d9076ec-d82a-4e21-92a5-1e2ff4a86473"},"vehicle_type_id":"4","last_reported":1746641707,"current_range_meters":0,"station_id":"ce4bhb92rcd13ifvqen0","pricing_plan_id":"cebpf4jnsgd1na2vs0mg"},{"bike_id":"6550e101-7791-4cde-9c86-c0d98b21c67b","system_id":"levelo_inurba_marseille","lat":43.27958,"lon":5.38676,"is_reserved":false,"is_disabled":true,"rental_uris":{"android":"levelo://app?vid=6550e101-7791-4cde-9c86-c0d98b21c67b","ios":"levelo://app?vid=6550e101-7791-4cde-9c86-c0d98b21c67b"},"vehicle_type_id":"4","last_reported":1746641707,"current_range_meters":0,"station_id":"ce4bhg12rcd13ifvqf80","pricing_plan_id":"cebpf4jnsgd1na2vs0mg"},{"bike_id":"c22a4878-efd7-4876-bd6e-1f876697daaf","system_id":"levelo_inurba_marseille","lat":43.24803,"lon":5.37458,"is_reserved":false,"is_disabled":true,"rental_uris":{"android":"levelo://app?vid=c22a4878-efd7-4876-bd6e-1f876697daaf","ios":"levelo://app?vid=c22a4878-efd7-4876-bd6e-1f876697daaf"},"vehicle_type_id":"4","last_reported":1746641707,"current_range_meters":0,"station_id":"ce4bhgh2rcd13ifvqfb0","pricing_plan_id":"cebpf4jnsgd1na2vs0mg"},{"bike_id":"ebb8ea88-fb2c-45d2-a136-c8c95d80e3cc","system_id":"levelo_inurba_marseille","lat":43.267807,"lon":5.39419,"is_reserved":false,"is_disabled":true,"rental_uris":{"android":"levelo://app?vid=ebb8ea88-fb2c-45d2-a136-c8c95d80e3cc","ios":"levelo://app?vid=ebb8ea88-fb2c-45d2-a136-c8c95d80e3cc"},"vehicle_type_id":"4","last_reported":1746641707,"current_range_meters":0,"station_id":"ce4bhh12rcd13ifvqfg0","pricing_plan_id":"cebpf4jnsgd1na2vs0mg"},{"bike_id":"22d7cfa9-c707-43a9-86fa-cf10cfb6db64","system_id":"levelo_inurba_marseille","lat":43.26955,"lon":5.38632,"is_reserved":false,"is_disabled":true,"rental_uris":{"android":"levelo://app?vid=22d7cfa9-c707-43a9-86fa-cf10cfb6db64","ios":"levelo://app?vid=22d7cfa9-c707-43a9-86fa-cf10cfb6db64"},"vehicle_type_id":"4","last_reported":1746641707,"current_range_meters":0,"station_id":"ce4bhh92rcd13ifvqfh0","pricing_plan_id":"cebpf4jnsgd1na2vs0mg"},{"bike_id":"71f6f390-fe51-489e-9694-d255e5606886","system_id":"levelo_inurba_marseille","lat":43.27833,"lon":5.39213,"is_reserved":false,"is_disabled":true,"rental_uris":{"android":"levelo://app?vid=71f6f390-fe51-489e-9694-d255e5606886","ios":"levelo://app?vid=71f6f390-fe51-489e-9694-d255e5606886"},"vehicle_type_id":"4","last_reported":1746641707,"current_range_meters":0,"station_id":"ce4bhjp2rcd13ifvqga0","pricing_plan_id":"cebpf4jnsgd1na2vs0mg"},{"bike_id":"ffd18cc9-37a8-4b47-9829-877b68a162ee","system_id":"levelo_inurba_marseille","lat":43.27062,"lon":5.4228,"is_reserved":false,"is_disabled":true,"rental_uris":{"android":"levelo://app?vid=ffd18cc9-37a8-4b47-9829-877b68a162ee","ios":"levelo://app?vid=ffd18cc9-37a8-4b47-9829-877b68a162ee"},"vehicle_type_id":"4","last_reported":1746641707,"current_range_meters":0,"station_id":"ce4bhk92rcd13ifvqgb0","pricing_plan_id":"cebpf4jnsgd1na2vs0mg"},{"bike_id":"1fc2d0a9-887e-4672-a7e2-c893bff373c1","system_id":"levelo_inurba_marseille","lat":43.2513,"lon":5.40323,"is_reserved":false,"is_disabled":true,"rental_uris":{"android":"levelo://app?vid=1fc2d0a9-887e-4672-a7e2-c893bff373c1","ios":"levelo://app?vid=1fc2d0a9-887e-4672-a7e2-c893bff373c1"},"vehicle_type_id":"4","last_reported":1746641707,"current_range_meters":0,"station_id":"ce4bhlh2rcd13ifvqgig","pricing_plan_id":"cebpf4jnsgd1na2vs0mg"},{"bike_id":"3ab65625-0fdb-4d0f-8db6-101fa1c9d70b","system_id":"levelo_inurba_marseille","lat":43.30421,"lon":5.41273,"is_reserved":false,"is_disabled":true,"rental_uris":{"android":"levelo://app?vid=3ab65625-0fdb-4d0f-8db6-101fa1c9d70b","ios":"levelo://app?vid=3ab65625-0fdb-4d0f-8db6-101fa1c9d70b"},"vehicle_type_id":"4","last_reported":1746641707,"current_range_meters":0,"station_id":"ce4bhop2rcd13ifvqh8g","pricing_plan_id":"cebpf4jnsgd1na2vs0mg"},{"bike_id":"6be85270-949b-41b0-bafa-6a9ac2af25b4","system_id":"levelo_inurba_marseille","lat":43.32375,"lon":5.38869,"is_reserved":false,"is_disabled":true,"rental_uris":{"android":"levelo://app?vid=6be85270-949b-41b0-bafa-6a9ac2af25b4","ios":"levelo://app?vid=6be85270-949b-41b0-bafa-6a9ac2af25b4"},"vehicle_type_id":"4","last_reported":1746641707,"current_range_meters":0,"station_id":"ce4bhqp2rcd13ifvqhog","pricing_plan_id":"cebpf4jnsgd1na2vs0mg"},{"bike_id":"693ba64b-169e-417d-9436-f831936e0f20","system_id":"levelo_inurba_marseille","lat":43.31988,"lon":5.38166,"is_reserved":false,"is_disabled":true,"rental_uris":{"android":"levelo://app?vid=693ba64b-169e-417d-9436-f831936e0f20","ios":"levelo://app?vid=693ba64b-169e-417d-9436-f831936e0f20"},"vehicle_type_id":"4","last_reported":1746641707,"current_range_meters":0,"station_id":"ce4bhr12rcd13ifvqhpg","pricing_plan_id":"cebpf4jnsgd1na2vs0mg"},{"bike_id":"a38c2d49-7988-4ef8-83e8-42a2504085da","system_id":"levelo_inurba_marseille","lat":43.24524,"lon":5.41201,"is_reserved":false,"is_disabled":true,"rental_uris":{"android":"levelo://app?vid=a38c2d49-7988-4ef8-83e8-42a2504085da","ios":"levelo://app?vid=a38c2d49-7988-4ef8-83e8-42a2504085da"},"vehicle_type_id":"4","last_reported":1746641707,"current_range_meters":400,"station_id":"","pricing_plan_id":"cebpf4jnsgd1na2vs0mg"},{"bike_id":"02a42999-7b09-4d93-b00e-8870ad5a8674","system_id":"levelo_inurba_marseille","lat":43.31398,"lon":5.36993,"is_reserved":false,"is_disabled":true,"rental_uris":{"android":"levelo://app?vid=02a42999-7b09-4d93-b00e-8870ad5a8674","ios":"levelo://app?vid=02a42999-7b09-4d93-b00e-8870ad5a8674"},"vehicle_type_id":"4","last_reported":1746641707,"current_range_meters":800,"station_id":"","pricing_plan_id":"cebpf4jnsgd1na2vs0mg"},{"bike_id":"4747f6da-1f24-4380-9109-6a32b56432ae","system_id":"levelo_inurba_marseille","lat":43.29435,"lon":5.38622,"is_reserved":false,"is_disabled":true,"rental_uris":{"android":"levelo://app?vid=4747f6da-1f24-4380-9109-6a32b56432ae","ios":"levelo://app?vid=4747f6da-1f24-4380-9109-6a32b56432ae"},"vehicle_type_id":"4","last_reported":1746641707,"current_range_meters":800,"station_id":"ce4bh2h2rcd13ifvqdh0","pricing_plan_id":"cebpf4jnsgd1na2vs0mg"},{"bike_id":"935886b1-bcf4-425d-9597-b8ffc55ce352","system_id":"levelo_inurba_marseille","lat":43.29259,"lon":5.38436,"is_reserved":false,"is_disabled":true,"rental_uris":{"android":"levelo://app?vid=935886b1-bcf4-425d-9597-b8ffc55ce352","ios":"levelo://app?vid=935886b1-bcf4-425d-9597-b8ffc55ce352"},"vehicle_type_id":"4","last_reported":1746641707,"current_range_meters":800,"station_id":"ce4bh692rcd13ifvqea0","pricing_plan_id":"cebpf4jnsgd1na2vs0mg"},{"bike_id":"3a005990-9135-4f0f-a449-9125d55d372e","system_id":"levelo_inurba_marseille","lat":43.25581,"lon":5.3823,"is_reserved":false,"is_disabled":true,"rental_uris":{"android":"levelo://app?vid=3a005990-9135-4f0f-a449-9125d55d372e","ios":"levelo://app?vid=3a005990-9135-4f0f-a449-9125d55d372e"},"vehicle_type_id":"4","last_reported":1746641707,"current_range_meters":800,"station_id":"ce4bhih2rcd13ifvqfs0","pricing_plan_id":"cebpf4jnsgd1na2vs0mg"},{"bike_id":"701cb239-32e5-4bef-87e6-e4ae05573db4","system_id":"levelo_inurba_marseille","lat":43.295554,"lon":5.422948,"is_reserved":false,"is_disabled":true,"rental_uris":{"android":"levelo://app?vid=701cb239-32e5-4bef-87e6-e4ae05573db4","ios":"levelo://app?vid=701cb239-32e5-4bef-87e6-e4ae05573db4"},"vehicle_type_id":"4","last_reported":1746641707,"current_range_meters":800,"station_id":"ce4bhph2rcd13ifvqhdg","pricing_plan_id":"cebpf4jnsgd1na2vs0mg"},{"bike_id":"3891237e-1b37-4631-8d4b-817f82d28972","system_id":"levelo_inurba_marseille","lat":43.31076,"lon":5.38355,"is_reserved":false,"is_disabled":true,"rental_uris":{"android":"levelo://app?vid=3891237e-1b37-4631-8d4b-817f82d28972","ios":"levelo://app?vid=3891237e-1b37-4631-8d4b-817f82d28972"},"vehicle_type_id":"4","last_reported":1746641707,"current_range_meters":1200,"station_id":"ce4bgv92rcd13ifvqcr0","pricing_plan_id":"cebpf4jnsgd1na2vs0mg"},{"bike_id":"1fd5fb67-c7f5-415a-a488-459623c87291","system_id":"levelo_inurba_marseille","lat":43.27172,"lon":5.40992,"is_reserved":false,"is_disabled":true,"rental_uris":{"android":"levelo://app?vid=1fd5fb67-c7f5-415a-a488-459623c87291","ios":"levelo://app?vid=1fd5fb67-c7f5-415a-a488-459623c87291"},"vehicle_type_id":"4","last_reported":1746641707,"current_range_meters":1200,"station_id":"ce4bhl12rcd13ifvqgf0","pricing_plan_id":"cebpf4jnsgd1na2vs0mg"},{"bike_id":"e14a0483-197e-4b2b-bfd5-f74e5f600f54","system_id":"levelo_inurba_marseille","lat":43.25121,"lon":5.40307,"is_reserved":false,"is_disabled":true,"rental_uris":{"android":"levelo://app?vid=e14a0483-197e-4b2b-bfd5-f74e5f600f54","ios":"levelo://app?vid=e14a0483-197e-4b2b-bfd5-f74e5f600f54"},"vehicle_type_id":"4","last_reported":1746641707,"current_range_meters":1200,"station_id":"ce4bhlh2rcd13ifvqgig","pricing_plan_id":"cebpf4jnsgd1na2vs0mg"},{"bike_id":"282568d8-7a5e-46ab-8f52-a6e4bce96bee","system_id":"levelo_inurba_marseille","lat":43.29526,"lon":5.38549,"is_reserved":false,"is_disabled":true,"rental_uris":{"android":"levelo://app?vid=282568d8-7a5e-46ab-8f52-a6e4bce96bee","ios":"levelo://app?vid=282568d8-7a5e-46ab-8f52-a6e4bce96bee"},"vehicle_type_id":"4","last_reported":1746641707,"current_range_meters":1600,"station_id":"ce4bgih2rcd13ifvqba0","pricing_plan_id":"cebpf4jnsgd1na2vs0mg"},{"bike_id":"b4c2e82d-a674-46c1-8cb0-03f1104b20cd","system_id":"levelo_inurba_marseille","lat":43.29271,"lon":5.38432,"is_reserved":false,"is_disabled":true,"rental_uris":{"android":"levelo://app?vid=b4c2e82d-a674-46c1-8cb0-03f1104b20cd","ios":"levelo://app?vid=b4c2e82d-a674-46c1-8cb0-03f1104b20cd"},"vehicle_type_id":"4","last_reported":1746641707,"current_range_meters":1600,"station_id":"ce4bh692rcd13ifvqea0","pricing_plan_id":"cebpf4jnsgd1na2vs0mg"},{"bike_id":"d32ba7b7-9494-4218-86b6-0b40dc6b84b4","system_id":"levelo_inurba_marseille","lat":43.26551,"lon":5.3729,"is_reserved":false,"is_disabled":true,"rental_uris":{"android":"levelo://app?vid=d32ba7b7-9494-4218-86b6-0b40dc6b84b4","ios":"levelo://app?vid=d32ba7b7-9494-4218-86b6-0b40dc6b84b4"},"vehicle_type_id":"4","last_reported":1746641707,"current_range_meters":1600,"station_id":"ce4bhg12rcd13ifvqf70","pricing_plan_id":"cebpf4jnsgd1na2vs0mg"},{"bike_id":"943c17e1-2f10-4f8b-b508-00da99e73e39","system_id":"levelo_inurba_marseille","lat":43.23175,"lon":5.39988,"is_reserved":false,"is_disabled":true,"rental_uris":{"android":"levelo://app?vid=943c17e1-2f10-4f8b-b508-00da99e73e39","ios":"levelo://app?vid=943c17e1-2f10-4f8b-b508-00da99e73e39"},"vehicle_type_id":"4","last_reported":1746641707,"current_range_meters":1600,"station_id":"ce4bhn12rcd13ifvqgqg","pricing_plan_id":"cebpf4jnsgd1na2vs0mg"},{"bike_id":"99063625-1170-4002-9a25-fe2482bfa859","system_id":"levelo_inurba_marseille","lat":43.29163,"lon":5.37157,"is_reserved":false,"is_disabled":true,"rental_uris":{"android":"levelo://app?vid=99063625-1170-4002-9a25-fe2482bfa859","ios":"levelo://app?vid=99063625-1170-4002-9a25-fe2482bfa859"},"vehicle_type_id":"4","last_reported":1746641707,"current_range_meters":2000,"station_id":"ce4bha92rcd13ifvqeh0","pricing_plan_id":"cebpf4jnsgd1na2vs0mg"},{"bike_id":"5e945bc9-9a42-4b8b-91b2-57c5f69923d5","system_id":"levelo_inurba_marseille","lat":43.29783,"lon":5.39345,"is_reserved":false,"is_disabled":true,"rental_uris":{"android":"levelo://app?vid=5e945bc9-9a42-4b8b-91b2-57c5f69923d5","ios":"levelo://app?vid=5e945bc9-9a42-4b8b-91b2-57c5f69923d5"},"vehicle_type_id":"4","last_reported":1746641707,"current_range_meters":2000,"station_id":"chh1huq6cuj3fo74tm60","pricing_plan_id":"cebpf4jnsgd1na2vs0mg"},{"bike_id":"668c20c8-71e7-401f-bf1d-ccccf041a906","system_id":"levelo_inurba_marseille","lat":43.30962,"lon":5.37567,"is_reserved":false,"is_disabled":false,"rental_uris":{"android":"levelo://app?vid=668c20c8-71e7-401f-bf1d-ccccf041a906","ios":"levelo://app?vid=668c20c8-71e7-401f-bf1d-ccccf041a906"},"vehicle_type_id":"4","last_reported":1746641707,"current_range_meters":2800,"station_id":"","pricing_plan_id":"cebpf4jnsgd1na2vs0mg"},{"bike_id":"c2a03870-e088-4c72-a865-5d144eac26fb","system_id":"levelo_inurba_marseille","lat":43.30693,"lon":5.37289,"is_reserved":false,"is_disabled":false,"rental_uris":{"android":"levelo://app?vid=c2a03870-e088-4c72-a865-5d144eac26fb","ios":"levelo://app?vid=c2a03870-e088-4c72-a865-5d144eac26fb"},"vehicle_type_id":"4","last_reported":1746641707,"current_range_meters":2800,"station_id":"","pricing_plan_id":"cebpf4jnsgd1na2vs0mg"},{"bike_id":"3a4b905a-f206-452f-a0cc-e3b8168bc49d","system_id":"levelo_inurba_marseille","lat":43.29794,"lon":5.404,"is_reserved":false,"is_disabled":false,"rental_uris":{"android":"levelo://app?vid=3a4b905a-f206-452f-a0cc-e3b8168bc49d","ios":"levelo://app?vid=3a4b905a-f206-452f-a0cc-e3b8168bc49d"},"vehicle_type_id":"4","last_reported":1746641707,"current_range_meters":2800,"station_id":"ce4bh112rcd13ifvqd90","pricing_plan_id":"cebpf4jnsgd1na2vs0mg"},{"bike_id":"671f15b3-bae9-4b29-bd83-c0b3ebb4dd96","system_id":"levelo_inurba_marseille","lat":43.3064,"lon":5.40095,"is_reserved":false,"is_disabled":false,"rental_uris":{"android":"levelo://app?vid=671f15b3-bae9-4b29-bd83-c0b3ebb4dd96","ios":"levelo://app?vid=671f15b3-bae9-4b29-bd83-c0b3ebb4dd96"},"vehicle_type_id":"4","last_reported":1746641707,"current_range_meters":2800,"station_id":"ce4bh112rcd13ifvqda0","pricing_plan_id":"cebpf4jnsgd1na2vs0mg"},{"bike_id":"65734274-dfd1-4589-9802-d2a9c91968c8","system_id":"levelo_inurba_marseille","lat":43.29005,"lon":5.35612,"is_reserved":false,"is_disabled":false,"rental_uris":{"android":"levelo://app?vid=65734274-dfd1-4589-9802-d2a9c91968c8","ios":"levelo://app?vid=65734274-dfd1-4589-9802-d2a9c91968c8"},"vehicle_type_id":"4","last_reported":1746641707,"current_range_meters":2800,"station_id":"ce4bhb92rcd13ifvqen0","pricing_plan_id":"cebpf4jnsgd1na2vs0mg"},{"bike_id":"879af0e5-5368-4c8a-a113-a9d279bec406","system_id":"levelo_inurba_marseille","lat":43.307531,"lon":5.371046,"is_reserved":false,"is_disabled":false,"rental_uris":{"android":"levelo://app?vid=879af0e5-5368-4c8a-a113-a9d279bec406","ios":"levelo://app?vid=879af0e5-5368-4c8a-a113-a9d279bec406"},"vehicle_type_id":"4","last_reported":1746641707,"current_range_meters":3200,"station_id":"","pricing_plan_id":"cebpf4jnsgd1na2vs0mg"},{"bike_id":"2368a70a-ed31-4f13-a821-4f3edcf0aad5","system_id":"levelo_inurba_marseille","lat":43.30245,"lon":5.40068,"is_reserved":false,"is_disabled":false,"rental_uris":{"android":"levelo://app?vid=2368a70a-ed31-4f13-a821-4f3edcf0aad5","ios":"levelo://app?vid=2368a70a-ed31-4f13-a821-4f3edcf0aad5"},"vehicle_type_id":"4","last_reported":1746641707,"current_range_meters":3200,"station_id":"ce4bgvh2rcd13ifvqcs0","pricing_plan_id":"cebpf4jnsgd1na2vs0mg"},{"bike_id":"1abb6d6e-9300-4c28-92ab-c86b865164cd","system_id":"levelo_inurba_marseille","lat":43.27806,"lon":5.40707,"is_reserved":false,"is_disabled":false,"rental_uris":{"android":"levelo://app?vid=1abb6d6e-9300-4c28-92ab-c86b865164cd","ios":"levelo://app?vid=1abb6d6e-9300-4c28-92ab-c86b865164cd"},"vehicle_type_id":"4","last_reported":1746641707,"current_range_meters":3200,"station_id":"ce4bhnh2rcd13ifvqgtg","pricing_plan_id":"cebpf4jnsgd1na2vs0mg"},{"bike_id":"c0faf23e-81a7-4ca3-895d-283152fd6265","system_id":"levelo_inurba_marseille","lat":43.29597,"lon":5.39589,"is_reserved":false,"is_disabled":false,"rental_uris":{"android":"levelo://app?vid=c0faf23e-81a7-4ca3-895d-283152fd6265","ios":"levelo://app?vid=c0faf23e-81a7-4ca3-895d-283152fd6265"},"vehicle_type_id":"4","last_reported":1746641707,"current_range_meters":3600,"station_id":"","pricing_plan_id":"cebpf4jnsgd1na2vs0mg"},{"bike_id":"3cc1889e-fbfc-406d-9f16-8d648f86317f","system_id":"levelo_inurba_marseille","lat":43.27914,"lon":5.39582,"is_reserved":false,"is_disabled":false,"rental_uris":{"android":"levelo://app?vid=3cc1889e-fbfc-406d-9f16-8d648f86317f","ios":"levelo://app?vid=3cc1889e-fbfc-406d-9f16-8d648f86317f"},"vehicle_type_id":"4","last_reported":1746641707,"current_range_meters":3600,"station_id":"ce4bhf92rcd13ifvqf40","pricing_plan_id":"cebpf4jnsgd1na2vs0mg"},{"bike_id":"c9619c1c-fb55-4f09-8a31-09b5a4dbe84e","system_id":"levelo_inurba_marseille","lat":43.25491,"lon":5.37651,"is_reserved":false,"is_disabled":false,"rental_uris":{"android":"levelo://app?vid=c9619c1c-fb55-4f09-8a31-09b5a4dbe84e","ios":"levelo://app?vid=c9619c1c-fb55-4f09-8a31-09b5a4dbe84e"},"vehicle_type_id":"4","last_reported":1746641707,"current_range_meters":3600,"station_id":"ce4bhh12rcd13ifvqff0","pricing_plan_id":"cebpf4jnsgd1na2vs0mg"},{"bike_id":"9748a0c4-d6b8-4d04-814d-c8cd66193aaf","system_id":"levelo_inurba_marseille","lat":43.25229,"lon":5.41057,"is_reserved":false,"is_disabled":false,"rental_uris":{"android":"levelo://app?vid=9748a0c4-d6b8-4d04-814d-c8cd66193aaf","ios":"levelo://app?vid=9748a0c4-d6b8-4d04-814d-c8cd66193aaf"},"vehicle_type_id":"4","last_reported":1746641707,"current_range_meters":4000,"station_id":"","pricing_plan_id":"cebpf4jnsgd1na2vs0mg"},{"bike_id":"c05c26ce-d847-481c-8501-3e9c0547869c","system_id":"levelo_inurba_marseille","lat":43.28722,"lon":5.375542,"is_reserved":false,"is_disabled":false,"rental_uris":{"android":"levelo://app?vid=c05c26ce-d847-481c-8501-3e9c0547869c","ios":"levelo://app?vid=c05c26ce-d847-481c-8501-3e9c0547869c"},"vehicle_type_id":"4","last_reported":1746641707,"current_range_meters":4000,"station_id":"ce4bh492rcd13ifvqdvg","pricing_plan_id":"cebpf4jnsgd1na2vs0mg"},{"bike_id":"f46ae0d7-03f3-41e1-96db-970fe58465cc","system_id":"levelo_inurba_marseille","lat":43.33033,"lon":5.38158,"is_reserved":false,"is_disabled":false,"rental_uris":{"android":"levelo://app?vid=f46ae0d7-03f3-41e1-96db-970fe58465cc","ios":"levelo://app?vid=f46ae0d7-03f3-41e1-96db-970fe58465cc"},"vehicle_type_id":"4","last_reported":1746641707,"current_range_meters":4400,"station_id":"","pricing_plan_id":"cebpf4jnsgd1na2vs0mg"},{"bike_id":"5ce9e3d4-14b5-45e6-a12c-66e80f7138ec","system_id":"levelo_inurba_marseille","lat":43.29022,"lon":5.38647,"is_reserved":false,"is_disabled":false,"rental_uris":{"android":"levelo://app?vid=5ce9e3d4-14b5-45e6-a12c-66e80f7138ec","ios":"levelo://app?vid=5ce9e3d4-14b5-45e6-a12c-66e80f7138ec"},"vehicle_type_id":"4","last_reported":1746641707,"current_range_meters":4400,"station_id":"ce4bh4p2rcd13ifvqe0g","pricing_plan_id":"cebpf4jnsgd1na2vs0mg"},{"bike_id":"e17e6541-465c-4fbf-8ed2-dfc554ea6155","system_id":"levelo_inurba_marseille","lat":43.28264,"lon":5.35064,"is_reserved":false,"is_disabled":false,"rental_uris":{"android":"levelo://app?vid=e17e6541-465c-4fbf-8ed2-dfc554ea6155","ios":"levelo://app?vid=e17e6541-465c-4fbf-8ed2-dfc554ea6155"},"vehicle_type_id":"4","last_reported":1746641707,"current_range_meters":4400,"station_id":"ce4bhbp2rcd13ifvqerg","pricing_plan_id":"cebpf4jnsgd1na2vs0mg"},{"bike_id":"00ff6595-77d3-4f32-a432-0e579d19c7e7","system_id":"levelo_inurba_marseille","lat":43.24077,"lon":5.37745,"is_reserved":false,"is_disabled":false,"rental_uris":{"android":"levelo://app?vid=00ff6595-77d3-4f32-a432-0e579d19c7e7","ios":"levelo://app?vid=00ff6595-77d3-4f32-a432-0e579d19c7e7"},"vehicle_type_id":"4","last_reported":1746641707,"current_range_meters":4400,"station_id":"ce4bhnp2rcd13ifvqgvg","pricing_plan_id":"cebpf4jnsgd1na2vs0mg"},{"bike_id":"071c44ce-f01f-4295-85cf-49d2f0d3c759","system_id":"levelo_inurba_marseille","lat":43.30239,"lon":5.40052,"is_reserved":false,"is_disabled":false,"rental_uris":{"android":"levelo://app?vid=071c44ce-f01f-4295-85cf-49d2f0d3c759","ios":"levelo://app?vid=071c44ce-f01f-4295-85cf-49d2f0d3c759"},"vehicle_type_id":"4","last_reported":1746641707,"current_range_meters":4800,"station_id":"ce4bgvh2rcd13ifvqcs0","pricing_plan_id":"cebpf4jnsgd1na2vs0mg"},{"bike_id":"d326a67e-2423-43ef-b12e-f6eb2f51a092","system_id":"levelo_inurba_marseille","lat":43.28424,"lon":5.34989,"is_reserved":false,"is_disabled":false,"rental_uris":{"android":"levelo://app?vid=d326a67e-2423-43ef-b12e-f6eb2f51a092","ios":"levelo://app?vid=d326a67e-2423-43ef-b12e-f6eb2f51a092"},"vehicle_type_id":"4","last_reported":1746641707,"current_range_meters":4800,"station_id":"ce4bhbh2rcd13ifvqepg","pricing_plan_id":"cebpf4jnsgd1na2vs0mg"},{"bike_id":"eccba332-1be7-42d7-a3c4-90b0d1cb293e","system_id":"levelo_inurba_marseille","lat":43.28009,"lon":5.41664,"is_reserved":false,"is_disabled":false,"rental_uris":{"android":"levelo://app?vid=eccba332-1be7-42d7-a3c4-90b0d1cb293e","ios":"levelo://app?vid=eccba332-1be7-42d7-a3c4-90b0d1cb293e"},"vehicle_type_id":"4","last_reported":1746641707,"current_range_meters":4800,"station_id":"ce4bho12rcd13ifvqh1g","pricing_plan_id":"cebpf4jnsgd1na2vs0mg"},{"bike_id":"c9592205-9409-4f74-aed1-7c4141a58caa","system_id":"levelo_inurba_marseille","lat":43.27145,"lon":5.36364,"is_reserved":false,"is_disabled":false,"rental_uris":{"android":"levelo://app?vid=c9592205-9409-4f74-aed1-7c4141a58caa","ios":"levelo://app?vid=c9592205-9409-4f74-aed1-7c4141a58caa"},"vehicle_type_id":"4","last_reported":1746641707,"current_range_meters":5600,"station_id":"","pricing_plan_id":"cebpf4jnsgd1na2vs0mg"},{"bike_id":"63cb73aa-86fe-4599-9b76-3790ec130780","system_id":"levelo_inurba_marseille","lat":43.296,"lon":5.37877,"is_reserved":false,"is_disabled":false,"rental_uris":{"android":"levelo://app?vid=63cb73aa-86fe-4599-9b76-3790ec130780","ios":"levelo://app?vid=63cb73aa-86fe-4599-9b76-3790ec130780"},"vehicle_type_id":"4","last_reported":1746641707,"current_range_meters":5600,"station_id":"","pricing_plan_id":"cebpf4jnsgd1na2vs0mg"},{"bike_id":"8fd4b842-fa1f-40f1-985a-7f6f31913955","system_id":"levelo_inurba_marseille","lat":43.30585,"lon":5.39351,"is_reserved":false,"is_disabled":false,"rental_uris":{"android":"levelo://app?vid=8fd4b842-fa1f-40f1-985a-7f6f31913955","ios":"levelo://app?vid=8fd4b842-fa1f-40f1-985a-7f6f31913955"},"vehicle_type_id":"4","last_reported":1746641707,"current_range_meters":5600,"station_id":"ce4bh0p2rcd13ifvqd80","pricing_plan_id":"cebpf4jnsgd1na2vs0mg"},{"bike_id":"1afdb313-01a9-4008-83ea-12de3d3a0c30","system_id":"levelo_inurba_marseille","lat":43.2841,"lon":5.37516,"is_reserved":false,"is_disabled":false,"rental_uris":{"android":"levelo://app?vid=1afdb313-01a9-4008-83ea-12de3d3a0c30","ios":"levelo://app?vid=1afdb313-01a9-4008-83ea-12de3d3a0c30"},"vehicle_type_id":"4","last_reported":1746641707,"current_range_meters":5600,"station_id":"ce4bh412rcd13ifvqds0","pricing_plan_id":"cebpf4jnsgd1na2vs0mg"},{"bike_id":"b51f8fe0-d67c-46d1-b974-e23ceb805d6c","system_id":"levelo_inurba_marseille","lat":43.28936,"lon":5.38396,"is_reserved":false,"is_disabled":false,"rental_uris":{"android":"levelo://app?vid=b51f8fe0-d67c-46d1-b974-e23ceb805d6c","ios":"levelo://app?vid=b51f8fe0-d67c-46d1-b974-e23ceb805d6c"},"vehicle_type_id":"4","last_reported":1746641707,"current_range_meters":5600,"station_id":"ce4bh612rcd13ifvqe6g","pricing_plan_id":"cebpf4jnsgd1na2vs0mg"},{"bike_id":"4e6831b9-7177-4eb6-bb29-a7304a981a54","system_id":"levelo_inurba_marseille","lat":43.28859,"lon":5.35845,"is_reserved":false,"is_disabled":false,"rental_uris":{"android":"levelo://app?vid=4e6831b9-7177-4eb6-bb29-a7304a981a54","ios":"levelo://app?vid=4e6831b9-7177-4eb6-bb29-a7304a981a54"},"vehicle_type_id":"4","last_reported":1746641707,"current_range_meters":5600,"station_id":"ce4bhb12rcd13ifvqem0","pricing_plan_id":"cebpf4jnsgd1na2vs0mg"},{"bike_id":"aa6eaa6f-a172-4a31-8500-b76476b59cb3","system_id":"levelo_inurba_marseille","lat":43.23176,"lon":5.39992,"is_reserved":false,"is_disabled":false,"rental_uris":{"android":"levelo://app?vid=aa6eaa6f-a172-4a31-8500-b76476b59cb3","ios":"levelo://app?vid=aa6eaa6f-a172-4a31-8500-b76476b59cb3"},"vehicle_type_id":"4","last_reported":1746641707,"current_range_meters":5600,"station_id":"ce4bhn12rcd13ifvqgqg","pricing_plan_id":"cebpf4jnsgd1na2vs0mg"},{"bike_id":"ed3997a9-f42b-4f90-9e12-6614d4a0cbc5","system_id":"levelo_inurba_marseille","lat":43.33026,"lon":5.39041,"is_reserved":false,"is_disabled":false,"rental_uris":{"android":"levelo://app?vid=ed3997a9-f42b-4f90-9e12-6614d4a0cbc5","ios":"levelo://app?vid=ed3997a9-f42b-4f90-9e12-6614d4a0cbc5"},"vehicle_type_id":"4","last_reported":1746641707,"current_range_meters":5600,"station_id":"ce4bhr92rcd13ifvqhrg","pricing_plan_id":"cebpf4jnsgd1na2vs0mg"},{"bike_id":"4ca93efb-be27-4193-b547-d0db2c07a3d8","system_id":"levelo_inurba_marseille","lat":43.287308,"lon":5.36083,"is_reserved":false,"is_disabled":false,"rental_uris":{"android":"levelo://app?vid=4ca93efb-be27-4193-b547-d0db2c07a3d8","ios":"levelo://app?vid=4ca93efb-be27-4193-b547-d0db2c07a3d8"},"vehicle_type_id":"4","last_reported":1746641707,"current_range_meters":5600,"station_id":"cki0cbj6b192h4jlfktg","pricing_plan_id":"cebpf4jnsgd1na2vs0mg"},{"bike_id":"dddd58b8-423f-4b14-8629-c23a8cae8db4","system_id":"levelo_inurba_marseille","lat":43.29708,"lon":5.36602,"is_reserved":false,"is_disabled":false,"rental_uris":{"android":"levelo://app?vid=dddd58b8-423f-4b14-8629-c23a8cae8db4","ios":"levelo://app?vid=dddd58b8-423f-4b14-8629-c23a8cae8db4"},"vehicle_type_id":"4","last_reported":1746641707,"current_range_meters":6000,"station_id":"ce4bgn12rcd13ifvqbt0","pricing_plan_id":"cebpf4jnsgd1na2vs0mg"},{"bike_id":"b4a88790-2234-4fee-b6a5-8bf15e6e456f","system_id":"levelo_inurba_marseille","lat":43.31067,"lon":5.38356,"is_reserved":false,"is_disabled":false,"rental_uris":{"android":"levelo://app?vid=b4a88790-2234-4fee-b6a5-8bf15e6e456f","ios":"levelo://app?vid=b4a88790-2234-4fee-b6a5-8bf15e6e456f"},"vehicle_type_id":"4","last_reported":1746641707,"current_range_meters":6000,"station_id":"ce4bgv92rcd13ifvqcr0","pricing_plan_id":"cebpf4jnsgd1na2vs0mg"},{"bike_id":"f34f2771-866e-4a13-aa0d-20b777139a8a","system_id":"levelo_inurba_marseille","lat":43.29051,"lon":5.35907,"is_reserved":false,"is_disabled":false,"rental_uris":{"android":"levelo://app?vid=f34f2771-866e-4a13-aa0d-20b777139a8a","ios":"levelo://app?vid=f34f2771-866e-4a13-aa0d-20b777139a8a"},"vehicle_type_id":"4","last_reported":1746641707,"current_range_meters":6000,"station_id":"ce4bha92rcd13ifvqeg0","pricing_plan_id":"cebpf4jnsgd1na2vs0mg"},{"bike_id":"705f1f6f-d92c-4df1-a512-943b0bf79900","system_id":"levelo_inurba_marseille","lat":43.22494,"lon":5.34788,"is_reserved":false,"is_disabled":false,"rental_uris":{"android":"levelo://app?vid=705f1f6f-d92c-4df1-a512-943b0bf79900","ios":"levelo://app?vid=705f1f6f-d92c-4df1-a512-943b0bf79900"},"vehicle_type_id":"4","last_reported":1746641707,"current_range_meters":6400,"station_id":"st_cvj5dfep6f1abm77gieg","pricing_plan_id":"cebpf4jnsgd1na2vs0mg"},{"bike_id":"db97f7d1-d35d-4dcd-976a-fbe1c8cbdd29","system_id":"levelo_inurba_marseille","lat":43.32634,"lon":5.42847,"is_reserved":false,"is_disabled":false,"rental_uris":{"android":"levelo://app?vid=db97f7d1-d35d-4dcd-976a-fbe1c8cbdd29","ios":"levelo://app?vid=db97f7d1-d35d-4dcd-976a-fbe1c8cbdd29"},"vehicle_type_id":"4","last_reported":1746641707,"current_range_meters":6800,"station_id":"","pricing_plan_id":"cebpf4jnsgd1na2vs0mg"},{"bike_id":"677bb39a-52aa-406b-85da-5ec507532fa0","system_id":"levelo_inurba_marseille","lat":43.2762,"lon":5.36099,"is_reserved":false,"is_disabled":false,"rental_uris":{"android":"levelo://app?vid=677bb39a-52aa-406b-85da-5ec507532fa0","ios":"levelo://app?vid=677bb39a-52aa-406b-85da-5ec507532fa0"},"vehicle_type_id":"4","last_reported":1746641707,"current_range_meters":6800,"station_id":"ce4bgj92rcd13ifvqbe0","pricing_plan_id":"cebpf4jnsgd1na2vs0mg"},{"bike_id":"e36ace98-29ae-4dc6-bca4-6453d4efaf31","system_id":"levelo_inurba_marseille","lat":43.29263,"lon":5.38437,"is_reserved":false,"is_disabled":false,"rental_uris":{"android":"levelo://app?vid=e36ace98-29ae-4dc6-bca4-6453d4efaf31","ios":"levelo://app?vid=e36ace98-29ae-4dc6-bca4-6453d4efaf31"},"vehicle_type_id":"4","last_reported":1746641707,"current_range_meters":6800,"station_id":"ce4bh692rcd13ifvqea0","pricing_plan_id":"cebpf4jnsgd1na2vs0mg"},{"bike_id":"1f6113d8-a10f-4409-a4c8-892712e04651","system_id":"levelo_inurba_marseille","lat":43.29065,"lon":5.35904,"is_reserved":false,"is_disabled":false,"rental_uris":{"android":"levelo://app?vid=1f6113d8-a10f-4409-a4c8-892712e04651","ios":"levelo://app?vid=1f6113d8-a10f-4409-a4c8-892712e04651"},"vehicle_type_id":"4","last_reported":1746641707,"current_range_meters":6800,"station_id":"ce4bha92rcd13ifvqeg0","pricing_plan_id":"cebpf4jnsgd1na2vs0mg"},{"bike_id":"eb9cb000-55e7-42d1-8b67-c6848c4b3d59","system_id":"levelo_inurba_marseille","lat":43.29004,"lon":5.35618,"is_reserved":false,"is_disabled":false,"rental_uris":{"android":"levelo://app?vid=eb9cb000-55e7-42d1-8b67-c6848c4b3d59","ios":"levelo://app?vid=eb9cb000-55e7-42d1-8b67-c6848c4b3d59"},"vehicle_type_id":"4","last_reported":1746641707,"current_range_meters":6800,"station_id":"ce4bhb92rcd13ifvqen0","pricing_plan_id":"cebpf4jnsgd1na2vs0mg"},{"bike_id":"2af6d5d3-8e36-4330-b9db-bfe96290f347","system_id":"levelo_inurba_marseille","lat":43.279062,"lon":5.380275,"is_reserved":false,"is_disabled":false,"rental_uris":{"android":"levelo://app?vid=2af6d5d3-8e36-4330-b9db-bfe96290f347","ios":"levelo://app?vid=2af6d5d3-8e36-4330-b9db-bfe96290f347"},"vehicle_type_id":"4","last_reported":1746641707,"current_range_meters":6800,"station_id":"ce4bhf92rcd13ifvqf50","pricing_plan_id":"cebpf4jnsgd1na2vs0mg"},{"bike_id":"8da8a752-d114-4a4e-be06-54c1ff4342dd","system_id":"levelo_inurba_marseille","lat":43.32403,"lon":5.39017,"is_reserved":false,"is_disabled":false,"rental_uris":{"android":"levelo://app?vid=8da8a752-d114-4a4e-be06-54c1ff4342dd","ios":"levelo://app?vid=8da8a752-d114-4a4e-be06-54c1ff4342dd"},"vehicle_type_id":"4","last_reported":1746641707,"current_range_meters":7200,"station_id":"","pricing_plan_id":"cebpf4jnsgd1na2vs0mg"},{"bike_id":"ba2f54a0-1179-4e7a-a992-2eac40e6c4db","system_id":"levelo_inurba_marseille","lat":43.30788,"lon":5.3766,"is_reserved":false,"is_disabled":false,"rental_uris":{"android":"levelo://app?vid=ba2f54a0-1179-4e7a-a992-2eac40e6c4db","ios":"levelo://app?vid=ba2f54a0-1179-4e7a-a992-2eac40e6c4db"},"vehicle_type_id":"4","last_reported":1746641707,"current_range_meters":7200,"station_id":"ce4bgv92rcd13ifvqcq0","pricing_plan_id":"cebpf4jnsgd1na2vs0mg"},{"bike_id":"87145b26-6c90-4cca-ab0e-b18eb71f65fb","system_id":"levelo_inurba_marseille","lat":43.29018,"lon":5.38135,"is_reserved":false,"is_disabled":false,"rental_uris":{"android":"levelo://app?vid=87145b26-6c90-4cca-ab0e-b18eb71f65fb","ios":"levelo://app?vid=87145b26-6c90-4cca-ab0e-b18eb71f65fb"},"vehicle_type_id":"4","last_reported":1746641707,"current_range_meters":7200,"station_id":"ce4bh4p2rcd13ifvqe1g","pricing_plan_id":"cebpf4jnsgd1na2vs0mg"},{"bike_id":"9b14cb29-e1e9-4dcc-ae53-804f07a94bb0","system_id":"levelo_inurba_marseille","lat":43.27162,"lon":5.41001,"is_reserved":false,"is_disabled":false,"rental_uris":{"android":"levelo://app?vid=9b14cb29-e1e9-4dcc-ae53-804f07a94bb0","ios":"levelo://app?vid=9b14cb29-e1e9-4dcc-ae53-804f07a94bb0"},"vehicle_type_id":"4","last_reported":1746641707,"current_range_meters":7200,"station_id":"ce4bhl12rcd13ifvqgf0","pricing_plan_id":"cebpf4jnsgd1na2vs0mg"},{"bike_id":"1ea425bf-e497-48ab-a098-bd07ffc7f6cd","system_id":"levelo_inurba_marseille","lat":43.32484,"lon":5.36553,"is_reserved":false,"is_disabled":false,"rental_uris":{"android":"levelo://app?vid=1ea425bf-e497-48ab-a098-bd07ffc7f6cd","ios":"levelo://app?vid=1ea425bf-e497-48ab-a098-bd07ffc7f6cd"},"vehicle_type_id":"4","last_reported":1746641707,"current_range_meters":7200,"station_id":"ce4bhs12rcd13ifvqhvg","pricing_plan_id":"cebpf4jnsgd1na2vs0mg"},{"bike_id":"dce814c0-4c4e-4a20-a33b-97af480f0bcb","system_id":"levelo_inurba_marseille","lat":43.29008,"lon":5.42649,"is_reserved":false,"is_disabled":false,"rental_uris":{"android":"levelo://app?vid=dce814c0-4c4e-4a20-a33b-97af480f0bcb","ios":"levelo://app?vid=dce814c0-4c4e-4a20-a33b-97af480f0bcb"},"vehicle_type_id":"4","last_reported":1746641707,"current_range_meters":8000,"station_id":"","pricing_plan_id":"cebpf4jnsgd1na2vs0mg"},{"bike_id":"9fc878f0-5c5f-4542-99af-f7a740e67bb8","system_id":"levelo_inurba_marseille","lat":43.28681,"lon":5.3634,"is_reserved":false,"is_disabled":false,"rental_uris":{"android":"levelo://app?vid=9fc878f0-5c5f-4542-99af-f7a740e67bb8","ios":"levelo://app?vid=9fc878f0-5c5f-4542-99af-f7a740e67bb8"},"vehicle_type_id":"4","last_reported":1746641707,"current_range_meters":8000,"station_id":"ce4bhah2rcd13ifvqej0","pricing_plan_id":"cebpf4jnsgd1na2vs0mg"},{"bike_id":"9540036a-78cf-4cc0-9874-bc38dccf1434","system_id":"levelo_inurba_marseille","lat":43.286642,"lon":5.363454,"is_reserved":false,"is_disabled":false,"rental_uris":{"android":"levelo://app?vid=9540036a-78cf-4cc0-9874-bc38dccf1434","ios":"levelo://app?vid=9540036a-78cf-4cc0-9874-bc38dccf1434"},"vehicle_type_id":"4","last_reported":1746641707,"current_range_meters":8000,"station_id":"ce4bhah2rcd13ifvqej0","pricing_plan_id":"cebpf4jnsgd1na2vs0mg"},{"bike_id":"082a349e-18d9-40a4-beb3-7b63959e9010","system_id":"levelo_inurba_marseille","lat":43.29006,"lon":5.35608,"is_reserved":false,"is_disabled":false,"rental_uris":{"android":"levelo://app?vid=082a349e-18d9-40a4-beb3-7b63959e9010","ios":"levelo://app?vid=082a349e-18d9-40a4-beb3-7b63959e9010"},"vehicle_type_id":"4","last_reported":1746641707,"current_range_meters":8000,"station_id":"ce4bhb92rcd13ifvqen0","pricing_plan_id":"cebpf4jnsgd1na2vs0mg"},{"bike_id":"3cfb0013-19bc-4947-a729-d94b6d4974a7","system_id":"levelo_inurba_marseille","lat":43.32284,"lon":5.38272,"is_reserved":false,"is_disabled":false,"rental_uris":{"android":"levelo://app?vid=3cfb0013-19bc-4947-a729-d94b6d4974a7","ios":"levelo://app?vid=3cfb0013-19bc-4947-a729-d94b6d4974a7"},"vehicle_type_id":"4","last_reported":1746641707,"current_range_meters":8000,"station_id":"ce4bhr12rcd13ifvqhqg","pricing_plan_id":"cebpf4jnsgd1na2vs0mg"},{"bike_id":"1b617b33-4bbe-49ab-862d-58bf6223d8e9","system_id":"levelo_inurba_marseille","lat":43.32642,"lon":5.43001,"is_reserved":false,"is_disabled":false,"rental_uris":{"android":"levelo://app?vid=1b617b33-4bbe-49ab-862d-58bf6223d8e9","ios":"levelo://app?vid=1b617b33-4bbe-49ab-862d-58bf6223d8e9"},"vehicle_type_id":"4","last_reported":1746641707,"current_range_meters":8400,"station_id":"","pricing_plan_id":"cebpf4jnsgd1na2vs0mg"},{"bike_id":"57550d4c-0511-47fe-ade8-16aeedc6dedf","system_id":"levelo_inurba_marseille","lat":43.29259,"lon":5.38431,"is_reserved":false,"is_disabled":false,"rental_uris":{"android":"levelo://app?vid=57550d4c-0511-47fe-ade8-16aeedc6dedf","ios":"levelo://app?vid=57550d4c-0511-47fe-ade8-16aeedc6dedf"},"vehicle_type_id":"4","last_reported":1746641707,"current_range_meters":8400,"station_id":"ce4bh692rcd13ifvqea0","pricing_plan_id":"cebpf4jnsgd1na2vs0mg"},{"bike_id":"014edcbb-ecdf-49a0-b95d-66999ebe0ca1","system_id":"levelo_inurba_marseille","lat":43.28092,"lon":5.37859,"is_reserved":false,"is_disabled":false,"rental_uris":{"android":"levelo://app?vid=014edcbb-ecdf-49a0-b95d-66999ebe0ca1","ios":"levelo://app?vid=014edcbb-ecdf-49a0-b95d-66999ebe0ca1"},"vehicle_type_id":"4","last_reported":1746641707,"current_range_meters":8400,"station_id":"ce4bha12rcd13ifvqee0","pricing_plan_id":"cebpf4jnsgd1na2vs0mg"},{"bike_id":"c94ab757-9977-405b-861a-9448a037775f","system_id":"levelo_inurba_marseille","lat":43.28452,"lon":5.35896,"is_reserved":false,"is_disabled":false,"rental_uris":{"android":"levelo://app?vid=c94ab757-9977-405b-861a-9448a037775f","ios":"levelo://app?vid=c94ab757-9977-405b-861a-9448a037775f"},"vehicle_type_id":"4","last_reported":1746641707,"current_range_meters":8400,"station_id":"ce4bhah2rcd13ifvqei0","pricing_plan_id":"cebpf4jnsgd1na2vs0mg"},{"bike_id":"13a5ef3d-eb02-42e8-8599-cb03b07d9f2a","system_id":"levelo_inurba_marseille","lat":43.28994,"lon":5.35605,"is_reserved":false,"is_disabled":false,"rental_uris":{"android":"levelo://app?vid=13a5ef3d-eb02-42e8-8599-cb03b07d9f2a","ios":"levelo://app?vid=13a5ef3d-eb02-42e8-8599-cb03b07d9f2a"},"vehicle_type_id":"4","last_reported":1746641707,"current_range_meters":8400,"station_id":"ce4bhb92rcd13ifvqen0","pricing_plan_id":"cebpf4jnsgd1na2vs0mg"},{"bike_id":"d3107ed7-afdb-43c3-bab5-1af258429e5d","system_id":"levelo_inurba_marseille","lat":43.27175,"lon":5.40993,"is_reserved":false,"is_disabled":false,"rental_uris":{"android":"levelo://app?vid=d3107ed7-afdb-43c3-bab5-1af258429e5d","ios":"levelo://app?vid=d3107ed7-afdb-43c3-bab5-1af258429e5d"},"vehicle_type_id":"4","last_reported":1746641707,"current_range_meters":8400,"station_id":"ce4bhl12rcd13ifvqgf0","pricing_plan_id":"cebpf4jnsgd1na2vs0mg"},{"bike_id":"dfd27e22-9b34-42f8-9fdf-f3a07c5bdce7","system_id":"levelo_inurba_marseille","lat":43.24164,"lon":5.36404,"is_reserved":false,"is_disabled":false,"rental_uris":{"android":"levelo://app?vid=dfd27e22-9b34-42f8-9fdf-f3a07c5bdce7","ios":"levelo://app?vid=dfd27e22-9b34-42f8-9fdf-f3a07c5bdce7"},"vehicle_type_id":"4","last_reported":1746641707,"current_range_meters":8400,"station_id":"cpo36qri1sfpv3e86is0","pricing_plan_id":"cebpf4jnsgd1na2vs0mg"},{"bike_id":"384d4cd5-4bb0-4474-ac48-0a10219d90a2","system_id":"levelo_inurba_marseille","lat":43.29585,"lon":5.38112,"is_reserved":false,"is_disabled":false,"rental_uris":{"android":"levelo://app?vid=384d4cd5-4bb0-4474-ac48-0a10219d90a2","ios":"levelo://app?vid=384d4cd5-4bb0-4474-ac48-0a10219d90a2"},"vehicle_type_id":"4","last_reported":1746641707,"current_range_meters":8800,"station_id":"ce4bgl12rcd13ifvqbo0","pricing_plan_id":"cebpf4jnsgd1na2vs0mg"},{"bike_id":"d38b72de-26b0-4033-8348-bbe9df47faa4","system_id":"levelo_inurba_marseille","lat":43.28655,"lon":5.36349,"is_reserved":false,"is_disabled":false,"rental_uris":{"android":"levelo://app?vid=d38b72de-26b0-4033-8348-bbe9df47faa4","ios":"levelo://app?vid=d38b72de-26b0-4033-8348-bbe9df47faa4"},"vehicle_type_id":"4","last_reported":1746641707,"current_range_meters":8800,"station_id":"ce4bhah2rcd13ifvqej0","pricing_plan_id":"cebpf4jnsgd1na2vs0mg"},{"bike_id":"da0440ad-37f0-4cf7-ad3e-ab9259227be9","system_id":"levelo_inurba_marseille","lat":43.32003,"lon":5.38139,"is_reserved":false,"is_disabled":false,"rental_uris":{"android":"levelo://app?vid=da0440ad-37f0-4cf7-ad3e-ab9259227be9","ios":"levelo://app?vid=da0440ad-37f0-4cf7-ad3e-ab9259227be9"},"vehicle_type_id":"4","last_reported":1746641707,"current_range_meters":8800,"station_id":"ce4bhr12rcd13ifvqhpg","pricing_plan_id":"cebpf4jnsgd1na2vs0mg"},{"bike_id":"b7bdbe3a-b7ec-4256-908f-dfa71835a5d1","system_id":"levelo_inurba_marseille","lat":43.28863,"lon":5.37125,"is_reserved":false,"is_disabled":false,"rental_uris":{"android":"levelo://app?vid=b7bdbe3a-b7ec-4256-908f-dfa71835a5d1","ios":"levelo://app?vid=b7bdbe3a-b7ec-4256-908f-dfa71835a5d1"},"vehicle_type_id":"4","last_reported":1746641707,"current_range_meters":9200,"station_id":"","pricing_plan_id":"cebpf4jnsgd1na2vs0mg"},{"bike_id":"bd433be9-7a7a-457a-9c40-10247b2d6fba","system_id":"levelo_inurba_marseille","lat":43.29233,"lon":5.36061,"is_reserved":false,"is_disabled":false,"rental_uris":{"android":"levelo://app?vid=bd433be9-7a7a-457a-9c40-10247b2d6fba","ios":"levelo://app?vid=bd433be9-7a7a-457a-9c40-10247b2d6fba"},"vehicle_type_id":"4","last_reported":1746641707,"current_range_meters":9200,"station_id":"ce4bhbh2rcd13ifvqeqg","pricing_plan_id":"cebpf4jnsgd1na2vs0mg"},{"bike_id":"6a105809-032a-47f0-9a51-f1aecf55634b","system_id":"levelo_inurba_marseille","lat":43.29551,"lon":5.42292,"is_reserved":false,"is_disabled":false,"rental_uris":{"android":"levelo://app?vid=6a105809-032a-47f0-9a51-f1aecf55634b","ios":"levelo://app?vid=6a105809-032a-47f0-9a51-f1aecf55634b"},"vehicle_type_id":"4","last_reported":1746641707,"current_range_meters":9200,"station_id":"ce4bhph2rcd13ifvqhdg","pricing_plan_id":"cebpf4jnsgd1na2vs0mg"},{"bike_id":"5872f101-9271-4805-860d-0ee54b52f844","system_id":"levelo_inurba_marseille","lat":43.3229,"lon":5.38269,"is_reserved":false,"is_disabled":false,"rental_uris":{"android":"levelo://app?vid=5872f101-9271-4805-860d-0ee54b52f844","ios":"levelo://app?vid=5872f101-9271-4805-860d-0ee54b52f844"},"vehicle_type_id":"4","last_reported":1746641707,"current_range_meters":9200,"station_id":"ce4bhr12rcd13ifvqhqg","pricing_plan_id":"cebpf4jnsgd1na2vs0mg"},{"bike_id":"149dbc3f-738a-4425-9044-fb81967ea585","system_id":"levelo_inurba_marseille","lat":43.23056,"lon":5.35488,"is_reserved":false,"is_disabled":false,"rental_uris":{"android":"levelo://app?vid=149dbc3f-738a-4425-9044-fb81967ea585","ios":"levelo://app?vid=149dbc3f-738a-4425-9044-fb81967ea585"},"vehicle_type_id":"4","last_reported":1746641707,"current_range_meters":9200,"station_id":"cpo3342slgdg3j2ifvpg","pricing_plan_id":"cebpf4jnsgd1na2vs0mg"},{"bike_id":"871d92dc-153b-42ec-8d90-34c9e0fb29bf","system_id":"levelo_inurba_marseille","lat":43.30632,"lon":5.39872,"is_reserved":false,"is_disabled":false,"rental_uris":{"android":"levelo://app?vid=871d92dc-153b-42ec-8d90-34c9e0fb29bf","ios":"levelo://app?vid=871d92dc-153b-42ec-8d90-34c9e0fb29bf"},"vehicle_type_id":"4","last_reported":1746641707,"current_range_meters":9600,"station_id":"","pricing_plan_id":"cebpf4jnsgd1na2vs0mg"},{"bike_id":"4f1d6f83-11eb-40f2-a99b-a3878cb2975e","system_id":"levelo_inurba_marseille","lat":43.302902,"lon":5.400741,"is_reserved":false,"is_disabled":false,"rental_uris":{"android":"levelo://app?vid=4f1d6f83-11eb-40f2-a99b-a3878cb2975e","ios":"levelo://app?vid=4f1d6f83-11eb-40f2-a99b-a3878cb2975e"},"vehicle_type_id":"4","last_reported":1746641707,"current_range_meters":9600,"station_id":"ce4bgvh2rcd13ifvqcs0","pricing_plan_id":"cebpf4jnsgd1na2vs0mg"},{"bike_id":"25250383-69aa-4fce-aab9-f60ff327334d","system_id":"levelo_inurba_marseille","lat":43.30328,"lon":5.40436,"is_reserved":false,"is_disabled":false,"rental_uris":{"android":"levelo://app?vid=25250383-69aa-4fce-aab9-f60ff327334d","ios":"levelo://app?vid=25250383-69aa-4fce-aab9-f60ff327334d"},"vehicle_type_id":"4","last_reported":1746641707,"current_range_meters":9600,"station_id":"ce4bh012rcd13ifvqd10","pricing_plan_id":"cebpf4jnsgd1na2vs0mg"},{"bike_id":"617aff7f-61d2-4175-868e-c7600596be3e","system_id":"levelo_inurba_marseille","lat":43.29865,"lon":5.39734,"is_reserved":false,"is_disabled":false,"rental_uris":{"android":"levelo://app?vid=617aff7f-61d2-4175-868e-c7600596be3e","ios":"levelo://app?vid=617aff7f-61d2-4175-868e-c7600596be3e"},"vehicle_type_id":"4","last_reported":1746641707,"current_range_meters":9600,"station_id":"ce4bh0h2rcd13ifvqd50","pricing_plan_id":"cebpf4jnsgd1na2vs0mg"},{"bike_id":"b46833da-1a6f-40e2-b243-fce3648f1355","system_id":"levelo_inurba_marseille","lat":43.2862,"lon":5.35094,"is_reserved":false,"is_disabled":false,"rental_uris":{"android":"levelo://app?vid=b46833da-1a6f-40e2-b243-fce3648f1355","ios":"levelo://app?vid=b46833da-1a6f-40e2-b243-fce3648f1355"},"vehicle_type_id":"4","last_reported":1746641707,"current_range_meters":9600,"station_id":"ce4bhch2rcd13ifvqeug","pricing_plan_id":"cebpf4jnsgd1na2vs0mg"},{"bike_id":"e8f2e017-ef03-4bc6-bcb9-e6015310306c","system_id":"levelo_inurba_marseille","lat":43.24803,"lon":5.37452,"is_reserved":false,"is_disabled":false,"rental_uris":{"android":"levelo://app?vid=e8f2e017-ef03-4bc6-bcb9-e6015310306c","ios":"levelo://app?vid=e8f2e017-ef03-4bc6-bcb9-e6015310306c"},"vehicle_type_id":"4","last_reported":1746641707,"current_range_meters":9600,"station_id":"ce4bhgh2rcd13ifvqfb0","pricing_plan_id":"cebpf4jnsgd1na2vs0mg"},{"bike_id":"b3270843-7ad0-4514-9947-383b358236c7","system_id":"levelo_inurba_marseille","lat":43.33719,"lon":5.39188,"is_reserved":false,"is_disabled":false,"rental_uris":{"android":"levelo://app?vid=b3270843-7ad0-4514-9947-383b358236c7","ios":"levelo://app?vid=b3270843-7ad0-4514-9947-383b358236c7"},"vehicle_type_id":"4","last_reported":1746641707,"current_range_meters":9600,"station_id":"ce4bhr92rcd13ifvqhsg","pricing_plan_id":"cebpf4jnsgd1na2vs0mg"},{"bike_id":"d0b18f87-34ca-46c6-8ded-4c7cf475d8b5","system_id":"levelo_inurba_marseille","lat":43.31074,"lon":5.38355,"is_reserved":false,"is_disabled":false,"rental_uris":{"android":"levelo://app?vid=d0b18f87-34ca-46c6-8ded-4c7cf475d8b5","ios":"levelo://app?vid=d0b18f87-34ca-46c6-8ded-4c7cf475d8b5"},"vehicle_type_id":"4","last_reported":1746641707,"current_range_meters":10000,"station_id":"ce4bgv92rcd13ifvqcr0","pricing_plan_id":"cebpf4jnsgd1na2vs0mg"},{"bike_id":"bdaeb080-8544-44da-9a08-662911c7efdb","system_id":"levelo_inurba_marseille","lat":43.297947,"lon":5.4039,"is_reserved":false,"is_disabled":false,"rental_uris":{"android":"levelo://app?vid=bdaeb080-8544-44da-9a08-662911c7efdb","ios":"levelo://app?vid=bdaeb080-8544-44da-9a08-662911c7efdb"},"vehicle_type_id":"4","last_reported":1746641707,"current_range_meters":10000,"station_id":"ce4bh112rcd13ifvqd90","pricing_plan_id":"cebpf4jnsgd1na2vs0mg"},{"bike_id":"b9222b66-d16d-48b0-a050-e23ddbaec045","system_id":"levelo_inurba_marseille","lat":43.2846,"lon":5.3589,"is_reserved":false,"is_disabled":false,"rental_uris":{"android":"levelo://app?vid=b9222b66-d16d-48b0-a050-e23ddbaec045","ios":"levelo://app?vid=b9222b66-d16d-48b0-a050-e23ddbaec045"},"vehicle_type_id":"4","last_reported":1746641707,"current_range_meters":10000,"station_id":"ce4bhah2rcd13ifvqei0","pricing_plan_id":"cebpf4jnsgd1na2vs0mg"},{"bike_id":"8595f23e-9d34-4baa-97fb-423c97ce2fde","system_id":"levelo_inurba_marseille","lat":43.29233,"lon":5.36076,"is_reserved":false,"is_disabled":false,"rental_uris":{"android":"levelo://app?vid=8595f23e-9d34-4baa-97fb-423c97ce2fde","ios":"levelo://app?vid=8595f23e-9d34-4baa-97fb-423c97ce2fde"},"vehicle_type_id":"4","last_reported":1746641707,"current_range_meters":10000,"station_id":"ce4bhbh2rcd13ifvqeqg","pricing_plan_id":"cebpf4jnsgd1na2vs0mg"},{"bike_id":"80b02f0f-29d8-43d1-b0e0-93657000421e","system_id":"levelo_inurba_marseille","lat":43.24393,"lon":5.37053,"is_reserved":false,"is_disabled":false,"rental_uris":{"android":"levelo://app?vid=80b02f0f-29d8-43d1-b0e0-93657000421e","ios":"levelo://app?vid=80b02f0f-29d8-43d1-b0e0-93657000421e"},"vehicle_type_id":"4","last_reported":1746641707,"current_range_meters":10000,"station_id":"ce4bhhh2rcd13ifvqfk0","pricing_plan_id":"cebpf4jnsgd1na2vs0mg"},{"bike_id":"c650db92-e467-494a-8ffb-fba552729a60","system_id":"levelo_inurba_marseille","lat":43.23971,"lon":5.36623,"is_reserved":false,"is_disabled":false,"rental_uris":{"android":"levelo://app?vid=c650db92-e467-494a-8ffb-fba552729a60","ios":"levelo://app?vid=c650db92-e467-494a-8ffb-fba552729a60"},"vehicle_type_id":"4","last_reported":1746641707,"current_range_meters":10000,"station_id":"ce4bhi12rcd13ifvqfp0","pricing_plan_id":"cebpf4jnsgd1na2vs0mg"},{"bike_id":"7915b7bf-1a60-4972-86c4-0897dab015cf","system_id":"levelo_inurba_marseille","lat":43.29556,"lon":5.42293,"is_reserved":false,"is_disabled":false,"rental_uris":{"android":"levelo://app?vid=7915b7bf-1a60-4972-86c4-0897dab015cf","ios":"levelo://app?vid=7915b7bf-1a60-4972-86c4-0897dab015cf"},"vehicle_type_id":"4","last_reported":1746641707,"current_range_meters":10000,"station_id":"ce4bhph2rcd13ifvqhdg","pricing_plan_id":"cebpf4jnsgd1na2vs0mg"},{"bike_id":"89420609-8590-4e4d-9042-8fb0e02b5686","system_id":"levelo_inurba_marseille","lat":43.24154,"lon":5.36399,"is_reserved":false,"is_disabled":false,"rental_uris":{"android":"levelo://app?vid=89420609-8590-4e4d-9042-8fb0e02b5686","ios":"levelo://app?vid=89420609-8590-4e4d-9042-8fb0e02b5686"},"vehicle_type_id":"4","last_reported":1746641707,"current_range_meters":10000,"station_id":"cpo36qri1sfpv3e86is0","pricing_plan_id":"cebpf4jnsgd1na2vs0mg"},{"bike_id":"ce40ea43-bacf-49f3-b5af-ffaf2a1f03b1","system_id":"levelo_inurba_marseille","lat":43.30463,"lon":5.36726,"is_reserved":false,"is_disabled":false,"rental_uris":{"android":"levelo://app?vid=ce40ea43-bacf-49f3-b5af-ffaf2a1f03b1","ios":"levelo://app?vid=ce40ea43-bacf-49f3-b5af-ffaf2a1f03b1"},"vehicle_type_id":"4","last_reported":1746641707,"current_range_meters":10800,"station_id":"","pricing_plan_id":"cebpf4jnsgd1na2vs0mg"},{"bike_id":"5cf67a81-9823-49b8-80ec-87a296b26e5b","system_id":"levelo_inurba_marseille","lat":43.29193,"lon":5.35805,"is_reserved":false,"is_disabled":false,"rental_uris":{"android":"levelo://app?vid=5cf67a81-9823-49b8-80ec-87a296b26e5b","ios":"levelo://app?vid=5cf67a81-9823-49b8-80ec-87a296b26e5b"},"vehicle_type_id":"4","last_reported":1746641707,"current_range_meters":10800,"station_id":"ce4bhb12rcd13ifvqel0","pricing_plan_id":"cebpf4jnsgd1na2vs0mg"},{"bike_id":"b3cfae01-7739-4b96-8d5e-9e598f27763d","system_id":"levelo_inurba_marseille","lat":43.27373,"lon":5.36249,"is_reserved":false,"is_disabled":false,"rental_uris":{"android":"levelo://app?vid=b3cfae01-7739-4b96-8d5e-9e598f27763d","ios":"levelo://app?vid=b3cfae01-7739-4b96-8d5e-9e598f27763d"},"vehicle_type_id":"4","last_reported":1746641707,"current_range_meters":10800,"station_id":"ce4bhbh2rcd13ifvqeo0","pricing_plan_id":"cebpf4jnsgd1na2vs0mg"},{"bike_id":"91f8ede2-991a-4497-9811-d2c86724ced7","system_id":"levelo_inurba_marseille","lat":43.296478,"lon":5.381346,"is_reserved":false,"is_disabled":false,"rental_uris":{"android":"levelo://app?vid=91f8ede2-991a-4497-9811-d2c86724ced7","ios":"levelo://app?vid=91f8ede2-991a-4497-9811-d2c86724ced7"},"vehicle_type_id":"4","last_reported":1746641707,"current_range_meters":10800,"station_id":"ce4bhbh2rcd13ifvqeqg","pricing_plan_id":"cebpf4jnsgd1na2vs0mg"},{"bike_id":"698b89c8-7430-431e-beb5-760685863cd3","system_id":"levelo_inurba_marseille","lat":43.27069,"lon":5.42276,"is_reserved":false,"is_disabled":false,"rental_uris":{"android":"levelo://app?vid=698b89c8-7430-431e-beb5-760685863cd3","ios":"levelo://app?vid=698b89c8-7430-431e-beb5-760685863cd3"},"vehicle_type_id":"4","last_reported":1746641707,"current_range_meters":10800,"station_id":"ce4bhk92rcd13ifvqgb0","pricing_plan_id":"cebpf4jnsgd1na2vs0mg"},{"bike_id":"54a7d5b6-828f-4c65-b990-ec6a05144a38","system_id":"levelo_inurba_marseille","lat":43.24178,"lon":5.39727,"is_reserved":false,"is_disabled":false,"rental_uris":{"android":"levelo://app?vid=54a7d5b6-828f-4c65-b990-ec6a05144a38","ios":"levelo://app?vid=54a7d5b6-828f-4c65-b990-ec6a05144a38"},"vehicle_type_id":"4","last_reported":1746641707,"current_range_meters":10800,"station_id":"ce4bhn12rcd13ifvqgpg","pricing_plan_id":"cebpf4jnsgd1na2vs0mg"},{"bike_id":"0dfbd62e-5ba6-4c99-8693-241cdf22d4ef","system_id":"levelo_inurba_marseille","lat":43.28617,"lon":5.37055,"is_reserved":false,"is_disabled":false,"rental_uris":{"android":"levelo://app?vid=0dfbd62e-5ba6-4c99-8693-241cdf22d4ef","ios":"levelo://app?vid=0dfbd62e-5ba6-4c99-8693-241cdf22d4ef"},"vehicle_type_id":"4","last_reported":1746641707,"current_range_meters":10800,"station_id":"ce4bht12rcd13ifvqi60","pricing_plan_id":"cebpf4jnsgd1na2vs0mg"},{"bike_id":"199aa2d6-674b-49ea-a9d0-cb338758f4a2","system_id":"levelo_inurba_marseille","lat":43.2873,"lon":5.36078,"is_reserved":false,"is_disabled":false,"rental_uris":{"android":"levelo://app?vid=199aa2d6-674b-49ea-a9d0-cb338758f4a2","ios":"levelo://app?vid=199aa2d6-674b-49ea-a9d0-cb338758f4a2"},"vehicle_type_id":"4","last_reported":1746641707,"current_range_meters":10800,"station_id":"cki0cbj6b192h4jlfktg","pricing_plan_id":"cebpf4jnsgd1na2vs0mg"},{"bike_id":"2b501bdb-cb7b-400b-9d0a-0f22b3845191","system_id":"levelo_inurba_marseille","lat":43.297058,"lon":5.366108,"is_reserved":false,"is_disabled":false,"rental_uris":{"android":"levelo://app?vid=2b501bdb-cb7b-400b-9d0a-0f22b3845191","ios":"levelo://app?vid=2b501bdb-cb7b-400b-9d0a-0f22b3845191"},"vehicle_type_id":"4","last_reported":1746641707,"current_range_meters":11200,"station_id":"","pricing_plan_id":"cebpf4jnsgd1na2vs0mg"},{"bike_id":"73a33ccf-3861-414f-8b69-2774dcbe2791","system_id":"levelo_inurba_marseille","lat":43.28844,"lon":5.39306,"is_reserved":false,"is_disabled":false,"rental_uris":{"android":"levelo://app?vid=73a33ccf-3861-414f-8b69-2774dcbe2791","ios":"levelo://app?vid=73a33ccf-3861-414f-8b69-2774dcbe2791"},"vehicle_type_id":"4","last_reported":1746641707,"current_range_meters":11200,"station_id":"ce4bh2p2rcd13ifvqdi0","pricing_plan_id":"cebpf4jnsgd1na2vs0mg"},{"bike_id":"a9f819a7-8ccd-46bd-bd6c-e49bc73a6784","system_id":"levelo_inurba_marseille","lat":43.27361,"lon":5.3626,"is_reserved":false,"is_disabled":false,"rental_uris":{"android":"levelo://app?vid=a9f819a7-8ccd-46bd-bd6c-e49bc73a6784","ios":"levelo://app?vid=a9f819a7-8ccd-46bd-bd6c-e49bc73a6784"},"vehicle_type_id":"4","last_reported":1746641707,"current_range_meters":11200,"station_id":"ce4bhbh2rcd13ifvqeo0","pricing_plan_id":"cebpf4jnsgd1na2vs0mg"},{"bike_id":"b911d25b-e898-43d6-b722-15c1371d0bdf","system_id":"levelo_inurba_marseille","lat":43.28947,"lon":5.3638,"is_reserved":false,"is_disabled":false,"rental_uris":{"android":"levelo://app?vid=b911d25b-e898-43d6-b722-15c1371d0bdf","ios":"levelo://app?vid=b911d25b-e898-43d6-b722-15c1371d0bdf"},"vehicle_type_id":"4","last_reported":1746641707,"current_range_meters":11200,"station_id":"ce4bhc92rcd13ifvqetg","pricing_plan_id":"cebpf4jnsgd1na2vs0mg"},{"bike_id":"b15fe93b-1059-4d75-abd3-040e349ce402","system_id":"levelo_inurba_marseille","lat":43.30105,"lon":5.37005,"is_reserved":false,"is_disabled":false,"rental_uris":{"android":"levelo://app?vid=b15fe93b-1059-4d75-abd3-040e349ce402","ios":"levelo://app?vid=b15fe93b-1059-4d75-abd3-040e349ce402"},"vehicle_type_id":"4","last_reported":1746641707,"current_range_meters":11600,"station_id":"","pricing_plan_id":"cebpf4jnsgd1na2vs0mg"},{"bike_id":"a96833c3-7aad-4769-953e-d8192a324355","system_id":"levelo_inurba_marseille","lat":43.337444,"lon":5.374475,"is_reserved":false,"is_disabled":false,"rental_uris":{"android":"levelo://app?vid=a96833c3-7aad-4769-953e-d8192a324355","ios":"levelo://app?vid=a96833c3-7aad-4769-953e-d8192a324355"},"vehicle_type_id":"4","last_reported":1746641707,"current_range_meters":11600,"station_id":"","pricing_plan_id":"cebpf4jnsgd1na2vs0mg"},{"bike_id":"24ffc902-0957-43c6-9bf0-514e0cc5c9a5","system_id":"levelo_inurba_marseille","lat":43.28153,"lon":5.42641,"is_reserved":false,"is_disabled":false,"rental_uris":{"android":"levelo://app?vid=24ffc902-0957-43c6-9bf0-514e0cc5c9a5","ios":"levelo://app?vid=24ffc902-0957-43c6-9bf0-514e0cc5c9a5"},"vehicle_type_id":"4","last_reported":1746641707,"current_range_meters":11600,"station_id":"ce4bhnh2rcd13ifvqgug","pricing_plan_id":"cebpf4jnsgd1na2vs0mg"},{"bike_id":"c7741849-e541-44df-8dea-1d3f1b8cc5f0","system_id":"levelo_inurba_marseille","lat":43.33033,"lon":5.39054,"is_reserved":false,"is_disabled":false,"rental_uris":{"android":"levelo://app?vid=c7741849-e541-44df-8dea-1d3f1b8cc5f0","ios":"levelo://app?vid=c7741849-e541-44df-8dea-1d3f1b8cc5f0"},"vehicle_type_id":"4","last_reported":1746641707,"current_range_meters":11600,"station_id":"ce4bhr92rcd13ifvqhrg","pricing_plan_id":"cebpf4jnsgd1na2vs0mg"},{"bike_id":"5be43663-a8cc-4f0c-85ed-f7dcdc65d8b1","system_id":"levelo_inurba_marseille","lat":43.28148,"lon":5.42638,"is_reserved":false,"is_disabled":false,"rental_uris":{"android":"levelo://app?vid=5be43663-a8cc-4f0c-85ed-f7dcdc65d8b1","ios":"levelo://app?vid=5be43663-a8cc-4f0c-85ed-f7dcdc65d8b1"},"vehicle_type_id":"4","last_reported":1746641707,"current_range_meters":12000,"station_id":"ce4bhnh2rcd13ifvqgug","pricing_plan_id":"cebpf4jnsgd1na2vs0mg"},{"bike_id":"2431c4cf-f780-4109-b51c-3cb2ad970d21","system_id":"levelo_inurba_marseille","lat":43.29558,"lon":5.42292,"is_reserved":false,"is_disabled":false,"rental_uris":{"android":"levelo://app?vid=2431c4cf-f780-4109-b51c-3cb2ad970d21","ios":"levelo://app?vid=2431c4cf-f780-4109-b51c-3cb2ad970d21"},"vehicle_type_id":"4","last_reported":1746641707,"current_range_meters":12000,"station_id":"ce4bhph2rcd13ifvqhdg","pricing_plan_id":"cebpf4jnsgd1na2vs0mg"},{"bike_id":"29989522-c8be-4366-b3b7-ed28be07a94f","system_id":"levelo_inurba_marseille","lat":43.27369,"lon":5.36261,"is_reserved":false,"is_disabled":false,"rental_uris":{"android":"levelo://app?vid=29989522-c8be-4366-b3b7-ed28be07a94f","ios":"levelo://app?vid=29989522-c8be-4366-b3b7-ed28be07a94f"},"vehicle_type_id":"4","last_reported":1746641707,"current_range_meters":12400,"station_id":"ce4bhbh2rcd13ifvqeo0","pricing_plan_id":"cebpf4jnsgd1na2vs0mg"},{"bike_id":"cbb568b2-7002-44bc-a849-cbc0c38aea52","system_id":"levelo_inurba_marseille","lat":43.29413,"lon":5.38632,"is_reserved":false,"is_disabled":false,"rental_uris":{"android":"levelo://app?vid=cbb568b2-7002-44bc-a849-cbc0c38aea52","ios":"levelo://app?vid=cbb568b2-7002-44bc-a849-cbc0c38aea52"},"vehicle_type_id":"4","last_reported":1746641707,"current_range_meters":12800,"station_id":"ce4bh2h2rcd13ifvqdh0","pricing_plan_id":"cebpf4jnsgd1na2vs0mg"},{"bike_id":"3e492348-a833-474f-86e4-ac7c1b66940f","system_id":"levelo_inurba_marseille","lat":43.28699,"lon":5.3739,"is_reserved":false,"is_disabled":false,"rental_uris":{"android":"levelo://app?vid=3e492348-a833-474f-86e4-ac7c1b66940f","ios":"levelo://app?vid=3e492348-a833-474f-86e4-ac7c1b66940f"},"vehicle_type_id":"4","last_reported":1746641707,"current_range_meters":12800,"station_id":"ce4bh3p2rcd13ifvqdq0","pricing_plan_id":"cebpf4jnsgd1na2vs0mg"},{"bike_id":"815116b9-cbfb-4208-9c0c-481dd8b7e65b","system_id":"levelo_inurba_marseille","lat":43.28156,"lon":5.42637,"is_reserved":false,"is_disabled":false,"rental_uris":{"android":"levelo://app?vid=815116b9-cbfb-4208-9c0c-481dd8b7e65b","ios":"levelo://app?vid=815116b9-cbfb-4208-9c0c-481dd8b7e65b"},"vehicle_type_id":"4","last_reported":1746641707,"current_range_meters":12800,"station_id":"ce4bhnh2rcd13ifvqgug","pricing_plan_id":"cebpf4jnsgd1na2vs0mg"},{"bike_id":"7e1342cb-4746-4a1c-ba04-1d943ef9154d","system_id":"levelo_inurba_marseille","lat":43.27187,"lon":5.40983,"is_reserved":false,"is_disabled":false,"rental_uris":{"android":"levelo://app?vid=7e1342cb-4746-4a1c-ba04-1d943ef9154d","ios":"levelo://app?vid=7e1342cb-4746-4a1c-ba04-1d943ef9154d"},"vehicle_type_id":"4","last_reported":1746641707,"current_range_meters":13600,"station_id":"ce4bhl12rcd13ifvqgf0","pricing_plan_id":"cebpf4jnsgd1na2vs0mg"},{"bike_id":"743b2b76-e237-44a9-a5ca-969f84cde138","system_id":"levelo_inurba_marseille","lat":43.28033,"lon":5.36948,"is_reserved":false,"is_disabled":false,"rental_uris":{"android":"levelo://app?vid=743b2b76-e237-44a9-a5ca-969f84cde138","ios":"levelo://app?vid=743b2b76-e237-44a9-a5ca-969f84cde138"},"vehicle_type_id":"4","last_reported":1746641707,"current_range_meters":14000,"station_id":"ce4bha12rcd13ifvqef0","pricing_plan_id":"cebpf4jnsgd1na2vs0mg"},{"bike_id":"f1381ccf-34c5-4dd2-9814-e2a57f0dc451","system_id":"levelo_inurba_marseille","lat":43.31763,"lon":5.3901,"is_reserved":false,"is_disabled":false,"rental_uris":{"android":"levelo://app?vid=f1381ccf-34c5-4dd2-9814-e2a57f0dc451","ios":"levelo://app?vid=f1381ccf-34c5-4dd2-9814-e2a57f0dc451"},"vehicle_type_id":"4","last_reported":1746641707,"current_range_meters":14000,"station_id":"ce4bhqp2rcd13ifvqhng","pricing_plan_id":"cebpf4jnsgd1na2vs0mg"},{"bike_id":"cb5561fb-3ed2-49bf-bd58-7c8862116c78","system_id":"levelo_inurba_marseille","lat":43.21202,"lon":5.35062,"is_reserved":false,"is_disabled":false,"rental_uris":{"android":"levelo://app?vid=cb5561fb-3ed2-49bf-bd58-7c8862116c78","ios":"levelo://app?vid=cb5561fb-3ed2-49bf-bd58-7c8862116c78"},"vehicle_type_id":"4","last_reported":1746641707,"current_range_meters":14000,"station_id":"st_cvj6sg6p6f1abm77japg","pricing_plan_id":"cebpf4jnsgd1na2vs0mg"},{"bike_id":"44f3b8a1-f121-47c0-9af3-453db94b4b42","system_id":"levelo_inurba_marseille","lat":43.27623,"lon":5.36105,"is_reserved":false,"is_disabled":false,"rental_uris":{"android":"levelo://app?vid=44f3b8a1-f121-47c0-9af3-453db94b4b42","ios":"levelo://app?vid=44f3b8a1-f121-47c0-9af3-453db94b4b42"},"vehicle_type_id":"4","last_reported":1746641707,"current_range_meters":14400,"station_id":"ce4bgj92rcd13ifvqbe0","pricing_plan_id":"cebpf4jnsgd1na2vs0mg"},{"bike_id":"c4ea53e2-01fe-4089-9de6-0a0c5100cec7","system_id":"levelo_inurba_marseille","lat":43.294041,"lon":5.386126,"is_reserved":false,"is_disabled":false,"rental_uris":{"android":"levelo://app?vid=c4ea53e2-01fe-4089-9de6-0a0c5100cec7","ios":"levelo://app?vid=c4ea53e2-01fe-4089-9de6-0a0c5100cec7"},"vehicle_type_id":"4","last_reported":1746641707,"current_range_meters":14400,"station_id":"ce4bh2h2rcd13ifvqdh0","pricing_plan_id":"cebpf4jnsgd1na2vs0mg"},{"bike_id":"b3e19db0-98f9-42f6-b38d-fd0c441dd318","system_id":"levelo_inurba_marseille","lat":43.29,"lon":5.35602,"is_reserved":false,"is_disabled":false,"rental_uris":{"android":"levelo://app?vid=b3e19db0-98f9-42f6-b38d-fd0c441dd318","ios":"levelo://app?vid=b3e19db0-98f9-42f6-b38d-fd0c441dd318"},"vehicle_type_id":"4","last_reported":1746641707,"current_range_meters":14400,"station_id":"ce4bhb92rcd13ifvqen0","pricing_plan_id":"cebpf4jnsgd1na2vs0mg"},{"bike_id":"08386171-e0bf-4ee3-9747-f0da25cc74ff","system_id":"levelo_inurba_marseille","lat":43.28606,"lon":5.35108,"is_reserved":false,"is_disabled":false,"rental_uris":{"android":"levelo://app?vid=08386171-e0bf-4ee3-9747-f0da25cc74ff","ios":"levelo://app?vid=08386171-e0bf-4ee3-9747-f0da25cc74ff"},"vehicle_type_id":"4","last_reported":1746641707,"current_range_meters":14400,"station_id":"ce4bhch2rcd13ifvqeug","pricing_plan_id":"cebpf4jnsgd1na2vs0mg"},{"bike_id":"2b58f3f1-57ee-4bac-bb56-e07a23a9ced0","system_id":"levelo_inurba_marseille","lat":43.2707,"lon":5.42276,"is_reserved":false,"is_disabled":false,"rental_uris":{"android":"levelo://app?vid=2b58f3f1-57ee-4bac-bb56-e07a23a9ced0","ios":"levelo://app?vid=2b58f3f1-57ee-4bac-bb56-e07a23a9ced0"},"vehicle_type_id":"4","last_reported":1746641707,"current_range_meters":14800,"station_id":"ce4bhk92rcd13ifvqgb0","pricing_plan_id":"cebpf4jnsgd1na2vs0mg"},{"bike_id":"9af38e07-df80-452a-b7da-5f3d471fa852","system_id":"levelo_inurba_marseille","lat":43.28699,"lon":5.39982,"is_reserved":false,"is_disabled":false,"rental_uris":{"android":"levelo://app?vid=9af38e07-df80-452a-b7da-5f3d471fa852","ios":"levelo://app?vid=9af38e07-df80-452a-b7da-5f3d471fa852"},"vehicle_type_id":"4","last_reported":1746641707,"current_range_meters":14800,"station_id":"ce4bho92rcd13ifvqh3g","pricing_plan_id":"cebpf4jnsgd1na2vs0mg"},{"bike_id":"701159b2-31bc-4630-81e9-7f8859d06182","system_id":"levelo_inurba_marseille","lat":43.32285,"lon":5.3828,"is_reserved":false,"is_disabled":false,"rental_uris":{"android":"levelo://app?vid=701159b2-31bc-4630-81e9-7f8859d06182","ios":"levelo://app?vid=701159b2-31bc-4630-81e9-7f8859d06182"},"vehicle_type_id":"4","last_reported":1746641707,"current_range_meters":14800,"station_id":"ce4bhr12rcd13ifvqhqg","pricing_plan_id":"cebpf4jnsgd1na2vs0mg"},{"bike_id":"657fb81d-ef8f-4ad3-b64b-995c617f7ffe","system_id":"levelo_inurba_marseille","lat":43.31122,"lon":5.37776,"is_reserved":false,"is_disabled":false,"rental_uris":{"android":"levelo://app?vid=657fb81d-ef8f-4ad3-b64b-995c617f7ffe","ios":"levelo://app?vid=657fb81d-ef8f-4ad3-b64b-995c617f7ffe"},"vehicle_type_id":"4","last_reported":1746641707,"current_range_meters":15200,"station_id":"ce4bgt92rcd13ifvqcg0","pricing_plan_id":"cebpf4jnsgd1na2vs0mg"},{"bike_id":"e945a495-d359-4bb7-bb94-1340aff95955","system_id":"levelo_inurba_marseille","lat":43.28141,"lon":5.40601,"is_reserved":false,"is_disabled":false,"rental_uris":{"android":"levelo://app?vid=e945a495-d359-4bb7-bb94-1340aff95955","ios":"levelo://app?vid=e945a495-d359-4bb7-bb94-1340aff95955"},"vehicle_type_id":"4","last_reported":1746641707,"current_range_meters":16000,"station_id":"","pricing_plan_id":"cebpf4jnsgd1na2vs0mg"},{"bike_id":"e6282093-23fb-41a9-859d-c0d9ad966535","system_id":"levelo_inurba_marseille","lat":43.31722,"lon":5.37665,"is_reserved":false,"is_disabled":false,"rental_uris":{"android":"levelo://app?vid=e6282093-23fb-41a9-859d-c0d9ad966535","ios":"levelo://app?vid=e6282093-23fb-41a9-859d-c0d9ad966535"},"vehicle_type_id":"4","last_reported":1746641707,"current_range_meters":16000,"station_id":"","pricing_plan_id":"cebpf4jnsgd1na2vs0mg"},{"bike_id":"3f24b4c8-4bcf-4dbb-9099-3bdaac3b4688","system_id":"levelo_inurba_marseille","lat":43.29929,"lon":5.36552,"is_reserved":false,"is_disabled":false,"rental_uris":{"android":"levelo://app?vid=3f24b4c8-4bcf-4dbb-9099-3bdaac3b4688","ios":"levelo://app?vid=3f24b4c8-4bcf-4dbb-9099-3bdaac3b4688"},"vehicle_type_id":"4","last_reported":1746641707,"current_range_meters":16000,"station_id":"ce4bgm92rcd13ifvqbr0","pricing_plan_id":"cebpf4jnsgd1na2vs0mg"},{"bike_id":"856bf0c8-089e-4333-a189-05eae84b766b","system_id":"levelo_inurba_marseille","lat":43.27382,"lon":5.36253,"is_reserved":false,"is_disabled":false,"rental_uris":{"android":"levelo://app?vid=856bf0c8-089e-4333-a189-05eae84b766b","ios":"levelo://app?vid=856bf0c8-089e-4333-a189-05eae84b766b"},"vehicle_type_id":"4","last_reported":1746641707,"current_range_meters":16000,"station_id":"ce4bhbh2rcd13ifvqeo0","pricing_plan_id":"cebpf4jnsgd1na2vs0mg"},{"bike_id":"91149443-e599-49d0-8e2b-34a031d50be5","system_id":"levelo_inurba_marseille","lat":43.330248,"lon":5.390313,"is_reserved":false,"is_disabled":false,"rental_uris":{"android":"levelo://app?vid=91149443-e599-49d0-8e2b-34a031d50be5","ios":"levelo://app?vid=91149443-e599-49d0-8e2b-34a031d50be5"},"vehicle_type_id":"4","last_reported":1746641707,"current_range_meters":16000,"station_id":"ce4bhr92rcd13ifvqhrg","pricing_plan_id":"cebpf4jnsgd1na2vs0mg"},{"bike_id":"809c8673-c032-46b9-aa07-62c38e26d44e","system_id":"levelo_inurba_marseille","lat":43.25031,"lon":5.3877,"is_reserved":false,"is_disabled":false,"rental_uris":{"android":"levelo://app?vid=809c8673-c032-46b9-aa07-62c38e26d44e","ios":"levelo://app?vid=809c8673-c032-46b9-aa07-62c38e26d44e"},"vehicle_type_id":"4","last_reported":1746641707,"current_range_meters":16400,"station_id":"","pricing_plan_id":"cebpf4jnsgd1na2vs0mg"},{"bike_id":"10554388-48f4-48c1-937e-7829c87ea57d","system_id":"levelo_inurba_marseille","lat":43.28031,"lon":5.36944,"is_reserved":false,"is_disabled":false,"rental_uris":{"android":"levelo://app?vid=10554388-48f4-48c1-937e-7829c87ea57d","ios":"levelo://app?vid=10554388-48f4-48c1-937e-7829c87ea57d"},"vehicle_type_id":"4","last_reported":1746641707,"current_range_meters":16400,"station_id":"ce4bha12rcd13ifvqef0","pricing_plan_id":"cebpf4jnsgd1na2vs0mg"},{"bike_id":"36fca820-290f-4c5a-8ac5-3d6a0315b30c","system_id":"levelo_inurba_marseille","lat":43.28409,"lon":5.34999,"is_reserved":false,"is_disabled":false,"rental_uris":{"android":"levelo://app?vid=36fca820-290f-4c5a-8ac5-3d6a0315b30c","ios":"levelo://app?vid=36fca820-290f-4c5a-8ac5-3d6a0315b30c"},"vehicle_type_id":"4","last_reported":1746641707,"current_range_meters":16400,"station_id":"ce4bhbh2rcd13ifvqepg","pricing_plan_id":"cebpf4jnsgd1na2vs0mg"},{"bike_id":"ea96f9dd-65bd-4fcc-a36b-4f54ca5cea80","system_id":"levelo_inurba_marseille","lat":43.27821,"lon":5.40613,"is_reserved":false,"is_disabled":false,"rental_uris":{"android":"levelo://app?vid=ea96f9dd-65bd-4fcc-a36b-4f54ca5cea80","ios":"levelo://app?vid=ea96f9dd-65bd-4fcc-a36b-4f54ca5cea80"},"vehicle_type_id":"4","last_reported":1746641707,"current_range_meters":16400,"station_id":"ce4bhnh2rcd13ifvqgtg","pricing_plan_id":"cebpf4jnsgd1na2vs0mg"},{"bike_id":"030779aa-1c2a-456a-8e26-76df4b5f8140","system_id":"levelo_inurba_marseille","lat":43.28996,"lon":5.39887,"is_reserved":false,"is_disabled":false,"rental_uris":{"android":"levelo://app?vid=030779aa-1c2a-456a-8e26-76df4b5f8140","ios":"levelo://app?vid=030779aa-1c2a-456a-8e26-76df4b5f8140"},"vehicle_type_id":"4","last_reported":1746641707,"current_range_meters":16800,"station_id":"ce4bh392rcd13ifvqdm0","pricing_plan_id":"cebpf4jnsgd1na2vs0mg"},{"bike_id":"2ba96f85-d3eb-471f-a3b8-d3bc545fbdef","system_id":"levelo_inurba_marseille","lat":43.28476,"lon":5.35859,"is_reserved":false,"is_disabled":false,"rental_uris":{"android":"levelo://app?vid=2ba96f85-d3eb-471f-a3b8-d3bc545fbdef","ios":"levelo://app?vid=2ba96f85-d3eb-471f-a3b8-d3bc545fbdef"},"vehicle_type_id":"4","last_reported":1746641707,"current_range_meters":16800,"station_id":"ce4bhah2rcd13ifvqei0","pricing_plan_id":"cebpf4jnsgd1na2vs0mg"},{"bike_id":"06c31a0e-577f-421f-b2f9-7e71b76c76ba","system_id":"levelo_inurba_marseille","lat":43.29022,"lon":5.356,"is_reserved":false,"is_disabled":false,"rental_uris":{"android":"levelo://app?vid=06c31a0e-577f-421f-b2f9-7e71b76c76ba","ios":"levelo://app?vid=06c31a0e-577f-421f-b2f9-7e71b76c76ba"},"vehicle_type_id":"4","last_reported":1746641707,"current_range_meters":16800,"station_id":"ce4bhb92rcd13ifvqen0","pricing_plan_id":"cebpf4jnsgd1na2vs0mg"},{"bike_id":"4b5f7432-6c9b-46ca-b2a4-2dd672d9580a","system_id":"levelo_inurba_marseille","lat":43.282651,"lon":5.350589,"is_reserved":false,"is_disabled":false,"rental_uris":{"android":"levelo://app?vid=4b5f7432-6c9b-46ca-b2a4-2dd672d9580a","ios":"levelo://app?vid=4b5f7432-6c9b-46ca-b2a4-2dd672d9580a"},"vehicle_type_id":"4","last_reported":1746641707,"current_range_meters":16800,"station_id":"ce4bhbp2rcd13ifvqerg","pricing_plan_id":"cebpf4jnsgd1na2vs0mg"},{"bike_id":"4afc89d5-7f4f-42e5-a066-5618ec835d5c","system_id":"levelo_inurba_marseille","lat":43.29078,"lon":5.37151,"is_reserved":false,"is_disabled":false,"rental_uris":{"android":"levelo://app?vid=4afc89d5-7f4f-42e5-a066-5618ec835d5c","ios":"levelo://app?vid=4afc89d5-7f4f-42e5-a066-5618ec835d5c"},"vehicle_type_id":"4","last_reported":1746641707,"current_range_meters":17200,"station_id":"ce4bh5p2rcd13ifvqe4g","pricing_plan_id":"cebpf4jnsgd1na2vs0mg"},{"bike_id":"3c11c4f9-4b29-4ce6-8f41-ab19faf77c3e","system_id":"levelo_inurba_marseille","lat":43.28463,"lon":5.35862,"is_reserved":false,"is_disabled":false,"rental_uris":{"android":"levelo://app?vid=3c11c4f9-4b29-4ce6-8f41-ab19faf77c3e","ios":"levelo://app?vid=3c11c4f9-4b29-4ce6-8f41-ab19faf77c3e"},"vehicle_type_id":"4","last_reported":1746641707,"current_range_meters":17200,"station_id":"ce4bhah2rcd13ifvqei0","pricing_plan_id":"cebpf4jnsgd1na2vs0mg"},{"bike_id":"14388ad8-f7f4-4a34-b95b-43c82abe54c0","system_id":"levelo_inurba_marseille","lat":43.25937,"lon":5.40904,"is_reserved":false,"is_disabled":false,"rental_uris":{"android":"levelo://app?vid=14388ad8-f7f4-4a34-b95b-43c82abe54c0","ios":"levelo://app?vid=14388ad8-f7f4-4a34-b95b-43c82abe54c0"},"vehicle_type_id":"4","last_reported":1746641707,"current_range_meters":17200,"station_id":"ce4bhm92rcd13ifvqglg","pricing_plan_id":"cebpf4jnsgd1na2vs0mg"},{"bike_id":"d3d0a76b-e333-419c-94f7-0e11634bab9c","system_id":"levelo_inurba_marseille","lat":43.27994,"lon":5.41663,"is_reserved":false,"is_disabled":false,"rental_uris":{"android":"levelo://app?vid=d3d0a76b-e333-419c-94f7-0e11634bab9c","ios":"levelo://app?vid=d3d0a76b-e333-419c-94f7-0e11634bab9c"},"vehicle_type_id":"4","last_reported":1746641707,"current_range_meters":17200,"station_id":"ce4bho12rcd13ifvqh1g","pricing_plan_id":"cebpf4jnsgd1na2vs0mg"},{"bike_id":"31e92a3d-b4c1-4739-9809-0969a9ef7b34","system_id":"levelo_inurba_marseille","lat":43.28724,"lon":5.37938,"is_reserved":false,"is_disabled":false,"rental_uris":{"android":"levelo://app?vid=31e92a3d-b4c1-4739-9809-0969a9ef7b34","ios":"levelo://app?vid=31e92a3d-b4c1-4739-9809-0969a9ef7b34"},"vehicle_type_id":"4","last_reported":1746641707,"current_range_meters":17600,"station_id":"ce4bh9p2rcd13ifvqec0","pricing_plan_id":"cebpf4jnsgd1na2vs0mg"},{"bike_id":"2939e4aa-7148-4e7d-88e1-fa804b56dd45","system_id":"levelo_inurba_marseille","lat":43.28453,"lon":5.35867,"is_reserved":false,"is_disabled":false,"rental_uris":{"android":"levelo://app?vid=2939e4aa-7148-4e7d-88e1-fa804b56dd45","ios":"levelo://app?vid=2939e4aa-7148-4e7d-88e1-fa804b56dd45"},"vehicle_type_id":"4","last_reported":1746641707,"current_range_meters":17600,"station_id":"ce4bhah2rcd13ifvqei0","pricing_plan_id":"cebpf4jnsgd1na2vs0mg"},{"bike_id":"236d6d49-8435-4c00-b9e9-f02729218eca","system_id":"levelo_inurba_marseille","lat":43.29001,"lon":5.3561,"is_reserved":false,"is_disabled":false,"rental_uris":{"android":"levelo://app?vid=236d6d49-8435-4c00-b9e9-f02729218eca","ios":"levelo://app?vid=236d6d49-8435-4c00-b9e9-f02729218eca"},"vehicle_type_id":"4","last_reported":1746641707,"current_range_meters":17600,"station_id":"ce4bhb92rcd13ifvqen0","pricing_plan_id":"cebpf4jnsgd1na2vs0mg"},{"bike_id":"7cb84a55-eae0-4ff8-a8e8-801fd7179396","system_id":"levelo_inurba_marseille","lat":43.30632,"lon":5.37404,"is_reserved":false,"is_disabled":false,"rental_uris":{"android":"levelo://app?vid=7cb84a55-eae0-4ff8-a8e8-801fd7179396","ios":"levelo://app?vid=7cb84a55-eae0-4ff8-a8e8-801fd7179396"},"vehicle_type_id":"4","last_reported":1746641707,"current_range_meters":18000,"station_id":"","pricing_plan_id":"cebpf4jnsgd1na2vs0mg"},{"bike_id":"5685c192-af0e-432e-a78b-7859fcd0e0d6","system_id":"levelo_inurba_marseille","lat":43.30968,"lon":5.37939,"is_reserved":false,"is_disabled":false,"rental_uris":{"android":"levelo://app?vid=5685c192-af0e-432e-a78b-7859fcd0e0d6","ios":"levelo://app?vid=5685c192-af0e-432e-a78b-7859fcd0e0d6"},"vehicle_type_id":"4","last_reported":1746641707,"current_range_meters":18800,"station_id":"","pricing_plan_id":"cebpf4jnsgd1na2vs0mg"},{"bike_id":"06ceee71-df2b-4bf6-b662-17a716a5937d","system_id":"levelo_inurba_marseille","lat":43.27566,"lon":5.38415,"is_reserved":false,"is_disabled":false,"rental_uris":{"android":"levelo://app?vid=06ceee71-df2b-4bf6-b662-17a716a5937d","ios":"levelo://app?vid=06ceee71-df2b-4bf6-b662-17a716a5937d"},"vehicle_type_id":"4","last_reported":1746641707,"current_range_meters":18800,"station_id":"ce4bhh92rcd13ifvqfi0","pricing_plan_id":"cebpf4jnsgd1na2vs0mg"},{"bike_id":"8bdf87bd-c91b-4644-9046-7072259f9131","system_id":"levelo_inurba_marseille","lat":43.31304,"lon":5.36865,"is_reserved":false,"is_disabled":false,"rental_uris":{"android":"levelo://app?vid=8bdf87bd-c91b-4644-9046-7072259f9131","ios":"levelo://app?vid=8bdf87bd-c91b-4644-9046-7072259f9131"},"vehicle_type_id":"4","last_reported":1746641707,"current_range_meters":19200,"station_id":"","pricing_plan_id":"cebpf4jnsgd1na2vs0mg"},{"bike_id":"607d4b9a-c0c3-4495-82de-fe9c4853c94e","system_id":"levelo_inurba_marseille","lat":43.29526,"lon":5.38539,"is_reserved":false,"is_disabled":false,"rental_uris":{"android":"levelo://app?vid=607d4b9a-c0c3-4495-82de-fe9c4853c94e","ios":"levelo://app?vid=607d4b9a-c0c3-4495-82de-fe9c4853c94e"},"vehicle_type_id":"4","last_reported":1746641707,"current_range_meters":19200,"station_id":"ce4bgih2rcd13ifvqba0","pricing_plan_id":"cebpf4jnsgd1na2vs0mg"},{"bike_id":"dfaa1495-99d2-4e20-9aa4-5fef6057fd4d","system_id":"levelo_inurba_marseille","lat":43.27057,"lon":5.40262,"is_reserved":false,"is_disabled":false,"rental_uris":{"android":"levelo://app?vid=dfaa1495-99d2-4e20-9aa4-5fef6057fd4d","ios":"levelo://app?vid=dfaa1495-99d2-4e20-9aa4-5fef6057fd4d"},"vehicle_type_id":"4","last_reported":1746641707,"current_range_meters":19200,"station_id":"ce4bhk92rcd13ifvqgc0","pricing_plan_id":"cebpf4jnsgd1na2vs0mg"},{"bike_id":"c21f4712-14bb-47ac-a3e2-4ef2579d640d","system_id":"levelo_inurba_marseille","lat":43.27806,"lon":5.40707,"is_reserved":false,"is_disabled":false,"rental_uris":{"android":"levelo://app?vid=c21f4712-14bb-47ac-a3e2-4ef2579d640d","ios":"levelo://app?vid=c21f4712-14bb-47ac-a3e2-4ef2579d640d"},"vehicle_type_id":"4","last_reported":1746641707,"current_range_meters":19200,"station_id":"ce4bhnh2rcd13ifvqgtg","pricing_plan_id":"cebpf4jnsgd1na2vs0mg"},{"bike_id":"77850c93-65b6-44cf-9ab8-cf027ff7aa61","system_id":"levelo_inurba_marseille","lat":43.286072,"lon":5.370657,"is_reserved":false,"is_disabled":false,"rental_uris":{"android":"levelo://app?vid=77850c93-65b6-44cf-9ab8-cf027ff7aa61","ios":"levelo://app?vid=77850c93-65b6-44cf-9ab8-cf027ff7aa61"},"vehicle_type_id":"4","last_reported":1746641707,"current_range_meters":19200,"station_id":"ce4bht12rcd13ifvqi60","pricing_plan_id":"cebpf4jnsgd1na2vs0mg"},{"bike_id":"f4f11732-c051-47a3-952e-77cedc747125","system_id":"levelo_inurba_marseille","lat":43.28261,"lon":5.35068,"is_reserved":false,"is_disabled":false,"rental_uris":{"android":"levelo://app?vid=f4f11732-c051-47a3-952e-77cedc747125","ios":"levelo://app?vid=f4f11732-c051-47a3-952e-77cedc747125"},"vehicle_type_id":"4","last_reported":1746641707,"current_range_meters":19600,"station_id":"ce4bhbp2rcd13ifvqerg","pricing_plan_id":"cebpf4jnsgd1na2vs0mg"},{"bike_id":"1d1ed902-9c7d-4162-b5db-e65abbced81c","system_id":"levelo_inurba_marseille","lat":43.24804,"lon":5.37456,"is_reserved":false,"is_disabled":false,"rental_uris":{"android":"levelo://app?vid=1d1ed902-9c7d-4162-b5db-e65abbced81c","ios":"levelo://app?vid=1d1ed902-9c7d-4162-b5db-e65abbced81c"},"vehicle_type_id":"4","last_reported":1746641707,"current_range_meters":19600,"station_id":"ce4bhgh2rcd13ifvqfb0","pricing_plan_id":"cebpf4jnsgd1na2vs0mg"},{"bike_id":"11c57b73-0c08-441e-841f-184598b9dfff","system_id":"levelo_inurba_marseille","lat":43.27997,"lon":5.41663,"is_reserved":false,"is_disabled":false,"rental_uris":{"android":"levelo://app?vid=11c57b73-0c08-441e-841f-184598b9dfff","ios":"levelo://app?vid=11c57b73-0c08-441e-841f-184598b9dfff"},"vehicle_type_id":"4","last_reported":1746641707,"current_range_meters":19600,"station_id":"ce4bho12rcd13ifvqh1g","pricing_plan_id":"cebpf4jnsgd1na2vs0mg"},{"bike_id":"ad3912e1-02bc-450f-9f15-6e4766049115","system_id":"levelo_inurba_marseille","lat":43.29553,"lon":5.42286,"is_reserved":false,"is_disabled":false,"rental_uris":{"android":"levelo://app?vid=ad3912e1-02bc-450f-9f15-6e4766049115","ios":"levelo://app?vid=ad3912e1-02bc-450f-9f15-6e4766049115"},"vehicle_type_id":"4","last_reported":1746641707,"current_range_meters":19600,"station_id":"ce4bhph2rcd13ifvqhdg","pricing_plan_id":"cebpf4jnsgd1na2vs0mg"},{"bike_id":"70a29a45-574c-4ff1-aca3-740aa0e705be","system_id":"levelo_inurba_marseille","lat":43.24159,"lon":5.36396,"is_reserved":false,"is_disabled":false,"rental_uris":{"android":"levelo://app?vid=70a29a45-574c-4ff1-aca3-740aa0e705be","ios":"levelo://app?vid=70a29a45-574c-4ff1-aca3-740aa0e705be"},"vehicle_type_id":"4","last_reported":1746641707,"current_range_meters":19600,"station_id":"cpo36qri1sfpv3e86is0","pricing_plan_id":"cebpf4jnsgd1na2vs0mg"},{"bike_id":"86faaeb0-89f8-42b9-be93-a34d16b7bcf7","system_id":"levelo_inurba_marseille","lat":43.30077,"lon":5.3702,"is_reserved":false,"is_disabled":false,"rental_uris":{"android":"levelo://app?vid=86faaeb0-89f8-42b9-be93-a34d16b7bcf7","ios":"levelo://app?vid=86faaeb0-89f8-42b9-be93-a34d16b7bcf7"},"vehicle_type_id":"4","last_reported":1746641707,"current_range_meters":20000,"station_id":"","pricing_plan_id":"cebpf4jnsgd1na2vs0mg"},{"bike_id":"95e53b07-7d85-4bcc-931e-d4823de7c804","system_id":"levelo_inurba_marseille","lat":43.2899,"lon":5.3561,"is_reserved":false,"is_disabled":false,"rental_uris":{"android":"levelo://app?vid=95e53b07-7d85-4bcc-931e-d4823de7c804","ios":"levelo://app?vid=95e53b07-7d85-4bcc-931e-d4823de7c804"},"vehicle_type_id":"4","last_reported":1746641707,"current_range_meters":20000,"station_id":"ce4bhb92rcd13ifvqen0","pricing_plan_id":"cebpf4jnsgd1na2vs0mg"},{"bike_id":"26b7ed20-d681-485d-8713-2891623ae6be","system_id":"levelo_inurba_marseille","lat":43.27378,"lon":5.36253,"is_reserved":false,"is_disabled":false,"rental_uris":{"android":"levelo://app?vid=26b7ed20-d681-485d-8713-2891623ae6be","ios":"levelo://app?vid=26b7ed20-d681-485d-8713-2891623ae6be"},"vehicle_type_id":"4","last_reported":1746641707,"current_range_meters":20000,"station_id":"ce4bhbh2rcd13ifvqeo0","pricing_plan_id":"cebpf4jnsgd1na2vs0mg"},{"bike_id":"d1fdf656-4b75-4563-a1e9-ff25db683fdb","system_id":"levelo_inurba_marseille","lat":43.25847,"lon":5.39919,"is_reserved":false,"is_disabled":false,"rental_uris":{"android":"levelo://app?vid=d1fdf656-4b75-4563-a1e9-ff25db683fdb","ios":"levelo://app?vid=d1fdf656-4b75-4563-a1e9-ff25db683fdb"},"vehicle_type_id":"4","last_reported":1746641707,"current_range_meters":20000,"station_id":"ce4bhl92rcd13ifvqghg","pricing_plan_id":"cebpf4jnsgd1na2vs0mg"},{"bike_id":"28e40160-5164-4101-aa01-12fd9937d12b","system_id":"levelo_inurba_marseille","lat":43.28997,"lon":5.35592,"is_reserved":false,"is_disabled":false,"rental_uris":{"android":"levelo://app?vid=28e40160-5164-4101-aa01-12fd9937d12b","ios":"levelo://app?vid=28e40160-5164-4101-aa01-12fd9937d12b"},"vehicle_type_id":"4","last_reported":1746641707,"current_range_meters":20400,"station_id":"ce4bhb92rcd13ifvqen0","pricing_plan_id":"cebpf4jnsgd1na2vs0mg"},{"bike_id":"2c58f4a3-321b-43c5-bff1-e6343e2ab371","system_id":"levelo_inurba_marseille","lat":43.292725,"lon":5.36846,"is_reserved":false,"is_disabled":false,"rental_uris":{"android":"levelo://app?vid=2c58f4a3-321b-43c5-bff1-e6343e2ab371","ios":"levelo://app?vid=2c58f4a3-321b-43c5-bff1-e6343e2ab371"},"vehicle_type_id":"4","last_reported":1746641707,"current_range_meters":20400,"station_id":"ce4bhbp2rcd13ifvqesg","pricing_plan_id":"cebpf4jnsgd1na2vs0mg"},{"bike_id":"803c9b68-77b7-4faa-b4f0-dfae263ffa91","system_id":"levelo_inurba_marseille","lat":43.25717,"lon":5.4111,"is_reserved":false,"is_disabled":false,"rental_uris":{"android":"levelo://app?vid=803c9b68-77b7-4faa-b4f0-dfae263ffa91","ios":"levelo://app?vid=803c9b68-77b7-4faa-b4f0-dfae263ffa91"},"vehicle_type_id":"4","last_reported":1746641707,"current_range_meters":20400,"station_id":"ce4bhkp2rcd13ifvqgd0","pricing_plan_id":"cebpf4jnsgd1na2vs0mg"},{"bike_id":"c9ae7a30-fe96-4997-ad29-047644accb3d","system_id":"levelo_inurba_marseille","lat":43.28718,"lon":5.36082,"is_reserved":false,"is_disabled":false,"rental_uris":{"android":"levelo://app?vid=c9ae7a30-fe96-4997-ad29-047644accb3d","ios":"levelo://app?vid=c9ae7a30-fe96-4997-ad29-047644accb3d"},"vehicle_type_id":"4","last_reported":1746641707,"current_range_meters":20400,"station_id":"cki0cbj6b192h4jlfktg","pricing_plan_id":"cebpf4jnsgd1na2vs0mg"},{"bike_id":"cac0d531-1eb9-40b8-a3b6-dbae9b6fbc40","system_id":"levelo_inurba_marseille","lat":43.28734,"lon":5.36079,"is_reserved":false,"is_disabled":false,"rental_uris":{"android":"levelo://app?vid=cac0d531-1eb9-40b8-a3b6-dbae9b6fbc40","ios":"levelo://app?vid=cac0d531-1eb9-40b8-a3b6-dbae9b6fbc40"},"vehicle_type_id":"4","last_reported":1746641707,"current_range_meters":20400,"station_id":"cki0cbj6b192h4jlfktg","pricing_plan_id":"cebpf4jnsgd1na2vs0mg"},{"bike_id":"89b5c51b-cd9c-475c-ba7a-726b12d22f75","system_id":"levelo_inurba_marseille","lat":43.211959,"lon":5.350776,"is_reserved":false,"is_disabled":false,"rental_uris":{"android":"levelo://app?vid=89b5c51b-cd9c-475c-ba7a-726b12d22f75","ios":"levelo://app?vid=89b5c51b-cd9c-475c-ba7a-726b12d22f75"},"vehicle_type_id":"4","last_reported":1746641707,"current_range_meters":20400,"station_id":"st_cvj6sg6p6f1abm77japg","pricing_plan_id":"cebpf4jnsgd1na2vs0mg"},{"bike_id":"b58208f6-5c5f-4f43-8041-e907b6898206","system_id":"levelo_inurba_marseille","lat":43.29254,"lon":5.38435,"is_reserved":false,"is_disabled":false,"rental_uris":{"android":"levelo://app?vid=b58208f6-5c5f-4f43-8041-e907b6898206","ios":"levelo://app?vid=b58208f6-5c5f-4f43-8041-e907b6898206"},"vehicle_type_id":"4","last_reported":1746641707,"current_range_meters":20800,"station_id":"ce4bh692rcd13ifvqea0","pricing_plan_id":"cebpf4jnsgd1na2vs0mg"},{"bike_id":"fefc146a-07a5-4b5a-bd1b-bfa867bf640c","system_id":"levelo_inurba_marseille","lat":43.24071,"lon":5.37762,"is_reserved":false,"is_disabled":false,"rental_uris":{"android":"levelo://app?vid=fefc146a-07a5-4b5a-bd1b-bfa867bf640c","ios":"levelo://app?vid=fefc146a-07a5-4b5a-bd1b-bfa867bf640c"},"vehicle_type_id":"4","last_reported":1746641707,"current_range_meters":20800,"station_id":"ce4bhnp2rcd13ifvqgvg","pricing_plan_id":"cebpf4jnsgd1na2vs0mg"},{"bike_id":"16d82653-e2e5-4531-a384-7902e244f0cf","system_id":"levelo_inurba_marseille","lat":43.22499,"lon":5.34782,"is_reserved":false,"is_disabled":false,"rental_uris":{"android":"levelo://app?vid=16d82653-e2e5-4531-a384-7902e244f0cf","ios":"levelo://app?vid=16d82653-e2e5-4531-a384-7902e244f0cf"},"vehicle_type_id":"4","last_reported":1746641707,"current_range_meters":20800,"station_id":"st_cvj5dfep6f1abm77gieg","pricing_plan_id":"cebpf4jnsgd1na2vs0mg"},{"bike_id":"ff807334-3ad3-4e40-bbde-648eb2b1c45b","system_id":"levelo_inurba_marseille","lat":43.21195,"lon":5.35065,"is_reserved":false,"is_disabled":false,"rental_uris":{"android":"levelo://app?vid=ff807334-3ad3-4e40-bbde-648eb2b1c45b","ios":"levelo://app?vid=ff807334-3ad3-4e40-bbde-648eb2b1c45b"},"vehicle_type_id":"4","last_reported":1746641707,"current_range_meters":20800,"station_id":"st_cvj6sg6p6f1abm77japg","pricing_plan_id":"cebpf4jnsgd1na2vs0mg"},{"bike_id":"a38c5fcd-2a3e-4e2c-b5be-bfb908394086","system_id":"levelo_inurba_marseille","lat":43.32777,"lon":5.39123,"is_reserved":false,"is_disabled":false,"rental_uris":{"android":"levelo://app?vid=a38c5fcd-2a3e-4e2c-b5be-bfb908394086","ios":"levelo://app?vid=a38c5fcd-2a3e-4e2c-b5be-bfb908394086"},"vehicle_type_id":"4","last_reported":1746641707,"current_range_meters":21600,"station_id":"","pricing_plan_id":"cebpf4jnsgd1na2vs0mg"},{"bike_id":"b80b021a-0801-40d1-8cd5-e614d39e6f6b","system_id":"levelo_inurba_marseille","lat":43.29228,"lon":5.3606,"is_reserved":false,"is_disabled":false,"rental_uris":{"android":"levelo://app?vid=b80b021a-0801-40d1-8cd5-e614d39e6f6b","ios":"levelo://app?vid=b80b021a-0801-40d1-8cd5-e614d39e6f6b"},"vehicle_type_id":"4","last_reported":1746641707,"current_range_meters":21600,"station_id":"ce4bhbh2rcd13ifvqeqg","pricing_plan_id":"cebpf4jnsgd1na2vs0mg"},{"bike_id":"91793e39-ec6c-4a20-b253-2b9e912cdc49","system_id":"levelo_inurba_marseille","lat":43.31077,"lon":5.38356,"is_reserved":false,"is_disabled":false,"rental_uris":{"android":"levelo://app?vid=91793e39-ec6c-4a20-b253-2b9e912cdc49","ios":"levelo://app?vid=91793e39-ec6c-4a20-b253-2b9e912cdc49"},"vehicle_type_id":"4","last_reported":1746641707,"current_range_meters":22000,"station_id":"ce4bgv92rcd13ifvqcr0","pricing_plan_id":"cebpf4jnsgd1na2vs0mg"},{"bike_id":"04db0e6d-8f3b-41b5-9d14-983406e2e2b2","system_id":"levelo_inurba_marseille","lat":43.28869,"lon":5.35839,"is_reserved":false,"is_disabled":false,"rental_uris":{"android":"levelo://app?vid=04db0e6d-8f3b-41b5-9d14-983406e2e2b2","ios":"levelo://app?vid=04db0e6d-8f3b-41b5-9d14-983406e2e2b2"},"vehicle_type_id":"4","last_reported":1746641707,"current_range_meters":22000,"station_id":"ce4bhb12rcd13ifvqem0","pricing_plan_id":"cebpf4jnsgd1na2vs0mg"},{"bike_id":"98f678d9-fd3e-497d-beeb-43d0bae221a1","system_id":"levelo_inurba_marseille","lat":43.28616,"lon":5.35107,"is_reserved":false,"is_disabled":false,"rental_uris":{"android":"levelo://app?vid=98f678d9-fd3e-497d-beeb-43d0bae221a1","ios":"levelo://app?vid=98f678d9-fd3e-497d-beeb-43d0bae221a1"},"vehicle_type_id":"4","last_reported":1746641707,"current_range_meters":22000,"station_id":"ce4bhch2rcd13ifvqeug","pricing_plan_id":"cebpf4jnsgd1na2vs0mg"},{"bike_id":"cad4ee12-f328-4567-99d0-296cbcc92f3a","system_id":"levelo_inurba_marseille","lat":43.24648,"lon":5.38891,"is_reserved":false,"is_disabled":false,"rental_uris":{"android":"levelo://app?vid=cad4ee12-f328-4567-99d0-296cbcc92f3a","ios":"levelo://app?vid=cad4ee12-f328-4567-99d0-296cbcc92f3a"},"vehicle_type_id":"4","last_reported":1746641707,"current_range_meters":22000,"station_id":"ce4bhg12rcd13ifvqf60","pricing_plan_id":"cebpf4jnsgd1na2vs0mg"},{"bike_id":"96c57c0a-e65b-4619-8940-822c9a3a18e2","system_id":"levelo_inurba_marseille","lat":43.27068,"lon":5.42285,"is_reserved":false,"is_disabled":false,"rental_uris":{"android":"levelo://app?vid=96c57c0a-e65b-4619-8940-822c9a3a18e2","ios":"levelo://app?vid=96c57c0a-e65b-4619-8940-822c9a3a18e2"},"vehicle_type_id":"4","last_reported":1746641707,"current_range_meters":22000,"station_id":"ce4bhk92rcd13ifvqgb0","pricing_plan_id":"cebpf4jnsgd1na2vs0mg"},{"bike_id":"c821e32e-d925-441c-80d2-d5a984744aba","system_id":"levelo_inurba_marseille","lat":43.21198,"lon":5.35072,"is_reserved":false,"is_disabled":false,"rental_uris":{"android":"levelo://app?vid=c821e32e-d925-441c-80d2-d5a984744aba","ios":"levelo://app?vid=c821e32e-d925-441c-80d2-d5a984744aba"},"vehicle_type_id":"4","last_reported":1746641707,"current_range_meters":22000,"station_id":"st_cvj6sg6p6f1abm77japg","pricing_plan_id":"cebpf4jnsgd1na2vs0mg"},{"bike_id":"3db4fd3f-4f3c-4397-b535-4aa9777d15f4","system_id":"levelo_inurba_marseille","lat":43.3078,"lon":5.36749,"is_reserved":false,"is_disabled":false,"rental_uris":{"android":"levelo://app?vid=3db4fd3f-4f3c-4397-b535-4aa9777d15f4","ios":"levelo://app?vid=3db4fd3f-4f3c-4397-b535-4aa9777d15f4"},"vehicle_type_id":"4","last_reported":1746641707,"current_range_meters":22400,"station_id":"","pricing_plan_id":"cebpf4jnsgd1na2vs0mg"},{"bike_id":"35c1269a-0c94-4c4d-aea7-f4d8ca755e15","system_id":"levelo_inurba_marseille","lat":43.306157,"lon":5.393389,"is_reserved":false,"is_disabled":false,"rental_uris":{"android":"levelo://app?vid=35c1269a-0c94-4c4d-aea7-f4d8ca755e15","ios":"levelo://app?vid=35c1269a-0c94-4c4d-aea7-f4d8ca755e15"},"vehicle_type_id":"4","last_reported":1746641707,"current_range_meters":22800,"station_id":"ce4bh0p2rcd13ifvqd80","pricing_plan_id":"cebpf4jnsgd1na2vs0mg"},{"bike_id":"a7b7373a-ec26-4a10-b734-d96c6c0835f9","system_id":"levelo_inurba_marseille","lat":43.29425,"lon":5.38616,"is_reserved":false,"is_disabled":false,"rental_uris":{"android":"levelo://app?vid=a7b7373a-ec26-4a10-b734-d96c6c0835f9","ios":"levelo://app?vid=a7b7373a-ec26-4a10-b734-d96c6c0835f9"},"vehicle_type_id":"4","last_reported":1746641707,"current_range_meters":22800,"station_id":"ce4bh2h2rcd13ifvqdh0","pricing_plan_id":"cebpf4jnsgd1na2vs0mg"},{"bike_id":"f5cb47c9-42ec-4cda-a1bf-991c2cda8de2","system_id":"levelo_inurba_marseille","lat":43.28269,"lon":5.35063,"is_reserved":false,"is_disabled":false,"rental_uris":{"android":"levelo://app?vid=f5cb47c9-42ec-4cda-a1bf-991c2cda8de2","ios":"levelo://app?vid=f5cb47c9-42ec-4cda-a1bf-991c2cda8de2"},"vehicle_type_id":"4","last_reported":1746641707,"current_range_meters":22800,"station_id":"ce4bhbp2rcd13ifvqerg","pricing_plan_id":"cebpf4jnsgd1na2vs0mg"},{"bike_id":"a1224fbb-0872-43a3-8287-6b3e071c799c","system_id":"levelo_inurba_marseille","lat":43.28144,"lon":5.4265,"is_reserved":false,"is_disabled":false,"rental_uris":{"android":"levelo://app?vid=a1224fbb-0872-43a3-8287-6b3e071c799c","ios":"levelo://app?vid=a1224fbb-0872-43a3-8287-6b3e071c799c"},"vehicle_type_id":"4","last_reported":1746641707,"current_range_meters":22800,"station_id":"ce4bhnh2rcd13ifvqgug","pricing_plan_id":"cebpf4jnsgd1na2vs0mg"},{"bike_id":"f3e9ab38-3242-4aa5-83f9-529a16ccf936","system_id":"levelo_inurba_marseille","lat":43.22522,"lon":5.34783,"is_reserved":false,"is_disabled":false,"rental_uris":{"android":"levelo://app?vid=f3e9ab38-3242-4aa5-83f9-529a16ccf936","ios":"levelo://app?vid=f3e9ab38-3242-4aa5-83f9-529a16ccf936"},"vehicle_type_id":"4","last_reported":1746641707,"current_range_meters":22800,"station_id":"st_cvj5dfep6f1abm77gieg","pricing_plan_id":"cebpf4jnsgd1na2vs0mg"},{"bike_id":"8e39ba1e-b4e2-493b-ad88-95cef55ba594","system_id":"levelo_inurba_marseille","lat":43.24804,"lon":5.37452,"is_reserved":false,"is_disabled":false,"rental_uris":{"android":"levelo://app?vid=8e39ba1e-b4e2-493b-ad88-95cef55ba594","ios":"levelo://app?vid=8e39ba1e-b4e2-493b-ad88-95cef55ba594"},"vehicle_type_id":"4","last_reported":1746641707,"current_range_meters":23200,"station_id":"ce4bhgh2rcd13ifvqfb0","pricing_plan_id":"cebpf4jnsgd1na2vs0mg"},{"bike_id":"46b00e86-f626-46be-b53f-5f4ece99b8c3","system_id":"levelo_inurba_marseille","lat":43.25504,"lon":5.37655,"is_reserved":false,"is_disabled":false,"rental_uris":{"android":"levelo://app?vid=46b00e86-f626-46be-b53f-5f4ece99b8c3","ios":"levelo://app?vid=46b00e86-f626-46be-b53f-5f4ece99b8c3"},"vehicle_type_id":"4","last_reported":1746641707,"current_range_meters":23200,"station_id":"ce4bhh12rcd13ifvqff0","pricing_plan_id":"cebpf4jnsgd1na2vs0mg"},{"bike_id":"f73d450b-fde6-4898-99b1-916875a407c6","system_id":"levelo_inurba_marseille","lat":43.22505,"lon":5.34786,"is_reserved":false,"is_disabled":false,"rental_uris":{"android":"levelo://app?vid=f73d450b-fde6-4898-99b1-916875a407c6","ios":"levelo://app?vid=f73d450b-fde6-4898-99b1-916875a407c6"},"vehicle_type_id":"4","last_reported":1746641707,"current_range_meters":23200,"station_id":"st_cvj5dfep6f1abm77gieg","pricing_plan_id":"cebpf4jnsgd1na2vs0mg"},{"bike_id":"2b8ef01b-2c9f-4476-b66f-35c9b49be2f3","system_id":"levelo_inurba_marseille","lat":43.257392,"lon":5.382293,"is_reserved":false,"is_disabled":false,"rental_uris":{"android":"levelo://app?vid=2b8ef01b-2c9f-4476-b66f-35c9b49be2f3","ios":"levelo://app?vid=2b8ef01b-2c9f-4476-b66f-35c9b49be2f3"},"vehicle_type_id":"4","last_reported":1746641707,"current_range_meters":24000,"station_id":"","pricing_plan_id":"cebpf4jnsgd1na2vs0mg"},{"bike_id":"dac692b1-d85e-44fc-af26-1cdd2d6eb4d0","system_id":"levelo_inurba_marseille","lat":43.28998,"lon":5.35604,"is_reserved":false,"is_disabled":false,"rental_uris":{"android":"levelo://app?vid=dac692b1-d85e-44fc-af26-1cdd2d6eb4d0","ios":"levelo://app?vid=dac692b1-d85e-44fc-af26-1cdd2d6eb4d0"},"vehicle_type_id":"4","last_reported":1746641707,"current_range_meters":24000,"station_id":"ce4bhb92rcd13ifvqen0","pricing_plan_id":"cebpf4jnsgd1na2vs0mg"},{"bike_id":"0df9fdcb-85f1-4adf-8a7f-19dcc532121d","system_id":"levelo_inurba_marseille","lat":43.282655,"lon":5.350628,"is_reserved":false,"is_disabled":false,"rental_uris":{"android":"levelo://app?vid=0df9fdcb-85f1-4adf-8a7f-19dcc532121d","ios":"levelo://app?vid=0df9fdcb-85f1-4adf-8a7f-19dcc532121d"},"vehicle_type_id":"4","last_reported":1746641707,"current_range_meters":24000,"station_id":"ce4bhbp2rcd13ifvqerg","pricing_plan_id":"cebpf4jnsgd1na2vs0mg"},{"bike_id":"ba77142d-fe9b-4a49-8cc5-9b900dca392e","system_id":"levelo_inurba_marseille","lat":43.2407,"lon":5.37763,"is_reserved":false,"is_disabled":false,"rental_uris":{"android":"levelo://app?vid=ba77142d-fe9b-4a49-8cc5-9b900dca392e","ios":"levelo://app?vid=ba77142d-fe9b-4a49-8cc5-9b900dca392e"},"vehicle_type_id":"4","last_reported":1746641707,"current_range_meters":24000,"station_id":"ce4bhnp2rcd13ifvqgvg","pricing_plan_id":"cebpf4jnsgd1na2vs0mg"},{"bike_id":"c2e9f016-3aa0-462e-a57c-b6809e498ada","system_id":"levelo_inurba_marseille","lat":43.297908,"lon":5.371059,"is_reserved":false,"is_disabled":false,"rental_uris":{"android":"levelo://app?vid=c2e9f016-3aa0-462e-a57c-b6809e498ada","ios":"levelo://app?vid=c2e9f016-3aa0-462e-a57c-b6809e498ada"},"vehicle_type_id":"4","last_reported":1746641707,"current_range_meters":24400,"station_id":"","pricing_plan_id":"cebpf4jnsgd1na2vs0mg"},{"bike_id":"a64321f0-7ee9-46e4-888d-8f6d64d9c3b7","system_id":"levelo_inurba_marseille","lat":43.24806,"lon":5.37453,"is_reserved":false,"is_disabled":false,"rental_uris":{"android":"levelo://app?vid=a64321f0-7ee9-46e4-888d-8f6d64d9c3b7","ios":"levelo://app?vid=a64321f0-7ee9-46e4-888d-8f6d64d9c3b7"},"vehicle_type_id":"4","last_reported":1746641707,"current_range_meters":24400,"station_id":"ce4bhgh2rcd13ifvqfb0","pricing_plan_id":"cebpf4jnsgd1na2vs0mg"},{"bike_id":"58d5d418-c37f-4e7d-9359-430e4be35953","system_id":"levelo_inurba_marseille","lat":43.27076,"lon":5.42284,"is_reserved":false,"is_disabled":false,"rental_uris":{"android":"levelo://app?vid=58d5d418-c37f-4e7d-9359-430e4be35953","ios":"levelo://app?vid=58d5d418-c37f-4e7d-9359-430e4be35953"},"vehicle_type_id":"4","last_reported":1746641707,"current_range_meters":24400,"station_id":"ce4bhk92rcd13ifvqgb0","pricing_plan_id":"cebpf4jnsgd1na2vs0mg"},{"bike_id":"a78ce30b-679e-46df-8846-d09557539c5f","system_id":"levelo_inurba_marseille","lat":43.2955,"lon":5.4229,"is_reserved":false,"is_disabled":false,"rental_uris":{"android":"levelo://app?vid=a78ce30b-679e-46df-8846-d09557539c5f","ios":"levelo://app?vid=a78ce30b-679e-46df-8846-d09557539c5f"},