{"last_updated":1727979102,"ttl":60,"version":"2.2","data":{"bikes":[{"bike_id":"18588757-cdc7-4164-b275-329b63991fa8","system_id":"levelo_inurba_marseille","lat":43.28606,"lon":5.35117,"is_reserved":false,"is_disabled":false,"rental_uris":{"android":"levelo://app?vid=18588757-cdc7-4164-b275-329b63991fa8","ios":"levelo://app?vid=18588757-cdc7-4164-b275-329b63991fa8"},"vehicle_type_id":"4","last_reported":1727979102,"current_range_meters":28400,"station_id":"ce4bhch2rcd13ifvqeug","pricing_plan_id":"cebpf4jnsgd1na2vs0mg"},{"bike_id":"b58e08fd-b14d-4d5a-ba63-43827f1088a5","system_id":"levelo_inurba_marseille","lat":43.272073,"lon":5.391763,"is_reserved":false,"is_disabled":false,"rental_uris":{"android":"levelo://app?vid=b58e08fd-b14d-4d5a-ba63-43827f1088a5","ios":"levelo://app?vid=b58e08fd-b14d-4d5a-ba63-43827f1088a5"},"vehicle_type_id":"4","last_reported":1727979102,"current_range_meters":16400,"station_id":"ce4bhb12rcd13ifvqel0","pricing_plan_id":"cebpf4jnsgd1na2vs0mg"},{"bike_id":"2c1d28fc-a845-4b20-a246-11f8885282c0","system_id":"levelo_inurba_marseille","lat":43.28039,"lon":5.3695,"is_reserved":false,"is_disabled":false,"rental_uris":{"android":"levelo://app?vid=2c1d28fc-a845-4b20-a246-11f8885282c0","ios":"levelo://app?vid=2c1d28fc-a845-4b20-a246-11f8885282c0"},"vehicle_type_id":"4","last_reported":1727979102,"current_range_meters":28800,"station_id":"ce4bha12rcd13ifvqef0","pricing_plan_id":"cebpf4jnsgd1na2vs0mg"},{"bike_id":"7faa395d-c21a-4005-aa1c-276939dab519","system_id":"levelo_inurba_marseille","lat":43.27818,"lon":5.40695,"is_reserved":false,"is_disabled":false,"rental_uris":{"android":"levelo://app?vid=7faa395d-c21a-4005-aa1c-276939dab519","ios":"levelo://app?vid=7faa395d-c21a-4005-aa1c-276939dab519"},"vehicle_type_id":"4","last_reported":1727979102,"current_range_meters":38800,"station_id":"ce4bhnh2rcd13ifvqgtg","pricing_plan_id":"cebpf4jnsgd1na2vs0mg"},{"bike_id":"73cb3f13-1489-478e-8fbc-ed6054c947d5","system_id":"levelo_inurba_marseille","lat":43.29006,"lon":5.35618,"is_reserved":false,"is_disabled":false,"rental_uris":{"android":"levelo://app?vid=73cb3f13-1489-478e-8fbc-ed6054c947d5","ios":"levelo://app?vid=73cb3f13-1489-478e-8fbc-ed6054c947d5"},"vehicle_type_id":"4","last_reported":1727979102,"current_range_meters":28800,"station_id":"ce4bhb92rcd13ifvqen0","pricing_plan_id":"cebpf4jnsgd1na2vs0mg"},{"bike_id":"dfa316ed-31fe-4eb7-ae98-3312a562d760","system_id":"levelo_inurba_marseille","lat":43.27186,"lon":5.40992,"is_reserved":false,"is_disabled":false,"rental_uris":{"android":"levelo://app?vid=dfa316ed-31fe-4eb7-ae98-3312a562d760","ios":"levelo://app?vid=dfa316ed-31fe-4eb7-ae98-3312a562d760"},"vehicle_type_id":"4","last_reported":1727979102,"current_range_meters":34800,"station_id":"ce4bhl12rcd13ifvqgf0","pricing_plan_id":"cebpf4jnsgd1na2vs0mg"},{"bike_id":"5d7d835a-280b-4851-9b58-86c1569c0c4c","system_id":"levelo_inurba_marseille","lat":43.330226,"lon":5.39034,"is_reserved":false,"is_disabled":false,"rental_uris":{"android":"levelo://app?vid=5d7d835a-280b-4851-9b58-86c1569c0c4c","ios":"levelo://app?vid=5d7d835a-280b-4851-9b58-86c1569c0c4c"},"vehicle_type_id":"4","last_reported":1727979102,"current_range_meters":32000,"station_id":"ce4bhr92rcd13ifvqhrg","pricing_plan_id":"cebpf4jnsgd1na2vs0mg"},{"bike_id":"756088e4-bd38-4606-aa6f-cbbf1461af00","system_id":"levelo_inurba_marseille","lat":43.22934,"lon":5.35376,"is_reserved":false,"is_disabled":false,"rental_uris":{"android":"levelo://app?vid=756088e4-bd38-4606-aa6f-cbbf1461af00","ios":"levelo://app?vid=756088e4-bd38-4606-aa6f-cbbf1461af00"},"vehicle_type_id":"4","last_reported":1727979102,"current_range_meters":17600,"station_id":"cpo3532slgdg3j2ikp40","pricing_plan_id":"cebpf4jnsgd1na2vs0mg"},{"bike_id":"d512060a-8899-424f-8736-d89f15982273","system_id":"levelo_inurba_marseille","lat":43.30153,"lon":5.39841,"is_reserved":false,"is_disabled":false,"rental_uris":{"android":"levelo://app?vid=d512060a-8899-424f-8736-d89f15982273","ios":"levelo://app?vid=d512060a-8899-424f-8736-d89f15982273"},"vehicle_type_id":"4","last_reported":1727979102,"current_range_meters":30000,"station_id":"ce4bh0h2rcd13ifvqd40","pricing_plan_id":"cebpf4jnsgd1na2vs0mg"},{"bike_id":"c65f96a4-bd39-4b62-b214-4ec9fc99cb89","system_id":"levelo_inurba_marseille","lat":43.32028,"lon":5.41575,"is_reserved":false,"is_disabled":false,"rental_uris":{"android":"levelo://app?vid=c65f96a4-bd39-4b62-b214-4ec9fc99cb89","ios":"levelo://app?vid=c65f96a4-bd39-4b62-b214-4ec9fc99cb89"},"vehicle_type_id":"4","last_reported":1727979102,"current_range_meters":29600,"station_id":"ce4bhq92rcd13ifvqhkg","pricing_plan_id":"cebpf4jnsgd1na2vs0mg"},{"bike_id":"bc41810d-3fc6-4e9c-bcc1-3b1d7bce3ce2","system_id":"levelo_inurba_marseille","lat":43.23182,"lon":5.39988,"is_reserved":false,"is_disabled":false,"rental_uris":{"android":"levelo://app?vid=bc41810d-3fc6-4e9c-bcc1-3b1d7bce3ce2","ios":"levelo://app?vid=bc41810d-3fc6-4e9c-bcc1-3b1d7bce3ce2"},"vehicle_type_id":"4","last_reported":1727979102,"current_range_meters":23200,"station_id":"ce4bhn12rcd13ifvqgqg","pricing_plan_id":"cebpf4jnsgd1na2vs0mg"},{"bike_id":"8bae221c-40ca-4a97-bbda-33184f14c989","system_id":"levelo_inurba_marseille","lat":43.31173,"lon":5.38712,"is_reserved":false,"is_disabled":false,"rental_uris":{"android":"levelo://app?vid=8bae221c-40ca-4a97-bbda-33184f14c989","ios":"levelo://app?vid=8bae221c-40ca-4a97-bbda-33184f14c989"},"vehicle_type_id":"4","last_reported":1727979102,"current_range_meters":35600,"station_id":"ce4bgv12rcd13ifvqcp0","pricing_plan_id":"cebpf4jnsgd1na2vs0mg"},{"bike_id":"55a6abf8-fc19-4ceb-845e-cabd97c4f3f1","system_id":"levelo_inurba_marseille","lat":43.28151,"lon":5.42649,"is_reserved":false,"is_disabled":false,"rental_uris":{"android":"levelo://app?vid=55a6abf8-fc19-4ceb-845e-cabd97c4f3f1","ios":"levelo://app?vid=55a6abf8-fc19-4ceb-845e-cabd97c4f3f1"},"vehicle_type_id":"4","last_reported":1727979102,"current_range_meters":8800,"station_id":"ce4bhnh2rcd13ifvqgug","pricing_plan_id":"cebpf4jnsgd1na2vs0mg"},{"bike_id":"3b5ee3cc-9add-46c7-9968-d0f73ab6bfa7","system_id":"levelo_inurba_marseille","lat":43.29785,"lon":5.38111,"is_reserved":false,"is_disabled":false,"rental_uris":{"android":"levelo://app?vid=3b5ee3cc-9add-46c7-9968-d0f73ab6bfa7","ios":"levelo://app?vid=3b5ee3cc-9add-46c7-9968-d0f73ab6bfa7"},"vehicle_type_id":"4","last_reported":1727979102,"current_range_meters":22400,"station_id":"ce4bgip2rcd13ifvqbb0","pricing_plan_id":"cebpf4jnsgd1na2vs0mg"},{"bike_id":"dd3c0c0d-986f-4c3e-993a-102df2ac85bb","system_id":"levelo_inurba_marseille","lat":43.29619,"lon":5.37171,"is_reserved":false,"is_disabled":false,"rental_uris":{"android":"levelo://app?vid=dd3c0c0d-986f-4c3e-993a-102df2ac85bb","ios":"levelo://app?vid=dd3c0c0d-986f-4c3e-993a-102df2ac85bb"},"vehicle_type_id":"4","last_reported":1727979102,"current_range_meters":38800,"station_id":"ce4bgkp2rcd13ifvqbmg","pricing_plan_id":"cebpf4jnsgd1na2vs0mg"},{"bike_id":"1287138e-fa6c-436c-9adf-a4c35ff244bc","system_id":"levelo_inurba_marseille","lat":43.31756,"lon":5.39025,"is_reserved":false,"is_disabled":false,"rental_uris":{"android":"levelo://app?vid=1287138e-fa6c-436c-9adf-a4c35ff244bc","ios":"levelo://app?vid=1287138e-fa6c-436c-9adf-a4c35ff244bc"},"vehicle_type_id":"4","last_reported":1727979102,"current_range_meters":15200,"station_id":"ce4bhqp2rcd13ifvqhng","pricing_plan_id":"cebpf4jnsgd1na2vs0mg"},{"bike_id":"5d4089f0-6bea-4580-9db8-3287a3d5f8e4","system_id":"levelo_inurba_marseille","lat":43.29274,"lon":5.40115,"is_reserved":false,"is_disabled":false,"rental_uris":{"android":"levelo://app?vid=5d4089f0-6bea-4580-9db8-3287a3d5f8e4","ios":"levelo://app?vid=5d4089f0-6bea-4580-9db8-3287a3d5f8e4"},"vehicle_type_id":"4","last_reported":1727979102,"current_range_meters":2800,"station_id":"ce4bh312rcd13ifvqdk0","pricing_plan_id":"cebpf4jnsgd1na2vs0mg"},{"bike_id":"a99e0887-fb66-4880-8761-33fdb36b8615","system_id":"levelo_inurba_marseille","lat":43.23189,"lon":5.39994,"is_reserved":false,"is_disabled":false,"rental_uris":{"android":"levelo://app?vid=a99e0887-fb66-4880-8761-33fdb36b8615","ios":"levelo://app?vid=a99e0887-fb66-4880-8761-33fdb36b8615"},"vehicle_type_id":"4","last_reported":1727979102,"current_range_meters":16000,"station_id":"ce4bhn12rcd13ifvqgqg","pricing_plan_id":"cebpf4jnsgd1na2vs0mg"},{"bike_id":"f53f87bb-33a8-4242-bca3-4b0f24f94935","system_id":"levelo_inurba_marseille","lat":43.29782,"lon":5.39355,"is_reserved":false,"is_disabled":false,"rental_uris":{"android":"levelo://app?vid=f53f87bb-33a8-4242-bca3-4b0f24f94935","ios":"levelo://app?vid=f53f87bb-33a8-4242-bca3-4b0f24f94935"},"vehicle_type_id":"4","last_reported":1727979102,"current_range_meters":38800,"station_id":"chh1huq6cuj3fo74tm60","pricing_plan_id":"cebpf4jnsgd1na2vs0mg"},{"bike_id":"47f2e32c-9efd-4038-b32b-18567d6b1f6d","system_id":"levelo_inurba_marseille","lat":43.29256,"lon":5.3845,"is_reserved":false,"is_disabled":false,"rental_uris":{"android":"levelo://app?vid=47f2e32c-9efd-4038-b32b-18567d6b1f6d","ios":"levelo://app?vid=47f2e32c-9efd-4038-b32b-18567d6b1f6d"},"vehicle_type_id":"4","last_reported":1727979102,"current_range_meters":6400,"station_id":"ce4bh692rcd13ifvqea0","pricing_plan_id":"cebpf4jnsgd1na2vs0mg"},{"bike_id":"e1589006-b1f3-4d25-b764-27e4f205b10c","system_id":"levelo_inurba_marseille","lat":43.24675,"lon":5.38152,"is_reserved":false,"is_disabled":false,"rental_uris":{"android":"levelo://app?vid=e1589006-b1f3-4d25-b764-27e4f205b10c","ios":"levelo://app?vid=e1589006-b1f3-4d25-b764-27e4f205b10c"},"vehicle_type_id":"4","last_reported":1727979102,"current_range_meters":23200,"station_id":"ce4bhih2rcd13ifvqfr0","pricing_plan_id":"cebpf4jnsgd1na2vs0mg"},{"bike_id":"bf02e316-b964-4234-b7c1-343cd92831c8","system_id":"levelo_inurba_marseille","lat":43.281555,"lon":5.426485,"is_reserved":false,"is_disabled":false,"rental_uris":{"android":"levelo://app?vid=bf02e316-b964-4234-b7c1-343cd92831c8","ios":"levelo://app?vid=bf02e316-b964-4234-b7c1-343cd92831c8"},"vehicle_type_id":"4","last_reported":1727979102,"current_range_meters":8800,"station_id":"ce4bhnh2rcd13ifvqgug","pricing_plan_id":"cebpf4jnsgd1na2vs0mg"},{"bike_id":"75ae865b-18dc-4981-b8a0-9c762a1bfa9c","system_id":"levelo_inurba_marseille","lat":43.33022,"lon":5.39045,"is_reserved":false,"is_disabled":false,"rental_uris":{"android":"levelo://app?vid=75ae865b-18dc-4981-b8a0-9c762a1bfa9c","ios":"levelo://app?vid=75ae865b-18dc-4981-b8a0-9c762a1bfa9c"},"vehicle_type_id":"4","last_reported":1727979102,"current_range_meters":4800,"station_id":"ce4bhr92rcd13ifvqhrg","pricing_plan_id":"cebpf4jnsgd1na2vs0mg"},{"bike_id":"3fe37da4-ea3d-4957-9fb9-6b9c0a227d7d","system_id":"levelo_inurba_marseille","lat":43.27944,"lon":5.41059,"is_reserved":false,"is_disabled":false,"rental_uris":{"android":"levelo://app?vid=3fe37da4-ea3d-4957-9fb9-6b9c0a227d7d","ios":"levelo://app?vid=3fe37da4-ea3d-4957-9fb9-6b9c0a227d7d"},"vehicle_type_id":"4","last_reported":1727979102,"current_range_meters":22400,"station_id":"ce4bhnp2rcd13ifvqh0g","pricing_plan_id":"cebpf4jnsgd1na2vs0mg"},{"bike_id":"067137d1-b01e-4db3-8afa-dbe448ff1ea0","system_id":"levelo_inurba_marseille","lat":43.28614,"lon":5.35108,"is_reserved":false,"is_disabled":false,"rental_uris":{"android":"levelo://app?vid=067137d1-b01e-4db3-8afa-dbe448ff1ea0","ios":"levelo://app?vid=067137d1-b01e-4db3-8afa-dbe448ff1ea0"},"vehicle_type_id":"4","last_reported":1727979102,"current_range_meters":30000,"station_id":"ce4bhch2rcd13ifvqeug","pricing_plan_id":"cebpf4jnsgd1na2vs0mg"},{"bike_id":"e6b2df58-b4a0-4aec-933d-a62e42f34d34","system_id":"levelo_inurba_marseille","lat":43.33714,"lon":5.39207,"is_reserved":false,"is_disabled":false,"rental_uris":{"android":"levelo://app?vid=e6b2df58-b4a0-4aec-933d-a62e42f34d34","ios":"levelo://app?vid=e6b2df58-b4a0-4aec-933d-a62e42f34d34"},"vehicle_type_id":"4","last_reported":1727979102,"current_range_meters":24800,"station_id":"ce4bhr92rcd13ifvqhsg","pricing_plan_id":"cebpf4jnsgd1na2vs0mg"},{"bike_id":"b1caede3-9948-4c10-a88e-31db67871077","system_id":"levelo_inurba_marseille","lat":43.31352,"lon":5.38511,"is_reserved":false,"is_disabled":false,"rental_uris":{"android":"levelo://app?vid=b1caede3-9948-4c10-a88e-31db67871077","ios":"levelo://app?vid=b1caede3-9948-4c10-a88e-31db67871077"},"vehicle_type_id":"4","last_reported":1727979102,"current_range_meters":27200,"station_id":"ce4bgt92rcd13ifvqcf0","pricing_plan_id":"cebpf4jnsgd1na2vs0mg"},{"bike_id":"eb43ae52-3f5b-4a7e-9fa5-6a9c95a4cebb","system_id":"levelo_inurba_marseille","lat":43.24514,"lon":5.37352,"is_reserved":false,"is_disabled":false,"rental_uris":{"android":"levelo://app?vid=eb43ae52-3f5b-4a7e-9fa5-6a9c95a4cebb","ios":"levelo://app?vid=eb43ae52-3f5b-4a7e-9fa5-6a9c95a4cebb"},"vehicle_type_id":"4","last_reported":1727979102,"current_range_meters":20400,"station_id":"","pricing_plan_id":"cebpf4jnsgd1na2vs0mg"},{"bike_id":"56287f66-1668-4a5d-b3e1-733e18339fb8","system_id":"levelo_inurba_marseille","lat":43.32365,"lon":5.38886,"is_reserved":false,"is_disabled":false,"rental_uris":{"android":"levelo://app?vid=56287f66-1668-4a5d-b3e1-733e18339fb8","ios":"levelo://app?vid=56287f66-1668-4a5d-b3e1-733e18339fb8"},"vehicle_type_id":"4","last_reported":1727979102,"current_range_meters":28800,"station_id":"ce4bhqp2rcd13ifvqhog","pricing_plan_id":"cebpf4jnsgd1na2vs0mg"},{"bike_id":"b73551f1-4737-42f3-8efd-5f2fca843848","system_id":"levelo_inurba_marseille","lat":43.29894,"lon":5.43681,"is_reserved":false,"is_disabled":false,"rental_uris":{"android":"levelo://app?vid=b73551f1-4737-42f3-8efd-5f2fca843848","ios":"levelo://app?vid=b73551f1-4737-42f3-8efd-5f2fca843848"},"vehicle_type_id":"4","last_reported":1727979102,"current_range_meters":22800,"station_id":"ce4bhpp2rcd13ifvqhfg","pricing_plan_id":"cebpf4jnsgd1na2vs0mg"},{"bike_id":"63bae4f0-02bd-4bdc-902b-51044b09603f","system_id":"levelo_inurba_marseille","lat":43.27614,"lon":5.36114,"is_reserved":false,"is_disabled":false,"rental_uris":{"android":"levelo://app?vid=63bae4f0-02bd-4bdc-902b-51044b09603f","ios":"levelo://app?vid=63bae4f0-02bd-4bdc-902b-51044b09603f"},"vehicle_type_id":"4","last_reported":1727979102,"current_range_meters":38800,"station_id":"ce4bgj92rcd13ifvqbe0","pricing_plan_id":"cebpf4jnsgd1na2vs0mg"},{"bike_id":"6f4228b8-326d-4d1c-9b38-e865287f310d","system_id":"levelo_inurba_marseille","lat":43.29519,"lon":5.39047,"is_reserved":false,"is_disabled":false,"rental_uris":{"android":"levelo://app?vid=6f4228b8-326d-4d1c-9b38-e865287f310d","ios":"levelo://app?vid=6f4228b8-326d-4d1c-9b38-e865287f310d"},"vehicle_type_id":"4","last_reported":1727979102,"current_range_meters":19600,"station_id":"ce4bh3p2rcd13ifvqdp0","pricing_plan_id":"cebpf4jnsgd1na2vs0mg"},{"bike_id":"b8cfaec9-74e1-414c-b3a7-8c9b8ec9d556","system_id":"levelo_inurba_marseille","lat":43.30344,"lon":5.38601,"is_reserved":false,"is_disabled":false,"rental_uris":{"android":"levelo://app?vid=b8cfaec9-74e1-414c-b3a7-8c9b8ec9d556","ios":"levelo://app?vid=b8cfaec9-74e1-414c-b3a7-8c9b8ec9d556"},"vehicle_type_id":"4","last_reported":1727979102,"current_range_meters":8000,"station_id":"","pricing_plan_id":"cebpf4jnsgd1na2vs0mg"},{"bike_id":"a0feab16-2f1f-4214-9058-21d8b9b7774f","system_id":"levelo_inurba_marseille","lat":43.28002,"lon":5.40965,"is_reserved":false,"is_disabled":false,"rental_uris":{"android":"levelo://app?vid=a0feab16-2f1f-4214-9058-21d8b9b7774f","ios":"levelo://app?vid=a0feab16-2f1f-4214-9058-21d8b9b7774f"},"vehicle_type_id":"4","last_reported":1727979102,"current_range_meters":14000,"station_id":"","pricing_plan_id":"cebpf4jnsgd1na2vs0mg"},{"bike_id":"6323c3ea-75d7-47ca-8873-1f720d264584","system_id":"levelo_inurba_marseille","lat":43.25498,"lon":5.37653,"is_reserved":false,"is_disabled":false,"rental_uris":{"android":"levelo://app?vid=6323c3ea-75d7-47ca-8873-1f720d264584","ios":"levelo://app?vid=6323c3ea-75d7-47ca-8873-1f720d264584"},"vehicle_type_id":"4","last_reported":1727979102,"current_range_meters":36800,"station_id":"ce4bhh12rcd13ifvqff0","pricing_plan_id":"cebpf4jnsgd1na2vs0mg"},{"bike_id":"0d38caac-4e1b-4bc6-8634-fba8549655ca","system_id":"levelo_inurba_marseille","lat":43.3211,"lon":5.36796,"is_reserved":false,"is_disabled":false,"rental_uris":{"android":"levelo://app?vid=0d38caac-4e1b-4bc6-8634-fba8549655ca","ios":"levelo://app?vid=0d38caac-4e1b-4bc6-8634-fba8549655ca"},"vehicle_type_id":"4","last_reported":1727979102,"current_range_meters":35600,"station_id":"ce4bhrh2rcd13ifvqhug","pricing_plan_id":"cebpf4jnsgd1na2vs0mg"},{"bike_id":"66249e4b-85aa-416e-8f34-b670a3f514f4","system_id":"levelo_inurba_marseille","lat":43.31688,"lon":5.40479,"is_reserved":false,"is_disabled":false,"rental_uris":{"android":"levelo://app?vid=66249e4b-85aa-416e-8f34-b670a3f514f4","ios":"levelo://app?vid=66249e4b-85aa-416e-8f34-b670a3f514f4"},"vehicle_type_id":"4","last_reported":1727979102,"current_range_meters":24400,"station_id":"ce4bh012rcd13ifvqd00","pricing_plan_id":"cebpf4jnsgd1na2vs0mg"},{"bike_id":"499cb64c-6fb8-4407-89d8-a118e3c5c28d","system_id":"levelo_inurba_marseille","lat":43.28002,"lon":5.40004,"is_reserved":false,"is_disabled":false,"rental_uris":{"android":"levelo://app?vid=499cb64c-6fb8-4407-89d8-a118e3c5c28d","ios":"levelo://app?vid=499cb64c-6fb8-4407-89d8-a118e3c5c28d"},"vehicle_type_id":"4","last_reported":1727979102,"current_range_meters":18800,"station_id":"ce4bho92rcd13ifvqh4g","pricing_plan_id":"cebpf4jnsgd1na2vs0mg"},{"bike_id":"ad9d6e94-a639-469e-9892-0c7fed511f97","system_id":"levelo_inurba_marseille","lat":43.26554,"lon":5.37287,"is_reserved":false,"is_disabled":false,"rental_uris":{"android":"levelo://app?vid=ad9d6e94-a639-469e-9892-0c7fed511f97","ios":"levelo://app?vid=ad9d6e94-a639-469e-9892-0c7fed511f97"},"vehicle_type_id":"4","last_reported":1727979102,"current_range_meters":19600,"station_id":"ce4bhg12rcd13ifvqf70","pricing_plan_id":"cebpf4jnsgd1na2vs0mg"},{"bike_id":"aad7eb39-827c-4765-aadc-c84a23849a3c","system_id":"levelo_inurba_marseille","lat":43.32364,"lon":5.38886,"is_reserved":false,"is_disabled":false,"rental_uris":{"android":"levelo://app?vid=aad7eb39-827c-4765-aadc-c84a23849a3c","ios":"levelo://app?vid=aad7eb39-827c-4765-aadc-c84a23849a3c"},"vehicle_type_id":"4","last_reported":1727979102,"current_range_meters":30000,"station_id":"ce4bhqp2rcd13ifvqhog","pricing_plan_id":"cebpf4jnsgd1na2vs0mg"},{"bike_id":"036947c1-44aa-422f-aa86-1c7503059f53","system_id":"levelo_inurba_marseille","lat":43.2871,"lon":5.37944,"is_reserved":false,"is_disabled":false,"rental_uris":{"android":"levelo://app?vid=036947c1-44aa-422f-aa86-1c7503059f53","ios":"levelo://app?vid=036947c1-44aa-422f-aa86-1c7503059f53"},"vehicle_type_id":"4","last_reported":1727979102,"current_range_meters":14800,"station_id":"ce4bh9p2rcd13ifvqec0","pricing_plan_id":"cebpf4jnsgd1na2vs0mg"},{"bike_id":"76f567d4-1967-4cea-af8b-fd617ffaec8d","system_id":"levelo_inurba_marseille","lat":43.28267,"lon":5.35078,"is_reserved":false,"is_disabled":false,"rental_uris":{"android":"levelo://app?vid=76f567d4-1967-4cea-af8b-fd617ffaec8d","ios":"levelo://app?vid=76f567d4-1967-4cea-af8b-fd617ffaec8d"},"vehicle_type_id":"4","last_reported":1727979102,"current_range_meters":26000,"station_id":"ce4bhbp2rcd13ifvqerg","pricing_plan_id":"cebpf4jnsgd1na2vs0mg"},{"bike_id":"f93908e3-f2aa-4ef7-983a-ac260f535598","system_id":"levelo_inurba_marseille","lat":43.29027,"lon":5.38647,"is_reserved":false,"is_disabled":false,"rental_uris":{"android":"levelo://app?vid=f93908e3-f2aa-4ef7-983a-ac260f535598","ios":"levelo://app?vid=f93908e3-f2aa-4ef7-983a-ac260f535598"},"vehicle_type_id":"4","last_reported":1727979102,"current_range_meters":31200,"station_id":"ce4bh4p2rcd13ifvqe0g","pricing_plan_id":"cebpf4jnsgd1na2vs0mg"},{"bike_id":"7bfb5721-baf3-4893-bbf9-7c8112a113a1","system_id":"levelo_inurba_marseille","lat":43.27994,"lon":5.40013,"is_reserved":false,"is_disabled":false,"rental_uris":{"android":"levelo://app?vid=7bfb5721-baf3-4893-bbf9-7c8112a113a1","ios":"levelo://app?vid=7bfb5721-baf3-4893-bbf9-7c8112a113a1"},"vehicle_type_id":"4","last_reported":1727979102,"current_range_meters":32800,"station_id":"ce4bho92rcd13ifvqh4g","pricing_plan_id":"cebpf4jnsgd1na2vs0mg"},{"bike_id":"a1f97a2a-5413-4599-8354-8254b4e2abd8","system_id":"levelo_inurba_marseille","lat":43.28104,"lon":5.37846,"is_reserved":false,"is_disabled":false,"rental_uris":{"android":"levelo://app?vid=a1f97a2a-5413-4599-8354-8254b4e2abd8","ios":"levelo://app?vid=a1f97a2a-5413-4599-8354-8254b4e2abd8"},"vehicle_type_id":"4","last_reported":1727979102,"current_range_meters":14800,"station_id":"ce4bha12rcd13ifvqee0","pricing_plan_id":"cebpf4jnsgd1na2vs0mg"},{"bike_id":"0fc7ae8d-9102-4d20-8337-a47ebec4b5f1","system_id":"levelo_inurba_marseille","lat":43.32548,"lon":5.41446,"is_reserved":false,"is_disabled":false,"rental_uris":{"android":"levelo://app?vid=0fc7ae8d-9102-4d20-8337-a47ebec4b5f1","ios":"levelo://app?vid=0fc7ae8d-9102-4d20-8337-a47ebec4b5f1"},"vehicle_type_id":"4","last_reported":1727979102,"current_range_meters":39200,"station_id":"ce4bhq12rcd13ifvqhhg","pricing_plan_id":"cebpf4jnsgd1na2vs0mg"},{"bike_id":"a7ec704f-ad17-4478-bc29-1c40a70cfb31","system_id":"levelo_inurba_marseille","lat":43.317505,"lon":5.390293,"is_reserved":false,"is_disabled":false,"rental_uris":{"android":"levelo://app?vid=a7ec704f-ad17-4478-bc29-1c40a70cfb31","ios":"levelo://app?vid=a7ec704f-ad17-4478-bc29-1c40a70cfb31"},"vehicle_type_id":"4","last_reported":1727979102,"current_range_meters":37600,"station_id":"ce4bhqp2rcd13ifvqhng","pricing_plan_id":"cebpf4jnsgd1na2vs0mg"},{"bike_id":"b811ee3a-f56f-4d9b-a284-57cab070e7f3","system_id":"levelo_inurba_marseille","lat":43.24807,"lon":5.37465,"is_reserved":false,"is_disabled":false,"rental_uris":{"android":"levelo://app?vid=b811ee3a-f56f-4d9b-a284-57cab070e7f3","ios":"levelo://app?vid=b811ee3a-f56f-4d9b-a284-57cab070e7f3"},"vehicle_type_id":"4","last_reported":1727979102,"current_range_meters":32000,"station_id":"ce4bhgh2rcd13ifvqfb0","pricing_plan_id":"cebpf4jnsgd1na2vs0mg"},{"bike_id":"1358805f-48d3-4505-841c-ddca601a11fe","system_id":"levelo_inurba_marseille","lat":43.29485,"lon":5.38301,"is_reserved":false,"is_disabled":false,"rental_uris":{"android":"levelo://app?vid=1358805f-48d3-4505-841c-ddca601a11fe","ios":"levelo://app?vid=1358805f-48d3-4505-841c-ddca601a11fe"},"vehicle_type_id":"4","last_reported":1727979102,"current_range_meters":6400,"station_id":"","pricing_plan_id":"cebpf4jnsgd1na2vs0mg"},{"bike_id":"5b7b7f31-2ad6-409b-8235-1bb722bdf0ca","system_id":"levelo_inurba_marseille","lat":43.23959,"lon":5.36636,"is_reserved":false,"is_disabled":false,"rental_uris":{"android":"levelo://app?vid=5b7b7f31-2ad6-409b-8235-1bb722bdf0ca","ios":"levelo://app?vid=5b7b7f31-2ad6-409b-8235-1bb722bdf0ca"},"vehicle_type_id":"4","last_reported":1727979102,"current_range_meters":22000,"station_id":"ce4bhi12rcd13ifvqfp0","pricing_plan_id":"cebpf4jnsgd1na2vs0mg"},{"bike_id":"a83e27c3-038a-4300-a4e1-1fd38ee7fb01","system_id":"levelo_inurba_marseille","lat":43.30642,"lon":5.40098,"is_reserved":false,"is_disabled":false,"rental_uris":{"android":"levelo://app?vid=a83e27c3-038a-4300-a4e1-1fd38ee7fb01","ios":"levelo://app?vid=a83e27c3-038a-4300-a4e1-1fd38ee7fb01"},"vehicle_type_id":"4","last_reported":1727979102,"current_range_meters":32400,"station_id":"ce4bh112rcd13ifvqda0","pricing_plan_id":"cebpf4jnsgd1na2vs0mg"},{"bike_id":"85a60867-0292-479f-99a9-23810b153b98","system_id":"levelo_inurba_marseille","lat":43.2707,"lon":5.42282,"is_reserved":false,"is_disabled":false,"rental_uris":{"android":"levelo://app?vid=85a60867-0292-479f-99a9-23810b153b98","ios":"levelo://app?vid=85a60867-0292-479f-99a9-23810b153b98"},"vehicle_type_id":"4","last_reported":1727979102,"current_range_meters":12800,"station_id":"ce4bhk92rcd13ifvqgb0","pricing_plan_id":"cebpf4jnsgd1na2vs0mg"},{"bike_id":"4d7b92bd-fb4a-4851-9d74-ec38fbbbdb1b","system_id":"levelo_inurba_marseille","lat":43.337444,"lon":5.374475,"is_reserved":false,"is_disabled":false,"rental_uris":{"android":"levelo://app?vid=4d7b92bd-fb4a-4851-9d74-ec38fbbbdb1b","ios":"levelo://app?vid=4d7b92bd-fb4a-4851-9d74-ec38fbbbdb1b"},"vehicle_type_id":"4","last_reported":1727979102,"current_range_meters":35200,"station_id":"","pricing_plan_id":"cebpf4jnsgd1na2vs0mg"},{"bike_id":"f7100d46-ed66-4d49-89d4-c7c8bd53ea1f","system_id":"levelo_inurba_marseille","lat":43.293,"lon":5.37185,"is_reserved":false,"is_disabled":false,"rental_uris":{"android":"levelo://app?vid=f7100d46-ed66-4d49-89d4-c7c8bd53ea1f","ios":"levelo://app?vid=f7100d46-ed66-4d49-89d4-c7c8bd53ea1f"},"vehicle_type_id":"4","last_reported":1727979102,"current_range_meters":20800,"station_id":"ce4bgh92rcd13ifvqb40","pricing_plan_id":"cebpf4jnsgd1na2vs0mg"},{"bike_id":"73a8aa32-122e-42e5-a71f-815d06db8ffe","system_id":"levelo_inurba_marseille","lat":43.28098,"lon":5.37847,"is_reserved":false,"is_disabled":false,"rental_uris":{"android":"levelo://app?vid=73a8aa32-122e-42e5-a71f-815d06db8ffe","ios":"levelo://app?vid=73a8aa32-122e-42e5-a71f-815d06db8ffe"},"vehicle_type_id":"4","last_reported":1727979102,"current_range_meters":17600,"station_id":"ce4bha12rcd13ifvqee0","pricing_plan_id":"cebpf4jnsgd1na2vs0mg"},{"bike_id":"1ba08c11-deb8-4d7c-9bc7-f524e07ac816","system_id":"levelo_inurba_marseille","lat":43.29258,"lon":5.38447,"is_reserved":false,"is_disabled":false,"rental_uris":{"android":"levelo://app?vid=1ba08c11-deb8-4d7c-9bc7-f524e07ac816","ios":"levelo://app?vid=1ba08c11-deb8-4d7c-9bc7-f524e07ac816"},"vehicle_type_id":"4","last_reported":1727979102,"current_range_meters":26800,"station_id":"ce4bh692rcd13ifvqea0","pricing_plan_id":"cebpf4jnsgd1na2vs0mg"},{"bike_id":"6cc05df2-9f1a-4a6a-bf3f-7287b3f43093","system_id":"levelo_inurba_marseille","lat":43.28615,"lon":5.35101,"is_reserved":false,"is_disabled":false,"rental_uris":{"android":"levelo://app?vid=6cc05df2-9f1a-4a6a-bf3f-7287b3f43093","ios":"levelo://app?vid=6cc05df2-9f1a-4a6a-bf3f-7287b3f43093"},"vehicle_type_id":"4","last_reported":1727979102,"current_range_meters":3600,"station_id":"ce4bhch2rcd13ifvqeug","pricing_plan_id":"cebpf4jnsgd1na2vs0mg"},{"bike_id":"ab00cc90-066b-4895-ba0b-ee22d7109a68","system_id":"levelo_inurba_marseille","lat":43.30908,"lon":5.36842,"is_reserved":false,"is_disabled":false,"rental_uris":{"android":"levelo://app?vid=ab00cc90-066b-4895-ba0b-ee22d7109a68","ios":"levelo://app?vid=ab00cc90-066b-4895-ba0b-ee22d7109a68"},"vehicle_type_id":"4","last_reported":1727979102,"current_range_meters":3600,"station_id":"ce4bgn92rcd13ifvqbvg","pricing_plan_id":"cebpf4jnsgd1na2vs0mg"},{"bike_id":"73a079cd-9db3-40f3-afc3-7bfcd5e7741a","system_id":"levelo_inurba_marseille","lat":43.28153,"lon":5.42645,"is_reserved":false,"is_disabled":false,"rental_uris":{"android":"levelo://app?vid=73a079cd-9db3-40f3-afc3-7bfcd5e7741a","ios":"levelo://app?vid=73a079cd-9db3-40f3-afc3-7bfcd5e7741a"},"vehicle_type_id":"4","last_reported":1727979102,"current_range_meters":4400,"station_id":"ce4bhnh2rcd13ifvqgug","pricing_plan_id":"cebpf4jnsgd1na2vs0mg"},{"bike_id":"fa860266-338a-4d58-9039-ab1cd4d77bab","system_id":"levelo_inurba_marseille","lat":43.29888,"lon":5.38144,"is_reserved":false,"is_disabled":false,"rental_uris":{"android":"levelo://app?vid=fa860266-338a-4d58-9039-ab1cd4d77bab","ios":"levelo://app?vid=fa860266-338a-4d58-9039-ab1cd4d77bab"},"vehicle_type_id":"4","last_reported":1727979102,"current_range_meters":38800,"station_id":"ce4bgj12rcd13ifvqbc0","pricing_plan_id":"cebpf4jnsgd1na2vs0mg"},{"bike_id":"4c22ae32-688c-4bfe-98b9-8a40c7ed7e15","system_id":"levelo_inurba_marseille","lat":43.28851,"lon":5.35856,"is_reserved":false,"is_disabled":false,"rental_uris":{"android":"levelo://app?vid=4c22ae32-688c-4bfe-98b9-8a40c7ed7e15","ios":"levelo://app?vid=4c22ae32-688c-4bfe-98b9-8a40c7ed7e15"},"vehicle_type_id":"4","last_reported":1727979102,"current_range_meters":3600,"station_id":"ce4bhb12rcd13ifvqem0","pricing_plan_id":"cebpf4jnsgd1na2vs0mg"},{"bike_id":"fd872ba7-9877-4e67-9269-d8995abba644","system_id":"levelo_inurba_marseille","lat":43.22933,"lon":5.35378,"is_reserved":false,"is_disabled":false,"rental_uris":{"android":"levelo://app?vid=fd872ba7-9877-4e67-9269-d8995abba644","ios":"levelo://app?vid=fd872ba7-9877-4e67-9269-d8995abba644"},"vehicle_type_id":"4","last_reported":1727979102,"current_range_meters":24800,"station_id":"cpo3532slgdg3j2ikp40","pricing_plan_id":"cebpf4jnsgd1na2vs0mg"},{"bike_id":"4ce22d40-fb86-4b4e-b321-3e4fe9937193","system_id":"levelo_inurba_marseille","lat":43.32335,"lon":5.40612,"is_reserved":false,"is_disabled":false,"rental_uris":{"android":"levelo://app?vid=4ce22d40-fb86-4b4e-b321-3e4fe9937193","ios":"levelo://app?vid=4ce22d40-fb86-4b4e-b321-3e4fe9937193"},"vehicle_type_id":"4","last_reported":1727979102,"current_range_meters":3200,"station_id":"ce4bhq92rcd13ifvqhjg","pricing_plan_id":"cebpf4jnsgd1na2vs0mg"},{"bike_id":"1dff6269-77de-4259-8d5b-2ea73afb5126","system_id":"levelo_inurba_marseille","lat":43.24666,"lon":5.38163,"is_reserved":false,"is_disabled":false,"rental_uris":{"android":"levelo://app?vid=1dff6269-77de-4259-8d5b-2ea73afb5126","ios":"levelo://app?vid=1dff6269-77de-4259-8d5b-2ea73afb5126"},"vehicle_type_id":"4","last_reported":1727979102,"current_range_meters":33200,"station_id":"ce4bhih2rcd13ifvqfr0","pricing_plan_id":"cebpf4jnsgd1na2vs0mg"},{"bike_id":"08f8d884-ea33-4876-95c5-27ca37eb95d1","system_id":"levelo_inurba_marseille","lat":43.29787,"lon":5.39353,"is_reserved":false,"is_disabled":false,"rental_uris":{"android":"levelo://app?vid=08f8d884-ea33-4876-95c5-27ca37eb95d1","ios":"levelo://app?vid=08f8d884-ea33-4876-95c5-27ca37eb95d1"},"vehicle_type_id":"4","last_reported":1727979102,"current_range_meters":39200,"station_id":"chh1huq6cuj3fo74tm60","pricing_plan_id":"cebpf4jnsgd1na2vs0mg"},{"bike_id":"9c245083-b5d5-467e-999e-3b86c3163f23","system_id":"levelo_inurba_marseille","lat":43.28461,"lon":5.35887,"is_reserved":false,"is_disabled":false,"rental_uris":{"android":"levelo://app?vid=9c245083-b5d5-467e-999e-3b86c3163f23","ios":"levelo://app?vid=9c245083-b5d5-467e-999e-3b86c3163f23"},"vehicle_type_id":"4","last_reported":1727979102,"current_range_meters":27600,"station_id":"ce4bhah2rcd13ifvqei0","pricing_plan_id":"cebpf4jnsgd1na2vs0mg"},{"bike_id":"a7476dc9-8465-4303-a373-c08479797e0b","system_id":"levelo_inurba_marseille","lat":43.29414,"lon":5.38637,"is_reserved":false,"is_disabled":false,"rental_uris":{"android":"levelo://app?vid=a7476dc9-8465-4303-a373-c08479797e0b","ios":"levelo://app?vid=a7476dc9-8465-4303-a373-c08479797e0b"},"vehicle_type_id":"4","last_reported":1727979102,"current_range_meters":38800,"station_id":"ce4bh2h2rcd13ifvqdh0","pricing_plan_id":"cebpf4jnsgd1na2vs0mg"},{"bike_id":"0f53c290-ccde-436e-93da-5e6799c490b6","system_id":"levelo_inurba_marseille","lat":43.31755,"lon":5.39032,"is_reserved":false,"is_disabled":false,"rental_uris":{"android":"levelo://app?vid=0f53c290-ccde-436e-93da-5e6799c490b6","ios":"levelo://app?vid=0f53c290-ccde-436e-93da-5e6799c490b6"},"vehicle_type_id":"4","last_reported":1727979102,"current_range_meters":16000,"station_id":"ce4bhqp2rcd13ifvqhng","pricing_plan_id":"cebpf4jnsgd1na2vs0mg"},{"bike_id":"b8248326-5d04-423d-9724-3a953d4e8c2c","system_id":"levelo_inurba_marseille","lat":43.28467,"lon":5.35896,"is_reserved":false,"is_disabled":false,"rental_uris":{"android":"levelo://app?vid=b8248326-5d04-423d-9724-3a953d4e8c2c","ios":"levelo://app?vid=b8248326-5d04-423d-9724-3a953d4e8c2c"},"vehicle_type_id":"4","last_reported":1727979102,"current_range_meters":14800,"station_id":"ce4bhah2rcd13ifvqei0","pricing_plan_id":"cebpf4jnsgd1na2vs0mg"},{"bike_id":"11659f11-d054-48f9-b5ea-af3466216c8a","system_id":"levelo_inurba_marseille","lat":43.25861,"lon":5.39913,"is_reserved":false,"is_disabled":false,"rental_uris":{"android":"levelo://app?vid=11659f11-d054-48f9-b5ea-af3466216c8a","ios":"levelo://app?vid=11659f11-d054-48f9-b5ea-af3466216c8a"},"vehicle_type_id":"4","last_reported":1727979102,"current_range_meters":13600,"station_id":"ce4bhl92rcd13ifvqghg","pricing_plan_id":"cebpf4jnsgd1na2vs0mg"},{"bike_id":"7b9fdcc5-82cc-4795-8ec9-e827c0c9c8f3","system_id":"levelo_inurba_marseille","lat":43.31224,"lon":5.3686,"is_reserved":false,"is_disabled":false,"rental_uris":{"android":"levelo://app?vid=7b9fdcc5-82cc-4795-8ec9-e827c0c9c8f3","ios":"levelo://app?vid=7b9fdcc5-82cc-4795-8ec9-e827c0c9c8f3"},"vehicle_type_id":"4","last_reported":1727979102,"current_range_meters":38400,"station_id":"ce4bgl92rcd13ifvqbq0","pricing_plan_id":"cebpf4jnsgd1na2vs0mg"},{"bike_id":"d30beee0-c9ba-4c3b-afe8-5f74bf1011fd","system_id":"levelo_inurba_marseille","lat":43.323364,"lon":5.406179,"is_reserved":false,"is_disabled":false,"rental_uris":{"android":"levelo://app?vid=d30beee0-c9ba-4c3b-afe8-5f74bf1011fd","ios":"levelo://app?vid=d30beee0-c9ba-4c3b-afe8-5f74bf1011fd"},"vehicle_type_id":"4","last_reported":1727979102,"current_range_meters":20800,"station_id":"ce4bhq92rcd13ifvqhjg","pricing_plan_id":"cebpf4jnsgd1na2vs0mg"},{"bike_id":"92b5c022-a316-4370-85f1-cd9056a17cee","system_id":"levelo_inurba_marseille","lat":43.29882,"lon":5.39764,"is_reserved":false,"is_disabled":false,"rental_uris":{"android":"levelo://app?vid=92b5c022-a316-4370-85f1-cd9056a17cee","ios":"levelo://app?vid=92b5c022-a316-4370-85f1-cd9056a17cee"},"vehicle_type_id":"4","last_reported":1727979102,"current_range_meters":14800,"station_id":"ce4bh0h2rcd13ifvqd50","pricing_plan_id":"cebpf4jnsgd1na2vs0mg"},{"bike_id":"aeb9180a-b99f-4983-a5bc-d4efde28f7e4","system_id":"levelo_inurba_marseille","lat":43.26672,"lon":5.38282,"is_reserved":false,"is_disabled":false,"rental_uris":{"android":"levelo://app?vid=aeb9180a-b99f-4983-a5bc-d4efde28f7e4","ios":"levelo://app?vid=aeb9180a-b99f-4983-a5bc-d4efde28f7e4"},"vehicle_type_id":"4","last_reported":1727979102,"current_range_meters":22800,"station_id":"ce4bhg92rcd13ifvqf90","pricing_plan_id":"cebpf4jnsgd1na2vs0mg"},{"bike_id":"4c0ea4b3-fba7-4375-92a5-7125cdbc14bc","system_id":"levelo_inurba_marseille","lat":43.29031,"lon":5.37566,"is_reserved":false,"is_disabled":false,"rental_uris":{"android":"levelo://app?vid=4c0ea4b3-fba7-4375-92a5-7125cdbc14bc","ios":"levelo://app?vid=4c0ea4b3-fba7-4375-92a5-7125cdbc14bc"},"vehicle_type_id":"4","last_reported":1727979102,"current_range_meters":23200,"station_id":"ce4bh692rcd13ifvqe90","pricing_plan_id":"cebpf4jnsgd1na2vs0mg"},{"bike_id":"5a02f645-9cc6-4f35-9970-15f726b82b63","system_id":"levelo_inurba_marseille","lat":43.25084,"lon":5.39516,"is_reserved":false,"is_disabled":false,"rental_uris":{"android":"levelo://app?vid=5a02f645-9cc6-4f35-9970-15f726b82b63","ios":"levelo://app?vid=5a02f645-9cc6-4f35-9970-15f726b82b63"},"vehicle_type_id":"4","last_reported":1727979102,"current_range_meters":14000,"station_id":"ce4bhm12rcd13ifvqgkg","pricing_plan_id":"cebpf4jnsgd1na2vs0mg"},{"bike_id":"525e851f-b6fd-4226-b024-d76bd655edd1","system_id":"levelo_inurba_marseille","lat":43.290044,"lon":5.356094,"is_reserved":false,"is_disabled":false,"rental_uris":{"android":"levelo://app?vid=525e851f-b6fd-4226-b024-d76bd655edd1","ios":"levelo://app?vid=525e851f-b6fd-4226-b024-d76bd655edd1"},"vehicle_type_id":"4","last_reported":1727979102,"current_range_meters":30800,"station_id":"ce4bhb92rcd13ifvqen0","pricing_plan_id":"cebpf4jnsgd1na2vs0mg"},{"bike_id":"59a85837-ff1a-4088-babf-ee0c0517e8af","system_id":"levelo_inurba_marseille","lat":43.29192,"lon":5.35815,"is_reserved":false,"is_disabled":false,"rental_uris":{"android":"levelo://app?vid=59a85837-ff1a-4088-babf-ee0c0517e8af","ios":"levelo://app?vid=59a85837-ff1a-4088-babf-ee0c0517e8af"},"vehicle_type_id":"4","last_reported":1727979102,"current_range_meters":4000,"station_id":"ce4bhb12rcd13ifvqel0","pricing_plan_id":"cebpf4jnsgd1na2vs0mg"},{"bike_id":"b2a0df27-c7cc-4bb4-b72d-33bb5cb295b4","system_id":"levelo_inurba_marseille","lat":43.28413,"lon":5.34981,"is_reserved":false,"is_disabled":false,"rental_uris":{"android":"levelo://app?vid=b2a0df27-c7cc-4bb4-b72d-33bb5cb295b4","ios":"levelo://app?vid=b2a0df27-c7cc-4bb4-b72d-33bb5cb295b4"},"vehicle_type_id":"4","last_reported":1727979102,"current_range_meters":1200,"station_id":"ce4bhbh2rcd13ifvqepg","pricing_plan_id":"cebpf4jnsgd1na2vs0mg"},{"bike_id":"d59a88a4-3ace-42ca-b61d-cc67ac18644a","system_id":"levelo_inurba_marseille","lat":43.28995,"lon":5.38585,"is_reserved":false,"is_disabled":false,"rental_uris":{"android":"levelo://app?vid=d59a88a4-3ace-42ca-b61d-cc67ac18644a","ios":"levelo://app?vid=d59a88a4-3ace-42ca-b61d-cc67ac18644a"},"vehicle_type_id":"4","last_reported":1727979102,"current_range_meters":30800,"station_id":"ce4bh4p2rcd13ifvqe0g","pricing_plan_id":"cebpf4jnsgd1na2vs0mg"},{"bike_id":"53c6fe7a-c5f0-4c29-bdb6-08c6c7db5c71","system_id":"levelo_inurba_marseille","lat":43.32113,"lon":5.36781,"is_reserved":false,"is_disabled":false,"rental_uris":{"android":"levelo://app?vid=53c6fe7a-c5f0-4c29-bdb6-08c6c7db5c71","ios":"levelo://app?vid=53c6fe7a-c5f0-4c29-bdb6-08c6c7db5c71"},"vehicle_type_id":"4","last_reported":1727979102,"current_range_meters":8800,"station_id":"ce4bhrh2rcd13ifvqhug","pricing_plan_id":"cebpf4jnsgd1na2vs0mg"},{"bike_id":"24c92261-f315-41a3-b70d-68638366d669","system_id":"levelo_inurba_marseille","lat":43.28133,"lon":5.37824,"is_reserved":false,"is_disabled":false,"rental_uris":{"android":"levelo://app?vid=24c92261-f315-41a3-b70d-68638366d669","ios":"levelo://app?vid=24c92261-f315-41a3-b70d-68638366d669"},"vehicle_type_id":"4","last_reported":1727979102,"current_range_meters":29600,"station_id":"ce4bha12rcd13ifvqee0","pricing_plan_id":"cebpf4jnsgd1na2vs0mg"},{"bike_id":"6ce60676-3f86-4aaa-a5df-572436c32ad4","system_id":"levelo_inurba_marseille","lat":43.23191,"lon":5.35558,"is_reserved":false,"is_disabled":false,"rental_uris":{"android":"levelo://app?vid=6ce60676-3f86-4aaa-a5df-572436c32ad4","ios":"levelo://app?vid=6ce60676-3f86-4aaa-a5df-572436c32ad4"},"vehicle_type_id":"4","last_reported":1727979102,"current_range_meters":18800,"station_id":"ce4bhu92rcd13ifvqi70","pricing_plan_id":"cebpf4jnsgd1na2vs0mg"},{"bike_id":"ef5c632f-2b59-4b63-8995-bedb1fc7d5cb","system_id":"levelo_inurba_marseille","lat":43.25491,"lon":5.37653,"is_reserved":false,"is_disabled":false,"rental_uris":{"android":"levelo://app?vid=ef5c632f-2b59-4b63-8995-bedb1fc7d5cb","ios":"levelo://app?vid=ef5c632f-2b59-4b63-8995-bedb1fc7d5cb"},"vehicle_type_id":"4","last_reported":1727979102,"current_range_meters":38000,"station_id":"ce4bhh12rcd13ifvqff0","pricing_plan_id":"cebpf4jnsgd1na2vs0mg"},{"bike_id":"e88f7fb6-a02f-4433-9e60-f023fc613e69","system_id":"levelo_inurba_marseille","lat":43.26498,"lon":5.39556,"is_reserved":false,"is_disabled":false,"rental_uris":{"android":"levelo://app?vid=e88f7fb6-a02f-4433-9e60-f023fc613e69","ios":"levelo://app?vid=e88f7fb6-a02f-4433-9e60-f023fc613e69"},"vehicle_type_id":"4","last_reported":1727979102,"current_range_meters":33600,"station_id":"ce4bhi12rcd13ifvqfq0","pricing_plan_id":"cebpf4jnsgd1na2vs0mg"},{"bike_id":"978ca441-deb6-4091-831a-b332eac50fdc","system_id":"levelo_inurba_marseille","lat":43.2926,"lon":5.3847,"is_reserved":false,"is_disabled":false,"rental_uris":{"android":"levelo://app?vid=978ca441-deb6-4091-831a-b332eac50fdc","ios":"levelo://app?vid=978ca441-deb6-4091-831a-b332eac50fdc"},"vehicle_type_id":"4","last_reported":1727979102,"current_range_meters":26800,"station_id":"ce4bh692rcd13ifvqea0","pricing_plan_id":"cebpf4jnsgd1na2vs0mg"},{"bike_id":"14457725-1dad-4705-8dc9-35dee84023ac","system_id":"levelo_inurba_marseille","lat":43.31719,"lon":5.42398,"is_reserved":false,"is_disabled":false,"rental_uris":{"android":"levelo://app?vid=14457725-1dad-4705-8dc9-35dee84023ac","ios":"levelo://app?vid=14457725-1dad-4705-8dc9-35dee84023ac"},"vehicle_type_id":"4","last_reported":1727979102,"current_range_meters":31200,"station_id":"ce4bhp92rcd13ifvqhbg","pricing_plan_id":"cebpf4jnsgd1na2vs0mg"},{"bike_id":"ac491eed-1fef-4832-b4ca-d42b5b54f337","system_id":"levelo_inurba_marseille","lat":43.28404,"lon":5.34996,"is_reserved":false,"is_disabled":false,"rental_uris":{"android":"levelo://app?vid=ac491eed-1fef-4832-b4ca-d42b5b54f337","ios":"levelo://app?vid=ac491eed-1fef-4832-b4ca-d42b5b54f337"},"vehicle_type_id":"4","last_reported":1727979102,"current_range_meters":38800,"station_id":"ce4bhbh2rcd13ifvqepg","pricing_plan_id":"cebpf4jnsgd1na2vs0mg"},{"bike_id":"79fa6a74-ed6f-4d33-875f-16223d29fa19","system_id":"levelo_inurba_marseille","lat":43.27992,"lon":5.4001,"is_reserved":false,"is_disabled":false,"rental_uris":{"android":"levelo://app?vid=79fa6a74-ed6f-4d33-875f-16223d29fa19","ios":"levelo://app?vid=79fa6a74-ed6f-4d33-875f-16223d29fa19"},"vehicle_type_id":"4","last_reported":1727979102,"current_range_meters":36400,"station_id":"ce4bho92rcd13ifvqh4g","pricing_plan_id":"cebpf4jnsgd1na2vs0mg"},{"bike_id":"7fed4edd-fced-4cac-8f5a-8f088e4cd963","system_id":"levelo_inurba_marseille","lat":43.26553,"lon":5.373,"is_reserved":false,"is_disabled":false,"rental_uris":{"android":"levelo://app?vid=7fed4edd-fced-4cac-8f5a-8f088e4cd963","ios":"levelo://app?vid=7fed4edd-fced-4cac-8f5a-8f088e4cd963"},"vehicle_type_id":"4","last_reported":1727979102,"current_range_meters":6800,"station_id":"ce4bhg12rcd13ifvqf70","pricing_plan_id":"cebpf4jnsgd1na2vs0mg"},{"bike_id":"a6692f1f-5525-4523-bd49-a7c219bc26c1","system_id":"levelo_inurba_marseille","lat":43.26561,"lon":5.37288,"is_reserved":false,"is_disabled":false,"rental_uris":{"android":"levelo://app?vid=a6692f1f-5525-4523-bd49-a7c219bc26c1","ios":"levelo://app?vid=a6692f1f-5525-4523-bd49-a7c219bc26c1"},"vehicle_type_id":"4","last_reported":1727979102,"current_range_meters":36800,"station_id":"ce4bhg12rcd13ifvqf70","pricing_plan_id":"cebpf4jnsgd1na2vs0mg"},{"bike_id":"4afef9be-c8ed-4f62-ac3a-96d5bcb6d341","system_id":"levelo_inurba_marseille","lat":43.28508,"lon":5.36018,"is_reserved":false,"is_disabled":false,"rental_uris":{"android":"levelo://app?vid=4afef9be-c8ed-4f62-ac3a-96d5bcb6d341","ios":"levelo://app?vid=4afef9be-c8ed-4f62-ac3a-96d5bcb6d341"},"vehicle_type_id":"4","last_reported":1727979102,"current_range_meters":13600,"station_id":"ce4bhap2rcd13ifvqek0","pricing_plan_id":"cebpf4jnsgd1na2vs0mg"},{"bike_id":"ddf75281-988c-4c19-880b-719d01004a8f","system_id":"levelo_inurba_marseille","lat":43.30802,"lon":5.4352,"is_reserved":false,"is_disabled":false,"rental_uris":{"android":"levelo://app?vid=ddf75281-988c-4c19-880b-719d01004a8f","ios":"levelo://app?vid=ddf75281-988c-4c19-880b-719d01004a8f"},"vehicle_type_id":"4","last_reported":1727979102,"current_range_meters":8400,"station_id":"ce4bhph2rcd13ifvqheg","pricing_plan_id":"cebpf4jnsgd1na2vs0mg"},{"bike_id":"a0d8da91-e5bc-492a-bac4-61d849a36ef9","system_id":"levelo_inurba_marseille","lat":43.30801,"lon":5.43531,"is_reserved":false,"is_disabled":false,"rental_uris":{"android":"levelo://app?vid=a0d8da91-e5bc-492a-bac4-61d849a36ef9","ios":"levelo://app?vid=a0d8da91-e5bc-492a-bac4-61d849a36ef9"},"vehicle_type_id":"4","last_reported":1727979102,"current_range_meters":12000,"station_id":"ce4bhph2rcd13ifvqheg","pricing_plan_id":"cebpf4jnsgd1na2vs0mg"},{"bike_id":"441e3240-5b0d-46c6-a9e6-aa3ee1e3d7cf","system_id":"levelo_inurba_marseille","lat":43.29897,"lon":5.38148,"is_reserved":false,"is_disabled":false,"rental_uris":{"android":"levelo://app?vid=441e3240-5b0d-46c6-a9e6-aa3ee1e3d7cf","ios":"levelo://app?vid=441e3240-5b0d-46c6-a9e6-aa3ee1e3d7cf"},"vehicle_type_id":"4","last_reported":1727979102,"current_range_meters":21600,"station_id":"ce4bgj12rcd13ifvqbc0","pricing_plan_id":"cebpf4jnsgd1na2vs0mg"},{"bike_id":"70a6e5d9-f7dc-45fe-93de-dcba5cdbc45d","system_id":"levelo_inurba_marseille","lat":43.28613,"lon":5.35108,"is_reserved":false,"is_disabled":false,"rental_uris":{"android":"levelo://app?vid=70a6e5d9-f7dc-45fe-93de-dcba5cdbc45d","ios":"levelo://app?vid=70a6e5d9-f7dc-45fe-93de-dcba5cdbc45d"},"vehicle_type_id":"4","last_reported":1727979102,"current_range_meters":4800,"station_id":"ce4bhch2rcd13ifvqeug","pricing_plan_id":"cebpf4jnsgd1na2vs0mg"},{"bike_id":"bdd607e9-859d-402e-8914-3a4c42675274","system_id":"levelo_inurba_marseille","lat":43.25488,"lon":5.37647,"is_reserved":false,"is_disabled":false,"rental_uris":{"android":"levelo://app?vid=bdd607e9-859d-402e-8914-3a4c42675274","ios":"levelo://app?vid=bdd607e9-859d-402e-8914-3a4c42675274"},"vehicle_type_id":"4","last_reported":1727979102,"current_range_meters":25200,"station_id":"ce4bhh12rcd13ifvqff0","pricing_plan_id":"cebpf4jnsgd1na2vs0mg"},{"bike_id":"d77b2c63-49e9-4183-9c3a-3a11e874fec4","system_id":"levelo_inurba_marseille","lat":43.28922,"lon":5.38398,"is_reserved":false,"is_disabled":false,"rental_uris":{"android":"levelo://app?vid=d77b2c63-49e9-4183-9c3a-3a11e874fec4","ios":"levelo://app?vid=d77b2c63-49e9-4183-9c3a-3a11e874fec4"},"vehicle_type_id":"4","last_reported":1727979102,"current_range_meters":10800,"station_id":"ce4bh612rcd13ifvqe6g","pricing_plan_id":"cebpf4jnsgd1na2vs0mg"},{"bike_id":"dbf4aadd-78b0-48d7-84dd-1a7fec82af07","system_id":"levelo_inurba_marseille","lat":43.24659,"lon":5.38165,"is_reserved":false,"is_disabled":false,"rental_uris":{"android":"levelo://app?vid=dbf4aadd-78b0-48d7-84dd-1a7fec82af07","ios":"levelo://app?vid=dbf4aadd-78b0-48d7-84dd-1a7fec82af07"},"vehicle_type_id":"4","last_reported":1727979102,"current_range_meters":38000,"station_id":"ce4bhih2rcd13ifvqfr0","pricing_plan_id":"cebpf4jnsgd1na2vs0mg"},{"bike_id":"47911c3a-70d6-4541-ae40-328b24ae278f","system_id":"levelo_inurba_marseille","lat":43.28074,"lon":5.39661,"is_reserved":false,"is_disabled":false,"rental_uris":{"android":"levelo://app?vid=47911c3a-70d6-4541-ae40-328b24ae278f","ios":"levelo://app?vid=47911c3a-70d6-4541-ae40-328b24ae278f"},"vehicle_type_id":"4","last_reported":1727979102,"current_range_meters":6800,"station_id":"ce4bho12rcd13ifvqh2g","pricing_plan_id":"cebpf4jnsgd1na2vs0mg"},{"bike_id":"c8e4ff73-620c-4248-92f7-758d5098242c","system_id":"levelo_inurba_marseille","lat":43.22928,"lon":5.35376,"is_reserved":false,"is_disabled":false,"rental_uris":{"android":"levelo://app?vid=c8e4ff73-620c-4248-92f7-758d5098242c","ios":"levelo://app?vid=c8e4ff73-620c-4248-92f7-758d5098242c"},"vehicle_type_id":"4","last_reported":1727979102,"current_range_meters":26000,"station_id":"cpo3532slgdg3j2ikp40","pricing_plan_id":"cebpf4jnsgd1na2vs0mg"},{"bike_id":"3bf045f0-0941-441d-8366-6abd7859d44f","system_id":"levelo_inurba_marseille","lat":43.26213,"lon":5.37445,"is_reserved":false,"is_disabled":false,"rental_uris":{"android":"levelo://app?vid=3bf045f0-0941-441d-8366-6abd7859d44f","ios":"levelo://app?vid=3bf045f0-0941-441d-8366-6abd7859d44f"},"vehicle_type_id":"4","last_reported":1727979102,"current_range_meters":36400,"station_id":"ce4bhgp2rcd13ifvqfc0","pricing_plan_id":"cebpf4jnsgd1na2vs0mg"},{"bike_id":"583eb2a3-c703-4842-8648-2706b2b88008","system_id":"levelo_inurba_marseille","lat":43.28154,"lon":5.4264,"is_reserved":false,"is_disabled":false,"rental_uris":{"android":"levelo://app?vid=583eb2a3-c703-4842-8648-2706b2b88008","ios":"levelo://app?vid=583eb2a3-c703-4842-8648-2706b2b88008"},"vehicle_type_id":"4","last_reported":1727979102,"current_range_meters":9200,"station_id":"ce4bhnh2rcd13ifvqgug","pricing_plan_id":"cebpf4jnsgd1na2vs0mg"},{"bike_id":"c79f1d9a-64ca-4b07-89be-0cf3553548d6","system_id":"levelo_inurba_marseille","lat":43.33022,"lon":5.3904,"is_reserved":false,"is_disabled":false,"rental_uris":{"android":"levelo://app?vid=c79f1d9a-64ca-4b07-89be-0cf3553548d6","ios":"levelo://app?vid=c79f1d9a-64ca-4b07-89be-0cf3553548d6"},"vehicle_type_id":"4","last_reported":1727979102,"current_range_meters":15200,"station_id":"ce4bhr92rcd13ifvqhrg","pricing_plan_id":"cebpf4jnsgd1na2vs0mg"},{"bike_id":"c44b54bf-d0d5-4d76-9313-b0c7dfc83b40","system_id":"levelo_inurba_marseille","lat":43.29538,"lon":5.375021,"is_reserved":false,"is_disabled":false,"rental_uris":{"android":"levelo://app?vid=c44b54bf-d0d5-4d76-9313-b0c7dfc83b40","ios":"levelo://app?vid=c44b54bf-d0d5-4d76-9313-b0c7dfc83b40"},"vehicle_type_id":"4","last_reported":1727979102,"current_range_meters":16400,"station_id":"ce4bgkp2rcd13ifvqbmg","pricing_plan_id":"cebpf4jnsgd1na2vs0mg"},{"bike_id":"df19166c-ecb8-4c24-b5fd-04013749e810","system_id":"levelo_inurba_marseille","lat":43.23959,"lon":5.36639,"is_reserved":false,"is_disabled":false,"rental_uris":{"android":"levelo://app?vid=df19166c-ecb8-4c24-b5fd-04013749e810","ios":"levelo://app?vid=df19166c-ecb8-4c24-b5fd-04013749e810"},"vehicle_type_id":"4","last_reported":1727979102,"current_range_meters":6000,"station_id":"ce4bhi12rcd13ifvqfp0","pricing_plan_id":"cebpf4jnsgd1na2vs0mg"},{"bike_id":"aa6145fa-b931-4c32-a8c7-9ee5fe3c050f","system_id":"levelo_inurba_marseille","lat":43.29515,"lon":5.39045,"is_reserved":false,"is_disabled":false,"rental_uris":{"android":"levelo://app?vid=aa6145fa-b931-4c32-a8c7-9ee5fe3c050f","ios":"levelo://app?vid=aa6145fa-b931-4c32-a8c7-9ee5fe3c050f"},"vehicle_type_id":"4","last_reported":1727979102,"current_range_meters":13600,"station_id":"ce4bh3p2rcd13ifvqdp0","pricing_plan_id":"cebpf4jnsgd1na2vs0mg"},{"bike_id":"9111912f-5f92-4e01-9623-79e0ea71aff6","system_id":"levelo_inurba_marseille","lat":43.32275,"lon":5.38265,"is_reserved":false,"is_disabled":false,"rental_uris":{"android":"levelo://app?vid=9111912f-5f92-4e01-9623-79e0ea71aff6","ios":"levelo://app?vid=9111912f-5f92-4e01-9623-79e0ea71aff6"},"vehicle_type_id":"4","last_reported":1727979102,"current_range_meters":36800,"station_id":"ce4bhr12rcd13ifvqhqg","pricing_plan_id":"cebpf4jnsgd1na2vs0mg"},{"bike_id":"09648bcd-aff3-4e5d-a358-b65c5d88ce54","system_id":"levelo_inurba_marseille","lat":43.24999,"lon":5.38933,"is_reserved":false,"is_disabled":false,"rental_uris":{"android":"levelo://app?vid=09648bcd-aff3-4e5d-a358-b65c5d88ce54","ios":"levelo://app?vid=09648bcd-aff3-4e5d-a358-b65c5d88ce54"},"vehicle_type_id":"4","last_reported":1727979102,"current_range_meters":38000,"station_id":"ce4bhgp2rcd13ifvqfd0","pricing_plan_id":"cebpf4jnsgd1na2vs0mg"},{"bike_id":"279905d2-31cb-4375-9057-1a2156283393","system_id":"levelo_inurba_marseille","lat":43.28401,"lon":5.34998,"is_reserved":false,"is_disabled":false,"rental_uris":{"android":"levelo://app?vid=279905d2-31cb-4375-9057-1a2156283393","ios":"levelo://app?vid=279905d2-31cb-4375-9057-1a2156283393"},"vehicle_type_id":"4","last_reported":1727979102,"current_range_meters":36400,"station_id":"ce4bhbh2rcd13ifvqepg","pricing_plan_id":"cebpf4jnsgd1na2vs0mg"},{"bike_id":"fb8f18af-efae-43b6-b710-db5c80c0a615","system_id":"levelo_inurba_marseille","lat":43.2816,"lon":5.4264,"is_reserved":false,"is_disabled":false,"rental_uris":{"android":"levelo://app?vid=fb8f18af-efae-43b6-b710-db5c80c0a615","ios":"levelo://app?vid=fb8f18af-efae-43b6-b710-db5c80c0a615"},"vehicle_type_id":"4","last_reported":1727979102,"current_range_meters":30400,"station_id":"ce4bhnh2rcd13ifvqgug","pricing_plan_id":"cebpf4jnsgd1na2vs0mg"},{"bike_id":"d05f8c86-092f-4e8d-a8ce-6db74f3e07db","system_id":"levelo_inurba_marseille","lat":43.29221,"lon":5.3606,"is_reserved":false,"is_disabled":false,"rental_uris":{"android":"levelo://app?vid=d05f8c86-092f-4e8d-a8ce-6db74f3e07db","ios":"levelo://app?vid=d05f8c86-092f-4e8d-a8ce-6db74f3e07db"},"vehicle_type_id":"4","last_reported":1727979102,"current_range_meters":2800,"station_id":"ce4bhbh2rcd13ifvqeqg","pricing_plan_id":"cebpf4jnsgd1na2vs0mg"},{"bike_id":"bb1e6ba4-5bce-486b-b925-4678dd92460c","system_id":"levelo_inurba_marseille","lat":43.28459,"lon":5.35893,"is_reserved":false,"is_disabled":false,"rental_uris":{"android":"levelo://app?vid=bb1e6ba4-5bce-486b-b925-4678dd92460c","ios":"levelo://app?vid=bb1e6ba4-5bce-486b-b925-4678dd92460c"},"vehicle_type_id":"4","last_reported":1727979102,"current_range_meters":32800,"station_id":"ce4bhah2rcd13ifvqei0","pricing_plan_id":"cebpf4jnsgd1na2vs0mg"},{"bike_id":"c7c6bf24-105b-4c25-a2c6-fd20e7450844","system_id":"levelo_inurba_marseille","lat":43.30627,"lon":5.40096,"is_reserved":false,"is_disabled":false,"rental_uris":{"android":"levelo://app?vid=c7c6bf24-105b-4c25-a2c6-fd20e7450844","ios":"levelo://app?vid=c7c6bf24-105b-4c25-a2c6-fd20e7450844"},"vehicle_type_id":"4","last_reported":1727979102,"current_range_meters":32400,"station_id":"ce4bh112rcd13ifvqda0","pricing_plan_id":"cebpf4jnsgd1na2vs0mg"},{"bike_id":"d63a186f-2a35-4271-bc0a-3d6eaba84887","system_id":"levelo_inurba_marseille","lat":43.29684,"lon":5.37303,"is_reserved":false,"is_disabled":false,"rental_uris":{"android":"levelo://app?vid=d63a186f-2a35-4271-bc0a-3d6eaba84887","ios":"levelo://app?vid=d63a186f-2a35-4271-bc0a-3d6eaba84887"},"vehicle_type_id":"4","last_reported":1727979102,"current_range_meters":3200,"station_id":"ce4bgk12rcd13ifvqbj0","pricing_plan_id":"cebpf4jnsgd1na2vs0mg"},{"bike_id":"30e2f0ec-0394-406c-8829-fe660566e51a","system_id":"levelo_inurba_marseille","lat":43.27811,"lon":5.40713,"is_reserved":false,"is_disabled":false,"rental_uris":{"android":"levelo://app?vid=30e2f0ec-0394-406c-8829-fe660566e51a","ios":"levelo://app?vid=30e2f0ec-0394-406c-8829-fe660566e51a"},"vehicle_type_id":"4","last_reported":1727979102,"current_range_meters":39200,"station_id":"ce4bhnh2rcd13ifvqgtg","pricing_plan_id":"cebpf4jnsgd1na2vs0mg"},{"bike_id":"d5fad0bc-e86a-4a75-9bb7-e3a73e6416dc","system_id":"levelo_inurba_marseille","lat":43.29422,"lon":5.38629,"is_reserved":false,"is_disabled":false,"rental_uris":{"android":"levelo://app?vid=d5fad0bc-e86a-4a75-9bb7-e3a73e6416dc","ios":"levelo://app?vid=d5fad0bc-e86a-4a75-9bb7-e3a73e6416dc"},"vehicle_type_id":"4","last_reported":1727979102,"current_range_meters":38800,"station_id":"ce4bh2h2rcd13ifvqdh0","pricing_plan_id":"cebpf4jnsgd1na2vs0mg"},{"bike_id":"bd8535c5-ba76-4f16-8ad2-6b9441b72570","system_id":"levelo_inurba_marseille","lat":43.28612,"lon":5.35104,"is_reserved":false,"is_disabled":false,"rental_uris":{"android":"levelo://app?vid=bd8535c5-ba76-4f16-8ad2-6b9441b72570","ios":"levelo://app?vid=bd8535c5-ba76-4f16-8ad2-6b9441b72570"},"vehicle_type_id":"4","last_reported":1727979102,"current_range_meters":38800,"station_id":"ce4bhch2rcd13ifvqeug","pricing_plan_id":"cebpf4jnsgd1na2vs0mg"},{"bike_id":"638ea2d4-cb56-475a-9712-21b4df19cbce","system_id":"levelo_inurba_marseille","lat":43.31754,"lon":5.39021,"is_reserved":false,"is_disabled":false,"rental_uris":{"android":"levelo://app?vid=638ea2d4-cb56-475a-9712-21b4df19cbce","ios":"levelo://app?vid=638ea2d4-cb56-475a-9712-21b4df19cbce"},"vehicle_type_id":"4","last_reported":1727979102,"current_range_meters":32000,"station_id":"ce4bhqp2rcd13ifvqhng","pricing_plan_id":"cebpf4jnsgd1na2vs0mg"},{"bike_id":"f0b899b3-ea09-4c19-ba3f-b6bff2e53be7","system_id":"levelo_inurba_marseille","lat":43.24543,"lon":5.3953,"is_reserved":false,"is_disabled":false,"rental_uris":{"android":"levelo://app?vid=f0b899b3-ea09-4c19-ba3f-b6bff2e53be7","ios":"levelo://app?vid=f0b899b3-ea09-4c19-ba3f-b6bff2e53be7"},"vehicle_type_id":"4","last_reported":1727979102,"current_range_meters":10800,"station_id":"ce4bhlp2rcd13ifvqgjg","pricing_plan_id":"cebpf4jnsgd1na2vs0mg"},{"bike_id":"482bca28-d969-4940-b314-14643959b150","system_id":"levelo_inurba_marseille","lat":43.28371,"lon":5.38628,"is_reserved":false,"is_disabled":false,"rental_uris":{"android":"levelo://app?vid=482bca28-d969-4940-b314-14643959b150","ios":"levelo://app?vid=482bca28-d969-4940-b314-14643959b150"},"vehicle_type_id":"4","last_reported":1727979102,"current_range_meters":14800,"station_id":"ce4bh492rcd13ifvqdvg","pricing_plan_id":"cebpf4jnsgd1na2vs0mg"},{"bike_id":"dc086a08-bc01-4a19-b785-58f21f6829ae","system_id":"levelo_inurba_marseille","lat":43.25498,"lon":5.37653,"is_reserved":false,"is_disabled":false,"rental_uris":{"android":"levelo://app?vid=dc086a08-bc01-4a19-b785-58f21f6829ae","ios":"levelo://app?vid=dc086a08-bc01-4a19-b785-58f21f6829ae"},"vehicle_type_id":"4","last_reported":1727979102,"current_range_meters":10800,"station_id":"ce4bhh12rcd13ifvqff0","pricing_plan_id":"cebpf4jnsgd1na2vs0mg"},{"bike_id":"7211bed2-8514-4169-9df5-9ea6b7b446bf","system_id":"levelo_inurba_marseille","lat":43.28611,"lon":5.35103,"is_reserved":false,"is_disabled":false,"rental_uris":{"android":"levelo://app?vid=7211bed2-8514-4169-9df5-9ea6b7b446bf","ios":"levelo://app?vid=7211bed2-8514-4169-9df5-9ea6b7b446bf"},"vehicle_type_id":"4","last_reported":1727979102,"current_range_meters":12400,"station_id":"ce4bhch2rcd13ifvqeug","pricing_plan_id":"cebpf4jnsgd1na2vs0mg"},{"bike_id":"d14bab6f-8b56-47a3-88ab-790c253f1356","system_id":"levelo_inurba_marseille","lat":43.29537,"lon":5.39028,"is_reserved":false,"is_disabled":false,"rental_uris":{"android":"levelo://app?vid=d14bab6f-8b56-47a3-88ab-790c253f1356","ios":"levelo://app?vid=d14bab6f-8b56-47a3-88ab-790c253f1356"},"vehicle_type_id":"4","last_reported":1727979102,"current_range_meters":10000,"station_id":"ce4bh3p2rcd13ifvqdp0","pricing_plan_id":"cebpf4jnsgd1na2vs0mg"},{"bike_id":"1018345a-6d1b-45b5-b516-2f376dc5a3b4","system_id":"levelo_inurba_marseille","lat":43.27175,"lon":5.41004,"is_reserved":false,"is_disabled":false,"rental_uris":{"android":"levelo://app?vid=1018345a-6d1b-45b5-b516-2f376dc5a3b4","ios":"levelo://app?vid=1018345a-6d1b-45b5-b516-2f376dc5a3b4"},"vehicle_type_id":"4","last_reported":1727979102,"current_range_meters":6000,"station_id":"ce4bhl12rcd13ifvqgf0","pricing_plan_id":"cebpf4jnsgd1na2vs0mg"},{"bike_id":"2bf644af-c7aa-4fff-8576-d223083d7f55","system_id":"levelo_inurba_marseille","lat":43.28698,"lon":5.37388,"is_reserved":false,"is_disabled":false,"rental_uris":{"android":"levelo://app?vid=2bf644af-c7aa-4fff-8576-d223083d7f55","ios":"levelo://app?vid=2bf644af-c7aa-4fff-8576-d223083d7f55"},"vehicle_type_id":"4","last_reported":1727979102,"current_range_meters":8000,"station_id":"ce4bh3p2rcd13ifvqdq0","pricing_plan_id":"cebpf4jnsgd1na2vs0mg"},{"bike_id":"0061e3db-03f2-4a82-b432-31ce7f2d084d","system_id":"levelo_inurba_marseille","lat":43.27181,"lon":5.41003,"is_reserved":false,"is_disabled":false,"rental_uris":{"android":"levelo://app?vid=0061e3db-03f2-4a82-b432-31ce7f2d084d","ios":"levelo://app?vid=0061e3db-03f2-4a82-b432-31ce7f2d084d"},"vehicle_type_id":"4","last_reported":1727979102,"current_range_meters":36800,"station_id":"ce4bhl12rcd13ifvqgf0","pricing_plan_id":"cebpf4jnsgd1na2vs0mg"},{"bike_id":"3a87011e-6ec3-4d54-9ee3-5d300fe0b571","system_id":"levelo_inurba_marseille","lat":43.298767,"lon":5.389149,"is_reserved":false,"is_disabled":false,"rental_uris":{"android":"levelo://app?vid=3a87011e-6ec3-4d54-9ee3-5d300fe0b571","ios":"levelo://app?vid=3a87011e-6ec3-4d54-9ee3-5d300fe0b571"},"vehicle_type_id":"4","last_reported":1727979102,"current_range_meters":28000,"station_id":"ce4bh3h2rcd13ifvqdo0","pricing_plan_id":"cebpf4jnsgd1na2vs0mg"},{"bike_id":"b1de2d2c-06c8-4cd3-a9c2-6a5c17f5b3bb","system_id":"levelo_inurba_marseille","lat":43.3234,"lon":5.38485,"is_reserved":false,"is_disabled":false,"rental_uris":{"android":"levelo://app?vid=b1de2d2c-06c8-4cd3-a9c2-6a5c17f5b3bb","ios":"levelo://app?vid=b1de2d2c-06c8-4cd3-a9c2-6a5c17f5b3bb"},"vehicle_type_id":"4","last_reported":1727979102,"current_range_meters":14000,"station_id":"","pricing_plan_id":"cebpf4jnsgd1na2vs0mg"},{"bike_id":"db32e16b-47d6-490e-8168-654a5eebd6ce","system_id":"levelo_inurba_marseille","lat":43.22933,"lon":5.35378,"is_reserved":false,"is_disabled":false,"rental_uris":{"android":"levelo://app?vid=db32e16b-47d6-490e-8168-654a5eebd6ce","ios":"levelo://app?vid=db32e16b-47d6-490e-8168-654a5eebd6ce"},"vehicle_type_id":"4","last_reported":1727979102,"current_range_meters":38800,"station_id":"cpo3532slgdg3j2ikp40","pricing_plan_id":"cebpf4jnsgd1na2vs0mg"},{"bike_id":"3abd7063-56b4-4bd1-abe8-e097f110e528","system_id":"levelo_inurba_marseille","lat":43.25725,"lon":5.411113,"is_reserved":false,"is_disabled":false,"rental_uris":{"android":"levelo://app?vid=3abd7063-56b4-4bd1-abe8-e097f110e528","ios":"levelo://app?vid=3abd7063-56b4-4bd1-abe8-e097f110e528"},"vehicle_type_id":"4","last_reported":1727979102,"current_range_meters":20400,"station_id":"ce4bhkp2rcd13ifvqgd0","pricing_plan_id":"cebpf4jnsgd1na2vs0mg"},{"bike_id":"ba268cfb-32df-4ac2-8d53-f107185f5557","system_id":"levelo_inurba_marseille","lat":43.27607,"lon":5.3612,"is_reserved":false,"is_disabled":false,"rental_uris":{"android":"levelo://app?vid=ba268cfb-32df-4ac2-8d53-f107185f5557","ios":"levelo://app?vid=ba268cfb-32df-4ac2-8d53-f107185f5557"},"vehicle_type_id":"4","last_reported":1727979102,"current_range_meters":37600,"station_id":"ce4bgj92rcd13ifvqbe0","pricing_plan_id":"cebpf4jnsgd1na2vs0mg"},{"bike_id":"c5bf6c57-7703-4962-bea8-fc52f0c9311e","system_id":"levelo_inurba_marseille","lat":43.27808,"lon":5.40718,"is_reserved":false,"is_disabled":false,"rental_uris":{"android":"levelo://app?vid=c5bf6c57-7703-4962-bea8-fc52f0c9311e","ios":"levelo://app?vid=c5bf6c57-7703-4962-bea8-fc52f0c9311e"},"vehicle_type_id":"4","last_reported":1727979102,"current_range_meters":38800,"station_id":"ce4bhnh2rcd13ifvqgtg","pricing_plan_id":"cebpf4jnsgd1na2vs0mg"},{"bike_id":"9471b7c2-e600-4372-a334-339091692814","system_id":"levelo_inurba_marseille","lat":43.290619,"lon":5.355958,"is_reserved":false,"is_disabled":false,"rental_uris":{"android":"levelo://app?vid=9471b7c2-e600-4372-a334-339091692814","ios":"levelo://app?vid=9471b7c2-e600-4372-a334-339091692814"},"vehicle_type_id":"4","last_reported":1727979102,"current_range_meters":22400,"station_id":"ce4bgv12rcd13ifvqcp0","pricing_plan_id":"cebpf4jnsgd1na2vs0mg"},{"bike_id":"38ccb47c-cec4-440c-a317-244788fef8a1","system_id":"levelo_inurba_marseille","lat":43.23962,"lon":5.36641,"is_reserved":false,"is_disabled":false,"rental_uris":{"android":"levelo://app?vid=38ccb47c-cec4-440c-a317-244788fef8a1","ios":"levelo://app?vid=38ccb47c-cec4-440c-a317-244788fef8a1"},"vehicle_type_id":"4","last_reported":1727979102,"current_range_meters":38800,"station_id":"ce4bhi12rcd13ifvqfp0","pricing_plan_id":"cebpf4jnsgd1na2vs0mg"},{"bike_id":"d7877609-6b5f-4f1b-b1e9-67841d44573b","system_id":"levelo_inurba_marseille","lat":43.29551,"lon":5.42299,"is_reserved":false,"is_disabled":false,"rental_uris":{"android":"levelo://app?vid=d7877609-6b5f-4f1b-b1e9-67841d44573b","ios":"levelo://app?vid=d7877609-6b5f-4f1b-b1e9-67841d44573b"},"vehicle_type_id":"4","last_reported":1727979102,"current_range_meters":36400,"station_id":"ce4bhph2rcd13ifvqhdg","pricing_plan_id":"cebpf4jnsgd1na2vs0mg"},{"bike_id":"d9513a24-3235-43a7-b9a5-1c5cfe37603f","system_id":"levelo_inurba_marseille","lat":43.23059,"lon":5.3549,"is_reserved":false,"is_disabled":false,"rental_uris":{"android":"levelo://app?vid=d9513a24-3235-43a7-b9a5-1c5cfe37603f","ios":"levelo://app?vid=d9513a24-3235-43a7-b9a5-1c5cfe37603f"},"vehicle_type_id":"4","last_reported":1727979102,"current_range_meters":28400,"station_id":"cpo3342slgdg3j2ifvpg","pricing_plan_id":"cebpf4jnsgd1na2vs0mg"},{"bike_id":"9294a630-1e71-4ea5-a91e-2d7a7f316c84","system_id":"levelo_inurba_marseille","lat":43.2481,"lon":5.37463,"is_reserved":false,"is_disabled":false,"rental_uris":{"android":"levelo://app?vid=9294a630-1e71-4ea5-a91e-2d7a7f316c84","ios":"levelo://app?vid=9294a630-1e71-4ea5-a91e-2d7a7f316c84"},"vehicle_type_id":"4","last_reported":1727979102,"current_range_meters":33600,"station_id":"ce4bhgh2rcd13ifvqfb0","pricing_plan_id":"cebpf4jnsgd1na2vs0mg"},{"bike_id":"68f4d372-4378-467b-a018-76172a4f3ad3","system_id":"levelo_inurba_marseille","lat":43.28974,"lon":5.37831,"is_reserved":false,"is_disabled":false,"rental_uris":{"android":"levelo://app?vid=68f4d372-4378-467b-a018-76172a4f3ad3","ios":"levelo://app?vid=68f4d372-4378-467b-a018-76172a4f3ad3"},"vehicle_type_id":"4","last_reported":1727979102,"current_range_meters":6400,"station_id":"ce4bh9p2rcd13ifvqed0","pricing_plan_id":"cebpf4jnsgd1na2vs0mg"},{"bike_id":"d536647a-5d7a-4e23-b801-b6b1e7c99067","system_id":"levelo_inurba_marseille","lat":43.25886,"lon":5.38458,"is_reserved":false,"is_disabled":false,"rental_uris":{"android":"levelo://app?vid=d536647a-5d7a-4e23-b801-b6b1e7c99067","ios":"levelo://app?vid=d536647a-5d7a-4e23-b801-b6b1e7c99067"},"vehicle_type_id":"4","last_reported":1727979102,"current_range_meters":20000,"station_id":"ce4bhgh2rcd13ifvqfb0","pricing_plan_id":"cebpf4jnsgd1na2vs0mg"},{"bike_id":"b77c9a98-5684-4390-8af9-258d124d8bc3","system_id":"levelo_inurba_marseille","lat":43.31363,"lon":5.38487,"is_reserved":false,"is_disabled":false,"rental_uris":{"android":"levelo://app?vid=b77c9a98-5684-4390-8af9-258d124d8bc3","ios":"levelo://app?vid=b77c9a98-5684-4390-8af9-258d124d8bc3"},"vehicle_type_id":"4","last_reported":1727979102,"current_range_meters":12000,"station_id":"ce4bgt92rcd13ifvqcf0","pricing_plan_id":"cebpf4jnsgd1na2vs0mg"},{"bike_id":"45096b91-e0d7-4711-8234-916929d994e0","system_id":"levelo_inurba_marseille","lat":43.290434,"lon":5.376857,"is_reserved":false,"is_disabled":false,"rental_uris":{"android":"levelo://app?vid=45096b91-e0d7-4711-8234-916929d994e0","ios":"levelo://app?vid=45096b91-e0d7-4711-8234-916929d994e0"},"vehicle_type_id":"4","last_reported":1727979102,"current_range_meters":28800,"station_id":"","pricing_plan_id":"cebpf4jnsgd1na2vs0mg"},{"bike_id":"a7369b97-b5ed-4f64-b596-8cb167cce175","system_id":"levelo_inurba_marseille","lat":43.2942,"lon":5.38621,"is_reserved":false,"is_disabled":false,"rental_uris":{"android":"levelo://app?vid=a7369b97-b5ed-4f64-b596-8cb167cce175","ios":"levelo://app?vid=a7369b97-b5ed-4f64-b596-8cb167cce175"},"vehicle_type_id":"4","last_reported":1727979102,"current_range_meters":38000,"station_id":"ce4bh2h2rcd13ifvqdh0","pricing_plan_id":"cebpf4jnsgd1na2vs0mg"},{"bike_id":"93b9cd56-4725-4d7c-b990-e8e30ed5ca75","system_id":"levelo_inurba_marseille","lat":43.28456,"lon":5.35893,"is_reserved":false,"is_disabled":false,"rental_uris":{"android":"levelo://app?vid=93b9cd56-4725-4d7c-b990-e8e30ed5ca75","ios":"levelo://app?vid=93b9cd56-4725-4d7c-b990-e8e30ed5ca75"},"vehicle_type_id":"4","last_reported":1727979102,"current_range_meters":3600,"station_id":"ce4bhah2rcd13ifvqei0","pricing_plan_id":"cebpf4jnsgd1na2vs0mg"},{"bike_id":"7b0872ec-2539-49e2-a78c-02c797be8752","system_id":"levelo_inurba_marseille","lat":43.2734,"lon":5.39092,"is_reserved":false,"is_disabled":false,"rental_uris":{"android":"levelo://app?vid=7b0872ec-2539-49e2-a78c-02c797be8752","ios":"levelo://app?vid=7b0872ec-2539-49e2-a78c-02c797be8752"},"vehicle_type_id":"4","last_reported":1727979102,"current_range_meters":2000,"station_id":"ce4bhgp2rcd13ifvqfe0","pricing_plan_id":"cebpf4jnsgd1na2vs0mg"},{"bike_id":"fe0e7130-228b-42c0-aff6-01922a265f0b","system_id":"levelo_inurba_marseille","lat":43.29888,"lon":5.43674,"is_reserved":false,"is_disabled":false,"rental_uris":{"android":"levelo://app?vid=fe0e7130-228b-42c0-aff6-01922a265f0b","ios":"levelo://app?vid=fe0e7130-228b-42c0-aff6-01922a265f0b"},"vehicle_type_id":"4","last_reported":1727979102,"current_range_meters":30800,"station_id":"ce4bhpp2rcd13ifvqhfg","pricing_plan_id":"cebpf4jnsgd1na2vs0mg"},{"bike_id":"275235a0-3a6f-42e6-b2d8-5e0ae4856234","system_id":"levelo_inurba_marseille","lat":43.27955,"lon":5.38745,"is_reserved":false,"is_disabled":false,"rental_uris":{"android":"levelo://app?vid=275235a0-3a6f-42e6-b2d8-5e0ae4856234","ios":"levelo://app?vid=275235a0-3a6f-42e6-b2d8-5e0ae4856234"},"vehicle_type_id":"4","last_reported":1727979102,"current_range_meters":38800,"station_id":"","pricing_plan_id":"cebpf4jnsgd1na2vs0mg"},{"bike_id":"eee1dc5a-9ffe-417d-a588-57898aac93ea","system_id":"levelo_inurba_marseille","lat":43.28076,"lon":5.39669,"is_reserved":false,"is_disabled":false,"rental_uris":{"android":"levelo://app?vid=eee1dc5a-9ffe-417d-a588-57898aac93ea","ios":"levelo://app?vid=eee1dc5a-9ffe-417d-a588-57898aac93ea"},"vehicle_type_id":"4","last_reported":1727979102,"current_range_meters":24400,"station_id":"ce4bho12rcd13ifvqh2g","pricing_plan_id":"cebpf4jnsgd1na2vs0mg"},{"bike_id":"3628e954-3828-433b-a4cd-05a5b7c9a9f6","system_id":"levelo_inurba_marseille","lat":43.297089,"lon":5.366002,"is_reserved":false,"is_disabled":false,"rental_uris":{"android":"levelo://app?vid=3628e954-3828-433b-a4cd-05a5b7c9a9f6","ios":"levelo://app?vid=3628e954-3828-433b-a4cd-05a5b7c9a9f6"},"vehicle_type_id":"4","last_reported":1727979102,"current_range_meters":30400,"station_id":"ce4bgn12rcd13ifvqbt0","pricing_plan_id":"cebpf4jnsgd1na2vs0mg"},{"bike_id":"bbb550aa-3f65-46a3-bce3-8440e5eb5f7e","system_id":"levelo_inurba_marseille","lat":43.28153,"lon":5.42636,"is_reserved":false,"is_disabled":false,"rental_uris":{"android":"levelo://app?vid=bbb550aa-3f65-46a3-bce3-8440e5eb5f7e","ios":"levelo://app?vid=bbb550aa-3f65-46a3-bce3-8440e5eb5f7e"},"vehicle_type_id":"4","last_reported":1727979102,"current_range_meters":12800,"station_id":"ce4bhnh2rcd13ifvqgug","pricing_plan_id":"cebpf4jnsgd1na2vs0mg"},{"bike_id":"fc305dcd-ef10-45b7-a348-5a65ed4a1bc5","system_id":"levelo_inurba_marseille","lat":43.29277,"lon":5.3685,"is_reserved":false,"is_disabled":false,"rental_uris":{"android":"levelo://app?vid=fc305dcd-ef10-45b7-a348-5a65ed4a1bc5","ios":"levelo://app?vid=fc305dcd-ef10-45b7-a348-5a65ed4a1bc5"},"vehicle_type_id":"4","last_reported":1727979102,"current_range_meters":19200,"station_id":"ce4bhbp2rcd13ifvqesg","pricing_plan_id":"cebpf4jnsgd1na2vs0mg"},{"bike_id":"f907d84a-a826-4b50-829d-365229d6e5c9","system_id":"levelo_inurba_marseille","lat":43.302752,"lon":5.377162,"is_reserved":false,"is_disabled":false,"rental_uris":{"android":"levelo://app?vid=f907d84a-a826-4b50-829d-365229d6e5c9","ios":"levelo://app?vid=f907d84a-a826-4b50-829d-365229d6e5c9"},"vehicle_type_id":"4","last_reported":1727979102,"current_range_meters":2800,"station_id":"ce4bguh2rcd13ifvqcj0","pricing_plan_id":"cebpf4jnsgd1na2vs0mg"},{"bike_id":"460c1d2c-d2d9-40fe-86a9-69971e1a4296","system_id":"levelo_inurba_marseille","lat":43.28154,"lon":5.42645,"is_reserved":false,"is_disabled":false,"rental_uris":{"android":"levelo://app?vid=460c1d2c-d2d9-40fe-86a9-69971e1a4296","ios":"levelo://app?vid=460c1d2c-d2d9-40fe-86a9-69971e1a4296"},"vehicle_type_id":"4","last_reported":1727979102,"current_range_meters":6400,"station_id":"ce4bhnh2rcd13ifvqgug","pricing_plan_id":"cebpf4jnsgd1na2vs0mg"},{"bike_id":"588c71ff-cdd2-4bbf-9767-7a4526e57197","system_id":"levelo_inurba_marseille","lat":43.29111,"lon":5.38149,"is_reserved":false,"is_disabled":false,"rental_uris":{"android":"levelo://app?vid=588c71ff-cdd2-4bbf-9767-7a4526e57197","ios":"levelo://app?vid=588c71ff-cdd2-4bbf-9767-7a4526e57197"},"vehicle_type_id":"4","last_reported":1727979102,"current_range_meters":38800,"station_id":"ce4bh512rcd13ifvqe2g","pricing_plan_id":"cebpf4jnsgd1na2vs0mg"},{"bike_id":"99f05783-0195-4481-938a-ff25f075de94","system_id":"levelo_inurba_marseille","lat":43.28151,"lon":5.42643,"is_reserved":false,"is_disabled":false,"rental_uris":{"android":"levelo://app?vid=99f05783-0195-4481-938a-ff25f075de94","ios":"levelo://app?vid=99f05783-0195-4481-938a-ff25f075de94"},"vehicle_type_id":"4","last_reported":1727979102,"current_range_meters":22800,"station_id":"ce4bhnh2rcd13ifvqgug","pricing_plan_id":"cebpf4jnsgd1na2vs0mg"},{"bike_id":"21ed36b3-d5bf-48f5-9b3d-3ac59db7bafd","system_id":"levelo_inurba_marseille","lat":43.23187,"lon":5.39985,"is_reserved":false,"is_disabled":false,"rental_uris":{"android":"levelo://app?vid=21ed36b3-d5bf-48f5-9b3d-3ac59db7bafd","ios":"levelo://app?vid=21ed36b3-d5bf-48f5-9b3d-3ac59db7bafd"},"vehicle_type_id":"4","last_reported":1727979102,"current_range_meters":30800,"station_id":"ce4bhn12rcd13ifvqgqg","pricing_plan_id":"cebpf4jnsgd1na2vs0mg"},{"bike_id":"3fe8d3b7-ccf5-449b-a74c-2f8fabce9f01","system_id":"levelo_inurba_marseille","lat":43.30884,"lon":5.37196,"is_reserved":false,"is_disabled":false,"rental_uris":{"android":"levelo://app?vid=3fe8d3b7-ccf5-449b-a74c-2f8fabce9f01","ios":"levelo://app?vid=3fe8d3b7-ccf5-449b-a74c-2f8fabce9f01"},"vehicle_type_id":"4","last_reported":1727979102,"current_range_meters":32800,"station_id":"ce4bguh2rcd13ifvqckg","pricing_plan_id":"cebpf4jnsgd1na2vs0mg"},{"bike_id":"e571a55b-92e2-4b67-b8f6-5174cc410bfc","system_id":"levelo_inurba_marseille","lat":43.29416,"lon":5.38625,"is_reserved":false,"is_disabled":false,"rental_uris":{"android":"levelo://app?vid=e571a55b-92e2-4b67-b8f6-5174cc410bfc","ios":"levelo://app?vid=e571a55b-92e2-4b67-b8f6-5174cc410bfc"},"vehicle_type_id":"4","last_reported":1727979102,"current_range_meters":37600,"station_id":"ce4bh2h2rcd13ifvqdh0","pricing_plan_id":"cebpf4jnsgd1na2vs0mg"},{"bike_id":"a48d3ee5-8ad2-4b8d-b50b-9ff5a4f96cf7","system_id":"levelo_inurba_marseille","lat":43.29512,"lon":5.39049,"is_reserved":false,"is_disabled":false,"rental_uris":{"android":"levelo://app?vid=a48d3ee5-8ad2-4b8d-b50b-9ff5a4f96cf7","ios":"levelo://app?vid=a48d3ee5-8ad2-4b8d-b50b-9ff5a4f96cf7"},"vehicle_type_id":"4","last_reported":1727979102,"current_range_meters":10800,"station_id":"ce4bh3p2rcd13ifvqdp0","pricing_plan_id":"cebpf4jnsgd1na2vs0mg"},{"bike_id":"4d5295aa-04bc-493b-9ef8-c3a0716b12f8","system_id":"levelo_inurba_marseille","lat":43.28152,"lon":5.42645,"is_reserved":false,"is_disabled":false,"rental_uris":{"android":"levelo://app?vid=4d5295aa-04bc-493b-9ef8-c3a0716b12f8","ios":"levelo://app?vid=4d5295aa-04bc-493b-9ef8-c3a0716b12f8"},"vehicle_type_id":"4","last_reported":1727979102,"current_range_meters":16000,"station_id":"ce4bhnh2rcd13ifvqgug","pricing_plan_id":"cebpf4jnsgd1na2vs0mg"},{"bike_id":"4846c4fa-96d3-4add-8c3b-2ecb7d77627f","system_id":"levelo_inurba_marseille","lat":43.26548,"lon":5.37295,"is_reserved":false,"is_disabled":false,"rental_uris":{"android":"levelo://app?vid=4846c4fa-96d3-4add-8c3b-2ecb7d77627f","ios":"levelo://app?vid=4846c4fa-96d3-4add-8c3b-2ecb7d77627f"},"vehicle_type_id":"4","last_reported":1727979102,"current_range_meters":34000,"station_id":"ce4bhg12rcd13ifvqf70","pricing_plan_id":"cebpf4jnsgd1na2vs0mg"},{"bike_id":"9d1271a4-f60e-47fe-b989-3ffb38bffeef","system_id":"levelo_inurba_marseille","lat":43.23963,"lon":5.36629,"is_reserved":false,"is_disabled":false,"rental_uris":{"android":"levelo://app?vid=9d1271a4-f60e-47fe-b989-3ffb38bffeef","ios":"levelo://app?vid=9d1271a4-f60e-47fe-b989-3ffb38bffeef"},"vehicle_type_id":"4","last_reported":1727979102,"current_range_meters":20000,"station_id":"ce4bhi12rcd13ifvqfp0","pricing_plan_id":"cebpf4jnsgd1na2vs0mg"},{"bike_id":"366aa555-84f5-40ad-8670-58353b22b225","system_id":"levelo_inurba_marseille","lat":43.31487,"lon":5.37312,"is_reserved":false,"is_disabled":false,"rental_uris":{"android":"levelo://app?vid=366aa555-84f5-40ad-8670-58353b22b225","ios":"levelo://app?vid=366aa555-84f5-40ad-8670-58353b22b225"},"vehicle_type_id":"4","last_reported":1727979102,"current_range_meters":8400,"station_id":"ce4bgt12rcd13ifvqcd0","pricing_plan_id":"cebpf4jnsgd1na2vs0mg"},{"bike_id":"134bc505-7ad9-4c65-b63b-b8967150c906","system_id":"levelo_inurba_marseille","lat":43.29619,"lon":5.37156,"is_reserved":false,"is_disabled":false,"rental_uris":{"android":"levelo://app?vid=134bc505-7ad9-4c65-b63b-b8967150c906","ios":"levelo://app?vid=134bc505-7ad9-4c65-b63b-b8967150c906"},"vehicle_type_id":"4","last_reported":1727979102,"current_range_meters":37600,"station_id":"ce4bgnh2rcd13ifvqc0g","pricing_plan_id":"cebpf4jnsgd1na2vs0mg"},{"bike_id":"06cf161d-dde1-4e22-bb49-296662df0fc3","system_id":"levelo_inurba_marseille","lat":43.2558,"lon":5.38235,"is_reserved":false,"is_disabled":false,"rental_uris":{"android":"levelo://app?vid=06cf161d-dde1-4e22-bb49-296662df0fc3","ios":"levelo://app?vid=06cf161d-dde1-4e22-bb49-296662df0fc3"},"vehicle_type_id":"4","last_reported":1727979102,"current_range_meters":28800,"station_id":"ce4bhih2rcd13ifvqfs0","pricing_plan_id":"cebpf4jnsgd1na2vs0mg"},{"bike_id":"830ac713-2724-4fda-92cc-5a303e26e2fc","system_id":"levelo_inurba_marseille","lat":43.33033,"lon":5.39041,"is_reserved":false,"is_disabled":false,"rental_uris":{"android":"levelo://app?vid=830ac713-2724-4fda-92cc-5a303e26e2fc","ios":"levelo://app?vid=830ac713-2724-4fda-92cc-5a303e26e2fc"},"vehicle_type_id":"4","last_reported":1727979102,"current_range_meters":37600,"station_id":"ce4bhr92rcd13ifvqhrg","pricing_plan_id":"cebpf4jnsgd1na2vs0mg"},{"bike_id":"17774e5e-4ca1-4447-afa9-8f03dd4b5e12","system_id":"levelo_inurba_marseille","lat":43.26182,"lon":5.37465,"is_reserved":false,"is_disabled":false,"rental_uris":{"android":"levelo://app?vid=17774e5e-4ca1-4447-afa9-8f03dd4b5e12","ios":"levelo://app?vid=17774e5e-4ca1-4447-afa9-8f03dd4b5e12"},"vehicle_type_id":"4","last_reported":1727979102,"current_range_meters":7200,"station_id":"ce4bhgp2rcd13ifvqfc0","pricing_plan_id":"cebpf4jnsgd1na2vs0mg"},{"bike_id":"1ff3faa6-736a-4a23-bdf5-cca6c9ed4d30","system_id":"levelo_inurba_marseille","lat":43.28665,"lon":5.38662,"is_reserved":false,"is_disabled":false,"rental_uris":{"android":"levelo://app?vid=1ff3faa6-736a-4a23-bdf5-cca6c9ed4d30","ios":"levelo://app?vid=1ff3faa6-736a-4a23-bdf5-cca6c9ed4d30"},"vehicle_type_id":"4","last_reported":1727979102,"current_range_meters":15200,"station_id":"ce4bh492rcd13ifvqdug","pricing_plan_id":"cebpf4jnsgd1na2vs0mg"},{"bike_id":"328c11ab-9f28-4bd7-9a3a-f6e032b6857f","system_id":"levelo_inurba_marseille","lat":43.26061,"lon":5.39398,"is_reserved":false,"is_disabled":false,"rental_uris":{"android":"levelo://app?vid=328c11ab-9f28-4bd7-9a3a-f6e032b6857f","ios":"levelo://app?vid=328c11ab-9f28-4bd7-9a3a-f6e032b6857f"},"vehicle_type_id":"4","last_reported":1727979102,"current_range_meters":16800,"station_id":"ce4bhh92rcd13ifvqfj0","pricing_plan_id":"cebpf4jnsgd1na2vs0mg"},{"bike_id":"0fd8a581-6079-4d41-8312-f6ecfd73b79c","system_id":"levelo_inurba_marseille","lat":43.2396,"lon":5.36639,"is_reserved":false,"is_disabled":false,"rental_uris":{"android":"levelo://app?vid=0fd8a581-6079-4d41-8312-f6ecfd73b79c","ios":"levelo://app?vid=0fd8a581-6079-4d41-8312-f6ecfd73b79c"},"vehicle_type_id":"4","last_reported":1727979102,"current_range_meters":12400,"station_id":"ce4bhi12rcd13ifvqfp0","pricing_plan_id":"cebpf4jnsgd1na2vs0mg"},{"bike_id":"98c65786-a015-4005-93f5-93bcb5101e5a","system_id":"levelo_inurba_marseille","lat":43.25002,"lon":5.38925,"is_reserved":false,"is_disabled":false,"rental_uris":{"android":"levelo://app?vid=98c65786-a015-4005-93f5-93bcb5101e5a","ios":"levelo://app?vid=98c65786-a015-4005-93f5-93bcb5101e5a"},"vehicle_type_id":"4","last_reported":1727979102,"current_range_meters":2800,"station_id":"ce4bhgp2rcd13ifvqfd0","pricing_plan_id":"cebpf4jnsgd1na2vs0mg"},{"bike_id":"2ee8b668-768b-4a62-a1a5-d52d5490f7b7","system_id":"levelo_inurba_marseille","lat":43.31756,"lon":5.39024,"is_reserved":false,"is_disabled":false,"rental_uris":{"android":"levelo://app?vid=2ee8b668-768b-4a62-a1a5-d52d5490f7b7","ios":"levelo://app?vid=2ee8b668-768b-4a62-a1a5-d52d5490f7b7"},"vehicle_type_id":"4","last_reported":1727979102,"current_range_meters":38800,"station_id":"ce4bhqp2rcd13ifvqhng","pricing_plan_id":"cebpf4jnsgd1na2vs0mg"},{"bike_id":"741fe4b5-d503-43ea-8e47-345a9f490b58","system_id":"levelo_inurba_marseille","lat":43.2971,"lon":5.37698,"is_reserved":false,"is_disabled":false,"rental_uris":{"android":"levelo://app?vid=741fe4b5-d503-43ea-8e47-345a9f490b58","ios":"levelo://app?vid=741fe4b5-d503-43ea-8e47-345a9f490b58"},"vehicle_type_id":"4","last_reported":1727979102,"current_range_meters":1600,"station_id":"ce4bgkh2rcd13ifvqbl0","pricing_plan_id":"cebpf4jnsgd1na2vs0mg"},{"bike_id":"ea79b88b-5418-4695-bdca-3047dbc144b1","system_id":"levelo_inurba_marseille","lat":43.278092,"lon":5.407032,"is_reserved":false,"is_disabled":false,"rental_uris":{"android":"levelo://app?vid=ea79b88b-5418-4695-bdca-3047dbc144b1","ios":"levelo://app?vid=ea79b88b-5418-4695-bdca-3047dbc144b1"},"vehicle_type_id":"4","last_reported":1727979102,"current_range_meters":25600,"station_id":"ce4bhnh2rcd13ifvqgtg","pricing_plan_id":"cebpf4jnsgd1na2vs0mg"},{"bike_id":"c5223d97-c6c1-4b68-af59-4b45fbb41329","system_id":"levelo_inurba_marseille","lat":43.32358,"lon":5.3889,"is_reserved":false,"is_disabled":false,"rental_uris":{"android":"levelo://app?vid=c5223d97-c6c1-4b68-af59-4b45fbb41329","ios":"levelo://app?vid=c5223d97-c6c1-4b68-af59-4b45fbb41329"},"vehicle_type_id":"4","last_reported":1727979102,"current_range_meters":16800,"station_id":"ce4bhqp2rcd13ifvqhog","pricing_plan_id":"cebpf4jnsgd1na2vs0mg"},{"bike_id":"cf0e149c-c34b-4109-af86-b5ffa52b5ae9","system_id":"levelo_inurba_marseille","lat":43.30199,"lon":5.39443,"is_reserved":false,"is_disabled":false,"rental_uris":{"android":"levelo://app?vid=cf0e149c-c34b-4109-af86-b5ffa52b5ae9","ios":"levelo://app?vid=cf0e149c-c34b-4109-af86-b5ffa52b5ae9"},"vehicle_type_id":"4","last_reported":1727979102,"current_range_meters":8000,"station_id":"ce4bgh92rcd13ifvqb40","pricing_plan_id":"cebpf4jnsgd1na2vs0mg"},{"bike_id":"0cb9acb2-15eb-485b-842c-a3f570e8e7c5","system_id":"levelo_inurba_marseille","lat":43.22934,"lon":5.35382,"is_reserved":false,"is_disabled":false,"rental_uris":{"android":"levelo://app?vid=0cb9acb2-15eb-485b-842c-a3f570e8e7c5","ios":"levelo://app?vid=0cb9acb2-15eb-485b-842c-a3f570e8e7c5"},"vehicle_type_id":"4","last_reported":1727979102,"current_range_meters":26000,"station_id":"cpo3532slgdg3j2ikp40","pricing_plan_id":"cebpf4jnsgd1na2vs0mg"},{"bike_id":"ecf4df4e-b83f-4da1-b96e-3392873e2157","system_id":"levelo_inurba_marseille","lat":43.25494,"lon":5.37658,"is_reserved":false,"is_disabled":false,"rental_uris":{"android":"levelo://app?vid=ecf4df4e-b83f-4da1-b96e-3392873e2157","ios":"levelo://app?vid=ecf4df4e-b83f-4da1-b96e-3392873e2157"},"vehicle_type_id":"4","last_reported":1727979102,"current_range_meters":28000,"station_id":"ce4bhh12rcd13ifvqff0","pricing_plan_id":"cebpf4jnsgd1na2vs0mg"},{"bike_id":"b2c48204-d429-40ea-a1e3-31aca0da0e7f","system_id":"levelo_inurba_marseille","lat":43.2979,"lon":5.39348,"is_reserved":false,"is_disabled":false,"rental_uris":{"android":"levelo://app?vid=b2c48204-d429-40ea-a1e3-31aca0da0e7f","ios":"levelo://app?vid=b2c48204-d429-40ea-a1e3-31aca0da0e7f"},"vehicle_type_id":"4","last_reported":1727979102,"current_range_meters":39200,"station_id":"chh1huq6cuj3fo74tm60","pricing_plan_id":"cebpf4jnsgd1na2vs0mg"},{"bike_id":"24ae3247-9f71-4c77-854f-f033e1cfbd8a","system_id":"levelo_inurba_marseille","lat":43.28851,"lon":5.39311,"is_reserved":false,"is_disabled":false,"rental_uris":{"android":"levelo://app?vid=24ae3247-9f71-4c77-854f-f033e1cfbd8a","ios":"levelo://app?vid=24ae3247-9f71-4c77-854f-f033e1cfbd8a"},"vehicle_type_id":"4","last_reported":1727979102,"current_range_meters":9200,"station_id":"ce4bhf92rcd13ifvqf50","pricing_plan_id":"cebpf4jnsgd1na2vs0mg"},{"bike_id":"77a4deff-f11e-4c24-8875-e3301106e8fd","system_id":"levelo_inurba_marseille","lat":43.23956,"lon":5.36636,"is_reserved":false,"is_disabled":false,"rental_uris":{"android":"levelo://app?vid=77a4deff-f11e-4c24-8875-e3301106e8fd","ios":"levelo://app?vid=77a4deff-f11e-4c24-8875-e3301106e8fd"},"vehicle_type_id":"4","last_reported":1727979102,"current_range_meters":8400,"station_id":"ce4bhi12rcd13ifvqfp0","pricing_plan_id":"cebpf4jnsgd1na2vs0mg"},{"bike_id":"5a1069f5-61f4-4930-b38b-ddd40c93ffc4","system_id":"levelo_inurba_marseille","lat":43.29871,"lon":5.39735,"is_reserved":false,"is_disabled":false,"rental_uris":{"android":"levelo://app?vid=5a1069f5-61f4-4930-b38b-ddd40c93ffc4","ios":"levelo://app?vid=5a1069f5-61f4-4930-b38b-ddd40c93ffc4"},"vehicle_type_id":"4","last_reported":1727979102,"current_range_meters":14400,"station_id":"ce4bh0h2rcd13ifvqd50","pricing_plan_id":"cebpf4jnsgd1na2vs0mg"},{"bike_id":"ab09d11f-213d-41c8-9b55-fc0688de636e","system_id":"levelo_inurba_marseille","lat":43.23964,"lon":5.36639,"is_reserved":false,"is_disabled":false,"rental_uris":{"android":"levelo://app?vid=ab09d11f-213d-41c8-9b55-fc0688de636e","ios":"levelo://app?vid=ab09d11f-213d-41c8-9b55-fc0688de636e"},"vehicle_type_id":"4","last_reported":1727979102,"current_range_meters":8800,"station_id":"ce4bhi12rcd13ifvqfp0","pricing_plan_id":"cebpf4jnsgd1na2vs0mg"},{"bike_id":"64bd957e-b978-44cb-a85c-928d627d24ec","system_id":"levelo_inurba_marseille","lat":43.35386,"lon":5.35879,"is_reserved":false,"is_disabled":false,"rental_uris":{"android":"levelo://app?vid=64bd957e-b978-44cb-a85c-928d627d24ec","ios":"levelo://app?vid=64bd957e-b978-44cb-a85c-928d627d24ec"},"vehicle_type_id":"4","last_reported":1727979102,"current_range_meters":11200,"station_id":"","pricing_plan_id":"cebpf4jnsgd1na2vs0mg"},{"bike_id":"a7f3e076-15e5-4090-8be3-90173f793369","system_id":"levelo_inurba_marseille","lat":43.29217,"lon":5.36057,"is_reserved":false,"is_disabled":false,"rental_uris":{"android":"levelo://app?vid=a7f3e076-15e5-4090-8be3-90173f793369","ios":"levelo://app?vid=a7f3e076-15e5-4090-8be3-90173f793369"},"vehicle_type_id":"4","last_reported":1727979102,"current_range_meters":17600,"station_id":"ce4bhbh2rcd13ifvqeqg","pricing_plan_id":"cebpf4jnsgd1na2vs0mg"},{"bike_id":"35c4ccce-2b97-4d5d-8a93-5c94581c2cf7","system_id":"levelo_inurba_marseille","lat":43.27995,"lon":5.40005,"is_reserved":false,"is_disabled":false,"rental_uris":{"android":"levelo://app?vid=35c4ccce-2b97-4d5d-8a93-5c94581c2cf7","ios":"levelo://app?vid=35c4ccce-2b97-4d5d-8a93-5c94581c2cf7"},"vehicle_type_id":"4","last_reported":1727979102,"current_range_meters":16400,"station_id":"ce4bho92rcd13ifvqh4g","pricing_plan_id":"cebpf4jnsgd1na2vs0mg"},{"bike_id":"9eecd779-c6c0-4e07-ac55-d8d18d2fd278","system_id":"levelo_inurba_marseille","lat":43.27992,"lon":5.40014,"is_reserved":false,"is_disabled":false,"rental_uris":{"android":"levelo://app?vid=9eecd779-c6c0-4e07-ac55-d8d18d2fd278","ios":"levelo://app?vid=9eecd779-c6c0-4e07-ac55-d8d18d2fd278"},"vehicle_type_id":"4","last_reported":1727979102,"current_range_meters":24400,"station_id":"ce4bho92rcd13ifvqh4g","pricing_plan_id":"cebpf4jnsgd1na2vs0mg"},{"bike_id":"2c92c275-77c1-40f2-bb66-b43857d13303","system_id":"levelo_inurba_marseille","lat":43.24667,"lon":5.38169,"is_reserved":false,"is_disabled":false,"rental_uris":{"android":"levelo://app?vid=2c92c275-77c1-40f2-bb66-b43857d13303","ios":"levelo://app?vid=2c92c275-77c1-40f2-bb66-b43857d13303"},"vehicle_type_id":"4","last_reported":1727979102,"current_range_meters":2800,"station_id":"ce4bhih2rcd13ifvqfr0","pricing_plan_id":"cebpf4jnsgd1na2vs0mg"},{"bike_id":"c41c3308-b5c4-47e6-9189-84a5e80a7248","system_id":"levelo_inurba_marseille","lat":43.29029,"lon":5.38644,"is_reserved":false,"is_disabled":false,"rental_uris":{"android":"levelo://app?vid=c41c3308-b5c4-47e6-9189-84a5e80a7248","ios":"levelo://app?vid=c41c3308-b5c4-47e6-9189-84a5e80a7248"},"vehicle_type_id":"4","last_reported":1727979102,"current_range_meters":28000,"station_id":"ce4bh4p2rcd13ifvqe0g","pricing_plan_id":"cebpf4jnsgd1na2vs0mg"},{"bike_id":"9b1f6ae1-f377-4535-be32-c89faf88de4c","system_id":"levelo_inurba_marseille","lat":43.26063,"lon":5.39395,"is_reserved":false,"is_disabled":false,"rental_uris":{"android":"levelo://app?vid=9b1f6ae1-f377-4535-be32-c89faf88de4c","ios":"levelo://app?vid=9b1f6ae1-f377-4535-be32-c89faf88de4c"},"vehicle_type_id":"4","last_reported":1727979102,"current_range_meters":30800,"station_id":"ce4bhh92rcd13ifvqfj0","pricing_plan_id":"cebpf4jnsgd1na2vs0mg"},{"bike_id":"d45d9a97-1129-45c9-9f44-4f962bebcce1","system_id":"levelo_inurba_marseille","lat":43.28613,"lon":5.35098,"is_reserved":false,"is_disabled":false,"rental_uris":{"android":"levelo://app?vid=d45d9a97-1129-45c9-9f44-4f962bebcce1","ios":"levelo://app?vid=d45d9a97-1129-45c9-9f44-4f962bebcce1"},"vehicle_type_id":"4","last_reported":1727979102,"current_range_meters":20800,"station_id":"ce4bhch2rcd13ifvqeug","pricing_plan_id":"cebpf4jnsgd1na2vs0mg"},{"bike_id":"08653f1f-605c-4b46-99ef-0117c77b2aa3","system_id":"levelo_inurba_marseille","lat":43.27495,"lon":5.42451,"is_reserved":false,"is_disabled":false,"rental_uris":{"android":"levelo://app?vid=08653f1f-605c-4b46-99ef-0117c77b2aa3","ios":"levelo://app?vid=08653f1f-605c-4b46-99ef-0117c77b2aa3"},"vehicle_type_id":"4","last_reported":1727979102,"current_range_meters":6000,"station_id":"ce4bhn92rcd13ifvqgrg","pricing_plan_id":"cebpf4jnsgd1na2vs0mg"},{"bike_id":"44a68f99-eae2-4cdb-b216-28e5b4345a00","system_id":"levelo_inurba_marseille","lat":43.31702,"lon":5.37741,"is_reserved":false,"is_disabled":false,"rental_uris":{"android":"levelo://app?vid=44a68f99-eae2-4cdb-b216-28e5b4345a00","ios":"levelo://app?vid=44a68f99-eae2-4cdb-b216-28e5b4345a00"},"vehicle_type_id":"4","last_reported":1727979102,"current_range_meters":38800,"station_id":"ce4bgth2rcd13ifvqch0","pricing_plan_id":"cebpf4jnsgd1na2vs0mg"},{"bike_id":"b08c8ec0-780b-475f-bb95-c89bdfcea8e9","system_id":"levelo_inurba_marseille","lat":43.291748,"lon":5.37147,"is_reserved":false,"is_disabled":false,"rental_uris":{"android":"levelo://app?vid=b08c8ec0-780b-475f-bb95-c89bdfcea8e9","ios":"levelo://app?vid=b08c8ec0-780b-475f-bb95-c89bdfcea8e9"},"vehicle_type_id":"4","last_reported":1727979102,"current_range_meters":34000,"station_id":"ce4bhap2rcd13ifvqek0","pricing_plan_id":"cebpf4jnsgd1na2vs0mg"},{"bike_id":"36b6cd17-71f7-4334-99c8-07a9df20748e","system_id":"levelo_inurba_marseille","lat":43.32335,"lon":5.40641,"is_reserved":false,"is_disabled":false,"rental_uris":{"android":"levelo://app?vid=36b6cd17-71f7-4334-99c8-07a9df20748e","ios":"levelo://app?vid=36b6cd17-71f7-4334-99c8-07a9df20748e"},"vehicle_type_id":"4","last_reported":1727979102,"current_range_meters":22800,"station_id":"ce4bhq92rcd13ifvqhjg","pricing_plan_id":"cebpf4jnsgd1na2vs0mg"},{"bike_id":"1aae1f99-029c-4bed-8d3b-1b8901d40a6b","system_id":"levelo_inurba_marseille","lat":43.29867,"lon":5.39741,"is_reserved":false,"is_disabled":false,"rental_uris":{"android":"levelo://app?vid=1aae1f99-029c-4bed-8d3b-1b8901d40a6b","ios":"levelo://app?vid=1aae1f99-029c-4bed-8d3b-1b8901d40a6b"},"vehicle_type_id":"4","last_reported":1727979102,"current_range_meters":11200,"station_id":"","pricing_plan_id":"cebpf4jnsgd1na2vs0mg"},{"bike_id":"6d679b6b-38e0-4f37-8caf-d0dfb3677fc5","system_id":"levelo_inurba_marseille","lat":43.22932,"lon":5.35379,"is_reserved":false,"is_disabled":false,"rental_uris":{"android":"levelo://app?vid=6d679b6b-38e0-4f37-8caf-d0dfb3677fc5","ios":"levelo://app?vid=6d679b6b-38e0-4f37-8caf-d0dfb3677fc5"},"vehicle_type_id":"4","last_reported":1727979102,"current_range_meters":32400,"station_id":"cpo3532slgdg3j2ikp40","pricing_plan_id":"cebpf4jnsgd1na2vs0mg"},{"bike_id":"2ae4a54d-2a24-441f-afa9-de138928618e","system_id":"levelo_inurba_marseille","lat":43.31364,"lon":5.38494,"is_reserved":false,"is_disabled":false,"rental_uris":{"android":"levelo://app?vid=2ae4a54d-2a24-441f-afa9-de138928618e","ios":"levelo://app?vid=2ae4a54d-2a24-441f-afa9-de138928618e"},"vehicle_type_id":"4","last_reported":1727979102,"current_range_meters":36400,"station_id":"ce4bgt92rcd13ifvqcf0","pricing_plan_id":"cebpf4jnsgd1na2vs0mg"},{"bike_id":"666b24c6-7b0b-4da3-a78e-f7005e1d58b3","system_id":"levelo_inurba_marseille","lat":43.28101,"lon":5.37834,"is_reserved":false,"is_disabled":false,"rental_uris":{"android":"levelo://app?vid=666b24c6-7b0b-4da3-a78e-f7005e1d58b3","ios":"levelo://app?vid=666b24c6-7b0b-4da3-a78e-f7005e1d58b3"},"vehicle_type_id":"4","last_reported":1727979102,"current_range_meters":34000,"station_id":"ce4bha12rcd13ifvqee0","pricing_plan_id":"cebpf4jnsgd1na2vs0mg"},{"bike_id":"835ef6ab-f760-4cc0-bdb7-f5bbbe738ccc","system_id":"levelo_inurba_marseille","lat":43.28687,"lon":5.37404,"is_reserved":false,"is_disabled":false,"rental_uris":{"android":"levelo://app?vid=835ef6ab-f760-4cc0-bdb7-f5bbbe738ccc","ios":"levelo://app?vid=835ef6ab-f760-4cc0-bdb7-f5bbbe738ccc"},"vehicle_type_id":"4","last_reported":1727979102,"current_range_meters":17600,"station_id":"ce4bh3p2rcd13ifvqdq0","pricing_plan_id":"cebpf4jnsgd1na2vs0mg"},{"bike_id":"7cecb45f-88bd-4c5c-b8df-f037b413969f","system_id":"levelo_inurba_marseille","lat":43.28456,"lon":5.35884,"is_reserved":false,"is_disabled":false,"rental_uris":{"android":"levelo://app?vid=7cecb45f-88bd-4c5c-b8df-f037b413969f","ios":"levelo://app?vid=7cecb45f-88bd-4c5c-b8df-f037b413969f"},"vehicle_type_id":"4","last_reported":1727979102,"current_range_meters":38800,"station_id":"ce4bhah2rcd13ifvqei0","pricing_plan_id":"cebpf4jnsgd1na2vs0mg"},{"bike_id":"42715632-e225-47f3-813c-9451f24e5700","system_id":"levelo_inurba_marseille","lat":43.23182,"lon":5.35562,"is_reserved":false,"is_disabled":false,"rental_uris":{"android":"levelo://app?vid=42715632-e225-47f3-813c-9451f24e5700","ios":"levelo://app?vid=42715632-e225-47f3-813c-9451f24e5700"},"vehicle_type_id":"4","last_reported":1727979102,"current_range_meters":24800,"station_id":"ce4bhu92rcd13ifvqi70","pricing_plan_id":"cebpf4jnsgd1na2vs0mg"},{"bike_id":"944bba5b-baf2-4a98-91ce-e9a1cfa054b8","system_id":"levelo_inurba_marseille","lat":43.2941,"lon":5.38634,"is_reserved":false,"is_disabled":false,"rental_uris":{"android":"levelo://app?vid=944bba5b-baf2-4a98-91ce-e9a1cfa054b8","ios":"levelo://app?vid=944bba5b-baf2-4a98-91ce-e9a1cfa054b8"},"vehicle_type_id":"4","last_reported":1727979102,"current_range_meters":38800,"station_id":"ce4bh2h2rcd13ifvqdh0","pricing_plan_id":"cebpf4jnsgd1na2vs0mg"},{"bike_id":"4c977960-2331-4a33-a3fd-012dd647fced","system_id":"levelo_inurba_marseille","lat":43.2978,"lon":5.39361,"is_reserved":false,"is_disabled":false,"rental_uris":{"android":"levelo://app?vid=4c977960-2331-4a33-a3fd-012dd647fced","ios":"levelo://app?vid=4c977960-2331-4a33-a3fd-012dd647fced"},"vehicle_type_id":"4","last_reported":1727979102,"current_range_meters":38800,"station_id":"chh1huq6cuj3fo74tm60","pricing_plan_id":"cebpf4jnsgd1na2vs0mg"},{"bike_id":"f9326eba-7f00-4763-9afb-c6eb7fa58937","system_id":"levelo_inurba_marseille","lat":43.23959,"lon":5.36655,"is_reserved":false,"is_disabled":false,"rental_uris":{"android":"levelo://app?vid=f9326eba-7f00-4763-9afb-c6eb7fa58937","ios":"levelo://app?vid=f9326eba-7f00-4763-9afb-c6eb7fa58937"},"vehicle_type_id":"4","last_reported":1727979102,"current_range_meters":23200,"station_id":"ce4bhi12rcd13ifvqfp0","pricing_plan_id":"cebpf4jnsgd1na2vs0mg"},{"bike_id":"6606facb-6ace-4bcb-b6a7-f4cddabbe7bf","system_id":"levelo_inurba_marseille","lat":43.25575,"lon":5.38241,"is_reserved":false,"is_disabled":false,"rental_uris":{"android":"levelo://app?vid=6606facb-6ace-4bcb-b6a7-f4cddabbe7bf","ios":"levelo://app?vid=6606facb-6ace-4bcb-b6a7-f4cddabbe7bf"},"vehicle_type_id":"4","last_reported":1727979102,"current_range_meters":16000,"station_id":"ce4bhih2rcd13ifvqfs0","pricing_plan_id":"cebpf4jnsgd1na2vs0mg"},{"bike_id":"2ce3680e-bce5-4e5a-8b7e-a4a896b7d4e1","system_id":"levelo_inurba_marseille","lat":43.26033,"lon":5.37547,"is_reserved":false,"is_disabled":false,"rental_uris":{"android":"levelo://app?vid=2ce3680e-bce5-4e5a-8b7e-a4a896b7d4e1","ios":"levelo://app?vid=2ce3680e-bce5-4e5a-8b7e-a4a896b7d4e1"},"vehicle_type_id":"4","last_reported":1727979102,"current_range_meters":39200,"station_id":"ce4bhgh2rcd13ifvqfa0","pricing_plan_id":"cebpf4jnsgd1na2vs0mg"},{"bike_id":"881d9190-454b-4770-88e6-f8998df7e219","system_id":"levelo_inurba_marseille","lat":43.29801,"lon":5.39346,"is_reserved":false,"is_disabled":false,"rental_uris":{"android":"levelo://app?vid=881d9190-454b-4770-88e6-f8998df7e219","ios":"levelo://app?vid=881d9190-454b-4770-88e6-f8998df7e219"},"vehicle_type_id":"4","last_reported":1727979102,"current_range_meters":16400,"station_id":"chh1huq6cuj3fo74tm60","pricing_plan_id":"cebpf4jnsgd1na2vs0mg"},{"bike_id":"24a9a6af-6def-4b45-b20d-e3e61b98bbd0","system_id":"levelo_inurba_marseille","lat":43.28408,"lon":5.35002,"is_reserved":false,"is_disabled":false,"rental_uris":{"android":"levelo://app?vid=24a9a6af-6def-4b45-b20d-e3e61b98bbd0","ios":"levelo://app?vid=24a9a6af-6def-4b45-b20d-e3e61b98bbd0"},"vehicle_type_id":"4","last_reported":1727979102,"current_range_meters":38800,"station_id":"ce4bhbh2rcd13ifvqepg","pricing_plan_id":"cebpf4jnsgd1na2vs0mg"},{"bike_id":"6be4cd55-6776-4ce0-8b6c-849f809545ed","system_id":"levelo_inurba_marseille","lat":43.29268,"lon":5.38449,"is_reserved":false,"is_disabled":false,"rental_uris":{"android":"levelo://app?vid=6be4cd55-6776-4ce0-8b6c-849f809545ed","ios":"levelo://app?vid=6be4cd55-6776-4ce0-8b6c-849f809545ed"},"vehicle_type_id":"4","last_reported":1727979102,"current_range_meters":6800,"station_id":"ce4bh692rcd13ifvqea0","pricing_plan_id":"cebpf4jnsgd1na2vs0mg"},{"bike_id":"3e9b378e-42a6-4c72-ac5b-bb66f4fba9f3","system_id":"levelo_inurba_marseille","lat":43.29301,"lon":5.3718,"is_reserved":false,"is_disabled":false,"rental_uris":{"android":"levelo://app?vid=3e9b378e-42a6-4c72-ac5b-bb66f4fba9f3","ios":"levelo://app?vid=3e9b378e-42a6-4c72-ac5b-bb66f4fba9f3"},"vehicle_type_id":"4","last_reported":1727979102,"current_range_meters":38000,"station_id":"ce4bgh92rcd13ifvqb40","pricing_plan_id":"cebpf4jnsgd1na2vs0mg"},{"bike_id":"4ab7e23f-3d29-4115-88e8-c075dcc08f8a","system_id":"levelo_inurba_marseille","lat":43.29968,"lon":5.38491,"is_reserved":false,"is_disabled":false,"rental_uris":{"android":"levelo://app?vid=4ab7e23f-3d29-4115-88e8-c075dcc08f8a","ios":"levelo://app?vid=4ab7e23f-3d29-4115-88e8-c075dcc08f8a"},"vehicle_type_id":"4","last_reported":1727979102,"current_range_meters":6800,"station_id":"ce4bgj92rcd13ifvqbd0","pricing_plan_id":"cebpf4jnsgd1na2vs0mg"},{"bike_id":"3edaa422-e0ce-4bbd-9bd1-15bb57f9ccec","system_id":"levelo_inurba_marseille","lat":43.2648,"lon":5.39552,"is_reserved":false,"is_disabled":false,"rental_uris":{"android":"levelo://app?vid=3edaa422-e0ce-4bbd-9bd1-15bb57f9ccec","ios":"levelo://app?vid=3edaa422-e0ce-4bbd-9bd1-15bb57f9ccec"},"vehicle_type_id":"4","last_reported":1727979102,"current_range_meters":38800,"station_id":"ce4bhi12rcd13ifvqfq0","pricing_plan_id":"cebpf4jnsgd1na2vs0mg"},{"bike_id":"b906dbe7-97bf-4c2c-b014-277b00d1fe0e","system_id":"levelo_inurba_marseille","lat":43.29296,"lon":5.37194,"is_reserved":false,"is_disabled":false,"rental_uris":{"android":"levelo://app?vid=b906dbe7-97bf-4c2c-b014-277b00d1fe0e","ios":"levelo://app?vid=b906dbe7-97bf-4c2c-b014-277b00d1fe0e"},"vehicle_type_id":"4","last_reported":1727979102,"current_range_meters":35600,"station_id":"ce4bgh92rcd13ifvqb40","pricing_plan_id":"cebpf4jnsgd1na2vs0mg"},{"bike_id":"f12a746f-6037-4519-ac8e-ee4d3886bd98","system_id":"levelo_inurba_marseille","lat":43.33021,"lon":5.39042,"is_reserved":false,"is_disabled":false,"rental_uris":{"android":"levelo://app?vid=f12a746f-6037-4519-ac8e-ee4d3886bd98","ios":"levelo://app?vid=f12a746f-6037-4519-ac8e-ee4d3886bd98"},"vehicle_type_id":"4","last_reported":1727979102,"current_range_meters":38800,"station_id":"ce4bhr92rcd13ifvqhrg","pricing_plan_id":"cebpf4jnsgd1na2vs0mg"},{"bike_id":"31d6ed83-400d-4643-bd0d-e84fee5b3938","system_id":"levelo_inurba_marseille","lat":43.32034,"lon":5.41549,"is_reserved":false,"is_disabled":false,"rental_uris":{"android":"levelo://app?vid=31d6ed83-400d-4643-bd0d-e84fee5b3938","ios":"levelo://app?vid=31d6ed83-400d-4643-bd0d-e84fee5b3938"},"vehicle_type_id":"4","last_reported":1727979102,"current_range_meters":16800,"station_id":"ce4bhq92rcd13ifvqhkg","pricing_plan_id":"cebpf4jnsgd1na2vs0mg"},{"bike_id":"433e284a-b88d-4fd2-b224-d61f4bb68cc2","system_id":"levelo_inurba_marseille","lat":43.25115,"lon":5.40323,"is_reserved":false,"is_disabled":false,"rental_uris":{"android":"levelo://app?vid=433e284a-b88d-4fd2-b224-d61f4bb68cc2","ios":"levelo://app?vid=433e284a-b88d-4fd2-b224-d61f4bb68cc2"},"vehicle_type_id":"4","last_reported":1727979102,"current_range_meters":9200,"station_id":"ce4bhlh2rcd13ifvqgig","pricing_plan_id":"cebpf4jnsgd1na2vs0mg"},{"bike_id":"5d82c145-cfb6-43ba-9466-e11f33bcfe6c","system_id":"levelo_inurba_marseille","lat":43.27174,"lon":5.40993,"is_reserved":false,"is_disabled":false,"rental_uris":{"android":"levelo://app?vid=5d82c145-cfb6-43ba-9466-e11f33bcfe6c","ios":"levelo://app?vid=5d82c145-cfb6-43ba-9466-e11f33bcfe6c"},"vehicle_type_id":"4","last_reported":1727979102,"current_range_meters":21600,"station_id":"ce4bhl12rcd13ifvqgf0","pricing_plan_id":"cebpf4jnsgd1na2vs0mg"},{"bike_id":"5f08fa4a-3e76-4bbe-94af-80267f19c31b","system_id":"levelo_inurba_marseille","lat":43.280334,"lon":5.369516,"is_reserved":false,"is_disabled":false,"rental_uris":{"android":"levelo://app?vid=5f08fa4a-3e76-4bbe-94af-80267f19c31b","ios":"levelo://app?vid=5f08fa4a-3e76-4bbe-94af-80267f19c31b"},"vehicle_type_id":"4","last_reported":1727979102,"current_range_meters":38800,"station_id":"ce4bha12rcd13ifvqef0","pricing_plan_id":"cebpf4jnsgd1na2vs0mg"},