{"last_updated":1748729348,"ttl":60,"version":"2.2","data":{"bikes":[{"bike_id":"f5efac96-4bf6-423d-96b0-0abb336d57e8","system_id":"levelo_inurba_marseille","lat":43.28437,"lon":5.39193,"is_reserved":false,"is_disabled":false,"rental_uris":{"android":"levelo://app?vid=f5efac96-4bf6-423d-96b0-0abb336d57e8","ios":"levelo://app?vid=f5efac96-4bf6-423d-96b0-0abb336d57e8"},"vehicle_type_id":"4","last_reported":1748729348,"current_range_meters":2800,"station_id":"","pricing_plan_id":"cebpf4jnsgd1na2vs0mg"},{"bike_id":"0d4954fc-c1df-4637-963d-4fb6b434c065","system_id":"levelo_inurba_marseille","lat":43.27978,"lon":5.38728,"is_reserved":false,"is_disabled":false,"rental_uris":{"android":"levelo://app?vid=0d4954fc-c1df-4637-963d-4fb6b434c065","ios":"levelo://app?vid=0d4954fc-c1df-4637-963d-4fb6b434c065"},"vehicle_type_id":"4","last_reported":1748729348,"current_range_meters":2800,"station_id":"ce4bhg12rcd13ifvqf80","pricing_plan_id":"cebpf4jnsgd1na2vs0mg"},{"bike_id":"a8611f9d-1966-4e62-a468-19cbb346249e","system_id":"levelo_inurba_marseille","lat":43.30342,"lon":5.39301,"is_reserved":false,"is_disabled":false,"rental_uris":{"android":"levelo://app?vid=a8611f9d-1966-4e62-a468-19cbb346249e","ios":"levelo://app?vid=a8611f9d-1966-4e62-a468-19cbb346249e"},"vehicle_type_id":"4","last_reported":1748729348,"current_range_meters":3200,"station_id":"","pricing_plan_id":"cebpf4jnsgd1na2vs0mg"},{"bike_id":"d28aeaad-f5f2-4c4f-a0cd-6b7231965959","system_id":"levelo_inurba_marseille","lat":43.32995,"lon":5.3927,"is_reserved":false,"is_disabled":true,"rental_uris":{"android":"levelo://app?vid=d28aeaad-f5f2-4c4f-a0cd-6b7231965959","ios":"levelo://app?vid=d28aeaad-f5f2-4c4f-a0cd-6b7231965959"},"vehicle_type_id":"4","last_reported":1748729348,"current_range_meters":3200,"station_id":"","pricing_plan_id":"cebpf4jnsgd1na2vs0mg"},{"bike_id":"d489b95b-baf7-436d-93aa-fcaf999b2c5f","system_id":"levelo_inurba_marseille","lat":43.30254,"lon":5.4005,"is_reserved":false,"is_disabled":false,"rental_uris":{"android":"levelo://app?vid=d489b95b-baf7-436d-93aa-fcaf999b2c5f","ios":"levelo://app?vid=d489b95b-baf7-436d-93aa-fcaf999b2c5f"},"vehicle_type_id":"4","last_reported":1748729348,"current_range_meters":3200,"station_id":"ce4bgvh2rcd13ifvqcs0","pricing_plan_id":"cebpf4jnsgd1na2vs0mg"},{"bike_id":"b462145f-7360-4f0c-865d-af8a03a3f096","system_id":"levelo_inurba_marseille","lat":43.27964,"lon":5.3869,"is_reserved":false,"is_disabled":false,"rental_uris":{"android":"levelo://app?vid=b462145f-7360-4f0c-865d-af8a03a3f096","ios":"levelo://app?vid=b462145f-7360-4f0c-865d-af8a03a3f096"},"vehicle_type_id":"4","last_reported":1748729348,"current_range_meters":1600,"station_id":"ce4bhg12rcd13ifvqf80","pricing_plan_id":"cebpf4jnsgd1na2vs0mg"},{"bike_id":"d524729b-9444-4417-8f13-350329e1bc98","system_id":"levelo_inurba_marseille","lat":43.29794,"lon":5.38092,"is_reserved":false,"is_disabled":false,"rental_uris":{"android":"levelo://app?vid=d524729b-9444-4417-8f13-350329e1bc98","ios":"levelo://app?vid=d524729b-9444-4417-8f13-350329e1bc98"},"vehicle_type_id":"4","last_reported":1748729348,"current_range_meters":3600,"station_id":"ce4bgip2rcd13ifvqbb0","pricing_plan_id":"cebpf4jnsgd1na2vs0mg"},{"bike_id":"fa9acd6d-2127-4e18-93e3-1917fe413853","system_id":"levelo_inurba_marseille","lat":43.336024,"lon":5.410371,"is_reserved":false,"is_disabled":false,"rental_uris":{"android":"levelo://app?vid=fa9acd6d-2127-4e18-93e3-1917fe413853","ios":"levelo://app?vid=fa9acd6d-2127-4e18-93e3-1917fe413853"},"vehicle_type_id":"4","last_reported":1748729348,"current_range_meters":3600,"station_id":"ce4bhqh2rcd13ifvqhmg","pricing_plan_id":"cebpf4jnsgd1na2vs0mg"},{"bike_id":"4ea9999a-521a-421b-8382-43785c8666dd","system_id":"levelo_inurba_marseille","lat":43.26551,"lon":5.4031,"is_reserved":false,"is_disabled":false,"rental_uris":{"android":"levelo://app?vid=4ea9999a-521a-421b-8382-43785c8666dd","ios":"levelo://app?vid=4ea9999a-521a-421b-8382-43785c8666dd"},"vehicle_type_id":"4","last_reported":1748729348,"current_range_meters":3600,"station_id":"","pricing_plan_id":"cebpf4jnsgd1na2vs0mg"},{"bike_id":"38e591c0-31ac-4d50-a3c2-129395f5d89b","system_id":"levelo_inurba_marseille","lat":43.28516,"lon":5.37368,"is_reserved":false,"is_disabled":false,"rental_uris":{"android":"levelo://app?vid=38e591c0-31ac-4d50-a3c2-129395f5d89b","ios":"levelo://app?vid=38e591c0-31ac-4d50-a3c2-129395f5d89b"},"vehicle_type_id":"4","last_reported":1748729348,"current_range_meters":3600,"station_id":"","pricing_plan_id":"cebpf4jnsgd1na2vs0mg"},{"bike_id":"70a29137-3ba1-4ff4-84bb-3a7f964a05e8","system_id":"levelo_inurba_marseille","lat":43.30017,"lon":5.36357,"is_reserved":false,"is_disabled":false,"rental_uris":{"android":"levelo://app?vid=70a29137-3ba1-4ff4-84bb-3a7f964a05e8","ios":"levelo://app?vid=70a29137-3ba1-4ff4-84bb-3a7f964a05e8"},"vehicle_type_id":"4","last_reported":1748729348,"current_range_meters":4000,"station_id":"","pricing_plan_id":"cebpf4jnsgd1na2vs0mg"},{"bike_id":"445ad2b2-63ac-477d-ac8f-807b0b9bf350","system_id":"levelo_inurba_marseille","lat":43.292,"lon":5.39323,"is_reserved":false,"is_disabled":false,"rental_uris":{"android":"levelo://app?vid=445ad2b2-63ac-477d-ac8f-807b0b9bf350","ios":"levelo://app?vid=445ad2b2-63ac-477d-ac8f-807b0b9bf350"},"vehicle_type_id":"4","last_reported":1748729348,"current_range_meters":4000,"station_id":"ce4bh192rcd13ifvqdd0","pricing_plan_id":"cebpf4jnsgd1na2vs0mg"},{"bike_id":"cd9b5d56-bc14-4ba3-9e90-e341071460df","system_id":"levelo_inurba_marseille","lat":43.23191,"lon":5.35551,"is_reserved":false,"is_disabled":false,"rental_uris":{"android":"levelo://app?vid=cd9b5d56-bc14-4ba3-9e90-e341071460df","ios":"levelo://app?vid=cd9b5d56-bc14-4ba3-9e90-e341071460df"},"vehicle_type_id":"4","last_reported":1748729348,"current_range_meters":4400,"station_id":"ce4bhu92rcd13ifvqi70","pricing_plan_id":"cebpf4jnsgd1na2vs0mg"},{"bike_id":"33fe8c32-4b15-472a-9bf7-124687146537","system_id":"levelo_inurba_marseille","lat":43.32844,"lon":5.40562,"is_reserved":false,"is_disabled":false,"rental_uris":{"android":"levelo://app?vid=33fe8c32-4b15-472a-9bf7-124687146537","ios":"levelo://app?vid=33fe8c32-4b15-472a-9bf7-124687146537"},"vehicle_type_id":"4","last_reported":1748729348,"current_range_meters":4800,"station_id":"","pricing_plan_id":"cebpf4jnsgd1na2vs0mg"},{"bike_id":"e08641d7-f032-4280-be4e-a580e06d508e","system_id":"levelo_inurba_marseille","lat":43.25919,"lon":5.40895,"is_reserved":false,"is_disabled":false,"rental_uris":{"android":"levelo://app?vid=e08641d7-f032-4280-be4e-a580e06d508e","ios":"levelo://app?vid=e08641d7-f032-4280-be4e-a580e06d508e"},"vehicle_type_id":"4","last_reported":1748729348,"current_range_meters":4800,"station_id":"ce4bhm92rcd13ifvqglg","pricing_plan_id":"cebpf4jnsgd1na2vs0mg"},{"bike_id":"c285d9b4-ea52-40e4-b58c-5b14f7910b11","system_id":"levelo_inurba_marseille","lat":43.2623,"lon":5.4042,"is_reserved":false,"is_disabled":false,"rental_uris":{"android":"levelo://app?vid=c285d9b4-ea52-40e4-b58c-5b14f7910b11","ios":"levelo://app?vid=c285d9b4-ea52-40e4-b58c-5b14f7910b11"},"vehicle_type_id":"4","last_reported":1748729348,"current_range_meters":4800,"station_id":"ce4bhmh2rcd13ifvqgmg","pricing_plan_id":"cebpf4jnsgd1na2vs0mg"},{"bike_id":"f695563d-118d-4e81-a2a2-7860aa4e9247","system_id":"levelo_inurba_marseille","lat":43.2956,"lon":5.38515,"is_reserved":false,"is_disabled":false,"rental_uris":{"android":"levelo://app?vid=f695563d-118d-4e81-a2a2-7860aa4e9247","ios":"levelo://app?vid=f695563d-118d-4e81-a2a2-7860aa4e9247"},"vehicle_type_id":"4","last_reported":1748729348,"current_range_meters":4800,"station_id":"ce4bgih2rcd13ifvqba0","pricing_plan_id":"cebpf4jnsgd1na2vs0mg"},{"bike_id":"259e8792-c849-4f0b-83cf-75c76ef32e6a","system_id":"levelo_inurba_marseille","lat":43.29351,"lon":5.37862,"is_reserved":false,"is_disabled":false,"rental_uris":{"android":"levelo://app?vid=259e8792-c849-4f0b-83cf-75c76ef32e6a","ios":"levelo://app?vid=259e8792-c849-4f0b-83cf-75c76ef32e6a"},"vehicle_type_id":"4","last_reported":1748729348,"current_range_meters":4800,"station_id":"ce4bgjh2rcd13ifvqbf0","pricing_plan_id":"cebpf4jnsgd1na2vs0mg"},{"bike_id":"cd3e4917-06a7-458b-8cbe-279ef741a3a8","system_id":"levelo_inurba_marseille","lat":43.23148,"lon":5.43678,"is_reserved":false,"is_disabled":false,"rental_uris":{"android":"levelo://app?vid=cd3e4917-06a7-458b-8cbe-279ef741a3a8","ios":"levelo://app?vid=cd3e4917-06a7-458b-8cbe-279ef741a3a8"},"vehicle_type_id":"4","last_reported":1748729348,"current_range_meters":4800,"station_id":"ce4bhmp2rcd13ifvqgog","pricing_plan_id":"cebpf4jnsgd1na2vs0mg"},{"bike_id":"165a59df-bd4e-4a6b-ae2a-a9e7f2ea8ce2","system_id":"levelo_inurba_marseille","lat":43.29491,"lon":5.38602,"is_reserved":false,"is_disabled":false,"rental_uris":{"android":"levelo://app?vid=165a59df-bd4e-4a6b-ae2a-a9e7f2ea8ce2","ios":"levelo://app?vid=165a59df-bd4e-4a6b-ae2a-a9e7f2ea8ce2"},"vehicle_type_id":"4","last_reported":1748729348,"current_range_meters":4800,"station_id":"","pricing_plan_id":"cebpf4jnsgd1na2vs0mg"},{"bike_id":"feda6063-fdb5-47b0-af22-17ac6468941b","system_id":"levelo_inurba_marseille","lat":43.304227,"lon":5.388733,"is_reserved":false,"is_disabled":false,"rental_uris":{"android":"levelo://app?vid=feda6063-fdb5-47b0-af22-17ac6468941b","ios":"levelo://app?vid=feda6063-fdb5-47b0-af22-17ac6468941b"},"vehicle_type_id":"4","last_reported":1748729348,"current_range_meters":5600,"station_id":"ce4bgk12rcd13ifvqbi0","pricing_plan_id":"cebpf4jnsgd1na2vs0mg"},{"bike_id":"3feffd94-b1f8-4904-a4cf-e5629abe4092","system_id":"levelo_inurba_marseille","lat":43.25931,"lon":5.40914,"is_reserved":false,"is_disabled":false,"rental_uris":{"android":"levelo://app?vid=3feffd94-b1f8-4904-a4cf-e5629abe4092","ios":"levelo://app?vid=3feffd94-b1f8-4904-a4cf-e5629abe4092"},"vehicle_type_id":"4","last_reported":1748729348,"current_range_meters":5600,"station_id":"ce4bhm92rcd13ifvqglg","pricing_plan_id":"cebpf4jnsgd1na2vs0mg"},{"bike_id":"c4531434-2831-4c97-85ef-68ec19799398","system_id":"levelo_inurba_marseille","lat":43.24368,"lon":5.41164,"is_reserved":false,"is_disabled":false,"rental_uris":{"android":"levelo://app?vid=c4531434-2831-4c97-85ef-68ec19799398","ios":"levelo://app?vid=c4531434-2831-4c97-85ef-68ec19799398"},"vehicle_type_id":"4","last_reported":1748729348,"current_range_meters":5600,"station_id":"","pricing_plan_id":"cebpf4jnsgd1na2vs0mg"},{"bike_id":"a92e05e1-4b38-44a3-b6b4-eb562920f482","system_id":"levelo_inurba_marseille","lat":43.21482,"lon":5.34803,"is_reserved":false,"is_disabled":false,"rental_uris":{"android":"levelo://app?vid=a92e05e1-4b38-44a3-b6b4-eb562920f482","ios":"levelo://app?vid=a92e05e1-4b38-44a3-b6b4-eb562920f482"},"vehicle_type_id":"4","last_reported":1748729348,"current_range_meters":6000,"station_id":"","pricing_plan_id":"cebpf4jnsgd1na2vs0mg"},{"bike_id":"57dddae9-4ffa-4ba9-a0d7-218e0635242f","system_id":"levelo_inurba_marseille","lat":43.27539,"lon":5.38408,"is_reserved":false,"is_disabled":false,"rental_uris":{"android":"levelo://app?vid=57dddae9-4ffa-4ba9-a0d7-218e0635242f","ios":"levelo://app?vid=57dddae9-4ffa-4ba9-a0d7-218e0635242f"},"vehicle_type_id":"4","last_reported":1748729348,"current_range_meters":6000,"station_id":"ce4bhh92rcd13ifvqfi0","pricing_plan_id":"cebpf4jnsgd1na2vs0mg"},{"bike_id":"3f7c4183-36d7-4198-8980-c9e43d1d9c2b","system_id":"levelo_inurba_marseille","lat":43.2827,"lon":5.35056,"is_reserved":false,"is_disabled":false,"rental_uris":{"android":"levelo://app?vid=3f7c4183-36d7-4198-8980-c9e43d1d9c2b","ios":"levelo://app?vid=3f7c4183-36d7-4198-8980-c9e43d1d9c2b"},"vehicle_type_id":"4","last_reported":1748729348,"current_range_meters":6400,"station_id":"ce4bhbp2rcd13ifvqerg","pricing_plan_id":"cebpf4jnsgd1na2vs0mg"},{"bike_id":"0322e26d-de84-4884-bcfe-0318b7b30bc0","system_id":"levelo_inurba_marseille","lat":43.21181,"lon":5.35103,"is_reserved":false,"is_disabled":false,"rental_uris":{"android":"levelo://app?vid=0322e26d-de84-4884-bcfe-0318b7b30bc0","ios":"levelo://app?vid=0322e26d-de84-4884-bcfe-0318b7b30bc0"},"vehicle_type_id":"4","last_reported":1748729348,"current_range_meters":6400,"station_id":"","pricing_plan_id":"cebpf4jnsgd1na2vs0mg"},{"bike_id":"1794fd79-fa9b-4f8e-8e1c-c5c1b94d43dc","system_id":"levelo_inurba_marseille","lat":43.28031,"lon":5.38235,"is_reserved":false,"is_disabled":false,"rental_uris":{"android":"levelo://app?vid=1794fd79-fa9b-4f8e-8e1c-c5c1b94d43dc","ios":"levelo://app?vid=1794fd79-fa9b-4f8e-8e1c-c5c1b94d43dc"},"vehicle_type_id":"4","last_reported":1748729348,"current_range_meters":6400,"station_id":"","pricing_plan_id":"cebpf4jnsgd1na2vs0mg"},{"bike_id":"7744b0bc-9255-402e-8dd0-6b3090927fb9","system_id":"levelo_inurba_marseille","lat":43.26964,"lon":5.40295,"is_reserved":false,"is_disabled":true,"rental_uris":{"android":"levelo://app?vid=7744b0bc-9255-402e-8dd0-6b3090927fb9","ios":"levelo://app?vid=7744b0bc-9255-402e-8dd0-6b3090927fb9"},"vehicle_type_id":"4","last_reported":1748729348,"current_range_meters":6800,"station_id":"cjm6bp8fraef2m0cb0m0","pricing_plan_id":"cebpf4jnsgd1na2vs0mg"},{"bike_id":"414f50f9-4176-475f-adf2-0466f70c8059","system_id":"levelo_inurba_marseille","lat":43.2593,"lon":5.40899,"is_reserved":false,"is_disabled":false,"rental_uris":{"android":"levelo://app?vid=414f50f9-4176-475f-adf2-0466f70c8059","ios":"levelo://app?vid=414f50f9-4176-475f-adf2-0466f70c8059"},"vehicle_type_id":"4","last_reported":1748729348,"current_range_meters":6800,"station_id":"ce4bhm92rcd13ifvqglg","pricing_plan_id":"cebpf4jnsgd1na2vs0mg"},{"bike_id":"3f7e2c8c-4046-42da-9470-1c720872b0e1","system_id":"levelo_inurba_marseille","lat":43.26213,"lon":5.40473,"is_reserved":false,"is_disabled":false,"rental_uris":{"android":"levelo://app?vid=3f7e2c8c-4046-42da-9470-1c720872b0e1","ios":"levelo://app?vid=3f7e2c8c-4046-42da-9470-1c720872b0e1"},"vehicle_type_id":"4","last_reported":1748729348,"current_range_meters":6800,"station_id":"ce4bhmh2rcd13ifvqgmg","pricing_plan_id":"cebpf4jnsgd1na2vs0mg"},{"bike_id":"faab4233-1ef8-41f6-aac9-4d69f934dcd7","system_id":"levelo_inurba_marseille","lat":43.29786,"lon":5.39338,"is_reserved":false,"is_disabled":false,"rental_uris":{"android":"levelo://app?vid=faab4233-1ef8-41f6-aac9-4d69f934dcd7","ios":"levelo://app?vid=faab4233-1ef8-41f6-aac9-4d69f934dcd7"},"vehicle_type_id":"4","last_reported":1748729348,"current_range_meters":6800,"station_id":"chh1huq6cuj3fo74tm60","pricing_plan_id":"cebpf4jnsgd1na2vs0mg"},{"bike_id":"e372cd62-3f54-4399-8b54-ee30195f8351","system_id":"levelo_inurba_marseille","lat":43.26218,"lon":5.40407,"is_reserved":false,"is_disabled":false,"rental_uris":{"android":"levelo://app?vid=e372cd62-3f54-4399-8b54-ee30195f8351","ios":"levelo://app?vid=e372cd62-3f54-4399-8b54-ee30195f8351"},"vehicle_type_id":"4","last_reported":1748729348,"current_range_meters":6800,"station_id":"ce4bhmh2rcd13ifvqgmg","pricing_plan_id":"cebpf4jnsgd1na2vs0mg"},{"bike_id":"2e5d65dc-7b75-4e49-9e17-db185fe11321","system_id":"levelo_inurba_marseille","lat":43.312098,"lon":5.368788,"is_reserved":false,"is_disabled":true,"rental_uris":{"android":"levelo://app?vid=2e5d65dc-7b75-4e49-9e17-db185fe11321","ios":"levelo://app?vid=2e5d65dc-7b75-4e49-9e17-db185fe11321"},"vehicle_type_id":"4","last_reported":1748729348,"current_range_meters":6800,"station_id":"ce4bgl92rcd13ifvqbq0","pricing_plan_id":"cebpf4jnsgd1na2vs0mg"},{"bike_id":"09108291-f746-43a0-9cbc-59f042c58243","system_id":"levelo_inurba_marseille","lat":43.298138,"lon":5.377868,"is_reserved":false,"is_disabled":false,"rental_uris":{"android":"levelo://app?vid=09108291-f746-43a0-9cbc-59f042c58243","ios":"levelo://app?vid=09108291-f746-43a0-9cbc-59f042c58243"},"vehicle_type_id":"4","last_reported":1748729348,"current_range_meters":6800,"station_id":"","pricing_plan_id":"cebpf4jnsgd1na2vs0mg"},{"bike_id":"780110d7-56b0-46f4-9c98-95dc54740b50","system_id":"levelo_inurba_marseille","lat":43.30919,"lon":5.40143,"is_reserved":false,"is_disabled":true,"rental_uris":{"android":"levelo://app?vid=780110d7-56b0-46f4-9c98-95dc54740b50","ios":"levelo://app?vid=780110d7-56b0-46f4-9c98-95dc54740b50"},"vehicle_type_id":"4","last_reported":1748729348,"current_range_meters":6800,"station_id":"ce4bgvp2rcd13ifvqct0","pricing_plan_id":"cebpf4jnsgd1na2vs0mg"},{"bike_id":"91c737c9-942a-40b1-8073-cc1be40e313b","system_id":"levelo_inurba_marseille","lat":43.24181,"lon":5.39728,"is_reserved":false,"is_disabled":false,"rental_uris":{"android":"levelo://app?vid=91c737c9-942a-40b1-8073-cc1be40e313b","ios":"levelo://app?vid=91c737c9-942a-40b1-8073-cc1be40e313b"},"vehicle_type_id":"4","last_reported":1748729348,"current_range_meters":6800,"station_id":"ce4bhn12rcd13ifvqgpg","pricing_plan_id":"cebpf4jnsgd1na2vs0mg"},{"bike_id":"391f01da-bda5-42cb-847e-5bd541a160b5","system_id":"levelo_inurba_marseille","lat":43.27381,"lon":5.36263,"is_reserved":false,"is_disabled":true,"rental_uris":{"android":"levelo://app?vid=391f01da-bda5-42cb-847e-5bd541a160b5","ios":"levelo://app?vid=391f01da-bda5-42cb-847e-5bd541a160b5"},"vehicle_type_id":"4","last_reported":1748729348,"current_range_meters":7200,"station_id":"ce4bhbh2rcd13ifvqeo0","pricing_plan_id":"cebpf4jnsgd1na2vs0mg"},{"bike_id":"f6c18757-42cd-40e6-82c2-99bf51f27297","system_id":"levelo_inurba_marseille","lat":43.217667,"lon":5.345733,"is_reserved":false,"is_disabled":true,"rental_uris":{"android":"levelo://app?vid=f6c18757-42cd-40e6-82c2-99bf51f27297","ios":"levelo://app?vid=f6c18757-42cd-40e6-82c2-99bf51f27297"},"vehicle_type_id":"4","last_reported":1748729348,"current_range_meters":7200,"station_id":"st_cvj6r9ubvosntc0bgbag","pricing_plan_id":"cebpf4jnsgd1na2vs0mg"},{"bike_id":"9ece2d87-1e12-43c1-9b96-939322e4f6ec","system_id":"levelo_inurba_marseille","lat":43.292289,"lon":5.360507,"is_reserved":false,"is_disabled":false,"rental_uris":{"android":"levelo://app?vid=9ece2d87-1e12-43c1-9b96-939322e4f6ec","ios":"levelo://app?vid=9ece2d87-1e12-43c1-9b96-939322e4f6ec"},"vehicle_type_id":"4","last_reported":1748729348,"current_range_meters":7200,"station_id":"ce4bhbh2rcd13ifvqeqg","pricing_plan_id":"cebpf4jnsgd1na2vs0mg"},{"bike_id":"373fc72b-6ab6-4cbe-8ba6-65afbe14f6b7","system_id":"levelo_inurba_marseille","lat":43.26224,"lon":5.40443,"is_reserved":false,"is_disabled":false,"rental_uris":{"android":"levelo://app?vid=373fc72b-6ab6-4cbe-8ba6-65afbe14f6b7","ios":"levelo://app?vid=373fc72b-6ab6-4cbe-8ba6-65afbe14f6b7"},"vehicle_type_id":"4","last_reported":1748729348,"current_range_meters":7200,"station_id":"ce4bhmh2rcd13ifvqgmg","pricing_plan_id":"cebpf4jnsgd1na2vs0mg"},{"bike_id":"243f33f7-d4f2-40c2-8256-b8083e3c6f1c","system_id":"levelo_inurba_marseille","lat":43.29201,"lon":5.39319,"is_reserved":false,"is_disabled":false,"rental_uris":{"android":"levelo://app?vid=243f33f7-d4f2-40c2-8256-b8083e3c6f1c","ios":"levelo://app?vid=243f33f7-d4f2-40c2-8256-b8083e3c6f1c"},"vehicle_type_id":"4","last_reported":1748729348,"current_range_meters":7200,"station_id":"ce4bh192rcd13ifvqdd0","pricing_plan_id":"cebpf4jnsgd1na2vs0mg"},{"bike_id":"0a1fde1f-17e7-4d4c-a357-fb0c7572573b","system_id":"levelo_inurba_marseille","lat":43.27993,"lon":5.41666,"is_reserved":false,"is_disabled":false,"rental_uris":{"android":"levelo://app?vid=0a1fde1f-17e7-4d4c-a357-fb0c7572573b","ios":"levelo://app?vid=0a1fde1f-17e7-4d4c-a357-fb0c7572573b"},"vehicle_type_id":"4","last_reported":1748729348,"current_range_meters":7200,"station_id":"ce4bho12rcd13ifvqh1g","pricing_plan_id":"cebpf4jnsgd1na2vs0mg"},{"bike_id":"ea1f019a-11dc-43d8-9095-9a5b356bf87d","system_id":"levelo_inurba_marseille","lat":43.26228,"lon":5.40443,"is_reserved":false,"is_disabled":false,"rental_uris":{"android":"levelo://app?vid=ea1f019a-11dc-43d8-9095-9a5b356bf87d","ios":"levelo://app?vid=ea1f019a-11dc-43d8-9095-9a5b356bf87d"},"vehicle_type_id":"4","last_reported":1748729348,"current_range_meters":7200,"station_id":"ce4bhmh2rcd13ifvqgmg","pricing_plan_id":"cebpf4jnsgd1na2vs0mg"},{"bike_id":"f2a9d16c-47c0-4612-8bf1-88597c5b6853","system_id":"levelo_inurba_marseille","lat":43.29876,"lon":5.37528,"is_reserved":false,"is_disabled":false,"rental_uris":{"android":"levelo://app?vid=f2a9d16c-47c0-4612-8bf1-88597c5b6853","ios":"levelo://app?vid=f2a9d16c-47c0-4612-8bf1-88597c5b6853"},"vehicle_type_id":"4","last_reported":1748729348,"current_range_meters":7200,"station_id":"","pricing_plan_id":"cebpf4jnsgd1na2vs0mg"},{"bike_id":"12a0baac-0b13-468e-a2b2-bdc7511afcaa","system_id":"levelo_inurba_marseille","lat":43.27056,"lon":5.40287,"is_reserved":false,"is_disabled":false,"rental_uris":{"android":"levelo://app?vid=12a0baac-0b13-468e-a2b2-bdc7511afcaa","ios":"levelo://app?vid=12a0baac-0b13-468e-a2b2-bdc7511afcaa"},"vehicle_type_id":"4","last_reported":1748729348,"current_range_meters":8000,"station_id":"ce4bhk92rcd13ifvqgc0","pricing_plan_id":"cebpf4jnsgd1na2vs0mg"},{"bike_id":"deae5cc8-ff1b-4a09-bf1d-704d7d813dbc","system_id":"levelo_inurba_marseille","lat":43.295317,"lon":5.394017,"is_reserved":false,"is_disabled":false,"rental_uris":{"android":"levelo://app?vid=deae5cc8-ff1b-4a09-bf1d-704d7d813dbc","ios":"levelo://app?vid=deae5cc8-ff1b-4a09-bf1d-704d7d813dbc"},"vehicle_type_id":"4","last_reported":1748729348,"current_range_meters":8000,"station_id":"ce4bh292rcd13ifvqdf0","pricing_plan_id":"cebpf4jnsgd1na2vs0mg"},{"bike_id":"4587c898-1014-4728-ba58-926f5211c4f4","system_id":"levelo_inurba_marseille","lat":43.2793,"lon":5.41026,"is_reserved":false,"is_disabled":false,"rental_uris":{"android":"levelo://app?vid=4587c898-1014-4728-ba58-926f5211c4f4","ios":"levelo://app?vid=4587c898-1014-4728-ba58-926f5211c4f4"},"vehicle_type_id":"4","last_reported":1748729348,"current_range_meters":8000,"station_id":"ce4bhnp2rcd13ifvqh0g","pricing_plan_id":"cebpf4jnsgd1na2vs0mg"},{"bike_id":"8b9b6455-f705-477c-b3bc-36b00650ea20","system_id":"levelo_inurba_marseille","lat":43.251135,"lon":5.40315,"is_reserved":false,"is_disabled":false,"rental_uris":{"android":"levelo://app?vid=8b9b6455-f705-477c-b3bc-36b00650ea20","ios":"levelo://app?vid=8b9b6455-f705-477c-b3bc-36b00650ea20"},"vehicle_type_id":"4","last_reported":1748729348,"current_range_meters":8000,"station_id":"ce4bhlh2rcd13ifvqgig","pricing_plan_id":"cebpf4jnsgd1na2vs0mg"},{"bike_id":"100e4f4d-4d09-404a-baf4-bfcecad14242","system_id":"levelo_inurba_marseille","lat":43.24543,"lon":5.39519,"is_reserved":false,"is_disabled":false,"rental_uris":{"android":"levelo://app?vid=100e4f4d-4d09-404a-baf4-bfcecad14242","ios":"levelo://app?vid=100e4f4d-4d09-404a-baf4-bfcecad14242"},"vehicle_type_id":"4","last_reported":1748729348,"current_range_meters":8000,"station_id":"ce4bhlp2rcd13ifvqgjg","pricing_plan_id":"cebpf4jnsgd1na2vs0mg"},{"bike_id":"7fff8cf9-ce40-478f-b5a6-e2d40df87fa7","system_id":"levelo_inurba_marseille","lat":43.309,"lon":5.37177,"is_reserved":false,"is_disabled":false,"rental_uris":{"android":"levelo://app?vid=7fff8cf9-ce40-478f-b5a6-e2d40df87fa7","ios":"levelo://app?vid=7fff8cf9-ce40-478f-b5a6-e2d40df87fa7"},"vehicle_type_id":"4","last_reported":1748729348,"current_range_meters":8400,"station_id":"ce4bguh2rcd13ifvqckg","pricing_plan_id":"cebpf4jnsgd1na2vs0mg"},{"bike_id":"dbe840bf-1d84-4bbd-8325-d8274364c3b8","system_id":"levelo_inurba_marseille","lat":43.28666,"lon":5.36354,"is_reserved":false,"is_disabled":false,"rental_uris":{"android":"levelo://app?vid=dbe840bf-1d84-4bbd-8325-d8274364c3b8","ios":"levelo://app?vid=dbe840bf-1d84-4bbd-8325-d8274364c3b8"},"vehicle_type_id":"4","last_reported":1748729348,"current_range_meters":8400,"station_id":"ce4bhah2rcd13ifvqej0","pricing_plan_id":"cebpf4jnsgd1na2vs0mg"},{"bike_id":"742ea022-7ec3-403b-ab76-b027020c7592","system_id":"levelo_inurba_marseille","lat":43.32284,"lon":5.3828,"is_reserved":false,"is_disabled":false,"rental_uris":{"android":"levelo://app?vid=742ea022-7ec3-403b-ab76-b027020c7592","ios":"levelo://app?vid=742ea022-7ec3-403b-ab76-b027020c7592"},"vehicle_type_id":"4","last_reported":1748729348,"current_range_meters":8400,"station_id":"ce4bhr12rcd13ifvqhqg","pricing_plan_id":"cebpf4jnsgd1na2vs0mg"},{"bike_id":"eb2ffc11-4495-48df-970b-28f9046e83ea","system_id":"levelo_inurba_marseille","lat":43.30643,"lon":5.401,"is_reserved":false,"is_disabled":false,"rental_uris":{"android":"levelo://app?vid=eb2ffc11-4495-48df-970b-28f9046e83ea","ios":"levelo://app?vid=eb2ffc11-4495-48df-970b-28f9046e83ea"},"vehicle_type_id":"4","last_reported":1748729348,"current_range_meters":8400,"station_id":"ce4bh112rcd13ifvqda0","pricing_plan_id":"cebpf4jnsgd1na2vs0mg"},{"bike_id":"31a61cb8-5f25-41af-8f72-1a293c54b73e","system_id":"levelo_inurba_marseille","lat":43.31059,"lon":5.38354,"is_reserved":false,"is_disabled":false,"rental_uris":{"android":"levelo://app?vid=31a61cb8-5f25-41af-8f72-1a293c54b73e","ios":"levelo://app?vid=31a61cb8-5f25-41af-8f72-1a293c54b73e"},"vehicle_type_id":"4","last_reported":1748729348,"current_range_meters":8400,"station_id":"ce4bgv92rcd13ifvqcr0","pricing_plan_id":"cebpf4jnsgd1na2vs0mg"},{"bike_id":"2b201de7-06ee-44b6-9c85-dda11376754f","system_id":"levelo_inurba_marseille","lat":43.24362,"lon":5.38019,"is_reserved":false,"is_disabled":false,"rental_uris":{"android":"levelo://app?vid=2b201de7-06ee-44b6-9c85-dda11376754f","ios":"levelo://app?vid=2b201de7-06ee-44b6-9c85-dda11376754f"},"vehicle_type_id":"4","last_reported":1748729348,"current_range_meters":8400,"station_id":"","pricing_plan_id":"cebpf4jnsgd1na2vs0mg"},{"bike_id":"e62a208c-23d3-4f22-bdab-aa660ac5353a","system_id":"levelo_inurba_marseille","lat":43.26194,"lon":5.37922,"is_reserved":false,"is_disabled":false,"rental_uris":{"android":"levelo://app?vid=e62a208c-23d3-4f22-bdab-aa660ac5353a","ios":"levelo://app?vid=e62a208c-23d3-4f22-bdab-aa660ac5353a"},"vehicle_type_id":"4","last_reported":1748729348,"current_range_meters":8400,"station_id":"ce4bhjp2rcd13ifvqg90","pricing_plan_id":"cebpf4jnsgd1na2vs0mg"},{"bike_id":"a14d8e40-c994-4f1c-b643-8a3b58a2eb79","system_id":"levelo_inurba_marseille","lat":43.29262,"lon":5.38209,"is_reserved":false,"is_disabled":false,"rental_uris":{"android":"levelo://app?vid=a14d8e40-c994-4f1c-b643-8a3b58a2eb79","ios":"levelo://app?vid=a14d8e40-c994-4f1c-b643-8a3b58a2eb79"},"vehicle_type_id":"4","last_reported":1748729348,"current_range_meters":8400,"station_id":"","pricing_plan_id":"cebpf4jnsgd1na2vs0mg"},{"bike_id":"c2f614f3-a1d8-4053-918c-d3522e674379","system_id":"levelo_inurba_marseille","lat":43.25094,"lon":5.40329,"is_reserved":false,"is_disabled":false,"rental_uris":{"android":"levelo://app?vid=c2f614f3-a1d8-4053-918c-d3522e674379","ios":"levelo://app?vid=c2f614f3-a1d8-4053-918c-d3522e674379"},"vehicle_type_id":"4","last_reported":1748729348,"current_range_meters":8400,"station_id":"ce4bhlh2rcd13ifvqgig","pricing_plan_id":"cebpf4jnsgd1na2vs0mg"},{"bike_id":"70f70429-b3a4-4bd4-900e-7624fcef71b2","system_id":"levelo_inurba_marseille","lat":43.31495,"lon":5.38875,"is_reserved":false,"is_disabled":false,"rental_uris":{"android":"levelo://app?vid=70f70429-b3a4-4bd4-900e-7624fcef71b2","ios":"levelo://app?vid=70f70429-b3a4-4bd4-900e-7624fcef71b2"},"vehicle_type_id":"4","last_reported":1748729348,"current_range_meters":8800,"station_id":"","pricing_plan_id":"cebpf4jnsgd1na2vs0mg"},{"bike_id":"8d48119e-760e-4c00-b401-59af0a322afa","system_id":"levelo_inurba_marseille","lat":43.25702,"lon":5.40885,"is_reserved":false,"is_disabled":false,"rental_uris":{"android":"levelo://app?vid=8d48119e-760e-4c00-b401-59af0a322afa","ios":"levelo://app?vid=8d48119e-760e-4c00-b401-59af0a322afa"},"vehicle_type_id":"4","last_reported":1748729348,"current_range_meters":8800,"station_id":"","pricing_plan_id":"cebpf4jnsgd1na2vs0mg"},{"bike_id":"4d03b0cc-339f-4848-b1df-32216ae8e461","system_id":"levelo_inurba_marseille","lat":43.31501,"lon":5.37291,"is_reserved":false,"is_disabled":false,"rental_uris":{"android":"levelo://app?vid=4d03b0cc-339f-4848-b1df-32216ae8e461","ios":"levelo://app?vid=4d03b0cc-339f-4848-b1df-32216ae8e461"},"vehicle_type_id":"4","last_reported":1748729348,"current_range_meters":8800,"station_id":"ce4bgt12rcd13ifvqcd0","pricing_plan_id":"cebpf4jnsgd1na2vs0mg"},{"bike_id":"2a3251b9-f92b-44cb-9281-bfa58e538996","system_id":"levelo_inurba_marseille","lat":43.31502,"lon":5.37283,"is_reserved":false,"is_disabled":false,"rental_uris":{"android":"levelo://app?vid=2a3251b9-f92b-44cb-9281-bfa58e538996","ios":"levelo://app?vid=2a3251b9-f92b-44cb-9281-bfa58e538996"},"vehicle_type_id":"4","last_reported":1748729348,"current_range_meters":8800,"station_id":"ce4bgt12rcd13ifvqcd0","pricing_plan_id":"cebpf4jnsgd1na2vs0mg"},{"bike_id":"21427009-46ed-449e-ad95-77b8cc6ed0d8","system_id":"levelo_inurba_marseille","lat":43.29621,"lon":5.37715,"is_reserved":false,"is_disabled":false,"rental_uris":{"android":"levelo://app?vid=21427009-46ed-449e-ad95-77b8cc6ed0d8","ios":"levelo://app?vid=21427009-46ed-449e-ad95-77b8cc6ed0d8"},"vehicle_type_id":"4","last_reported":1748729348,"current_range_meters":9200,"station_id":"ce4bgi92rcd13ifvqb90","pricing_plan_id":"cebpf4jnsgd1na2vs0mg"},{"bike_id":"323f9c2d-efe6-489c-9ffb-9983af554ea0","system_id":"levelo_inurba_marseille","lat":43.30088,"lon":5.39094,"is_reserved":false,"is_disabled":false,"rental_uris":{"android":"levelo://app?vid=323f9c2d-efe6-489c-9ffb-9983af554ea0","ios":"levelo://app?vid=323f9c2d-efe6-489c-9ffb-9983af554ea0"},"vehicle_type_id":"4","last_reported":1748729348,"current_range_meters":9200,"station_id":"ce4bh192rcd13ifvqdb0","pricing_plan_id":"cebpf4jnsgd1na2vs0mg"},{"bike_id":"99cffa26-ddd6-45a9-9168-258fe14b07cc","system_id":"levelo_inurba_marseille","lat":43.28856,"lon":5.35857,"is_reserved":false,"is_disabled":false,"rental_uris":{"android":"levelo://app?vid=99cffa26-ddd6-45a9-9168-258fe14b07cc","ios":"levelo://app?vid=99cffa26-ddd6-45a9-9168-258fe14b07cc"},"vehicle_type_id":"4","last_reported":1748729348,"current_range_meters":9200,"station_id":"ce4bhb12rcd13ifvqem0","pricing_plan_id":"cebpf4jnsgd1na2vs0mg"},{"bike_id":"23a8f3c4-21a6-46df-a7da-136674bed0a1","system_id":"levelo_inurba_marseille","lat":43.27806,"lon":5.40696,"is_reserved":false,"is_disabled":false,"rental_uris":{"android":"levelo://app?vid=23a8f3c4-21a6-46df-a7da-136674bed0a1","ios":"levelo://app?vid=23a8f3c4-21a6-46df-a7da-136674bed0a1"},"vehicle_type_id":"4","last_reported":1748729348,"current_range_meters":9200,"station_id":"ce4bhnh2rcd13ifvqgtg","pricing_plan_id":"cebpf4jnsgd1na2vs0mg"},{"bike_id":"ba202853-27fd-48a5-afba-9ef4ea1f47a7","system_id":"levelo_inurba_marseille","lat":43.30923,"lon":5.40152,"is_reserved":false,"is_disabled":true,"rental_uris":{"android":"levelo://app?vid=ba202853-27fd-48a5-afba-9ef4ea1f47a7","ios":"levelo://app?vid=ba202853-27fd-48a5-afba-9ef4ea1f47a7"},"vehicle_type_id":"4","last_reported":1748729348,"current_range_meters":9200,"station_id":"ce4bgvp2rcd13ifvqct0","pricing_plan_id":"cebpf4jnsgd1na2vs0mg"},{"bike_id":"e423a58b-ade6-4911-9fc9-d29abbd79f11","system_id":"levelo_inurba_marseille","lat":43.29021,"lon":5.39971,"is_reserved":false,"is_disabled":false,"rental_uris":{"android":"levelo://app?vid=e423a58b-ade6-4911-9fc9-d29abbd79f11","ios":"levelo://app?vid=e423a58b-ade6-4911-9fc9-d29abbd79f11"},"vehicle_type_id":"4","last_reported":1748729348,"current_range_meters":9200,"station_id":"ce4bh392rcd13ifvqdm0","pricing_plan_id":"cebpf4jnsgd1na2vs0mg"},{"bike_id":"0d3bab2f-26cf-41f1-82dd-bb5db963b288","system_id":"levelo_inurba_marseille","lat":43.32542,"lon":5.36483,"is_reserved":false,"is_disabled":true,"rental_uris":{"android":"levelo://app?vid=0d3bab2f-26cf-41f1-82dd-bb5db963b288","ios":"levelo://app?vid=0d3bab2f-26cf-41f1-82dd-bb5db963b288"},"vehicle_type_id":"4","last_reported":1748729348,"current_range_meters":9200,"station_id":"","pricing_plan_id":"cebpf4jnsgd1na2vs0mg"},{"bike_id":"39c30834-140a-4375-850c-22aefa03482a","system_id":"levelo_inurba_marseille","lat":43.25107,"lon":5.40329,"is_reserved":false,"is_disabled":false,"rental_uris":{"android":"levelo://app?vid=39c30834-140a-4375-850c-22aefa03482a","ios":"levelo://app?vid=39c30834-140a-4375-850c-22aefa03482a"},"vehicle_type_id":"4","last_reported":1748729348,"current_range_meters":9200,"station_id":"ce4bhlh2rcd13ifvqgig","pricing_plan_id":"cebpf4jnsgd1na2vs0mg"},{"bike_id":"79a5f6b8-3eb7-4888-b9a1-76e848c5f305","system_id":"levelo_inurba_marseille","lat":43.29532,"lon":5.3938,"is_reserved":false,"is_disabled":true,"rental_uris":{"android":"levelo://app?vid=79a5f6b8-3eb7-4888-b9a1-76e848c5f305","ios":"levelo://app?vid=79a5f6b8-3eb7-4888-b9a1-76e848c5f305"},"vehicle_type_id":"4","last_reported":1748729348,"current_range_meters":9200,"station_id":"ce4bh292rcd13ifvqdf0","pricing_plan_id":"cebpf4jnsgd1na2vs0mg"},{"bike_id":"259fedaf-5c58-486d-815c-b86df6392cd2","system_id":"levelo_inurba_marseille","lat":43.25119,"lon":5.40316,"is_reserved":false,"is_disabled":false,"rental_uris":{"android":"levelo://app?vid=259fedaf-5c58-486d-815c-b86df6392cd2","ios":"levelo://app?vid=259fedaf-5c58-486d-815c-b86df6392cd2"},"vehicle_type_id":"4","last_reported":1748729348,"current_range_meters":9200,"station_id":"ce4bhlh2rcd13ifvqgig","pricing_plan_id":"cebpf4jnsgd1na2vs0mg"},{"bike_id":"f4e49996-ce0c-42e7-9a15-35b5f4497b3e","system_id":"levelo_inurba_marseille","lat":43.322881,"lon":5.382768,"is_reserved":false,"is_disabled":false,"rental_uris":{"android":"levelo://app?vid=f4e49996-ce0c-42e7-9a15-35b5f4497b3e","ios":"levelo://app?vid=f4e49996-ce0c-42e7-9a15-35b5f4497b3e"},"vehicle_type_id":"4","last_reported":1748729348,"current_range_meters":9600,"station_id":"ce4bhr12rcd13ifvqhqg","pricing_plan_id":"cebpf4jnsgd1na2vs0mg"},{"bike_id":"6dbec55b-fee0-4a3a-9ed2-723f9ae1c783","system_id":"levelo_inurba_marseille","lat":43.29886,"lon":5.43685,"is_reserved":false,"is_disabled":true,"rental_uris":{"android":"levelo://app?vid=6dbec55b-fee0-4a3a-9ed2-723f9ae1c783","ios":"levelo://app?vid=6dbec55b-fee0-4a3a-9ed2-723f9ae1c783"},"vehicle_type_id":"4","last_reported":1748729348,"current_range_meters":9600,"station_id":"ce4bhpp2rcd13ifvqhfg","pricing_plan_id":"cebpf4jnsgd1na2vs0mg"},{"bike_id":"01e4ed6b-e9a5-4944-8ecd-6edf8a5120d9","system_id":"levelo_inurba_marseille","lat":43.31076,"lon":5.38353,"is_reserved":false,"is_disabled":false,"rental_uris":{"android":"levelo://app?vid=01e4ed6b-e9a5-4944-8ecd-6edf8a5120d9","ios":"levelo://app?vid=01e4ed6b-e9a5-4944-8ecd-6edf8a5120d9"},"vehicle_type_id":"4","last_reported":1748729348,"current_range_meters":9600,"station_id":"ce4bgv92rcd13ifvqcr0","pricing_plan_id":"cebpf4jnsgd1na2vs0mg"},{"bike_id":"f8824ce9-bcdc-401a-b17d-d4138313480f","system_id":"levelo_inurba_marseille","lat":43.28361,"lon":5.38628,"is_reserved":false,"is_disabled":false,"rental_uris":{"android":"levelo://app?vid=f8824ce9-bcdc-401a-b17d-d4138313480f","ios":"levelo://app?vid=f8824ce9-bcdc-401a-b17d-d4138313480f"},"vehicle_type_id":"4","last_reported":1748729348,"current_range_meters":9200,"station_id":"ce4bh492rcd13ifvqdvg","pricing_plan_id":"cebpf4jnsgd1na2vs0mg"},{"bike_id":"9854e2a4-f9c6-4c61-9386-aa9bad1e97ae","system_id":"levelo_inurba_marseille","lat":43.24635,"lon":5.38878,"is_reserved":false,"is_disabled":false,"rental_uris":{"android":"levelo://app?vid=9854e2a4-f9c6-4c61-9386-aa9bad1e97ae","ios":"levelo://app?vid=9854e2a4-f9c6-4c61-9386-aa9bad1e97ae"},"vehicle_type_id":"4","last_reported":1748729348,"current_range_meters":9600,"station_id":"ce4bhg12rcd13ifvqf60","pricing_plan_id":"cebpf4jnsgd1na2vs0mg"},{"bike_id":"16956ecc-ed47-44a5-bf64-7ac7c0de85fa","system_id":"levelo_inurba_marseille","lat":43.315688,"lon":5.369026,"is_reserved":false,"is_disabled":false,"rental_uris":{"android":"levelo://app?vid=16956ecc-ed47-44a5-bf64-7ac7c0de85fa","ios":"levelo://app?vid=16956ecc-ed47-44a5-bf64-7ac7c0de85fa"},"vehicle_type_id":"4","last_reported":1748729348,"current_range_meters":9600,"station_id":"","pricing_plan_id":"cebpf4jnsgd1na2vs0mg"},{"bike_id":"82ce820a-c4c6-4ac7-9b7f-30fa70c9c3f3","system_id":"levelo_inurba_marseille","lat":43.27811,"lon":5.40712,"is_reserved":false,"is_disabled":false,"rental_uris":{"android":"levelo://app?vid=82ce820a-c4c6-4ac7-9b7f-30fa70c9c3f3","ios":"levelo://app?vid=82ce820a-c4c6-4ac7-9b7f-30fa70c9c3f3"},"vehicle_type_id":"4","last_reported":1748729348,"current_range_meters":9600,"station_id":"ce4bhnh2rcd13ifvqgtg","pricing_plan_id":"cebpf4jnsgd1na2vs0mg"},{"bike_id":"22949bde-52c0-42f8-aed6-0536d4296339","system_id":"levelo_inurba_marseille","lat":43.29572,"lon":5.37507,"is_reserved":false,"is_disabled":true,"rental_uris":{"android":"levelo://app?vid=22949bde-52c0-42f8-aed6-0536d4296339","ios":"levelo://app?vid=22949bde-52c0-42f8-aed6-0536d4296339"},"vehicle_type_id":"4","last_reported":1748729348,"current_range_meters":9600,"station_id":"ce4bgh92rcd13ifvqb50","pricing_plan_id":"cebpf4jnsgd1na2vs0mg"},{"bike_id":"b1508551-24e0-44ad-9e06-2cda34f5678f","system_id":"levelo_inurba_marseille","lat":43.303737,"lon":5.424787,"is_reserved":false,"is_disabled":false,"rental_uris":{"android":"levelo://app?vid=b1508551-24e0-44ad-9e06-2cda34f5678f","ios":"levelo://app?vid=b1508551-24e0-44ad-9e06-2cda34f5678f"},"vehicle_type_id":"4","last_reported":1748729348,"current_range_meters":10000,"station_id":"ce4bhoh2rcd13ifvqh6g","pricing_plan_id":"cebpf4jnsgd1na2vs0mg"},{"bike_id":"439e79d7-2eb0-4e2d-8c8c-411626bd87c2","system_id":"levelo_inurba_marseille","lat":43.294193,"lon":5.38615,"is_reserved":false,"is_disabled":false,"rental_uris":{"android":"levelo://app?vid=439e79d7-2eb0-4e2d-8c8c-411626bd87c2","ios":"levelo://app?vid=439e79d7-2eb0-4e2d-8c8c-411626bd87c2"},"vehicle_type_id":"4","last_reported":1748729348,"current_range_meters":10000,"station_id":"ce4bh2h2rcd13ifvqdh0","pricing_plan_id":"cebpf4jnsgd1na2vs0mg"},{"bike_id":"2535efab-6a29-436e-bfc9-17963e2cb58d","system_id":"levelo_inurba_marseille","lat":43.25099,"lon":5.39524,"is_reserved":false,"is_disabled":false,"rental_uris":{"android":"levelo://app?vid=2535efab-6a29-436e-bfc9-17963e2cb58d","ios":"levelo://app?vid=2535efab-6a29-436e-bfc9-17963e2cb58d"},"vehicle_type_id":"4","last_reported":1748729348,"current_range_meters":10000,"station_id":"ce4bhm12rcd13ifvqgkg","pricing_plan_id":"cebpf4jnsgd1na2vs0mg"},{"bike_id":"ec864dde-b65e-4158-bd35-75127cf90271","system_id":"levelo_inurba_marseille","lat":43.217473,"lon":5.345914,"is_reserved":false,"is_disabled":true,"rental_uris":{"android":"levelo://app?vid=ec864dde-b65e-4158-bd35-75127cf90271","ios":"levelo://app?vid=ec864dde-b65e-4158-bd35-75127cf90271"},"vehicle_type_id":"4","last_reported":1748729348,"current_range_meters":10000,"station_id":"st_cvj6r9ubvosntc0bgbag","pricing_plan_id":"cebpf4jnsgd1na2vs0mg"},{"bike_id":"76a945ba-9ba8-414f-963a-73e1a106e0fc","system_id":"levelo_inurba_marseille","lat":43.26148,"lon":5.40569,"is_reserved":false,"is_disabled":false,"rental_uris":{"android":"levelo://app?vid=76a945ba-9ba8-414f-963a-73e1a106e0fc","ios":"levelo://app?vid=76a945ba-9ba8-414f-963a-73e1a106e0fc"},"vehicle_type_id":"4","last_reported":1748729348,"current_range_meters":10000,"station_id":"","pricing_plan_id":"cebpf4jnsgd1na2vs0mg"},{"bike_id":"b9dbee2c-5ddf-4684-981c-617fd4b5d81b","system_id":"levelo_inurba_marseille","lat":43.31271,"lon":5.38459,"is_reserved":false,"is_disabled":false,"rental_uris":{"android":"levelo://app?vid=b9dbee2c-5ddf-4684-981c-617fd4b5d81b","ios":"levelo://app?vid=b9dbee2c-5ddf-4684-981c-617fd4b5d81b"},"vehicle_type_id":"4","last_reported":1748729348,"current_range_meters":10000,"station_id":"","pricing_plan_id":"cebpf4jnsgd1na2vs0mg"},{"bike_id":"f1d1de03-45f8-4842-8dff-06539dec42d6","system_id":"levelo_inurba_marseille","lat":43.26555,"lon":5.4033,"is_reserved":false,"is_disabled":false,"rental_uris":{"android":"levelo://app?vid=f1d1de03-45f8-4842-8dff-06539dec42d6","ios":"levelo://app?vid=f1d1de03-45f8-4842-8dff-06539dec42d6"},"vehicle_type_id":"4","last_reported":1748729348,"current_range_meters":10000,"station_id":"","pricing_plan_id":"cebpf4jnsgd1na2vs0mg"},{"bike_id":"3c714906-76f2-42cc-b185-ab332f5426c2","system_id":"levelo_inurba_marseille","lat":43.23013,"lon":5.40195,"is_reserved":false,"is_disabled":false,"rental_uris":{"android":"levelo://app?vid=3c714906-76f2-42cc-b185-ab332f5426c2","ios":"levelo://app?vid=3c714906-76f2-42cc-b185-ab332f5426c2"},"vehicle_type_id":"4","last_reported":1748729348,"current_range_meters":10000,"station_id":"","pricing_plan_id":"cebpf4jnsgd1na2vs0mg"},{"bike_id":"424abc49-7098-476e-9563-b7acdbab96ad","system_id":"levelo_inurba_marseille","lat":43.251199,"lon":5.403098,"is_reserved":false,"is_disabled":false,"rental_uris":{"android":"levelo://app?vid=424abc49-7098-476e-9563-b7acdbab96ad","ios":"levelo://app?vid=424abc49-7098-476e-9563-b7acdbab96ad"},"vehicle_type_id":"4","last_reported":1748729348,"current_range_meters":10800,"station_id":"ce4bhlh2rcd13ifvqgig","pricing_plan_id":"cebpf4jnsgd1na2vs0mg"},{"bike_id":"46950156-2911-4ef2-8225-00a2c367410a","system_id":"levelo_inurba_marseille","lat":43.29907,"lon":5.37476,"is_reserved":false,"is_disabled":false,"rental_uris":{"android":"levelo://app?vid=46950156-2911-4ef2-8225-00a2c367410a","ios":"levelo://app?vid=46950156-2911-4ef2-8225-00a2c367410a"},"vehicle_type_id":"4","last_reported":1748729348,"current_range_meters":10800,"station_id":"ce4bgjh2rcd13ifvqbg0","pricing_plan_id":"cebpf4jnsgd1na2vs0mg"},{"bike_id":"ad6f47cd-8c88-4407-9927-40e17b78d68e","system_id":"levelo_inurba_marseille","lat":43.25099,"lon":5.40319,"is_reserved":false,"is_disabled":false,"rental_uris":{"android":"levelo://app?vid=ad6f47cd-8c88-4407-9927-40e17b78d68e","ios":"levelo://app?vid=ad6f47cd-8c88-4407-9927-40e17b78d68e"},"vehicle_type_id":"4","last_reported":1748729348,"current_range_meters":10800,"station_id":"ce4bhlh2rcd13ifvqgig","pricing_plan_id":"cebpf4jnsgd1na2vs0mg"},{"bike_id":"41dc7ecb-5011-4c9b-af30-c5f31891db53","system_id":"levelo_inurba_marseille","lat":43.24179,"lon":5.39722,"is_reserved":false,"is_disabled":false,"rental_uris":{"android":"levelo://app?vid=41dc7ecb-5011-4c9b-af30-c5f31891db53","ios":"levelo://app?vid=41dc7ecb-5011-4c9b-af30-c5f31891db53"},"vehicle_type_id":"4","last_reported":1748729348,"current_range_meters":10800,"station_id":"ce4bhn12rcd13ifvqgpg","pricing_plan_id":"cebpf4jnsgd1na2vs0mg"},{"bike_id":"de9ef9f7-970f-4522-bbf1-82e38daacf67","system_id":"levelo_inurba_marseille","lat":43.29542,"lon":5.3853,"is_reserved":false,"is_disabled":false,"rental_uris":{"android":"levelo://app?vid=de9ef9f7-970f-4522-bbf1-82e38daacf67","ios":"levelo://app?vid=de9ef9f7-970f-4522-bbf1-82e38daacf67"},"vehicle_type_id":"4","last_reported":1748729348,"current_range_meters":10800,"station_id":"ce4bgih2rcd13ifvqba0","pricing_plan_id":"cebpf4jnsgd1na2vs0mg"},{"bike_id":"2aa8f02a-c154-4a73-8932-2f60f9418a3c","system_id":"levelo_inurba_marseille","lat":43.29412,"lon":5.38616,"is_reserved":false,"is_disabled":false,"rental_uris":{"android":"levelo://app?vid=2aa8f02a-c154-4a73-8932-2f60f9418a3c","ios":"levelo://app?vid=2aa8f02a-c154-4a73-8932-2f60f9418a3c"},"vehicle_type_id":"4","last_reported":1748729348,"current_range_meters":10800,"station_id":"ce4bh2h2rcd13ifvqdh0","pricing_plan_id":"cebpf4jnsgd1na2vs0mg"},{"bike_id":"df8d749e-65a6-4eb2-aa65-4534c9547d86","system_id":"levelo_inurba_marseille","lat":43.28931,"lon":5.38391,"is_reserved":false,"is_disabled":false,"rental_uris":{"android":"levelo://app?vid=df8d749e-65a6-4eb2-aa65-4534c9547d86","ios":"levelo://app?vid=df8d749e-65a6-4eb2-aa65-4534c9547d86"},"vehicle_type_id":"4","last_reported":1748729348,"current_range_meters":10000,"station_id":"ce4bh612rcd13ifvqe6g","pricing_plan_id":"cebpf4jnsgd1na2vs0mg"},{"bike_id":"f1527888-26d8-4420-9d21-1c7254fe230b","system_id":"levelo_inurba_marseille","lat":43.31354,"lon":5.38485,"is_reserved":false,"is_disabled":false,"rental_uris":{"android":"levelo://app?vid=f1527888-26d8-4420-9d21-1c7254fe230b","ios":"levelo://app?vid=f1527888-26d8-4420-9d21-1c7254fe230b"},"vehicle_type_id":"4","last_reported":1748729348,"current_range_meters":10800,"station_id":"ce4bgt92rcd13ifvqcf0","pricing_plan_id":"cebpf4jnsgd1na2vs0mg"},{"bike_id":"6de9fa7f-0f7c-4ede-a122-bcd1266ddc4f","system_id":"levelo_inurba_marseille","lat":43.27507,"lon":5.42543,"is_reserved":false,"is_disabled":false,"rental_uris":{"android":"levelo://app?vid=6de9fa7f-0f7c-4ede-a122-bcd1266ddc4f","ios":"levelo://app?vid=6de9fa7f-0f7c-4ede-a122-bcd1266ddc4f"},"vehicle_type_id":"4","last_reported":1748729348,"current_range_meters":10800,"station_id":"","pricing_plan_id":"cebpf4jnsgd1na2vs0mg"},{"bike_id":"a6b0068b-bad2-48db-af95-317e5863314d","system_id":"levelo_inurba_marseille","lat":43.28653,"lon":5.38546,"is_reserved":false,"is_disabled":false,"rental_uris":{"android":"levelo://app?vid=a6b0068b-bad2-48db-af95-317e5863314d","ios":"levelo://app?vid=a6b0068b-bad2-48db-af95-317e5863314d"},"vehicle_type_id":"4","last_reported":1748729348,"current_range_meters":10800,"station_id":"","pricing_plan_id":"cebpf4jnsgd1na2vs0mg"},{"bike_id":"f03dec87-0196-4524-8414-0c5327f13928","system_id":"levelo_inurba_marseille","lat":43.23179,"lon":5.39987,"is_reserved":false,"is_disabled":false,"rental_uris":{"android":"levelo://app?vid=f03dec87-0196-4524-8414-0c5327f13928","ios":"levelo://app?vid=f03dec87-0196-4524-8414-0c5327f13928"},"vehicle_type_id":"4","last_reported":1748729348,"current_range_meters":6400,"station_id":"ce4bhn12rcd13ifvqgqg","pricing_plan_id":"cebpf4jnsgd1na2vs0mg"},{"bike_id":"7f08a69a-2d5b-48e6-8e97-32333e7c1f12","system_id":"levelo_inurba_marseille","lat":43.2545,"lon":5.37544,"is_reserved":false,"is_disabled":false,"rental_uris":{"android":"levelo://app?vid=7f08a69a-2d5b-48e6-8e97-32333e7c1f12","ios":"levelo://app?vid=7f08a69a-2d5b-48e6-8e97-32333e7c1f12"},"vehicle_type_id":"4","last_reported":1748729348,"current_range_meters":11200,"station_id":"","pricing_plan_id":"cebpf4jnsgd1na2vs0mg"},{"bike_id":"b4a389d7-474d-4a9d-8dec-223a88612b5c","system_id":"levelo_inurba_marseille","lat":43.25041,"lon":5.37926,"is_reserved":false,"is_disabled":false,"rental_uris":{"android":"levelo://app?vid=b4a389d7-474d-4a9d-8dec-223a88612b5c","ios":"levelo://app?vid=b4a389d7-474d-4a9d-8dec-223a88612b5c"},"vehicle_type_id":"4","last_reported":1748729348,"current_range_meters":11200,"station_id":"","pricing_plan_id":"cebpf4jnsgd1na2vs0mg"},{"bike_id":"acfbab2f-8c03-44c7-8a2f-cb74efcc20a6","system_id":"levelo_inurba_marseille","lat":43.30278,"lon":5.373,"is_reserved":false,"is_disabled":false,"rental_uris":{"android":"levelo://app?vid=acfbab2f-8c03-44c7-8a2f-cb74efcc20a6","ios":"levelo://app?vid=acfbab2f-8c03-44c7-8a2f-cb74efcc20a6"},"vehicle_type_id":"4","last_reported":1748729348,"current_range_meters":11200,"station_id":"","pricing_plan_id":"cebpf4jnsgd1na2vs0mg"},{"bike_id":"e6bf0c37-d2a0-4cf7-bda5-bdec7e2a1f23","system_id":"levelo_inurba_marseille","lat":43.32282,"lon":5.38271,"is_reserved":false,"is_disabled":false,"rental_uris":{"android":"levelo://app?vid=e6bf0c37-d2a0-4cf7-bda5-bdec7e2a1f23","ios":"levelo://app?vid=e6bf0c37-d2a0-4cf7-bda5-bdec7e2a1f23"},"vehicle_type_id":"4","last_reported":1748729348,"current_range_meters":11200,"station_id":"ce4bhr12rcd13ifvqhqg","pricing_plan_id":"cebpf4jnsgd1na2vs0mg"},{"bike_id":"fb18e81a-105b-42b6-bd31-287015f15c72","system_id":"levelo_inurba_marseille","lat":43.288862,"lon":5.394707,"is_reserved":false,"is_disabled":false,"rental_uris":{"android":"levelo://app?vid=fb18e81a-105b-42b6-bd31-287015f15c72","ios":"levelo://app?vid=fb18e81a-105b-42b6-bd31-287015f15c72"},"vehicle_type_id":"4","last_reported":1748729348,"current_range_meters":11200,"station_id":"ce4bh3h2rcd13ifvqdn0","pricing_plan_id":"cebpf4jnsgd1na2vs0mg"},{"bike_id":"3f77f10e-20f2-410d-8cde-c796b7bb90c5","system_id":"levelo_inurba_marseille","lat":43.24578,"lon":5.4211,"is_reserved":false,"is_disabled":false,"rental_uris":{"android":"levelo://app?vid=3f77f10e-20f2-410d-8cde-c796b7bb90c5","ios":"levelo://app?vid=3f77f10e-20f2-410d-8cde-c796b7bb90c5"},"vehicle_type_id":"4","last_reported":1748729348,"current_range_meters":11200,"station_id":"","pricing_plan_id":"cebpf4jnsgd1na2vs0mg"},{"bike_id":"cb81ca93-50d8-40dd-9acd-f518b945758f","system_id":"levelo_inurba_marseille","lat":43.28702,"lon":5.3998,"is_reserved":false,"is_disabled":false,"rental_uris":{"android":"levelo://app?vid=cb81ca93-50d8-40dd-9acd-f518b945758f","ios":"levelo://app?vid=cb81ca93-50d8-40dd-9acd-f518b945758f"},"vehicle_type_id":"4","last_reported":1748729348,"current_range_meters":10800,"station_id":"ce4bho92rcd13ifvqh3g","pricing_plan_id":"cebpf4jnsgd1na2vs0mg"},{"bike_id":"5d161736-fa3a-46d7-b743-d1098843127b","system_id":"levelo_inurba_marseille","lat":43.24586,"lon":5.42085,"is_reserved":false,"is_disabled":false,"rental_uris":{"android":"levelo://app?vid=5d161736-fa3a-46d7-b743-d1098843127b","ios":"levelo://app?vid=5d161736-fa3a-46d7-b743-d1098843127b"},"vehicle_type_id":"4","last_reported":1748729348,"current_range_meters":11200,"station_id":"","pricing_plan_id":"cebpf4jnsgd1na2vs0mg"},{"bike_id":"ae2c918a-d2e2-439b-aa6f-16e6722edd86","system_id":"levelo_inurba_marseille","lat":43.24339,"lon":5.38011,"is_reserved":false,"is_disabled":false,"rental_uris":{"android":"levelo://app?vid=ae2c918a-d2e2-439b-aa6f-16e6722edd86","ios":"levelo://app?vid=ae2c918a-d2e2-439b-aa6f-16e6722edd86"},"vehicle_type_id":"4","last_reported":1748729348,"current_range_meters":11600,"station_id":"","pricing_plan_id":"cebpf4jnsgd1na2vs0mg"},{"bike_id":"9e4dcec7-89d7-4a37-90b3-dad6c568ad7b","system_id":"levelo_inurba_marseille","lat":43.28029,"lon":5.36942,"is_reserved":false,"is_disabled":false,"rental_uris":{"android":"levelo://app?vid=9e4dcec7-89d7-4a37-90b3-dad6c568ad7b","ios":"levelo://app?vid=9e4dcec7-89d7-4a37-90b3-dad6c568ad7b"},"vehicle_type_id":"4","last_reported":1748729348,"current_range_meters":11600,"station_id":"ce4bha12rcd13ifvqef0","pricing_plan_id":"cebpf4jnsgd1na2vs0mg"},{"bike_id":"395725b1-48e3-44c2-879e-2f9d260a4d1a","system_id":"levelo_inurba_marseille","lat":43.312228,"lon":5.368586,"is_reserved":false,"is_disabled":false,"rental_uris":{"android":"levelo://app?vid=395725b1-48e3-44c2-879e-2f9d260a4d1a","ios":"levelo://app?vid=395725b1-48e3-44c2-879e-2f9d260a4d1a"},"vehicle_type_id":"4","last_reported":1748729348,"current_range_meters":11600,"station_id":"ce4bgl92rcd13ifvqbq0","pricing_plan_id":"cebpf4jnsgd1na2vs0mg"},{"bike_id":"b4e37ba1-6d68-4b26-95f1-da182f892736","system_id":"levelo_inurba_marseille","lat":43.321,"lon":5.36768,"is_reserved":false,"is_disabled":false,"rental_uris":{"android":"levelo://app?vid=b4e37ba1-6d68-4b26-95f1-da182f892736","ios":"levelo://app?vid=b4e37ba1-6d68-4b26-95f1-da182f892736"},"vehicle_type_id":"4","last_reported":1748729348,"current_range_meters":11600,"station_id":"ce4bhrh2rcd13ifvqhug","pricing_plan_id":"cebpf4jnsgd1na2vs0mg"},{"bike_id":"a53e91f2-c462-4470-879d-60073a7f31df","system_id":"levelo_inurba_marseille","lat":43.29533,"lon":5.3855,"is_reserved":false,"is_disabled":false,"rental_uris":{"android":"levelo://app?vid=a53e91f2-c462-4470-879d-60073a7f31df","ios":"levelo://app?vid=a53e91f2-c462-4470-879d-60073a7f31df"},"vehicle_type_id":"4","last_reported":1748729348,"current_range_meters":11600,"station_id":"ce4bgih2rcd13ifvqba0","pricing_plan_id":"cebpf4jnsgd1na2vs0mg"},{"bike_id":"1cbc3454-ff5d-4ea4-b25c-b28e2bf616a9","system_id":"levelo_inurba_marseille","lat":43.251003,"lon":5.403337,"is_reserved":false,"is_disabled":false,"rental_uris":{"android":"levelo://app?vid=1cbc3454-ff5d-4ea4-b25c-b28e2bf616a9","ios":"levelo://app?vid=1cbc3454-ff5d-4ea4-b25c-b28e2bf616a9"},"vehicle_type_id":"4","last_reported":1748729348,"current_range_meters":11600,"station_id":"ce4bhlh2rcd13ifvqgig","pricing_plan_id":"cebpf4jnsgd1na2vs0mg"},{"bike_id":"14036455-f919-44f7-8d5e-0b2e84f48674","system_id":"levelo_inurba_marseille","lat":43.30938,"lon":5.40363,"is_reserved":false,"is_disabled":false,"rental_uris":{"android":"levelo://app?vid=14036455-f919-44f7-8d5e-0b2e84f48674","ios":"levelo://app?vid=14036455-f919-44f7-8d5e-0b2e84f48674"},"vehicle_type_id":"4","last_reported":1748729348,"current_range_meters":11600,"station_id":"","pricing_plan_id":"cebpf4jnsgd1na2vs0mg"},{"bike_id":"f2d24b18-d214-4b88-99a9-26c99e5fd23c","system_id":"levelo_inurba_marseille","lat":43.24646,"lon":5.39314,"is_reserved":false,"is_disabled":false,"rental_uris":{"android":"levelo://app?vid=f2d24b18-d214-4b88-99a9-26c99e5fd23c","ios":"levelo://app?vid=f2d24b18-d214-4b88-99a9-26c99e5fd23c"},"vehicle_type_id":"4","last_reported":1748729348,"current_range_meters":11600,"station_id":"","pricing_plan_id":"cebpf4jnsgd1na2vs0mg"},{"bike_id":"5ef067e7-b281-4ef9-ad2a-1c6b02a54c04","system_id":"levelo_inurba_marseille","lat":43.31908,"lon":5.44043,"is_reserved":false,"is_disabled":false,"rental_uris":{"android":"levelo://app?vid=5ef067e7-b281-4ef9-ad2a-1c6b02a54c04","ios":"levelo://app?vid=5ef067e7-b281-4ef9-ad2a-1c6b02a54c04"},"vehicle_type_id":"4","last_reported":1748729348,"current_range_meters":11600,"station_id":"","pricing_plan_id":"cebpf4jnsgd1na2vs0mg"},{"bike_id":"4b3e478a-8465-46ec-bc79-8372bad9077c","system_id":"levelo_inurba_marseille","lat":43.24166,"lon":5.36393,"is_reserved":false,"is_disabled":false,"rental_uris":{"android":"levelo://app?vid=4b3e478a-8465-46ec-bc79-8372bad9077c","ios":"levelo://app?vid=4b3e478a-8465-46ec-bc79-8372bad9077c"},"vehicle_type_id":"4","last_reported":1748729348,"current_range_meters":12000,"station_id":"cpo36qri1sfpv3e86is0","pricing_plan_id":"cebpf4jnsgd1na2vs0mg"},{"bike_id":"97c2bc50-b253-470d-bf7a-d78dda94dee2","system_id":"levelo_inurba_marseille","lat":43.29263,"lon":5.38443,"is_reserved":false,"is_disabled":false,"rental_uris":{"android":"levelo://app?vid=97c2bc50-b253-470d-bf7a-d78dda94dee2","ios":"levelo://app?vid=97c2bc50-b253-470d-bf7a-d78dda94dee2"},"vehicle_type_id":"4","last_reported":1748729348,"current_range_meters":12000,"station_id":"ce4bh692rcd13ifvqea0","pricing_plan_id":"cebpf4jnsgd1na2vs0mg"},{"bike_id":"823a2611-9e4e-4938-83e1-63bacff8634d","system_id":"levelo_inurba_marseille","lat":43.32361,"lon":5.38883,"is_reserved":false,"is_disabled":false,"rental_uris":{"android":"levelo://app?vid=823a2611-9e4e-4938-83e1-63bacff8634d","ios":"levelo://app?vid=823a2611-9e4e-4938-83e1-63bacff8634d"},"vehicle_type_id":"4","last_reported":1748729348,"current_range_meters":12400,"station_id":"ce4bhqp2rcd13ifvqhog","pricing_plan_id":"cebpf4jnsgd1na2vs0mg"},{"bike_id":"63226803-31c6-4bba-8fb5-6056cb981b44","system_id":"levelo_inurba_marseille","lat":43.21755,"lon":5.34619,"is_reserved":false,"is_disabled":true,"rental_uris":{"android":"levelo://app?vid=63226803-31c6-4bba-8fb5-6056cb981b44","ios":"levelo://app?vid=63226803-31c6-4bba-8fb5-6056cb981b44"},"vehicle_type_id":"4","last_reported":1748729348,"current_range_meters":12400,"station_id":"st_cvj6r9ubvosntc0bgbag","pricing_plan_id":"cebpf4jnsgd1na2vs0mg"},{"bike_id":"289348b1-f496-48d7-9095-5593c941cd7a","system_id":"levelo_inurba_marseille","lat":43.29529,"lon":5.37482,"is_reserved":false,"is_disabled":true,"rental_uris":{"android":"levelo://app?vid=289348b1-f496-48d7-9095-5593c941cd7a","ios":"levelo://app?vid=289348b1-f496-48d7-9095-5593c941cd7a"},"vehicle_type_id":"4","last_reported":1748729348,"current_range_meters":12400,"station_id":"ce4bgkp2rcd13ifvqbmg","pricing_plan_id":"cebpf4jnsgd1na2vs0mg"},{"bike_id":"c213034b-f9a3-48e8-9a07-6d97a3c51b73","system_id":"levelo_inurba_marseille","lat":43.25113,"lon":5.40301,"is_reserved":false,"is_disabled":false,"rental_uris":{"android":"levelo://app?vid=c213034b-f9a3-48e8-9a07-6d97a3c51b73","ios":"levelo://app?vid=c213034b-f9a3-48e8-9a07-6d97a3c51b73"},"vehicle_type_id":"4","last_reported":1748729348,"current_range_meters":12400,"station_id":"ce4bhlh2rcd13ifvqgig","pricing_plan_id":"cebpf4jnsgd1na2vs0mg"},{"bike_id":"3408fdfe-98dc-47ba-8ed0-f601d63d31b2","system_id":"levelo_inurba_marseille","lat":43.29414,"lon":5.38633,"is_reserved":false,"is_disabled":false,"rental_uris":{"android":"levelo://app?vid=3408fdfe-98dc-47ba-8ed0-f601d63d31b2","ios":"levelo://app?vid=3408fdfe-98dc-47ba-8ed0-f601d63d31b2"},"vehicle_type_id":"4","last_reported":1748729348,"current_range_meters":12400,"station_id":"ce4bh2h2rcd13ifvqdh0","pricing_plan_id":"cebpf4jnsgd1na2vs0mg"},{"bike_id":"2aca13b4-91b6-42cd-9ffd-7b367fd10419","system_id":"levelo_inurba_marseille","lat":43.29534,"lon":5.39403,"is_reserved":false,"is_disabled":false,"rental_uris":{"android":"levelo://app?vid=2aca13b4-91b6-42cd-9ffd-7b367fd10419","ios":"levelo://app?vid=2aca13b4-91b6-42cd-9ffd-7b367fd10419"},"vehicle_type_id":"4","last_reported":1748729348,"current_range_meters":12400,"station_id":"ce4bh292rcd13ifvqdf0","pricing_plan_id":"cebpf4jnsgd1na2vs0mg"},{"bike_id":"ac08a224-e278-4da8-b823-4e8d52ac1e4b","system_id":"levelo_inurba_marseille","lat":43.23183,"lon":5.39959,"is_reserved":false,"is_disabled":false,"rental_uris":{"android":"levelo://app?vid=ac08a224-e278-4da8-b823-4e8d52ac1e4b","ios":"levelo://app?vid=ac08a224-e278-4da8-b823-4e8d52ac1e4b"},"vehicle_type_id":"4","last_reported":1748729348,"current_range_meters":12800,"station_id":"ce4bhn12rcd13ifvqgqg","pricing_plan_id":"cebpf4jnsgd1na2vs0mg"},{"bike_id":"ff941e69-8cee-4130-9154-37ec9c999c26","system_id":"levelo_inurba_marseille","lat":43.28227,"lon":5.39046,"is_reserved":false,"is_disabled":false,"rental_uris":{"android":"levelo://app?vid=ff941e69-8cee-4130-9154-37ec9c999c26","ios":"levelo://app?vid=ff941e69-8cee-4130-9154-37ec9c999c26"},"vehicle_type_id":"4","last_reported":1748729348,"current_range_meters":12800,"station_id":"ce4bhh92rcd13ifvqfh0","pricing_plan_id":"cebpf4jnsgd1na2vs0mg"},{"bike_id":"62b9fb40-b3b6-4001-a515-0c87ced39043","system_id":"levelo_inurba_marseille","lat":43.23958,"lon":5.3663,"is_reserved":false,"is_disabled":true,"rental_uris":{"android":"levelo://app?vid=62b9fb40-b3b6-4001-a515-0c87ced39043","ios":"levelo://app?vid=62b9fb40-b3b6-4001-a515-0c87ced39043"},"vehicle_type_id":"4","last_reported":1748729348,"current_range_meters":13600,"station_id":"ce4bhi12rcd13ifvqfp0","pricing_plan_id":"cebpf4jnsgd1na2vs0mg"},{"bike_id":"c2f4feb8-42b5-42b5-9ed4-3cf882559179","system_id":"levelo_inurba_marseille","lat":43.29805,"lon":5.37394,"is_reserved":false,"is_disabled":false,"rental_uris":{"android":"levelo://app?vid=c2f4feb8-42b5-42b5-9ed4-3cf882559179","ios":"levelo://app?vid=c2f4feb8-42b5-42b5-9ed4-3cf882559179"},"vehicle_type_id":"4","last_reported":1748729348,"current_range_meters":13600,"station_id":"","pricing_plan_id":"cebpf4jnsgd1na2vs0mg"},{"bike_id":"5df05316-524d-4046-90a8-d4f2dfb87ecf","system_id":"levelo_inurba_marseille","lat":43.24346,"lon":5.38004,"is_reserved":false,"is_disabled":false,"rental_uris":{"android":"levelo://app?vid=5df05316-524d-4046-90a8-d4f2dfb87ecf","ios":"levelo://app?vid=5df05316-524d-4046-90a8-d4f2dfb87ecf"},"vehicle_type_id":"4","last_reported":1748729348,"current_range_meters":13600,"station_id":"","pricing_plan_id":"cebpf4jnsgd1na2vs0mg"},{"bike_id":"33ce954c-3291-4895-bc8c-28f4fec81a57","system_id":"levelo_inurba_marseille","lat":43.29536,"lon":5.38542,"is_reserved":false,"is_disabled":false,"rental_uris":{"android":"levelo://app?vid=33ce954c-3291-4895-bc8c-28f4fec81a57","ios":"levelo://app?vid=33ce954c-3291-4895-bc8c-28f4fec81a57"},"vehicle_type_id":"4","last_reported":1748729348,"current_range_meters":13600,"station_id":"ce4bgih2rcd13ifvqba0","pricing_plan_id":"cebpf4jnsgd1na2vs0mg"},{"bike_id":"c55ae44c-420c-42df-8c14-175d5a2fb116","system_id":"levelo_inurba_marseille","lat":43.2897,"lon":5.37829,"is_reserved":false,"is_disabled":false,"rental_uris":{"android":"levelo://app?vid=c55ae44c-420c-42df-8c14-175d5a2fb116","ios":"levelo://app?vid=c55ae44c-420c-42df-8c14-175d5a2fb116"},"vehicle_type_id":"4","last_reported":1748729348,"current_range_meters":12800,"station_id":"ce4bh9p2rcd13ifvqed0","pricing_plan_id":"cebpf4jnsgd1na2vs0mg"},{"bike_id":"fbdff89c-6eb2-4bb4-adff-92e23d969f91","system_id":"levelo_inurba_marseille","lat":43.29031,"lon":5.38623,"is_reserved":false,"is_disabled":false,"rental_uris":{"android":"levelo://app?vid=fbdff89c-6eb2-4bb4-adff-92e23d969f91","ios":"levelo://app?vid=fbdff89c-6eb2-4bb4-adff-92e23d969f91"},"vehicle_type_id":"4","last_reported":1748729348,"current_range_meters":13600,"station_id":"ce4bh4p2rcd13ifvqe0g","pricing_plan_id":"cebpf4jnsgd1na2vs0mg"},{"bike_id":"958fba60-03c4-436f-ba1e-2eec457af322","system_id":"levelo_inurba_marseille","lat":43.310744,"lon":5.383508,"is_reserved":false,"is_disabled":false,"rental_uris":{"android":"levelo://app?vid=958fba60-03c4-436f-ba1e-2eec457af322","ios":"levelo://app?vid=958fba60-03c4-436f-ba1e-2eec457af322"},"vehicle_type_id":"4","last_reported":1748729348,"current_range_meters":13600,"station_id":"ce4bgv92rcd13ifvqcr0","pricing_plan_id":"cebpf4jnsgd1na2vs0mg"},{"bike_id":"13e10e62-dd60-4cfa-b0d8-d05722a25748","system_id":"levelo_inurba_marseille","lat":43.30883,"lon":5.39659,"is_reserved":false,"is_disabled":false,"rental_uris":{"android":"levelo://app?vid=13e10e62-dd60-4cfa-b0d8-d05722a25748","ios":"levelo://app?vid=13e10e62-dd60-4cfa-b0d8-d05722a25748"},"vehicle_type_id":"4","last_reported":1748729348,"current_range_meters":13600,"station_id":"ce4bh012rcd13ifvqcv0","pricing_plan_id":"cebpf4jnsgd1na2vs0mg"},{"bike_id":"9b03c3f1-a97d-4170-ab8e-5b6ce67f019f","system_id":"levelo_inurba_marseille","lat":43.31523,"lon":5.38035,"is_reserved":false,"is_disabled":false,"rental_uris":{"android":"levelo://app?vid=9b03c3f1-a97d-4170-ab8e-5b6ce67f019f","ios":"levelo://app?vid=9b03c3f1-a97d-4170-ab8e-5b6ce67f019f"},"vehicle_type_id":"4","last_reported":1748729348,"current_range_meters":14000,"station_id":"ce4bhsp2rcd13ifvqi50","pricing_plan_id":"cebpf4jnsgd1na2vs0mg"},{"bike_id":"f8d6271e-8143-4c0a-a2b0-f0ef9bd8dfab","system_id":"levelo_inurba_marseille","lat":43.2749,"lon":5.42473,"is_reserved":false,"is_disabled":false,"rental_uris":{"android":"levelo://app?vid=f8d6271e-8143-4c0a-a2b0-f0ef9bd8dfab","ios":"levelo://app?vid=f8d6271e-8143-4c0a-a2b0-f0ef9bd8dfab"},"vehicle_type_id":"4","last_reported":1748729348,"current_range_meters":14000,"station_id":"ce4bhn92rcd13ifvqgrg","pricing_plan_id":"cebpf4jnsgd1na2vs0mg"},{"bike_id":"d95a8927-9413-4ee6-b8dd-9b96d5af8d5e","system_id":"levelo_inurba_marseille","lat":43.28345,"lon":5.35006,"is_reserved":false,"is_disabled":false,"rental_uris":{"android":"levelo://app?vid=d95a8927-9413-4ee6-b8dd-9b96d5af8d5e","ios":"levelo://app?vid=d95a8927-9413-4ee6-b8dd-9b96d5af8d5e"},"vehicle_type_id":"4","last_reported":1748729348,"current_range_meters":14000,"station_id":"","pricing_plan_id":"cebpf4jnsgd1na2vs0mg"},{"bike_id":"e210be7e-07b8-44d3-ae09-6702f28e2ae8","system_id":"levelo_inurba_marseille","lat":43.25128,"lon":5.39339,"is_reserved":false,"is_disabled":false,"rental_uris":{"android":"levelo://app?vid=e210be7e-07b8-44d3-ae09-6702f28e2ae8","ios":"levelo://app?vid=e210be7e-07b8-44d3-ae09-6702f28e2ae8"},"vehicle_type_id":"4","last_reported":1748729348,"current_range_meters":14000,"station_id":"","pricing_plan_id":"cebpf4jnsgd1na2vs0mg"},{"bike_id":"f2067b9e-009d-4530-a0df-9659f5cc9cc7","system_id":"levelo_inurba_marseille","lat":43.28702,"lon":5.39967,"is_reserved":false,"is_disabled":false,"rental_uris":{"android":"levelo://app?vid=f2067b9e-009d-4530-a0df-9659f5cc9cc7","ios":"levelo://app?vid=f2067b9e-009d-4530-a0df-9659f5cc9cc7"},"vehicle_type_id":"4","last_reported":1748729348,"current_range_meters":14000,"station_id":"ce4bho92rcd13ifvqh3g","pricing_plan_id":"cebpf4jnsgd1na2vs0mg"},{"bike_id":"8f8ce63f-d276-494a-a45a-364c5e9c5dab","system_id":"levelo_inurba_marseille","lat":43.31369,"lon":5.3848,"is_reserved":false,"is_disabled":false,"rental_uris":{"android":"levelo://app?vid=8f8ce63f-d276-494a-a45a-364c5e9c5dab","ios":"levelo://app?vid=8f8ce63f-d276-494a-a45a-364c5e9c5dab"},"vehicle_type_id":"4","last_reported":1748729348,"current_range_meters":14000,"station_id":"ce4bgt92rcd13ifvqcf0","pricing_plan_id":"cebpf4jnsgd1na2vs0mg"},{"bike_id":"9a189ee8-27ed-444b-b171-f705371af28f","system_id":"levelo_inurba_marseille","lat":43.28262,"lon":5.34892,"is_reserved":false,"is_disabled":false,"rental_uris":{"android":"levelo://app?vid=9a189ee8-27ed-444b-b171-f705371af28f","ios":"levelo://app?vid=9a189ee8-27ed-444b-b171-f705371af28f"},"vehicle_type_id":"4","last_reported":1748729348,"current_range_meters":14400,"station_id":"","pricing_plan_id":"cebpf4jnsgd1na2vs0mg"},{"bike_id":"ce74c27f-ade4-4846-9c11-00507f46d520","system_id":"levelo_inurba_marseille","lat":43.33728,"lon":5.39165,"is_reserved":false,"is_disabled":false,"rental_uris":{"android":"levelo://app?vid=ce74c27f-ade4-4846-9c11-00507f46d520","ios":"levelo://app?vid=ce74c27f-ade4-4846-9c11-00507f46d520"},"vehicle_type_id":"4","last_reported":1748729348,"current_range_meters":14400,"station_id":"ce4bhr92rcd13ifvqhsg","pricing_plan_id":"cebpf4jnsgd1na2vs0mg"},{"bike_id":"a1b95f2d-e07c-4dd3-b9da-0c9055290669","system_id":"levelo_inurba_marseille","lat":43.30907,"lon":5.36853,"is_reserved":false,"is_disabled":false,"rental_uris":{"android":"levelo://app?vid=a1b95f2d-e07c-4dd3-b9da-0c9055290669","ios":"levelo://app?vid=a1b95f2d-e07c-4dd3-b9da-0c9055290669"},"vehicle_type_id":"4","last_reported":1748729348,"current_range_meters":14400,"station_id":"ce4bgn92rcd13ifvqbvg","pricing_plan_id":"cebpf4jnsgd1na2vs0mg"},{"bike_id":"e0efc7cd-c2c4-458a-afa8-f0a1835ebe18","system_id":"levelo_inurba_marseille","lat":43.28563,"lon":5.39505,"is_reserved":false,"is_disabled":false,"rental_uris":{"android":"levelo://app?vid=e0efc7cd-c2c4-458a-afa8-f0a1835ebe18","ios":"levelo://app?vid=e0efc7cd-c2c4-458a-afa8-f0a1835ebe18"},"vehicle_type_id":"4","last_reported":1748729348,"current_range_meters":14400,"station_id":"ce4bh292rcd13ifvqdg0","pricing_plan_id":"cebpf4jnsgd1na2vs0mg"},{"bike_id":"435f712e-8e5b-494a-9ab4-36835f10e96d","system_id":"levelo_inurba_marseille","lat":43.29415,"lon":5.38622,"is_reserved":false,"is_disabled":false,"rental_uris":{"android":"levelo://app?vid=435f712e-8e5b-494a-9ab4-36835f10e96d","ios":"levelo://app?vid=435f712e-8e5b-494a-9ab4-36835f10e96d"},"vehicle_type_id":"4","last_reported":1748729348,"current_range_meters":14400,"station_id":"ce4bh2h2rcd13ifvqdh0","pricing_plan_id":"cebpf4jnsgd1na2vs0mg"},{"bike_id":"ebee0f67-7511-4815-9dee-441ef33f2f9f","system_id":"levelo_inurba_marseille","lat":43.2318,"lon":5.39971,"is_reserved":false,"is_disabled":false,"rental_uris":{"android":"levelo://app?vid=ebee0f67-7511-4815-9dee-441ef33f2f9f","ios":"levelo://app?vid=ebee0f67-7511-4815-9dee-441ef33f2f9f"},"vehicle_type_id":"4","last_reported":1748729348,"current_range_meters":14400,"station_id":"ce4bhn12rcd13ifvqgqg","pricing_plan_id":"cebpf4jnsgd1na2vs0mg"},{"bike_id":"9631c8fb-6cb6-456e-a151-783d885cb728","system_id":"levelo_inurba_marseille","lat":43.29783,"lon":5.39342,"is_reserved":false,"is_disabled":false,"rental_uris":{"android":"levelo://app?vid=9631c8fb-6cb6-456e-a151-783d885cb728","ios":"levelo://app?vid=9631c8fb-6cb6-456e-a151-783d885cb728"},"vehicle_type_id":"4","last_reported":1748729348,"current_range_meters":14000,"station_id":"chh1huq6cuj3fo74tm60","pricing_plan_id":"cebpf4jnsgd1na2vs0mg"},{"bike_id":"95d9d36e-924c-49fa-9f82-2fb878115f02","system_id":"levelo_inurba_marseille","lat":43.2558,"lon":5.38224,"is_reserved":false,"is_disabled":false,"rental_uris":{"android":"levelo://app?vid=95d9d36e-924c-49fa-9f82-2fb878115f02","ios":"levelo://app?vid=95d9d36e-924c-49fa-9f82-2fb878115f02"},"vehicle_type_id":"4","last_reported":1748729348,"current_range_meters":14800,"station_id":"ce4bhih2rcd13ifvqfs0","pricing_plan_id":"cebpf4jnsgd1na2vs0mg"},{"bike_id":"32503fa7-7208-4269-b40f-34ba3dae0f9e","system_id":"levelo_inurba_marseille","lat":43.308675,"lon":5.403666,"is_reserved":false,"is_disabled":false,"rental_uris":{"android":"levelo://app?vid=32503fa7-7208-4269-b40f-34ba3dae0f9e","ios":"levelo://app?vid=32503fa7-7208-4269-b40f-34ba3dae0f9e"},"vehicle_type_id":"4","last_reported":1748729348,"current_range_meters":14800,"station_id":"","pricing_plan_id":"cebpf4jnsgd1na2vs0mg"},{"bike_id":"d449cc1d-4391-4016-8c94-f6774be1d7eb","system_id":"levelo_inurba_marseille","lat":43.31687,"lon":5.40469,"is_reserved":false,"is_disabled":false,"rental_uris":{"android":"levelo://app?vid=d449cc1d-4391-4016-8c94-f6774be1d7eb","ios":"levelo://app?vid=d449cc1d-4391-4016-8c94-f6774be1d7eb"},"vehicle_type_id":"4","last_reported":1748729348,"current_range_meters":14800,"station_id":"ce4bh012rcd13ifvqd00","pricing_plan_id":"cebpf4jnsgd1na2vs0mg"},{"bike_id":"9c2062b4-17ec-4dd6-81c2-7f8bc2de9f3a","system_id":"levelo_inurba_marseille","lat":43.27368,"lon":5.3623,"is_reserved":false,"is_disabled":false,"rental_uris":{"android":"levelo://app?vid=9c2062b4-17ec-4dd6-81c2-7f8bc2de9f3a","ios":"levelo://app?vid=9c2062b4-17ec-4dd6-81c2-7f8bc2de9f3a"},"vehicle_type_id":"4","last_reported":1748729348,"current_range_meters":14800,"station_id":"ce4bhbh2rcd13ifvqeo0","pricing_plan_id":"cebpf4jnsgd1na2vs0mg"},{"bike_id":"20f834ae-afdd-44c7-bc40-672ec53de932","system_id":"levelo_inurba_marseille","lat":43.26023,"lon":5.37551,"is_reserved":false,"is_disabled":false,"rental_uris":{"android":"levelo://app?vid=20f834ae-afdd-44c7-bc40-672ec53de932","ios":"levelo://app?vid=20f834ae-afdd-44c7-bc40-672ec53de932"},"vehicle_type_id":"4","last_reported":1748729348,"current_range_meters":14800,"station_id":"ce4bhgh2rcd13ifvqfa0","pricing_plan_id":"cebpf4jnsgd1na2vs0mg"},{"bike_id":"4020df04-632b-4ee7-9c6c-7254b0c7be04","system_id":"levelo_inurba_marseille","lat":43.32338,"lon":5.40619,"is_reserved":false,"is_disabled":false,"rental_uris":{"android":"levelo://app?vid=4020df04-632b-4ee7-9c6c-7254b0c7be04","ios":"levelo://app?vid=4020df04-632b-4ee7-9c6c-7254b0c7be04"},"vehicle_type_id":"4","last_reported":1748729348,"current_range_meters":14800,"station_id":"ce4bhq92rcd13ifvqhjg","pricing_plan_id":"cebpf4jnsgd1na2vs0mg"},{"bike_id":"ff47e209-e3d3-4e91-9152-987ef0840268","system_id":"levelo_inurba_marseille","lat":43.2518,"lon":5.374293,"is_reserved":false,"is_disabled":false,"rental_uris":{"android":"levelo://app?vid=ff47e209-e3d3-4e91-9152-987ef0840268","ios":"levelo://app?vid=ff47e209-e3d3-4e91-9152-987ef0840268"},"vehicle_type_id":"4","last_reported":1748729348,"current_range_meters":14800,"station_id":"","pricing_plan_id":"cebpf4jnsgd1na2vs0mg"},{"bike_id":"19acb86c-d41f-4c99-95c0-a1f69c0413f6","system_id":"levelo_inurba_marseille","lat":43.250997,"lon":5.402937,"is_reserved":false,"is_disabled":false,"rental_uris":{"android":"levelo://app?vid=19acb86c-d41f-4c99-95c0-a1f69c0413f6","ios":"levelo://app?vid=19acb86c-d41f-4c99-95c0-a1f69c0413f6"},"vehicle_type_id":"4","last_reported":1748729348,"current_range_meters":14800,"station_id":"ce4bhlh2rcd13ifvqgig","pricing_plan_id":"cebpf4jnsgd1na2vs0mg"},{"bike_id":"3cadf7c2-2609-40e5-8ba3-4c5823d0c8c3","system_id":"levelo_inurba_marseille","lat":43.24663,"lon":5.38162,"is_reserved":false,"is_disabled":false,"rental_uris":{"android":"levelo://app?vid=3cadf7c2-2609-40e5-8ba3-4c5823d0c8c3","ios":"levelo://app?vid=3cadf7c2-2609-40e5-8ba3-4c5823d0c8c3"},"vehicle_type_id":"4","last_reported":1748729348,"current_range_meters":14800,"station_id":"ce4bhih2rcd13ifvqfr0","pricing_plan_id":"cebpf4jnsgd1na2vs0mg"},{"bike_id":"09fafd67-d7ef-4095-ac5d-6f81ff415e82","system_id":"levelo_inurba_marseille","lat":43.31997,"lon":5.38132,"is_reserved":false,"is_disabled":false,"rental_uris":{"android":"levelo://app?vid=09fafd67-d7ef-4095-ac5d-6f81ff415e82","ios":"levelo://app?vid=09fafd67-d7ef-4095-ac5d-6f81ff415e82"},"vehicle_type_id":"4","last_reported":1748729348,"current_range_meters":15200,"station_id":"ce4bhr12rcd13ifvqhpg","pricing_plan_id":"cebpf4jnsgd1na2vs0mg"},{"bike_id":"84e94b65-0704-41b9-b45c-33b81545a7c4","system_id":"levelo_inurba_marseille","lat":43.30307,"lon":5.3692,"is_reserved":false,"is_disabled":true,"rental_uris":{"android":"levelo://app?vid=84e94b65-0704-41b9-b45c-33b81545a7c4","ios":"levelo://app?vid=84e94b65-0704-41b9-b45c-33b81545a7c4"},"vehicle_type_id":"4","last_reported":1748729348,"current_range_meters":15200,"station_id":"ce4bgqh2rcd13ifvqc5g","pricing_plan_id":"cebpf4jnsgd1na2vs0mg"},{"bike_id":"e5125a75-6225-4186-b496-b2776e97957c","system_id":"levelo_inurba_marseille","lat":43.2926,"lon":5.38446,"is_reserved":false,"is_disabled":false,"rental_uris":{"android":"levelo://app?vid=e5125a75-6225-4186-b496-b2776e97957c","ios":"levelo://app?vid=e5125a75-6225-4186-b496-b2776e97957c"},"vehicle_type_id":"4","last_reported":1748729348,"current_range_meters":15200,"station_id":"ce4bh692rcd13ifvqea0","pricing_plan_id":"cebpf4jnsgd1na2vs0mg"},{"bike_id":"5344a6f7-f2b1-43fb-956c-32a014cd9682","system_id":"levelo_inurba_marseille","lat":43.29411,"lon":5.38606,"is_reserved":false,"is_disabled":true,"rental_uris":{"android":"levelo://app?vid=5344a6f7-f2b1-43fb-956c-32a014cd9682","ios":"levelo://app?vid=5344a6f7-f2b1-43fb-956c-32a014cd9682"},"vehicle_type_id":"4","last_reported":1748729348,"current_range_meters":15200,"station_id":"ce4bh2h2rcd13ifvqdh0","pricing_plan_id":"cebpf4jnsgd1na2vs0mg"},{"bike_id":"a897bf76-0a1b-42e9-a785-79687c704f57","system_id":"levelo_inurba_marseille","lat":43.29532,"lon":5.38545,"is_reserved":false,"is_disabled":false,"rental_uris":{"android":"levelo://app?vid=a897bf76-0a1b-42e9-a785-79687c704f57","ios":"levelo://app?vid=a897bf76-0a1b-42e9-a785-79687c704f57"},"vehicle_type_id":"4","last_reported":1748729348,"current_range_meters":15200,"station_id":"ce4bgih2rcd13ifvqba0","pricing_plan_id":"cebpf4jnsgd1na2vs0mg"},{"bike_id":"c6edadbb-ce75-49f3-947c-84f86659aae4","system_id":"levelo_inurba_marseille","lat":43.29269,"lon":5.38439,"is_reserved":false,"is_disabled":false,"rental_uris":{"android":"levelo://app?vid=c6edadbb-ce75-49f3-947c-84f86659aae4","ios":"levelo://app?vid=c6edadbb-ce75-49f3-947c-84f86659aae4"},"vehicle_type_id":"4","last_reported":1748729348,"current_range_meters":16000,"station_id":"ce4bh692rcd13ifvqea0","pricing_plan_id":"cebpf4jnsgd1na2vs0mg"},{"bike_id":"9ce892d9-e46a-491b-906a-305454ea0cca","system_id":"levelo_inurba_marseille","lat":43.31345,"lon":5.36724,"is_reserved":false,"is_disabled":false,"rental_uris":{"android":"levelo://app?vid=9ce892d9-e46a-491b-906a-305454ea0cca","ios":"levelo://app?vid=9ce892d9-e46a-491b-906a-305454ea0cca"},"vehicle_type_id":"4","last_reported":1748729348,"current_range_meters":15200,"station_id":"ce4bgr92rcd13ifvqc6g","pricing_plan_id":"cebpf4jnsgd1na2vs0mg"},{"bike_id":"75c10bc2-1ce6-45f8-80d1-41f4a737de72","system_id":"levelo_inurba_marseille","lat":43.29712,"lon":5.36622,"is_reserved":false,"is_disabled":false,"rental_uris":{"android":"levelo://app?vid=75c10bc2-1ce6-45f8-80d1-41f4a737de72","ios":"levelo://app?vid=75c10bc2-1ce6-45f8-80d1-41f4a737de72"},"vehicle_type_id":"4","last_reported":1748729348,"current_range_meters":16000,"station_id":"ce4bgn12rcd13ifvqbt0","pricing_plan_id":"cebpf4jnsgd1na2vs0mg"},{"bike_id":"f5a90625-b7e8-48a8-90c6-777efe255a32","system_id":"levelo_inurba_marseille","lat":43.250995,"lon":5.409621,"is_reserved":false,"is_disabled":false,"rental_uris":{"android":"levelo://app?vid=f5a90625-b7e8-48a8-90c6-777efe255a32","ios":"levelo://app?vid=f5a90625-b7e8-48a8-90c6-777efe255a32"},"vehicle_type_id":"4","last_reported":1748729348,"current_range_meters":16000,"station_id":"","pricing_plan_id":"cebpf4jnsgd1na2vs0mg"},{"bike_id":"b6b6b9c9-179a-4330-b774-cbea546a5069","system_id":"levelo_inurba_marseille","lat":43.31071,"lon":5.38366,"is_reserved":false,"is_disabled":false,"rental_uris":{"android":"levelo://app?vid=b6b6b9c9-179a-4330-b774-cbea546a5069","ios":"levelo://app?vid=b6b6b9c9-179a-4330-b774-cbea546a5069"},"vehicle_type_id":"4","last_reported":1748729348,"current_range_meters":16000,"station_id":"ce4bgv92rcd13ifvqcr0","pricing_plan_id":"cebpf4jnsgd1na2vs0mg"},{"bike_id":"d65ba898-7426-417a-a9a3-ed786a957c99","system_id":"levelo_inurba_marseille","lat":43.29916,"lon":5.37472,"is_reserved":false,"is_disabled":false,"rental_uris":{"android":"levelo://app?vid=d65ba898-7426-417a-a9a3-ed786a957c99","ios":"levelo://app?vid=d65ba898-7426-417a-a9a3-ed786a957c99"},"vehicle_type_id":"4","last_reported":1748729348,"current_range_meters":16000,"station_id":"ce4bgjh2rcd13ifvqbg0","pricing_plan_id":"cebpf4jnsgd1na2vs0mg"},{"bike_id":"20c90af0-80d9-42dc-a6b2-41677e15867c","system_id":"levelo_inurba_marseille","lat":43.29507,"lon":5.39043,"is_reserved":false,"is_disabled":false,"rental_uris":{"android":"levelo://app?vid=20c90af0-80d9-42dc-a6b2-41677e15867c","ios":"levelo://app?vid=20c90af0-80d9-42dc-a6b2-41677e15867c"},"vehicle_type_id":"4","last_reported":1748729348,"current_range_meters":16000,"station_id":"ce4bh3p2rcd13ifvqdp0","pricing_plan_id":"cebpf4jnsgd1na2vs0mg"},{"bike_id":"76f771a0-d27e-462d-a1fe-7bd311768559","system_id":"levelo_inurba_marseille","lat":43.28411,"lon":5.34989,"is_reserved":false,"is_disabled":true,"rental_uris":{"android":"levelo://app?vid=76f771a0-d27e-462d-a1fe-7bd311768559","ios":"levelo://app?vid=76f771a0-d27e-462d-a1fe-7bd311768559"},"vehicle_type_id":"4","last_reported":1748729348,"current_range_meters":16000,"station_id":"ce4bhbh2rcd13ifvqepg","pricing_plan_id":"cebpf4jnsgd1na2vs0mg"},{"bike_id":"bfc6dce9-77ca-4235-96b6-63b5fbc4d6e2","system_id":"levelo_inurba_marseille","lat":43.33663,"lon":5.38584,"is_reserved":false,"is_disabled":false,"rental_uris":{"android":"levelo://app?vid=bfc6dce9-77ca-4235-96b6-63b5fbc4d6e2","ios":"levelo://app?vid=bfc6dce9-77ca-4235-96b6-63b5fbc4d6e2"},"vehicle_type_id":"4","last_reported":1748729348,"current_range_meters":16400,"station_id":"","pricing_plan_id":"cebpf4jnsgd1na2vs0mg"},{"bike_id":"9168ac46-1f3f-45e4-9e71-903951ed25c3","system_id":"levelo_inurba_marseille","lat":43.28099,"lon":5.37837,"is_reserved":false,"is_disabled":false,"rental_uris":{"android":"levelo://app?vid=9168ac46-1f3f-45e4-9e71-903951ed25c3","ios":"levelo://app?vid=9168ac46-1f3f-45e4-9e71-903951ed25c3"},"vehicle_type_id":"4","last_reported":1748729348,"current_range_meters":16400,"station_id":"ce4bha12rcd13ifvqee0","pricing_plan_id":"cebpf4jnsgd1na2vs0mg"},{"bike_id":"e74ebf15-3f21-436b-8539-5c3607ed04fb","system_id":"levelo_inurba_marseille","lat":43.29273,"lon":5.3843,"is_reserved":false,"is_disabled":false,"rental_uris":{"android":"levelo://app?vid=e74ebf15-3f21-436b-8539-5c3607ed04fb","ios":"levelo://app?vid=e74ebf15-3f21-436b-8539-5c3607ed04fb"},"vehicle_type_id":"4","last_reported":1748729348,"current_range_meters":16400,"station_id":"ce4bh692rcd13ifvqea0","pricing_plan_id":"cebpf4jnsgd1na2vs0mg"},{"bike_id":"77520d45-03bf-4b26-9f9b-8ac6c162ce6b","system_id":"levelo_inurba_marseille","lat":43.243607,"lon":5.411408,"is_reserved":false,"is_disabled":false,"rental_uris":{"android":"levelo://app?vid=77520d45-03bf-4b26-9f9b-8ac6c162ce6b","ios":"levelo://app?vid=77520d45-03bf-4b26-9f9b-8ac6c162ce6b"},"vehicle_type_id":"4","last_reported":1748729348,"current_range_meters":16400,"station_id":"","pricing_plan_id":"cebpf4jnsgd1na2vs0mg"},{"bike_id":"6194bd11-cbbb-4e68-a441-7b6e267c9cf8","system_id":"levelo_inurba_marseille","lat":43.26307,"lon":5.37585,"is_reserved":false,"is_disabled":false,"rental_uris":{"android":"levelo://app?vid=6194bd11-cbbb-4e68-a441-7b6e267c9cf8","ios":"levelo://app?vid=6194bd11-cbbb-4e68-a441-7b6e267c9cf8"},"vehicle_type_id":"4","last_reported":1748729348,"current_range_meters":16400,"station_id":"","pricing_plan_id":"cebpf4jnsgd1na2vs0mg"},{"bike_id":"edf637b9-92fd-46c7-9477-825412856041","system_id":"levelo_inurba_marseille","lat":43.28423,"lon":5.3749,"is_reserved":false,"is_disabled":false,"rental_uris":{"android":"levelo://app?vid=edf637b9-92fd-46c7-9477-825412856041","ios":"levelo://app?vid=edf637b9-92fd-46c7-9477-825412856041"},"vehicle_type_id":"4","last_reported":1748729348,"current_range_meters":16400,"station_id":"ce4bh412rcd13ifvqds0","pricing_plan_id":"cebpf4jnsgd1na2vs0mg"},{"bike_id":"46e9e1e7-2fa7-40d1-a64b-c59e31c5c036","system_id":"levelo_inurba_marseille","lat":43.292593,"lon":5.384379,"is_reserved":false,"is_disabled":false,"rental_uris":{"android":"levelo://app?vid=46e9e1e7-2fa7-40d1-a64b-c59e31c5c036","ios":"levelo://app?vid=46e9e1e7-2fa7-40d1-a64b-c59e31c5c036"},"vehicle_type_id":"4","last_reported":1748729348,"current_range_meters":16400,"station_id":"ce4bh692rcd13ifvqea0","pricing_plan_id":"cebpf4jnsgd1na2vs0mg"},{"bike_id":"8383e62b-0b10-4b24-92a9-4566d06eed9e","system_id":"levelo_inurba_marseille","lat":43.26556,"lon":5.37285,"is_reserved":false,"is_disabled":false,"rental_uris":{"android":"levelo://app?vid=8383e62b-0b10-4b24-92a9-4566d06eed9e","ios":"levelo://app?vid=8383e62b-0b10-4b24-92a9-4566d06eed9e"},"vehicle_type_id":"4","last_reported":1748729348,"current_range_meters":16400,"station_id":"ce4bhg12rcd13ifvqf70","pricing_plan_id":"cebpf4jnsgd1na2vs0mg"},{"bike_id":"52138315-f13b-4871-ab78-9e5155a1008c","system_id":"levelo_inurba_marseille","lat":43.32284,"lon":5.38258,"is_reserved":false,"is_disabled":false,"rental_uris":{"android":"levelo://app?vid=52138315-f13b-4871-ab78-9e5155a1008c","ios":"levelo://app?vid=52138315-f13b-4871-ab78-9e5155a1008c"},"vehicle_type_id":"4","last_reported":1748729348,"current_range_meters":16400,"station_id":"ce4bhr12rcd13ifvqhqg","pricing_plan_id":"cebpf4jnsgd1na2vs0mg"},{"bike_id":"7e151399-dced-422e-ba26-919dbcc3f5b0","system_id":"levelo_inurba_marseille","lat":43.24804,"lon":5.3745,"is_reserved":false,"is_disabled":false,"rental_uris":{"android":"levelo://app?vid=7e151399-dced-422e-ba26-919dbcc3f5b0","ios":"levelo://app?vid=7e151399-dced-422e-ba26-919dbcc3f5b0"},"vehicle_type_id":"4","last_reported":1748729348,"current_range_meters":16400,"station_id":"ce4bhgh2rcd13ifvqfb0","pricing_plan_id":"cebpf4jnsgd1na2vs0mg"},{"bike_id":"dc1b77bb-0c5c-438e-b937-ebd825529e8d","system_id":"levelo_inurba_marseille","lat":43.25139,"lon":5.40292,"is_reserved":false,"is_disabled":false,"rental_uris":{"android":"levelo://app?vid=dc1b77bb-0c5c-438e-b937-ebd825529e8d","ios":"levelo://app?vid=dc1b77bb-0c5c-438e-b937-ebd825529e8d"},"vehicle_type_id":"4","last_reported":1748729348,"current_range_meters":16400,"station_id":"ce4bhlh2rcd13ifvqgig","pricing_plan_id":"cebpf4jnsgd1na2vs0mg"},{"bike_id":"796a4cc2-2776-4b51-980d-7594cc98c248","system_id":"levelo_inurba_marseille","lat":43.28936,"lon":5.38375,"is_reserved":false,"is_disabled":false,"rental_uris":{"android":"levelo://app?vid=796a4cc2-2776-4b51-980d-7594cc98c248","ios":"levelo://app?vid=796a4cc2-2776-4b51-980d-7594cc98c248"},"vehicle_type_id":"4","last_reported":1748729348,"current_range_meters":16400,"station_id":"ce4bh612rcd13ifvqe6g","pricing_plan_id":"cebpf4jnsgd1na2vs0mg"},{"bike_id":"d787cfdb-50c2-451d-8448-0eff07939f1e","system_id":"levelo_inurba_marseille","lat":43.23156,"lon":5.43692,"is_reserved":false,"is_disabled":true,"rental_uris":{"android":"levelo://app?vid=d787cfdb-50c2-451d-8448-0eff07939f1e","ios":"levelo://app?vid=d787cfdb-50c2-451d-8448-0eff07939f1e"},"vehicle_type_id":"4","last_reported":1748729348,"current_range_meters":16800,"station_id":"ce4bhmp2rcd13ifvqgog","pricing_plan_id":"cebpf4jnsgd1na2vs0mg"},{"bike_id":"8554575f-b18e-4b16-a957-efddb4f8c2b1","system_id":"levelo_inurba_marseille","lat":43.26785,"lon":5.39412,"is_reserved":false,"is_disabled":false,"rental_uris":{"android":"levelo://app?vid=8554575f-b18e-4b16-a957-efddb4f8c2b1","ios":"levelo://app?vid=8554575f-b18e-4b16-a957-efddb4f8c2b1"},"vehicle_type_id":"4","last_reported":1748729348,"current_range_meters":16800,"station_id":"ce4bhh12rcd13ifvqfg0","pricing_plan_id":"cebpf4jnsgd1na2vs0mg"},{"bike_id":"c0b307e2-f759-4feb-a351-9c4251bc7010","system_id":"levelo_inurba_marseille","lat":43.31309,"lon":5.39704,"is_reserved":false,"is_disabled":false,"rental_uris":{"android":"levelo://app?vid=c0b307e2-f759-4feb-a351-9c4251bc7010","ios":"levelo://app?vid=c0b307e2-f759-4feb-a351-9c4251bc7010"},"vehicle_type_id":"4","last_reported":1748729348,"current_range_meters":16800,"station_id":"ce4bgvp2rcd13ifvqcu0","pricing_plan_id":"cebpf4jnsgd1na2vs0mg"},{"bike_id":"04523e0a-37e5-4c5a-aa51-56513aa90d8b","system_id":"levelo_inurba_marseille","lat":43.31089,"lon":5.378357,"is_reserved":false,"is_disabled":false,"rental_uris":{"android":"levelo://app?vid=04523e0a-37e5-4c5a-aa51-56513aa90d8b","ios":"levelo://app?vid=04523e0a-37e5-4c5a-aa51-56513aa90d8b"},"vehicle_type_id":"4","last_reported":1748729348,"current_range_meters":16800,"station_id":"ce4bgjp2rcd13ifvqbh0","pricing_plan_id":"cebpf4jnsgd1na2vs0mg"},{"bike_id":"bd6645f7-a516-4ceb-9eb8-5a4884936f5b","system_id":"levelo_inurba_marseille","lat":43.29292,"lon":5.38394,"is_reserved":false,"is_disabled":false,"rental_uris":{"android":"levelo://app?vid=bd6645f7-a516-4ceb-9eb8-5a4884936f5b","ios":"levelo://app?vid=bd6645f7-a516-4ceb-9eb8-5a4884936f5b"},"vehicle_type_id":"4","last_reported":1748729348,"current_range_meters":16800,"station_id":"ce4bh692rcd13ifvqea0","pricing_plan_id":"cebpf4jnsgd1na2vs0mg"},{"bike_id":"68894236-7bd9-4073-91e1-152beaa06d42","system_id":"levelo_inurba_marseille","lat":43.29271,"lon":5.38431,"is_reserved":false,"is_disabled":false,"rental_uris":{"android":"levelo://app?vid=68894236-7bd9-4073-91e1-152beaa06d42","ios":"levelo://app?vid=68894236-7bd9-4073-91e1-152beaa06d42"},"vehicle_type_id":"4","last_reported":1748729348,"current_range_meters":16800,"station_id":"ce4bh692rcd13ifvqea0","pricing_plan_id":"cebpf4jnsgd1na2vs0mg"},{"bike_id":"1a2a855d-0b99-47bd-a81f-aa8bac1a14f9","system_id":"levelo_inurba_marseille","lat":43.31491,"lon":5.37309,"is_reserved":false,"is_disabled":false,"rental_uris":{"android":"levelo://app?vid=1a2a855d-0b99-47bd-a81f-aa8bac1a14f9","ios":"levelo://app?vid=1a2a855d-0b99-47bd-a81f-aa8bac1a14f9"},"vehicle_type_id":"4","last_reported":1748729348,"current_range_meters":16400,"station_id":"ce4bgt12rcd13ifvqcd0","pricing_plan_id":"cebpf4jnsgd1na2vs0mg"},{"bike_id":"5235f953-dd85-4cff-a974-1bb0a1f88a2d","system_id":"levelo_inurba_marseille","lat":43.29263,"lon":5.38432,"is_reserved":false,"is_disabled":false,"rental_uris":{"android":"levelo://app?vid=5235f953-dd85-4cff-a974-1bb0a1f88a2d","ios":"levelo://app?vid=5235f953-dd85-4cff-a974-1bb0a1f88a2d"},"vehicle_type_id":"4","last_reported":1748729348,"current_range_meters":16800,"station_id":"ce4bh692rcd13ifvqea0","pricing_plan_id":"cebpf4jnsgd1na2vs0mg"},{"bike_id":"54c3128d-720d-47ff-b7ac-bc29f1f74f4f","system_id":"levelo_inurba_marseille","lat":43.31484,"lon":5.37302,"is_reserved":false,"is_disabled":false,"rental_uris":{"android":"levelo://app?vid=54c3128d-720d-47ff-b7ac-bc29f1f74f4f","ios":"levelo://app?vid=54c3128d-720d-47ff-b7ac-bc29f1f74f4f"},"vehicle_type_id":"4","last_reported":1748729348,"current_range_meters":16800,"station_id":"ce4bgt12rcd13ifvqcd0","pricing_plan_id":"cebpf4jnsgd1na2vs0mg"},{"bike_id":"542502f4-f239-4a10-a780-fcd2a372a574","system_id":"levelo_inurba_marseille","lat":43.294144,"lon":5.386049,"is_reserved":false,"is_disabled":false,"rental_uris":{"android":"levelo://app?vid=542502f4-f239-4a10-a780-fcd2a372a574","ios":"levelo://app?vid=542502f4-f239-4a10-a780-fcd2a372a574"},"vehicle_type_id":"4","last_reported":1748729348,"current_range_meters":16800,"station_id":"ce4bh2h2rcd13ifvqdh0","pricing_plan_id":"cebpf4jnsgd1na2vs0mg"},{"bike_id":"34d131a1-c9aa-4f52-9577-378974e464d6","system_id":"levelo_inurba_marseille","lat":43.29414,"lon":5.38604,"is_reserved":false,"is_disabled":false,"rental_uris":{"android":"levelo://app?vid=34d131a1-c9aa-4f52-9577-378974e464d6","ios":"levelo://app?vid=34d131a1-c9aa-4f52-9577-378974e464d6"},"vehicle_type_id":"4","last_reported":1748729348,"current_range_meters":16800,"station_id":"ce4bh2h2rcd13ifvqdh0","pricing_plan_id":"cebpf4jnsgd1na2vs0mg"},{"bike_id":"419c9ea0-63c1-4b53-91d9-e124ff5c9b08","system_id":"levelo_inurba_marseille","lat":43.26551,"lon":5.37293,"is_reserved":false,"is_disabled":false,"rental_uris":{"android":"levelo://app?vid=419c9ea0-63c1-4b53-91d9-e124ff5c9b08","ios":"levelo://app?vid=419c9ea0-63c1-4b53-91d9-e124ff5c9b08"},"vehicle_type_id":"4","last_reported":1748729348,"current_range_meters":16800,"station_id":"ce4bhg12rcd13ifvqf70","pricing_plan_id":"cebpf4jnsgd1na2vs0mg"},{"bike_id":"f12699d6-0033-4179-b7ad-363a9c2d2785","system_id":"levelo_inurba_marseille","lat":43.29033,"lon":5.39962,"is_reserved":false,"is_disabled":false,"rental_uris":{"android":"levelo://app?vid=f12699d6-0033-4179-b7ad-363a9c2d2785","ios":"levelo://app?vid=f12699d6-0033-4179-b7ad-363a9c2d2785"},"vehicle_type_id":"4","last_reported":1748729348,"current_range_meters":17200,"station_id":"ce4bh392rcd13ifvqdm0","pricing_plan_id":"cebpf4jnsgd1na2vs0mg"},{"bike_id":"8460c993-c526-494f-9aab-15c2a342330f","system_id":"levelo_inurba_marseille","lat":43.24648,"lon":5.38891,"is_reserved":false,"is_disabled":false,"rental_uris":{"android":"levelo://app?vid=8460c993-c526-494f-9aab-15c2a342330f","ios":"levelo://app?vid=8460c993-c526-494f-9aab-15c2a342330f"},"vehicle_type_id":"4","last_reported":1748729348,"current_range_meters":17200,"station_id":"ce4bhg12rcd13ifvqf60","pricing_plan_id":"cebpf4jnsgd1na2vs0mg"},{"bike_id":"b92492a7-053d-4333-9830-150947fe7ba9","system_id":"levelo_inurba_marseille","lat":43.29193,"lon":5.39327,"is_reserved":false,"is_disabled":false,"rental_uris":{"android":"levelo://app?vid=b92492a7-053d-4333-9830-150947fe7ba9","ios":"levelo://app?vid=b92492a7-053d-4333-9830-150947fe7ba9"},"vehicle_type_id":"4","last_reported":1748729348,"current_range_meters":16800,"station_id":"ce4bh192rcd13ifvqdd0","pricing_plan_id":"cebpf4jnsgd1na2vs0mg"},{"bike_id":"bfd84e4a-7741-490a-a3a1-299e245a914d","system_id":"levelo_inurba_marseille","lat":43.29529,"lon":5.39035,"is_reserved":false,"is_disabled":false,"rental_uris":{"android":"levelo://app?vid=bfd84e4a-7741-490a-a3a1-299e245a914d","ios":"levelo://app?vid=bfd84e4a-7741-490a-a3a1-299e245a914d"},"vehicle_type_id":"4","last_reported":1748729348,"current_range_meters":17200,"station_id":"ce4bh3p2rcd13ifvqdp0","pricing_plan_id":"cebpf4jnsgd1na2vs0mg"},{"bike_id":"ee5ffabc-72dc-45f6-83d9-998f2f2fa084","system_id":"levelo_inurba_marseille","lat":43.29571,"lon":5.38645,"is_reserved":false,"is_disabled":false,"rental_uris":{"android":"levelo://app?vid=ee5ffabc-72dc-45f6-83d9-998f2f2fa084","ios":"levelo://app?vid=ee5ffabc-72dc-45f6-83d9-998f2f2fa084"},"vehicle_type_id":"4","last_reported":1748729348,"current_range_meters":17200,"station_id":"","pricing_plan_id":"cebpf4jnsgd1na2vs0mg"},{"bike_id":"227be650-9377-43d2-bd5f-67e8a79cfbb7","system_id":"levelo_inurba_marseille","lat":43.29192,"lon":5.39327,"is_reserved":false,"is_disabled":false,"rental_uris":{"android":"levelo://app?vid=227be650-9377-43d2-bd5f-67e8a79cfbb7","ios":"levelo://app?vid=227be650-9377-43d2-bd5f-67e8a79cfbb7"},"vehicle_type_id":"4","last_reported":1748729348,"current_range_meters":17200,"station_id":"ce4bh192rcd13ifvqdd0","pricing_plan_id":"cebpf4jnsgd1na2vs0mg"},{"bike_id":"ac544727-ac40-4349-be21-37fa150e6401","system_id":"levelo_inurba_marseille","lat":43.31514,"lon":5.37263,"is_reserved":false,"is_disabled":false,"rental_uris":{"android":"levelo://app?vid=ac544727-ac40-4349-be21-37fa150e6401","ios":"levelo://app?vid=ac544727-ac40-4349-be21-37fa150e6401"},"vehicle_type_id":"4","last_reported":1748729348,"current_range_meters":17200,"station_id":"ce4bgt12rcd13ifvqcd0","pricing_plan_id":"cebpf4jnsgd1na2vs0mg"},{"bike_id":"04941f08-5d18-45a6-9ffb-f9bf998bc84b","system_id":"levelo_inurba_marseille","lat":43.29268,"lon":5.38423,"is_reserved":false,"is_disabled":false,"rental_uris":{"android":"levelo://app?vid=04941f08-5d18-45a6-9ffb-f9bf998bc84b","ios":"levelo://app?vid=04941f08-5d18-45a6-9ffb-f9bf998bc84b"},"vehicle_type_id":"4","last_reported":1748729348,"current_range_meters":17600,"station_id":"ce4bh692rcd13ifvqea0","pricing_plan_id":"cebpf4jnsgd1na2vs0mg"},{"bike_id":"5f764f7f-912c-40f6-a10c-b9840305bfb7","system_id":"levelo_inurba_marseille","lat":43.28701,"lon":5.3739,"is_reserved":false,"is_disabled":false,"rental_uris":{"android":"levelo://app?vid=5f764f7f-912c-40f6-a10c-b9840305bfb7","ios":"levelo://app?vid=5f764f7f-912c-40f6-a10c-b9840305bfb7"},"vehicle_type_id":"4","last_reported":1748729348,"current_range_meters":18000,"station_id":"ce4bh3p2rcd13ifvqdq0","pricing_plan_id":"cebpf4jnsgd1na2vs0mg"},{"bike_id":"ab7efb87-14c4-44fe-a4e6-72b289abd789","system_id":"levelo_inurba_marseille","lat":43.292631,"lon":5.384308,"is_reserved":false,"is_disabled":false,"rental_uris":{"android":"levelo://app?vid=ab7efb87-14c4-44fe-a4e6-72b289abd789","ios":"levelo://app?vid=ab7efb87-14c4-44fe-a4e6-72b289abd789"},"vehicle_type_id":"4","last_reported":1748729348,"current_range_meters":17600,"station_id":"ce4bh692rcd13ifvqea0","pricing_plan_id":"cebpf4jnsgd1na2vs0mg"},{"bike_id":"9f79f261-ab1b-4db0-a513-8d06945d3b0c","system_id":"levelo_inurba_marseille","lat":43.29533,"lon":5.38543,"is_reserved":false,"is_disabled":false,"rental_uris":{"android":"levelo://app?vid=9f79f261-ab1b-4db0-a513-8d06945d3b0c","ios":"levelo://app?vid=9f79f261-ab1b-4db0-a513-8d06945d3b0c"},"vehicle_type_id":"4","last_reported":1748729348,"current_range_meters":17600,"station_id":"ce4bgih2rcd13ifvqba0","pricing_plan_id":"cebpf4jnsgd1na2vs0mg"},{"bike_id":"854a8873-d019-4b8c-b91a-c226f4301a09","system_id":"levelo_inurba_marseille","lat":43.31081,"lon":5.38346,"is_reserved":false,"is_disabled":false,"rental_uris":{"android":"levelo://app?vid=854a8873-d019-4b8c-b91a-c226f4301a09","ios":"levelo://app?vid=854a8873-d019-4b8c-b91a-c226f4301a09"},"vehicle_type_id":"4","last_reported":1748729348,"current_range_meters":17600,"station_id":"ce4bgv92rcd13ifvqcr0","pricing_plan_id":"cebpf4jnsgd1na2vs0mg"},{"bike_id":"052b3ba7-ebd3-48bc-ac89-ecca09060825","system_id":"levelo_inurba_marseille","lat":43.24798,"lon":5.3745,"is_reserved":false,"is_disabled":false,"rental_uris":{"android":"levelo://app?vid=052b3ba7-ebd3-48bc-ac89-ecca09060825","ios":"levelo://app?vid=052b3ba7-ebd3-48bc-ac89-ecca09060825"},"vehicle_type_id":"4","last_reported":1748729348,"current_range_meters":17200,"station_id":"ce4bhgh2rcd13ifvqfb0","pricing_plan_id":"cebpf4jnsgd1na2vs0mg"},{"bike_id":"9facadca-fc29-4a7e-81cd-49d3f77d7de9","system_id":"levelo_inurba_marseille","lat":43.28454,"lon":5.35886,"is_reserved":false,"is_disabled":false,"rental_uris":{"android":"levelo://app?vid=9facadca-fc29-4a7e-81cd-49d3f77d7de9","ios":"levelo://app?vid=9facadca-fc29-4a7e-81cd-49d3f77d7de9"},"vehicle_type_id":"4","last_reported":1748729348,"current_range_meters":17600,"station_id":"ce4bhah2rcd13ifvqei0","pricing_plan_id":"cebpf4jnsgd1na2vs0mg"},{"bike_id":"7b1e3ca7-33ed-43e8-b9bf-11fdc3010414","system_id":"levelo_inurba_marseille","lat":43.28853,"lon":5.39314,"is_reserved":false,"is_disabled":false,"rental_uris":{"android":"levelo://app?vid=7b1e3ca7-33ed-43e8-b9bf-11fdc3010414","ios":"levelo://app?vid=7b1e3ca7-33ed-43e8-b9bf-11fdc3010414"},"vehicle_type_id":"4","last_reported":1748729348,"current_range_meters":17200,"station_id":"ce4bh2p2rcd13ifvqdi0","pricing_plan_id":"cebpf4jnsgd1na2vs0mg"},{"bike_id":"3718f31c-fedb-4a32-9054-edf0dc01c55f","system_id":"levelo_inurba_marseille","lat":43.24667,"lon":5.38153,"is_reserved":false,"is_disabled":false,"rental_uris":{"android":"levelo://app?vid=3718f31c-fedb-4a32-9054-edf0dc01c55f","ios":"levelo://app?vid=3718f31c-fedb-4a32-9054-edf0dc01c55f"},"vehicle_type_id":"4","last_reported":1748729348,"current_range_meters":17600,"station_id":"ce4bhih2rcd13ifvqfr0","pricing_plan_id":"cebpf4jnsgd1na2vs0mg"},{"bike_id":"ab201bd3-f994-4ab3-8a2f-f81780a2f1b8","system_id":"levelo_inurba_marseille","lat":43.31164,"lon":5.38723,"is_reserved":false,"is_disabled":false,"rental_uris":{"android":"levelo://app?vid=ab201bd3-f994-4ab3-8a2f-f81780a2f1b8","ios":"levelo://app?vid=ab201bd3-f994-4ab3-8a2f-f81780a2f1b8"},"vehicle_type_id":"4","last_reported":1748729348,"current_range_meters":17600,"station_id":"ce4bgv12rcd13ifvqcp0","pricing_plan_id":"cebpf4jnsgd1na2vs0mg"},{"bike_id":"56a82e03-2118-4920-8b59-3795928c0c5d","system_id":"levelo_inurba_marseille","lat":43.27832,"lon":5.40674,"is_reserved":false,"is_disabled":false,"rental_uris":{"android":"levelo://app?vid=56a82e03-2118-4920-8b59-3795928c0c5d","ios":"levelo://app?vid=56a82e03-2118-4920-8b59-3795928c0c5d"},"vehicle_type_id":"4","last_reported":1748729348,"current_range_meters":17600,"station_id":"ce4bhnh2rcd13ifvqgtg","pricing_plan_id":"cebpf4jnsgd1na2vs0mg"},{"bike_id":"b5806e8c-065c-41e5-8415-4e8c05eadebe","system_id":"levelo_inurba_marseille","lat":43.29229,"lon":5.36048,"is_reserved":false,"is_disabled":true,"rental_uris":{"android":"levelo://app?vid=b5806e8c-065c-41e5-8415-4e8c05eadebe","ios":"levelo://app?vid=b5806e8c-065c-41e5-8415-4e8c05eadebe"},"vehicle_type_id":"4","last_reported":1748729348,"current_range_meters":17600,"station_id":"ce4bhbh2rcd13ifvqeqg","pricing_plan_id":"cebpf4jnsgd1na2vs0mg"},{"bike_id":"7f2c6dd7-c876-4477-804b-2ac28857adc8","system_id":"levelo_inurba_marseille","lat":43.30887,"lon":5.39651,"is_reserved":false,"is_disabled":false,"rental_uris":{"android":"levelo://app?vid=7f2c6dd7-c876-4477-804b-2ac28857adc8","ios":"levelo://app?vid=7f2c6dd7-c876-4477-804b-2ac28857adc8"},"vehicle_type_id":"4","last_reported":1748729348,"current_range_meters":17600,"station_id":"ce4bh012rcd13ifvqcv0","pricing_plan_id":"cebpf4jnsgd1na2vs0mg"},{"bike_id":"17bd2528-b2a5-45c6-a36c-4876742024ed","system_id":"levelo_inurba_marseille","lat":43.30259,"lon":5.40077,"is_reserved":false,"is_disabled":false,"rental_uris":{"android":"levelo://app?vid=17bd2528-b2a5-45c6-a36c-4876742024ed","ios":"levelo://app?vid=17bd2528-b2a5-45c6-a36c-4876742024ed"},"vehicle_type_id":"4","last_reported":1748729348,"current_range_meters":18000,"station_id":"ce4bgvh2rcd13ifvqcs0","pricing_plan_id":"cebpf4jnsgd1na2vs0mg"},{"bike_id":"3ac07f5e-7063-4806-95dc-abbb4c9f9e33","system_id":"levelo_inurba_marseille","lat":43.315305,"lon":5.380333,"is_reserved":false,"is_disabled":false,"rental_uris":{"android":"levelo://app?vid=3ac07f5e-7063-4806-95dc-abbb4c9f9e33","ios":"levelo://app?vid=3ac07f5e-7063-4806-95dc-abbb4c9f9e33"},"vehicle_type_id":"4","last_reported":1748729348,"current_range_meters":18000,"station_id":"ce4bhsp2rcd13ifvqi50","pricing_plan_id":"cebpf4jnsgd1na2vs0mg"},{"bike_id":"9b817c1a-589a-4b28-bf0d-fb0b5947e91d","system_id":"levelo_inurba_marseille","lat":43.29419,"lon":5.38625,"is_reserved":false,"is_disabled":false,"rental_uris":{"android":"levelo://app?vid=9b817c1a-589a-4b28-bf0d-fb0b5947e91d","ios":"levelo://app?vid=9b817c1a-589a-4b28-bf0d-fb0b5947e91d"},"vehicle_type_id":"4","last_reported":1748729348,"current_range_meters":18000,"station_id":"ce4bh2h2rcd13ifvqdh0","pricing_plan_id":"cebpf4jnsgd1na2vs0mg"},{"bike_id":"81f3c0f8-d7ab-4f3e-9b41-bf4108971fb2","system_id":"levelo_inurba_marseille","lat":43.29575,"lon":5.37509,"is_reserved":false,"is_disabled":false,"rental_uris":{"android":"levelo://app?vid=81f3c0f8-d7ab-4f3e-9b41-bf4108971fb2","ios":"levelo://app?vid=81f3c0f8-d7ab-4f3e-9b41-bf4108971fb2"},"vehicle_type_id":"4","last_reported":1748729348,"current_range_meters":18000,"station_id":"ce4bgh92rcd13ifvqb50","pricing_plan_id":"cebpf4jnsgd1na2vs0mg"},{"bike_id":"bfbb688e-ce10-44f8-b0f2-a7273a9a3e54","system_id":"levelo_inurba_marseille","lat":43.28358,"lon":5.38105,"is_reserved":false,"is_disabled":false,"rental_uris":{"android":"levelo://app?vid=bfbb688e-ce10-44f8-b0f2-a7273a9a3e54","ios":"levelo://app?vid=bfbb688e-ce10-44f8-b0f2-a7273a9a3e54"},"vehicle_type_id":"4","last_reported":1748729348,"current_range_meters":18000,"station_id":"ce4bh412rcd13ifvqdr0","pricing_plan_id":"cebpf4jnsgd1na2vs0mg"},{"bike_id":"e88aa741-68b7-4d7f-9410-ec96bd35b75f","system_id":"levelo_inurba_marseille","lat":43.26919,"lon":5.389184,"is_reserved":false,"is_disabled":false,"rental_uris":{"android":"levelo://app?vid=e88aa741-68b7-4d7f-9410-ec96bd35b75f","ios":"levelo://app?vid=e88aa741-68b7-4d7f-9410-ec96bd35b75f"},"vehicle_type_id":"4","last_reported":1748729348,"current_range_meters":17600,"station_id":"ce4bhhh2rcd13ifvqfl0","pricing_plan_id":"cebpf4jnsgd1na2vs0mg"},{"bike_id":"97a58472-f76b-47e3-a716-281b120ccffa","system_id":"levelo_inurba_marseille","lat":43.279208,"lon":5.395737,"is_reserved":false,"is_disabled":true,"rental_uris":{"android":"levelo://app?vid=97a58472-f76b-47e3-a716-281b120ccffa","ios":"levelo://app?vid=97a58472-f76b-47e3-a716-281b120ccffa"},