{"last_updated":1701853648,"ttl":30,"version":"2.2","data":{"bikes":[{"bike_id":"eb05e2cc-2099-4076-bcc6-b0fc7ad4685a","system_id":"levelo_inurba_marseille","lat":43.31341,"lon":5.367098,"is_reserved":false,"is_disabled":false,"rental_uris":{"android":"levelo://app?vid=eb05e2cc-2099-4076-bcc6-b0fc7ad4685a","ios":"levelo://app?vid=eb05e2cc-2099-4076-bcc6-b0fc7ad4685a"},"vehicle_type_id":"4","last_reported":1701853649,"current_range_meters":18800,"station_id":"ce4bgr92rcd13ifvqc6g","pricing_plan_id":"free"},{"bike_id":"df8fd197-c6df-443f-a1d6-adf4381720b9","system_id":"levelo_inurba_marseille","lat":43.313391,"lon":5.36706,"is_reserved":false,"is_disabled":false,"rental_uris":{"android":"levelo://app?vid=df8fd197-c6df-443f-a1d6-adf4381720b9","ios":"levelo://app?vid=df8fd197-c6df-443f-a1d6-adf4381720b9"},"vehicle_type_id":"4","last_reported":1701853649,"current_range_meters":10800,"station_id":"ce4bgr92rcd13ifvqc6g","pricing_plan_id":"free"},{"bike_id":"e00719ba-086a-47b3-8f4f-3f2634239513","system_id":"levelo_inurba_marseille","lat":43.313391,"lon":5.36706,"is_reserved":false,"is_disabled":false,"rental_uris":{"android":"levelo://app?vid=e00719ba-086a-47b3-8f4f-3f2634239513","ios":"levelo://app?vid=e00719ba-086a-47b3-8f4f-3f2634239513"},"vehicle_type_id":"4","last_reported":1701853649,"current_range_meters":31200,"station_id":"ce4bgr92rcd13ifvqc6g","pricing_plan_id":"free"},{"bike_id":"5a7f0402-4af0-419c-97b5-cececd569c10","system_id":"levelo_inurba_marseille","lat":43.31341,"lon":5.367098,"is_reserved":false,"is_disabled":false,"rental_uris":{"android":"levelo://app?vid=5a7f0402-4af0-419c-97b5-cececd569c10","ios":"levelo://app?vid=5a7f0402-4af0-419c-97b5-cececd569c10"},"vehicle_type_id":"4","last_reported":1701853649,"current_range_meters":9200,"station_id":"ce4bgr92rcd13ifvqc6g","pricing_plan_id":"free"},{"bike_id":"1fe4fdc4-f7f1-4c06-91a9-6542164f2139","system_id":"levelo_inurba_marseille","lat":43.313391,"lon":5.36706,"is_reserved":false,"is_disabled":false,"rental_uris":{"android":"levelo://app?vid=1fe4fdc4-f7f1-4c06-91a9-6542164f2139","ios":"levelo://app?vid=1fe4fdc4-f7f1-4c06-91a9-6542164f2139"},"vehicle_type_id":"4","last_reported":1701853649,"current_range_meters":18800,"station_id":"ce4bgr92rcd13ifvqc6g","pricing_plan_id":"free"},{"bike_id":"4823973d-d09b-4cd0-9bae-f0a538770670","system_id":"levelo_inurba_marseille","lat":43.31341,"lon":5.367098,"is_reserved":false,"is_disabled":false,"rental_uris":{"android":"levelo://app?vid=4823973d-d09b-4cd0-9bae-f0a538770670","ios":"levelo://app?vid=4823973d-d09b-4cd0-9bae-f0a538770670"},"vehicle_type_id":"4","last_reported":1701853649,"current_range_meters":28800,"station_id":"ce4bgr92rcd13ifvqc6g","pricing_plan_id":"free"},{"bike_id":"8d9c6c5e-c69e-4837-96a5-0fb3ab2ab36b","system_id":"levelo_inurba_marseille","lat":43.313391,"lon":5.36706,"is_reserved":false,"is_disabled":false,"rental_uris":{"android":"levelo://app?vid=8d9c6c5e-c69e-4837-96a5-0fb3ab2ab36b","ios":"levelo://app?vid=8d9c6c5e-c69e-4837-96a5-0fb3ab2ab36b"},"vehicle_type_id":"4","last_reported":1701853649,"current_range_meters":12800,"station_id":"ce4bgr92rcd13ifvqc6g","pricing_plan_id":"free"},{"bike_id":"b8580366-d44c-41ac-9767-49cc6e378212","system_id":"levelo_inurba_marseille","lat":43.31341,"lon":5.367098,"is_reserved":false,"is_disabled":false,"rental_uris":{"android":"levelo://app?vid=b8580366-d44c-41ac-9767-49cc6e378212","ios":"levelo://app?vid=b8580366-d44c-41ac-9767-49cc6e378212"},"vehicle_type_id":"4","last_reported":1701853649,"current_range_meters":31600,"station_id":"ce4bgr92rcd13ifvqc6g","pricing_plan_id":"free"},{"bike_id":"d718462b-5e12-419c-b8c1-529aa5605080","system_id":"levelo_inurba_marseille","lat":43.313391,"lon":5.36706,"is_reserved":false,"is_disabled":false,"rental_uris":{"android":"levelo://app?vid=d718462b-5e12-419c-b8c1-529aa5605080","ios":"levelo://app?vid=d718462b-5e12-419c-b8c1-529aa5605080"},"vehicle_type_id":"4","last_reported":1701853649,"current_range_meters":20800,"station_id":"ce4bgr92rcd13ifvqc6g","pricing_plan_id":"free"},{"bike_id":"84528a0d-f016-4811-b886-e345342a30b9","system_id":"levelo_inurba_marseille","lat":43.31341,"lon":5.367098,"is_reserved":false,"is_disabled":false,"rental_uris":{"android":"levelo://app?vid=84528a0d-f016-4811-b886-e345342a30b9","ios":"levelo://app?vid=84528a0d-f016-4811-b886-e345342a30b9"},"vehicle_type_id":"4","last_reported":1701853649,"current_range_meters":6400,"station_id":"ce4bgr92rcd13ifvqc6g","pricing_plan_id":"free"},{"bike_id":"32bd8da0-35c8-4f08-aa9c-5422c3c21892","system_id":"levelo_inurba_marseille","lat":43.313391,"lon":5.36706,"is_reserved":false,"is_disabled":false,"rental_uris":{"android":"levelo://app?vid=32bd8da0-35c8-4f08-aa9c-5422c3c21892","ios":"levelo://app?vid=32bd8da0-35c8-4f08-aa9c-5422c3c21892"},"vehicle_type_id":"4","last_reported":1701853649,"current_range_meters":18000,"station_id":"ce4bgr92rcd13ifvqc6g","pricing_plan_id":"free"},{"bike_id":"35ad42e1-213f-4ee4-b23f-a16e2be7ee4b","system_id":"levelo_inurba_marseille","lat":43.313391,"lon":5.36706,"is_reserved":false,"is_disabled":false,"rental_uris":{"android":"levelo://app?vid=35ad42e1-213f-4ee4-b23f-a16e2be7ee4b","ios":"levelo://app?vid=35ad42e1-213f-4ee4-b23f-a16e2be7ee4b"},"vehicle_type_id":"4","last_reported":1701853649,"current_range_meters":23200,"station_id":"ce4bgr92rcd13ifvqc6g","pricing_plan_id":"free"},{"bike_id":"6b4a7cfb-cd85-47b0-aa5d-da8f4b3b8fa9","system_id":"levelo_inurba_marseille","lat":43.31341,"lon":5.367098,"is_reserved":false,"is_disabled":false,"rental_uris":{"android":"levelo://app?vid=6b4a7cfb-cd85-47b0-aa5d-da8f4b3b8fa9","ios":"levelo://app?vid=6b4a7cfb-cd85-47b0-aa5d-da8f4b3b8fa9"},"vehicle_type_id":"4","last_reported":1701853649,"current_range_meters":12400,"station_id":"ce4bgr92rcd13ifvqc6g","pricing_plan_id":"free"},{"bike_id":"1faadb27-e0f4-48e4-be9f-8135a14c4294","system_id":"levelo_inurba_marseille","lat":43.312239,"lon":5.368562,"is_reserved":false,"is_disabled":false,"rental_uris":{"android":"levelo://app?vid=1faadb27-e0f4-48e4-be9f-8135a14c4294","ios":"levelo://app?vid=1faadb27-e0f4-48e4-be9f-8135a14c4294"},"vehicle_type_id":"4","last_reported":1701853649,"current_range_meters":10800,"station_id":"ce4bgl92rcd13ifvqbq0","pricing_plan_id":"free"},{"bike_id":"af8cf5e9-33c5-4040-8d08-44915b34157d","system_id":"levelo_inurba_marseille","lat":43.312239,"lon":5.368562,"is_reserved":false,"is_disabled":false,"rental_uris":{"android":"levelo://app?vid=af8cf5e9-33c5-4040-8d08-44915b34157d","ios":"levelo://app?vid=af8cf5e9-33c5-4040-8d08-44915b34157d"},"vehicle_type_id":"4","last_reported":1701853649,"current_range_meters":5600,"station_id":"ce4bgl92rcd13ifvqbq0","pricing_plan_id":"free"},{"bike_id":"a4a3a6f5-6956-4dc3-818a-cfb5b5452cbe","system_id":"levelo_inurba_marseille","lat":43.312239,"lon":5.368562,"is_reserved":false,"is_disabled":false,"rental_uris":{"android":"levelo://app?vid=a4a3a6f5-6956-4dc3-818a-cfb5b5452cbe","ios":"levelo://app?vid=a4a3a6f5-6956-4dc3-818a-cfb5b5452cbe"},"vehicle_type_id":"4","last_reported":1701853649,"current_range_meters":30000,"station_id":"ce4bgl92rcd13ifvqbq0","pricing_plan_id":"free"},{"bike_id":"932e5f5c-b1dd-4e72-960b-ea060cd7e9c8","system_id":"levelo_inurba_marseille","lat":43.30906,"lon":5.36844,"is_reserved":false,"is_disabled":false,"rental_uris":{"android":"levelo://app?vid=932e5f5c-b1dd-4e72-960b-ea060cd7e9c8","ios":"levelo://app?vid=932e5f5c-b1dd-4e72-960b-ea060cd7e9c8"},"vehicle_type_id":"4","last_reported":1701853649,"current_range_meters":9200,"station_id":"ce4bgn92rcd13ifvqbvg","pricing_plan_id":"free"},{"bike_id":"f7c597b0-8d5f-451c-8781-c2de980d2800","system_id":"levelo_inurba_marseille","lat":43.309076,"lon":5.368465,"is_reserved":false,"is_disabled":false,"rental_uris":{"android":"levelo://app?vid=f7c597b0-8d5f-451c-8781-c2de980d2800","ios":"levelo://app?vid=f7c597b0-8d5f-451c-8781-c2de980d2800"},"vehicle_type_id":"4","last_reported":1701853649,"current_range_meters":17600,"station_id":"ce4bgn92rcd13ifvqbvg","pricing_plan_id":"free"},{"bike_id":"6ea1c1a4-88bd-4889-ab9c-3ecd70080133","system_id":"levelo_inurba_marseille","lat":43.309076,"lon":5.368465,"is_reserved":false,"is_disabled":false,"rental_uris":{"android":"levelo://app?vid=6ea1c1a4-88bd-4889-ab9c-3ecd70080133","ios":"levelo://app?vid=6ea1c1a4-88bd-4889-ab9c-3ecd70080133"},"vehicle_type_id":"4","last_reported":1701853649,"current_range_meters":28000,"station_id":"ce4bgn92rcd13ifvqbvg","pricing_plan_id":"free"},{"bike_id":"2cb5286c-bcc1-4f4b-985b-8f3284f99032","system_id":"levelo_inurba_marseille","lat":43.309039,"lon":5.371797,"is_reserved":false,"is_disabled":false,"rental_uris":{"android":"levelo://app?vid=2cb5286c-bcc1-4f4b-985b-8f3284f99032","ios":"levelo://app?vid=2cb5286c-bcc1-4f4b-985b-8f3284f99032"},"vehicle_type_id":"4","last_reported":1701853649,"current_range_meters":26400,"station_id":"ce4bguh2rcd13ifvqckg","pricing_plan_id":"free"},{"bike_id":"95957aac-e5d7-4a69-bdfa-3e4eaf4da7a6","system_id":"levelo_inurba_marseille","lat":43.306318,"lon":5.368272,"is_reserved":false,"is_disabled":false,"rental_uris":{"android":"levelo://app?vid=95957aac-e5d7-4a69-bdfa-3e4eaf4da7a6","ios":"levelo://app?vid=95957aac-e5d7-4a69-bdfa-3e4eaf4da7a6"},"vehicle_type_id":"4","last_reported":1701853649,"current_range_meters":22400,"station_id":"","pricing_plan_id":"free"},{"bike_id":"7987490a-321f-45c7-97c9-dc720a28ce0f","system_id":"levelo_inurba_marseille","lat":43.30546,"lon":5.36727,"is_reserved":false,"is_disabled":false,"rental_uris":{"android":"levelo://app?vid=7987490a-321f-45c7-97c9-dc720a28ce0f","ios":"levelo://app?vid=7987490a-321f-45c7-97c9-dc720a28ce0f"},"vehicle_type_id":"4","last_reported":1701853649,"current_range_meters":20000,"station_id":"ce4bgrp2rcd13ifvqc9g","pricing_plan_id":"free"},{"bike_id":"cfbfd12b-7d66-41c9-aaa4-af928ef383cf","system_id":"levelo_inurba_marseille","lat":43.305457,"lon":5.365398,"is_reserved":false,"is_disabled":false,"rental_uris":{"android":"levelo://app?vid=cfbfd12b-7d66-41c9-aaa4-af928ef383cf","ios":"levelo://app?vid=cfbfd12b-7d66-41c9-aaa4-af928ef383cf"},"vehicle_type_id":"4","last_reported":1701853649,"current_range_meters":25600,"station_id":"ce4bgs12rcd13ifvqcag","pricing_plan_id":"free"},{"bike_id":"268ff7d2-f654-4608-ac06-51f76ea87959","system_id":"levelo_inurba_marseille","lat":43.305712,"lon":5.365641,"is_reserved":false,"is_disabled":false,"rental_uris":{"android":"levelo://app?vid=268ff7d2-f654-4608-ac06-51f76ea87959","ios":"levelo://app?vid=268ff7d2-f654-4608-ac06-51f76ea87959"},"vehicle_type_id":"4","last_reported":1701853649,"current_range_meters":20400,"station_id":"ce4bgs12rcd13ifvqcag","pricing_plan_id":"free"},{"bike_id":"f904d2dc-14c3-4ad6-b161-5ad72d4c549c","system_id":"levelo_inurba_marseille","lat":43.30543,"lon":5.36542,"is_reserved":false,"is_disabled":false,"rental_uris":{"android":"levelo://app?vid=f904d2dc-14c3-4ad6-b161-5ad72d4c549c","ios":"levelo://app?vid=f904d2dc-14c3-4ad6-b161-5ad72d4c549c"},"vehicle_type_id":"4","last_reported":1701853649,"current_range_meters":5200,"station_id":"ce4bgs12rcd13ifvqcag","pricing_plan_id":"free"},{"bike_id":"85625443-89fb-4061-8012-250dafc82a12","system_id":"levelo_inurba_marseille","lat":43.305706,"lon":5.365654,"is_reserved":false,"is_disabled":false,"rental_uris":{"android":"levelo://app?vid=85625443-89fb-4061-8012-250dafc82a12","ios":"levelo://app?vid=85625443-89fb-4061-8012-250dafc82a12"},"vehicle_type_id":"4","last_reported":1701853649,"current_range_meters":16000,"station_id":"ce4bgs12rcd13ifvqcag","pricing_plan_id":"free"},{"bike_id":"3974da88-46ef-4d3e-91c6-bd279e95e60a","system_id":"levelo_inurba_marseille","lat":43.305714,"lon":5.365633,"is_reserved":false,"is_disabled":false,"rental_uris":{"android":"levelo://app?vid=3974da88-46ef-4d3e-91c6-bd279e95e60a","ios":"levelo://app?vid=3974da88-46ef-4d3e-91c6-bd279e95e60a"},"vehicle_type_id":"4","last_reported":1701853649,"current_range_meters":8000,"station_id":"ce4bgs12rcd13ifvqcag","pricing_plan_id":"free"},{"bike_id":"923fe58e-06bc-4644-8a72-f090dd649222","system_id":"levelo_inurba_marseille","lat":43.305706,"lon":5.365654,"is_reserved":false,"is_disabled":false,"rental_uris":{"android":"levelo://app?vid=923fe58e-06bc-4644-8a72-f090dd649222","ios":"levelo://app?vid=923fe58e-06bc-4644-8a72-f090dd649222"},"vehicle_type_id":"4","last_reported":1701853649,"current_range_meters":21600,"station_id":"ce4bgs12rcd13ifvqcag","pricing_plan_id":"free"},{"bike_id":"51c1edf5-ef17-4a5a-a65f-4a85ff207d52","system_id":"levelo_inurba_marseille","lat":43.305706,"lon":5.365654,"is_reserved":false,"is_disabled":false,"rental_uris":{"android":"levelo://app?vid=51c1edf5-ef17-4a5a-a65f-4a85ff207d52","ios":"levelo://app?vid=51c1edf5-ef17-4a5a-a65f-4a85ff207d52"},"vehicle_type_id":"4","last_reported":1701853649,"current_range_meters":17200,"station_id":"ce4bgs12rcd13ifvqcag","pricing_plan_id":"free"},{"bike_id":"b065b12a-ef87-47d8-8ac6-a38844050d40","system_id":"levelo_inurba_marseille","lat":43.319237,"lon":5.37299,"is_reserved":false,"is_disabled":false,"rental_uris":{"android":"levelo://app?vid=b065b12a-ef87-47d8-8ac6-a38844050d40","ios":"levelo://app?vid=b065b12a-ef87-47d8-8ac6-a38844050d40"},"vehicle_type_id":"4","last_reported":1701853649,"current_range_meters":0,"station_id":"","pricing_plan_id":"free"},{"bike_id":"fb6fd937-527b-4585-9058-0dfdc6436ac8","system_id":"levelo_inurba_marseille","lat":43.31351,"lon":5.37909,"is_reserved":false,"is_disabled":false,"rental_uris":{"android":"levelo://app?vid=fb6fd937-527b-4585-9058-0dfdc6436ac8","ios":"levelo://app?vid=fb6fd937-527b-4585-9058-0dfdc6436ac8"},"vehicle_type_id":"4","last_reported":1701853649,"current_range_meters":6800,"station_id":"","pricing_plan_id":"free"},{"bike_id":"a30bc916-5971-43b8-975f-47c477cac157","system_id":"levelo_inurba_marseille","lat":43.303046,"lon":5.368981,"is_reserved":false,"is_disabled":false,"rental_uris":{"android":"levelo://app?vid=a30bc916-5971-43b8-975f-47c477cac157","ios":"levelo://app?vid=a30bc916-5971-43b8-975f-47c477cac157"},"vehicle_type_id":"4","last_reported":1701853649,"current_range_meters":5600,"station_id":"ce4bgqh2rcd13ifvqc5g","pricing_plan_id":"free"},{"bike_id":"ff661443-914d-437d-a97e-1bb6fcb3d4c2","system_id":"levelo_inurba_marseille","lat":43.30304,"lon":5.368987,"is_reserved":false,"is_disabled":false,"rental_uris":{"android":"levelo://app?vid=ff661443-914d-437d-a97e-1bb6fcb3d4c2","ios":"levelo://app?vid=ff661443-914d-437d-a97e-1bb6fcb3d4c2"},"vehicle_type_id":"4","last_reported":1701853649,"current_range_meters":21200,"station_id":"ce4bgqh2rcd13ifvqc5g","pricing_plan_id":"free"},{"bike_id":"336f1d48-5ebf-41a5-8e49-d11231c83ee2","system_id":"levelo_inurba_marseille","lat":43.30304,"lon":5.368987,"is_reserved":false,"is_disabled":false,"rental_uris":{"android":"levelo://app?vid=336f1d48-5ebf-41a5-8e49-d11231c83ee2","ios":"levelo://app?vid=336f1d48-5ebf-41a5-8e49-d11231c83ee2"},"vehicle_type_id":"4","last_reported":1701853649,"current_range_meters":22800,"station_id":"ce4bgqh2rcd13ifvqc5g","pricing_plan_id":"free"},{"bike_id":"a6a11124-1504-43b6-9246-50c6dc865336","system_id":"levelo_inurba_marseille","lat":43.301939,"lon":5.366286,"is_reserved":false,"is_disabled":false,"rental_uris":{"android":"levelo://app?vid=a6a11124-1504-43b6-9246-50c6dc865336","ios":"levelo://app?vid=a6a11124-1504-43b6-9246-50c6dc865336"},"vehicle_type_id":"4","last_reported":1701853649,"current_range_meters":18800,"station_id":"ce4bgrh2rcd13ifvqc8g","pricing_plan_id":"free"},{"bike_id":"290877fc-51de-4a82-a608-5cbbbb7ef85e","system_id":"levelo_inurba_marseille","lat":43.301939,"lon":5.366286,"is_reserved":false,"is_disabled":false,"rental_uris":{"android":"levelo://app?vid=290877fc-51de-4a82-a608-5cbbbb7ef85e","ios":"levelo://app?vid=290877fc-51de-4a82-a608-5cbbbb7ef85e"},"vehicle_type_id":"4","last_reported":1701853649,"current_range_meters":14400,"station_id":"ce4bgrh2rcd13ifvqc8g","pricing_plan_id":"free"},{"bike_id":"71d575e8-eed2-4bcd-bb66-8939863b10da","system_id":"levelo_inurba_marseille","lat":43.30284,"lon":5.373427,"is_reserved":false,"is_disabled":false,"rental_uris":{"android":"levelo://app?vid=71d575e8-eed2-4bcd-bb66-8939863b10da","ios":"levelo://app?vid=71d575e8-eed2-4bcd-bb66-8939863b10da"},"vehicle_type_id":"4","last_reported":1701853649,"current_range_meters":10800,"station_id":"","pricing_plan_id":"free"},{"bike_id":"07344513-65a6-4b18-bf05-5118287d8bd5","system_id":"levelo_inurba_marseille","lat":43.30304,"lon":5.368987,"is_reserved":false,"is_disabled":false,"rental_uris":{"android":"levelo://app?vid=07344513-65a6-4b18-bf05-5118287d8bd5","ios":"levelo://app?vid=07344513-65a6-4b18-bf05-5118287d8bd5"},"vehicle_type_id":"4","last_reported":1701853649,"current_range_meters":10800,"station_id":"ce4bgqh2rcd13ifvqc5g","pricing_plan_id":"free"},{"bike_id":"7c28a762-a7dd-49ea-943d-936b74d4391a","system_id":"levelo_inurba_marseille","lat":43.304606,"lon":5.379026,"is_reserved":false,"is_disabled":false,"rental_uris":{"android":"levelo://app?vid=7c28a762-a7dd-49ea-943d-936b74d4391a","ios":"levelo://app?vid=7c28a762-a7dd-49ea-943d-936b74d4391a"},"vehicle_type_id":"4","last_reported":1701853649,"current_range_meters":24400,"station_id":"ce4bgup2rcd13ifvqcn0","pricing_plan_id":"free"},{"bike_id":"78ca96c4-2701-4584-8871-986d9f623c18","system_id":"levelo_inurba_marseille","lat":43.304606,"lon":5.379026,"is_reserved":false,"is_disabled":false,"rental_uris":{"android":"levelo://app?vid=78ca96c4-2701-4584-8871-986d9f623c18","ios":"levelo://app?vid=78ca96c4-2701-4584-8871-986d9f623c18"},"vehicle_type_id":"4","last_reported":1701853649,"current_range_meters":22800,"station_id":"ce4bgup2rcd13ifvqcn0","pricing_plan_id":"free"},{"bike_id":"eb035432-ddd8-4cd0-b63a-b06589375fec","system_id":"levelo_inurba_marseille","lat":43.304606,"lon":5.379026,"is_reserved":false,"is_disabled":false,"rental_uris":{"android":"levelo://app?vid=eb035432-ddd8-4cd0-b63a-b06589375fec","ios":"levelo://app?vid=eb035432-ddd8-4cd0-b63a-b06589375fec"},"vehicle_type_id":"4","last_reported":1701853649,"current_range_meters":4800,"station_id":"ce4bgup2rcd13ifvqcn0","pricing_plan_id":"free"},{"bike_id":"2861bf8f-8fb8-4206-8afa-5c0695d6c69e","system_id":"levelo_inurba_marseille","lat":43.304606,"lon":5.379026,"is_reserved":false,"is_disabled":false,"rental_uris":{"android":"levelo://app?vid=2861bf8f-8fb8-4206-8afa-5c0695d6c69e","ios":"levelo://app?vid=2861bf8f-8fb8-4206-8afa-5c0695d6c69e"},"vehicle_type_id":"4","last_reported":1701853649,"current_range_meters":20400,"station_id":"ce4bgup2rcd13ifvqcn0","pricing_plan_id":"free"},{"bike_id":"298c0a17-f26e-4dbd-920d-6a4c8daf981f","system_id":"levelo_inurba_marseille","lat":43.302784,"lon":5.377158,"is_reserved":false,"is_disabled":false,"rental_uris":{"android":"levelo://app?vid=298c0a17-f26e-4dbd-920d-6a4c8daf981f","ios":"levelo://app?vid=298c0a17-f26e-4dbd-920d-6a4c8daf981f"},"vehicle_type_id":"4","last_reported":1701853649,"current_range_meters":14400,"station_id":"ce4bguh2rcd13ifvqcj0","pricing_plan_id":"free"},{"bike_id":"1edcdc34-e707-41bb-ba48-7be3b533cdea","system_id":"levelo_inurba_marseille","lat":43.302784,"lon":5.377158,"is_reserved":false,"is_disabled":false,"rental_uris":{"android":"levelo://app?vid=1edcdc34-e707-41bb-ba48-7be3b533cdea","ios":"levelo://app?vid=1edcdc34-e707-41bb-ba48-7be3b533cdea"},"vehicle_type_id":"4","last_reported":1701853649,"current_range_meters":24800,"station_id":"ce4bguh2rcd13ifvqcj0","pricing_plan_id":"free"},{"bike_id":"ee59dcbc-8166-4e4e-9ee2-415599a12539","system_id":"levelo_inurba_marseille","lat":43.301429,"lon":5.37413,"is_reserved":false,"is_disabled":false,"rental_uris":{"android":"levelo://app?vid=ee59dcbc-8166-4e4e-9ee2-415599a12539","ios":"levelo://app?vid=ee59dcbc-8166-4e4e-9ee2-415599a12539"},"vehicle_type_id":"4","last_reported":1701853649,"current_range_meters":11200,"station_id":"ce4bgs92rcd13ifvqcc0","pricing_plan_id":"free"},{"bike_id":"b8ceb684-19e9-43a8-8bce-c6b1b442d666","system_id":"levelo_inurba_marseille","lat":43.302784,"lon":5.377158,"is_reserved":false,"is_disabled":false,"rental_uris":{"android":"levelo://app?vid=b8ceb684-19e9-43a8-8bce-c6b1b442d666","ios":"levelo://app?vid=b8ceb684-19e9-43a8-8bce-c6b1b442d666"},"vehicle_type_id":"4","last_reported":1701853649,"current_range_meters":15600,"station_id":"ce4bguh2rcd13ifvqcj0","pricing_plan_id":"free"},{"bike_id":"591a65b7-f605-4143-959a-6b50e9447a0f","system_id":"levelo_inurba_marseille","lat":43.301429,"lon":5.37413,"is_reserved":false,"is_disabled":false,"rental_uris":{"android":"levelo://app?vid=591a65b7-f605-4143-959a-6b50e9447a0f","ios":"levelo://app?vid=591a65b7-f605-4143-959a-6b50e9447a0f"},"vehicle_type_id":"4","last_reported":1701853649,"current_range_meters":20000,"station_id":"ce4bgs92rcd13ifvqcc0","pricing_plan_id":"free"},{"bike_id":"e73217bb-f282-47df-b9e5-584abb1c209a","system_id":"levelo_inurba_marseille","lat":43.302784,"lon":5.377158,"is_reserved":false,"is_disabled":false,"rental_uris":{"android":"levelo://app?vid=e73217bb-f282-47df-b9e5-584abb1c209a","ios":"levelo://app?vid=e73217bb-f282-47df-b9e5-584abb1c209a"},"vehicle_type_id":"4","last_reported":1701853649,"current_range_meters":16800,"station_id":"ce4bguh2rcd13ifvqcj0","pricing_plan_id":"free"},{"bike_id":"a7503af2-3416-42b0-89b3-360ea5b90ea2","system_id":"levelo_inurba_marseille","lat":43.31994,"lon":5.38141,"is_reserved":false,"is_disabled":false,"rental_uris":{"android":"levelo://app?vid=a7503af2-3416-42b0-89b3-360ea5b90ea2","ios":"levelo://app?vid=a7503af2-3416-42b0-89b3-360ea5b90ea2"},"vehicle_type_id":"4","last_reported":1701853649,"current_range_meters":25200,"station_id":"ce4bhr12rcd13ifvqhpg","pricing_plan_id":"free"},{"bike_id":"65f8fa65-6ae7-4e94-86fb-6a8a6a019c04","system_id":"levelo_inurba_marseille","lat":43.31994,"lon":5.38148,"is_reserved":false,"is_disabled":false,"rental_uris":{"android":"levelo://app?vid=65f8fa65-6ae7-4e94-86fb-6a8a6a019c04","ios":"levelo://app?vid=65f8fa65-6ae7-4e94-86fb-6a8a6a019c04"},"vehicle_type_id":"4","last_reported":1701853649,"current_range_meters":10400,"station_id":"ce4bhr12rcd13ifvqhpg","pricing_plan_id":"free"},{"bike_id":"1e44eb00-5254-457d-b804-b536ef4db324","system_id":"levelo_inurba_marseille","lat":43.31998,"lon":5.38146,"is_reserved":false,"is_disabled":false,"rental_uris":{"android":"levelo://app?vid=1e44eb00-5254-457d-b804-b536ef4db324","ios":"levelo://app?vid=1e44eb00-5254-457d-b804-b536ef4db324"},"vehicle_type_id":"4","last_reported":1701853649,"current_range_meters":12000,"station_id":"ce4bhr12rcd13ifvqhpg","pricing_plan_id":"free"},{"bike_id":"8f0e376d-d370-406a-9c0a-dac0b1463e7e","system_id":"levelo_inurba_marseille","lat":43.319997,"lon":5.381594,"is_reserved":false,"is_disabled":false,"rental_uris":{"android":"levelo://app?vid=8f0e376d-d370-406a-9c0a-dac0b1463e7e","ios":"levelo://app?vid=8f0e376d-d370-406a-9c0a-dac0b1463e7e"},"vehicle_type_id":"4","last_reported":1701853649,"current_range_meters":400,"station_id":"ce4bhr12rcd13ifvqhpg","pricing_plan_id":"free"},{"bike_id":"30a56e40-85f3-4e15-b42c-e3cceced0144","system_id":"levelo_inurba_marseille","lat":43.319935,"lon":5.381699,"is_reserved":false,"is_disabled":false,"rental_uris":{"android":"levelo://app?vid=30a56e40-85f3-4e15-b42c-e3cceced0144","ios":"levelo://app?vid=30a56e40-85f3-4e15-b42c-e3cceced0144"},"vehicle_type_id":"4","last_reported":1701853649,"current_range_meters":19600,"station_id":"ce4bhr12rcd13ifvqhpg","pricing_plan_id":"free"},{"bike_id":"bd082ecf-686f-49c5-a30a-7ea43132642a","system_id":"levelo_inurba_marseille","lat":43.313571,"lon":5.384829,"is_reserved":false,"is_disabled":false,"rental_uris":{"android":"levelo://app?vid=bd082ecf-686f-49c5-a30a-7ea43132642a","ios":"levelo://app?vid=bd082ecf-686f-49c5-a30a-7ea43132642a"},"vehicle_type_id":"4","last_reported":1701853649,"current_range_meters":0,"station_id":"ce4bgt92rcd13ifvqcf0","pricing_plan_id":"free"},{"bike_id":"7f9d019d-57f8-446b-a820-51762712ce5b","system_id":"levelo_inurba_marseille","lat":43.298433,"lon":5.362774,"is_reserved":false,"is_disabled":false,"rental_uris":{"android":"levelo://app?vid=7f9d019d-57f8-446b-a820-51762712ce5b","ios":"levelo://app?vid=7f9d019d-57f8-446b-a820-51762712ce5b"},"vehicle_type_id":"4","last_reported":1701853649,"current_range_meters":22400,"station_id":"ce4bgpp2rcd13ifvqc3g","pricing_plan_id":"free"},{"bike_id":"74357b1e-131e-4c4b-ad52-6f69e188882b","system_id":"levelo_inurba_marseille","lat":43.298433,"lon":5.362774,"is_reserved":false,"is_disabled":false,"rental_uris":{"android":"levelo://app?vid=74357b1e-131e-4c4b-ad52-6f69e188882b","ios":"levelo://app?vid=74357b1e-131e-4c4b-ad52-6f69e188882b"},"vehicle_type_id":"4","last_reported":1701853649,"current_range_meters":26800,"station_id":"ce4bgpp2rcd13ifvqc3g","pricing_plan_id":"free"},{"bike_id":"5c56245d-7fc0-458e-87b0-015698055202","system_id":"levelo_inurba_marseille","lat":43.299243,"lon":5.37481,"is_reserved":false,"is_disabled":false,"rental_uris":{"android":"levelo://app?vid=5c56245d-7fc0-458e-87b0-015698055202","ios":"levelo://app?vid=5c56245d-7fc0-458e-87b0-015698055202"},"vehicle_type_id":"4","last_reported":1701853649,"current_range_meters":13600,"station_id":"ce4bgjh2rcd13ifvqbg0","pricing_plan_id":"free"},{"bike_id":"ec3e88f3-db97-462c-b917-8ecd153130da","system_id":"levelo_inurba_marseille","lat":43.305364,"lon":5.384119,"is_reserved":false,"is_disabled":false,"rental_uris":{"android":"levelo://app?vid=ec3e88f3-db97-462c-b917-8ecd153130da","ios":"levelo://app?vid=ec3e88f3-db97-462c-b917-8ecd153130da"},"vehicle_type_id":"4","last_reported":1701853649,"current_range_meters":2800,"station_id":"ce4bgg92rcd13ifvqb30","pricing_plan_id":"free"},{"bike_id":"391c3a78-af65-4585-b7fd-e8d8af182a3e","system_id":"levelo_inurba_marseille","lat":43.298433,"lon":5.362774,"is_reserved":false,"is_disabled":false,"rental_uris":{"android":"levelo://app?vid=391c3a78-af65-4585-b7fd-e8d8af182a3e","ios":"levelo://app?vid=391c3a78-af65-4585-b7fd-e8d8af182a3e"},"vehicle_type_id":"4","last_reported":1701853649,"current_range_meters":26000,"station_id":"ce4bgpp2rcd13ifvqc3g","pricing_plan_id":"free"},{"bike_id":"516888b7-2ca2-4181-8a94-555c1b9f164a","system_id":"levelo_inurba_marseille","lat":43.298433,"lon":5.362774,"is_reserved":false,"is_disabled":false,"rental_uris":{"android":"levelo://app?vid=516888b7-2ca2-4181-8a94-555c1b9f164a","ios":"levelo://app?vid=516888b7-2ca2-4181-8a94-555c1b9f164a"},"vehicle_type_id":"4","last_reported":1701853649,"current_range_meters":18000,"station_id":"ce4bgpp2rcd13ifvqc3g","pricing_plan_id":"free"},{"bike_id":"7255d65a-e437-4f1d-b351-bff22dd088f0","system_id":"levelo_inurba_marseille","lat":43.298433,"lon":5.362774,"is_reserved":false,"is_disabled":false,"rental_uris":{"android":"levelo://app?vid=7255d65a-e437-4f1d-b351-bff22dd088f0","ios":"levelo://app?vid=7255d65a-e437-4f1d-b351-bff22dd088f0"},"vehicle_type_id":"4","last_reported":1701853649,"current_range_meters":26000,"station_id":"ce4bgpp2rcd13ifvqc3g","pricing_plan_id":"free"},{"bike_id":"2e20179d-577c-4689-8b04-7c7d96d1033e","system_id":"levelo_inurba_marseille","lat":43.298433,"lon":5.362774,"is_reserved":false,"is_disabled":false,"rental_uris":{"android":"levelo://app?vid=2e20179d-577c-4689-8b04-7c7d96d1033e","ios":"levelo://app?vid=2e20179d-577c-4689-8b04-7c7d96d1033e"},"vehicle_type_id":"4","last_reported":1701853649,"current_range_meters":24000,"station_id":"ce4bgpp2rcd13ifvqc3g","pricing_plan_id":"free"},{"bike_id":"47bb74eb-843d-4de1-b780-3985445178f2","system_id":"levelo_inurba_marseille","lat":43.298433,"lon":5.362774,"is_reserved":false,"is_disabled":false,"rental_uris":{"android":"levelo://app?vid=47bb74eb-843d-4de1-b780-3985445178f2","ios":"levelo://app?vid=47bb74eb-843d-4de1-b780-3985445178f2"},"vehicle_type_id":"4","last_reported":1701853649,"current_range_meters":23600,"station_id":"ce4bgpp2rcd13ifvqc3g","pricing_plan_id":"free"},{"bike_id":"1b9402c4-73a7-4598-af02-b832fc3e12bd","system_id":"levelo_inurba_marseille","lat":43.297794,"lon":5.370888,"is_reserved":false,"is_disabled":false,"rental_uris":{"android":"levelo://app?vid=1b9402c4-73a7-4598-af02-b832fc3e12bd","ios":"levelo://app?vid=1b9402c4-73a7-4598-af02-b832fc3e12bd"},"vehicle_type_id":"4","last_reported":1701853649,"current_range_meters":27600,"station_id":"ce4bgop2rcd13ifvqc1g","pricing_plan_id":"free"},{"bike_id":"b4879a0b-f87c-476b-ba9f-57011b8686d8","system_id":"levelo_inurba_marseille","lat":43.298218,"lon":5.374416,"is_reserved":false,"is_disabled":false,"rental_uris":{"android":"levelo://app?vid=b4879a0b-f87c-476b-ba9f-57011b8686d8","ios":"levelo://app?vid=b4879a0b-f87c-476b-ba9f-57011b8686d8"},"vehicle_type_id":"4","last_reported":1701853649,"current_range_meters":14400,"station_id":"","pricing_plan_id":"free"},{"bike_id":"73c23a8d-2837-446e-83fd-663e18a9fad1","system_id":"levelo_inurba_marseille","lat":43.328371,"lon":5.366909,"is_reserved":false,"is_disabled":false,"rental_uris":{"android":"levelo://app?vid=73c23a8d-2837-446e-83fd-663e18a9fad1","ios":"levelo://app?vid=73c23a8d-2837-446e-83fd-663e18a9fad1"},"vehicle_type_id":"4","last_reported":1701853649,"current_range_meters":30800,"station_id":"ce4bhs92rcd13ifvqi0g","pricing_plan_id":"free"},{"bike_id":"c062afd1-2735-4377-ab7e-6b291e5e329a","system_id":"levelo_inurba_marseille","lat":43.297163,"lon":5.365866,"is_reserved":false,"is_disabled":false,"rental_uris":{"android":"levelo://app?vid=c062afd1-2735-4377-ab7e-6b291e5e329a","ios":"levelo://app?vid=c062afd1-2735-4377-ab7e-6b291e5e329a"},"vehicle_type_id":"4","last_reported":1701853649,"current_range_meters":26400,"station_id":"ce4bgn12rcd13ifvqbt0","pricing_plan_id":"free"},{"bike_id":"3a2dda2e-3aab-4d0e-a954-793f1706ec09","system_id":"levelo_inurba_marseille","lat":43.298868,"lon":5.378282,"is_reserved":false,"is_disabled":false,"rental_uris":{"android":"levelo://app?vid=3a2dda2e-3aab-4d0e-a954-793f1706ec09","ios":"levelo://app?vid=3a2dda2e-3aab-4d0e-a954-793f1706ec09"},"vehicle_type_id":"4","last_reported":1701853649,"current_range_meters":22400,"station_id":"","pricing_plan_id":"free"},{"bike_id":"fb66d132-8cf6-4a27-8a48-526274ecad72","system_id":"levelo_inurba_marseille","lat":43.2968,"lon":5.37291,"is_reserved":false,"is_disabled":false,"rental_uris":{"android":"levelo://app?vid=fb66d132-8cf6-4a27-8a48-526274ecad72","ios":"levelo://app?vid=fb66d132-8cf6-4a27-8a48-526274ecad72"},"vehicle_type_id":"4","last_reported":1701853649,"current_range_meters":24400,"station_id":"ce4bgk12rcd13ifvqbj0","pricing_plan_id":"free"},{"bike_id":"fad051df-9150-4866-a68e-71dc1b88d26f","system_id":"levelo_inurba_marseille","lat":43.316538,"lon":5.38954,"is_reserved":false,"is_disabled":false,"rental_uris":{"android":"levelo://app?vid=fad051df-9150-4866-a68e-71dc1b88d26f","ios":"levelo://app?vid=fad051df-9150-4866-a68e-71dc1b88d26f"},"vehicle_type_id":"4","last_reported":1701853649,"current_range_meters":10000,"station_id":"","pricing_plan_id":"free"},{"bike_id":"f4947952-03e9-4855-9e33-2a49c1d08ca4","system_id":"levelo_inurba_marseille","lat":43.296131,"lon":5.370773,"is_reserved":false,"is_disabled":false,"rental_uris":{"android":"levelo://app?vid=f4947952-03e9-4855-9e33-2a49c1d08ca4","ios":"levelo://app?vid=f4947952-03e9-4855-9e33-2a49c1d08ca4"},"vehicle_type_id":"4","last_reported":1701853649,"current_range_meters":0,"station_id":"ce4bgnh2rcd13ifvqc0g","pricing_plan_id":"free"},{"bike_id":"eaeafd36-e184-49ab-9879-c9315fced0da","system_id":"levelo_inurba_marseille","lat":43.296935,"lon":5.376544,"is_reserved":false,"is_disabled":false,"rental_uris":{"android":"levelo://app?vid=eaeafd36-e184-49ab-9879-c9315fced0da","ios":"levelo://app?vid=eaeafd36-e184-49ab-9879-c9315fced0da"},"vehicle_type_id":"4","last_reported":1701853649,"current_range_meters":6000,"station_id":"ce4bgkh2rcd13ifvqbl0","pricing_plan_id":"free"},{"bike_id":"f1d85fe7-a8cc-4c0b-aba6-71ff83ff9c53","system_id":"levelo_inurba_marseille","lat":43.309589,"lon":5.390258,"is_reserved":false,"is_disabled":false,"rental_uris":{"android":"levelo://app?vid=f1d85fe7-a8cc-4c0b-aba6-71ff83ff9c53","ios":"levelo://app?vid=f1d85fe7-a8cc-4c0b-aba6-71ff83ff9c53"},"vehicle_type_id":"4","last_reported":1701853649,"current_range_meters":22800,"station_id":"ce4bgup2rcd13ifvqco0","pricing_plan_id":"free"},{"bike_id":"afcf916a-1fb8-44e3-89d3-3089366cc4cb","system_id":"levelo_inurba_marseille","lat":43.309589,"lon":5.390258,"is_reserved":false,"is_disabled":false,"rental_uris":{"android":"levelo://app?vid=afcf916a-1fb8-44e3-89d3-3089366cc4cb","ios":"levelo://app?vid=afcf916a-1fb8-44e3-89d3-3089366cc4cb"},"vehicle_type_id":"4","last_reported":1701853649,"current_range_meters":3600,"station_id":"ce4bgup2rcd13ifvqco0","pricing_plan_id":"free"},{"bike_id":"f82d3c4a-fd1b-464c-97dd-2358acab7507","system_id":"levelo_inurba_marseille","lat":43.309589,"lon":5.390258,"is_reserved":false,"is_disabled":false,"rental_uris":{"android":"levelo://app?vid=f82d3c4a-fd1b-464c-97dd-2358acab7507","ios":"levelo://app?vid=f82d3c4a-fd1b-464c-97dd-2358acab7507"},"vehicle_type_id":"4","last_reported":1701853649,"current_range_meters":14000,"station_id":"ce4bgup2rcd13ifvqco0","pricing_plan_id":"free"},{"bike_id":"90b4f850-c17c-4eb9-bdd6-d52e19ffad5f","system_id":"levelo_inurba_marseille","lat":43.309589,"lon":5.390258,"is_reserved":false,"is_disabled":false,"rental_uris":{"android":"levelo://app?vid=90b4f850-c17c-4eb9-bdd6-d52e19ffad5f","ios":"levelo://app?vid=90b4f850-c17c-4eb9-bdd6-d52e19ffad5f"},"vehicle_type_id":"4","last_reported":1701853649,"current_range_meters":22800,"station_id":"ce4bgup2rcd13ifvqco0","pricing_plan_id":"free"},{"bike_id":"e7ad01e9-a4c0-443b-9b25-ae1a0302ef19","system_id":"levelo_inurba_marseille","lat":43.309589,"lon":5.390258,"is_reserved":false,"is_disabled":false,"rental_uris":{"android":"levelo://app?vid=e7ad01e9-a4c0-443b-9b25-ae1a0302ef19","ios":"levelo://app?vid=e7ad01e9-a4c0-443b-9b25-ae1a0302ef19"},"vehicle_type_id":"4","last_reported":1701853649,"current_range_meters":21200,"station_id":"ce4bgup2rcd13ifvqco0","pricing_plan_id":"free"},{"bike_id":"b58baa85-a03a-4cf0-8425-908e2c0b3ea0","system_id":"levelo_inurba_marseille","lat":43.309589,"lon":5.390258,"is_reserved":false,"is_disabled":false,"rental_uris":{"android":"levelo://app?vid=b58baa85-a03a-4cf0-8425-908e2c0b3ea0","ios":"levelo://app?vid=b58baa85-a03a-4cf0-8425-908e2c0b3ea0"},"vehicle_type_id":"4","last_reported":1701853649,"current_range_meters":24400,"station_id":"ce4bgup2rcd13ifvqco0","pricing_plan_id":"free"},{"bike_id":"dccaea2a-066e-4f03-bcd1-404c73f404f4","system_id":"levelo_inurba_marseille","lat":43.317557,"lon":5.390173,"is_reserved":false,"is_disabled":false,"rental_uris":{"android":"levelo://app?vid=dccaea2a-066e-4f03-bcd1-404c73f404f4","ios":"levelo://app?vid=dccaea2a-066e-4f03-bcd1-404c73f404f4"},"vehicle_type_id":"4","last_reported":1701853649,"current_range_meters":14000,"station_id":"ce4bhqp2rcd13ifvqhng","pricing_plan_id":"free"},{"bike_id":"0823a441-bd11-4d4c-a0ad-93235b1c1f57","system_id":"levelo_inurba_marseille","lat":43.317557,"lon":5.390173,"is_reserved":false,"is_disabled":false,"rental_uris":{"android":"levelo://app?vid=0823a441-bd11-4d4c-a0ad-93235b1c1f57","ios":"levelo://app?vid=0823a441-bd11-4d4c-a0ad-93235b1c1f57"},"vehicle_type_id":"4","last_reported":1701853649,"current_range_meters":27200,"station_id":"ce4bhqp2rcd13ifvqhng","pricing_plan_id":"free"},{"bike_id":"14926355-8adb-4bd7-916c-fb3cff5ca92e","system_id":"levelo_inurba_marseille","lat":43.298037,"lon":5.381066,"is_reserved":false,"is_disabled":false,"rental_uris":{"android":"levelo://app?vid=14926355-8adb-4bd7-916c-fb3cff5ca92e","ios":"levelo://app?vid=14926355-8adb-4bd7-916c-fb3cff5ca92e"},"vehicle_type_id":"4","last_reported":1701853649,"current_range_meters":12000,"station_id":"ce4bgip2rcd13ifvqbb0","pricing_plan_id":"free"},{"bike_id":"6881ffea-6b3a-4c6d-a369-c3a293f213e4","system_id":"levelo_inurba_marseille","lat":43.297917,"lon":5.381033,"is_reserved":false,"is_disabled":false,"rental_uris":{"android":"levelo://app?vid=6881ffea-6b3a-4c6d-a369-c3a293f213e4","ios":"levelo://app?vid=6881ffea-6b3a-4c6d-a369-c3a293f213e4"},"vehicle_type_id":"4","last_reported":1701853649,"current_range_meters":16800,"station_id":"ce4bgip2rcd13ifvqbb0","pricing_plan_id":"free"},{"bike_id":"deade328-4e06-490f-9262-e8f81a777981","system_id":"levelo_inurba_marseille","lat":43.296263,"lon":5.377094,"is_reserved":false,"is_disabled":false,"rental_uris":{"android":"levelo://app?vid=deade328-4e06-490f-9262-e8f81a777981","ios":"levelo://app?vid=deade328-4e06-490f-9262-e8f81a777981"},"vehicle_type_id":"4","last_reported":1701853649,"current_range_meters":8000,"station_id":"ce4bgi92rcd13ifvqb90","pricing_plan_id":"free"},{"bike_id":"573181c3-e264-4932-b018-2432d03fb945","system_id":"levelo_inurba_marseille","lat":43.295748,"lon":5.37522,"is_reserved":false,"is_disabled":false,"rental_uris":{"android":"levelo://app?vid=573181c3-e264-4932-b018-2432d03fb945","ios":"levelo://app?vid=573181c3-e264-4932-b018-2432d03fb945"},"vehicle_type_id":"4","last_reported":1701853649,"current_range_meters":23200,"station_id":"ce4bgh92rcd13ifvqb50","pricing_plan_id":"free"},{"bike_id":"abe84497-fb17-455f-b511-71d1ec1fd3ce","system_id":"levelo_inurba_marseille","lat":43.323646,"lon":5.388804,"is_reserved":false,"is_disabled":false,"rental_uris":{"android":"levelo://app?vid=abe84497-fb17-455f-b511-71d1ec1fd3ce","ios":"levelo://app?vid=abe84497-fb17-455f-b511-71d1ec1fd3ce"},"vehicle_type_id":"4","last_reported":1701853649,"current_range_meters":5600,"station_id":"ce4bhqp2rcd13ifvqhog","pricing_plan_id":"free"},{"bike_id":"07967f1e-00b3-4d63-8ab5-24c06e141a86","system_id":"levelo_inurba_marseille","lat":43.323663,"lon":5.388803,"is_reserved":false,"is_disabled":false,"rental_uris":{"android":"levelo://app?vid=07967f1e-00b3-4d63-8ab5-24c06e141a86","ios":"levelo://app?vid=07967f1e-00b3-4d63-8ab5-24c06e141a86"},"vehicle_type_id":"4","last_reported":1701853649,"current_range_meters":13600,"station_id":"ce4bhqp2rcd13ifvqhog","pricing_plan_id":"free"},{"bike_id":"c3643ac2-cdd1-4bd1-99e6-62e33012d634","system_id":"levelo_inurba_marseille","lat":43.32368,"lon":5.38881,"is_reserved":false,"is_disabled":false,"rental_uris":{"android":"levelo://app?vid=c3643ac2-cdd1-4bd1-99e6-62e33012d634","ios":"levelo://app?vid=c3643ac2-cdd1-4bd1-99e6-62e33012d634"},"vehicle_type_id":"4","last_reported":1701853649,"current_range_meters":8000,"station_id":"ce4bhqp2rcd13ifvqhog","pricing_plan_id":"free"},{"bike_id":"890dc1cd-514a-4952-b017-3a9bad810626","system_id":"levelo_inurba_marseille","lat":43.292749,"lon":5.368402,"is_reserved":false,"is_disabled":false,"rental_uris":{"android":"levelo://app?vid=890dc1cd-514a-4952-b017-3a9bad810626","ios":"levelo://app?vid=890dc1cd-514a-4952-b017-3a9bad810626"},"vehicle_type_id":"4","last_reported":1701853649,"current_range_meters":13200,"station_id":"ce4bhbp2rcd13ifvqesg","pricing_plan_id":"free"},{"bike_id":"de9c5286-8cbc-4dc0-8ea0-d0dd0353d7a0","system_id":"levelo_inurba_marseille","lat":43.291675,"lon":5.371583,"is_reserved":false,"is_disabled":false,"rental_uris":{"android":"levelo://app?vid=de9c5286-8cbc-4dc0-8ea0-d0dd0353d7a0","ios":"levelo://app?vid=de9c5286-8cbc-4dc0-8ea0-d0dd0353d7a0"},"vehicle_type_id":"4","last_reported":1701853649,"current_range_meters":25600,"station_id":"ce4bha92rcd13ifvqeh0","pricing_plan_id":"free"},{"bike_id":"9e8413fb-c931-465b-bb55-11810690e89b","system_id":"levelo_inurba_marseille","lat":43.293259,"lon":5.371586,"is_reserved":false,"is_disabled":false,"rental_uris":{"android":"levelo://app?vid=9e8413fb-c931-465b-bb55-11810690e89b","ios":"levelo://app?vid=9e8413fb-c931-465b-bb55-11810690e89b"},"vehicle_type_id":"4","last_reported":1701853649,"current_range_meters":21600,"station_id":"ce4bgh92rcd13ifvqb40","pricing_plan_id":"free"},{"bike_id":"eb472dad-47ca-454e-ba41-6ae2624bcc1c","system_id":"levelo_inurba_marseille","lat":43.31324,"lon":5.397,"is_reserved":false,"is_disabled":false,"rental_uris":{"android":"levelo://app?vid=eb472dad-47ca-454e-ba41-6ae2624bcc1c","ios":"levelo://app?vid=eb472dad-47ca-454e-ba41-6ae2624bcc1c"},"vehicle_type_id":"4","last_reported":1701853649,"current_range_meters":26000,"station_id":"ce4bgvp2rcd13ifvqcu0","pricing_plan_id":"free"},{"bike_id":"151a7416-5e70-4489-a0f0-41882ac1d8c2","system_id":"levelo_inurba_marseille","lat":43.29529,"lon":5.385581,"is_reserved":false,"is_disabled":false,"rental_uris":{"android":"levelo://app?vid=151a7416-5e70-4489-a0f0-41882ac1d8c2","ios":"levelo://app?vid=151a7416-5e70-4489-a0f0-41882ac1d8c2"},"vehicle_type_id":"4","last_reported":1701853649,"current_range_meters":27600,"station_id":"ce4bgih2rcd13ifvqba0","pricing_plan_id":"free"},{"bike_id":"327af2aa-7503-42d9-8ffd-56411ac23545","system_id":"levelo_inurba_marseille","lat":43.302008,"lon":5.394694,"is_reserved":false,"is_disabled":false,"rental_uris":{"android":"levelo://app?vid=327af2aa-7503-42d9-8ffd-56411ac23545","ios":"levelo://app?vid=327af2aa-7503-42d9-8ffd-56411ac23545"},"vehicle_type_id":"4","last_reported":1701853649,"current_range_meters":6400,"station_id":"ce4bh0p2rcd13ifvqd70","pricing_plan_id":"free"},{"bike_id":"78d3f41a-7b0e-4b13-a93b-c89abccfb7f4","system_id":"levelo_inurba_marseille","lat":43.289259,"lon":5.366364,"is_reserved":false,"is_disabled":false,"rental_uris":{"android":"levelo://app?vid=78d3f41a-7b0e-4b13-a93b-c89abccfb7f4","ios":"levelo://app?vid=78d3f41a-7b0e-4b13-a93b-c89abccfb7f4"},"vehicle_type_id":"4","last_reported":1701853649,"current_range_meters":24400,"station_id":"","pricing_plan_id":"free"},{"bike_id":"f68e2c8b-de08-4ad7-b342-74483183b5be","system_id":"levelo_inurba_marseille","lat":43.330344,"lon":5.389356,"is_reserved":false,"is_disabled":false,"rental_uris":{"android":"levelo://app?vid=f68e2c8b-de08-4ad7-b342-74483183b5be","ios":"levelo://app?vid=f68e2c8b-de08-4ad7-b342-74483183b5be"},"vehicle_type_id":"4","last_reported":1701853649,"current_range_meters":28400,"station_id":"ce4bhr92rcd13ifvqhrg","pricing_plan_id":"free"},{"bike_id":"09603281-fb2c-44f9-9a8a-ae80b0152317","system_id":"levelo_inurba_marseille","lat":43.28856,"lon":5.358371,"is_reserved":false,"is_disabled":false,"rental_uris":{"android":"levelo://app?vid=09603281-fb2c-44f9-9a8a-ae80b0152317","ios":"levelo://app?vid=09603281-fb2c-44f9-9a8a-ae80b0152317"},"vehicle_type_id":"4","last_reported":1701853649,"current_range_meters":13200,"station_id":"ce4bhb12rcd13ifvqem0","pricing_plan_id":"free"},{"bike_id":"a01a8d62-3f82-430f-8cbf-bf5e5048b82c","system_id":"levelo_inurba_marseille","lat":43.337446,"lon":5.374589,"is_reserved":false,"is_disabled":false,"rental_uris":{"android":"levelo://app?vid=a01a8d62-3f82-430f-8cbf-bf5e5048b82c","ios":"levelo://app?vid=a01a8d62-3f82-430f-8cbf-bf5e5048b82c"},"vehicle_type_id":"4","last_reported":1701853649,"current_range_meters":22800,"station_id":"","pricing_plan_id":"free"},{"bike_id":"61e94894-252e-4e6e-9735-b09eceabfad5","system_id":"levelo_inurba_marseille","lat":43.337464,"lon":5.374801,"is_reserved":false,"is_disabled":false,"rental_uris":{"android":"levelo://app?vid=61e94894-252e-4e6e-9735-b09eceabfad5","ios":"levelo://app?vid=61e94894-252e-4e6e-9735-b09eceabfad5"},"vehicle_type_id":"4","last_reported":1701853649,"current_range_meters":31200,"station_id":"","pricing_plan_id":"free"},{"bike_id":"b1da507f-59bc-4bfa-9de7-dd18b0d37739","system_id":"levelo_inurba_marseille","lat":43.337515,"lon":5.374499,"is_reserved":false,"is_disabled":false,"rental_uris":{"android":"levelo://app?vid=b1da507f-59bc-4bfa-9de7-dd18b0d37739","ios":"levelo://app?vid=b1da507f-59bc-4bfa-9de7-dd18b0d37739"},"vehicle_type_id":"4","last_reported":1701853649,"current_range_meters":30400,"station_id":"","pricing_plan_id":"free"},{"bike_id":"82aceeed-6a3f-4dcf-9611-c927556a3952","system_id":"levelo_inurba_marseille","lat":43.337525,"lon":5.374495,"is_reserved":false,"is_disabled":false,"rental_uris":{"android":"levelo://app?vid=82aceeed-6a3f-4dcf-9611-c927556a3952","ios":"levelo://app?vid=82aceeed-6a3f-4dcf-9611-c927556a3952"},"vehicle_type_id":"4","last_reported":1701853649,"current_range_meters":28800,"station_id":"","pricing_plan_id":"free"},{"bike_id":"2fbea006-0d22-445c-bfc1-d379dcddc1c1","system_id":"levelo_inurba_marseille","lat":43.337529,"lon":5.374708,"is_reserved":false,"is_disabled":false,"rental_uris":{"android":"levelo://app?vid=2fbea006-0d22-445c-bfc1-d379dcddc1c1","ios":"levelo://app?vid=2fbea006-0d22-445c-bfc1-d379dcddc1c1"},"vehicle_type_id":"4","last_reported":1701853649,"current_range_meters":24800,"station_id":"","pricing_plan_id":"free"},{"bike_id":"94559e2c-f22c-4ac5-af24-05076ed30144","system_id":"levelo_inurba_marseille","lat":43.337616,"lon":5.374468,"is_reserved":false,"is_disabled":false,"rental_uris":{"android":"levelo://app?vid=94559e2c-f22c-4ac5-af24-05076ed30144","ios":"levelo://app?vid=94559e2c-f22c-4ac5-af24-05076ed30144"},"vehicle_type_id":"4","last_reported":1701853649,"current_range_meters":28000,"station_id":"","pricing_plan_id":"free"},{"bike_id":"f0464f50-e84c-41e8-8839-9b31e220379c","system_id":"levelo_inurba_marseille","lat":43.33759,"lon":5.37484,"is_reserved":false,"is_disabled":false,"rental_uris":{"android":"levelo://app?vid=f0464f50-e84c-41e8-8839-9b31e220379c","ios":"levelo://app?vid=f0464f50-e84c-41e8-8839-9b31e220379c"},"vehicle_type_id":"4","last_reported":1701853649,"current_range_meters":30400,"station_id":"","pricing_plan_id":"free"},{"bike_id":"af1a684e-81ec-4bc7-a2f7-b376ea488594","system_id":"levelo_inurba_marseille","lat":43.301117,"lon":5.398795,"is_reserved":false,"is_disabled":false,"rental_uris":{"android":"levelo://app?vid=af1a684e-81ec-4bc7-a2f7-b376ea488594","ios":"levelo://app?vid=af1a684e-81ec-4bc7-a2f7-b376ea488594"},"vehicle_type_id":"4","last_reported":1701853649,"current_range_meters":29200,"station_id":"ce4bh0h2rcd13ifvqd40","pricing_plan_id":"free"},{"bike_id":"31c529d4-6c24-4db7-9c04-4c4e5293d214","system_id":"levelo_inurba_marseille","lat":43.287032,"lon":5.373671,"is_reserved":false,"is_disabled":false,"rental_uris":{"android":"levelo://app?vid=31c529d4-6c24-4db7-9c04-4c4e5293d214","ios":"levelo://app?vid=31c529d4-6c24-4db7-9c04-4c4e5293d214"},"vehicle_type_id":"4","last_reported":1701853649,"current_range_meters":6400,"station_id":"","pricing_plan_id":"free"},{"bike_id":"f3722882-866b-4eb5-9ca1-b20a218d370a","system_id":"levelo_inurba_marseille","lat":43.286039,"lon":5.370679,"is_reserved":false,"is_disabled":false,"rental_uris":{"android":"levelo://app?vid=f3722882-866b-4eb5-9ca1-b20a218d370a","ios":"levelo://app?vid=f3722882-866b-4eb5-9ca1-b20a218d370a"},"vehicle_type_id":"4","last_reported":1701853649,"current_range_meters":6800,"station_id":"ce4bht12rcd13ifvqi60","pricing_plan_id":"free"},{"bike_id":"95bad6d1-4931-438e-a97e-8c746fe816e4","system_id":"levelo_inurba_marseille","lat":43.286039,"lon":5.370681,"is_reserved":false,"is_disabled":false,"rental_uris":{"android":"levelo://app?vid=95bad6d1-4931-438e-a97e-8c746fe816e4","ios":"levelo://app?vid=95bad6d1-4931-438e-a97e-8c746fe816e4"},"vehicle_type_id":"4","last_reported":1701853649,"current_range_meters":19600,"station_id":"ce4bht12rcd13ifvqi60","pricing_plan_id":"free"},{"bike_id":"b0fd4887-9069-4cae-8df4-2def2c5e4f77","system_id":"levelo_inurba_marseille","lat":43.28616,"lon":5.35103,"is_reserved":false,"is_disabled":false,"rental_uris":{"android":"levelo://app?vid=b0fd4887-9069-4cae-8df4-2def2c5e4f77","ios":"levelo://app?vid=b0fd4887-9069-4cae-8df4-2def2c5e4f77"},"vehicle_type_id":"4","last_reported":1701853649,"current_range_meters":18800,"station_id":"ce4bhch2rcd13ifvqeug","pricing_plan_id":"free"},{"bike_id":"05b5b19b-af60-4764-ad21-21755cc472d1","system_id":"levelo_inurba_marseille","lat":43.288501,"lon":5.393087,"is_reserved":false,"is_disabled":false,"rental_uris":{"android":"levelo://app?vid=05b5b19b-af60-4764-ad21-21755cc472d1","ios":"levelo://app?vid=05b5b19b-af60-4764-ad21-21755cc472d1"},"vehicle_type_id":"4","last_reported":1701853649,"current_range_meters":16400,"station_id":"ce4bh2p2rcd13ifvqdi0","pricing_plan_id":"free"},{"bike_id":"fbc90016-8702-4b4a-b95e-4c8797d06803","system_id":"levelo_inurba_marseille","lat":43.282754,"lon":5.350519,"is_reserved":false,"is_disabled":false,"rental_uris":{"android":"levelo://app?vid=fbc90016-8702-4b4a-b95e-4c8797d06803","ios":"levelo://app?vid=fbc90016-8702-4b4a-b95e-4c8797d06803"},"vehicle_type_id":"4","last_reported":1701853649,"current_range_meters":23600,"station_id":"ce4bhbp2rcd13ifvqerg","pricing_plan_id":"free"},{"bike_id":"ba857416-5cf5-4e77-831d-ba0b8ea5176d","system_id":"levelo_inurba_marseille","lat":43.285742,"lon":5.395004,"is_reserved":false,"is_disabled":false,"rental_uris":{"android":"levelo://app?vid=ba857416-5cf5-4e77-831d-ba0b8ea5176d","ios":"levelo://app?vid=ba857416-5cf5-4e77-831d-ba0b8ea5176d"},"vehicle_type_id":"4","last_reported":1701853649,"current_range_meters":20000,"station_id":"ce4bh292rcd13ifvqdg0","pricing_plan_id":"free"},{"bike_id":"08b0897a-4122-4210-9668-498a10054ec3","system_id":"levelo_inurba_marseille","lat":43.28573,"lon":5.394992,"is_reserved":false,"is_disabled":false,"rental_uris":{"android":"levelo://app?vid=08b0897a-4122-4210-9668-498a10054ec3","ios":"levelo://app?vid=08b0897a-4122-4210-9668-498a10054ec3"},"vehicle_type_id":"4","last_reported":1701853649,"current_range_meters":10800,"station_id":"ce4bh292rcd13ifvqdg0","pricing_plan_id":"free"},{"bike_id":"1b48c369-460f-4d88-a337-1025d2156c81","system_id":"levelo_inurba_marseille","lat":43.304188,"lon":5.412904,"is_reserved":false,"is_disabled":false,"rental_uris":{"android":"levelo://app?vid=1b48c369-460f-4d88-a337-1025d2156c81","ios":"levelo://app?vid=1b48c369-460f-4d88-a337-1025d2156c81"},"vehicle_type_id":"4","last_reported":1701853649,"current_range_meters":13600,"station_id":"ce4bhop2rcd13ifvqh8g","pricing_plan_id":"free"},{"bike_id":"2cae7856-6754-4621-81cb-ddef6a4b22f7","system_id":"levelo_inurba_marseille","lat":43.287154,"lon":5.399979,"is_reserved":false,"is_disabled":false,"rental_uris":{"android":"levelo://app?vid=2cae7856-6754-4621-81cb-ddef6a4b22f7","ios":"levelo://app?vid=2cae7856-6754-4621-81cb-ddef6a4b22f7"},"vehicle_type_id":"4","last_reported":1701853649,"current_range_meters":15600,"station_id":"ce4bho92rcd13ifvqh3g","pricing_plan_id":"free"},{"bike_id":"ace66307-843c-4291-9003-d3c36592aa68","system_id":"levelo_inurba_marseille","lat":43.287038,"lon":5.39984,"is_reserved":false,"is_disabled":false,"rental_uris":{"android":"levelo://app?vid=ace66307-843c-4291-9003-d3c36592aa68","ios":"levelo://app?vid=ace66307-843c-4291-9003-d3c36592aa68"},"vehicle_type_id":"4","last_reported":1701853649,"current_range_meters":17600,"station_id":"","pricing_plan_id":"free"},{"bike_id":"c471a49b-47e9-4e5b-9ae0-3099e6894a62","system_id":"levelo_inurba_marseille","lat":43.279742,"lon":5.38744,"is_reserved":false,"is_disabled":false,"rental_uris":{"android":"levelo://app?vid=c471a49b-47e9-4e5b-9ae0-3099e6894a62","ios":"levelo://app?vid=c471a49b-47e9-4e5b-9ae0-3099e6894a62"},"vehicle_type_id":"4","last_reported":1701853649,"current_range_meters":26800,"station_id":"ce4bhg12rcd13ifvqf80","pricing_plan_id":"free"},{"bike_id":"96b0701a-fa6f-4819-bc72-e0be18990046","system_id":"levelo_inurba_marseille","lat":43.279742,"lon":5.38744,"is_reserved":false,"is_disabled":false,"rental_uris":{"android":"levelo://app?vid=96b0701a-fa6f-4819-bc72-e0be18990046","ios":"levelo://app?vid=96b0701a-fa6f-4819-bc72-e0be18990046"},"vehicle_type_id":"4","last_reported":1701853649,"current_range_meters":22400,"station_id":"ce4bhg12rcd13ifvqf80","pricing_plan_id":"free"},{"bike_id":"d5882dd6-5709-4f0a-b563-c528c472c97c","system_id":"levelo_inurba_marseille","lat":43.279742,"lon":5.38744,"is_reserved":false,"is_disabled":false,"rental_uris":{"android":"levelo://app?vid=d5882dd6-5709-4f0a-b563-c528c472c97c","ios":"levelo://app?vid=d5882dd6-5709-4f0a-b563-c528c472c97c"},"vehicle_type_id":"4","last_reported":1701853649,"current_range_meters":20400,"station_id":"ce4bhg12rcd13ifvqf80","pricing_plan_id":"free"},{"bike_id":"3d87c5f0-b93d-494a-92a8-ca4747021f49","system_id":"levelo_inurba_marseille","lat":43.325233,"lon":5.414318,"is_reserved":false,"is_disabled":false,"rental_uris":{"android":"levelo://app?vid=3d87c5f0-b93d-494a-92a8-ca4747021f49","ios":"levelo://app?vid=3d87c5f0-b93d-494a-92a8-ca4747021f49"},"vehicle_type_id":"4","last_reported":1701853649,"current_range_meters":0,"station_id":"ce4bhq12rcd13ifvqhhg","pricing_plan_id":"free"},{"bike_id":"caf1df92-b8f3-451b-a953-4aba3e7b9d64","system_id":"levelo_inurba_marseille","lat":43.292569,"lon":5.409107,"is_reserved":false,"is_disabled":false,"rental_uris":{"android":"levelo://app?vid=caf1df92-b8f3-451b-a953-4aba3e7b9d64","ios":"levelo://app?vid=caf1df92-b8f3-451b-a953-4aba3e7b9d64"},"vehicle_type_id":"4","last_reported":1701853649,"current_range_meters":13600,"station_id":"ce4bh192rcd13ifvqdc0","pricing_plan_id":"free"},{"bike_id":"d648cd2e-546b-4e78-8ec2-e4e3837d9411","system_id":"levelo_inurba_marseille","lat":43.325243,"lon":5.414326,"is_reserved":false,"is_disabled":false,"rental_uris":{"android":"levelo://app?vid=d648cd2e-546b-4e78-8ec2-e4e3837d9411","ios":"levelo://app?vid=d648cd2e-546b-4e78-8ec2-e4e3837d9411"},"vehicle_type_id":"4","last_reported":1701853649,"current_range_meters":27600,"station_id":"ce4bhq12rcd13ifvqhhg","pricing_plan_id":"free"},{"bike_id":"f875c7c6-4aca-4be8-9481-f8750532292f","system_id":"levelo_inurba_marseille","lat":43.325233,"lon":5.414318,"is_reserved":false,"is_disabled":false,"rental_uris":{"android":"levelo://app?vid=f875c7c6-4aca-4be8-9481-f8750532292f","ios":"levelo://app?vid=f875c7c6-4aca-4be8-9481-f8750532292f"},"vehicle_type_id":"4","last_reported":1701853649,"current_range_meters":31200,"station_id":"ce4bhq12rcd13ifvqhhg","pricing_plan_id":"free"},{"bike_id":"b48fc1d6-c7da-451a-8c70-234dcc4c8cfe","system_id":"levelo_inurba_marseille","lat":43.325243,"lon":5.414326,"is_reserved":false,"is_disabled":false,"rental_uris":{"android":"levelo://app?vid=b48fc1d6-c7da-451a-8c70-234dcc4c8cfe","ios":"levelo://app?vid=b48fc1d6-c7da-451a-8c70-234dcc4c8cfe"},"vehicle_type_id":"4","last_reported":1701853649,"current_range_meters":30800,"station_id":"ce4bhq12rcd13ifvqhhg","pricing_plan_id":"free"},{"bike_id":"01283772-6fbf-45a4-a0b5-23c50b8be640","system_id":"levelo_inurba_marseille","lat":43.261782,"lon":5.374515,"is_reserved":false,"is_disabled":false,"rental_uris":{"android":"levelo://app?vid=01283772-6fbf-45a4-a0b5-23c50b8be640","ios":"levelo://app?vid=01283772-6fbf-45a4-a0b5-23c50b8be640"},"vehicle_type_id":"4","last_reported":1701853649,"current_range_meters":31200,"station_id":"ce4bhgp2rcd13ifvqfc0","pricing_plan_id":"free"},{"bike_id":"ed6f07c6-ad3c-4f89-aecf-bf9b42214fb6","system_id":"levelo_inurba_marseille","lat":43.278401,"lon":5.392152,"is_reserved":false,"is_disabled":false,"rental_uris":{"android":"levelo://app?vid=ed6f07c6-ad3c-4f89-aecf-bf9b42214fb6","ios":"levelo://app?vid=ed6f07c6-ad3c-4f89-aecf-bf9b42214fb6"},"vehicle_type_id":"4","last_reported":1701853649,"current_range_meters":5200,"station_id":"ce4bhjp2rcd13ifvqga0","pricing_plan_id":"free"},{"bike_id":"601adfac-6b3a-47fd-9446-2813bc4fa329","system_id":"levelo_inurba_marseille","lat":43.336148,"lon":5.410349,"is_reserved":false,"is_disabled":false,"rental_uris":{"android":"levelo://app?vid=601adfac-6b3a-47fd-9446-2813bc4fa329","ios":"levelo://app?vid=601adfac-6b3a-47fd-9446-2813bc4fa329"},"vehicle_type_id":"4","last_reported":1701853649,"current_range_meters":22400,"station_id":"ce4bhqh2rcd13ifvqhmg","pricing_plan_id":"free"},{"bike_id":"473126b3-a7ed-4086-ac9d-62afe2108179","system_id":"levelo_inurba_marseille","lat":43.273609,"lon":5.362708,"is_reserved":false,"is_disabled":false,"rental_uris":{"android":"levelo://app?vid=473126b3-a7ed-4086-ac9d-62afe2108179","ios":"levelo://app?vid=473126b3-a7ed-4086-ac9d-62afe2108179"},"vehicle_type_id":"4","last_reported":1701853649,"current_range_meters":23600,"station_id":"ce4bhbh2rcd13ifvqeo0","pricing_plan_id":"free"},{"bike_id":"aa6ce2fc-ad88-4844-a4c0-c13bf514035e","system_id":"levelo_inurba_marseille","lat":43.33612,"lon":5.410321,"is_reserved":false,"is_disabled":false,"rental_uris":{"android":"levelo://app?vid=aa6ce2fc-ad88-4844-a4c0-c13bf514035e","ios":"levelo://app?vid=aa6ce2fc-ad88-4844-a4c0-c13bf514035e"},"vehicle_type_id":"4","last_reported":1701853649,"current_range_meters":31200,"station_id":"ce4bhqh2rcd13ifvqhmg","pricing_plan_id":"free"},{"bike_id":"c1c73284-745f-401b-b04b-689c24909521","system_id":"levelo_inurba_marseille","lat":43.336134,"lon":5.410341,"is_reserved":false,"is_disabled":false,"rental_uris":{"android":"levelo://app?vid=c1c73284-745f-401b-b04b-689c24909521","ios":"levelo://app?vid=c1c73284-745f-401b-b04b-689c24909521"},"vehicle_type_id":"4","last_reported":1701853649,"current_range_meters":19600,"station_id":"ce4bhqh2rcd13ifvqhmg","pricing_plan_id":"free"},{"bike_id":"70e32bc1-50e4-456e-afc1-6e546d17a05d","system_id":"levelo_inurba_marseille","lat":43.336134,"lon":5.410341,"is_reserved":false,"is_disabled":false,"rental_uris":{"android":"levelo://app?vid=70e32bc1-50e4-456e-afc1-6e546d17a05d","ios":"levelo://app?vid=70e32bc1-50e4-456e-afc1-6e546d17a05d"},"vehicle_type_id":"4","last_reported":1701853649,"current_range_meters":12400,"station_id":"ce4bhqh2rcd13ifvqhmg","pricing_plan_id":"free"},{"bike_id":"a5a0edfa-bc3a-48d5-887a-e21794f569f2","system_id":"levelo_inurba_marseille","lat":43.33612,"lon":5.410321,"is_reserved":false,"is_disabled":false,"rental_uris":{"android":"levelo://app?vid=a5a0edfa-bc3a-48d5-887a-e21794f569f2","ios":"levelo://app?vid=a5a0edfa-bc3a-48d5-887a-e21794f569f2"},"vehicle_type_id":"4","last_reported":1701853649,"current_range_meters":20800,"station_id":"ce4bhqh2rcd13ifvqhmg","pricing_plan_id":"free"},{"bike_id":"0d6360d2-75d9-4d43-9449-6f2f60f16a7f","system_id":"levelo_inurba_marseille","lat":43.336134,"lon":5.410341,"is_reserved":false,"is_disabled":false,"rental_uris":{"android":"levelo://app?vid=0d6360d2-75d9-4d43-9449-6f2f60f16a7f","ios":"levelo://app?vid=0d6360d2-75d9-4d43-9449-6f2f60f16a7f"},"vehicle_type_id":"4","last_reported":1701853649,"current_range_meters":26400,"station_id":"ce4bhqh2rcd13ifvqhmg","pricing_plan_id":"free"},{"bike_id":"076554a3-e24b-4502-a802-66fb57b131f3","system_id":"levelo_inurba_marseille","lat":43.33612,"lon":5.410321,"is_reserved":false,"is_disabled":false,"rental_uris":{"android":"levelo://app?vid=076554a3-e24b-4502-a802-66fb57b131f3","ios":"levelo://app?vid=076554a3-e24b-4502-a802-66fb57b131f3"},"vehicle_type_id":"4","last_reported":1701853649,"current_range_meters":21200,"station_id":"ce4bhqh2rcd13ifvqhmg","pricing_plan_id":"free"},{"bike_id":"d5218c97-44ed-49a6-a6d6-2bd9c8181144","system_id":"levelo_inurba_marseille","lat":43.336134,"lon":5.410341,"is_reserved":false,"is_disabled":false,"rental_uris":{"android":"levelo://app?vid=d5218c97-44ed-49a6-a6d6-2bd9c8181144","ios":"levelo://app?vid=d5218c97-44ed-49a6-a6d6-2bd9c8181144"},"vehicle_type_id":"4","last_reported":1701853649,"current_range_meters":31600,"station_id":"ce4bhqh2rcd13ifvqhmg","pricing_plan_id":"free"},{"bike_id":"8bce2957-508e-4e98-877b-2736214278b7","system_id":"levelo_inurba_marseille","lat":43.336134,"lon":5.410341,"is_reserved":false,"is_disabled":false,"rental_uris":{"android":"levelo://app?vid=8bce2957-508e-4e98-877b-2736214278b7","ios":"levelo://app?vid=8bce2957-508e-4e98-877b-2736214278b7"},"vehicle_type_id":"4","last_reported":1701853649,"current_range_meters":0,"station_id":"ce4bhqh2rcd13ifvqhmg","pricing_plan_id":"free"},{"bike_id":"989a01d2-f2a9-4c11-8a79-9792d64b5413","system_id":"levelo_inurba_marseille","lat":43.27622,"lon":5.39483,"is_reserved":false,"is_disabled":false,"rental_uris":{"android":"levelo://app?vid=989a01d2-f2a9-4c11-8a79-9792d64b5413","ios":"levelo://app?vid=989a01d2-f2a9-4c11-8a79-9792d64b5413"},"vehicle_type_id":"4","last_reported":1701853649,"current_range_meters":9600,"station_id":"","pricing_plan_id":"free"},{"bike_id":"d274b1da-77c0-4e29-9dc2-a2e765f95340","system_id":"levelo_inurba_marseille","lat":43.310785,"lon":5.424305,"is_reserved":false,"is_disabled":false,"rental_uris":{"android":"levelo://app?vid=d274b1da-77c0-4e29-9dc2-a2e765f95340","ios":"levelo://app?vid=d274b1da-77c0-4e29-9dc2-a2e765f95340"},"vehicle_type_id":"4","last_reported":1701853649,"current_range_meters":31200,"station_id":"ce4bhp92rcd13ifvqhag","pricing_plan_id":"free"},{"bike_id":"d0571c33-db23-43da-855a-5cb77ea128b8","system_id":"levelo_inurba_marseille","lat":43.310785,"lon":5.424305,"is_reserved":false,"is_disabled":false,"rental_uris":{"android":"levelo://app?vid=d0571c33-db23-43da-855a-5cb77ea128b8","ios":"levelo://app?vid=d0571c33-db23-43da-855a-5cb77ea128b8"},"vehicle_type_id":"4","last_reported":1701853649,"current_range_meters":13600,"station_id":"ce4bhp92rcd13ifvqhag","pricing_plan_id":"free"},{"bike_id":"35583fe3-d19c-4d33-bdaf-ce96ce3f04aa","system_id":"levelo_inurba_marseille","lat":43.340804,"lon":5.410219,"is_reserved":false,"is_disabled":false,"rental_uris":{"android":"levelo://app?vid=35583fe3-d19c-4d33-bdaf-ce96ce3f04aa","ios":"levelo://app?vid=35583fe3-d19c-4d33-bdaf-ce96ce3f04aa"},"vehicle_type_id":"4","last_reported":1701853649,"current_range_meters":29600,"station_id":"ce4bhqh2rcd13ifvqhlg","pricing_plan_id":"free"},{"bike_id":"03835873-5d6e-49cc-8bf7-4974064c28c9","system_id":"levelo_inurba_marseille","lat":43.340804,"lon":5.410219,"is_reserved":false,"is_disabled":false,"rental_uris":{"android":"levelo://app?vid=03835873-5d6e-49cc-8bf7-4974064c28c9","ios":"levelo://app?vid=03835873-5d6e-49cc-8bf7-4974064c28c9"},"vehicle_type_id":"4","last_reported":1701853649,"current_range_meters":18000,"station_id":"ce4bhqh2rcd13ifvqhlg","pricing_plan_id":"free"},{"bike_id":"56eb65f8-924e-4b99-81bb-9590af7efed3","system_id":"levelo_inurba_marseille","lat":43.340804,"lon":5.410219,"is_reserved":false,"is_disabled":false,"rental_uris":{"android":"levelo://app?vid=56eb65f8-924e-4b99-81bb-9590af7efed3","ios":"levelo://app?vid=56eb65f8-924e-4b99-81bb-9590af7efed3"},"vehicle_type_id":"4","last_reported":1701853649,"current_range_meters":18000,"station_id":"ce4bhqh2rcd13ifvqhlg","pricing_plan_id":"free"},{"bike_id":"910fd3aa-d2e0-4553-894a-6161d41c7fcd","system_id":"levelo_inurba_marseille","lat":43.275708,"lon":5.395346,"is_reserved":false,"is_disabled":false,"rental_uris":{"android":"levelo://app?vid=910fd3aa-d2e0-4553-894a-6161d41c7fcd","ios":"levelo://app?vid=910fd3aa-d2e0-4553-894a-6161d41c7fcd"},"vehicle_type_id":"4","last_reported":1701853649,"current_range_meters":3600,"station_id":"","pricing_plan_id":"free"},{"bike_id":"8f858a29-0eeb-4c66-bc2e-642fc90e6582","system_id":"levelo_inurba_marseille","lat":43.274103,"lon":5.394016,"is_reserved":false,"is_disabled":false,"rental_uris":{"android":"levelo://app?vid=8f858a29-0eeb-4c66-bc2e-642fc90e6582","ios":"levelo://app?vid=8f858a29-0eeb-4c66-bc2e-642fc90e6582"},"vehicle_type_id":"4","last_reported":1701853649,"current_range_meters":10000,"station_id":"ce4bhdp2rcd13ifvqf20","pricing_plan_id":"free"},{"bike_id":"1c230357-26ac-47df-a000-e3424fcfeb80","system_id":"levelo_inurba_marseille","lat":43.3041,"lon":5.42535,"is_reserved":false,"is_disabled":false,"rental_uris":{"android":"levelo://app?vid=1c230357-26ac-47df-a000-e3424fcfeb80","ios":"levelo://app?vid=1c230357-26ac-47df-a000-e3424fcfeb80"},"vehicle_type_id":"4","last_reported":1701853649,"current_range_meters":23600,"station_id":"ce4bhoh2rcd13ifvqh6g","pricing_plan_id":"free"},{"bike_id":"85a05c56-6d8a-433d-b0c1-925fe133325c","system_id":"levelo_inurba_marseille","lat":43.295523,"lon":5.422926,"is_reserved":false,"is_disabled":false,"rental_uris":{"android":"levelo://app?vid=85a05c56-6d8a-433d-b0c1-925fe133325c","ios":"levelo://app?vid=85a05c56-6d8a-433d-b0c1-925fe133325c"},"vehicle_type_id":"4","last_reported":1701853649,"current_range_meters":25600,"station_id":"ce4bhph2rcd13ifvqhdg","pricing_plan_id":"free"},{"bike_id":"4aaafaa4-5992-4d41-aca4-45ea537c3e9e","system_id":"levelo_inurba_marseille","lat":43.27214,"lon":5.3925,"is_reserved":false,"is_disabled":false,"rental_uris":{"android":"levelo://app?vid=4aaafaa4-5992-4d41-aca4-45ea537c3e9e","ios":"levelo://app?vid=4aaafaa4-5992-4d41-aca4-45ea537c3e9e"},"vehicle_type_id":"4","last_reported":1701853649,"current_range_meters":13600,"station_id":"","pricing_plan_id":"free"},{"bike_id":"8076d8bb-dd09-441f-b2eb-dbf85c01f548","system_id":"levelo_inurba_marseille","lat":43.279465,"lon":5.410561,"is_reserved":false,"is_disabled":false,"rental_uris":{"android":"levelo://app?vid=8076d8bb-dd09-441f-b2eb-dbf85c01f548","ios":"levelo://app?vid=8076d8bb-dd09-441f-b2eb-dbf85c01f548"},"vehicle_type_id":"4","last_reported":1701853649,"current_range_meters":14400,"station_id":"ce4bhnp2rcd13ifvqh0g","pricing_plan_id":"free"},{"bike_id":"8820bc62-d7d1-4374-bb90-5a4f8ea46a0a","system_id":"levelo_inurba_marseille","lat":43.26681,"lon":5.382694,"is_reserved":false,"is_disabled":false,"rental_uris":{"android":"levelo://app?vid=8820bc62-d7d1-4374-bb90-5a4f8ea46a0a","ios":"levelo://app?vid=8820bc62-d7d1-4374-bb90-5a4f8ea46a0a"},"vehicle_type_id":"4","last_reported":1701853649,"current_range_meters":26000,"station_id":"ce4bhg92rcd13ifvqf90","pricing_plan_id":"free"},{"bike_id":"02f0a525-429c-4ed1-926f-67a3aab34c66","system_id":"levelo_inurba_marseille","lat":43.26681,"lon":5.382694,"is_reserved":false,"is_disabled":false,"rental_uris":{"android":"levelo://app?vid=02f0a525-429c-4ed1-926f-67a3aab34c66","ios":"levelo://app?vid=02f0a525-429c-4ed1-926f-67a3aab34c66"},"vehicle_type_id":"4","last_reported":1701853649,"current_range_meters":16800,"station_id":"ce4bhg92rcd13ifvqf90","pricing_plan_id":"free"},{"bike_id":"aaa72f0b-a232-4d9f-8f50-6dc475acc1e3","system_id":"levelo_inurba_marseille","lat":43.26681,"lon":5.382694,"is_reserved":false,"is_disabled":false,"rental_uris":{"android":"levelo://app?vid=aaa72f0b-a232-4d9f-8f50-6dc475acc1e3","ios":"levelo://app?vid=aaa72f0b-a232-4d9f-8f50-6dc475acc1e3"},"vehicle_type_id":"4","last_reported":1701853649,"current_range_meters":20000,"station_id":"ce4bhg92rcd13ifvqf90","pricing_plan_id":"free"},{"bike_id":"9c896023-88f7-446c-98fc-47b6b062b0f2","system_id":"levelo_inurba_marseille","lat":43.26681,"lon":5.382694,"is_reserved":false,"is_disabled":false,"rental_uris":{"android":"levelo://app?vid=9c896023-88f7-446c-98fc-47b6b062b0f2","ios":"levelo://app?vid=9c896023-88f7-446c-98fc-47b6b062b0f2"},"vehicle_type_id":"4","last_reported":1701853649,"current_range_meters":20800,"station_id":"ce4bhg92rcd13ifvqf90","pricing_plan_id":"free"},{"bike_id":"1ccdf379-a16a-4b4d-aac2-f0555b1e4d46","system_id":"levelo_inurba_marseille","lat":43.26681,"lon":5.382694,"is_reserved":false,"is_disabled":false,"rental_uris":{"android":"levelo://app?vid=1ccdf379-a16a-4b4d-aac2-f0555b1e4d46","ios":"levelo://app?vid=1ccdf379-a16a-4b4d-aac2-f0555b1e4d46"},"vehicle_type_id":"4","last_reported":1701853649,"current_range_meters":25600,"station_id":"ce4bhg92rcd13ifvqf90","pricing_plan_id":"free"},{"bike_id":"60779752-fa0f-4b0e-b951-5c93f6bbef30","system_id":"levelo_inurba_marseille","lat":43.26681,"lon":5.382694,"is_reserved":false,"is_disabled":false,"rental_uris":{"android":"levelo://app?vid=60779752-fa0f-4b0e-b951-5c93f6bbef30","ios":"levelo://app?vid=60779752-fa0f-4b0e-b951-5c93f6bbef30"},"vehicle_type_id":"4","last_reported":1701853649,"current_range_meters":16800,"station_id":"ce4bhg92rcd13ifvqf90","pricing_plan_id":"free"},{"bike_id":"0f109780-7938-456a-be51-abd1bd555d74","system_id":"levelo_inurba_marseille","lat":43.26681,"lon":5.382694,"is_reserved":false,"is_disabled":false,"rental_uris":{"android":"levelo://app?vid=0f109780-7938-456a-be51-abd1bd555d74","ios":"levelo://app?vid=0f109780-7938-456a-be51-abd1bd555d74"},"vehicle_type_id":"4","last_reported":1701853649,"current_range_meters":15600,"station_id":"ce4bhg92rcd13ifvqf90","pricing_plan_id":"free"},{"bike_id":"a4170f54-00ac-456c-b9a7-c78894468c22","system_id":"levelo_inurba_marseille","lat":43.26681,"lon":5.382694,"is_reserved":false,"is_disabled":false,"rental_uris":{"android":"levelo://app?vid=a4170f54-00ac-456c-b9a7-c78894468c22","ios":"levelo://app?vid=a4170f54-00ac-456c-b9a7-c78894468c22"},"vehicle_type_id":"4","last_reported":1701853649,"current_range_meters":31200,"station_id":"ce4bhg92rcd13ifvqf90","pricing_plan_id":"free"},{"bike_id":"dda2260c-8f53-4498-829e-3450b8f940eb","system_id":"levelo_inurba_marseille","lat":43.26681,"lon":5.382694,"is_reserved":false,"is_disabled":false,"rental_uris":{"android":"levelo://app?vid=dda2260c-8f53-4498-829e-3450b8f940eb","ios":"levelo://app?vid=dda2260c-8f53-4498-829e-3450b8f940eb"},"vehicle_type_id":"4","last_reported":1701853649,"current_range_meters":14400,"station_id":"ce4bhg92rcd13ifvqf90","pricing_plan_id":"free"},{"bike_id":"a096c7b6-0324-45c5-aebe-20feced15eca","system_id":"levelo_inurba_marseille","lat":43.26681,"lon":5.382694,"is_reserved":false,"is_disabled":false,"rental_uris":{"android":"levelo://app?vid=a096c7b6-0324-45c5-aebe-20feced15eca","ios":"levelo://app?vid=a096c7b6-0324-45c5-aebe-20feced15eca"},"vehicle_type_id":"4","last_reported":1701853649,"current_range_meters":30000,"station_id":"ce4bhg92rcd13ifvqf90","pricing_plan_id":"free"},{"bike_id":"d0c0b0d9-7491-4397-b1f4-980ebb541a18","system_id":"levelo_inurba_marseille","lat":43.267966,"lon":5.393976,"is_reserved":false,"is_disabled":false,"rental_uris":{"android":"levelo://app?vid=d0c0b0d9-7491-4397-b1f4-980ebb541a18","ios":"levelo://app?vid=d0c0b0d9-7491-4397-b1f4-980ebb541a18"},"vehicle_type_id":"4","last_reported":1701853649,"current_range_meters":29600,"station_id":"ce4bhh12rcd13ifvqfg0","pricing_plan_id":"free"},{"bike_id":"83e558d5-9abc-4634-8c40-65a489e232b8","system_id":"levelo_inurba_marseille","lat":43.265571,"lon":5.390032,"is_reserved":false,"is_disabled":false,"rental_uris":{"android":"levelo://app?vid=83e558d5-9abc-4634-8c40-65a489e232b8","ios":"levelo://app?vid=83e558d5-9abc-4634-8c40-65a489e232b8"},"vehicle_type_id":"4","last_reported":1701853649,"current_range_meters":12400,"station_id":"ce4bhe12rcd13ifvqf30","pricing_plan_id":"free"},{"bike_id":"6fc13b39-dc60-4579-9ec6-d34bdf23f1d4","system_id":"levelo_inurba_marseille","lat":43.265569,"lon":5.390047,"is_reserved":false,"is_disabled":false,"rental_uris":{"android":"levelo://app?vid=6fc13b39-dc60-4579-9ec6-d34bdf23f1d4","ios":"levelo://app?vid=6fc13b39-dc60-4579-9ec6-d34bdf23f1d4"},"vehicle_type_id":"4","last_reported":1701853649,"current_range_meters":29600,"station_id":"ce4bhe12rcd13ifvqf30","pricing_plan_id":"free"},{"bike_id":"8ace7a38-7c70-41ca-94e7-2a873a3d4ea9","system_id":"levelo_inurba_marseille","lat":43.26949,"lon":5.40262,"is_reserved":false,"is_disabled":false,"rental_uris":{"android":"levelo://app?vid=8ace7a38-7c70-41ca-94e7-2a873a3d4ea9","ios":"levelo://app?vid=8ace7a38-7c70-41ca-94e7-2a873a3d4ea9"},"vehicle_type_id":"4","last_reported":1701853649,"current_range_meters":2000,"station_id":"cjm6bp8fraef2m0cb0m0","pricing_plan_id":"free"},{"bike_id":"5a473620-0614-4fc4-ac43-7edb0c579c00","system_id":"levelo_inurba_marseille","lat":43.261782,"lon":5.374515,"is_reserved":false,"is_disabled":false,"rental_uris":{"android":"levelo://app?vid=5a473620-0614-4fc4-ac43-7edb0c579c00","ios":"levelo://app?vid=5a473620-0614-4fc4-ac43-7edb0c579c00"},"vehicle_type_id":"4","last_reported":1701853649,"current_range_meters":22800,"station_id":"ce4bhgp2rcd13ifvqfc0","pricing_plan_id":"free"},{"bike_id":"80de87bc-b145-4309-9130-245a2ab6bfc3","system_id":"levelo_inurba_marseille","lat":43.26184,"lon":5.37443,"is_reserved":false,"is_disabled":false,"rental_uris":{"android":"levelo://app?vid=80de87bc-b145-4309-9130-245a2ab6bfc3","ios":"levelo://app?vid=80de87bc-b145-4309-9130-245a2ab6bfc3"},"vehicle_type_id":"4","last_reported":1701853649,"current_range_meters":28400,"station_id":"ce4bhgp2rcd13ifvqfc0","pricing_plan_id":"free"},{"bike_id":"37038aca-97ca-4cb2-81d0-9a4826818ca5","system_id":"levelo_inurba_marseille","lat":43.26202,"lon":5.379299,"is_reserved":false,"is_disabled":false,"rental_uris":{"android":"levelo://app?vid=37038aca-97ca-4cb2-81d0-9a4826818ca5","ios":"levelo://app?vid=37038aca-97ca-4cb2-81d0-9a4826818ca5"},"vehicle_type_id":"4","last_reported":1701853649,"current_range_meters":28000,"station_id":"ce4bhjp2rcd13ifvqg90","pricing_plan_id":"free"},{"bike_id":"8d43a9b4-776f-4bbd-9f57-7b15e3f3702e","system_id":"levelo_inurba_marseille","lat":43.2603,"lon":5.37549,"is_reserved":false,"is_disabled":false,"rental_uris":{"android":"levelo://app?vid=8d43a9b4-776f-4bbd-9f57-7b15e3f3702e","ios":"levelo://app?vid=8d43a9b4-776f-4bbd-9f57-7b15e3f3702e"},"vehicle_type_id":"4","last_reported":1701853649,"current_range_meters":19600,"station_id":"ce4bhgh2rcd13ifvqfa0","pricing_plan_id":"free"},{"bike_id":"d098efc4-f169-47d7-8c26-feb55da3760f","system_id":"levelo_inurba_marseille","lat":43.260219,"lon":5.37546,"is_reserved":false,"is_disabled":false,"rental_uris":{"android":"levelo://app?vid=d098efc4-f169-47d7-8c26-feb55da3760f","ios":"levelo://app?vid=d098efc4-f169-47d7-8c26-feb55da3760f"},"vehicle_type_id":"4","last_reported":1701853649,"current_range_meters":2000,"station_id":"ce4bhgh2rcd13ifvqfa0","pricing_plan_id":"free"},{"bike_id":"285ef095-4928-403c-9cbc-5a161af97780","system_id":"levelo_inurba_marseille","lat":43.2607,"lon":5.393983,"is_reserved":false,"is_disabled":false,"rental_uris":{"android":"levelo://app?vid=285ef095-4928-403c-9cbc-5a161af97780","ios":"levelo://app?vid=285ef095-4928-403c-9cbc-5a161af97780"},"vehicle_type_id":"4","last_reported":1701853649,"current_range_meters":30000,"station_id":"ce4bhh92rcd13ifvqfj0","pricing_plan_id":"free"},{"bike_id":"2a89dfa1-1f36-48a5-a769-07c69f06d411","system_id":"levelo_inurba_marseille","lat":43.275028,"lon":5.424534,"is_reserved":false,"is_disabled":false,"rental_uris":{"android":"levelo://app?vid=2a89dfa1-1f36-48a5-a769-07c69f06d411","ios":"levelo://app?vid=2a89dfa1-1f36-48a5-a769-07c69f06d411"},"vehicle_type_id":"4","last_reported":1701853649,"current_range_meters":18400,"station_id":"ce4bhn92rcd13ifvqgrg","pricing_plan_id":"free"},{"bike_id":"df08b0c8-8fc5-4d44-80ef-fa79d34eefa9","system_id":"levelo_inurba_marseille","lat":43.2609,"lon":5.39763,"is_reserved":false,"is_disabled":false,"rental_uris":{"android":"levelo://app?vid=df08b0c8-8fc5-4d44-80ef-fa79d34eefa9","ios":"levelo://app?vid=df08b0c8-8fc5-4d44-80ef-fa79d34eefa9"},"vehicle_type_id":"4","last_reported":1701853649,"current_range_meters":18000,"station_id":"","pricing_plan_id":"free"},{"bike_id":"f170721b-8daa-4621-acbd-224c4f9973fe","system_id":"levelo_inurba_marseille","lat":43.275028,"lon":5.424534,"is_reserved":false,"is_disabled":false,"rental_uris":{"android":"levelo://app?vid=f170721b-8daa-4621-acbd-224c4f9973fe","ios":"levelo://app?vid=f170721b-8daa-4621-acbd-224c4f9973fe"},"vehicle_type_id":"4","last_reported":1701853649,"current_range_meters":21600,"station_id":"ce4bhn92rcd13ifvqgrg","pricing_plan_id":"free"},{"bike_id":"2b23d9a8-ccaa-4945-a55c-f4b997e393c2","system_id":"levelo_inurba_marseille","lat":43.275028,"lon":5.424534,"is_reserved":false,"is_disabled":false,"rental_uris":{"android":"levelo://app?vid=2b23d9a8-ccaa-4945-a55c-f4b997e393c2","ios":"levelo://app?vid=2b23d9a8-ccaa-4945-a55c-f4b997e393c2"},"vehicle_type_id":"4","last_reported":1701853649,"current_range_meters":16800,"station_id":"ce4bhn92rcd13ifvqgrg","pricing_plan_id":"free"},{"bike_id":"5e5e7574-4f45-48e4-936b-03f30d961b04","system_id":"levelo_inurba_marseille","lat":43.25507,"lon":5.37649,"is_reserved":false,"is_disabled":false,"rental_uris":{"android":"levelo://app?vid=5e5e7574-4f45-48e4-936b-03f30d961b04","ios":"levelo://app?vid=5e5e7574-4f45-48e4-936b-03f30d961b04"},"vehicle_type_id":"4","last_reported":1701853649,"current_range_meters":18000,"station_id":"ce4bhh12rcd13ifvqff0","pricing_plan_id":"free"},{"bike_id":"016fd550-e037-4327-9f50-660c0d34b70b","system_id":"levelo_inurba_marseille","lat":43.25573,"lon":5.3824,"is_reserved":false,"is_disabled":false,"rental_uris":{"android":"levelo://app?vid=016fd550-e037-4327-9f50-660c0d34b70b","ios":"levelo://app?vid=016fd550-e037-4327-9f50-660c0d34b70b"},"vehicle_type_id":"4","last_reported":1701853649,"current_range_meters":14400,"station_id":"ce4bhih2rcd13ifvqfs0","pricing_plan_id":"free"},{"bike_id":"20e9d879-7ab6-4d31-9ea0-b43d6766c982","system_id":"levelo_inurba_marseille","lat":43.25503,"lon":5.37647,"is_reserved":false,"is_disabled":false,"rental_uris":{"android":"levelo://app?vid=20e9d879-7ab6-4d31-9ea0-b43d6766c982","ios":"levelo://app?vid=20e9d879-7ab6-4d31-9ea0-b43d6766c982"},"vehicle_type_id":"4","last_reported":1701853649,"current_range_meters":28400,"station_id":"ce4bhh12rcd13ifvqff0","pricing_plan_id":"free"},{"bike_id":"f6225bef-2316-4fa7-a461-2a35560205b5","system_id":"levelo_inurba_marseille","lat":43.255,"lon":5.3765,"is_reserved":false,"is_disabled":false,"rental_uris":{"android":"levelo://app?vid=f6225bef-2316-4fa7-a461-2a35560205b5","ios":"levelo://app?vid=f6225bef-2316-4fa7-a461-2a35560205b5"},"vehicle_type_id":"4","last_reported":1701853649,"current_range_meters":25200,"station_id":"ce4bhh12rcd13ifvqff0","pricing_plan_id":"free"},{"bike_id":"ca9332e9-cbef-43ed-9c45-0222a0848c83","system_id":"levelo_inurba_marseille","lat":43.255,"lon":5.37651,"is_reserved":false,"is_disabled":false,"rental_uris":{"android":"levelo://app?vid=ca9332e9-cbef-43ed-9c45-0222a0848c83","ios":"levelo://app?vid=ca9332e9-cbef-43ed-9c45-0222a0848c83"},"vehicle_type_id":"4","last_reported":1701853649,"current_range_meters":29600,"station_id":"ce4bhh12rcd13ifvqff0","pricing_plan_id":"free"},{"bike_id":"581ff977-8b96-48ef-a65c-f0e2f8aca371","system_id":"levelo_inurba_marseille","lat":43.258658,"lon":5.398935,"is_reserved":false,"is_disabled":false,"rental_uris":{"android":"levelo://app?vid=581ff977-8b96-48ef-a65c-f0e2f8aca371","ios":"levelo://app?vid=581ff977-8b96-48ef-a65c-f0e2f8aca371"},"vehicle_type_id":"4","last_reported":1701853649,"current_range_meters":20800,"station_id":"ce4bhl92rcd13ifvqghg","pricing_plan_id":"free"},{"bike_id":"50d78045-fcc5-47a3-89c4-74dbb7805bbd","system_id":"levelo_inurba_marseille","lat":43.25939,"lon":5.4091,"is_reserved":false,"is_disabled":false,"rental_uris":{"android":"levelo://app?vid=50d78045-fcc5-47a3-89c4-74dbb7805bbd","ios":"levelo://app?vid=50d78045-fcc5-47a3-89c4-74dbb7805bbd"},"vehicle_type_id":"4","last_reported":1701853649,"current_range_meters":20000,"station_id":"ce4bhm92rcd13ifvqglg","pricing_plan_id":"free"},{"bike_id":"548c7f17-0194-4147-882d-b89d8371937f","system_id":"levelo_inurba_marseille","lat":43.259013,"lon":5.409301,"is_reserved":false,"is_disabled":false,"rental_uris":{"android":"levelo://app?vid=548c7f17-0194-4147-882d-b89d8371937f","ios":"levelo://app?vid=548c7f17-0194-4147-882d-b89d8371937f"},"vehicle_type_id":"4","last_reported":1701853649,"current_range_meters":5200,"station_id":"ce4bhm92rcd13ifvqglg","pricing_plan_id":"free"},{"bike_id":"4aa706cb-4625-4e74-bb09-cdf61951efb0","system_id":"levelo_inurba_marseille","lat":43.259013,"lon":5.409301,"is_reserved":false,"is_disabled":false,"rental_uris":{"android":"levelo://app?vid=4aa706cb-4625-4e74-bb09-cdf61951efb0","ios":"levelo://app?vid=4aa706cb-4625-4e74-bb09-cdf61951efb0"},"vehicle_type_id":"4","last_reported":1701853649,"current_range_meters":20400,"station_id":"ce4bhm92rcd13ifvqglg","pricing_plan_id":"free"},{"bike_id":"b2a211c2-601f-4a2e-82b4-5e5b1d16fc19","system_id":"levelo_inurba_marseille","lat":43.25929,"lon":5.40919,"is_reserved":false,"is_disabled":false,"rental_uris":{"android":"levelo://app?vid=b2a211c2-601f-4a2e-82b4-5e5b1d16fc19","ios":"levelo://app?vid=b2a211c2-601f-4a2e-82b4-5e5b1d16fc19"},"vehicle_type_id":"4","last_reported":1701853649,"current_range_meters":24800,"station_id":"ce4bhm92rcd13ifvqglg","pricing_plan_id":"free"},{"bike_id":"4c9fb918-b546-4d0e-81c5-9ec6cee1b91f","system_id":"levelo_inurba_marseille","lat":43.25927,"lon":5.40919,"is_reserved":false,"is_disabled":false,"rental_uris":{"android":"levelo://app?vid=4c9fb918-b546-4d0e-81c5-9ec6cee1b91f","ios":"levelo://app?vid=4c9fb918-b546-4d0e-81c5-9ec6cee1b91f"},"vehicle_type_id":"4","last_reported":1701853649,"current_range_meters":26000,"station_id":"ce4bhm92rcd13ifvqglg","pricing_plan_id":"free"},{"bike_id":"85461d52-108f-4674-9751-e4e6d032a0f3","system_id":"levelo_inurba_marseille","lat":43.2573,"lon":5.411158,"is_reserved":false,"is_disabled":false,"rental_uris":{"android":"levelo://app?vid=85461d52-108f-4674-9751-e4e6d032a0f3","ios":"levelo://app?vid=85461d52-108f-4674-9751-e4e6d032a0f3"},"vehicle_type_id":"4","last_reported":1701853649,"current_range_meters":11200,"station_id":"ce4bhkp2rcd13ifvqgd0","pricing_plan_id":"free"},{"bike_id":"0d4aaa36-09ef-4462-8364-a671abdac5d3","system_id":"levelo_inurba_marseille","lat":43.257079,"lon":5.411051,"is_reserved":false,"is_disabled":false,"rental_uris":{"android":"levelo://app?vid=0d4aaa36-09ef-4462-8364-a671abdac5d3","ios":"levelo://app?vid=0d4aaa36-09ef-4462-8364-a671abdac5d3"},"vehicle_type_id":"4","last_reported":1701853649,"current_range_meters":20800,"station_id":"ce4bhkp2rcd13ifvqgd0","pricing_plan_id":"free"},{"bike_id":"98ae6ade-cde2-4cc3-9583-2ca365e53791","system_id":"levelo_inurba_marseille","lat":43.250023,"lon":5.38919,"is_reserved":false,"is_disabled":false,"rental_uris":{"android":"levelo://app?vid=98ae6ade-cde2-4cc3-9583-2ca365e53791","ios":"levelo://app?vid=98ae6ade-cde2-4cc3-9583-2ca365e53791"},"vehicle_type_id":"4","last_reported":1701853649,"current_range_meters":14000,"station_id":"ce4bhgp2rcd13ifvqfd0","pricing_plan_id":"free"},{"bike_id":"6ee205e0-4e1f-417b-a406-c0c826c83863","system_id":"levelo_inurba_marseille","lat":43.2479,"lon":5.374457,"is_reserved":false,"is_disabled":false,"rental_uris":{"android":"levelo://app?vid=6ee205e0-4e1f-417b-a406-c0c826c83863","ios":"levelo://app?vid=6ee205e0-4e1f-417b-a406-c0c826c83863"},"vehicle_type_id":"4","last_reported":1701853649,"current_range_meters":30000,"station_id":"ce4bhgh2rcd13ifvqfb0","pricing_plan_id":"free"},{"bike_id":"170eb6f9-2c48-4316-9311-9d2cb9dd7b3d","system_id":"levelo_inurba_marseille","lat":43.2479,"lon":5.374457,"is_reserved":false,"is_disabled":false,"rental_uris":{"android":"levelo://app?vid=170eb6f9-2c48-4316-9311-9d2cb9dd7b3d","ios":"levelo://app?vid=170eb6f9-2c48-4316-9311-9d2cb9dd7b3d"},"vehicle_type_id":"4","last_reported":1701853649,"current_range_meters":20800,"station_id":"ce4bhgh2rcd13ifvqfb0","pricing_plan_id":"free"},{"bike_id":"290cc92a-33da-4776-b47d-95bd42757bbc","system_id":"levelo_inurba_marseille","lat":43.2479,"lon":5.374457,"is_reserved":false,"is_disabled":false,"rental_uris":{"android":"levelo://app?vid=290cc92a-33da-4776-b47d-95bd42757bbc","ios":"levelo://app?vid=290cc92a-33da-4776-b47d-95bd42757bbc"},"vehicle_type_id":"4","last_reported":1701853649,"current_range_meters":29200,"station_id":"ce4bhgh2rcd13ifvqfb0","pricing_plan_id":"free"},{"bike_id":"5d1a0171-a08f-4490-9e22-abf8304b13bc","system_id":"levelo_inurba_marseille","lat":43.2479,"lon":5.374457,"is_reserved":false,"is_disabled":false,"rental_uris":{"android":"levelo://app?vid=5d1a0171-a08f-4490-9e22-abf8304b13bc","ios":"levelo://app?vid=5d1a0171-a08f-4490-9e22-abf8304b13bc"},"vehicle_type_id":"4","last_reported":1701853649,"current_range_meters":31200,"station_id":"ce4bhgh2rcd13ifvqfb0","pricing_plan_id":"free"},{"bike_id":"155d7475-7e29-4f9f-8a1f-b78edce3c5fb","system_id":"levelo_inurba_marseille","lat":43.25102,"lon":5.403214,"is_reserved":false,"is_disabled":false,"rental_uris":{"android":"levelo://app?vid=155d7475-7e29-4f9f-8a1f-b78edce3c5fb","ios":"levelo://app?vid=155d7475-7e29-4f9f-8a1f-b78edce3c5fb"},"vehicle_type_id":"4","last_reported":1701853649,"current_range_meters":19200,"station_id":"ce4bhlh2rcd13ifvqgig","pricing_plan_id":"free"},{"bike_id":"b3ce5390-f9cb-4b00-96b4-4e84bab13b3e","system_id":"levelo_inurba_marseille","lat":43.24075,"lon":5.3776,"is_reserved":false,"is_disabled":false,"rental_uris":{"android":"levelo://app?vid=b3ce5390-f9cb-4b00-96b4-4e84bab13b3e","ios":"levelo://app?vid=b3ce5390-f9cb-4b00-96b4-4e84bab13b3e"},"vehicle_type_id":"4","last_reported":1701853649,"current_range_meters":25200,"station_id":"ce4bhnp2rcd13ifvqgvg","pricing_plan_id":"free"},{"bike_id":"5d80738c-ba9d-43e1-ad03-808dbd3b16a9","system_id":"levelo_inurba_marseille","lat":43.240623,"lon":5.377642,"is_reserved":false,"is_disabled":false,"rental_uris":{"android":"levelo://app?vid=5d80738c-ba9d-43e1-ad03-808dbd3b16a9","ios":"levelo://app?vid=5d80738c-ba9d-43e1-ad03-808dbd3b16a9"},"vehicle_type_id":"4","last_reported":1701853649,"current_range_meters":14800,"station_id":"ce4bhnp2rcd13ifvqgvg","pricing_plan_id":"free"},{"bike_id":"55c4f7f2-9a95-42eb-a55b-87d34b930930","system_id":"levelo_inurba_marseille","lat":43.240623,"lon":5.377642,"is_reserved":false,"is_disabled":false,"rental_uris":{"android":"levelo://app?vid=55c4f7f2-9a95-42eb-a55b-87d34b930930","ios":"levelo://app?vid=55c4f7f2-9a95-42eb-a55b-87d34b930930"},"vehicle_type_id":"4","last_reported":1701853649,"current_range_meters":18400,"station_id":"ce4bhnp2rcd13ifvqgvg","pricing_plan_id":"free"},{"bike_id":"a10be650-52f9-4d08-b718-e086ba84b4e0","system_id":"levelo_inurba_marseille","lat":43.240623,"lon":5.377642,"is_reserved":false,"is_disabled":false,"rental_uris":{"android":"levelo://app?vid=a10be650-52f9-4d08-b718-e086ba84b4e0","ios":"levelo://app?vid=a10be650-52f9-4d08-b718-e086ba84b4e0"},"vehicle_type_id":"4","last_reported":1701853649,"current_range_meters":19600,"station_id":"ce4bhnp2rcd13ifvqgvg","pricing_plan_id":"free"},{"bike_id":"f2b91f46-6dd1-4f8e-b011-fa0d86fddb82","system_id":"levelo_inurba_marseille","lat":43.240623,"lon":5.377642,"is_reserved":false,"is_disabled":false,"rental_uris":{"android":"levelo://app?vid=f2b91f46-6dd1-4f8e-b011-fa0d86fddb82","ios":"levelo://app?vid=f2b91f46-6dd1-4f8e-b011-fa0d86fddb82"},"vehicle_type_id":"4","last_reported":1701853649,"current_range_meters":13600,"station_id":"ce4bhnp2rcd13ifvqgvg","pricing_plan_id":"free"},{"bike_id":"06c341e8-f875-490b-baeb-17717328f7c7","system_id":"levelo_inurba_marseille","lat":43.24072,"lon":5.37759,"is_reserved":false,"is_disabled":false,"rental_uris":{"android":"levelo://app?vid=06c341e8-f875-490b-baeb-17717328f7c7","ios":"levelo://app?vid=06c341e8-f875-490b-baeb-17717328f7c7"},"vehicle_type_id":"4","last_reported":1701853649,"current_range_meters":23600,"station_id":"ce4bhnp2rcd13ifvqgvg","pricing_plan_id":"free"},{"bike_id":"8306754c-9b29-4149-8ee6-9f3fdb1e2404","system_id":"levelo_inurba_marseille","lat":43.240623,"lon":5.377642,"is_reserved":false,"is_disabled":false,"rental_uris":{"android":"levelo://app?vid=8306754c-9b29-4149-8ee6-9f3fdb1e2404","ios":"levelo://app?vid=8306754c-9b29-4149-8ee6-9f3fdb1e2404"},"vehicle_type_id":"4","last_reported":1701853649,"current_range_meters":12000,"station_id":"ce4bhnp2rcd13ifvqgvg","pricing_plan_id":"free"},{"bike_id":"0f9b083f-7bb6-4276-8de6-7999f602b4c1","system_id":"levelo_inurba_marseille","lat":43.240623,"lon":5.377642,"is_reserved":false,"is_disabled":false,"rental_uris":{"android":"levelo://app?vid=0f9b083f-7bb6-4276-8de6-7999f602b4c1","ios":"levelo://app?vid=0f9b083f-7bb6-4276-8de6-7999f602b4c1"},"vehicle_type_id":"4","last_reported":1701853649,"current_range_meters":26400,"station_id":"ce4bhnp2rcd13ifvqgvg","pricing_plan_id":"free"},{"bike_id":"74bc4804-1965-4d25-8199-cd34a282c6b4","system_id":"levelo_inurba_marseille","lat":43.240623,"lon":5.377642,"is_reserved":false,"is_disabled":false,"rental_uris":{"android":"levelo://app?vid=74bc4804-1965-4d25-8199-cd34a282c6b4","ios":"levelo://app?vid=74bc4804-1965-4d25-8199-cd34a282c6b4"},"vehicle_type_id":"4","last_reported":1701853649,"current_range_meters":20800,"station_id":"ce4bhnp2rcd13ifvqgvg","pricing_plan_id":"free"},{"bike_id":"0931915a-97e2-46cc-97be-1970d3747868","system_id":"levelo_inurba_marseille","lat":43.240623,"lon":5.377642,"is_reserved":false,"is_disabled":false,"rental_uris":{"android":"levelo://app?vid=0931915a-97e2-46cc-97be-1970d3747868","ios":"levelo://app?vid=0931915a-97e2-46cc-97be-1970d3747868"},"vehicle_type_id":"4","last_reported":1701853649,"current_range_meters":23600,"station_id":"ce4bhnp2rcd13ifvqgvg","pricing_plan_id":"free"},{"bike_id":"997fd2e8-a739-42e8-907b-cbaffd16bd36","system_id":"levelo_inurba_marseille","lat":43.240623,"lon":5.377642,"is_reserved":false,"is_disabled":false,"rental_uris":{"android":"levelo://app?vid=997fd2e8-a739-42e8-907b-cbaffd16bd36","ios":"levelo://app?vid=997fd2e8-a739-42e8-907b-cbaffd16bd36"},"vehicle_type_id":"4","last_reported":1701853649,"current_range_meters":31200,"station_id":"ce4bhnp2rcd13ifvqgvg","pricing_plan_id":"free"},{"bike_id":"4739a368-3333-42f2-af96-f3d310d3b65f","system_id":"levelo_inurba_marseille","lat":43.240623,"lon":5.377642,"is_reserved":false,"is_disabled":false,"rental_uris":{"android":"levelo://app?vid=4739a368-3333-42f2-af96-f3d310d3b65f","ios":"levelo://app?vid=4739a368-3333-42f2-af96-f3d310d3b65f"},"vehicle_type_id":"4","last_reported":1701853649,"current_range_meters":20800,"station_id":"ce4bhnp2rcd13ifvqgvg","pricing_plan_id":"free"},{"bike_id":"b7889d62-43b9-4540-91fc-9f1fa3cd91a3","system_id":"levelo_inurba_marseille","lat":43.240623,"lon":5.377642,"is_reserved":false,"is_disabled":false,"rental_uris":{"android":"levelo://app?vid=b7889d62-43b9-4540-91fc-9f1fa3cd91a3","ios":"levelo://app?vid=b7889d62-43b9-4540-91fc-9f1fa3cd91a3"},"vehicle_type_id":"4","last_reported":1701853649,"current_range_meters":22400,"station_id":"ce4bhnp2rcd13ifvqgvg","pricing_plan_id":"free"},{"bike_id":"42f8059c-0c8c-4b88-b8c4-4995fc37151e","system_id":"levelo_inurba_marseille","lat":43.240623,"lon":5.377642,"is_reserved":false,"is_disabled":false,"rental_uris":{"android":"levelo://app?vid=42f8059c-0c8c-4b88-b8c4-4995fc37151e","ios":"levelo://app?vid=42f8059c-0c8c-4b88-b8c4-4995fc37151e"},"vehicle_type_id":"4","last_reported":1701853649,"current_range_meters":20400,"station_id":"ce4bhnp2rcd13ifvqgvg","pricing_plan_id":"free"},{"bike_id":"5dea745f-6211-447e-9e0e-f14e0505a580","system_id":"levelo_inurba_marseille","lat":43.241782,"lon":5.397264,"is_reserved":false,"is_disabled":false,"rental_uris":{"android":"levelo://app?vid=5dea745f-6211-447e-9e0e-f14e0505a580","ios":"levelo://app?vid=5dea745f-6211-447e-9e0e-f14e0505a580"},"vehicle_type_id":"4","last_reported":1701853649,"current_range_meters":0,"station_id":"ce4bhn12rcd13ifvqgpg","pricing_plan_id":"free"},{"bike_id":"31764ff6-d6c0-4767-bea3-3fa0c41ee1a1","system_id":"levelo_inurba_marseille","lat":43.231919,"lon":5.355532,"is_reserved":false,"is_disabled":false,"rental_uris":{"android":"levelo://app?vid=31764ff6-d6c0-4767-bea3-3fa0c41ee1a1","ios":"levelo://app?vid=31764ff6-d6c0-4767-bea3-3fa0c41ee1a1"},"vehicle_type_id":"4","last_reported":1701853649,"current_range_meters":24400,"station_id":"ce4bhu92rcd13ifvqi70","pricing_plan_id":"free"},{"bike_id":"95c4af83-22dd-49bd-81d8-85cfc0085eba","system_id":"levelo_inurba_marseille","lat":43.231919,"lon":5.355532,"is_reserved":false,"is_disabled":false,"rental_uris":{"android":"levelo://app?vid=95c4af83-22dd-49bd-81d8-85cfc0085eba","ios":"levelo://app?vid=95c4af83-22dd-49bd-81d8-85cfc0085eba"},"vehicle_type_id":"4","last_reported":1701853649,"current_range_meters":25600,"station_id":"ce4bhu92rcd13ifvqi70","pricing_plan_id":"free"},{"bike_id":"cf3102c4-88e0-4a41-86b7-69a76932d3e6","system_id":"levelo_inurba_marseille","lat":43.231919,"lon":5.355532,"is_reserved":false,"is_disabled":false,"rental_uris":{"android":"levelo://app?vid=cf3102c4-88e0-4a41-86b7-69a76932d3e6","ios":"levelo://app?vid=cf3102c4-88e0-4a41-86b7-69a76932d3e6"},"vehicle_type_id":"4","last_reported":1701853649,"current_range_meters":31200,"station_id":"ce4bhu92rcd13ifvqi70","pricing_plan_id":"free"},{"bike_id":"488fea8d-5d5d-4e63-bb22-0d336c47de9f","system_id":"levelo_inurba_marseille","lat":43.231919,"lon":5.355532,"is_reserved":false,"is_disabled":false,"rental_uris":{"android":"levelo://app?vid=488fea8d-5d5d-4e63-bb22-0d336c47de9f","ios":"levelo://app?vid=488fea8d-5d5d-4e63-bb22-0d336c47de9f"},"vehicle_type_id":"4","last_reported":1701853649,"current_range_meters":30800,"station_id":"ce4bhu92rcd13ifvqi70","pricing_plan_id":"free"},{"bike_id":"952bb64a-f2b8-41ed-a0e1-95250067da8a","system_id":"levelo_inurba_marseille","lat":43.231919,"lon":5.355532,"is_reserved":false,"is_disabled":false,"rental_uris":{"android":"levelo://app?vid=952bb64a-f2b8-41ed-a0e1-95250067da8a","ios":"levelo://app?vid=952bb64a-f2b8-41ed-a0e1-95250067da8a"},"vehicle_type_id":"4","last_reported":1701853649,"current_range_meters":29200,"station_id":"ce4bhu92rcd13ifvqi70","pricing_plan_id":"free"},{"bike_id":"0c803cbc-5e8d-41dc-a430-e74d9c3d4c41","system_id":"levelo_inurba_marseille","lat":43.231923,"lon":5.355545,"is_reserved":false,"is_disabled":false,"rental_uris":{"android":"levelo://app?vid=0c803cbc-5e8d-41dc-a430-e74d9c3d4c41","ios":"levelo://app?vid=0c803cbc-5e8d-41dc-a430-e74d9c3d4c41"},"vehicle_type_id":"4","last_reported":1701853649,"current_range_meters":12400,"station_id":"ce4bhu92rcd13ifvqi70","pricing_plan_id":"free"},{"bike_id":"e62bb05c-2b84-460c-9737-7f293d2b007a","system_id":"levelo_inurba_marseille","lat":43.231919,"lon":5.355532,"is_reserved":false,"is_disabled":false,"rental_uris":{"android":"levelo://app?vid=e62bb05c-2b84-460c-9737-7f293d2b007a","ios":"levelo://app?vid=e62bb05c-2b84-460c-9737-7f293d2b007a"},"vehicle_type_id":"4","last_reported":1701853649,"current_range_meters":22800,"station_id":"ce4bhu92rcd13ifvqi70","pricing_plan_id":"free"},{"bike_id":"d868c0b5-242c-4b9f-b108-cbde91aaec79","system_id":"levelo_inurba_marseille","lat":43.23192,"lon":5.35547,"is_reserved":false,"is_disabled":false,"rental_uris":{"android":"levelo://app?vid=d868c0b5-242c-4b9f-b108-cbde91aaec79","ios":"levelo://app?vid=d868c0b5-242c-4b9f-b108-cbde91aaec79"},"vehicle_type_id":"4","last_reported":1701853649,"current_range_meters":21600,"station_id":"ce4bhu92rcd13ifvqi70","pricing_plan_id":"free"},{"bike_id":"e2fb0602-0025-4bc2-a80e-ca4c6079bddc","system_id":"levelo_inurba_marseille","lat":43.2319,"lon":5.35544,"is_reserved":false,"is_disabled":false,"rental_uris":{"android":"levelo://app?vid=e2fb0602-0025-4bc2-a80e-ca4c6079bddc","ios":"levelo://app?vid=e2fb0602-0025-4bc2-a80e-ca4c6079bddc"},"vehicle_type_id":"4","last_reported":1701853649,"current_range_meters":26400,"station_id":"ce4bhu92rcd13ifvqi70","pricing_plan_id":"free"},{"bike_id":"6c736aaf-3d47-4fdd-bdfa-8a0c66d47e7c","system_id":"levelo_inurba_marseille","lat":43.231919,"lon":5.355532,"is_reserved":false,"is_disabled":false,"rental_uris":{"android":"levelo://app?vid=6c736aaf-3d47-4fdd-bdfa-8a0c66d47e7c","ios":"levelo://app?vid=6c736aaf-3d47-4fdd-bdfa-8a0c66d47e7c"},"vehicle_type_id":"4","last_reported":1701853649,"current_range_meters":10400,"station_id":"ce4bhu92rcd13ifvqi70","pricing_plan_id":"free"},{"bike_id":"c39d5760-ad13-44c1-8d63-f3f67c5aa639","system_id":"levelo_inurba_marseille","lat":43.231562,"lon":5.436933,"is_reserved":false,"is_disabled":false,"rental_uris":{"android":"levelo://app?vid=c39d5760-ad13-44c1-8d63-f3f67c5aa639","ios":"levelo://app?vid=c39d5760-ad13-44c1-8d63-f3f67c5aa639"},"vehicle_type_id":"4","last_reported":1701853649,"current_range_meters":25200,"station_id":"ce4bhmp2rcd13ifvqgog","pricing_plan_id":"free"},{"bike_id":"a4e897ab-35a6-4755-8081-21a5f57f03b0","system_id":"levelo_inurba_marseille","lat":43.231562,"lon":5.436933,"is_reserved":false,"is_disabled":false,"rental_uris":{"android":"levelo://app?vid=a4e897ab-35a6-4755-8081-21a5f57f03b0","ios":"levelo://app?vid=a4e897ab-35a6-4755-8081-21a5f57f03b0"},"vehicle_type_id":"4","last_reported":1701853649,"current_range_meters":11600,"station_id":"ce4bhmp2rcd13ifvqgog","pricing_plan_id":"free"},{"bike_id":"085c2a3e-ea2f-435a-bdf8-b726cd0072cb","system_id":"levelo_inurba_marseille","lat":43.231562,"lon":5.436933,"is_reserved":false,"is_disabled":false,"rental_uris":{"android":"levelo://app?vid=085c2a3e-ea2f-435a-bdf8-b726cd0072cb","ios":"levelo://app?vid=085c2a3e-ea2f-435a-bdf8-b726cd0072cb"},"vehicle_type_id":"4","last_reported":1701853649,"current_range_meters":22800,"station_id":"ce4bhmp2rcd13ifvqgog","pricing_plan_id":"free"},{"bike_id":"38245e9a-47dc-4456-9bf1-c0e93f657d16","system_id":"levelo_inurba_marseille","lat":43.231562,"lon":5.436933,"is_reserved":false,"is_disabled":false,"rental_uris":{"android":"levelo://app?vid=38245e9a-47dc-4456-9bf1-c0e93f657d16","ios":"levelo://app?vid=38245e9a-47dc-4456-9bf1-c0e93f657d16"},"vehicle_type_id":"4","last_reported":1701853649,"current_range_meters":30400,"station_id":"ce4bhmp2rcd13ifvqgog","pricing_plan_id":"free"},{"bike_id":"3df0d0fd-f28c-4e89-a057-d30bf91bcde5","system_id":"levelo_inurba_marseille","lat":43.231562,"lon":5.436933,"is_reserved":false,"is_disabled":false,"rental_uris":{"android":"levelo://app?vid=3df0d0fd-f28c-4e89-a057-d30bf91bcde5","ios":"levelo://app?vid=3df0d0fd-f28c-4e89-a057-d30bf91bcde5"},"vehicle_type_id":"4","last_reported":1701853649,"current_range_meters":1600,"station_id":"ce4bhmp2rcd13ifvqgog","pricing_plan_id":"free"},{"bike_id":"ba85ab11-948c-4313-b881-7bf24787a51d","system_id":"levelo_inurba_marseille","lat":43.231562,"lon":5.436933,"is_reserved":false,"is_disabled":false,"rental_uris":{"android":"levelo://app?vid=ba85ab11-948c-4313-b881-7bf24787a51d","ios":"levelo://app?vid=ba85ab11-948c-4313-b881-7bf24787a51d"},"vehicle_type_id":"4","last_reported":1701853649,"current_range_meters":0,"station_id":"ce4bhmp2rcd13ifvqgog","pricing_plan_id":"free"},{"bike_id":"b59e5cf7-1b98-4d79-a891-34f1e715ede2","system_id":"levelo_inurba_marseille","lat":43.231562,"lon":5.436933,"is_reserved":false,"is_disabled":false,"rental_uris":{"android":"levelo://app?vid=b59e5cf7-1b98-4d79-a891-34f1e715ede2","ios":"levelo://app?vid=b59e5cf7-1b98-4d79-a891-34f1e715ede2"},"vehicle_type_id":"4","last_reported":1701853649,"current_range_meters":18800,"station_id":"ce4bhmp2rcd13ifvqgog","pricing_plan_id":"free"},{"bike_id":"1427fd95-5729-4d15-b4e8-8ee7fa8b65ac","system_id":"levelo_inurba_marseille","lat":43.231562,"lon":5.436933,"is_reserved":false,"is_disabled":false,"rental_uris":{"android":"levelo://app?vid=1427fd95-5729-4d15-b4e8-8ee7fa8b65ac","ios":"levelo://app?vid=1427fd95-5729-4d15-b4e8-8ee7fa8b65ac"},"vehicle_type_id":"4","last_reported":1701853649,"current_range_meters":11600,"station_id":"ce4bhmp2rcd13ifvqgog","pricing_plan_id":"free"},{"bike_id":"87db913b-09e5-4a1a-94bb-e62a8837ca3d","system_id":"levelo_inurba_marseille","lat":43.231562,"lon":5.436933,"is_reserved":false,"is_disabled":false,"rental_uris":{"android":"levelo://app?vid=87db913b-09e5-4a1a-94bb-e62a8837ca3d","ios":"levelo://app?vid=87db913b-09e5-4a1a-94bb-e62a8837ca3d"},"vehicle_type_id":"4","last_reported":1701853649,"current_range_meters":1600,"station_id":"ce4bhmp2rcd13ifvqgog","pricing_plan_id":"free"},{"bike_id":"58108381-81d0-4a6b-8c31-91ea22ee9cd6","system_id":"levelo_inurba_marseille","lat":43.231562,"lon":5.436933,"is_reserved":false,"is_disabled":false,"rental_uris":{"android":"levelo://app?vid=58108381-81d0-4a6b-8c31-91ea22ee9cd6","ios":"levelo://app?vid=58108381-81d0-4a6b-8c31-91ea22ee9cd6"},"vehicle_type_id":"4","last_reported":1701853649,"current_range_meters":29600,"station_id":"ce4bhmp2rcd13ifvqgog","pricing_plan_id":"free"},{"bike_id":"6acfe63a-90ab-4827-9d18-a32c040ccffb","system_id":"levelo_inurba_marseille","lat":43.231562,"lon":5.436933,"is_reserved":false,"is_disabled":false,"rental_uris":{"android":"levelo://app?vid=6acfe63a-90ab-4827-9d18-a32c040ccffb","ios":"levelo://app?vid=6acfe63a-90ab-4827-9d18-a32c040ccffb"},"vehicle_type_id":"4","last_reported":1701853649,"current_range_meters":16800,"station_id":"ce4bhmp2rcd13ifvqgog","pricing_plan_id":"free"}]}}