{"last_updated":1721059803,"ttl":30,"version":"2.2","data":{"bikes":[{"bike_id":"0a32f173-21c1-4d6b-91ce-37f72ab771a7","system_id":"levelo_inurba_marseille","lat":43.314811,"lon":5.373104,"is_reserved":false,"is_disabled":false,"rental_uris":{"android":"levelo://app?vid=0a32f173-21c1-4d6b-91ce-37f72ab771a7","ios":"levelo://app?vid=0a32f173-21c1-4d6b-91ce-37f72ab771a7"},"vehicle_type_id":"4","last_reported":1721059803,"current_range_meters":6400,"station_id":"ce4bgt12rcd13ifvqcd0","pricing_plan_id":"cebpf4jnsgd1na2vs0mg"},{"bike_id":"b58c2336-5f72-4f91-9106-ded78befd60d","system_id":"levelo_inurba_marseille","lat":43.305989,"lon":5.37225,"is_reserved":false,"is_disabled":false,"rental_uris":{"android":"levelo://app?vid=b58c2336-5f72-4f91-9106-ded78befd60d","ios":"levelo://app?vid=b58c2336-5f72-4f91-9106-ded78befd60d"},"vehicle_type_id":"4","last_reported":1721059803,"current_range_meters":13600,"station_id":"ce4bgqh2rcd13ifvqc4g","pricing_plan_id":"cebpf4jnsgd1na2vs0mg"},{"bike_id":"fb18aca5-ac60-48e8-b1cb-64516ecf857e","system_id":"levelo_inurba_marseille","lat":43.31182,"lon":5.379705,"is_reserved":false,"is_disabled":false,"rental_uris":{"android":"levelo://app?vid=fb18aca5-ac60-48e8-b1cb-64516ecf857e","ios":"levelo://app?vid=fb18aca5-ac60-48e8-b1cb-64516ecf857e"},"vehicle_type_id":"4","last_reported":1721059803,"current_range_meters":25600,"station_id":"","pricing_plan_id":"cebpf4jnsgd1na2vs0mg"},{"bike_id":"ef7ef4c2-5297-4632-872c-28ab87c1eb35","system_id":"levelo_inurba_marseille","lat":43.30304,"lon":5.368987,"is_reserved":false,"is_disabled":false,"rental_uris":{"android":"levelo://app?vid=ef7ef4c2-5297-4632-872c-28ab87c1eb35","ios":"levelo://app?vid=ef7ef4c2-5297-4632-872c-28ab87c1eb35"},"vehicle_type_id":"4","last_reported":1721059803,"current_range_meters":10400,"station_id":"ce4bgqh2rcd13ifvqc5g","pricing_plan_id":"cebpf4jnsgd1na2vs0mg"},{"bike_id":"2a3c01ae-d5da-40b6-8afd-87974d4d168c","system_id":"levelo_inurba_marseille","lat":43.315289,"lon":5.380349,"is_reserved":false,"is_disabled":false,"rental_uris":{"android":"levelo://app?vid=2a3c01ae-d5da-40b6-8afd-87974d4d168c","ios":"levelo://app?vid=2a3c01ae-d5da-40b6-8afd-87974d4d168c"},"vehicle_type_id":"4","last_reported":1721059803,"current_range_meters":19600,"station_id":"ce4bhsp2rcd13ifvqi50","pricing_plan_id":"cebpf4jnsgd1na2vs0mg"},{"bike_id":"497c0620-c06e-4898-ba86-9d7cfe9a5128","system_id":"levelo_inurba_marseille","lat":43.315289,"lon":5.380349,"is_reserved":false,"is_disabled":false,"rental_uris":{"android":"levelo://app?vid=497c0620-c06e-4898-ba86-9d7cfe9a5128","ios":"levelo://app?vid=497c0620-c06e-4898-ba86-9d7cfe9a5128"},"vehicle_type_id":"4","last_reported":1721059803,"current_range_meters":5600,"station_id":"ce4bhsp2rcd13ifvqi50","pricing_plan_id":"cebpf4jnsgd1na2vs0mg"},{"bike_id":"d28eabee-feca-4b9f-94a3-7c722241d0a5","system_id":"levelo_inurba_marseille","lat":43.315289,"lon":5.380349,"is_reserved":false,"is_disabled":false,"rental_uris":{"android":"levelo://app?vid=d28eabee-feca-4b9f-94a3-7c722241d0a5","ios":"levelo://app?vid=d28eabee-feca-4b9f-94a3-7c722241d0a5"},"vehicle_type_id":"4","last_reported":1721059803,"current_range_meters":0,"station_id":"ce4bhsp2rcd13ifvqi50","pricing_plan_id":"cebpf4jnsgd1na2vs0mg"},{"bike_id":"ef8a2824-3c95-43fe-9ee1-843d5e932f03","system_id":"levelo_inurba_marseille","lat":43.308012,"lon":5.381511,"is_reserved":false,"is_disabled":false,"rental_uris":{"android":"levelo://app?vid=ef8a2824-3c95-43fe-9ee1-843d5e932f03","ios":"levelo://app?vid=ef8a2824-3c95-43fe-9ee1-843d5e932f03"},"vehicle_type_id":"4","last_reported":1721059803,"current_range_meters":14000,"station_id":"ce4bgt12rcd13ifvqce0","pricing_plan_id":"cebpf4jnsgd1na2vs0mg"},{"bike_id":"4e9e5080-f738-40ce-91e6-2e83dbf58585","system_id":"levelo_inurba_marseille","lat":43.30803,"lon":5.38148,"is_reserved":false,"is_disabled":false,"rental_uris":{"android":"levelo://app?vid=4e9e5080-f738-40ce-91e6-2e83dbf58585","ios":"levelo://app?vid=4e9e5080-f738-40ce-91e6-2e83dbf58585"},"vehicle_type_id":"4","last_reported":1721059803,"current_range_meters":19600,"station_id":"ce4bgt12rcd13ifvqce0","pricing_plan_id":"cebpf4jnsgd1na2vs0mg"},{"bike_id":"5c674685-0da7-4ce4-a648-c95351145665","system_id":"levelo_inurba_marseille","lat":43.308012,"lon":5.381511,"is_reserved":false,"is_disabled":false,"rental_uris":{"android":"levelo://app?vid=5c674685-0da7-4ce4-a648-c95351145665","ios":"levelo://app?vid=5c674685-0da7-4ce4-a648-c95351145665"},"vehicle_type_id":"4","last_reported":1721059803,"current_range_meters":0,"station_id":"ce4bgt12rcd13ifvqce0","pricing_plan_id":"cebpf4jnsgd1na2vs0mg"},{"bike_id":"56ef5ed9-9a71-4e5f-97b5-9dcfaa7485ed","system_id":"levelo_inurba_marseille","lat":43.308012,"lon":5.381511,"is_reserved":false,"is_disabled":false,"rental_uris":{"android":"levelo://app?vid=56ef5ed9-9a71-4e5f-97b5-9dcfaa7485ed","ios":"levelo://app?vid=56ef5ed9-9a71-4e5f-97b5-9dcfaa7485ed"},"vehicle_type_id":"4","last_reported":1721059803,"current_range_meters":11600,"station_id":"ce4bgt12rcd13ifvqce0","pricing_plan_id":"cebpf4jnsgd1na2vs0mg"},{"bike_id":"41742070-859c-48c9-af25-bbaff765621e","system_id":"levelo_inurba_marseille","lat":43.308012,"lon":5.381511,"is_reserved":false,"is_disabled":false,"rental_uris":{"android":"levelo://app?vid=41742070-859c-48c9-af25-bbaff765621e","ios":"levelo://app?vid=41742070-859c-48c9-af25-bbaff765621e"},"vehicle_type_id":"4","last_reported":1721059803,"current_range_meters":23200,"station_id":"ce4bgt12rcd13ifvqce0","pricing_plan_id":"cebpf4jnsgd1na2vs0mg"},{"bike_id":"cd5ad6af-4d88-47b0-9d24-30ca6c5d50ac","system_id":"levelo_inurba_marseille","lat":43.304606,"lon":5.379026,"is_reserved":false,"is_disabled":false,"rental_uris":{"android":"levelo://app?vid=cd5ad6af-4d88-47b0-9d24-30ca6c5d50ac","ios":"levelo://app?vid=cd5ad6af-4d88-47b0-9d24-30ca6c5d50ac"},"vehicle_type_id":"4","last_reported":1721059803,"current_range_meters":5200,"station_id":"ce4bgup2rcd13ifvqcn0","pricing_plan_id":"cebpf4jnsgd1na2vs0mg"},{"bike_id":"54bb3e1a-bf0f-42db-8d8c-e31200f8540a","system_id":"levelo_inurba_marseille","lat":43.32476,"lon":5.36571,"is_reserved":false,"is_disabled":false,"rental_uris":{"android":"levelo://app?vid=54bb3e1a-bf0f-42db-8d8c-e31200f8540a","ios":"levelo://app?vid=54bb3e1a-bf0f-42db-8d8c-e31200f8540a"},"vehicle_type_id":"4","last_reported":1721059803,"current_range_meters":0,"station_id":"ce4bhs12rcd13ifvqhvg","pricing_plan_id":"cebpf4jnsgd1na2vs0mg"},{"bike_id":"d77a49d9-9e08-4ef4-b7c0-95d5f935c20d","system_id":"levelo_inurba_marseille","lat":43.32479,"lon":5.36556,"is_reserved":false,"is_disabled":false,"rental_uris":{"android":"levelo://app?vid=d77a49d9-9e08-4ef4-b7c0-95d5f935c20d","ios":"levelo://app?vid=d77a49d9-9e08-4ef4-b7c0-95d5f935c20d"},"vehicle_type_id":"4","last_reported":1721059803,"current_range_meters":0,"station_id":"ce4bhs12rcd13ifvqhvg","pricing_plan_id":"cebpf4jnsgd1na2vs0mg"},{"bike_id":"c8ecea27-ec7a-4b71-a03a-9fe1c508e77d","system_id":"levelo_inurba_marseille","lat":43.31069,"lon":5.38349,"is_reserved":false,"is_disabled":false,"rental_uris":{"android":"levelo://app?vid=c8ecea27-ec7a-4b71-a03a-9fe1c508e77d","ios":"levelo://app?vid=c8ecea27-ec7a-4b71-a03a-9fe1c508e77d"},"vehicle_type_id":"4","last_reported":1721059803,"current_range_meters":0,"station_id":"ce4bgv92rcd13ifvqcr0","pricing_plan_id":"cebpf4jnsgd1na2vs0mg"},{"bike_id":"c064cd0b-ff1c-40de-8b9d-eefd3435dcf1","system_id":"levelo_inurba_marseille","lat":43.305914,"lon":5.3818,"is_reserved":false,"is_disabled":false,"rental_uris":{"android":"levelo://app?vid=c064cd0b-ff1c-40de-8b9d-eefd3435dcf1","ios":"levelo://app?vid=c064cd0b-ff1c-40de-8b9d-eefd3435dcf1"},"vehicle_type_id":"4","last_reported":1721059803,"current_range_meters":20000,"station_id":"","pricing_plan_id":"cebpf4jnsgd1na2vs0mg"},{"bike_id":"426a301e-f347-4453-8316-7db792e1ba7e","system_id":"levelo_inurba_marseille","lat":43.299289,"lon":5.365506,"is_reserved":false,"is_disabled":false,"rental_uris":{"android":"levelo://app?vid=426a301e-f347-4453-8316-7db792e1ba7e","ios":"levelo://app?vid=426a301e-f347-4453-8316-7db792e1ba7e"},"vehicle_type_id":"4","last_reported":1721059803,"current_range_meters":0,"station_id":"ce4bgqh2rcd13ifvqc5g","pricing_plan_id":"cebpf4jnsgd1na2vs0mg"},{"bike_id":"ff915e45-4585-43fd-a886-2c657a8616fb","system_id":"levelo_inurba_marseille","lat":43.305364,"lon":5.384119,"is_reserved":false,"is_disabled":false,"rental_uris":{"android":"levelo://app?vid=ff915e45-4585-43fd-a886-2c657a8616fb","ios":"levelo://app?vid=ff915e45-4585-43fd-a886-2c657a8616fb"},"vehicle_type_id":"4","last_reported":1721059803,"current_range_meters":9600,"station_id":"ce4bgg92rcd13ifvqb30","pricing_plan_id":"cebpf4jnsgd1na2vs0mg"},{"bike_id":"e192b094-16c0-4ae1-8511-d6ad3b333c19","system_id":"levelo_inurba_marseille","lat":43.298433,"lon":5.362774,"is_reserved":false,"is_disabled":false,"rental_uris":{"android":"levelo://app?vid=e192b094-16c0-4ae1-8511-d6ad3b333c19","ios":"levelo://app?vid=e192b094-16c0-4ae1-8511-d6ad3b333c19"},"vehicle_type_id":"4","last_reported":1721059803,"current_range_meters":25200,"station_id":"ce4bgpp2rcd13ifvqc3g","pricing_plan_id":"cebpf4jnsgd1na2vs0mg"},{"bike_id":"8d7f28d7-1a19-4f5f-9353-aa51c1f130bc","system_id":"levelo_inurba_marseille","lat":43.322872,"lon":5.382756,"is_reserved":false,"is_disabled":false,"rental_uris":{"android":"levelo://app?vid=8d7f28d7-1a19-4f5f-9353-aa51c1f130bc","ios":"levelo://app?vid=8d7f28d7-1a19-4f5f-9353-aa51c1f130bc"},"vehicle_type_id":"4","last_reported":1721059803,"current_range_meters":1200,"station_id":"ce4bhr12rcd13ifvqhqg","pricing_plan_id":"cebpf4jnsgd1na2vs0mg"},{"bike_id":"93d4b465-7d66-466a-b628-93144545f6f5","system_id":"levelo_inurba_marseille","lat":43.322872,"lon":5.382756,"is_reserved":false,"is_disabled":false,"rental_uris":{"android":"levelo://app?vid=93d4b465-7d66-466a-b628-93144545f6f5","ios":"levelo://app?vid=93d4b465-7d66-466a-b628-93144545f6f5"},"vehicle_type_id":"4","last_reported":1721059803,"current_range_meters":31600,"station_id":"ce4bhr12rcd13ifvqhqg","pricing_plan_id":"cebpf4jnsgd1na2vs0mg"},{"bike_id":"fb1793be-f905-4456-9010-fe79cdea1e0b","system_id":"levelo_inurba_marseille","lat":43.297163,"lon":5.365866,"is_reserved":false,"is_disabled":false,"rental_uris":{"android":"levelo://app?vid=fb1793be-f905-4456-9010-fe79cdea1e0b","ios":"levelo://app?vid=fb1793be-f905-4456-9010-fe79cdea1e0b"},"vehicle_type_id":"4","last_reported":1721059803,"current_range_meters":27600,"station_id":"ce4bgn12rcd13ifvqbt0","pricing_plan_id":"cebpf4jnsgd1na2vs0mg"},{"bike_id":"39dc0412-ce64-4a5f-9e88-377e76dc5f70","system_id":"levelo_inurba_marseille","lat":43.29629,"lon":5.3713,"is_reserved":false,"is_disabled":false,"rental_uris":{"android":"levelo://app?vid=39dc0412-ce64-4a5f-9e88-377e76dc5f70","ios":"levelo://app?vid=39dc0412-ce64-4a5f-9e88-377e76dc5f70"},"vehicle_type_id":"4","last_reported":1721059803,"current_range_meters":24400,"station_id":"ce4bgnh2rcd13ifvqc0g","pricing_plan_id":"cebpf4jnsgd1na2vs0mg"},{"bike_id":"d933ecee-6445-458a-bd38-945a3d9925aa","system_id":"levelo_inurba_marseille","lat":43.299028,"lon":5.381509,"is_reserved":false,"is_disabled":false,"rental_uris":{"android":"levelo://app?vid=d933ecee-6445-458a-bd38-945a3d9925aa","ios":"levelo://app?vid=d933ecee-6445-458a-bd38-945a3d9925aa"},"vehicle_type_id":"4","last_reported":1721059803,"current_range_meters":9600,"station_id":"ce4bgj12rcd13ifvqbc0","pricing_plan_id":"cebpf4jnsgd1na2vs0mg"},{"bike_id":"98f4584e-5752-4fd1-b18e-5984cfc03ccd","system_id":"levelo_inurba_marseille","lat":43.297067,"lon":5.37721,"is_reserved":false,"is_disabled":false,"rental_uris":{"android":"levelo://app?vid=98f4584e-5752-4fd1-b18e-5984cfc03ccd","ios":"levelo://app?vid=98f4584e-5752-4fd1-b18e-5984cfc03ccd"},"vehicle_type_id":"4","last_reported":1721059803,"current_range_meters":12400,"station_id":"ce4bgkh2rcd13ifvqbl0","pricing_plan_id":"cebpf4jnsgd1na2vs0mg"},{"bike_id":"3b22b114-7199-41d5-a247-5d1562136237","system_id":"levelo_inurba_marseille","lat":43.317557,"lon":5.390173,"is_reserved":false,"is_disabled":false,"rental_uris":{"android":"levelo://app?vid=3b22b114-7199-41d5-a247-5d1562136237","ios":"levelo://app?vid=3b22b114-7199-41d5-a247-5d1562136237"},"vehicle_type_id":"4","last_reported":1721059803,"current_range_meters":10400,"station_id":"ce4bhqp2rcd13ifvqhng","pricing_plan_id":"cebpf4jnsgd1na2vs0mg"},{"bike_id":"e8c35356-0402-4af3-a9e0-aa2a3506a101","system_id":"levelo_inurba_marseille","lat":43.296935,"lon":5.376544,"is_reserved":false,"is_disabled":false,"rental_uris":{"android":"levelo://app?vid=e8c35356-0402-4af3-a9e0-aa2a3506a101","ios":"levelo://app?vid=e8c35356-0402-4af3-a9e0-aa2a3506a101"},"vehicle_type_id":"4","last_reported":1721059803,"current_range_meters":0,"station_id":"ce4bgkh2rcd13ifvqbl0","pricing_plan_id":"cebpf4jnsgd1na2vs0mg"},{"bike_id":"bd99fa8f-6929-4d89-982e-85196a9cc120","system_id":"levelo_inurba_marseille","lat":43.304278,"lon":5.388868,"is_reserved":false,"is_disabled":false,"rental_uris":{"android":"levelo://app?vid=bd99fa8f-6929-4d89-982e-85196a9cc120","ios":"levelo://app?vid=bd99fa8f-6929-4d89-982e-85196a9cc120"},"vehicle_type_id":"4","last_reported":1721059803,"current_range_meters":16000,"station_id":"ce4bgk12rcd13ifvqbi0","pricing_plan_id":"cebpf4jnsgd1na2vs0mg"},{"bike_id":"c2c5e184-cf68-4294-a1bc-2cea3ebc46dc","system_id":"levelo_inurba_marseille","lat":43.29783,"lon":5.38103,"is_reserved":false,"is_disabled":false,"rental_uris":{"android":"levelo://app?vid=c2c5e184-cf68-4294-a1bc-2cea3ebc46dc","ios":"levelo://app?vid=c2c5e184-cf68-4294-a1bc-2cea3ebc46dc"},"vehicle_type_id":"4","last_reported":1721059803,"current_range_meters":0,"station_id":"ce4bgip2rcd13ifvqbb0","pricing_plan_id":"cebpf4jnsgd1na2vs0mg"},{"bike_id":"30c7d327-a1ba-4ef4-ad42-46553c39f44a","system_id":"levelo_inurba_marseille","lat":43.304274,"lon":5.388873,"is_reserved":false,"is_disabled":false,"rental_uris":{"android":"levelo://app?vid=30c7d327-a1ba-4ef4-ad42-46553c39f44a","ios":"levelo://app?vid=30c7d327-a1ba-4ef4-ad42-46553c39f44a"},"vehicle_type_id":"4","last_reported":1721059803,"current_range_meters":12000,"station_id":"ce4bgk12rcd13ifvqbi0","pricing_plan_id":"cebpf4jnsgd1na2vs0mg"},{"bike_id":"afde4354-a307-46eb-b863-795aaf86af74","system_id":"levelo_inurba_marseille","lat":43.304274,"lon":5.388873,"is_reserved":false,"is_disabled":false,"rental_uris":{"android":"levelo://app?vid=afde4354-a307-46eb-b863-795aaf86af74","ios":"levelo://app?vid=afde4354-a307-46eb-b863-795aaf86af74"},"vehicle_type_id":"4","last_reported":1721059803,"current_range_meters":9600,"station_id":"ce4bgk12rcd13ifvqbi0","pricing_plan_id":"cebpf4jnsgd1na2vs0mg"},{"bike_id":"b340fc5a-04d5-4425-b5d1-a13cb2f08b0d","system_id":"levelo_inurba_marseille","lat":43.299724,"lon":5.384848,"is_reserved":false,"is_disabled":false,"rental_uris":{"android":"levelo://app?vid=b340fc5a-04d5-4425-b5d1-a13cb2f08b0d","ios":"levelo://app?vid=b340fc5a-04d5-4425-b5d1-a13cb2f08b0d"},"vehicle_type_id":"4","last_reported":1721059803,"current_range_meters":0,"station_id":"ce4bgj92rcd13ifvqbd0","pricing_plan_id":"cebpf4jnsgd1na2vs0mg"},{"bike_id":"e7d55445-b403-4b58-88e8-5e5511d09a1f","system_id":"levelo_inurba_marseille","lat":43.299724,"lon":5.384848,"is_reserved":false,"is_disabled":false,"rental_uris":{"android":"levelo://app?vid=e7d55445-b403-4b58-88e8-5e5511d09a1f","ios":"levelo://app?vid=e7d55445-b403-4b58-88e8-5e5511d09a1f"},"vehicle_type_id":"4","last_reported":1721059803,"current_range_meters":15200,"station_id":"ce4bgj92rcd13ifvqbd0","pricing_plan_id":"cebpf4jnsgd1na2vs0mg"},{"bike_id":"3c0284ac-35dd-4a43-abfd-51bda497ccb6","system_id":"levelo_inurba_marseille","lat":43.295279,"lon":5.375048,"is_reserved":false,"is_disabled":false,"rental_uris":{"android":"levelo://app?vid=3c0284ac-35dd-4a43-abfd-51bda497ccb6","ios":"levelo://app?vid=3c0284ac-35dd-4a43-abfd-51bda497ccb6"},"vehicle_type_id":"4","last_reported":1721059803,"current_range_meters":20000,"station_id":"ce4bgkp2rcd13ifvqbmg","pricing_plan_id":"cebpf4jnsgd1na2vs0mg"},{"bike_id":"d1a0481c-d31c-40fa-a3f3-1ab588f70d10","system_id":"levelo_inurba_marseille","lat":43.299724,"lon":5.384848,"is_reserved":false,"is_disabled":false,"rental_uris":{"android":"levelo://app?vid=d1a0481c-d31c-40fa-a3f3-1ab588f70d10","ios":"levelo://app?vid=d1a0481c-d31c-40fa-a3f3-1ab588f70d10"},"vehicle_type_id":"4","last_reported":1721059803,"current_range_meters":4000,"station_id":"ce4bgj92rcd13ifvqbd0","pricing_plan_id":"cebpf4jnsgd1na2vs0mg"},{"bike_id":"239e0100-b84f-4d5b-85c7-945abfb4d8fa","system_id":"levelo_inurba_marseille","lat":43.29553,"lon":5.37723,"is_reserved":false,"is_disabled":false,"rental_uris":{"android":"levelo://app?vid=239e0100-b84f-4d5b-85c7-945abfb4d8fa","ios":"levelo://app?vid=239e0100-b84f-4d5b-85c7-945abfb4d8fa"},"vehicle_type_id":"4","last_reported":1721059803,"current_range_meters":9600,"station_id":"","pricing_plan_id":"cebpf4jnsgd1na2vs0mg"},{"bike_id":"dfb9b770-334d-4cee-95ac-40458d98ad86","system_id":"levelo_inurba_marseille","lat":43.296131,"lon":5.379023,"is_reserved":false,"is_disabled":false,"rental_uris":{"android":"levelo://app?vid=dfb9b770-334d-4cee-95ac-40458d98ad86","ios":"levelo://app?vid=dfb9b770-334d-4cee-95ac-40458d98ad86"},"vehicle_type_id":"4","last_reported":1721059803,"current_range_meters":3600,"station_id":"","pricing_plan_id":"cebpf4jnsgd1na2vs0mg"},{"bike_id":"89b415a9-c2dc-4213-b827-2027bf2bbdd6","system_id":"levelo_inurba_marseille","lat":43.301396,"lon":5.387812,"is_reserved":false,"is_disabled":false,"rental_uris":{"android":"levelo://app?vid=89b415a9-c2dc-4213-b827-2027bf2bbdd6","ios":"levelo://app?vid=89b415a9-c2dc-4213-b827-2027bf2bbdd6"},"vehicle_type_id":"4","last_reported":1721059803,"current_range_meters":0,"station_id":"ce4bghh2rcd13ifvqb60","pricing_plan_id":"cebpf4jnsgd1na2vs0mg"},{"bike_id":"6202ab64-15ad-4200-b116-eac8f936da71","system_id":"levelo_inurba_marseille","lat":43.29422,"lon":5.37464,"is_reserved":false,"is_disabled":false,"rental_uris":{"android":"levelo://app?vid=6202ab64-15ad-4200-b116-eac8f936da71","ios":"levelo://app?vid=6202ab64-15ad-4200-b116-eac8f936da71"},"vehicle_type_id":"4","last_reported":1721059803,"current_range_meters":25600,"station_id":"","pricing_plan_id":"cebpf4jnsgd1na2vs0mg"},{"bike_id":"9a7e3d50-f785-4658-9436-11a9b3cd5568","system_id":"levelo_inurba_marseille","lat":43.29601,"lon":5.381084,"is_reserved":false,"is_disabled":false,"rental_uris":{"android":"levelo://app?vid=9a7e3d50-f785-4658-9436-11a9b3cd5568","ios":"levelo://app?vid=9a7e3d50-f785-4658-9436-11a9b3cd5568"},"vehicle_type_id":"4","last_reported":1721059803,"current_range_meters":13600,"station_id":"ce4bgl12rcd13ifvqbo0","pricing_plan_id":"cebpf4jnsgd1na2vs0mg"},{"bike_id":"230ba4eb-76d9-499d-81eb-68a354c315d8","system_id":"levelo_inurba_marseille","lat":43.293259,"lon":5.371586,"is_reserved":false,"is_disabled":false,"rental_uris":{"android":"levelo://app?vid=230ba4eb-76d9-499d-81eb-68a354c315d8","ios":"levelo://app?vid=230ba4eb-76d9-499d-81eb-68a354c315d8"},"vehicle_type_id":"4","last_reported":1721059803,"current_range_meters":0,"station_id":"ce4bgh92rcd13ifvqb40","pricing_plan_id":"cebpf4jnsgd1na2vs0mg"},{"bike_id":"a48569ac-71ab-47c2-96e2-9a978bac42af","system_id":"levelo_inurba_marseille","lat":43.29504,"lon":5.37988,"is_reserved":false,"is_disabled":false,"rental_uris":{"android":"levelo://app?vid=a48569ac-71ab-47c2-96e2-9a978bac42af","ios":"levelo://app?vid=a48569ac-71ab-47c2-96e2-9a978bac42af"},"vehicle_type_id":"4","last_reported":1721059803,"current_range_meters":0,"station_id":"","pricing_plan_id":"cebpf4jnsgd1na2vs0mg"},{"bike_id":"faaeaa3d-03e2-4561-9bc6-e538bdb4e9b9","system_id":"levelo_inurba_marseille","lat":43.293024,"lon":5.374294,"is_reserved":false,"is_disabled":false,"rental_uris":{"android":"levelo://app?vid=faaeaa3d-03e2-4561-9bc6-e538bdb4e9b9","ios":"levelo://app?vid=faaeaa3d-03e2-4561-9bc6-e538bdb4e9b9"},"vehicle_type_id":"4","last_reported":1721059803,"current_range_meters":0,"station_id":"ce4bgi12rcd13ifvqb70","pricing_plan_id":"cebpf4jnsgd1na2vs0mg"},{"bike_id":"0c5d752e-022f-423e-a1ec-542e2b8d136d","system_id":"levelo_inurba_marseille","lat":43.293009,"lon":5.374584,"is_reserved":false,"is_disabled":false,"rental_uris":{"android":"levelo://app?vid=0c5d752e-022f-423e-a1ec-542e2b8d136d","ios":"levelo://app?vid=0c5d752e-022f-423e-a1ec-542e2b8d136d"},"vehicle_type_id":"4","last_reported":1721059803,"current_range_meters":0,"station_id":"ce4bgi12rcd13ifvqb70","pricing_plan_id":"cebpf4jnsgd1na2vs0mg"},{"bike_id":"d9c78415-05ab-409f-b7ae-984b4c2ea47e","system_id":"levelo_inurba_marseille","lat":43.317557,"lon":5.390173,"is_reserved":false,"is_disabled":false,"rental_uris":{"android":"levelo://app?vid=d9c78415-05ab-409f-b7ae-984b4c2ea47e","ios":"levelo://app?vid=d9c78415-05ab-409f-b7ae-984b4c2ea47e"},"vehicle_type_id":"4","last_reported":1721059803,"current_range_meters":18800,"station_id":"ce4bhqp2rcd13ifvqhng","pricing_plan_id":"cebpf4jnsgd1na2vs0mg"},{"bike_id":"9ffedde9-817b-4e5a-a343-67cc7725a660","system_id":"levelo_inurba_marseille","lat":43.293009,"lon":5.374584,"is_reserved":false,"is_disabled":false,"rental_uris":{"android":"levelo://app?vid=9ffedde9-817b-4e5a-a343-67cc7725a660","ios":"levelo://app?vid=9ffedde9-817b-4e5a-a343-67cc7725a660"},"vehicle_type_id":"4","last_reported":1721059803,"current_range_meters":20400,"station_id":"ce4bgi12rcd13ifvqb70","pricing_plan_id":"cebpf4jnsgd1na2vs0mg"},{"bike_id":"21d53ad9-fbc4-4242-8ec8-c1a0b8401763","system_id":"levelo_inurba_marseille","lat":43.2936,"lon":5.37835,"is_reserved":false,"is_disabled":false,"rental_uris":{"android":"levelo://app?vid=21d53ad9-fbc4-4242-8ec8-c1a0b8401763","ios":"levelo://app?vid=21d53ad9-fbc4-4242-8ec8-c1a0b8401763"},"vehicle_type_id":"4","last_reported":1721059803,"current_range_meters":4400,"station_id":"ce4bgjh2rcd13ifvqbf0","pricing_plan_id":"cebpf4jnsgd1na2vs0mg"},{"bike_id":"69ecab2d-9a8a-4728-bb41-57a0a5f8e3d3","system_id":"levelo_inurba_marseille","lat":43.292311,"lon":5.360731,"is_reserved":false,"is_disabled":false,"rental_uris":{"android":"levelo://app?vid=69ecab2d-9a8a-4728-bb41-57a0a5f8e3d3","ios":"levelo://app?vid=69ecab2d-9a8a-4728-bb41-57a0a5f8e3d3"},"vehicle_type_id":"4","last_reported":1721059803,"current_range_meters":4400,"station_id":"ce4bhbh2rcd13ifvqeqg","pricing_plan_id":"cebpf4jnsgd1na2vs0mg"},{"bike_id":"312f1649-c0a2-4d16-8ac4-2a76f5ed1382","system_id":"levelo_inurba_marseille","lat":43.291994,"lon":5.357886,"is_reserved":false,"is_disabled":false,"rental_uris":{"android":"levelo://app?vid=312f1649-c0a2-4d16-8ac4-2a76f5ed1382","ios":"levelo://app?vid=312f1649-c0a2-4d16-8ac4-2a76f5ed1382"},"vehicle_type_id":"4","last_reported":1721059803,"current_range_meters":30800,"station_id":"ce4bhb12rcd13ifvqel0","pricing_plan_id":"cebpf4jnsgd1na2vs0mg"},{"bike_id":"f8b5bd65-cfc1-49cf-a6b9-b495888b58a0","system_id":"levelo_inurba_marseille","lat":43.292311,"lon":5.360731,"is_reserved":false,"is_disabled":false,"rental_uris":{"android":"levelo://app?vid=f8b5bd65-cfc1-49cf-a6b9-b495888b58a0","ios":"levelo://app?vid=f8b5bd65-cfc1-49cf-a6b9-b495888b58a0"},"vehicle_type_id":"4","last_reported":1721059803,"current_range_meters":0,"station_id":"ce4bhbh2rcd13ifvqeqg","pricing_plan_id":"cebpf4jnsgd1na2vs0mg"},{"bike_id":"36a1ba85-f6eb-4ca6-a79e-fb6056f46ae2","system_id":"levelo_inurba_marseille","lat":43.300883,"lon":5.39075,"is_reserved":false,"is_disabled":false,"rental_uris":{"android":"levelo://app?vid=36a1ba85-f6eb-4ca6-a79e-fb6056f46ae2","ios":"levelo://app?vid=36a1ba85-f6eb-4ca6-a79e-fb6056f46ae2"},"vehicle_type_id":"4","last_reported":1721059803,"current_range_meters":0,"station_id":"ce4bh192rcd13ifvqdb0","pricing_plan_id":"cebpf4jnsgd1na2vs0mg"},{"bike_id":"5aaa90d0-9802-4663-af6a-50401ba49e2c","system_id":"levelo_inurba_marseille","lat":43.292005,"lon":5.357875,"is_reserved":false,"is_disabled":false,"rental_uris":{"android":"levelo://app?vid=5aaa90d0-9802-4663-af6a-50401ba49e2c","ios":"levelo://app?vid=5aaa90d0-9802-4663-af6a-50401ba49e2c"},"vehicle_type_id":"4","last_reported":1721059803,"current_range_meters":1200,"station_id":"ce4bhb12rcd13ifvqel0","pricing_plan_id":"cebpf4jnsgd1na2vs0mg"},{"bike_id":"8e952f81-ccc2-4d97-ad0b-6ca19212e1b9","system_id":"levelo_inurba_marseille","lat":43.29529,"lon":5.385581,"is_reserved":false,"is_disabled":false,"rental_uris":{"android":"levelo://app?vid=8e952f81-ccc2-4d97-ad0b-6ca19212e1b9","ios":"levelo://app?vid=8e952f81-ccc2-4d97-ad0b-6ca19212e1b9"},"vehicle_type_id":"4","last_reported":1721059803,"current_range_meters":800,"station_id":"ce4bgih2rcd13ifvqba0","pricing_plan_id":"cebpf4jnsgd1na2vs0mg"},{"bike_id":"c1f7b591-5469-4828-9f41-6e6c085c0922","system_id":"levelo_inurba_marseille","lat":43.290779,"lon":5.371482,"is_reserved":false,"is_disabled":false,"rental_uris":{"android":"levelo://app?vid=c1f7b591-5469-4828-9f41-6e6c085c0922","ios":"levelo://app?vid=c1f7b591-5469-4828-9f41-6e6c085c0922"},"vehicle_type_id":"4","last_reported":1721059803,"current_range_meters":16400,"station_id":"ce4bh5p2rcd13ifvqe4g","pricing_plan_id":"cebpf4jnsgd1na2vs0mg"},{"bike_id":"b824c79d-8c29-4dd1-a801-3053cbb53870","system_id":"levelo_inurba_marseille","lat":43.29069,"lon":5.37161,"is_reserved":false,"is_disabled":false,"rental_uris":{"android":"levelo://app?vid=b824c79d-8c29-4dd1-a801-3053cbb53870","ios":"levelo://app?vid=b824c79d-8c29-4dd1-a801-3053cbb53870"},"vehicle_type_id":"4","last_reported":1721059803,"current_range_meters":26800,"station_id":"ce4bh5p2rcd13ifvqe4g","pricing_plan_id":"cebpf4jnsgd1na2vs0mg"},{"bike_id":"7e57e3d5-3318-406b-b56c-1f0e0a6d68c3","system_id":"levelo_inurba_marseille","lat":43.29057,"lon":5.3715,"is_reserved":false,"is_disabled":false,"rental_uris":{"android":"levelo://app?vid=7e57e3d5-3318-406b-b56c-1f0e0a6d68c3","ios":"levelo://app?vid=7e57e3d5-3318-406b-b56c-1f0e0a6d68c3"},"vehicle_type_id":"4","last_reported":1721059803,"current_range_meters":0,"station_id":"ce4bh5p2rcd13ifvqe4g","pricing_plan_id":"cebpf4jnsgd1na2vs0mg"},{"bike_id":"453dbc44-724c-4fa9-a5fa-4b08b83a7368","system_id":"levelo_inurba_marseille","lat":43.302008,"lon":5.394694,"is_reserved":false,"is_disabled":false,"rental_uris":{"android":"levelo://app?vid=453dbc44-724c-4fa9-a5fa-4b08b83a7368","ios":"levelo://app?vid=453dbc44-724c-4fa9-a5fa-4b08b83a7368"},"vehicle_type_id":"4","last_reported":1721059803,"current_range_meters":0,"station_id":"ce4bh0p2rcd13ifvqd70","pricing_plan_id":"cebpf4jnsgd1na2vs0mg"},{"bike_id":"d79d9029-5be3-471f-a8c1-9284d9cb92bd","system_id":"levelo_inurba_marseille","lat":43.290624,"lon":5.359245,"is_reserved":false,"is_disabled":false,"rental_uris":{"android":"levelo://app?vid=d79d9029-5be3-471f-a8c1-9284d9cb92bd","ios":"levelo://app?vid=d79d9029-5be3-471f-a8c1-9284d9cb92bd"},"vehicle_type_id":"4","last_reported":1721059803,"current_range_meters":0,"station_id":"ce4bha92rcd13ifvqeg0","pricing_plan_id":"cebpf4jnsgd1na2vs0mg"},{"bike_id":"2bd4c995-d55c-49ab-83ed-83965c43dfae","system_id":"levelo_inurba_marseille","lat":43.294162,"lon":5.386292,"is_reserved":false,"is_disabled":false,"rental_uris":{"android":"levelo://app?vid=2bd4c995-d55c-49ab-83ed-83965c43dfae","ios":"levelo://app?vid=2bd4c995-d55c-49ab-83ed-83965c43dfae"},"vehicle_type_id":"4","last_reported":1721059803,"current_range_meters":0,"station_id":"ce4bh2h2rcd13ifvqdh0","pricing_plan_id":"cebpf4jnsgd1na2vs0mg"},{"bike_id":"642deb46-db70-449a-96c4-d25e45579c0d","system_id":"levelo_inurba_marseille","lat":43.294162,"lon":5.386292,"is_reserved":false,"is_disabled":false,"rental_uris":{"android":"levelo://app?vid=642deb46-db70-449a-96c4-d25e45579c0d","ios":"levelo://app?vid=642deb46-db70-449a-96c4-d25e45579c0d"},"vehicle_type_id":"4","last_reported":1721059803,"current_range_meters":0,"station_id":"ce4bh2h2rcd13ifvqdh0","pricing_plan_id":"cebpf4jnsgd1na2vs0mg"},{"bike_id":"076c0cd2-886a-4a18-ba4c-b02fc7f7a275","system_id":"levelo_inurba_marseille","lat":43.289184,"lon":5.366408,"is_reserved":false,"is_disabled":false,"rental_uris":{"android":"levelo://app?vid=076c0cd2-886a-4a18-ba4c-b02fc7f7a275","ios":"levelo://app?vid=076c0cd2-886a-4a18-ba4c-b02fc7f7a275"},"vehicle_type_id":"4","last_reported":1721059803,"current_range_meters":8800,"station_id":"ce4bhap2rcd13ifvqek0","pricing_plan_id":"cebpf4jnsgd1na2vs0mg"},{"bike_id":"6ce55e3e-cadd-4120-b20a-b1824c1725aa","system_id":"levelo_inurba_marseille","lat":43.291276,"lon":5.380602,"is_reserved":false,"is_disabled":false,"rental_uris":{"android":"levelo://app?vid=6ce55e3e-cadd-4120-b20a-b1824c1725aa","ios":"levelo://app?vid=6ce55e3e-cadd-4120-b20a-b1824c1725aa"},"vehicle_type_id":"4","last_reported":1721059803,"current_range_meters":0,"station_id":"","pricing_plan_id":"cebpf4jnsgd1na2vs0mg"},{"bike_id":"97b764b5-9b23-4f21-85db-9f64a1b10303","system_id":"levelo_inurba_marseille","lat":43.304296,"lon":5.397513,"is_reserved":false,"is_disabled":false,"rental_uris":{"android":"levelo://app?vid=97b764b5-9b23-4f21-85db-9f64a1b10303","ios":"levelo://app?vid=97b764b5-9b23-4f21-85db-9f64a1b10303"},"vehicle_type_id":"4","last_reported":1721059803,"current_range_meters":800,"station_id":"ce4bh092rcd13ifvqd20","pricing_plan_id":"cebpf4jnsgd1na2vs0mg"},{"bike_id":"df9dab42-555c-4c65-bea4-cce57fce7537","system_id":"levelo_inurba_marseille","lat":43.30427,"lon":5.39749,"is_reserved":false,"is_disabled":false,"rental_uris":{"android":"levelo://app?vid=df9dab42-555c-4c65-bea4-cce57fce7537","ios":"levelo://app?vid=df9dab42-555c-4c65-bea4-cce57fce7537"},"vehicle_type_id":"4","last_reported":1721059803,"current_range_meters":14400,"station_id":"ce4bh092rcd13ifvqd20","pricing_plan_id":"cebpf4jnsgd1na2vs0mg"},{"bike_id":"16a3d332-e922-40ef-b105-0c36cf209ea8","system_id":"levelo_inurba_marseille","lat":43.30415,"lon":5.39745,"is_reserved":false,"is_disabled":false,"rental_uris":{"android":"levelo://app?vid=16a3d332-e922-40ef-b105-0c36cf209ea8","ios":"levelo://app?vid=16a3d332-e922-40ef-b105-0c36cf209ea8"},"vehicle_type_id":"4","last_reported":1721059803,"current_range_meters":0,"station_id":"ce4bh092rcd13ifvqd20","pricing_plan_id":"cebpf4jnsgd1na2vs0mg"},{"bike_id":"92234854-ee35-4b82-ad1f-ccfceb08f8b1","system_id":"levelo_inurba_marseille","lat":43.29258,"lon":5.38448,"is_reserved":false,"is_disabled":false,"rental_uris":{"android":"levelo://app?vid=92234854-ee35-4b82-ad1f-ccfceb08f8b1","ios":"levelo://app?vid=92234854-ee35-4b82-ad1f-ccfceb08f8b1"},"vehicle_type_id":"4","last_reported":1721059803,"current_range_meters":0,"station_id":"ce4bh692rcd13ifvqea0","pricing_plan_id":"cebpf4jnsgd1na2vs0mg"},{"bike_id":"b74422f0-5d89-46ba-8b58-d93538559f64","system_id":"levelo_inurba_marseille","lat":43.290103,"lon":5.356114,"is_reserved":false,"is_disabled":false,"rental_uris":{"android":"levelo://app?vid=b74422f0-5d89-46ba-8b58-d93538559f64","ios":"levelo://app?vid=b74422f0-5d89-46ba-8b58-d93538559f64"},"vehicle_type_id":"4","last_reported":1721059803,"current_range_meters":0,"station_id":"ce4bhb92rcd13ifvqen0","pricing_plan_id":"cebpf4jnsgd1na2vs0mg"},{"bike_id":"c4845c46-07d3-4fd9-9cd4-c58bdf52a7aa","system_id":"levelo_inurba_marseille","lat":43.290104,"lon":5.356111,"is_reserved":false,"is_disabled":false,"rental_uris":{"android":"levelo://app?vid=c4845c46-07d3-4fd9-9cd4-c58bdf52a7aa","ios":"levelo://app?vid=c4845c46-07d3-4fd9-9cd4-c58bdf52a7aa"},"vehicle_type_id":"4","last_reported":1721059803,"current_range_meters":31200,"station_id":"ce4bhb92rcd13ifvqen0","pricing_plan_id":"cebpf4jnsgd1na2vs0mg"},{"bike_id":"0ec9d7ed-d087-43e2-a24c-c45960b7c792","system_id":"levelo_inurba_marseille","lat":43.290104,"lon":5.356111,"is_reserved":false,"is_disabled":false,"rental_uris":{"android":"levelo://app?vid=0ec9d7ed-d087-43e2-a24c-c45960b7c792","ios":"levelo://app?vid=0ec9d7ed-d087-43e2-a24c-c45960b7c792"},"vehicle_type_id":"4","last_reported":1721059803,"current_range_meters":10400,"station_id":"ce4bhb92rcd13ifvqen0","pricing_plan_id":"cebpf4jnsgd1na2vs0mg"},{"bike_id":"acea1265-6030-4703-bf93-d723be2396ab","system_id":"levelo_inurba_marseille","lat":43.290104,"lon":5.356111,"is_reserved":false,"is_disabled":false,"rental_uris":{"android":"levelo://app?vid=acea1265-6030-4703-bf93-d723be2396ab","ios":"levelo://app?vid=acea1265-6030-4703-bf93-d723be2396ab"},"vehicle_type_id":"4","last_reported":1721059803,"current_range_meters":9600,"station_id":"ce4bhb92rcd13ifvqen0","pricing_plan_id":"cebpf4jnsgd1na2vs0mg"},{"bike_id":"a925ce42-8c31-4c1b-928b-7500816ea26e","system_id":"levelo_inurba_marseille","lat":43.290104,"lon":5.356111,"is_reserved":false,"is_disabled":false,"rental_uris":{"android":"levelo://app?vid=a925ce42-8c31-4c1b-928b-7500816ea26e","ios":"levelo://app?vid=a925ce42-8c31-4c1b-928b-7500816ea26e"},"vehicle_type_id":"4","last_reported":1721059803,"current_range_meters":31200,"station_id":"ce4bhb92rcd13ifvqen0","pricing_plan_id":"cebpf4jnsgd1na2vs0mg"},{"bike_id":"1b675646-f624-4a85-8750-0079a25f4049","system_id":"levelo_inurba_marseille","lat":43.290104,"lon":5.356111,"is_reserved":false,"is_disabled":false,"rental_uris":{"android":"levelo://app?vid=1b675646-f624-4a85-8750-0079a25f4049","ios":"levelo://app?vid=1b675646-f624-4a85-8750-0079a25f4049"},"vehicle_type_id":"4","last_reported":1721059803,"current_range_meters":0,"station_id":"ce4bhb92rcd13ifvqen0","pricing_plan_id":"cebpf4jnsgd1na2vs0mg"},{"bike_id":"55de1040-1a36-480c-bf06-3d7eba8b409e","system_id":"levelo_inurba_marseille","lat":43.323205,"lon":5.39704,"is_reserved":false,"is_disabled":false,"rental_uris":{"android":"levelo://app?vid=55de1040-1a36-480c-bf06-3d7eba8b409e","ios":"levelo://app?vid=55de1040-1a36-480c-bf06-3d7eba8b409e"},"vehicle_type_id":"4","last_reported":1721059803,"current_range_meters":400,"station_id":"","pricing_plan_id":"cebpf4jnsgd1na2vs0mg"},{"bike_id":"59dc4bf9-9145-4882-bef9-f3d8f1d79cb6","system_id":"levelo_inurba_marseille","lat":43.29778,"lon":5.39329,"is_reserved":false,"is_disabled":false,"rental_uris":{"android":"levelo://app?vid=59dc4bf9-9145-4882-bef9-f3d8f1d79cb6","ios":"levelo://app?vid=59dc4bf9-9145-4882-bef9-f3d8f1d79cb6"},"vehicle_type_id":"4","last_reported":1721059803,"current_range_meters":1200,"station_id":"chh1huq6cuj3fo74tm60","pricing_plan_id":"cebpf4jnsgd1na2vs0mg"},{"bike_id":"1ac02365-244d-4c96-ac82-0deccd3400b2","system_id":"levelo_inurba_marseille","lat":43.295169,"lon":5.390426,"is_reserved":false,"is_disabled":false,"rental_uris":{"android":"levelo://app?vid=1ac02365-244d-4c96-ac82-0deccd3400b2","ios":"levelo://app?vid=1ac02365-244d-4c96-ac82-0deccd3400b2"},"vehicle_type_id":"4","last_reported":1721059803,"current_range_meters":24000,"station_id":"ce4bh3p2rcd13ifvqdp0","pricing_plan_id":"cebpf4jnsgd1na2vs0mg"},{"bike_id":"9353c8b8-a67c-453b-8c0d-b74ee3e71b70","system_id":"levelo_inurba_marseille","lat":43.289743,"lon":5.378304,"is_reserved":false,"is_disabled":false,"rental_uris":{"android":"levelo://app?vid=9353c8b8-a67c-453b-8c0d-b74ee3e71b70","ios":"levelo://app?vid=9353c8b8-a67c-453b-8c0d-b74ee3e71b70"},"vehicle_type_id":"4","last_reported":1721059803,"current_range_meters":0,"station_id":"ce4bh9p2rcd13ifvqed0","pricing_plan_id":"cebpf4jnsgd1na2vs0mg"},{"bike_id":"a0377123-ce59-413a-8226-5ead25547b77","system_id":"levelo_inurba_marseille","lat":43.330442,"lon":5.389148,"is_reserved":false,"is_disabled":false,"rental_uris":{"android":"levelo://app?vid=a0377123-ce59-413a-8226-5ead25547b77","ios":"levelo://app?vid=a0377123-ce59-413a-8226-5ead25547b77"},"vehicle_type_id":"4","last_reported":1721059803,"current_range_meters":12000,"station_id":"ce4bhr92rcd13ifvqhrg","pricing_plan_id":"cebpf4jnsgd1na2vs0mg"},{"bike_id":"6793e445-d7b4-44cb-a49b-4d52623f6452","system_id":"levelo_inurba_marseille","lat":43.295169,"lon":5.390426,"is_reserved":false,"is_disabled":false,"rental_uris":{"android":"levelo://app?vid=6793e445-d7b4-44cb-a49b-4d52623f6452","ios":"levelo://app?vid=6793e445-d7b4-44cb-a49b-4d52623f6452"},"vehicle_type_id":"4","last_reported":1721059803,"current_range_meters":0,"station_id":"ce4bh3p2rcd13ifvqdp0","pricing_plan_id":"cebpf4jnsgd1na2vs0mg"},{"bike_id":"21130598-87a4-41e1-aed4-deeb6f4f8ac0","system_id":"levelo_inurba_marseille","lat":43.28982,"lon":5.35485,"is_reserved":false,"is_disabled":false,"rental_uris":{"android":"levelo://app?vid=21130598-87a4-41e1-aed4-deeb6f4f8ac0","ios":"levelo://app?vid=21130598-87a4-41e1-aed4-deeb6f4f8ac0"},"vehicle_type_id":"4","last_reported":1721059803,"current_range_meters":5600,"station_id":"","pricing_plan_id":"cebpf4jnsgd1na2vs0mg"},{"bike_id":"54ee7c49-4e1c-4681-8ce4-1aff2e374974","system_id":"levelo_inurba_marseille","lat":43.295169,"lon":5.390426,"is_reserved":false,"is_disabled":false,"rental_uris":{"android":"levelo://app?vid=54ee7c49-4e1c-4681-8ce4-1aff2e374974","ios":"levelo://app?vid=54ee7c49-4e1c-4681-8ce4-1aff2e374974"},"vehicle_type_id":"4","last_reported":1721059803,"current_range_meters":0,"station_id":"ce4bh3p2rcd13ifvqdp0","pricing_plan_id":"cebpf4jnsgd1na2vs0mg"},{"bike_id":"14a2ccd3-51a3-44d4-8a38-da66449fe25f","system_id":"levelo_inurba_marseille","lat":43.3107,"lon":5.40081,"is_reserved":false,"is_disabled":false,"rental_uris":{"android":"levelo://app?vid=14a2ccd3-51a3-44d4-8a38-da66449fe25f","ios":"levelo://app?vid=14a2ccd3-51a3-44d4-8a38-da66449fe25f"},"vehicle_type_id":"4","last_reported":1721059803,"current_range_meters":15600,"station_id":"","pricing_plan_id":"cebpf4jnsgd1na2vs0mg"},{"bike_id":"e5f9b488-7ae3-4362-9941-63ecfec68cf1","system_id":"levelo_inurba_marseille","lat":43.28949,"lon":5.35488,"is_reserved":false,"is_disabled":false,"rental_uris":{"android":"levelo://app?vid=e5f9b488-7ae3-4362-9941-63ecfec68cf1","ios":"levelo://app?vid=e5f9b488-7ae3-4362-9941-63ecfec68cf1"},"vehicle_type_id":"4","last_reported":1721059803,"current_range_meters":2000,"station_id":"","pricing_plan_id":"cebpf4jnsgd1na2vs0mg"},{"bike_id":"48ebd646-63ba-49ed-8420-095dfb66dd9f","system_id":"levelo_inurba_marseille","lat":43.312742,"lon":5.401679,"is_reserved":false,"is_disabled":false,"rental_uris":{"android":"levelo://app?vid=48ebd646-63ba-49ed-8420-095dfb66dd9f","ios":"levelo://app?vid=48ebd646-63ba-49ed-8420-095dfb66dd9f"},"vehicle_type_id":"4","last_reported":1721059803,"current_range_meters":27200,"station_id":"ce4bh092rcd13ifvqd30","pricing_plan_id":"cebpf4jnsgd1na2vs0mg"},{"bike_id":"11e2a0c5-dab4-4134-ad65-c03b9bccd0e0","system_id":"levelo_inurba_marseille","lat":43.33749,"lon":5.37445,"is_reserved":false,"is_disabled":false,"rental_uris":{"android":"levelo://app?vid=11e2a0c5-dab4-4134-ad65-c03b9bccd0e0","ios":"levelo://app?vid=11e2a0c5-dab4-4134-ad65-c03b9bccd0e0"},"vehicle_type_id":"4","last_reported":1721059803,"current_range_meters":28400,"station_id":"","pricing_plan_id":"cebpf4jnsgd1na2vs0mg"},{"bike_id":"5e29faa5-737f-4677-875d-f28ec400b2e0","system_id":"levelo_inurba_marseille","lat":43.337481,"lon":5.37466,"is_reserved":false,"is_disabled":false,"rental_uris":{"android":"levelo://app?vid=5e29faa5-737f-4677-875d-f28ec400b2e0","ios":"levelo://app?vid=5e29faa5-737f-4677-875d-f28ec400b2e0"},"vehicle_type_id":"4","last_reported":1721059803,"current_range_meters":19200,"station_id":"","pricing_plan_id":"cebpf4jnsgd1na2vs0mg"},{"bike_id":"bc181a61-1a7b-4496-ba49-e2799bac86fb","system_id":"levelo_inurba_marseille","lat":43.337638,"lon":5.374836,"is_reserved":false,"is_disabled":false,"rental_uris":{"android":"levelo://app?vid=bc181a61-1a7b-4496-ba49-e2799bac86fb","ios":"levelo://app?vid=bc181a61-1a7b-4496-ba49-e2799bac86fb"},"vehicle_type_id":"4","last_reported":1721059803,"current_range_meters":18000,"station_id":"","pricing_plan_id":"cebpf4jnsgd1na2vs0mg"},{"bike_id":"ff9d206a-355a-4341-ba04-c3838543dd38","system_id":"levelo_inurba_marseille","lat":43.30127,"lon":5.39848,"is_reserved":false,"is_disabled":false,"rental_uris":{"android":"levelo://app?vid=ff9d206a-355a-4341-ba04-c3838543dd38","ios":"levelo://app?vid=ff9d206a-355a-4341-ba04-c3838543dd38"},"vehicle_type_id":"4","last_reported":1721059803,"current_range_meters":0,"station_id":"ce4bh0h2rcd13ifvqd40","pricing_plan_id":"cebpf4jnsgd1na2vs0mg"},{"bike_id":"2e411c4a-9ffa-4172-b2a8-9f69a71b985e","system_id":"levelo_inurba_marseille","lat":43.290995,"lon":5.381361,"is_reserved":false,"is_disabled":false,"rental_uris":{"android":"levelo://app?vid=2e411c4a-9ffa-4172-b2a8-9f69a71b985e","ios":"levelo://app?vid=2e411c4a-9ffa-4172-b2a8-9f69a71b985e"},"vehicle_type_id":"4","last_reported":1721059803,"current_range_meters":0,"station_id":"ce4bh512rcd13ifvqe2g","pricing_plan_id":"cebpf4jnsgd1na2vs0mg"},{"bike_id":"29c3642d-7aba-410f-83f3-79cfcc36f335","system_id":"levelo_inurba_marseille","lat":43.28727,"lon":5.36078,"is_reserved":false,"is_disabled":false,"rental_uris":{"android":"levelo://app?vid=29c3642d-7aba-410f-83f3-79cfcc36f335","ios":"levelo://app?vid=29c3642d-7aba-410f-83f3-79cfcc36f335"},"vehicle_type_id":"4","last_reported":1721059803,"current_range_meters":14400,"station_id":"cki0cbj6b192h4jlfktg","pricing_plan_id":"cebpf4jnsgd1na2vs0mg"},{"bike_id":"fd5a8dc0-4f9e-49f1-a5e2-cf84bbd9312d","system_id":"levelo_inurba_marseille","lat":43.301117,"lon":5.398795,"is_reserved":false,"is_disabled":false,"rental_uris":{"android":"levelo://app?vid=fd5a8dc0-4f9e-49f1-a5e2-cf84bbd9312d","ios":"levelo://app?vid=fd5a8dc0-4f9e-49f1-a5e2-cf84bbd9312d"},"vehicle_type_id":"4","last_reported":1721059803,"current_range_meters":21200,"station_id":"ce4bh0h2rcd13ifvqd40","pricing_plan_id":"cebpf4jnsgd1na2vs0mg"},{"bike_id":"043bf93a-f956-48fb-a92b-5ff174e144f5","system_id":"levelo_inurba_marseille","lat":43.286961,"lon":5.373785,"is_reserved":false,"is_disabled":false,"rental_uris":{"android":"levelo://app?vid=043bf93a-f956-48fb-a92b-5ff174e144f5","ios":"levelo://app?vid=043bf93a-f956-48fb-a92b-5ff174e144f5"},"vehicle_type_id":"4","last_reported":1721059803,"current_range_meters":6400,"station_id":"ce4bh3p2rcd13ifvqdq0","pricing_plan_id":"cebpf4jnsgd1na2vs0mg"},{"bike_id":"d5b79b06-77e2-4aca-a44a-97480cc22e63","system_id":"levelo_inurba_marseille","lat":43.286961,"lon":5.373785,"is_reserved":false,"is_disabled":false,"rental_uris":{"android":"levelo://app?vid=d5b79b06-77e2-4aca-a44a-97480cc22e63","ios":"levelo://app?vid=d5b79b06-77e2-4aca-a44a-97480cc22e63"},"vehicle_type_id":"4","last_reported":1721059803,"current_range_meters":10400,"station_id":"ce4bh3p2rcd13ifvqdq0","pricing_plan_id":"cebpf4jnsgd1na2vs0mg"},{"bike_id":"74452362-7aec-4985-aade-e00c9c857697","system_id":"levelo_inurba_marseille","lat":43.286593,"lon":5.363346,"is_reserved":false,"is_disabled":false,"rental_uris":{"android":"levelo://app?vid=74452362-7aec-4985-aade-e00c9c857697","ios":"levelo://app?vid=74452362-7aec-4985-aade-e00c9c857697"},"vehicle_type_id":"4","last_reported":1721059803,"current_range_meters":25600,"station_id":"ce4bhah2rcd13ifvqej0","pricing_plan_id":"cebpf4jnsgd1na2vs0mg"},{"bike_id":"7604a48c-6fbe-49ba-be3e-b1ee7a2e8d35","system_id":"levelo_inurba_marseille","lat":43.286961,"lon":5.373785,"is_reserved":false,"is_disabled":false,"rental_uris":{"android":"levelo://app?vid=7604a48c-6fbe-49ba-be3e-b1ee7a2e8d35","ios":"levelo://app?vid=7604a48c-6fbe-49ba-be3e-b1ee7a2e8d35"},"vehicle_type_id":"4","last_reported":1721059803,"current_range_meters":24800,"station_id":"ce4bh3p2rcd13ifvqdq0","pricing_plan_id":"cebpf4jnsgd1na2vs0mg"},{"bike_id":"40cf793f-dad2-4687-a062-a2e6bfdce098","system_id":"levelo_inurba_marseille","lat":43.298452,"lon":5.397427,"is_reserved":false,"is_disabled":false,"rental_uris":{"android":"levelo://app?vid=40cf793f-dad2-4687-a062-a2e6bfdce098","ios":"levelo://app?vid=40cf793f-dad2-4687-a062-a2e6bfdce098"},"vehicle_type_id":"4","last_reported":1721059803,"current_range_meters":13600,"station_id":"","pricing_plan_id":"cebpf4jnsgd1na2vs0mg"},{"bike_id":"2efe883b-4f5e-41a8-a21b-f55c258cc0a3","system_id":"levelo_inurba_marseille","lat":43.290336,"lon":5.386425,"is_reserved":false,"is_disabled":false,"rental_uris":{"android":"levelo://app?vid=2efe883b-4f5e-41a8-a21b-f55c258cc0a3","ios":"levelo://app?vid=2efe883b-4f5e-41a8-a21b-f55c258cc0a3"},"vehicle_type_id":"4","last_reported":1721059803,"current_range_meters":20400,"station_id":"ce4bh4p2rcd13ifvqe0g","pricing_plan_id":"cebpf4jnsgd1na2vs0mg"},{"bike_id":"81eb9043-8b63-42b9-a23c-6b12a883088a","system_id":"levelo_inurba_marseille","lat":43.32743,"lon":5.39735,"is_reserved":false,"is_disabled":false,"rental_uris":{"android":"levelo://app?vid=81eb9043-8b63-42b9-a23c-6b12a883088a","ios":"levelo://app?vid=81eb9043-8b63-42b9-a23c-6b12a883088a"},"vehicle_type_id":"4","last_reported":1721059803,"current_range_meters":7200,"station_id":"","pricing_plan_id":"cebpf4jnsgd1na2vs0mg"},{"bike_id":"8168960a-56d4-4872-9326-9b6f5b592eb9","system_id":"levelo_inurba_marseille","lat":43.29023,"lon":5.38639,"is_reserved":false,"is_disabled":false,"rental_uris":{"android":"levelo://app?vid=8168960a-56d4-4872-9326-9b6f5b592eb9","ios":"levelo://app?vid=8168960a-56d4-4872-9326-9b6f5b592eb9"},"vehicle_type_id":"4","last_reported":1721059803,"current_range_meters":0,"station_id":"ce4bh4p2rcd13ifvqe0g","pricing_plan_id":"cebpf4jnsgd1na2vs0mg"},{"bike_id":"2d9f7bcd-d186-442d-a231-2e3bc1f407a5","system_id":"levelo_inurba_marseille","lat":43.327297,"lon":5.397527,"is_reserved":false,"is_disabled":false,"rental_uris":{"android":"levelo://app?vid=2d9f7bcd-d186-442d-a231-2e3bc1f407a5","ios":"levelo://app?vid=2d9f7bcd-d186-442d-a231-2e3bc1f407a5"},"vehicle_type_id":"4","last_reported":1721059803,"current_range_meters":5600,"station_id":"","pricing_plan_id":"cebpf4jnsgd1na2vs0mg"},{"bike_id":"9527a068-70a9-4f20-87c9-4183b10064b2","system_id":"levelo_inurba_marseille","lat":43.302759,"lon":5.400793,"is_reserved":false,"is_disabled":false,"rental_uris":{"android":"levelo://app?vid=9527a068-70a9-4f20-87c9-4183b10064b2","ios":"levelo://app?vid=9527a068-70a9-4f20-87c9-4183b10064b2"},"vehicle_type_id":"4","last_reported":1721059803,"current_range_meters":23600,"station_id":"ce4bgvh2rcd13ifvqcs0","pricing_plan_id":"cebpf4jnsgd1na2vs0mg"},{"bike_id":"6f1e3531-7af6-4586-b28c-d6c3bd5a1b00","system_id":"levelo_inurba_marseille","lat":43.302759,"lon":5.400793,"is_reserved":false,"is_disabled":false,"rental_uris":{"android":"levelo://app?vid=6f1e3531-7af6-4586-b28c-d6c3bd5a1b00","ios":"levelo://app?vid=6f1e3531-7af6-4586-b28c-d6c3bd5a1b00"},"vehicle_type_id":"4","last_reported":1721059803,"current_range_meters":1600,"station_id":"ce4bgvh2rcd13ifvqcs0","pricing_plan_id":"cebpf4jnsgd1na2vs0mg"},{"bike_id":"475d71b3-ab7d-4f63-b223-a7b447a0cfc8","system_id":"levelo_inurba_marseille","lat":43.290336,"lon":5.386425,"is_reserved":false,"is_disabled":false,"rental_uris":{"android":"levelo://app?vid=475d71b3-ab7d-4f63-b223-a7b447a0cfc8","ios":"levelo://app?vid=475d71b3-ab7d-4f63-b223-a7b447a0cfc8"},"vehicle_type_id":"4","last_reported":1721059803,"current_range_meters":28400,"station_id":"ce4bh4p2rcd13ifvqe0g","pricing_plan_id":"cebpf4jnsgd1na2vs0mg"},{"bike_id":"ae82dc6b-72ba-41da-9332-f232ee181423","system_id":"levelo_inurba_marseille","lat":43.302759,"lon":5.400793,"is_reserved":false,"is_disabled":false,"rental_uris":{"android":"levelo://app?vid=ae82dc6b-72ba-41da-9332-f232ee181423","ios":"levelo://app?vid=ae82dc6b-72ba-41da-9332-f232ee181423"},"vehicle_type_id":"4","last_reported":1721059803,"current_range_meters":1600,"station_id":"ce4bgvh2rcd13ifvqcs0","pricing_plan_id":"cebpf4jnsgd1na2vs0mg"},{"bike_id":"88e6886b-76e2-42fd-9278-6c340c68a7a7","system_id":"levelo_inurba_marseille","lat":43.287184,"lon":5.37937,"is_reserved":false,"is_disabled":false,"rental_uris":{"android":"levelo://app?vid=88e6886b-76e2-42fd-9278-6c340c68a7a7","ios":"levelo://app?vid=88e6886b-76e2-42fd-9278-6c340c68a7a7"},"vehicle_type_id":"4","last_reported":1721059803,"current_range_meters":1600,"station_id":"ce4bh9p2rcd13ifvqec0","pricing_plan_id":"cebpf4jnsgd1na2vs0mg"},{"bike_id":"ff5cd3ad-0a85-4d44-be9c-5ff776f2b922","system_id":"levelo_inurba_marseille","lat":43.312872,"lon":5.405794,"is_reserved":false,"is_disabled":false,"rental_uris":{"android":"levelo://app?vid=ff5cd3ad-0a85-4d44-be9c-5ff776f2b922","ios":"levelo://app?vid=ff5cd3ad-0a85-4d44-be9c-5ff776f2b922"},"vehicle_type_id":"4","last_reported":1721059803,"current_range_meters":0,"station_id":"","pricing_plan_id":"cebpf4jnsgd1na2vs0mg"},{"bike_id":"99b2c93f-4e78-482a-bfec-64478bc4a447","system_id":"levelo_inurba_marseille","lat":43.286693,"lon":5.35158,"is_reserved":false,"is_disabled":false,"rental_uris":{"android":"levelo://app?vid=99b2c93f-4e78-482a-bfec-64478bc4a447","ios":"levelo://app?vid=99b2c93f-4e78-482a-bfec-64478bc4a447"},"vehicle_type_id":"4","last_reported":1721059803,"current_range_meters":22800,"station_id":"","pricing_plan_id":"cebpf4jnsgd1na2vs0mg"},{"bike_id":"fac0a52b-5b38-4ff3-8b58-47ca581d5617","system_id":"levelo_inurba_marseille","lat":43.299028,"lon":5.381509,"is_reserved":false,"is_disabled":false,"rental_uris":{"android":"levelo://app?vid=fac0a52b-5b38-4ff3-8b58-47ca581d5617","ios":"levelo://app?vid=fac0a52b-5b38-4ff3-8b58-47ca581d5617"},"vehicle_type_id":"4","last_reported":1721059803,"current_range_meters":6800,"station_id":"ce4bgj12rcd13ifvqbc0","pricing_plan_id":"cebpf4jnsgd1na2vs0mg"},{"bike_id":"df5ba5f8-5a9e-4201-aaa9-e1ef75430721","system_id":"levelo_inurba_marseille","lat":43.284538,"lon":5.358657,"is_reserved":false,"is_disabled":false,"rental_uris":{"android":"levelo://app?vid=df5ba5f8-5a9e-4201-aaa9-e1ef75430721","ios":"levelo://app?vid=df5ba5f8-5a9e-4201-aaa9-e1ef75430721"},"vehicle_type_id":"4","last_reported":1721059803,"current_range_meters":800,"station_id":"ce4bhah2rcd13ifvqei0","pricing_plan_id":"cebpf4jnsgd1na2vs0mg"},{"bike_id":"83f323d7-00d9-4de5-a41c-2aae185ae7dd","system_id":"levelo_inurba_marseille","lat":43.284538,"lon":5.358657,"is_reserved":false,"is_disabled":false,"rental_uris":{"android":"levelo://app?vid=83f323d7-00d9-4de5-a41c-2aae185ae7dd","ios":"levelo://app?vid=83f323d7-00d9-4de5-a41c-2aae185ae7dd"},"vehicle_type_id":"4","last_reported":1721059803,"current_range_meters":23200,"station_id":"ce4bhah2rcd13ifvqei0","pricing_plan_id":"cebpf4jnsgd1na2vs0mg"},{"bike_id":"ac4f08c3-bee4-4079-9610-4b77fb6f8b12","system_id":"levelo_inurba_marseille","lat":43.284534,"lon":5.358662,"is_reserved":false,"is_disabled":false,"rental_uris":{"android":"levelo://app?vid=ac4f08c3-bee4-4079-9610-4b77fb6f8b12","ios":"levelo://app?vid=ac4f08c3-bee4-4079-9610-4b77fb6f8b12"},"vehicle_type_id":"4","last_reported":1721059803,"current_range_meters":1200,"station_id":"ce4bhah2rcd13ifvqei0","pricing_plan_id":"cebpf4jnsgd1na2vs0mg"},{"bike_id":"a7390627-8b6c-4149-9d20-d0ff687565c1","system_id":"levelo_inurba_marseille","lat":43.294393,"lon":5.397453,"is_reserved":false,"is_disabled":false,"rental_uris":{"android":"levelo://app?vid=a7390627-8b6c-4149-9d20-d0ff687565c1","ios":"levelo://app?vid=a7390627-8b6c-4149-9d20-d0ff687565c1"},"vehicle_type_id":"4","last_reported":1721059803,"current_range_meters":0,"station_id":"ce4bh3h2rcd13ifvqdo0","pricing_plan_id":"cebpf4jnsgd1na2vs0mg"},{"bike_id":"e0800873-4bfb-4340-ac77-6b33c9302665","system_id":"levelo_inurba_marseille","lat":43.294456,"lon":5.397604,"is_reserved":false,"is_disabled":false,"rental_uris":{"android":"levelo://app?vid=e0800873-4bfb-4340-ac77-6b33c9302665","ios":"levelo://app?vid=e0800873-4bfb-4340-ac77-6b33c9302665"},"vehicle_type_id":"4","last_reported":1721059803,"current_range_meters":0,"station_id":"ce4bh3h2rcd13ifvqdo0","pricing_plan_id":"cebpf4jnsgd1na2vs0mg"},{"bike_id":"fd96b9fc-11af-4188-b95a-f1b0cc673881","system_id":"levelo_inurba_marseille","lat":43.285856,"lon":5.350771,"is_reserved":false,"is_disabled":false,"rental_uris":{"android":"levelo://app?vid=fd96b9fc-11af-4188-b95a-f1b0cc673881","ios":"levelo://app?vid=fd96b9fc-11af-4188-b95a-f1b0cc673881"},"vehicle_type_id":"4","last_reported":1721059803,"current_range_meters":12000,"station_id":"ce4bhch2rcd13ifvqeug","pricing_plan_id":"cebpf4jnsgd1na2vs0mg"},{"bike_id":"d56c5440-616f-4d2e-ba7b-f9d12bf79f58","system_id":"levelo_inurba_marseille","lat":43.285856,"lon":5.350771,"is_reserved":false,"is_disabled":false,"rental_uris":{"android":"levelo://app?vid=d56c5440-616f-4d2e-ba7b-f9d12bf79f58","ios":"levelo://app?vid=d56c5440-616f-4d2e-ba7b-f9d12bf79f58"},"vehicle_type_id":"4","last_reported":1721059803,"current_range_meters":400,"station_id":"ce4bhch2rcd13ifvqeug","pricing_plan_id":"cebpf4jnsgd1na2vs0mg"},{"bike_id":"dac585ed-7751-49d7-ad1c-f44d3d88e08d","system_id":"levelo_inurba_marseille","lat":43.285856,"lon":5.350771,"is_reserved":false,"is_disabled":false,"rental_uris":{"android":"levelo://app?vid=dac585ed-7751-49d7-ad1c-f44d3d88e08d","ios":"levelo://app?vid=dac585ed-7751-49d7-ad1c-f44d3d88e08d"},"vehicle_type_id":"4","last_reported":1721059803,"current_range_meters":30800,"station_id":"ce4bhch2rcd13ifvqeug","pricing_plan_id":"cebpf4jnsgd1na2vs0mg"},{"bike_id":"00c2320e-ed29-401b-ae9a-7d22219b2a94","system_id":"levelo_inurba_marseille","lat":43.285856,"lon":5.350771,"is_reserved":false,"is_disabled":false,"rental_uris":{"android":"levelo://app?vid=00c2320e-ed29-401b-ae9a-7d22219b2a94","ios":"levelo://app?vid=00c2320e-ed29-401b-ae9a-7d22219b2a94"},"vehicle_type_id":"4","last_reported":1721059803,"current_range_meters":9200,"station_id":"ce4bhch2rcd13ifvqeug","pricing_plan_id":"cebpf4jnsgd1na2vs0mg"},{"bike_id":"14a8c616-05a4-48a9-bf44-7294a697bdb6","system_id":"levelo_inurba_marseille","lat":43.28618,"lon":5.35105,"is_reserved":false,"is_disabled":false,"rental_uris":{"android":"levelo://app?vid=14a8c616-05a4-48a9-bf44-7294a697bdb6","ios":"levelo://app?vid=14a8c616-05a4-48a9-bf44-7294a697bdb6"},"vehicle_type_id":"4","last_reported":1721059803,"current_range_meters":19200,"station_id":"ce4bhch2rcd13ifvqeug","pricing_plan_id":"cebpf4jnsgd1na2vs0mg"},{"bike_id":"47cc5f95-9916-4f95-a2d2-ff4082472ddf","system_id":"levelo_inurba_marseille","lat":43.285856,"lon":5.350771,"is_reserved":false,"is_disabled":false,"rental_uris":{"android":"levelo://app?vid=47cc5f95-9916-4f95-a2d2-ff4082472ddf","ios":"levelo://app?vid=47cc5f95-9916-4f95-a2d2-ff4082472ddf"},"vehicle_type_id":"4","last_reported":1721059803,"current_range_meters":20000,"station_id":"ce4bhch2rcd13ifvqeug","pricing_plan_id":"cebpf4jnsgd1na2vs0mg"},{"bike_id":"dd2c0e9e-e06a-43c4-bd45-ecbdf8ee0005","system_id":"levelo_inurba_marseille","lat":43.28617,"lon":5.35104,"is_reserved":false,"is_disabled":false,"rental_uris":{"android":"levelo://app?vid=dd2c0e9e-e06a-43c4-bd45-ecbdf8ee0005","ios":"levelo://app?vid=dd2c0e9e-e06a-43c4-bd45-ecbdf8ee0005"},"vehicle_type_id":"4","last_reported":1721059803,"current_range_meters":30800,"station_id":"ce4bhch2rcd13ifvqeug","pricing_plan_id":"cebpf4jnsgd1na2vs0mg"},{"bike_id":"5e0b415a-dfe9-4d28-9d7b-b1687122a778","system_id":"levelo_inurba_marseille","lat":43.285856,"lon":5.350771,"is_reserved":false,"is_disabled":false,"rental_uris":{"android":"levelo://app?vid=5e0b415a-dfe9-4d28-9d7b-b1687122a778","ios":"levelo://app?vid=5e0b415a-dfe9-4d28-9d7b-b1687122a778"},"vehicle_type_id":"4","last_reported":1721059803,"current_range_meters":4800,"station_id":"ce4bhch2rcd13ifvqeug","pricing_plan_id":"cebpf4jnsgd1na2vs0mg"},{"bike_id":"cbc2d7ff-32f4-4aac-b604-1eec8f67b962","system_id":"levelo_inurba_marseille","lat":43.28616,"lon":5.35104,"is_reserved":false,"is_disabled":false,"rental_uris":{"android":"levelo://app?vid=cbc2d7ff-32f4-4aac-b604-1eec8f67b962","ios":"levelo://app?vid=cbc2d7ff-32f4-4aac-b604-1eec8f67b962"},"vehicle_type_id":"4","last_reported":1721059803,"current_range_meters":30800,"station_id":"ce4bhch2rcd13ifvqeug","pricing_plan_id":"cebpf4jnsgd1na2vs0mg"},{"bike_id":"8738a8c7-be08-420c-b14a-4db6d4bc699f","system_id":"levelo_inurba_marseille","lat":43.28616,"lon":5.35103,"is_reserved":false,"is_disabled":false,"rental_uris":{"android":"levelo://app?vid=8738a8c7-be08-420c-b14a-4db6d4bc699f","ios":"levelo://app?vid=8738a8c7-be08-420c-b14a-4db6d4bc699f"},"vehicle_type_id":"4","last_reported":1721059803,"current_range_meters":31200,"station_id":"ce4bhch2rcd13ifvqeug","pricing_plan_id":"cebpf4jnsgd1na2vs0mg"},{"bike_id":"804b5bb2-7290-4ca6-b887-7a58fbf4d5ff","system_id":"levelo_inurba_marseille","lat":43.28616,"lon":5.35097,"is_reserved":false,"is_disabled":false,"rental_uris":{"android":"levelo://app?vid=804b5bb2-7290-4ca6-b887-7a58fbf4d5ff","ios":"levelo://app?vid=804b5bb2-7290-4ca6-b887-7a58fbf4d5ff"},"vehicle_type_id":"4","last_reported":1721059803,"current_range_meters":0,"station_id":"ce4bhch2rcd13ifvqeug","pricing_plan_id":"cebpf4jnsgd1na2vs0mg"},{"bike_id":"0d073cde-d8af-4c23-8ef3-f8ffeca4450c","system_id":"levelo_inurba_marseille","lat":43.286155,"lon":5.350978,"is_reserved":false,"is_disabled":false,"rental_uris":{"android":"levelo://app?vid=0d073cde-d8af-4c23-8ef3-f8ffeca4450c","ios":"levelo://app?vid=0d073cde-d8af-4c23-8ef3-f8ffeca4450c"},"vehicle_type_id":"4","last_reported":1721059803,"current_range_meters":31200,"station_id":"ce4bhch2rcd13ifvqeug","pricing_plan_id":"cebpf4jnsgd1na2vs0mg"},{"bike_id":"d1eab666-e9e6-4e59-b5b2-347b5162553e","system_id":"levelo_inurba_marseille","lat":43.28613,"lon":5.35103,"is_reserved":false,"is_disabled":false,"rental_uris":{"android":"levelo://app?vid=d1eab666-e9e6-4e59-b5b2-347b5162553e","ios":"levelo://app?vid=d1eab666-e9e6-4e59-b5b2-347b5162553e"},"vehicle_type_id":"4","last_reported":1721059803,"current_range_meters":21600,"station_id":"ce4bhch2rcd13ifvqeug","pricing_plan_id":"cebpf4jnsgd1na2vs0mg"},{"bike_id":"710c17d5-7226-4c9d-acc1-5e435b765495","system_id":"levelo_inurba_marseille","lat":43.28613,"lon":5.35103,"is_reserved":false,"is_disabled":false,"rental_uris":{"android":"levelo://app?vid=710c17d5-7226-4c9d-acc1-5e435b765495","ios":"levelo://app?vid=710c17d5-7226-4c9d-acc1-5e435b765495"},"vehicle_type_id":"4","last_reported":1721059803,"current_range_meters":8000,"station_id":"ce4bhch2rcd13ifvqeug","pricing_plan_id":"cebpf4jnsgd1na2vs0mg"},{"bike_id":"d7b12899-4ec4-41a4-8370-5fedf03e5796","system_id":"levelo_inurba_marseille","lat":43.285848,"lon":5.350787,"is_reserved":false,"is_disabled":false,"rental_uris":{"android":"levelo://app?vid=d7b12899-4ec4-41a4-8370-5fedf03e5796","ios":"levelo://app?vid=d7b12899-4ec4-41a4-8370-5fedf03e5796"},"vehicle_type_id":"4","last_reported":1721059803,"current_range_meters":9600,"station_id":"ce4bhch2rcd13ifvqeug","pricing_plan_id":"cebpf4jnsgd1na2vs0mg"},{"bike_id":"f48878f9-0701-42c8-98eb-60a372980fe6","system_id":"levelo_inurba_marseille","lat":43.285856,"lon":5.350771,"is_reserved":false,"is_disabled":false,"rental_uris":{"android":"levelo://app?vid=f48878f9-0701-42c8-98eb-60a372980fe6","ios":"levelo://app?vid=f48878f9-0701-42c8-98eb-60a372980fe6"},"vehicle_type_id":"4","last_reported":1721059803,"current_range_meters":21200,"station_id":"ce4bhch2rcd13ifvqeug","pricing_plan_id":"cebpf4jnsgd1na2vs0mg"},{"bike_id":"f0052a65-ed1e-4a27-b6f7-c0ab00c60227","system_id":"levelo_inurba_marseille","lat":43.28613,"lon":5.35099,"is_reserved":false,"is_disabled":false,"rental_uris":{"android":"levelo://app?vid=f0052a65-ed1e-4a27-b6f7-c0ab00c60227","ios":"levelo://app?vid=f0052a65-ed1e-4a27-b6f7-c0ab00c60227"},"vehicle_type_id":"4","last_reported":1721059803,"current_range_meters":14000,"station_id":"ce4bhch2rcd13ifvqeug","pricing_plan_id":"cebpf4jnsgd1na2vs0mg"},{"bike_id":"2f1c6682-6219-4829-b78a-cda424a7c5fe","system_id":"levelo_inurba_marseille","lat":43.28611,"lon":5.35098,"is_reserved":false,"is_disabled":false,"rental_uris":{"android":"levelo://app?vid=2f1c6682-6219-4829-b78a-cda424a7c5fe","ios":"levelo://app?vid=2f1c6682-6219-4829-b78a-cda424a7c5fe"},"vehicle_type_id":"4","last_reported":1721059803,"current_range_meters":24400,"station_id":"","pricing_plan_id":"cebpf4jnsgd1na2vs0mg"},{"bike_id":"606dbe91-6e03-4497-9465-c299a4641750","system_id":"levelo_inurba_marseille","lat":43.283998,"lon":5.375062,"is_reserved":false,"is_disabled":false,"rental_uris":{"android":"levelo://app?vid=606dbe91-6e03-4497-9465-c299a4641750","ios":"levelo://app?vid=606dbe91-6e03-4497-9465-c299a4641750"},"vehicle_type_id":"4","last_reported":1721059803,"current_range_meters":0,"station_id":"ce4bh412rcd13ifvqds0","pricing_plan_id":"cebpf4jnsgd1na2vs0mg"},{"bike_id":"8b4350f1-fe41-46e9-9ca8-864b8c106744","system_id":"levelo_inurba_marseille","lat":43.283998,"lon":5.375062,"is_reserved":false,"is_disabled":false,"rental_uris":{"android":"levelo://app?vid=8b4350f1-fe41-46e9-9ca8-864b8c106744","ios":"levelo://app?vid=8b4350f1-fe41-46e9-9ca8-864b8c106744"},"vehicle_type_id":"4","last_reported":1721059803,"current_range_meters":1200,"station_id":"ce4bh412rcd13ifvqds0","pricing_plan_id":"cebpf4jnsgd1na2vs0mg"},{"bike_id":"4594baf3-6944-4868-a340-6758b5d8e4f3","system_id":"levelo_inurba_marseille","lat":43.287154,"lon":5.399979,"is_reserved":false,"is_disabled":false,"rental_uris":{"android":"levelo://app?vid=4594baf3-6944-4868-a340-6758b5d8e4f3","ios":"levelo://app?vid=4594baf3-6944-4868-a340-6758b5d8e4f3"},"vehicle_type_id":"4","last_reported":1721059803,"current_range_meters":16000,"station_id":"ce4bho92rcd13ifvqh3g","pricing_plan_id":"cebpf4jnsgd1na2vs0mg"},{"bike_id":"d7433fe9-5c31-4401-8044-95f0ded99550","system_id":"levelo_inurba_marseille","lat":43.319179,"lon":5.407725,"is_reserved":false,"is_disabled":false,"rental_uris":{"android":"levelo://app?vid=d7433fe9-5c31-4401-8044-95f0ded99550","ios":"levelo://app?vid=d7433fe9-5c31-4401-8044-95f0ded99550"},"vehicle_type_id":"4","last_reported":1721059803,"current_range_meters":10000,"station_id":"ce4bhq12rcd13ifvqhig","pricing_plan_id":"cebpf4jnsgd1na2vs0mg"},{"bike_id":"d01f680a-94b2-4e36-aabe-602df52f7bda","system_id":"levelo_inurba_marseille","lat":43.33722,"lon":5.39174,"is_reserved":false,"is_disabled":false,"rental_uris":{"android":"levelo://app?vid=d01f680a-94b2-4e36-aabe-602df52f7bda","ios":"levelo://app?vid=d01f680a-94b2-4e36-aabe-602df52f7bda"},"vehicle_type_id":"4","last_reported":1721059803,"current_range_meters":8800,"station_id":"ce4bhr92rcd13ifvqhsg","pricing_plan_id":"cebpf4jnsgd1na2vs0mg"},{"bike_id":"b12da940-5187-4469-baa0-71c6204b59f8","system_id":"levelo_inurba_marseille","lat":43.33717,"lon":5.391857,"is_reserved":false,"is_disabled":false,"rental_uris":{"android":"levelo://app?vid=b12da940-5187-4469-baa0-71c6204b59f8","ios":"levelo://app?vid=b12da940-5187-4469-baa0-71c6204b59f8"},"vehicle_type_id":"4","last_reported":1721059803,"current_range_meters":16400,"station_id":"ce4bhr92rcd13ifvqhsg","pricing_plan_id":"cebpf4jnsgd1na2vs0mg"},{"bike_id":"15e6fafc-31db-4e1b-9bc7-cf72ee2199b7","system_id":"levelo_inurba_marseille","lat":43.32332,"lon":5.40618,"is_reserved":false,"is_disabled":false,"rental_uris":{"android":"levelo://app?vid=15e6fafc-31db-4e1b-9bc7-cf72ee2199b7","ios":"levelo://app?vid=15e6fafc-31db-4e1b-9bc7-cf72ee2199b7"},"vehicle_type_id":"4","last_reported":1721059803,"current_range_meters":0,"station_id":"ce4bhq92rcd13ifvqhjg","pricing_plan_id":"cebpf4jnsgd1na2vs0mg"},{"bike_id":"8d409715-589c-48bf-b35a-df7d85e115a8","system_id":"levelo_inurba_marseille","lat":43.337168,"lon":5.391825,"is_reserved":false,"is_disabled":false,"rental_uris":{"android":"levelo://app?vid=8d409715-589c-48bf-b35a-df7d85e115a8","ios":"levelo://app?vid=8d409715-589c-48bf-b35a-df7d85e115a8"},"vehicle_type_id":"4","last_reported":1721059803,"current_range_meters":31200,"station_id":"ce4bhr92rcd13ifvqhsg","pricing_plan_id":"cebpf4jnsgd1na2vs0mg"},{"bike_id":"0ec64cbd-ae28-40ea-aef6-add9457fd301","system_id":"levelo_inurba_marseille","lat":43.33729,"lon":5.39182,"is_reserved":false,"is_disabled":false,"rental_uris":{"android":"levelo://app?vid=0ec64cbd-ae28-40ea-aef6-add9457fd301","ios":"levelo://app?vid=0ec64cbd-ae28-40ea-aef6-add9457fd301"},"vehicle_type_id":"4","last_reported":1721059803,"current_range_meters":400,"station_id":"ce4bhr92rcd13ifvqhsg","pricing_plan_id":"cebpf4jnsgd1na2vs0mg"},{"bike_id":"d535cdc6-f9b6-4068-8d54-4f1e7c50782e","system_id":"levelo_inurba_marseille","lat":43.337168,"lon":5.391825,"is_reserved":false,"is_disabled":false,"rental_uris":{"android":"levelo://app?vid=d535cdc6-f9b6-4068-8d54-4f1e7c50782e","ios":"levelo://app?vid=d535cdc6-f9b6-4068-8d54-4f1e7c50782e"},"vehicle_type_id":"4","last_reported":1721059803,"current_range_meters":18800,"station_id":"ce4bhr92rcd13ifvqhsg","pricing_plan_id":"cebpf4jnsgd1na2vs0mg"},{"bike_id":"1afa272b-8445-444e-add8-e1deabacb835","system_id":"levelo_inurba_marseille","lat":43.337168,"lon":5.391825,"is_reserved":false,"is_disabled":false,"rental_uris":{"android":"levelo://app?vid=1afa272b-8445-444e-add8-e1deabacb835","ios":"levelo://app?vid=1afa272b-8445-444e-add8-e1deabacb835"},"vehicle_type_id":"4","last_reported":1721059803,"current_range_meters":26800,"station_id":"ce4bhr92rcd13ifvqhsg","pricing_plan_id":"cebpf4jnsgd1na2vs0mg"},{"bike_id":"d23bbc33-0bc9-4f84-b181-66e236c96554","system_id":"levelo_inurba_marseille","lat":43.288497,"lon":5.393089,"is_reserved":false,"is_disabled":false,"rental_uris":{"android":"levelo://app?vid=d23bbc33-0bc9-4f84-b181-66e236c96554","ios":"levelo://app?vid=d23bbc33-0bc9-4f84-b181-66e236c96554"},"vehicle_type_id":"4","last_reported":1721059803,"current_range_meters":0,"station_id":"ce4bh2p2rcd13ifvqdi0","pricing_plan_id":"cebpf4jnsgd1na2vs0mg"},{"bike_id":"dbf0e18f-205e-49de-9fed-9a3124b423e6","system_id":"levelo_inurba_marseille","lat":43.284776,"lon":5.385603,"is_reserved":false,"is_disabled":false,"rental_uris":{"android":"levelo://app?vid=dbf0e18f-205e-49de-9fed-9a3124b423e6","ios":"levelo://app?vid=dbf0e18f-205e-49de-9fed-9a3124b423e6"},"vehicle_type_id":"4","last_reported":1721059803,"current_range_meters":0,"station_id":"ce4bh8p2rcd13ifvqeb0","pricing_plan_id":"cebpf4jnsgd1na2vs0mg"},{"bike_id":"88547130-358e-4ace-ac03-ea2929dcd94d","system_id":"levelo_inurba_marseille","lat":43.284219,"lon":5.3497,"is_reserved":false,"is_disabled":false,"rental_uris":{"android":"levelo://app?vid=88547130-358e-4ace-ac03-ea2929dcd94d","ios":"levelo://app?vid=88547130-358e-4ace-ac03-ea2929dcd94d"},"vehicle_type_id":"4","last_reported":1721059803,"current_range_meters":6800,"station_id":"ce4bhbh2rcd13ifvqepg","pricing_plan_id":"cebpf4jnsgd1na2vs0mg"},{"bike_id":"b05ce9a4-2f57-437f-97d5-baf91d285340","system_id":"levelo_inurba_marseille","lat":43.284219,"lon":5.3497,"is_reserved":false,"is_disabled":false,"rental_uris":{"android":"levelo://app?vid=b05ce9a4-2f57-437f-97d5-baf91d285340","ios":"levelo://app?vid=b05ce9a4-2f57-437f-97d5-baf91d285340"},"vehicle_type_id":"4","last_reported":1721059803,"current_range_meters":31200,"station_id":"ce4bhbh2rcd13ifvqepg","pricing_plan_id":"cebpf4jnsgd1na2vs0mg"},{"bike_id":"8ccf3a0d-a1b4-4505-b4d6-fe7864892e2b","system_id":"levelo_inurba_marseille","lat":43.284219,"lon":5.3497,"is_reserved":false,"is_disabled":false,"rental_uris":{"android":"levelo://app?vid=8ccf3a0d-a1b4-4505-b4d6-fe7864892e2b","ios":"levelo://app?vid=8ccf3a0d-a1b4-4505-b4d6-fe7864892e2b"},"vehicle_type_id":"4","last_reported":1721059803,"current_range_meters":24000,"station_id":"ce4bhbh2rcd13ifvqepg","pricing_plan_id":"cebpf4jnsgd1na2vs0mg"},{"bike_id":"6a6be0c6-d483-4acd-919f-74312f66d931","system_id":"levelo_inurba_marseille","lat":43.284214,"lon":5.349706,"is_reserved":false,"is_disabled":false,"rental_uris":{"android":"levelo://app?vid=6a6be0c6-d483-4acd-919f-74312f66d931","ios":"levelo://app?vid=6a6be0c6-d483-4acd-919f-74312f66d931"},"vehicle_type_id":"4","last_reported":1721059803,"current_range_meters":4400,"station_id":"ce4bhbh2rcd13ifvqepg","pricing_plan_id":"cebpf4jnsgd1na2vs0mg"},{"bike_id":"ca7b1b14-456e-4005-95b4-44d9e223a62b","system_id":"levelo_inurba_marseille","lat":43.284219,"lon":5.3497,"is_reserved":false,"is_disabled":false,"rental_uris":{"android":"levelo://app?vid=ca7b1b14-456e-4005-95b4-44d9e223a62b","ios":"levelo://app?vid=ca7b1b14-456e-4005-95b4-44d9e223a62b"},"vehicle_type_id":"4","last_reported":1721059803,"current_range_meters":15200,"station_id":"ce4bhbh2rcd13ifvqepg","pricing_plan_id":"cebpf4jnsgd1na2vs0mg"},{"bike_id":"8b1ce9ed-297e-402b-a693-101f4f59ebfe","system_id":"levelo_inurba_marseille","lat":43.284214,"lon":5.349706,"is_reserved":false,"is_disabled":false,"rental_uris":{"android":"levelo://app?vid=8b1ce9ed-297e-402b-a693-101f4f59ebfe","ios":"levelo://app?vid=8b1ce9ed-297e-402b-a693-101f4f59ebfe"},"vehicle_type_id":"4","last_reported":1721059803,"current_range_meters":31200,"station_id":"ce4bhbh2rcd13ifvqepg","pricing_plan_id":"cebpf4jnsgd1na2vs0mg"},{"bike_id":"fbd9c991-9aa5-4b86-b36c-9793ed0fb62f","system_id":"levelo_inurba_marseille","lat":43.28422,"lon":5.349893,"is_reserved":false,"is_disabled":false,"rental_uris":{"android":"levelo://app?vid=fbd9c991-9aa5-4b86-b36c-9793ed0fb62f","ios":"levelo://app?vid=fbd9c991-9aa5-4b86-b36c-9793ed0fb62f"},"vehicle_type_id":"4","last_reported":1721059803,"current_range_meters":19600,"station_id":"ce4bhbh2rcd13ifvqepg","pricing_plan_id":"cebpf4jnsgd1na2vs0mg"},{"bike_id":"8c0676ad-26f5-4f6f-99b8-910543a3800a","system_id":"levelo_inurba_marseille","lat":43.284225,"lon":5.349871,"is_reserved":false,"is_disabled":false,"rental_uris":{"android":"levelo://app?vid=8c0676ad-26f5-4f6f-99b8-910543a3800a","ios":"levelo://app?vid=8c0676ad-26f5-4f6f-99b8-910543a3800a"},"vehicle_type_id":"4","last_reported":1721059803,"current_range_meters":11600,"station_id":"ce4bhbh2rcd13ifvqepg","pricing_plan_id":"cebpf4jnsgd1na2vs0mg"},{"bike_id":"caa8527e-d44a-4286-9677-4e8f662bc118","system_id":"levelo_inurba_marseille","lat":43.284217,"lon":5.349697,"is_reserved":false,"is_disabled":false,"rental_uris":{"android":"levelo://app?vid=caa8527e-d44a-4286-9677-4e8f662bc118","ios":"levelo://app?vid=caa8527e-d44a-4286-9677-4e8f662bc118"},"vehicle_type_id":"4","last_reported":1721059803,"current_range_meters":31600,"station_id":"ce4bhbh2rcd13ifvqepg","pricing_plan_id":"cebpf4jnsgd1na2vs0mg"},{"bike_id":"c149177b-3e72-4438-a0a8-404c4eee8a17","system_id":"levelo_inurba_marseille","lat":43.284217,"lon":5.349697,"is_reserved":false,"is_disabled":false,"rental_uris":{"android":"levelo://app?vid=c149177b-3e72-4438-a0a8-404c4eee8a17","ios":"levelo://app?vid=c149177b-3e72-4438-a0a8-404c4eee8a17"},"vehicle_type_id":"4","last_reported":1721059803,"current_range_meters":18400,"station_id":"ce4bhbh2rcd13ifvqepg","pricing_plan_id":"cebpf4jnsgd1na2vs0mg"},{"bike_id":"528ed490-dcbe-46c3-bd70-0dd1c23e0c26","system_id":"levelo_inurba_marseille","lat":43.284219,"lon":5.3497,"is_reserved":false,"is_disabled":false,"rental_uris":{"android":"levelo://app?vid=528ed490-dcbe-46c3-bd70-0dd1c23e0c26","ios":"levelo://app?vid=528ed490-dcbe-46c3-bd70-0dd1c23e0c26"},"vehicle_type_id":"4","last_reported":1721059803,"current_range_meters":23600,"station_id":"ce4bhbh2rcd13ifvqepg","pricing_plan_id":"cebpf4jnsgd1na2vs0mg"},{"bike_id":"cbc0d9e9-716e-4605-828e-b8e0f34eec8c","system_id":"levelo_inurba_marseille","lat":43.284217,"lon":5.349697,"is_reserved":false,"is_disabled":false,"rental_uris":{"android":"levelo://app?vid=cbc0d9e9-716e-4605-828e-b8e0f34eec8c","ios":"levelo://app?vid=cbc0d9e9-716e-4605-828e-b8e0f34eec8c"},"vehicle_type_id":"4","last_reported":1721059803,"current_range_meters":31600,"station_id":"ce4bhbh2rcd13ifvqepg","pricing_plan_id":"cebpf4jnsgd1na2vs0mg"},{"bike_id":"29a271c2-a5c6-4d52-b7f6-6a88fa8a3047","system_id":"levelo_inurba_marseille","lat":43.28418,"lon":5.34995,"is_reserved":false,"is_disabled":false,"rental_uris":{"android":"levelo://app?vid=29a271c2-a5c6-4d52-b7f6-6a88fa8a3047","ios":"levelo://app?vid=29a271c2-a5c6-4d52-b7f6-6a88fa8a3047"},"vehicle_type_id":"4","last_reported":1721059803,"current_range_meters":0,"station_id":"ce4bhbh2rcd13ifvqepg","pricing_plan_id":"cebpf4jnsgd1na2vs0mg"},{"bike_id":"8794c528-c6b0-4c8a-a08b-6df70fb9a21f","system_id":"levelo_inurba_marseille","lat":43.2842,"lon":5.34987,"is_reserved":false,"is_disabled":false,"rental_uris":{"android":"levelo://app?vid=8794c528-c6b0-4c8a-a08b-6df70fb9a21f","ios":"levelo://app?vid=8794c528-c6b0-4c8a-a08b-6df70fb9a21f"},"vehicle_type_id":"4","last_reported":1721059803,"current_range_meters":27600,"station_id":"ce4bhbh2rcd13ifvqepg","pricing_plan_id":"cebpf4jnsgd1na2vs0mg"},{"bike_id":"099f5e43-9d9f-4249-a5e9-c3194eacb85e","system_id":"levelo_inurba_marseille","lat":43.284193,"lon":5.349871,"is_reserved":false,"is_disabled":false,"rental_uris":{"android":"levelo://app?vid=099f5e43-9d9f-4249-a5e9-c3194eacb85e","ios":"levelo://app?vid=099f5e43-9d9f-4249-a5e9-c3194eacb85e"},"vehicle_type_id":"4","last_reported":1721059803,"current_range_meters":28400,"station_id":"ce4bhbh2rcd13ifvqepg","pricing_plan_id":"cebpf4jnsgd1na2vs0mg"},{"bike_id":"92c84486-ddb6-481b-a3d0-0c7b9772cc7f","system_id":"levelo_inurba_marseille","lat":43.28419,"lon":5.34987,"is_reserved":false,"is_disabled":false,"rental_uris":{"android":"levelo://app?vid=92c84486-ddb6-481b-a3d0-0c7b9772cc7f","ios":"levelo://app?vid=92c84486-ddb6-481b-a3d0-0c7b9772cc7f"},"vehicle_type_id":"4","last_reported":1721059803,"current_range_meters":22000,"station_id":"ce4bhbh2rcd13ifvqepg","pricing_plan_id":"cebpf4jnsgd1na2vs0mg"},{"bike_id":"db280e60-0d1b-46e6-aecc-dde0a3545237","system_id":"levelo_inurba_marseille","lat":43.28418,"lon":5.34987,"is_reserved":false,"is_disabled":false,"rental_uris":{"android":"levelo://app?vid=db280e60-0d1b-46e6-aecc-dde0a3545237","ios":"levelo://app?vid=db280e60-0d1b-46e6-aecc-dde0a3545237"},"vehicle_type_id":"4","last_reported":1721059803,"current_range_meters":22400,"station_id":"ce4bhbh2rcd13ifvqepg","pricing_plan_id":"cebpf4jnsgd1na2vs0mg"},{"bike_id":"9b8823d3-879a-44f8-9ec1-1629f425af3d","system_id":"levelo_inurba_marseille","lat":43.284219,"lon":5.3497,"is_reserved":false,"is_disabled":false,"rental_uris":{"android":"levelo://app?vid=9b8823d3-879a-44f8-9ec1-1629f425af3d","ios":"levelo://app?vid=9b8823d3-879a-44f8-9ec1-1629f425af3d"},"vehicle_type_id":"4","last_reported":1721059803,"current_range_meters":16400,"station_id":"ce4bhbh2rcd13ifvqepg","pricing_plan_id":"cebpf4jnsgd1na2vs0mg"},{"bike_id":"ba13aca3-837d-49df-a051-ed662a937bd0","system_id":"levelo_inurba_marseille","lat":43.284217,"lon":5.349697,"is_reserved":false,"is_disabled":false,"rental_uris":{"android":"levelo://app?vid=ba13aca3-837d-49df-a051-ed662a937bd0","ios":"levelo://app?vid=ba13aca3-837d-49df-a051-ed662a937bd0"},"vehicle_type_id":"4","last_reported":1721059803,"current_range_meters":23200,"station_id":"ce4bhbh2rcd13ifvqepg","pricing_plan_id":"cebpf4jnsgd1na2vs0mg"},{"bike_id":"7b964e48-d41a-4c98-94d8-13fea4754671","system_id":"levelo_inurba_marseille","lat":43.28418,"lon":5.349858,"is_reserved":false,"is_disabled":false,"rental_uris":{"android":"levelo://app?vid=7b964e48-d41a-4c98-94d8-13fea4754671","ios":"levelo://app?vid=7b964e48-d41a-4c98-94d8-13fea4754671"},"vehicle_type_id":"4","last_reported":1721059803,"current_range_meters":30400,"station_id":"ce4bhbh2rcd13ifvqepg","pricing_plan_id":"cebpf4jnsgd1na2vs0mg"},{"bike_id":"3de296a2-cebc-4926-b442-785e7a9b94c1","system_id":"levelo_inurba_marseille","lat":43.284214,"lon":5.349706,"is_reserved":false,"is_disabled":false,"rental_uris":{"android":"levelo://app?vid=3de296a2-cebc-4926-b442-785e7a9b94c1","ios":"levelo://app?vid=3de296a2-cebc-4926-b442-785e7a9b94c1"},"vehicle_type_id":"4","last_reported":1721059803,"current_range_meters":12000,"station_id":"ce4bhbh2rcd13ifvqepg","pricing_plan_id":"cebpf4jnsgd1na2vs0mg"},{"bike_id":"34d11601-27a4-4b99-b2f3-dd4c6013d2c7","system_id":"levelo_inurba_marseille","lat":43.284219,"lon":5.3497,"is_reserved":false,"is_disabled":false,"rental_uris":{"android":"levelo://app?vid=34d11601-27a4-4b99-b2f3-dd4c6013d2c7","ios":"levelo://app?vid=34d11601-27a4-4b99-b2f3-dd4c6013d2c7"},"vehicle_type_id":"4","last_reported":1721059803,"current_range_meters":30000,"station_id":"ce4bhbh2rcd13ifvqepg","pricing_plan_id":"cebpf4jnsgd1na2vs0mg"},{"bike_id":"e09a5d85-904c-44ea-a2f3-f020898ab534","system_id":"levelo_inurba_marseille","lat":43.284187,"lon":5.349813,"is_reserved":false,"is_disabled":false,"rental_uris":{"android":"levelo://app?vid=e09a5d85-904c-44ea-a2f3-f020898ab534","ios":"levelo://app?vid=e09a5d85-904c-44ea-a2f3-f020898ab534"},"vehicle_type_id":"4","last_reported":1721059803,"current_range_meters":20400,"station_id":"ce4bhbh2rcd13ifvqepg","pricing_plan_id":"cebpf4jnsgd1na2vs0mg"},{"bike_id":"4d0b455a-0a8d-4829-968f-e5f6e8f282c1","system_id":"levelo_inurba_marseille","lat":43.284214,"lon":5.349706,"is_reserved":false,"is_disabled":false,"rental_uris":{"android":"levelo://app?vid=4d0b455a-0a8d-4829-968f-e5f6e8f282c1","ios":"levelo://app?vid=4d0b455a-0a8d-4829-968f-e5f6e8f282c1"},"vehicle_type_id":"4","last_reported":1721059803,"current_range_meters":2000,"station_id":"ce4bhbh2rcd13ifvqepg","pricing_plan_id":"cebpf4jnsgd1na2vs0mg"},{"bike_id":"9dc2901a-db80-4868-93de-cb158634d51b","system_id":"levelo_inurba_marseille","lat":43.284217,"lon":5.349697,"is_reserved":false,"is_disabled":false,"rental_uris":{"android":"levelo://app?vid=9dc2901a-db80-4868-93de-cb158634d51b","ios":"levelo://app?vid=9dc2901a-db80-4868-93de-cb158634d51b"},"vehicle_type_id":"4","last_reported":1721059803,"current_range_meters":31600,"station_id":"ce4bhbh2rcd13ifvqepg","pricing_plan_id":"cebpf4jnsgd1na2vs0mg"},{"bike_id":"a5647ab3-4cc7-4efd-8eca-4e7834e7bf7d","system_id":"levelo_inurba_marseille","lat":43.284219,"lon":5.3497,"is_reserved":false,"is_disabled":false,"rental_uris":{"android":"levelo://app?vid=a5647ab3-4cc7-4efd-8eca-4e7834e7bf7d","ios":"levelo://app?vid=a5647ab3-4cc7-4efd-8eca-4e7834e7bf7d"},"vehicle_type_id":"4","last_reported":1721059803,"current_range_meters":20800,"station_id":"ce4bhbh2rcd13ifvqepg","pricing_plan_id":"cebpf4jnsgd1na2vs0mg"},{"bike_id":"c0f028aa-a38b-4c80-9a1f-d3596b03d663","system_id":"levelo_inurba_marseille","lat":43.284219,"lon":5.3497,"is_reserved":false,"is_disabled":false,"rental_uris":{"android":"levelo://app?vid=c0f028aa-a38b-4c80-9a1f-d3596b03d663","ios":"levelo://app?vid=c0f028aa-a38b-4c80-9a1f-d3596b03d663"},"vehicle_type_id":"4","last_reported":1721059803,"current_range_meters":20400,"station_id":"ce4bhbh2rcd13ifvqepg","pricing_plan_id":"cebpf4jnsgd1na2vs0mg"},{"bike_id":"18944bd6-b470-47c2-aa4d-87b67441366e","system_id":"levelo_inurba_marseille","lat":43.284217,"lon":5.349697,"is_reserved":false,"is_disabled":false,"rental_uris":{"android":"levelo://app?vid=18944bd6-b470-47c2-aa4d-87b67441366e","ios":"levelo://app?vid=18944bd6-b470-47c2-aa4d-87b67441366e"},"vehicle_type_id":"4","last_reported":1721059803,"current_range_meters":10400,"station_id":"ce4bhbh2rcd13ifvqepg","pricing_plan_id":"cebpf4jnsgd1na2vs0mg"},{"bike_id":"10b144d0-c697-42ed-bb2b-5ff07c70bdb4","system_id":"levelo_inurba_marseille","lat":43.28416,"lon":5.34984,"is_reserved":false,"is_disabled":false,"rental_uris":{"android":"levelo://app?vid=10b144d0-c697-42ed-bb2b-5ff07c70bdb4","ios":"levelo://app?vid=10b144d0-c697-42ed-bb2b-5ff07c70bdb4"},"vehicle_type_id":"4","last_reported":1721059803,"current_range_meters":23200,"station_id":"ce4bhbh2rcd13ifvqepg","pricing_plan_id":"cebpf4jnsgd1na2vs0mg"},{"bike_id":"758bf6f9-385d-4fde-96d1-293b8d3bb266","system_id":"levelo_inurba_marseille","lat":43.28414,"lon":5.3499,"is_reserved":false,"is_disabled":false,"rental_uris":{"android":"levelo://app?vid=758bf6f9-385d-4fde-96d1-293b8d3bb266","ios":"levelo://app?vid=758bf6f9-385d-4fde-96d1-293b8d3bb266"},"vehicle_type_id":"4","last_reported":1721059803,"current_range_meters":13200,"station_id":"ce4bhbh2rcd13ifvqepg","pricing_plan_id":"cebpf4jnsgd1na2vs0mg"},{"bike_id":"fe0f2e80-69c4-4386-8bbd-df393687ce28","system_id":"levelo_inurba_marseille","lat":43.284219,"lon":5.3497,"is_reserved":false,"is_disabled":false,"rental_uris":{"android":"levelo://app?vid=fe0f2e80-69c4-4386-8bbd-df393687ce28","ios":"levelo://app?vid=fe0f2e80-69c4-4386-8bbd-df393687ce28"},"vehicle_type_id":"4","last_reported":1721059803,"current_range_meters":8000,"station_id":"ce4bhbh2rcd13ifvqepg","pricing_plan_id":"cebpf4jnsgd1na2vs0mg"},{"bike_id":"966fc945-817c-4c4e-917e-d89cf89a76c9","system_id":"levelo_inurba_marseille","lat":43.2841,"lon":5.34995,"is_reserved":false,"is_disabled":false,"rental_uris":{"android":"levelo://app?vid=966fc945-817c-4c4e-917e-d89cf89a76c9","ios":"levelo://app?vid=966fc945-817c-4c4e-917e-d89cf89a76c9"},"vehicle_type_id":"4","last_reported":1721059803,"current_range_meters":0,"station_id":"ce4bhbh2rcd13ifvqepg","pricing_plan_id":"cebpf4jnsgd1na2vs0mg"},{"bike_id":"f4536731-aefb-4c2a-a24e-f81b32708035","system_id":"levelo_inurba_marseille","lat":43.284217,"lon":5.349697,"is_reserved":false,"is_disabled":false,"rental_uris":{"android":"levelo://app?vid=f4536731-aefb-4c2a-a24e-f81b32708035","ios":"levelo://app?vid=f4536731-aefb-4c2a-a24e-f81b32708035"},"vehicle_type_id":"4","last_reported":1721059803,"current_range_meters":16000,"station_id":"ce4bhbh2rcd13ifvqepg","pricing_plan_id":"cebpf4jnsgd1na2vs0mg"},{"bike_id":"1106481f-0f9e-4688-bfcc-d2e5132a289a","system_id":"levelo_inurba_marseille","lat":43.28413,"lon":5.34982,"is_reserved":false,"is_disabled":false,"rental_uris":{"android":"levelo://app?vid=1106481f-0f9e-4688-bfcc-d2e5132a289a","ios":"levelo://app?vid=1106481f-0f9e-4688-bfcc-d2e5132a289a"},"vehicle_type_id":"4","last_reported":1721059803,"current_range_meters":24000,"station_id":"ce4bhbh2rcd13ifvqepg","pricing_plan_id":"cebpf4jnsgd1na2vs0mg"},{"bike_id":"c5c9ded3-3737-4680-821e-dc6b5c6d443d","system_id":"levelo_inurba_marseille","lat":43.28416,"lon":5.34972,"is_reserved":false,"is_disabled":false,"rental_uris":{"android":"levelo://app?vid=c5c9ded3-3737-4680-821e-dc6b5c6d443d","ios":"levelo://app?vid=c5c9ded3-3737-4680-821e-dc6b5c6d443d"},"vehicle_type_id":"4","last_reported":1721059803,"current_range_meters":16000,"station_id":"ce4bhbh2rcd13ifvqepg","pricing_plan_id":"cebpf4jnsgd1na2vs0mg"},{"bike_id":"ba9ad861-5e95-4809-8c00-2f8894a253b0","system_id":"levelo_inurba_marseille","lat":43.284099,"lon":5.34991,"is_reserved":false,"is_disabled":false,"rental_uris":{"android":"levelo://app?vid=ba9ad861-5e95-4809-8c00-2f8894a253b0","ios":"levelo://app?vid=ba9ad861-5e95-4809-8c00-2f8894a253b0"},"vehicle_type_id":"4","last_reported":1721059803,"current_range_meters":16800,"station_id":"ce4bhbh2rcd13ifvqepg","pricing_plan_id":"cebpf4jnsgd1na2vs0mg"},{"bike_id":"323bbbfe-5fad-48db-abc6-5e27e1b37d9f","system_id":"levelo_inurba_marseille","lat":43.28413,"lon":5.3498,"is_reserved":false,"is_disabled":false,"rental_uris":{"android":"levelo://app?vid=323bbbfe-5fad-48db-abc6-5e27e1b37d9f","ios":"levelo://app?vid=323bbbfe-5fad-48db-abc6-5e27e1b37d9f"},"vehicle_type_id":"4","last_reported":1721059803,"current_range_meters":0,"station_id":"ce4bhbh2rcd13ifvqepg","pricing_plan_id":"cebpf4jnsgd1na2vs0mg"},{"bike_id":"28a896dc-a6ad-4093-b231-31451ff1ea0e","system_id":"levelo_inurba_marseille","lat":43.28411,"lon":5.34986,"is_reserved":false,"is_disabled":false,"rental_uris":{"android":"levelo://app?vid=28a896dc-a6ad-4093-b231-31451ff1ea0e","ios":"levelo://app?vid=28a896dc-a6ad-4093-b231-31451ff1ea0e"},"vehicle_type_id":"4","last_reported":1721059803,"current_range_meters":3600,"station_id":"ce4bhbh2rcd13ifvqepg","pricing_plan_id":"cebpf4jnsgd1na2vs0mg"},{"bike_id":"f109387c-2b87-49f3-8941-478ec175bdce","system_id":"levelo_inurba_marseille","lat":43.284084,"lon":5.349895,"is_reserved":false,"is_disabled":false,"rental_uris":{"android":"levelo://app?vid=f109387c-2b87-49f3-8941-478ec175bdce","ios":"levelo://app?vid=f109387c-2b87-49f3-8941-478ec175bdce"},"vehicle_type_id":"4","last_reported":1721059803,"current_range_meters":17600,"station_id":"ce4bhbh2rcd13ifvqepg","pricing_plan_id":"cebpf4jnsgd1na2vs0mg"},{"bike_id":"2bb2c442-ac7a-4535-92a2-78da58118257","system_id":"levelo_inurba_marseille","lat":43.284214,"lon":5.349706,"is_reserved":false,"is_disabled":false,"rental_uris":{"android":"levelo://app?vid=2bb2c442-ac7a-4535-92a2-78da58118257","ios":"levelo://app?vid=2bb2c442-ac7a-4535-92a2-78da58118257"},"vehicle_type_id":"4","last_reported":1721059803,"current_range_meters":31200,"station_id":"ce4bhbh2rcd13ifvqepg","pricing_plan_id":"cebpf4jnsgd1na2vs0mg"},{"bike_id":"3c616bd4-553a-4451-b116-8562784c6812","system_id":"levelo_inurba_marseille","lat":43.28405,"lon":5.34994,"is_reserved":false,"is_disabled":false,"rental_uris":{"android":"levelo://app?vid=3c616bd4-553a-4451-b116-8562784c6812","ios":"levelo://app?vid=3c616bd4-553a-4451-b116-8562784c6812"},"vehicle_type_id":"4","last_reported":1721059803,"current_range_meters":31200,"station_id":"ce4bhbh2rcd13ifvqepg","pricing_plan_id":"cebpf4jnsgd1na2vs0mg"},{"bike_id":"09009c69-ea76-413d-bd1f-b2079fcd9ec1","system_id":"levelo_inurba_marseille","lat":43.28409,"lon":5.34979,"is_reserved":false,"is_disabled":false,"rental_uris":{"android":"levelo://app?vid=09009c69-ea76-413d-bd1f-b2079fcd9ec1","ios":"levelo://app?vid=09009c69-ea76-413d-bd1f-b2079fcd9ec1"},"vehicle_type_id":"4","last_reported":1721059803,"current_range_meters":18400,"station_id":"ce4bhbh2rcd13ifvqepg","pricing_plan_id":"cebpf4jnsgd1na2vs0mg"},{"bike_id":"ddcef80d-fcad-4029-be7b-f343b764a3dd","system_id":"levelo_inurba_marseille","lat":43.284217,"lon":5.349697,"is_reserved":false,"is_disabled":false,"rental_uris":{"android":"levelo://app?vid=ddcef80d-fcad-4029-be7b-f343b764a3dd","ios":"levelo://app?vid=ddcef80d-fcad-4029-be7b-f343b764a3dd"},"vehicle_type_id":"4","last_reported":1721059803,"current_range_meters":14800,"station_id":"ce4bhbh2rcd13ifvqepg","pricing_plan_id":"cebpf4jnsgd1na2vs0mg"},{"bike_id":"1d83582b-d5af-478e-86d3-14ecfda3e8c5","system_id":"levelo_inurba_marseille","lat":43.28407,"lon":5.34979,"is_reserved":false,"is_disabled":false,"rental_uris":{"android":"levelo://app?vid=1d83582b-d5af-478e-86d3-14ecfda3e8c5","ios":"levelo://app?vid=1d83582b-d5af-478e-86d3-14ecfda3e8c5"},"vehicle_type_id":"4","last_reported":1721059803,"current_range_meters":19200,"station_id":"ce4bhbh2rcd13ifvqepg","pricing_plan_id":"cebpf4jnsgd1na2vs0mg"},{"bike_id":"a000da5c-bee3-42e0-b2a3-ec641ac6a2e3","system_id":"levelo_inurba_marseille","lat":43.29261,"lon":5.39997,"is_reserved":false,"is_disabled":false,"rental_uris":{"android":"levelo://app?vid=a000da5c-bee3-42e0-b2a3-ec641ac6a2e3","ios":"levelo://app?vid=a000da5c-bee3-42e0-b2a3-ec641ac6a2e3"},"vehicle_type_id":"4","last_reported":1721059803,"current_range_meters":11600,"station_id":"","pricing_plan_id":"cebpf4jnsgd1na2vs0mg"},{"bike_id":"5a9ffa07-6b25-481a-b792-a898e946f917","system_id":"levelo_inurba_marseille","lat":43.292724,"lon":5.401131,"is_reserved":false,"is_disabled":false,"rental_uris":{"android":"levelo://app?vid=5a9ffa07-6b25-481a-b792-a898e946f917","ios":"levelo://app?vid=5a9ffa07-6b25-481a-b792-a898e946f917"},"vehicle_type_id":"4","last_reported":1721059803,"current_range_meters":25600,"station_id":"ce4bh312rcd13ifvqdk0","pricing_plan_id":"cebpf4jnsgd1na2vs0mg"},{"bike_id":"b2ea1b57-8012-49f8-8d5f-1e4c50542a17","system_id":"levelo_inurba_marseille","lat":43.28276,"lon":5.35072,"is_reserved":false,"is_disabled":false,"rental_uris":{"android":"levelo://app?vid=b2ea1b57-8012-49f8-8d5f-1e4c50542a17","ios":"levelo://app?vid=b2ea1b57-8012-49f8-8d5f-1e4c50542a17"},"vehicle_type_id":"4","last_reported":1721059803,"current_range_meters":19200,"station_id":"ce4bhbp2rcd13ifvqerg","pricing_plan_id":"cebpf4jnsgd1na2vs0mg"},{"bike_id":"205b0f13-e13d-40d1-a770-0c325e5158ea","system_id":"levelo_inurba_marseille","lat":43.28273,"lon":5.35067,"is_reserved":false,"is_disabled":false,"rental_uris":{"android":"levelo://app?vid=205b0f13-e13d-40d1-a770-0c325e5158ea","ios":"levelo://app?vid=205b0f13-e13d-40d1-a770-0c325e5158ea"},"vehicle_type_id":"4","last_reported":1721059803,"current_range_meters":10000,"station_id":"ce4bhbp2rcd13ifvqerg","pricing_plan_id":"cebpf4jnsgd1na2vs0mg"},{"bike_id":"d86d120c-2575-4e8d-975a-f0526ebb4030","system_id":"levelo_inurba_marseille","lat":43.282754,"lon":5.350519,"is_reserved":false,"is_disabled":false,"rental_uris":{"android":"levelo://app?vid=d86d120c-2575-4e8d-975a-f0526ebb4030","ios":"levelo://app?vid=d86d120c-2575-4e8d-975a-f0526ebb4030"},"vehicle_type_id":"4","last_reported":1721059803,"current_range_meters":4000,"station_id":"ce4bhbp2rcd13ifvqerg","pricing_plan_id":"cebpf4jnsgd1na2vs0mg"},{"bike_id":"6a6ad3ac-5baf-46b4-8c0f-4f2ef5cb7947","system_id":"levelo_inurba_marseille","lat":43.28272,"lon":5.35065,"is_reserved":false,"is_disabled":false,"rental_uris":{"android":"levelo://app?vid=6a6ad3ac-5baf-46b4-8c0f-4f2ef5cb7947","ios":"levelo://app?vid=6a6ad3ac-5baf-46b4-8c0f-4f2ef5cb7947"},"vehicle_type_id":"4","last_reported":1721059803,"current_range_meters":21600,"station_id":"ce4bhbp2rcd13ifvqerg","pricing_plan_id":"cebpf4jnsgd1na2vs0mg"},{"bike_id":"6c8bd0f8-bd02-47c9-b325-417269a693e9","system_id":"levelo_inurba_marseille","lat":43.282754,"lon":5.350519,"is_reserved":false,"is_disabled":false,"rental_uris":{"android":"levelo://app?vid=6c8bd0f8-bd02-47c9-b325-417269a693e9","ios":"levelo://app?vid=6c8bd0f8-bd02-47c9-b325-417269a693e9"},"vehicle_type_id":"4","last_reported":1721059803,"current_range_meters":5200,"station_id":"ce4bhbp2rcd13ifvqerg","pricing_plan_id":"cebpf4jnsgd1na2vs0mg"},{"bike_id":"c50dac8c-09a7-4758-bdf6-c696b9ec4c8e","system_id":"levelo_inurba_marseille","lat":43.28271,"lon":5.35063,"is_reserved":false,"is_disabled":false,"rental_uris":{"android":"levelo://app?vid=c50dac8c-09a7-4758-bdf6-c696b9ec4c8e","ios":"levelo://app?vid=c50dac8c-09a7-4758-bdf6-c696b9ec4c8e"},"vehicle_type_id":"4","last_reported":1721059803,"current_range_meters":31200,"station_id":"ce4bhbp2rcd13ifvqerg","pricing_plan_id":"cebpf4jnsgd1na2vs0mg"},{"bike_id":"f76aeb1e-b07c-4a6f-b2e0-0295168073b2","system_id":"levelo_inurba_marseille","lat":43.282754,"lon":5.350519,"is_reserved":false,"is_disabled":false,"rental_uris":{"android":"levelo://app?vid=f76aeb1e-b07c-4a6f-b2e0-0295168073b2","ios":"levelo://app?vid=f76aeb1e-b07c-4a6f-b2e0-0295168073b2"},"vehicle_type_id":"4","last_reported":1721059803,"current_range_meters":800,"station_id":"ce4bhbp2rcd13ifvqerg","pricing_plan_id":"cebpf4jnsgd1na2vs0mg"},{"bike_id":"f3b3aa31-1391-4428-8d4e-32d32370a70d","system_id":"levelo_inurba_marseille","lat":43.28268,"lon":5.350665,"is_reserved":false,"is_disabled":false,"rental_uris":{"android":"levelo://app?vid=f3b3aa31-1391-4428-8d4e-32d32370a70d","ios":"levelo://app?vid=f3b3aa31-1391-4428-8d4e-32d32370a70d"},"vehicle_type_id":"4","last_reported":1721059803,"current_range_meters":31200,"station_id":"ce4bhbp2rcd13ifvqerg","pricing_plan_id":"cebpf4jnsgd1na2vs0mg"},{"bike_id":"6a3fc0dd-b6d5-43a3-b9d7-29e379bbf231","system_id":"levelo_inurba_marseille","lat":43.2827,"lon":5.35058,"is_reserved":false,"is_disabled":false,"rental_uris":{"android":"levelo://app?vid=6a3fc0dd-b6d5-43a3-b9d7-29e379bbf231","ios":"levelo://app?vid=6a3fc0dd-b6d5-43a3-b9d7-29e379bbf231"},"vehicle_type_id":"4","last_reported":1721059803,"current_range_meters":1200,"station_id":"ce4bhbp2rcd13ifvqerg","pricing_plan_id":"cebpf4jnsgd1na2vs0mg"},{"bike_id":"0a3e445b-0896-4b21-9b87-094e31660f5e","system_id":"levelo_inurba_marseille","lat":43.282686,"lon":5.350623,"is_reserved":false,"is_disabled":false,"rental_uris":{"android":"levelo://app?vid=0a3e445b-0896-4b21-9b87-094e31660f5e","ios":"levelo://app?vid=0a3e445b-0896-4b21-9b87-094e31660f5e"},"vehicle_type_id":"4","last_reported":1721059803,"current_range_meters":11600,"station_id":"ce4bhbp2rcd13ifvqerg","pricing_plan_id":"cebpf4jnsgd1na2vs0mg"},{"bike_id":"29c4e3a0-a034-44fe-bde2-01ef6002fea1","system_id":"levelo_inurba_marseille","lat":43.282754,"lon":5.350519,"is_reserved":false,"is_disabled":false,"rental_uris":{"android":"levelo://app?vid=29c4e3a0-a034-44fe-bde2-01ef6002fea1","ios":"levelo://app?vid=29c4e3a0-a034-44fe-bde2-01ef6002fea1"},"vehicle_type_id":"4","last_reported":1721059803,"current_range_meters":7600,"station_id":"ce4bhbp2rcd13ifvqerg","pricing_plan_id":"cebpf4jnsgd1na2vs0mg"},{"bike_id":"07ae95c8-ea07-4ae2-a44d-22488095010c","system_id":"levelo_inurba_marseille","lat":43.282744,"lon":5.350533,"is_reserved":false,"is_disabled":false,"rental_uris":{"android":"levelo://app?vid=07ae95c8-ea07-4ae2-a44d-22488095010c","ios":"levelo://app?vid=07ae95c8-ea07-4ae2-a44d-22488095010c"},"vehicle_type_id":"4","last_reported":1721059803,"current_range_meters":400,"station_id":"ce4bhbp2rcd13ifvqerg","pricing_plan_id":"cebpf4jnsgd1na2vs0mg"},{"bike_id":"521d982d-0826-4bfa-8ac7-8aadda5beba5","system_id":"levelo_inurba_marseille","lat":43.28261,"lon":5.35081,"is_reserved":false,"is_disabled":false,"rental_uris":{"android":"levelo://app?vid=521d982d-0826-4bfa-8ac7-8aadda5beba5","ios":"levelo://app?vid=521d982d-0826-4bfa-8ac7-8aadda5beba5"},"vehicle_type_id":"4","last_reported":1721059803,"current_range_meters":31200,"station_id":"ce4bhbp2rcd13ifvqerg","pricing_plan_id":"cebpf4jnsgd1na2vs0mg"},{"bike_id":"3254f10e-3da4-4e9c-a725-ab0cab0629d8","system_id":"levelo_inurba_marseille","lat":43.28267,"lon":5.35057,"is_reserved":false,"is_disabled":false,"rental_uris":{"android":"levelo://app?vid=3254f10e-3da4-4e9c-a725-ab0cab0629d8","ios":"levelo://app?vid=3254f10e-3da4-4e9c-a725-ab0cab0629d8"},"vehicle_type_id":"4","last_reported":1721059803,"current_range_meters":30000,"station_id":"ce4bhbp2rcd13ifvqerg","pricing_plan_id":"cebpf4jnsgd1na2vs0mg"},{"bike_id":"e660f4ec-fa2f-4353-93e9-13370b9043ac","system_id":"levelo_inurba_marseille","lat":43.282754,"lon":5.350519,"is_reserved":false,"is_disabled":false,"rental_uris":{"android":"levelo://app?vid=e660f4ec-fa2f-4353-93e9-13370b9043ac","ios":"levelo://app?vid=e660f4ec-fa2f-4353-93e9-13370b9043ac"},"vehicle_type_id":"4","last_reported":1721059803,"current_range_meters":23600,"station_id":"ce4bhbp2rcd13ifvqerg","pricing_plan_id":"cebpf4jnsgd1na2vs0mg"},{"bike_id":"accf4191-081d-4369-a613-c663ac9593de","system_id":"levelo_inurba_marseille","lat":43.273609,"lon":5.362708,"is_reserved":false,"is_disabled":false,"rental_uris":{"android":"levelo://app?vid=accf4191-081d-4369-a613-c663ac9593de","ios":"levelo://app?vid=accf4191-081d-4369-a613-c663ac9593de"},"vehicle_type_id":"4","last_reported":1721059803,"current_range_meters":15200,"station_id":"ce4bhbh2rcd13ifvqeo0","pricing_plan_id":"cebpf4jnsgd1na2vs0mg"},{"bike_id":"186af9f1-e224-4527-bb3e-5b65398f6953","system_id":"levelo_inurba_marseille","lat":43.282744,"lon":5.350533,"is_reserved":false,"is_disabled":false,"rental_uris":{"android":"levelo://app?vid=186af9f1-e224-4527-bb3e-5b65398f6953","ios":"levelo://app?vid=186af9f1-e224-4527-bb3e-5b65398f6953"},"vehicle_type_id":"4","last_reported":1721059803,"current_range_meters":13600,"station_id":"ce4bhbp2rcd13ifvqerg","pricing_plan_id":"cebpf4jnsgd1na2vs0mg"},{"bike_id":"d8171c7c-1030-49a9-8278-b62959670da7","system_id":"levelo_inurba_marseille","lat":43.282744,"lon":5.350533,"is_reserved":false,"is_disabled":false,"rental_uris":{"android":"levelo://app?vid=d8171c7c-1030-49a9-8278-b62959670da7","ios":"levelo://app?vid=d8171c7c-1030-49a9-8278-b62959670da7"},"vehicle_type_id":"4","last_reported":1721059803,"current_range_meters":20400,"station_id":"ce4bhbp2rcd13ifvqerg","pricing_plan_id":"cebpf4jnsgd1na2vs0mg"},{"bike_id":"24b767a0-8c94-4319-b5b8-a66e24dd7334","system_id":"levelo_inurba_marseille","lat":43.282744,"lon":5.350533,"is_reserved":false,"is_disabled":false,"rental_uris":{"android":"levelo://app?vid=24b767a0-8c94-4319-b5b8-a66e24dd7334","ios":"levelo://app?vid=24b767a0-8c94-4319-b5b8-a66e24dd7334"},"vehicle_type_id":"4","last_reported":1721059803,"current_range_meters":0,"station_id":"ce4bhbp2rcd13ifvqerg","pricing_plan_id":"cebpf4jnsgd1na2vs0mg"},{"bike_id":"905c7701-b644-40d5-b731-fff2a07ac1de","system_id":"levelo_inurba_marseille","lat":43.282577,"lon":5.35066,"is_reserved":false,"is_disabled":false,"rental_uris":{"android":"levelo://app?vid=905c7701-b644-40d5-b731-fff2a07ac1de","ios":"levelo://app?vid=905c7701-b644-40d5-b731-fff2a07ac1de"},"vehicle_type_id":"4","last_reported":1721059803,"current_range_meters":0,"station_id":"ce4bhbp2rcd13ifvqerg","pricing_plan_id":"cebpf4jnsgd1na2vs0mg"},{"bike_id":"a19b8849-5180-4b9f-999b-8ec8c618a38e","system_id":"levelo_inurba_marseille","lat":43.280382,"lon":5.369291,"is_reserved":false,"is_disabled":false,"rental_uris":{"android":"levelo://app?vid=a19b8849-5180-4b9f-999b-8ec8c618a38e","ios":"levelo://app?vid=a19b8849-5180-4b9f-999b-8ec8c618a38e"},"vehicle_type_id":"4","last_reported":1721059803,"current_range_meters":18800,"station_id":"ce4bha12rcd13ifvqef0","pricing_plan_id":"cebpf4jnsgd1na2vs0mg"},{"bike_id":"e531b6b2-4e8c-4d4c-863d-98753bfb9cf7","system_id":"levelo_inurba_marseille","lat":43.280382,"lon":5.369291,"is_reserved":false,"is_disabled":false,"rental_uris":{"android":"levelo://app?vid=e531b6b2-4e8c-4d4c-863d-98753bfb9cf7","ios":"levelo://app?vid=e531b6b2-4e8c-4d4c-863d-98753bfb9cf7"},"vehicle_type_id":"4","last_reported":1721059803,"current_range_meters":0,"station_id":"ce4bha12rcd13ifvqef0","pricing_plan_id":"cebpf4jnsgd1na2vs0mg"},{"bike_id":"6e485b66-fea7-4171-ae33-623d8886328c","system_id":"levelo_inurba_marseille","lat":43.28251,"lon":5.35017,"is_reserved":false,"is_disabled":false,"rental_uris":{"android":"levelo://app?vid=6e485b66-fea7-4171-ae33-623d8886328c","ios":"levelo://app?vid=6e485b66-fea7-4171-ae33-623d8886328c"},"vehicle_type_id":"4","last_reported":1721059803,"current_range_meters":13600,"station_id":"ce4bhbp2rcd13ifvqerg","pricing_plan_id":"cebpf4jnsgd1na2vs0mg"},{"bike_id":"8713bb0f-9805-4a6b-addd-03d3100ebd07","system_id":"levelo_inurba_marseille","lat":43.281044,"lon":5.378308,"is_reserved":false,"is_disabled":false,"rental_uris":{"android":"levelo://app?vid=8713bb0f-9805-4a6b-addd-03d3100ebd07","ios":"levelo://app?vid=8713bb0f-9805-4a6b-addd-03d3100ebd07"},"vehicle_type_id":"4","last_reported":1721059803,"current_range_meters":1200,"station_id":"ce4bha12rcd13ifvqee0","pricing_plan_id":"cebpf4jnsgd1na2vs0mg"},{"bike_id":"12ccb786-86eb-4168-922a-49f05a77826f","system_id":"levelo_inurba_marseille","lat":43.283502,"lon":5.386471,"is_reserved":false,"is_disabled":false,"rental_uris":{"android":"levelo://app?vid=12ccb786-86eb-4168-922a-49f05a77826f","ios":"levelo://app?vid=12ccb786-86eb-4168-922a-49f05a77826f"},"vehicle_type_id":"4","last_reported":1721059803,"current_range_meters":23200,"station_id":"ce4bh492rcd13ifvqdvg","pricing_plan_id":"cebpf4jnsgd1na2vs0mg"},{"bike_id":"d94e3901-452f-4d6f-8f99-645054d56a26","system_id":"levelo_inurba_marseille","lat":43.296263,"lon":5.40601,"is_reserved":false,"is_disabled":false,"rental_uris":{"android":"levelo://app?vid=d94e3901-452f-4d6f-8f99-645054d56a26","ios":"levelo://app?vid=d94e3901-452f-4d6f-8f99-645054d56a26"},"vehicle_type_id":"4","last_reported":1721059803,"current_range_meters":8000,"station_id":"ce4bh0h2rcd13ifvqd60","pricing_plan_id":"cebpf4jnsgd1na2vs0mg"},{"bike_id":"0e1b59c7-6372-4c28-9fe2-180c2f96cd32","system_id":"levelo_inurba_marseille","lat":43.284462,"lon":5.392121,"is_reserved":false,"is_disabled":false,"rental_uris":{"android":"levelo://app?vid=0e1b59c7-6372-4c28-9fe2-180c2f96cd32","ios":"levelo://app?vid=0e1b59c7-6372-4c28-9fe2-180c2f96cd32"},"vehicle_type_id":"4","last_reported":1721059803,"current_range_meters":1600,"station_id":"ce4bhoh2rcd13ifvqh5g","pricing_plan_id":"cebpf4jnsgd1na2vs0mg"},{"bike_id":"9d448e89-224a-4c07-8acd-7c6589b364d8","system_id":"levelo_inurba_marseille","lat":43.28573,"lon":5.394992,"is_reserved":false,"is_disabled":false,"rental_uris":{"android":"levelo://app?vid=9d448e89-224a-4c07-8acd-7c6589b364d8","ios":"levelo://app?vid=9d448e89-224a-4c07-8acd-7c6589b364d8"},"vehicle_type_id":"4","last_reported":1721059803,"current_range_meters":11200,"station_id":"ce4bh292rcd13ifvqdg0","pricing_plan_id":"cebpf4jnsgd1na2vs0mg"},{"bike_id":"fa154d49-0e30-479b-a648-0a0e23787a54","system_id":"levelo_inurba_marseille","lat":43.28573,"lon":5.394992,"is_reserved":false,"is_disabled":false,"rental_uris":{"android":"levelo://app?vid=fa154d49-0e30-479b-a648-0a0e23787a54","ios":"levelo://app?vid=fa154d49-0e30-479b-a648-0a0e23787a54"},"vehicle_type_id":"4","last_reported":1721059803,"current_range_meters":14800,"station_id":"ce4bh292rcd13ifvqdg0","pricing_plan_id":"cebpf4jnsgd1na2vs0mg"},