{"last_updated":1727151074,"ttl":60,"version":"2.2","data":{"bikes":[{"bike_id":"bbfa97ea-c71b-4351-9719-b623995a686d","system_id":"levelo_inurba_marseille","lat":43.25818,"lon":5.3943,"is_reserved":false,"is_disabled":false,"rental_uris":{"android":"levelo://app?vid=bbfa97ea-c71b-4351-9719-b623995a686d","ios":"levelo://app?vid=bbfa97ea-c71b-4351-9719-b623995a686d"},"vehicle_type_id":"4","last_reported":1727151074,"current_range_meters":38800,"station_id":"ce4bhip2rcd13ifvqft0","pricing_plan_id":"cebpf4jnsgd1na2vs0mg"},{"bike_id":"94974735-9e09-4ce4-8c77-f4714a151daf","system_id":"levelo_inurba_marseille","lat":43.22929,"lon":5.35379,"is_reserved":false,"is_disabled":false,"rental_uris":{"android":"levelo://app?vid=94974735-9e09-4ce4-8c77-f4714a151daf","ios":"levelo://app?vid=94974735-9e09-4ce4-8c77-f4714a151daf"},"vehicle_type_id":"4","last_reported":1727151074,"current_range_meters":38000,"station_id":"cpo3532slgdg3j2ikp40","pricing_plan_id":"cebpf4jnsgd1na2vs0mg"},{"bike_id":"48d74e1c-4dc9-4aac-b728-815e0469e578","system_id":"levelo_inurba_marseille","lat":43.3169,"lon":5.40467,"is_reserved":false,"is_disabled":false,"rental_uris":{"android":"levelo://app?vid=48d74e1c-4dc9-4aac-b728-815e0469e578","ios":"levelo://app?vid=48d74e1c-4dc9-4aac-b728-815e0469e578"},"vehicle_type_id":"4","last_reported":1727151074,"current_range_meters":38800,"station_id":"ce4bh012rcd13ifvqd00","pricing_plan_id":"cebpf4jnsgd1na2vs0mg"},{"bike_id":"b256f32c-a013-4b39-a506-034fbfb612d8","system_id":"levelo_inurba_marseille","lat":43.25086,"lon":5.39514,"is_reserved":false,"is_disabled":false,"rental_uris":{"android":"levelo://app?vid=b256f32c-a013-4b39-a506-034fbfb612d8","ios":"levelo://app?vid=b256f32c-a013-4b39-a506-034fbfb612d8"},"vehicle_type_id":"4","last_reported":1727151074,"current_range_meters":39200,"station_id":"ce4bhm12rcd13ifvqgkg","pricing_plan_id":"cebpf4jnsgd1na2vs0mg"},{"bike_id":"fc29a7d7-2f58-41fa-b8e2-57f45a480aef","system_id":"levelo_inurba_marseille","lat":43.30522,"lon":5.38438,"is_reserved":false,"is_disabled":false,"rental_uris":{"android":"levelo://app?vid=fc29a7d7-2f58-41fa-b8e2-57f45a480aef","ios":"levelo://app?vid=fc29a7d7-2f58-41fa-b8e2-57f45a480aef"},"vehicle_type_id":"4","last_reported":1727151074,"current_range_meters":38000,"station_id":"ce4bgg92rcd13ifvqb30","pricing_plan_id":"cebpf4jnsgd1na2vs0mg"},{"bike_id":"5d3d257f-bb51-4bce-a465-c8d6a178e971","system_id":"levelo_inurba_marseille","lat":43.326635,"lon":5.409845,"is_reserved":false,"is_disabled":false,"rental_uris":{"android":"levelo://app?vid=5d3d257f-bb51-4bce-a465-c8d6a178e971","ios":"levelo://app?vid=5d3d257f-bb51-4bce-a465-c8d6a178e971"},"vehicle_type_id":"4","last_reported":1727151074,"current_range_meters":38000,"station_id":"ce4bhpp2rcd13ifvqhgg","pricing_plan_id":"cebpf4jnsgd1na2vs0mg"},{"bike_id":"3701641d-c7cf-492f-be88-2036e8df10fa","system_id":"levelo_inurba_marseille","lat":43.26549,"lon":5.37296,"is_reserved":false,"is_disabled":false,"rental_uris":{"android":"levelo://app?vid=3701641d-c7cf-492f-be88-2036e8df10fa","ios":"levelo://app?vid=3701641d-c7cf-492f-be88-2036e8df10fa"},"vehicle_type_id":"4","last_reported":1727151074,"current_range_meters":38000,"station_id":"ce4bhg12rcd13ifvqf70","pricing_plan_id":"cebpf4jnsgd1na2vs0mg"},{"bike_id":"f83d7b8d-e20a-4970-b72d-5f7d90fcff91","system_id":"levelo_inurba_marseille","lat":43.30793,"lon":5.43526,"is_reserved":false,"is_disabled":false,"rental_uris":{"android":"levelo://app?vid=f83d7b8d-e20a-4970-b72d-5f7d90fcff91","ios":"levelo://app?vid=f83d7b8d-e20a-4970-b72d-5f7d90fcff91"},"vehicle_type_id":"4","last_reported":1727151074,"current_range_meters":38800,"station_id":"ce4bhph2rcd13ifvqheg","pricing_plan_id":"cebpf4jnsgd1na2vs0mg"},{"bike_id":"7695ab4f-0d38-44b7-9408-c57891c9c601","system_id":"levelo_inurba_marseille","lat":43.30885,"lon":5.3964,"is_reserved":false,"is_disabled":false,"rental_uris":{"android":"levelo://app?vid=7695ab4f-0d38-44b7-9408-c57891c9c601","ios":"levelo://app?vid=7695ab4f-0d38-44b7-9408-c57891c9c601"},"vehicle_type_id":"4","last_reported":1727151074,"current_range_meters":25600,"station_id":"ce4bh012rcd13ifvqcv0","pricing_plan_id":"cebpf4jnsgd1na2vs0mg"},{"bike_id":"d6aba790-dec1-40a9-8805-3c4dcf6b7583","system_id":"levelo_inurba_marseille","lat":43.29899,"lon":5.43672,"is_reserved":false,"is_disabled":false,"rental_uris":{"android":"levelo://app?vid=d6aba790-dec1-40a9-8805-3c4dcf6b7583","ios":"levelo://app?vid=d6aba790-dec1-40a9-8805-3c4dcf6b7583"},"vehicle_type_id":"4","last_reported":1727151074,"current_range_meters":38000,"station_id":"ce4bhpp2rcd13ifvqhfg","pricing_plan_id":"cebpf4jnsgd1na2vs0mg"},{"bike_id":"8406e185-05dc-46b9-8efb-ad047c36b390","system_id":"levelo_inurba_marseille","lat":43.29078,"lon":5.37165,"is_reserved":false,"is_disabled":false,"rental_uris":{"android":"levelo://app?vid=8406e185-05dc-46b9-8efb-ad047c36b390","ios":"levelo://app?vid=8406e185-05dc-46b9-8efb-ad047c36b390"},"vehicle_type_id":"4","last_reported":1727151074,"current_range_meters":38400,"station_id":"ce4bh5p2rcd13ifvqe4g","pricing_plan_id":"cebpf4jnsgd1na2vs0mg"},{"bike_id":"0f0d0618-e7fa-4257-98a1-625a1da3845f","system_id":"levelo_inurba_marseille","lat":43.30796,"lon":5.381637,"is_reserved":false,"is_disabled":false,"rental_uris":{"android":"levelo://app?vid=0f0d0618-e7fa-4257-98a1-625a1da3845f","ios":"levelo://app?vid=0f0d0618-e7fa-4257-98a1-625a1da3845f"},"vehicle_type_id":"4","last_reported":1727151074,"current_range_meters":38400,"station_id":"ce4bgt12rcd13ifvqce0","pricing_plan_id":"cebpf4jnsgd1na2vs0mg"},{"bike_id":"864d99b0-b677-42a4-8150-5375563f1b3e","system_id":"levelo_inurba_marseille","lat":43.31329,"lon":5.39689,"is_reserved":false,"is_disabled":false,"rental_uris":{"android":"levelo://app?vid=864d99b0-b677-42a4-8150-5375563f1b3e","ios":"levelo://app?vid=864d99b0-b677-42a4-8150-5375563f1b3e"},"vehicle_type_id":"4","last_reported":1727151074,"current_range_meters":38800,"station_id":"ce4bgvp2rcd13ifvqcu0","pricing_plan_id":"cebpf4jnsgd1na2vs0mg"},{"bike_id":"d487e4b8-86cb-4b1a-9198-f7495e1b804d","system_id":"levelo_inurba_marseille","lat":43.27175,"lon":5.40988,"is_reserved":false,"is_disabled":false,"rental_uris":{"android":"levelo://app?vid=d487e4b8-86cb-4b1a-9198-f7495e1b804d","ios":"levelo://app?vid=d487e4b8-86cb-4b1a-9198-f7495e1b804d"},"vehicle_type_id":"4","last_reported":1727151074,"current_range_meters":39200,"station_id":"ce4bhl12rcd13ifvqgf0","pricing_plan_id":"cebpf4jnsgd1na2vs0mg"},{"bike_id":"730b20c7-85f1-409a-8929-c0b70e6d893a","system_id":"levelo_inurba_marseille","lat":43.28463,"lon":5.35881,"is_reserved":false,"is_disabled":false,"rental_uris":{"android":"levelo://app?vid=730b20c7-85f1-409a-8929-c0b70e6d893a","ios":"levelo://app?vid=730b20c7-85f1-409a-8929-c0b70e6d893a"},"vehicle_type_id":"4","last_reported":1727151074,"current_range_meters":19200,"station_id":"ce4bhah2rcd13ifvqei0","pricing_plan_id":"cebpf4jnsgd1na2vs0mg"},{"bike_id":"fcf47451-3216-4db6-9637-3a1395a9c6b4","system_id":"levelo_inurba_marseille","lat":43.317084,"lon":5.437071,"is_reserved":false,"is_disabled":false,"rental_uris":{"android":"levelo://app?vid=fcf47451-3216-4db6-9637-3a1395a9c6b4","ios":"levelo://app?vid=fcf47451-3216-4db6-9637-3a1395a9c6b4"},"vehicle_type_id":"4","last_reported":1727151074,"current_range_meters":8000,"station_id":"ce4bhp92rcd13ifvqhcg","pricing_plan_id":"cebpf4jnsgd1na2vs0mg"},{"bike_id":"93c4d747-f823-450a-adaa-be5c5880dce4","system_id":"levelo_inurba_marseille","lat":43.30646,"lon":5.40099,"is_reserved":false,"is_disabled":false,"rental_uris":{"android":"levelo://app?vid=93c4d747-f823-450a-adaa-be5c5880dce4","ios":"levelo://app?vid=93c4d747-f823-450a-adaa-be5c5880dce4"},"vehicle_type_id":"4","last_reported":1727151074,"current_range_meters":16800,"station_id":"ce4bh112rcd13ifvqda0","pricing_plan_id":"cebpf4jnsgd1na2vs0mg"},{"bike_id":"7bf1c671-f7bb-41f9-aef6-4d26b1a99fef","system_id":"levelo_inurba_marseille","lat":43.30795,"lon":5.38158,"is_reserved":false,"is_disabled":false,"rental_uris":{"android":"levelo://app?vid=7bf1c671-f7bb-41f9-aef6-4d26b1a99fef","ios":"levelo://app?vid=7bf1c671-f7bb-41f9-aef6-4d26b1a99fef"},"vehicle_type_id":"4","last_reported":1727151074,"current_range_meters":38400,"station_id":"ce4bgt12rcd13ifvqce0","pricing_plan_id":"cebpf4jnsgd1na2vs0mg"},{"bike_id":"191a366f-2003-44cb-8de0-ec36c92951e6","system_id":"levelo_inurba_marseille","lat":43.28703,"lon":5.39987,"is_reserved":false,"is_disabled":false,"rental_uris":{"android":"levelo://app?vid=191a366f-2003-44cb-8de0-ec36c92951e6","ios":"levelo://app?vid=191a366f-2003-44cb-8de0-ec36c92951e6"},"vehicle_type_id":"4","last_reported":1727151074,"current_range_meters":38000,"station_id":"ce4bho92rcd13ifvqh3g","pricing_plan_id":"cebpf4jnsgd1na2vs0mg"},{"bike_id":"1f015daa-7612-40f1-ba42-f2a4b2cf00bb","system_id":"levelo_inurba_marseille","lat":43.31712,"lon":5.37743,"is_reserved":false,"is_disabled":false,"rental_uris":{"android":"levelo://app?vid=1f015daa-7612-40f1-ba42-f2a4b2cf00bb","ios":"levelo://app?vid=1f015daa-7612-40f1-ba42-f2a4b2cf00bb"},"vehicle_type_id":"4","last_reported":1727151074,"current_range_meters":37600,"station_id":"ce4bgth2rcd13ifvqch0","pricing_plan_id":"cebpf4jnsgd1na2vs0mg"},{"bike_id":"87ac3b94-22f2-4e5e-948e-c6570dcb4bbe","system_id":"levelo_inurba_marseille","lat":43.30139,"lon":5.37426,"is_reserved":false,"is_disabled":false,"rental_uris":{"android":"levelo://app?vid=87ac3b94-22f2-4e5e-948e-c6570dcb4bbe","ios":"levelo://app?vid=87ac3b94-22f2-4e5e-948e-c6570dcb4bbe"},"vehicle_type_id":"4","last_reported":1727151074,"current_range_meters":38000,"station_id":"ce4bgs92rcd13ifvqcc0","pricing_plan_id":"cebpf4jnsgd1na2vs0mg"},{"bike_id":"7737b815-6daf-41f0-8354-4b28ba75917f","system_id":"levelo_inurba_marseille","lat":43.30173,"lon":5.39823,"is_reserved":false,"is_disabled":false,"rental_uris":{"android":"levelo://app?vid=7737b815-6daf-41f0-8354-4b28ba75917f","ios":"levelo://app?vid=7737b815-6daf-41f0-8354-4b28ba75917f"},"vehicle_type_id":"4","last_reported":1727151074,"current_range_meters":24800,"station_id":"ce4bgvp2rcd13ifvqct0","pricing_plan_id":"cebpf4jnsgd1na2vs0mg"},{"bike_id":"c2f60af7-36e0-4fa7-8620-b300d6213392","system_id":"levelo_inurba_marseille","lat":43.31762,"lon":5.39013,"is_reserved":false,"is_disabled":false,"rental_uris":{"android":"levelo://app?vid=c2f60af7-36e0-4fa7-8620-b300d6213392","ios":"levelo://app?vid=c2f60af7-36e0-4fa7-8620-b300d6213392"},"vehicle_type_id":"4","last_reported":1727151074,"current_range_meters":8800,"station_id":"ce4bhqp2rcd13ifvqhng","pricing_plan_id":"cebpf4jnsgd1na2vs0mg"},{"bike_id":"64edc76f-796a-4027-89f6-2b991873084a","system_id":"levelo_inurba_marseille","lat":43.29541,"lon":5.38547,"is_reserved":false,"is_disabled":false,"rental_uris":{"android":"levelo://app?vid=64edc76f-796a-4027-89f6-2b991873084a","ios":"levelo://app?vid=64edc76f-796a-4027-89f6-2b991873084a"},"vehicle_type_id":"4","last_reported":1727151074,"current_range_meters":22000,"station_id":"ce4bgih2rcd13ifvqba0","pricing_plan_id":"cebpf4jnsgd1na2vs0mg"},{"bike_id":"ed0ec5c0-56c8-4e39-9f13-d4f01fc10926","system_id":"levelo_inurba_marseille","lat":43.27061,"lon":5.40257,"is_reserved":false,"is_disabled":false,"rental_uris":{"android":"levelo://app?vid=ed0ec5c0-56c8-4e39-9f13-d4f01fc10926","ios":"levelo://app?vid=ed0ec5c0-56c8-4e39-9f13-d4f01fc10926"},"vehicle_type_id":"4","last_reported":1727151074,"current_range_meters":38800,"station_id":"ce4bhk92rcd13ifvqgc0","pricing_plan_id":"cebpf4jnsgd1na2vs0mg"},{"bike_id":"f82db474-37ba-4dc3-bb17-7e0fbb99593c","system_id":"levelo_inurba_marseille","lat":43.33601,"lon":5.41033,"is_reserved":false,"is_disabled":false,"rental_uris":{"android":"levelo://app?vid=f82db474-37ba-4dc3-bb17-7e0fbb99593c","ios":"levelo://app?vid=f82db474-37ba-4dc3-bb17-7e0fbb99593c"},"vehicle_type_id":"4","last_reported":1727151074,"current_range_meters":4000,"station_id":"ce4bhqh2rcd13ifvqhmg","pricing_plan_id":"cebpf4jnsgd1na2vs0mg"},{"bike_id":"d4af3188-051f-4a7d-a203-31b3728fca1e","system_id":"levelo_inurba_marseille","lat":43.27072,"lon":5.42283,"is_reserved":false,"is_disabled":false,"rental_uris":{"android":"levelo://app?vid=d4af3188-051f-4a7d-a203-31b3728fca1e","ios":"levelo://app?vid=d4af3188-051f-4a7d-a203-31b3728fca1e"},"vehicle_type_id":"4","last_reported":1727151074,"current_range_meters":37600,"station_id":"ce4bhk92rcd13ifvqgb0","pricing_plan_id":"cebpf4jnsgd1na2vs0mg"},{"bike_id":"c9514e59-20a0-4304-bfaa-df2671ef0c76","system_id":"levelo_inurba_marseille","lat":43.30783,"lon":5.37658,"is_reserved":false,"is_disabled":false,"rental_uris":{"android":"levelo://app?vid=c9514e59-20a0-4304-bfaa-df2671ef0c76","ios":"levelo://app?vid=c9514e59-20a0-4304-bfaa-df2671ef0c76"},"vehicle_type_id":"4","last_reported":1727151074,"current_range_meters":10800,"station_id":"ce4bgv92rcd13ifvqcq0","pricing_plan_id":"cebpf4jnsgd1na2vs0mg"},{"bike_id":"18f2c934-7a91-4893-af21-04349f1f5c0a","system_id":"levelo_inurba_marseille","lat":43.255757,"lon":5.382314,"is_reserved":false,"is_disabled":false,"rental_uris":{"android":"levelo://app?vid=18f2c934-7a91-4893-af21-04349f1f5c0a","ios":"levelo://app?vid=18f2c934-7a91-4893-af21-04349f1f5c0a"},"vehicle_type_id":"4","last_reported":1727151074,"current_range_meters":38400,"station_id":"ce4bhih2rcd13ifvqfs0","pricing_plan_id":"cebpf4jnsgd1na2vs0mg"},{"bike_id":"35ad9d26-95e4-4c4d-80b7-339933e32310","system_id":"levelo_inurba_marseille","lat":43.30291,"lon":5.39201,"is_reserved":false,"is_disabled":false,"rental_uris":{"android":"levelo://app?vid=35ad9d26-95e4-4c4d-80b7-339933e32310","ios":"levelo://app?vid=35ad9d26-95e4-4c4d-80b7-339933e32310"},"vehicle_type_id":"4","last_reported":1727151074,"current_range_meters":21600,"station_id":"ce4bgkh2rcd13ifvqbk0","pricing_plan_id":"cebpf4jnsgd1na2vs0mg"},{"bike_id":"10d0dd91-eb88-4aed-b979-361c847af7cd","system_id":"levelo_inurba_marseille","lat":43.23182,"lon":5.39991,"is_reserved":false,"is_disabled":false,"rental_uris":{"android":"levelo://app?vid=10d0dd91-eb88-4aed-b979-361c847af7cd","ios":"levelo://app?vid=10d0dd91-eb88-4aed-b979-361c847af7cd"},"vehicle_type_id":"4","last_reported":1727151074,"current_range_meters":38800,"station_id":"ce4bhn12rcd13ifvqgqg","pricing_plan_id":"cebpf4jnsgd1na2vs0mg"},{"bike_id":"5453ff63-c479-4c4f-90a6-2244bf56c8f3","system_id":"levelo_inurba_marseille","lat":43.270691,"lon":5.422798,"is_reserved":false,"is_disabled":false,"rental_uris":{"android":"levelo://app?vid=5453ff63-c479-4c4f-90a6-2244bf56c8f3","ios":"levelo://app?vid=5453ff63-c479-4c4f-90a6-2244bf56c8f3"},"vehicle_type_id":"4","last_reported":1727151074,"current_range_meters":38800,"station_id":"ce4bhk92rcd13ifvqgb0","pricing_plan_id":"cebpf4jnsgd1na2vs0mg"},{"bike_id":"ace55551-2e3d-42ff-bfbc-a8c57db53c9c","system_id":"levelo_inurba_marseille","lat":43.2455,"lon":5.395261,"is_reserved":false,"is_disabled":false,"rental_uris":{"android":"levelo://app?vid=ace55551-2e3d-42ff-bfbc-a8c57db53c9c","ios":"levelo://app?vid=ace55551-2e3d-42ff-bfbc-a8c57db53c9c"},"vehicle_type_id":"4","last_reported":1727151074,"current_range_meters":38800,"station_id":"ce4bhlp2rcd13ifvqgjg","pricing_plan_id":"cebpf4jnsgd1na2vs0mg"},{"bike_id":"76998b91-fc6a-47f0-af43-1ec2bd2fe92e","system_id":"levelo_inurba_marseille","lat":43.30526,"lon":5.36711,"is_reserved":false,"is_disabled":false,"rental_uris":{"android":"levelo://app?vid=76998b91-fc6a-47f0-af43-1ec2bd2fe92e","ios":"levelo://app?vid=76998b91-fc6a-47f0-af43-1ec2bd2fe92e"},"vehicle_type_id":"4","last_reported":1727151074,"current_range_meters":38000,"station_id":"ce4bgrp2rcd13ifvqc9g","pricing_plan_id":"cebpf4jnsgd1na2vs0mg"},{"bike_id":"85f83757-9fc2-4adf-8593-8c83434497ab","system_id":"levelo_inurba_marseille","lat":43.311726,"lon":5.387227,"is_reserved":false,"is_disabled":false,"rental_uris":{"android":"levelo://app?vid=85f83757-9fc2-4adf-8593-8c83434497ab","ios":"levelo://app?vid=85f83757-9fc2-4adf-8593-8c83434497ab"},"vehicle_type_id":"4","last_reported":1727151074,"current_range_meters":38000,"station_id":"ce4bgv12rcd13ifvqcp0","pricing_plan_id":"cebpf4jnsgd1na2vs0mg"},{"bike_id":"73c7c3b1-8fbf-4297-8b88-fb51a2df3db6","system_id":"levelo_inurba_marseille","lat":43.28667,"lon":5.36357,"is_reserved":false,"is_disabled":false,"rental_uris":{"android":"levelo://app?vid=73c7c3b1-8fbf-4297-8b88-fb51a2df3db6","ios":"levelo://app?vid=73c7c3b1-8fbf-4297-8b88-fb51a2df3db6"},"vehicle_type_id":"4","last_reported":1727151074,"current_range_meters":38800,"station_id":"ce4bhah2rcd13ifvqej0","pricing_plan_id":"cebpf4jnsgd1na2vs0mg"},{"bike_id":"7a8458d5-44ac-4f2e-abef-3f01eb31f7ca","system_id":"levelo_inurba_marseille","lat":43.337444,"lon":5.374475,"is_reserved":false,"is_disabled":false,"rental_uris":{"android":"levelo://app?vid=7a8458d5-44ac-4f2e-abef-3f01eb31f7ca","ios":"levelo://app?vid=7a8458d5-44ac-4f2e-abef-3f01eb31f7ca"},"vehicle_type_id":"4","last_reported":1727151074,"current_range_meters":23200,"station_id":"","pricing_plan_id":"cebpf4jnsgd1na2vs0mg"},{"bike_id":"f8a218ec-4d64-48b0-b874-597b3eefdaa7","system_id":"levelo_inurba_marseille","lat":43.27919,"lon":5.39584,"is_reserved":false,"is_disabled":false,"rental_uris":{"android":"levelo://app?vid=f8a218ec-4d64-48b0-b874-597b3eefdaa7","ios":"levelo://app?vid=f8a218ec-4d64-48b0-b874-597b3eefdaa7"},"vehicle_type_id":"4","last_reported":1727151074,"current_range_meters":35600,"station_id":"ce4bhf92rcd13ifvqf40","pricing_plan_id":"cebpf4jnsgd1na2vs0mg"},{"bike_id":"efd3dadc-51f9-4c8c-b027-3bac9ccc4326","system_id":"levelo_inurba_marseille","lat":43.26942,"lon":5.402608,"is_reserved":false,"is_disabled":false,"rental_uris":{"android":"levelo://app?vid=efd3dadc-51f9-4c8c-b027-3bac9ccc4326","ios":"levelo://app?vid=efd3dadc-51f9-4c8c-b027-3bac9ccc4326"},"vehicle_type_id":"4","last_reported":1727151074,"current_range_meters":39200,"station_id":"cjm6bp8fraef2m0cb0m0","pricing_plan_id":"cebpf4jnsgd1na2vs0mg"},{"bike_id":"59120132-0d1b-4df7-956d-b5edaf171752","system_id":"levelo_inurba_marseille","lat":43.287334,"lon":5.360871,"is_reserved":false,"is_disabled":false,"rental_uris":{"android":"levelo://app?vid=59120132-0d1b-4df7-956d-b5edaf171752","ios":"levelo://app?vid=59120132-0d1b-4df7-956d-b5edaf171752"},"vehicle_type_id":"4","last_reported":1727151074,"current_range_meters":38800,"station_id":"cki0cbj6b192h4jlfktg","pricing_plan_id":"cebpf4jnsgd1na2vs0mg"},{"bike_id":"3ee12fe8-50f5-45e4-ba8c-aef63c53aec5","system_id":"levelo_inurba_marseille","lat":43.28152,"lon":5.426458,"is_reserved":false,"is_disabled":false,"rental_uris":{"android":"levelo://app?vid=3ee12fe8-50f5-45e4-ba8c-aef63c53aec5","ios":"levelo://app?vid=3ee12fe8-50f5-45e4-ba8c-aef63c53aec5"},"vehicle_type_id":"4","last_reported":1727151074,"current_range_meters":9200,"station_id":"ce4bhnh2rcd13ifvqgug","pricing_plan_id":"cebpf4jnsgd1na2vs0mg"},{"bike_id":"72562af2-e7fa-40cf-b355-270acdae79c5","system_id":"levelo_inurba_marseille","lat":43.312264,"lon":5.368599,"is_reserved":false,"is_disabled":false,"rental_uris":{"android":"levelo://app?vid=72562af2-e7fa-40cf-b355-270acdae79c5","ios":"levelo://app?vid=72562af2-e7fa-40cf-b355-270acdae79c5"},"vehicle_type_id":"4","last_reported":1727151074,"current_range_meters":39200,"station_id":"ce4bgl92rcd13ifvqbq0","pricing_plan_id":"cebpf4jnsgd1na2vs0mg"},{"bike_id":"abd0aecc-ad36-4a06-8f1e-6a4e95800e7a","system_id":"levelo_inurba_marseille","lat":43.30654,"lon":5.40089,"is_reserved":false,"is_disabled":false,"rental_uris":{"android":"levelo://app?vid=abd0aecc-ad36-4a06-8f1e-6a4e95800e7a","ios":"levelo://app?vid=abd0aecc-ad36-4a06-8f1e-6a4e95800e7a"},"vehicle_type_id":"4","last_reported":1727151074,"current_range_meters":17200,"station_id":"ce4bh112rcd13ifvqda0","pricing_plan_id":"cebpf4jnsgd1na2vs0mg"},{"bike_id":"5716bec8-e285-41b4-9a20-3e2113a8cdae","system_id":"levelo_inurba_marseille","lat":43.32655,"lon":5.40993,"is_reserved":false,"is_disabled":false,"rental_uris":{"android":"levelo://app?vid=5716bec8-e285-41b4-9a20-3e2113a8cdae","ios":"levelo://app?vid=5716bec8-e285-41b4-9a20-3e2113a8cdae"},"vehicle_type_id":"4","last_reported":1727151074,"current_range_meters":38000,"station_id":"ce4bhpp2rcd13ifvqhgg","pricing_plan_id":"cebpf4jnsgd1na2vs0mg"},{"bike_id":"d2e11800-731d-4f05-945e-d6f43f64227b","system_id":"levelo_inurba_marseille","lat":43.31756,"lon":5.39012,"is_reserved":false,"is_disabled":false,"rental_uris":{"android":"levelo://app?vid=d2e11800-731d-4f05-945e-d6f43f64227b","ios":"levelo://app?vid=d2e11800-731d-4f05-945e-d6f43f64227b"},"vehicle_type_id":"4","last_reported":1727151074,"current_range_meters":37600,"station_id":"ce4bhqp2rcd13ifvqhng","pricing_plan_id":"cebpf4jnsgd1na2vs0mg"},{"bike_id":"fc6ea72e-5132-4dce-86c4-2ee0cda0d78c","system_id":"levelo_inurba_marseille","lat":43.2694,"lon":5.40258,"is_reserved":false,"is_disabled":false,"rental_uris":{"android":"levelo://app?vid=fc6ea72e-5132-4dce-86c4-2ee0cda0d78c","ios":"levelo://app?vid=fc6ea72e-5132-4dce-86c4-2ee0cda0d78c"},"vehicle_type_id":"4","last_reported":1727151074,"current_range_meters":39200,"station_id":"cjm6bp8fraef2m0cb0m0","pricing_plan_id":"cebpf4jnsgd1na2vs0mg"},{"bike_id":"d6e43c1a-c944-4649-ab41-a767e1bbb9f4","system_id":"levelo_inurba_marseille","lat":43.23962,"lon":5.36626,"is_reserved":false,"is_disabled":false,"rental_uris":{"android":"levelo://app?vid=d6e43c1a-c944-4649-ab41-a767e1bbb9f4","ios":"levelo://app?vid=d6e43c1a-c944-4649-ab41-a767e1bbb9f4"},"vehicle_type_id":"4","last_reported":1727151074,"current_range_meters":38800,"station_id":"ce4bhi12rcd13ifvqfp0","pricing_plan_id":"cebpf4jnsgd1na2vs0mg"},{"bike_id":"a1cf1190-5fcd-4f87-8a33-7c7c58a4f411","system_id":"levelo_inurba_marseille","lat":43.28709,"lon":5.39992,"is_reserved":false,"is_disabled":false,"rental_uris":{"android":"levelo://app?vid=a1cf1190-5fcd-4f87-8a33-7c7c58a4f411","ios":"levelo://app?vid=a1cf1190-5fcd-4f87-8a33-7c7c58a4f411"},"vehicle_type_id":"4","last_reported":1727151074,"current_range_meters":38400,"station_id":"ce4bho92rcd13ifvqh3g","pricing_plan_id":"cebpf4jnsgd1na2vs0mg"},{"bike_id":"5bdc8803-9d24-4b5f-a4ea-0c0786429dbf","system_id":"levelo_inurba_marseille","lat":43.31363,"lon":5.38506,"is_reserved":false,"is_disabled":false,"rental_uris":{"android":"levelo://app?vid=5bdc8803-9d24-4b5f-a4ea-0c0786429dbf","ios":"levelo://app?vid=5bdc8803-9d24-4b5f-a4ea-0c0786429dbf"},"vehicle_type_id":"4","last_reported":1727151074,"current_range_meters":24000,"station_id":"ce4bgt92rcd13ifvqcf0","pricing_plan_id":"cebpf4jnsgd1na2vs0mg"},{"bike_id":"3c4893d2-78f4-4df7-931a-79fd3b96c254","system_id":"levelo_inurba_marseille","lat":43.31123,"lon":5.37761,"is_reserved":false,"is_disabled":false,"rental_uris":{"android":"levelo://app?vid=3c4893d2-78f4-4df7-931a-79fd3b96c254","ios":"levelo://app?vid=3c4893d2-78f4-4df7-931a-79fd3b96c254"},"vehicle_type_id":"4","last_reported":1727151074,"current_range_meters":36400,"station_id":"ce4bgt92rcd13ifvqcg0","pricing_plan_id":"cebpf4jnsgd1na2vs0mg"},{"bike_id":"b35bb85c-ca25-475a-8cea-85fe6730e87d","system_id":"levelo_inurba_marseille","lat":43.28873,"lon":5.35972,"is_reserved":false,"is_disabled":false,"rental_uris":{"android":"levelo://app?vid=b35bb85c-ca25-475a-8cea-85fe6730e87d","ios":"levelo://app?vid=b35bb85c-ca25-475a-8cea-85fe6730e87d"},"vehicle_type_id":"4","last_reported":1727151074,"current_range_meters":24400,"station_id":"","pricing_plan_id":"cebpf4jnsgd1na2vs0mg"},{"bike_id":"c29db812-a2ba-4b10-8014-dfbcc2e5e72c","system_id":"levelo_inurba_marseille","lat":43.2601,"lon":5.3759,"is_reserved":false,"is_disabled":false,"rental_uris":{"android":"levelo://app?vid=c29db812-a2ba-4b10-8014-dfbcc2e5e72c","ios":"levelo://app?vid=c29db812-a2ba-4b10-8014-dfbcc2e5e72c"},"vehicle_type_id":"4","last_reported":1727151074,"current_range_meters":4800,"station_id":"ce4bhgh2rcd13ifvqfa0","pricing_plan_id":"cebpf4jnsgd1na2vs0mg"},{"bike_id":"84d759d4-ed5c-4ac2-89c5-734e6f035061","system_id":"levelo_inurba_marseille","lat":43.27949,"lon":5.41046,"is_reserved":false,"is_disabled":false,"rental_uris":{"android":"levelo://app?vid=84d759d4-ed5c-4ac2-89c5-734e6f035061","ios":"levelo://app?vid=84d759d4-ed5c-4ac2-89c5-734e6f035061"},"vehicle_type_id":"4","last_reported":1727151074,"current_range_meters":28400,"station_id":"ce4bhnp2rcd13ifvqh0g","pricing_plan_id":"cebpf4jnsgd1na2vs0mg"},{"bike_id":"ad36ff65-b3bb-4312-a51b-29c3aa4d7311","system_id":"levelo_inurba_marseille","lat":43.31065,"lon":5.383417,"is_reserved":false,"is_disabled":false,"rental_uris":{"android":"levelo://app?vid=ad36ff65-b3bb-4312-a51b-29c3aa4d7311","ios":"levelo://app?vid=ad36ff65-b3bb-4312-a51b-29c3aa4d7311"},"vehicle_type_id":"4","last_reported":1727151074,"current_range_meters":38400,"station_id":"ce4bgv92rcd13ifvqcr0","pricing_plan_id":"cebpf4jnsgd1na2vs0mg"},{"bike_id":"a96350b0-e046-4ee3-94b1-3eec7565aec6","system_id":"levelo_inurba_marseille","lat":43.29733,"lon":5.37686,"is_reserved":false,"is_disabled":false,"rental_uris":{"android":"levelo://app?vid=a96350b0-e046-4ee3-94b1-3eec7565aec6","ios":"levelo://app?vid=a96350b0-e046-4ee3-94b1-3eec7565aec6"},"vehicle_type_id":"4","last_reported":1727151074,"current_range_meters":38000,"station_id":"ce4bgkh2rcd13ifvqbl0","pricing_plan_id":"cebpf4jnsgd1na2vs0mg"},{"bike_id":"71f82c33-2a2c-45d4-a008-86ddaa99ab2b","system_id":"levelo_inurba_marseille","lat":43.26553,"lon":5.37278,"is_reserved":false,"is_disabled":false,"rental_uris":{"android":"levelo://app?vid=71f82c33-2a2c-45d4-a008-86ddaa99ab2b","ios":"levelo://app?vid=71f82c33-2a2c-45d4-a008-86ddaa99ab2b"},"vehicle_type_id":"4","last_reported":1727151074,"current_range_meters":38400,"station_id":"ce4bhg12rcd13ifvqf70","pricing_plan_id":"cebpf4jnsgd1na2vs0mg"},{"bike_id":"2293f450-0f6d-44db-aecf-f0280ec26142","system_id":"levelo_inurba_marseille","lat":43.24663,"lon":5.38157,"is_reserved":false,"is_disabled":false,"rental_uris":{"android":"levelo://app?vid=2293f450-0f6d-44db-aecf-f0280ec26142","ios":"levelo://app?vid=2293f450-0f6d-44db-aecf-f0280ec26142"},"vehicle_type_id":"4","last_reported":1727151074,"current_range_meters":38000,"station_id":"ce4bhih2rcd13ifvqfr0","pricing_plan_id":"cebpf4jnsgd1na2vs0mg"},{"bike_id":"d8a798e9-800a-4874-a4ec-ba85f35b4b7e","system_id":"levelo_inurba_marseille","lat":43.28728,"lon":5.36075,"is_reserved":false,"is_disabled":false,"rental_uris":{"android":"levelo://app?vid=d8a798e9-800a-4874-a4ec-ba85f35b4b7e","ios":"levelo://app?vid=d8a798e9-800a-4874-a4ec-ba85f35b4b7e"},"vehicle_type_id":"4","last_reported":1727151074,"current_range_meters":38800,"station_id":"cki0cbj6b192h4jlfktg","pricing_plan_id":"cebpf4jnsgd1na2vs0mg"},{"bike_id":"f36d171c-6700-4f01-b8a2-3052684ab51a","system_id":"levelo_inurba_marseille","lat":43.33024,"lon":5.39045,"is_reserved":false,"is_disabled":false,"rental_uris":{"android":"levelo://app?vid=f36d171c-6700-4f01-b8a2-3052684ab51a","ios":"levelo://app?vid=f36d171c-6700-4f01-b8a2-3052684ab51a"},"vehicle_type_id":"4","last_reported":1727151074,"current_range_meters":20400,"station_id":"ce4bhr92rcd13ifvqhrg","pricing_plan_id":"cebpf4jnsgd1na2vs0mg"},{"bike_id":"6a1fdcd8-1ca6-44c6-867c-ff21fcc82a88","system_id":"levelo_inurba_marseille","lat":43.29276,"lon":5.3686,"is_reserved":false,"is_disabled":false,"rental_uris":{"android":"levelo://app?vid=6a1fdcd8-1ca6-44c6-867c-ff21fcc82a88","ios":"levelo://app?vid=6a1fdcd8-1ca6-44c6-867c-ff21fcc82a88"},"vehicle_type_id":"4","last_reported":1727151074,"current_range_meters":27600,"station_id":"ce4bhbp2rcd13ifvqesg","pricing_plan_id":"cebpf4jnsgd1na2vs0mg"},{"bike_id":"b9462231-b28b-4741-9f1d-fd75df7fb71b","system_id":"levelo_inurba_marseille","lat":43.2846,"lon":5.35885,"is_reserved":false,"is_disabled":false,"rental_uris":{"android":"levelo://app?vid=b9462231-b28b-4741-9f1d-fd75df7fb71b","ios":"levelo://app?vid=b9462231-b28b-4741-9f1d-fd75df7fb71b"},"vehicle_type_id":"4","last_reported":1727151074,"current_range_meters":33600,"station_id":"ce4bhah2rcd13ifvqei0","pricing_plan_id":"cebpf4jnsgd1na2vs0mg"},{"bike_id":"3f97b505-0dd8-47ad-bd04-c1bd2da1c8ae","system_id":"levelo_inurba_marseille","lat":43.30104,"lon":5.39076,"is_reserved":false,"is_disabled":false,"rental_uris":{"android":"levelo://app?vid=3f97b505-0dd8-47ad-bd04-c1bd2da1c8ae","ios":"levelo://app?vid=3f97b505-0dd8-47ad-bd04-c1bd2da1c8ae"},"vehicle_type_id":"4","last_reported":1727151074,"current_range_meters":38000,"station_id":"ce4bh192rcd13ifvqdb0","pricing_plan_id":"cebpf4jnsgd1na2vs0mg"},{"bike_id":"b77b4bdc-1539-4968-b5fc-d44af8c914f8","system_id":"levelo_inurba_marseille","lat":43.287,"lon":5.37385,"is_reserved":false,"is_disabled":false,"rental_uris":{"android":"levelo://app?vid=b77b4bdc-1539-4968-b5fc-d44af8c914f8","ios":"levelo://app?vid=b77b4bdc-1539-4968-b5fc-d44af8c914f8"},"vehicle_type_id":"4","last_reported":1727151074,"current_range_meters":33600,"station_id":"ce4bh3p2rcd13ifvqdq0","pricing_plan_id":"cebpf4jnsgd1na2vs0mg"},{"bike_id":"cb783ce4-cf02-42ae-9678-ec1e0061ccc8","system_id":"levelo_inurba_marseille","lat":43.294416,"lon":5.397504,"is_reserved":false,"is_disabled":false,"rental_uris":{"android":"levelo://app?vid=cb783ce4-cf02-42ae-9678-ec1e0061ccc8","ios":"levelo://app?vid=cb783ce4-cf02-42ae-9678-ec1e0061ccc8"},"vehicle_type_id":"4","last_reported":1727151074,"current_range_meters":11200,"station_id":"ce4bh3h2rcd13ifvqdo0","pricing_plan_id":"cebpf4jnsgd1na2vs0mg"},{"bike_id":"92355fce-0a4a-46bb-9457-61ddba92394a","system_id":"levelo_inurba_marseille","lat":43.306381,"lon":5.400744,"is_reserved":false,"is_disabled":false,"rental_uris":{"android":"levelo://app?vid=92355fce-0a4a-46bb-9457-61ddba92394a","ios":"levelo://app?vid=92355fce-0a4a-46bb-9457-61ddba92394a"},"vehicle_type_id":"4","last_reported":1727151074,"current_range_meters":9200,"station_id":"ce4bh112rcd13ifvqda0","pricing_plan_id":"cebpf4jnsgd1na2vs0mg"},{"bike_id":"2789950b-8106-4a6a-87bf-0e8e1d9231a5","system_id":"levelo_inurba_marseille","lat":43.27915,"lon":5.39579,"is_reserved":false,"is_disabled":false,"rental_uris":{"android":"levelo://app?vid=2789950b-8106-4a6a-87bf-0e8e1d9231a5","ios":"levelo://app?vid=2789950b-8106-4a6a-87bf-0e8e1d9231a5"},"vehicle_type_id":"4","last_reported":1727151074,"current_range_meters":22800,"station_id":"ce4bhf92rcd13ifvqf40","pricing_plan_id":"cebpf4jnsgd1na2vs0mg"},{"bike_id":"a63dc36a-d2c9-4cb9-93ea-b8f3512f3f81","system_id":"levelo_inurba_marseille","lat":43.284402,"lon":5.391879,"is_reserved":false,"is_disabled":false,"rental_uris":{"android":"levelo://app?vid=a63dc36a-d2c9-4cb9-93ea-b8f3512f3f81","ios":"levelo://app?vid=a63dc36a-d2c9-4cb9-93ea-b8f3512f3f81"},"vehicle_type_id":"4","last_reported":1727151074,"current_range_meters":15200,"station_id":"ce4bhoh2rcd13ifvqh5g","pricing_plan_id":"cebpf4jnsgd1na2vs0mg"},{"bike_id":"3428a211-b552-46b5-8ee2-4285ac9fbfa3","system_id":"levelo_inurba_marseille","lat":43.28432,"lon":5.39192,"is_reserved":false,"is_disabled":false,"rental_uris":{"android":"levelo://app?vid=3428a211-b552-46b5-8ee2-4285ac9fbfa3","ios":"levelo://app?vid=3428a211-b552-46b5-8ee2-4285ac9fbfa3"},"vehicle_type_id":"4","last_reported":1727151074,"current_range_meters":38800,"station_id":"ce4bhoh2rcd13ifvqh5g","pricing_plan_id":"cebpf4jnsgd1na2vs0mg"},{"bike_id":"92ec2bec-4015-43b6-a0cf-d5622fe597b2","system_id":"levelo_inurba_marseille","lat":43.309568,"lon":5.390538,"is_reserved":false,"is_disabled":false,"rental_uris":{"android":"levelo://app?vid=92ec2bec-4015-43b6-a0cf-d5622fe597b2","ios":"levelo://app?vid=92ec2bec-4015-43b6-a0cf-d5622fe597b2"},"vehicle_type_id":"4","last_reported":1727151074,"current_range_meters":36400,"station_id":"ce4bgup2rcd13ifvqco0","pricing_plan_id":"cebpf4jnsgd1na2vs0mg"},{"bike_id":"cbc85ece-037d-42e3-95cb-db78da680d16","system_id":"levelo_inurba_marseille","lat":43.279195,"lon":5.395795,"is_reserved":false,"is_disabled":false,"rental_uris":{"android":"levelo://app?vid=cbc85ece-037d-42e3-95cb-db78da680d16","ios":"levelo://app?vid=cbc85ece-037d-42e3-95cb-db78da680d16"},"vehicle_type_id":"4","last_reported":1727151074,"current_range_meters":6400,"station_id":"ce4bhf92rcd13ifvqf40","pricing_plan_id":"cebpf4jnsgd1na2vs0mg"},{"bike_id":"06d6556a-8554-49df-bc14-567696228661","system_id":"levelo_inurba_marseille","lat":43.28944,"lon":5.36396,"is_reserved":false,"is_disabled":false,"rental_uris":{"android":"levelo://app?vid=06d6556a-8554-49df-bc14-567696228661","ios":"levelo://app?vid=06d6556a-8554-49df-bc14-567696228661"},"vehicle_type_id":"4","last_reported":1727151074,"current_range_meters":17600,"station_id":"ce4bhc92rcd13ifvqetg","pricing_plan_id":"cebpf4jnsgd1na2vs0mg"},{"bike_id":"6ef0d495-5ec1-45da-b955-2835139d91dd","system_id":"levelo_inurba_marseille","lat":43.281516,"lon":5.426383,"is_reserved":false,"is_disabled":false,"rental_uris":{"android":"levelo://app?vid=6ef0d495-5ec1-45da-b955-2835139d91dd","ios":"levelo://app?vid=6ef0d495-5ec1-45da-b955-2835139d91dd"},"vehicle_type_id":"4","last_reported":1727151074,"current_range_meters":38400,"station_id":"ce4bhnh2rcd13ifvqgug","pricing_plan_id":"cebpf4jnsgd1na2vs0mg"},{"bike_id":"bfba81d9-d5af-433c-aa3b-e2116b3106ef","system_id":"levelo_inurba_marseille","lat":43.306885,"lon":5.382782,"is_reserved":false,"is_disabled":false,"rental_uris":{"android":"levelo://app?vid=bfba81d9-d5af-433c-aa3b-e2116b3106ef","ios":"levelo://app?vid=bfba81d9-d5af-433c-aa3b-e2116b3106ef"},"vehicle_type_id":"4","last_reported":1727151074,"current_range_meters":38400,"station_id":"ce4bh0h2rcd13ifvqd40","pricing_plan_id":"cebpf4jnsgd1na2vs0mg"},{"bike_id":"84027b50-8630-4c01-9999-f2535bd4a0c7","system_id":"levelo_inurba_marseille","lat":43.23181,"lon":5.39985,"is_reserved":false,"is_disabled":false,"rental_uris":{"android":"levelo://app?vid=84027b50-8630-4c01-9999-f2535bd4a0c7","ios":"levelo://app?vid=84027b50-8630-4c01-9999-f2535bd4a0c7"},"vehicle_type_id":"4","last_reported":1727151074,"current_range_meters":38000,"station_id":"ce4bhn12rcd13ifvqgqg","pricing_plan_id":"cebpf4jnsgd1na2vs0mg"},{"bike_id":"a8465b78-4bdc-43ec-b617-2c4f457af207","system_id":"levelo_inurba_marseille","lat":43.30884,"lon":5.39644,"is_reserved":false,"is_disabled":false,"rental_uris":{"android":"levelo://app?vid=a8465b78-4bdc-43ec-b617-2c4f457af207","ios":"levelo://app?vid=a8465b78-4bdc-43ec-b617-2c4f457af207"},"vehicle_type_id":"4","last_reported":1727151074,"current_range_meters":28400,"station_id":"ce4bh012rcd13ifvqcv0","pricing_plan_id":"cebpf4jnsgd1na2vs0mg"},{"bike_id":"a578be38-e360-4614-972e-bddd8629f052","system_id":"levelo_inurba_marseille","lat":43.337444,"lon":5.374475,"is_reserved":false,"is_disabled":false,"rental_uris":{"android":"levelo://app?vid=a578be38-e360-4614-972e-bddd8629f052","ios":"levelo://app?vid=a578be38-e360-4614-972e-bddd8629f052"},"vehicle_type_id":"4","last_reported":1727151074,"current_range_meters":20400,"station_id":"","pricing_plan_id":"cebpf4jnsgd1na2vs0mg"},{"bike_id":"56634c4e-eadf-440a-bf17-abd9a0ef3a03","system_id":"levelo_inurba_marseille","lat":43.25003,"lon":5.38934,"is_reserved":false,"is_disabled":false,"rental_uris":{"android":"levelo://app?vid=56634c4e-eadf-440a-bf17-abd9a0ef3a03","ios":"levelo://app?vid=56634c4e-eadf-440a-bf17-abd9a0ef3a03"},"vehicle_type_id":"4","last_reported":1727151074,"current_range_meters":36800,"station_id":"ce4bhgp2rcd13ifvqfd0","pricing_plan_id":"cebpf4jnsgd1na2vs0mg"},{"bike_id":"e4c62ae6-7af3-45e1-84ee-8a8432e7ee40","system_id":"levelo_inurba_marseille","lat":43.28721,"lon":5.36079,"is_reserved":false,"is_disabled":false,"rental_uris":{"android":"levelo://app?vid=e4c62ae6-7af3-45e1-84ee-8a8432e7ee40","ios":"levelo://app?vid=e4c62ae6-7af3-45e1-84ee-8a8432e7ee40"},"vehicle_type_id":"4","last_reported":1727151074,"current_range_meters":36400,"station_id":"cki0cbj6b192h4jlfktg","pricing_plan_id":"cebpf4jnsgd1na2vs0mg"},{"bike_id":"1cf9c6ad-a18e-4581-966a-e4580ac983e8","system_id":"levelo_inurba_marseille","lat":43.30138,"lon":5.38055,"is_reserved":false,"is_disabled":false,"rental_uris":{"android":"levelo://app?vid=1cf9c6ad-a18e-4581-966a-e4580ac983e8","ios":"levelo://app?vid=1cf9c6ad-a18e-4581-966a-e4580ac983e8"},"vehicle_type_id":"4","last_reported":1727151074,"current_range_meters":37600,"station_id":"ce4bgjp2rcd13ifvqbh0","pricing_plan_id":"cebpf4jnsgd1na2vs0mg"},{"bike_id":"96e36fd3-410b-4a46-b885-e2bd25bb6240","system_id":"levelo_inurba_marseille","lat":43.29896,"lon":5.43665,"is_reserved":false,"is_disabled":false,"rental_uris":{"android":"levelo://app?vid=96e36fd3-410b-4a46-b885-e2bd25bb6240","ios":"levelo://app?vid=96e36fd3-410b-4a46-b885-e2bd25bb6240"},"vehicle_type_id":"4","last_reported":1727151074,"current_range_meters":27600,"station_id":"ce4bhpp2rcd13ifvqhfg","pricing_plan_id":"cebpf4jnsgd1na2vs0mg"},{"bike_id":"25bd7405-be80-4a77-a761-8a1efed52652","system_id":"levelo_inurba_marseille","lat":43.29899,"lon":5.43675,"is_reserved":false,"is_disabled":false,"rental_uris":{"android":"levelo://app?vid=25bd7405-be80-4a77-a761-8a1efed52652","ios":"levelo://app?vid=25bd7405-be80-4a77-a761-8a1efed52652"},"vehicle_type_id":"4","last_reported":1727151074,"current_range_meters":6800,"station_id":"ce4bhpp2rcd13ifvqhfg","pricing_plan_id":"cebpf4jnsgd1na2vs0mg"},{"bike_id":"a1938d63-c739-453e-bf42-5c9f1c2f6e15","system_id":"levelo_inurba_marseille","lat":43.28665,"lon":5.363543,"is_reserved":false,"is_disabled":false,"rental_uris":{"android":"levelo://app?vid=a1938d63-c739-453e-bf42-5c9f1c2f6e15","ios":"levelo://app?vid=a1938d63-c739-453e-bf42-5c9f1c2f6e15"},"vehicle_type_id":"4","last_reported":1727151074,"current_range_meters":38800,"station_id":"ce4bhah2rcd13ifvqej0","pricing_plan_id":"cebpf4jnsgd1na2vs0mg"},{"bike_id":"4cc50ab0-4c35-4eeb-949b-b29280b0979c","system_id":"levelo_inurba_marseille","lat":43.32366,"lon":5.38881,"is_reserved":false,"is_disabled":false,"rental_uris":{"android":"levelo://app?vid=4cc50ab0-4c35-4eeb-949b-b29280b0979c","ios":"levelo://app?vid=4cc50ab0-4c35-4eeb-949b-b29280b0979c"},"vehicle_type_id":"4","last_reported":1727151074,"current_range_meters":18000,"station_id":"ce4bhqp2rcd13ifvqhog","pricing_plan_id":"cebpf4jnsgd1na2vs0mg"},{"bike_id":"baa96de4-91ab-4758-8da2-37a2d53bacf4","system_id":"levelo_inurba_marseille","lat":43.31273,"lon":5.40175,"is_reserved":false,"is_disabled":false,"rental_uris":{"android":"levelo://app?vid=baa96de4-91ab-4758-8da2-37a2d53bacf4","ios":"levelo://app?vid=baa96de4-91ab-4758-8da2-37a2d53bacf4"},"vehicle_type_id":"4","last_reported":1727151074,"current_range_meters":39200,"station_id":"ce4bh092rcd13ifvqd30","pricing_plan_id":"cebpf4jnsgd1na2vs0mg"},{"bike_id":"95238561-42d4-4af0-9788-fdcf103a3fb4","system_id":"levelo_inurba_marseille","lat":43.31712,"lon":5.437,"is_reserved":false,"is_disabled":false,"rental_uris":{"android":"levelo://app?vid=95238561-42d4-4af0-9788-fdcf103a3fb4","ios":"levelo://app?vid=95238561-42d4-4af0-9788-fdcf103a3fb4"},"vehicle_type_id":"4","last_reported":1727151074,"current_range_meters":24000,"station_id":"ce4bhp92rcd13ifvqhcg","pricing_plan_id":"cebpf4jnsgd1na2vs0mg"},{"bike_id":"c9d6b1a5-d961-4b81-a8bf-58ac05ab5665","system_id":"levelo_inurba_marseille","lat":43.28151,"lon":5.42641,"is_reserved":false,"is_disabled":false,"rental_uris":{"android":"levelo://app?vid=c9d6b1a5-d961-4b81-a8bf-58ac05ab5665","ios":"levelo://app?vid=c9d6b1a5-d961-4b81-a8bf-58ac05ab5665"},"vehicle_type_id":"4","last_reported":1727151074,"current_range_meters":6800,"station_id":"ce4bhnh2rcd13ifvqgug","pricing_plan_id":"cebpf4jnsgd1na2vs0mg"},{"bike_id":"ddb86ca5-6d95-487d-ad04-648bfc65e3eb","system_id":"levelo_inurba_marseille","lat":43.28344,"lon":5.3811,"is_reserved":false,"is_disabled":false,"rental_uris":{"android":"levelo://app?vid=ddb86ca5-6d95-487d-ad04-648bfc65e3eb","ios":"levelo://app?vid=ddb86ca5-6d95-487d-ad04-648bfc65e3eb"},"vehicle_type_id":"4","last_reported":1727151074,"current_range_meters":38800,"station_id":"ce4bh412rcd13ifvqdr0","pricing_plan_id":"cebpf4jnsgd1na2vs0mg"},{"bike_id":"7e165e0a-bad5-4421-8c97-abc3436078ce","system_id":"levelo_inurba_marseille","lat":43.31121,"lon":5.37762,"is_reserved":false,"is_disabled":false,"rental_uris":{"android":"levelo://app?vid=7e165e0a-bad5-4421-8c97-abc3436078ce","ios":"levelo://app?vid=7e165e0a-bad5-4421-8c97-abc3436078ce"},"vehicle_type_id":"4","last_reported":1727151074,"current_range_meters":36000,"station_id":"ce4bgt92rcd13ifvqcg0","pricing_plan_id":"cebpf4jnsgd1na2vs0mg"},{"bike_id":"307b3e22-8fc2-45fb-a01e-f6962086fd40","system_id":"levelo_inurba_marseille","lat":43.23061,"lon":5.35494,"is_reserved":false,"is_disabled":false,"rental_uris":{"android":"levelo://app?vid=307b3e22-8fc2-45fb-a01e-f6962086fd40","ios":"levelo://app?vid=307b3e22-8fc2-45fb-a01e-f6962086fd40"},"vehicle_type_id":"4","last_reported":1727151074,"current_range_meters":38000,"station_id":"cpo3342slgdg3j2ifvpg","pricing_plan_id":"cebpf4jnsgd1na2vs0mg"},{"bike_id":"01ebd167-ee32-448c-bf22-83dd140990be","system_id":"levelo_inurba_marseille","lat":43.312236,"lon":5.368642,"is_reserved":false,"is_disabled":false,"rental_uris":{"android":"levelo://app?vid=01ebd167-ee32-448c-bf22-83dd140990be","ios":"levelo://app?vid=01ebd167-ee32-448c-bf22-83dd140990be"},"vehicle_type_id":"4","last_reported":1727151074,"current_range_meters":38000,"station_id":"ce4bgl92rcd13ifvqbq0","pricing_plan_id":"cebpf4jnsgd1na2vs0mg"},{"bike_id":"2822e6ac-d469-461d-9073-f0d027826cf6","system_id":"levelo_inurba_marseille","lat":43.29963,"lon":5.41327,"is_reserved":false,"is_disabled":false,"rental_uris":{"android":"levelo://app?vid=2822e6ac-d469-461d-9073-f0d027826cf6","ios":"levelo://app?vid=2822e6ac-d469-461d-9073-f0d027826cf6"},"vehicle_type_id":"4","last_reported":1727151074,"current_range_meters":38000,"station_id":"ce4bhp12rcd13ifvqh9g","pricing_plan_id":"cebpf4jnsgd1na2vs0mg"},{"bike_id":"343fe413-1f2e-492c-9a2f-1a54b7dff9ca","system_id":"levelo_inurba_marseille","lat":43.30883,"lon":5.39639,"is_reserved":false,"is_disabled":false,"rental_uris":{"android":"levelo://app?vid=343fe413-1f2e-492c-9a2f-1a54b7dff9ca","ios":"levelo://app?vid=343fe413-1f2e-492c-9a2f-1a54b7dff9ca"},"vehicle_type_id":"4","last_reported":1727151074,"current_range_meters":25200,"station_id":"ce4bh012rcd13ifvqcv0","pricing_plan_id":"cebpf4jnsgd1na2vs0mg"},{"bike_id":"ea9c3ff0-e5a7-44bb-bdef-ea1944380a1a","system_id":"levelo_inurba_marseille","lat":43.30295,"lon":5.39214,"is_reserved":false,"is_disabled":false,"rental_uris":{"android":"levelo://app?vid=ea9c3ff0-e5a7-44bb-bdef-ea1944380a1a","ios":"levelo://app?vid=ea9c3ff0-e5a7-44bb-bdef-ea1944380a1a"},"vehicle_type_id":"4","last_reported":1727151074,"current_range_meters":30800,"station_id":"ce4bgkh2rcd13ifvqbk0","pricing_plan_id":"cebpf4jnsgd1na2vs0mg"},{"bike_id":"a226c3eb-e995-4de8-b5b1-35e8402bae78","system_id":"levelo_inurba_marseille","lat":43.28378,"lon":5.38624,"is_reserved":false,"is_disabled":false,"rental_uris":{"android":"levelo://app?vid=a226c3eb-e995-4de8-b5b1-35e8402bae78","ios":"levelo://app?vid=a226c3eb-e995-4de8-b5b1-35e8402bae78"},"vehicle_type_id":"4","last_reported":1727151074,"current_range_meters":35600,"station_id":"ce4bh492rcd13ifvqdvg","pricing_plan_id":"cebpf4jnsgd1na2vs0mg"},{"bike_id":"e18843fb-099b-44bc-9b51-164320611449","system_id":"levelo_inurba_marseille","lat":43.23966,"lon":5.36625,"is_reserved":false,"is_disabled":false,"rental_uris":{"android":"levelo://app?vid=e18843fb-099b-44bc-9b51-164320611449","ios":"levelo://app?vid=e18843fb-099b-44bc-9b51-164320611449"},"vehicle_type_id":"4","last_reported":1727151074,"current_range_meters":38000,"station_id":"ce4bhi12rcd13ifvqfp0","pricing_plan_id":"cebpf4jnsgd1na2vs0mg"},{"bike_id":"a3451001-4b97-4044-b8bf-f11dbdd3e1a5","system_id":"levelo_inurba_marseille","lat":43.28921,"lon":5.38399,"is_reserved":false,"is_disabled":false,"rental_uris":{"android":"levelo://app?vid=a3451001-4b97-4044-b8bf-f11dbdd3e1a5","ios":"levelo://app?vid=a3451001-4b97-4044-b8bf-f11dbdd3e1a5"},"vehicle_type_id":"4","last_reported":1727151074,"current_range_meters":38800,"station_id":"ce4bh612rcd13ifvqe6g","pricing_plan_id":"cebpf4jnsgd1na2vs0mg"},{"bike_id":"438f9c4d-18a5-4535-81fa-590c9bf690fb","system_id":"levelo_inurba_marseille","lat":43.31171,"lon":5.38717,"is_reserved":false,"is_disabled":false,"rental_uris":{"android":"levelo://app?vid=438f9c4d-18a5-4535-81fa-590c9bf690fb","ios":"levelo://app?vid=438f9c4d-18a5-4535-81fa-590c9bf690fb"},"vehicle_type_id":"4","last_reported":1727151074,"current_range_meters":22800,"station_id":"ce4bgv12rcd13ifvqcp0","pricing_plan_id":"cebpf4jnsgd1na2vs0mg"},{"bike_id":"0e88fd44-8741-4457-a9d0-f288ea223dd2","system_id":"levelo_inurba_marseille","lat":43.322898,"lon":5.382766,"is_reserved":false,"is_disabled":false,"rental_uris":{"android":"levelo://app?vid=0e88fd44-8741-4457-a9d0-f288ea223dd2","ios":"levelo://app?vid=0e88fd44-8741-4457-a9d0-f288ea223dd2"},"vehicle_type_id":"4","last_reported":1727151074,"current_range_meters":21600,"station_id":"ce4bhr12rcd13ifvqhqg","pricing_plan_id":"cebpf4jnsgd1na2vs0mg"},{"bike_id":"01328d1a-46e2-4abc-b12b-32bf41357606","system_id":"levelo_inurba_marseille","lat":43.30538,"lon":5.36718,"is_reserved":false,"is_disabled":false,"rental_uris":{"android":"levelo://app?vid=01328d1a-46e2-4abc-b12b-32bf41357606","ios":"levelo://app?vid=01328d1a-46e2-4abc-b12b-32bf41357606"},"vehicle_type_id":"4","last_reported":1727151074,"current_range_meters":28000,"station_id":"ce4bgrp2rcd13ifvqc9g","pricing_plan_id":"cebpf4jnsgd1na2vs0mg"},{"bike_id":"495c8f04-baa0-4d04-b6e9-fa5581cfae30","system_id":"levelo_inurba_marseille","lat":43.30142,"lon":5.38075,"is_reserved":false,"is_disabled":false,"rental_uris":{"android":"levelo://app?vid=495c8f04-baa0-4d04-b6e9-fa5581cfae30","ios":"levelo://app?vid=495c8f04-baa0-4d04-b6e9-fa5581cfae30"},"vehicle_type_id":"4","last_reported":1727151074,"current_range_meters":8400,"station_id":"ce4bgjp2rcd13ifvqbh0","pricing_plan_id":"cebpf4jnsgd1na2vs0mg"},{"bike_id":"b6959cae-270e-4aef-bdcf-f773ea5432fe","system_id":"levelo_inurba_marseille","lat":43.2925,"lon":5.40898,"is_reserved":false,"is_disabled":false,"rental_uris":{"android":"levelo://app?vid=b6959cae-270e-4aef-bdcf-f773ea5432fe","ios":"levelo://app?vid=b6959cae-270e-4aef-bdcf-f773ea5432fe"},"vehicle_type_id":"4","last_reported":1727151074,"current_range_meters":37600,"station_id":"ce4bh192rcd13ifvqdc0","pricing_plan_id":"cebpf4jnsgd1na2vs0mg"},{"bike_id":"7c94b87b-7fda-4880-aab6-8db5b0391247","system_id":"levelo_inurba_marseille","lat":43.267956,"lon":5.394113,"is_reserved":false,"is_disabled":false,"rental_uris":{"android":"levelo://app?vid=7c94b87b-7fda-4880-aab6-8db5b0391247","ios":"levelo://app?vid=7c94b87b-7fda-4880-aab6-8db5b0391247"},"vehicle_type_id":"4","last_reported":1727151074,"current_range_meters":37600,"station_id":"ce4bhh12rcd13ifvqfg0","pricing_plan_id":"cebpf4jnsgd1na2vs0mg"},{"bike_id":"12c200ed-d35a-43ce-8d6e-751cae72363b","system_id":"levelo_inurba_marseille","lat":43.325492,"lon":5.414487,"is_reserved":false,"is_disabled":false,"rental_uris":{"android":"levelo://app?vid=12c200ed-d35a-43ce-8d6e-751cae72363b","ios":"levelo://app?vid=12c200ed-d35a-43ce-8d6e-751cae72363b"},"vehicle_type_id":"4","last_reported":1727151074,"current_range_meters":20000,"station_id":"ce4bhq12rcd13ifvqhhg","pricing_plan_id":"cebpf4jnsgd1na2vs0mg"},{"bike_id":"8d3a1be7-bea0-4cb6-8cc0-eace0473690f","system_id":"levelo_inurba_marseille","lat":43.30555,"lon":5.37474,"is_reserved":false,"is_disabled":false,"rental_uris":{"android":"levelo://app?vid=8d3a1be7-bea0-4cb6-8cc0-eace0473690f","ios":"levelo://app?vid=8d3a1be7-bea0-4cb6-8cc0-eace0473690f"},"vehicle_type_id":"4","last_reported":1727151074,"current_range_meters":8800,"station_id":"","pricing_plan_id":"cebpf4jnsgd1na2vs0mg"},{"bike_id":"81de8ab1-b5a4-45b1-a6e5-b09896739547","system_id":"levelo_inurba_marseille","lat":43.239614,"lon":5.366349,"is_reserved":false,"is_disabled":false,"rental_uris":{"android":"levelo://app?vid=81de8ab1-b5a4-45b1-a6e5-b09896739547","ios":"levelo://app?vid=81de8ab1-b5a4-45b1-a6e5-b09896739547"},"vehicle_type_id":"4","last_reported":1727151074,"current_range_meters":38400,"station_id":"ce4bhi12rcd13ifvqfp0","pricing_plan_id":"cebpf4jnsgd1na2vs0mg"},{"bike_id":"74c10ef2-0d32-471a-b6d5-d4b3c56be885","system_id":"levelo_inurba_marseille","lat":43.27949,"lon":5.41054,"is_reserved":false,"is_disabled":false,"rental_uris":{"android":"levelo://app?vid=74c10ef2-0d32-471a-b6d5-d4b3c56be885","ios":"levelo://app?vid=74c10ef2-0d32-471a-b6d5-d4b3c56be885"},"vehicle_type_id":"4","last_reported":1727151074,"current_range_meters":38800,"station_id":"ce4bhnp2rcd13ifvqh0g","pricing_plan_id":"cebpf4jnsgd1na2vs0mg"},{"bike_id":"b4b73a42-5e1d-42dc-be09-8a21c1c723bc","system_id":"levelo_inurba_marseille","lat":43.28438,"lon":5.39192,"is_reserved":false,"is_disabled":false,"rental_uris":{"android":"levelo://app?vid=b4b73a42-5e1d-42dc-be09-8a21c1c723bc","ios":"levelo://app?vid=b4b73a42-5e1d-42dc-be09-8a21c1c723bc"},"vehicle_type_id":"4","last_reported":1727151074,"current_range_meters":34800,"station_id":"ce4bhoh2rcd13ifvqh5g","pricing_plan_id":"cebpf4jnsgd1na2vs0mg"},{"bike_id":"664c1492-4c06-4350-b400-91571a357f51","system_id":"levelo_inurba_marseille","lat":43.29841,"lon":5.36266,"is_reserved":false,"is_disabled":false,"rental_uris":{"android":"levelo://app?vid=664c1492-4c06-4350-b400-91571a357f51","ios":"levelo://app?vid=664c1492-4c06-4350-b400-91571a357f51"},"vehicle_type_id":"4","last_reported":1727151074,"current_range_meters":37600,"station_id":"ce4bgpp2rcd13ifvqc3g","pricing_plan_id":"cebpf4jnsgd1na2vs0mg"},{"bike_id":"40bbddd2-1bfa-4cb3-8590-fd4e0b0dd375","system_id":"levelo_inurba_marseille","lat":43.309573,"lon":5.390381,"is_reserved":false,"is_disabled":false,"rental_uris":{"android":"levelo://app?vid=40bbddd2-1bfa-4cb3-8590-fd4e0b0dd375","ios":"levelo://app?vid=40bbddd2-1bfa-4cb3-8590-fd4e0b0dd375"},"vehicle_type_id":"4","last_reported":1727151074,"current_range_meters":8000,"station_id":"ce4bgup2rcd13ifvqco0","pricing_plan_id":"cebpf4jnsgd1na2vs0mg"},{"bike_id":"8db77e1f-618a-4975-9251-dd06a340034e","system_id":"levelo_inurba_marseille","lat":43.22926,"lon":5.35379,"is_reserved":false,"is_disabled":false,"rental_uris":{"android":"levelo://app?vid=8db77e1f-618a-4975-9251-dd06a340034e","ios":"levelo://app?vid=8db77e1f-618a-4975-9251-dd06a340034e"},"vehicle_type_id":"4","last_reported":1727151074,"current_range_meters":38800,"station_id":"cpo3532slgdg3j2ikp40","pricing_plan_id":"cebpf4jnsgd1na2vs0mg"},{"bike_id":"e6caff0f-6548-44dd-b55c-018615586c7e","system_id":"levelo_inurba_marseille","lat":43.279665,"lon":5.38705,"is_reserved":false,"is_disabled":false,"rental_uris":{"android":"levelo://app?vid=e6caff0f-6548-44dd-b55c-018615586c7e","ios":"levelo://app?vid=e6caff0f-6548-44dd-b55c-018615586c7e"},"vehicle_type_id":"4","last_reported":1727151074,"current_range_meters":36800,"station_id":"ce4bhg12rcd13ifvqf80","pricing_plan_id":"cebpf4jnsgd1na2vs0mg"},{"bike_id":"df9f61ef-f48f-499d-8719-fc51fc692d24","system_id":"levelo_inurba_marseille","lat":43.260462,"lon":5.387,"is_reserved":false,"is_disabled":false,"rental_uris":{"android":"levelo://app?vid=df9f61ef-f48f-499d-8719-fc51fc692d24","ios":"levelo://app?vid=df9f61ef-f48f-499d-8719-fc51fc692d24"},"vehicle_type_id":"4","last_reported":1727151074,"current_range_meters":7200,"station_id":"","pricing_plan_id":"cebpf4jnsgd1na2vs0mg"},{"bike_id":"f26a7577-acb8-45b3-8592-08add5f13574","system_id":"levelo_inurba_marseille","lat":43.26495,"lon":5.39545,"is_reserved":false,"is_disabled":false,"rental_uris":{"android":"levelo://app?vid=f26a7577-acb8-45b3-8592-08add5f13574","ios":"levelo://app?vid=f26a7577-acb8-45b3-8592-08add5f13574"},"vehicle_type_id":"4","last_reported":1727151074,"current_range_meters":36400,"station_id":"ce4bhi12rcd13ifvqfq0","pricing_plan_id":"cebpf4jnsgd1na2vs0mg"},{"bike_id":"b041c27d-e268-4091-81e8-bfca63ca5811","system_id":"levelo_inurba_marseille","lat":43.280349,"lon":5.369542,"is_reserved":false,"is_disabled":false,"rental_uris":{"android":"levelo://app?vid=b041c27d-e268-4091-81e8-bfca63ca5811","ios":"levelo://app?vid=b041c27d-e268-4091-81e8-bfca63ca5811"},"vehicle_type_id":"4","last_reported":1727151074,"current_range_meters":38400,"station_id":"ce4bha12rcd13ifvqef0","pricing_plan_id":"cebpf4jnsgd1na2vs0mg"},{"bike_id":"78328d53-a946-4e18-9797-99097e21835a","system_id":"levelo_inurba_marseille","lat":43.28486,"lon":5.38556,"is_reserved":false,"is_disabled":false,"rental_uris":{"android":"levelo://app?vid=78328d53-a946-4e18-9797-99097e21835a","ios":"levelo://app?vid=78328d53-a946-4e18-9797-99097e21835a"},"vehicle_type_id":"4","last_reported":1727151074,"current_range_meters":34000,"station_id":"ce4bh8p2rcd13ifvqeb0","pricing_plan_id":"cebpf4jnsgd1na2vs0mg"},{"bike_id":"7ae9d0b1-af69-4a29-8dbe-c09b7725a707","system_id":"levelo_inurba_marseille","lat":43.24549,"lon":5.39525,"is_reserved":false,"is_disabled":false,"rental_uris":{"android":"levelo://app?vid=7ae9d0b1-af69-4a29-8dbe-c09b7725a707","ios":"levelo://app?vid=7ae9d0b1-af69-4a29-8dbe-c09b7725a707"},"vehicle_type_id":"4","last_reported":1727151074,"current_range_meters":8400,"station_id":"ce4bhlp2rcd13ifvqgjg","pricing_plan_id":"cebpf4jnsgd1na2vs0mg"},{"bike_id":"41c0667a-575e-40ad-ad8d-66669db010d5","system_id":"levelo_inurba_marseille","lat":43.28568,"lon":5.3951,"is_reserved":false,"is_disabled":false,"rental_uris":{"android":"levelo://app?vid=41c0667a-575e-40ad-ad8d-66669db010d5","ios":"levelo://app?vid=41c0667a-575e-40ad-ad8d-66669db010d5"},"vehicle_type_id":"4","last_reported":1727151074,"current_range_meters":38000,"station_id":"ce4bh292rcd13ifvqdg0","pricing_plan_id":"cebpf4jnsgd1na2vs0mg"},{"bike_id":"b8306c75-5036-4b49-8c60-88758b8aad18","system_id":"levelo_inurba_marseille","lat":43.29554,"lon":5.42287,"is_reserved":false,"is_disabled":false,"rental_uris":{"android":"levelo://app?vid=b8306c75-5036-4b49-8c60-88758b8aad18","ios":"levelo://app?vid=b8306c75-5036-4b49-8c60-88758b8aad18"},"vehicle_type_id":"4","last_reported":1727151074,"current_range_meters":24800,"station_id":"ce4bhph2rcd13ifvqhdg","pricing_plan_id":"cebpf4jnsgd1na2vs0mg"},{"bike_id":"1f9fd890-d3f8-4dd1-a967-a3c762e20629","system_id":"levelo_inurba_marseille","lat":43.30776,"lon":5.37647,"is_reserved":false,"is_disabled":false,"rental_uris":{"android":"levelo://app?vid=1f9fd890-d3f8-4dd1-a967-a3c762e20629","ios":"levelo://app?vid=1f9fd890-d3f8-4dd1-a967-a3c762e20629"},"vehicle_type_id":"4","last_reported":1727151074,"current_range_meters":39200,"station_id":"ce4bgv92rcd13ifvqcq0","pricing_plan_id":"cebpf4jnsgd1na2vs0mg"},{"bike_id":"0f20cebe-649d-468f-b5d5-5c4a01ffed12","system_id":"levelo_inurba_marseille","lat":43.27056,"lon":5.40268,"is_reserved":false,"is_disabled":false,"rental_uris":{"android":"levelo://app?vid=0f20cebe-649d-468f-b5d5-5c4a01ffed12","ios":"levelo://app?vid=0f20cebe-649d-468f-b5d5-5c4a01ffed12"},"vehicle_type_id":"4","last_reported":1727151074,"current_range_meters":35600,"station_id":"ce4bhk92rcd13ifvqgc0","pricing_plan_id":"cebpf4jnsgd1na2vs0mg"},{"bike_id":"776fcbba-2e15-41d1-9b08-dfa0d0d2c6df","system_id":"levelo_inurba_marseille","lat":43.267801,"lon":5.394199,"is_reserved":false,"is_disabled":false,"rental_uris":{"android":"levelo://app?vid=776fcbba-2e15-41d1-9b08-dfa0d0d2c6df","ios":"levelo://app?vid=776fcbba-2e15-41d1-9b08-dfa0d0d2c6df"},"vehicle_type_id":"4","last_reported":1727151074,"current_range_meters":38800,"station_id":"ce4bhh12rcd13ifvqfg0","pricing_plan_id":"cebpf4jnsgd1na2vs0mg"},{"bike_id":"bd9356a2-caa9-4401-86d4-8e6a85d729f7","system_id":"levelo_inurba_marseille","lat":43.28107,"lon":5.37848,"is_reserved":false,"is_disabled":false,"rental_uris":{"android":"levelo://app?vid=bd9356a2-caa9-4401-86d4-8e6a85d729f7","ios":"levelo://app?vid=bd9356a2-caa9-4401-86d4-8e6a85d729f7"},"vehicle_type_id":"4","last_reported":1727151074,"current_range_meters":37600,"station_id":"ce4bha12rcd13ifvqee0","pricing_plan_id":"cebpf4jnsgd1na2vs0mg"},{"bike_id":"ca233de6-e831-4cca-8c41-6a4798709a25","system_id":"levelo_inurba_marseille","lat":43.24544,"lon":5.39526,"is_reserved":false,"is_disabled":false,"rental_uris":{"android":"levelo://app?vid=ca233de6-e831-4cca-8c41-6a4798709a25","ios":"levelo://app?vid=ca233de6-e831-4cca-8c41-6a4798709a25"},"vehicle_type_id":"4","last_reported":1727151074,"current_range_meters":10000,"station_id":"ce4bhlp2rcd13ifvqgjg","pricing_plan_id":"cebpf4jnsgd1na2vs0mg"},{"bike_id":"1b66c3a4-2a0e-42e3-978a-c17a6f4098ae","system_id":"levelo_inurba_marseille","lat":43.31168,"lon":5.38727,"is_reserved":false,"is_disabled":false,"rental_uris":{"android":"levelo://app?vid=1b66c3a4-2a0e-42e3-978a-c17a6f4098ae","ios":"levelo://app?vid=1b66c3a4-2a0e-42e3-978a-c17a6f4098ae"},"vehicle_type_id":"4","last_reported":1727151074,"current_range_meters":38800,"station_id":"ce4bgv12rcd13ifvqcp0","pricing_plan_id":"cebpf4jnsgd1na2vs0mg"},{"bike_id":"c002018b-ccc5-4921-ae3a-43562e85b9f9","system_id":"levelo_inurba_marseille","lat":43.33029,"lon":5.39038,"is_reserved":false,"is_disabled":false,"rental_uris":{"android":"levelo://app?vid=c002018b-ccc5-4921-ae3a-43562e85b9f9","ios":"levelo://app?vid=c002018b-ccc5-4921-ae3a-43562e85b9f9"},"vehicle_type_id":"4","last_reported":1727151074,"current_range_meters":36800,"station_id":"ce4bhr92rcd13ifvqhrg","pricing_plan_id":"cebpf4jnsgd1na2vs0mg"},{"bike_id":"9e7e2207-a1eb-4638-b76f-851d66b23c43","system_id":"levelo_inurba_marseille","lat":43.31328,"lon":5.39687,"is_reserved":false,"is_disabled":false,"rental_uris":{"android":"levelo://app?vid=9e7e2207-a1eb-4638-b76f-851d66b23c43","ios":"levelo://app?vid=9e7e2207-a1eb-4638-b76f-851d66b23c43"},"vehicle_type_id":"4","last_reported":1727151074,"current_range_meters":28400,"station_id":"ce4bgvp2rcd13ifvqcu0","pricing_plan_id":"cebpf4jnsgd1na2vs0mg"},{"bike_id":"91f8ec86-51d5-4033-89b5-8e8d54d86bfd","system_id":"levelo_inurba_marseille","lat":43.28706,"lon":5.37387,"is_reserved":false,"is_disabled":false,"rental_uris":{"android":"levelo://app?vid=91f8ec86-51d5-4033-89b5-8e8d54d86bfd","ios":"levelo://app?vid=91f8ec86-51d5-4033-89b5-8e8d54d86bfd"},"vehicle_type_id":"4","last_reported":1727151074,"current_range_meters":38800,"station_id":"ce4bh3p2rcd13ifvqdq0","pricing_plan_id":"cebpf4jnsgd1na2vs0mg"},{"bike_id":"a782ad03-d0ad-4bce-817a-ef561ea570b7","system_id":"levelo_inurba_marseille","lat":43.26944,"lon":5.40256,"is_reserved":false,"is_disabled":false,"rental_uris":{"android":"levelo://app?vid=a782ad03-d0ad-4bce-817a-ef561ea570b7","ios":"levelo://app?vid=a782ad03-d0ad-4bce-817a-ef561ea570b7"},"vehicle_type_id":"4","last_reported":1727151074,"current_range_meters":38800,"station_id":"cjm6bp8fraef2m0cb0m0","pricing_plan_id":"cebpf4jnsgd1na2vs0mg"},{"bike_id":"43d7e292-5c33-4710-a403-c021af62c0bd","system_id":"levelo_inurba_marseille","lat":43.301887,"lon":5.366089,"is_reserved":false,"is_disabled":false,"rental_uris":{"android":"levelo://app?vid=43d7e292-5c33-4710-a403-c021af62c0bd","ios":"levelo://app?vid=43d7e292-5c33-4710-a403-c021af62c0bd"},"vehicle_type_id":"4","last_reported":1727151074,"current_range_meters":38800,"station_id":"ce4bgrh2rcd13ifvqc8g","pricing_plan_id":"cebpf4jnsgd1na2vs0mg"},{"bike_id":"9105a1c6-5689-4913-8880-f33839dec522","system_id":"levelo_inurba_marseille","lat":43.30589,"lon":5.39356,"is_reserved":false,"is_disabled":false,"rental_uris":{"android":"levelo://app?vid=9105a1c6-5689-4913-8880-f33839dec522","ios":"levelo://app?vid=9105a1c6-5689-4913-8880-f33839dec522"},"vehicle_type_id":"4","last_reported":1727151074,"current_range_meters":37600,"station_id":"ce4bh0p2rcd13ifvqd80","pricing_plan_id":"cebpf4jnsgd1na2vs0mg"},{"bike_id":"8a96614c-f652-430c-861e-6b228d148ef2","system_id":"levelo_inurba_marseille","lat":43.23962,"lon":5.36638,"is_reserved":false,"is_disabled":false,"rental_uris":{"android":"levelo://app?vid=8a96614c-f652-430c-861e-6b228d148ef2","ios":"levelo://app?vid=8a96614c-f652-430c-861e-6b228d148ef2"},"vehicle_type_id":"4","last_reported":1727151074,"current_range_meters":39200,"station_id":"ce4bhi12rcd13ifvqfp0","pricing_plan_id":"cebpf4jnsgd1na2vs0mg"},{"bike_id":"b55de1ac-65ee-4022-871b-cb27256e2ad1","system_id":"levelo_inurba_marseille","lat":43.29556,"lon":5.42278,"is_reserved":false,"is_disabled":false,"rental_uris":{"android":"levelo://app?vid=b55de1ac-65ee-4022-871b-cb27256e2ad1","ios":"levelo://app?vid=b55de1ac-65ee-4022-871b-cb27256e2ad1"},"vehicle_type_id":"4","last_reported":1727151074,"current_range_meters":35200,"station_id":"ce4bhph2rcd13ifvqhdg","pricing_plan_id":"cebpf4jnsgd1na2vs0mg"},{"bike_id":"2aaee2fd-99c1-4a18-a57a-45dc854f9b4b","system_id":"levelo_inurba_marseille","lat":43.29789,"lon":5.39346,"is_reserved":false,"is_disabled":false,"rental_uris":{"android":"levelo://app?vid=2aaee2fd-99c1-4a18-a57a-45dc854f9b4b","ios":"levelo://app?vid=2aaee2fd-99c1-4a18-a57a-45dc854f9b4b"},"vehicle_type_id":"4","last_reported":1727151074,"current_range_meters":9200,"station_id":"chh1huq6cuj3fo74tm60","pricing_plan_id":"cebpf4jnsgd1na2vs0mg"},{"bike_id":"afa33294-09c0-4a09-beb2-53853c7531c4","system_id":"levelo_inurba_marseille","lat":43.26559,"lon":5.39008,"is_reserved":false,"is_disabled":false,"rental_uris":{"android":"levelo://app?vid=afa33294-09c0-4a09-beb2-53853c7531c4","ios":"levelo://app?vid=afa33294-09c0-4a09-beb2-53853c7531c4"},"vehicle_type_id":"4","last_reported":1727151074,"current_range_meters":38000,"station_id":"ce4bhe12rcd13ifvqf30","pricing_plan_id":"cebpf4jnsgd1na2vs0mg"},{"bike_id":"c0cf1373-7de1-4d9c-a579-601db506ebd3","system_id":"levelo_inurba_marseille","lat":43.24071,"lon":5.37766,"is_reserved":false,"is_disabled":false,"rental_uris":{"android":"levelo://app?vid=c0cf1373-7de1-4d9c-a579-601db506ebd3","ios":"levelo://app?vid=c0cf1373-7de1-4d9c-a579-601db506ebd3"},"vehicle_type_id":"4","last_reported":1727151074,"current_range_meters":17200,"station_id":"ce4bhnp2rcd13ifvqgvg","pricing_plan_id":"cebpf4jnsgd1na2vs0mg"},{"bike_id":"6bb02d48-7f3a-493d-9c9f-3e7a43b2933b","system_id":"levelo_inurba_marseille","lat":43.27185,"lon":5.40982,"is_reserved":false,"is_disabled":false,"rental_uris":{"android":"levelo://app?vid=6bb02d48-7f3a-493d-9c9f-3e7a43b2933b","ios":"levelo://app?vid=6bb02d48-7f3a-493d-9c9f-3e7a43b2933b"},"vehicle_type_id":"4","last_reported":1727151074,"current_range_meters":34800,"station_id":"ce4bhl12rcd13ifvqgf0","pricing_plan_id":"cebpf4jnsgd1na2vs0mg"},{"bike_id":"fef0f803-aa15-453c-baa2-1ed7cb89def6","system_id":"levelo_inurba_marseille","lat":43.26933,"lon":5.40255,"is_reserved":false,"is_disabled":false,"rental_uris":{"android":"levelo://app?vid=fef0f803-aa15-453c-baa2-1ed7cb89def6","ios":"levelo://app?vid=fef0f803-aa15-453c-baa2-1ed7cb89def6"},"vehicle_type_id":"4","last_reported":1727151074,"current_range_meters":32400,"station_id":"cjm6bp8fraef2m0cb0m0","pricing_plan_id":"cebpf4jnsgd1na2vs0mg"},{"bike_id":"ebec7cd5-5fed-46ce-abdb-3cd659f607ac","system_id":"levelo_inurba_marseille","lat":43.2955,"lon":5.42283,"is_reserved":false,"is_disabled":false,"rental_uris":{"android":"levelo://app?vid=ebec7cd5-5fed-46ce-abdb-3cd659f607ac","ios":"levelo://app?vid=ebec7cd5-5fed-46ce-abdb-3cd659f607ac"},"vehicle_type_id":"4","last_reported":1727151074,"current_range_meters":38800,"station_id":"ce4bhph2rcd13ifvqhdg","pricing_plan_id":"cebpf4jnsgd1na2vs0mg"},{"bike_id":"f5f55792-d5ff-4bd5-a816-4f366a1e85f8","system_id":"levelo_inurba_marseille","lat":43.308,"lon":5.38156,"is_reserved":false,"is_disabled":false,"rental_uris":{"android":"levelo://app?vid=f5f55792-d5ff-4bd5-a816-4f366a1e85f8","ios":"levelo://app?vid=f5f55792-d5ff-4bd5-a816-4f366a1e85f8"},"vehicle_type_id":"4","last_reported":1727151074,"current_range_meters":4000,"station_id":"ce4bgt12rcd13ifvqce0","pricing_plan_id":"cebpf4jnsgd1na2vs0mg"},{"bike_id":"4b1950aa-4eee-40b3-916b-8cb05cc3d034","system_id":"levelo_inurba_marseille","lat":43.26488,"lon":5.39549,"is_reserved":false,"is_disabled":false,"rental_uris":{"android":"levelo://app?vid=4b1950aa-4eee-40b3-916b-8cb05cc3d034","ios":"levelo://app?vid=4b1950aa-4eee-40b3-916b-8cb05cc3d034"},"vehicle_type_id":"4","last_reported":1727151074,"current_range_meters":38800,"station_id":"ce4bhi12rcd13ifvqfq0","pricing_plan_id":"cebpf4jnsgd1na2vs0mg"},{"bike_id":"d9ef50c8-7c6e-4274-8c10-b7a172e39d55","system_id":"levelo_inurba_marseille","lat":43.28427,"lon":5.39193,"is_reserved":false,"is_disabled":false,"rental_uris":{"android":"levelo://app?vid=d9ef50c8-7c6e-4274-8c10-b7a172e39d55","ios":"levelo://app?vid=d9ef50c8-7c6e-4274-8c10-b7a172e39d55"},"vehicle_type_id":"4","last_reported":1727151074,"current_range_meters":31200,"station_id":"ce4bhoh2rcd13ifvqh5g","pricing_plan_id":"cebpf4jnsgd1na2vs0mg"},{"bike_id":"775ab119-643c-4fc8-82c6-59850358e7a1","system_id":"levelo_inurba_marseille","lat":43.29023,"lon":5.37554,"is_reserved":false,"is_disabled":false,"rental_uris":{"android":"levelo://app?vid=775ab119-643c-4fc8-82c6-59850358e7a1","ios":"levelo://app?vid=775ab119-643c-4fc8-82c6-59850358e7a1"},"vehicle_type_id":"4","last_reported":1727151074,"current_range_meters":36400,"station_id":"ce4bh692rcd13ifvqe90","pricing_plan_id":"cebpf4jnsgd1na2vs0mg"},{"bike_id":"6d6065cc-15d1-48a2-aa33-8bac2101b02a","system_id":"levelo_inurba_marseille","lat":43.22929,"lon":5.35374,"is_reserved":false,"is_disabled":false,"rental_uris":{"android":"levelo://app?vid=6d6065cc-15d1-48a2-aa33-8bac2101b02a","ios":"levelo://app?vid=6d6065cc-15d1-48a2-aa33-8bac2101b02a"},"vehicle_type_id":"4","last_reported":1727151074,"current_range_meters":33200,"station_id":"cpo3532slgdg3j2ikp40","pricing_plan_id":"cebpf4jnsgd1na2vs0mg"},{"bike_id":"668eaf73-1d4c-47a6-b462-d485ec26c82a","system_id":"levelo_inurba_marseille","lat":43.294437,"lon":5.397468,"is_reserved":false,"is_disabled":false,"rental_uris":{"android":"levelo://app?vid=668eaf73-1d4c-47a6-b462-d485ec26c82a","ios":"levelo://app?vid=668eaf73-1d4c-47a6-b462-d485ec26c82a"},"vehicle_type_id":"4","last_reported":1727151074,"current_range_meters":38000,"station_id":"ce4bh3h2rcd13ifvqdo0","pricing_plan_id":"cebpf4jnsgd1na2vs0mg"},{"bike_id":"df5b38d2-64cb-4df0-856f-ea9bd22c082c","system_id":"levelo_inurba_marseille","lat":43.23191,"lon":5.35552,"is_reserved":false,"is_disabled":false,"rental_uris":{"android":"levelo://app?vid=df5b38d2-64cb-4df0-856f-ea9bd22c082c","ios":"levelo://app?vid=df5b38d2-64cb-4df0-856f-ea9bd22c082c"},"vehicle_type_id":"4","last_reported":1727151074,"current_range_meters":14400,"station_id":"ce4bhu92rcd13ifvqi70","pricing_plan_id":"cebpf4jnsgd1na2vs0mg"},{"bike_id":"85278139-5c0b-481b-8fd2-527544479022","system_id":"levelo_inurba_marseille","lat":43.29428,"lon":5.39746,"is_reserved":false,"is_disabled":false,"rental_uris":{"android":"levelo://app?vid=85278139-5c0b-481b-8fd2-527544479022","ios":"levelo://app?vid=85278139-5c0b-481b-8fd2-527544479022"},"vehicle_type_id":"4","last_reported":1727151074,"current_range_meters":39200,"station_id":"ce4bh3h2rcd13ifvqdo0","pricing_plan_id":"cebpf4jnsgd1na2vs0mg"},{"bike_id":"f09bc159-0021-4221-87b9-f49c764bf3b1","system_id":"levelo_inurba_marseille","lat":43.31502,"lon":5.37314,"is_reserved":false,"is_disabled":false,"rental_uris":{"android":"levelo://app?vid=f09bc159-0021-4221-87b9-f49c764bf3b1","ios":"levelo://app?vid=f09bc159-0021-4221-87b9-f49c764bf3b1"},"vehicle_type_id":"4","last_reported":1727151074,"current_range_meters":38400,"station_id":"ce4bgt12rcd13ifvqcd0","pricing_plan_id":"cebpf4jnsgd1na2vs0mg"},{"bike_id":"7e024933-d1b0-4dd0-a40c-32bc4bbdace7","system_id":"levelo_inurba_marseille","lat":43.31268,"lon":5.40162,"is_reserved":false,"is_disabled":false,"rental_uris":{"android":"levelo://app?vid=7e024933-d1b0-4dd0-a40c-32bc4bbdace7","ios":"levelo://app?vid=7e024933-d1b0-4dd0-a40c-32bc4bbdace7"},"vehicle_type_id":"4","last_reported":1727151074,"current_range_meters":8400,"station_id":"ce4bh092rcd13ifvqd30","pricing_plan_id":"cebpf4jnsgd1na2vs0mg"},{"bike_id":"5a766b00-4462-40f8-9e4b-82f2db187d96","system_id":"levelo_inurba_marseille","lat":43.27919,"lon":5.39578,"is_reserved":false,"is_disabled":false,"rental_uris":{"android":"levelo://app?vid=5a766b00-4462-40f8-9e4b-82f2db187d96","ios":"levelo://app?vid=5a766b00-4462-40f8-9e4b-82f2db187d96"},"vehicle_type_id":"4","last_reported":1727151074,"current_range_meters":14000,"station_id":"ce4bhf92rcd13ifvqf40","pricing_plan_id":"cebpf4jnsgd1na2vs0mg"},{"bike_id":"d4e8c407-f69f-4919-af93-89360b617653","system_id":"levelo_inurba_marseille","lat":43.30416,"lon":5.41284,"is_reserved":false,"is_disabled":false,"rental_uris":{"android":"levelo://app?vid=d4e8c407-f69f-4919-af93-89360b617653","ios":"levelo://app?vid=d4e8c407-f69f-4919-af93-89360b617653"},"vehicle_type_id":"4","last_reported":1727151074,"current_range_meters":10000,"station_id":"ce4bhop2rcd13ifvqh8g","pricing_plan_id":"cebpf4jnsgd1na2vs0mg"},{"bike_id":"cf5cb0a9-82e0-4a76-8ee4-0e5b8000efd6","system_id":"levelo_inurba_marseille","lat":43.2558,"lon":5.38233,"is_reserved":false,"is_disabled":false,"rental_uris":{"android":"levelo://app?vid=cf5cb0a9-82e0-4a76-8ee4-0e5b8000efd6","ios":"levelo://app?vid=cf5cb0a9-82e0-4a76-8ee4-0e5b8000efd6"},"vehicle_type_id":"4","last_reported":1727151074,"current_range_meters":39200,"station_id":"ce4bhih2rcd13ifvqfs0","pricing_plan_id":"cebpf4jnsgd1na2vs0mg"},{"bike_id":"241c43a9-dc38-45d2-9923-e1921626f9ba","system_id":"levelo_inurba_marseille","lat":43.28468,"lon":5.35888,"is_reserved":false,"is_disabled":false,"rental_uris":{"android":"levelo://app?vid=241c43a9-dc38-45d2-9923-e1921626f9ba","ios":"levelo://app?vid=241c43a9-dc38-45d2-9923-e1921626f9ba"},"vehicle_type_id":"4","last_reported":1727151074,"current_range_meters":28800,"station_id":"ce4bhah2rcd13ifvqei0","pricing_plan_id":"cebpf4jnsgd1na2vs0mg"},{"bike_id":"115757b6-eafa-4e2c-a73b-60a5d4121ae4","system_id":"levelo_inurba_marseille","lat":43.29189,"lon":5.35793,"is_reserved":false,"is_disabled":false,"rental_uris":{"android":"levelo://app?vid=115757b6-eafa-4e2c-a73b-60a5d4121ae4","ios":"levelo://app?vid=115757b6-eafa-4e2c-a73b-60a5d4121ae4"},"vehicle_type_id":"4","last_reported":1727151074,"current_range_meters":38800,"station_id":"ce4bhb12rcd13ifvqel0","pricing_plan_id":"cebpf4jnsgd1na2vs0mg"},{"bike_id":"9c642066-a00d-4ec1-8324-22d558c2cffe","system_id":"levelo_inurba_marseille","lat":43.3093,"lon":5.40156,"is_reserved":false,"is_disabled":false,"rental_uris":{"android":"levelo://app?vid=9c642066-a00d-4ec1-8324-22d558c2cffe","ios":"levelo://app?vid=9c642066-a00d-4ec1-8324-22d558c2cffe"},"vehicle_type_id":"4","last_reported":1727151074,"current_range_meters":38800,"station_id":"ce4bgvp2rcd13ifvqct0","pricing_plan_id":"cebpf4jnsgd1na2vs0mg"},{"bike_id":"2f0967f0-3e64-42be-a143-f9e4f9351932","system_id":"levelo_inurba_marseille","lat":43.282684,"lon":5.350611,"is_reserved":false,"is_disabled":false,"rental_uris":{"android":"levelo://app?vid=2f0967f0-3e64-42be-a143-f9e4f9351932","ios":"levelo://app?vid=2f0967f0-3e64-42be-a143-f9e4f9351932"},"vehicle_type_id":"4","last_reported":1727151074,"current_range_meters":24400,"station_id":"ce4bhbp2rcd13ifvqerg","pricing_plan_id":"cebpf4jnsgd1na2vs0mg"},{"bike_id":"6a7b76dd-fe81-411a-9a42-40a18a3da9df","system_id":"levelo_inurba_marseille","lat":43.28436,"lon":5.39183,"is_reserved":false,"is_disabled":false,"rental_uris":{"android":"levelo://app?vid=6a7b76dd-fe81-411a-9a42-40a18a3da9df","ios":"levelo://app?vid=6a7b76dd-fe81-411a-9a42-40a18a3da9df"},"vehicle_type_id":"4","last_reported":1727151074,"current_range_meters":28800,"station_id":"ce4bhoh2rcd13ifvqh5g","pricing_plan_id":"cebpf4jnsgd1na2vs0mg"},{"bike_id":"f3d59ae7-c2a4-41f1-a30b-574b3e2cbeb3","system_id":"levelo_inurba_marseille","lat":43.279936,"lon":5.416606,"is_reserved":false,"is_disabled":false,"rental_uris":{"android":"levelo://app?vid=f3d59ae7-c2a4-41f1-a30b-574b3e2cbeb3","ios":"levelo://app?vid=f3d59ae7-c2a4-41f1-a30b-574b3e2cbeb3"},"vehicle_type_id":"4","last_reported":1727151074,"current_range_meters":38800,"station_id":"ce4bho12rcd13ifvqh1g","pricing_plan_id":"cebpf4jnsgd1na2vs0mg"},{"bike_id":"2311b366-08a8-45c0-b1a0-46d8bceaf267","system_id":"levelo_inurba_marseille","lat":43.231921,"lon":5.355581,"is_reserved":false,"is_disabled":false,"rental_uris":{"android":"levelo://app?vid=2311b366-08a8-45c0-b1a0-46d8bceaf267","ios":"levelo://app?vid=2311b366-08a8-45c0-b1a0-46d8bceaf267"},"vehicle_type_id":"4","last_reported":1727151074,"current_range_meters":6800,"station_id":"ce4bhu92rcd13ifvqi70","pricing_plan_id":"cebpf4jnsgd1na2vs0mg"},{"bike_id":"0939306b-394d-40d9-a453-39f8fcd6b7d8","system_id":"levelo_inurba_marseille","lat":43.29562,"lon":5.42289,"is_reserved":false,"is_disabled":false,"rental_uris":{"android":"levelo://app?vid=0939306b-394d-40d9-a453-39f8fcd6b7d8","ios":"levelo://app?vid=0939306b-394d-40d9-a453-39f8fcd6b7d8"},"vehicle_type_id":"4","last_reported":1727151074,"current_range_meters":38800,"station_id":"ce4bhph2rcd13ifvqhdg","pricing_plan_id":"cebpf4jnsgd1na2vs0mg"},{"bike_id":"26395923-5013-43fc-b05f-94f6cc877699","system_id":"levelo_inurba_marseille","lat":43.23183,"lon":5.39986,"is_reserved":false,"is_disabled":false,"rental_uris":{"android":"levelo://app?vid=26395923-5013-43fc-b05f-94f6cc877699","ios":"levelo://app?vid=26395923-5013-43fc-b05f-94f6cc877699"},"vehicle_type_id":"4","last_reported":1727151074,"current_range_meters":10800,"station_id":"ce4bhn12rcd13ifvqgqg","pricing_plan_id":"cebpf4jnsgd1na2vs0mg"},{"bike_id":"268cbcce-206f-49b7-bb7d-4d1f6fa4b6be","system_id":"levelo_inurba_marseille","lat":43.316986,"lon":5.404577,"is_reserved":false,"is_disabled":false,"rental_uris":{"android":"levelo://app?vid=268cbcce-206f-49b7-bb7d-4d1f6fa4b6be","ios":"levelo://app?vid=268cbcce-206f-49b7-bb7d-4d1f6fa4b6be"},"vehicle_type_id":"4","last_reported":1727151074,"current_range_meters":36000,"station_id":"ce4bh012rcd13ifvqd00","pricing_plan_id":"cebpf4jnsgd1na2vs0mg"},{"bike_id":"bd34857c-05c8-4b59-ac7a-cf9eb7957ae4","system_id":"levelo_inurba_marseille","lat":43.288435,"lon":5.358485,"is_reserved":false,"is_disabled":false,"rental_uris":{"android":"levelo://app?vid=bd34857c-05c8-4b59-ac7a-cf9eb7957ae4","ios":"levelo://app?vid=bd34857c-05c8-4b59-ac7a-cf9eb7957ae4"},"vehicle_type_id":"4","last_reported":1727151074,"current_range_meters":27600,"station_id":"ce4bhb12rcd13ifvqem0","pricing_plan_id":"cebpf4jnsgd1na2vs0mg"},{"bike_id":"0ff7aaf4-b18a-47cc-ba55-f23a50841812","system_id":"levelo_inurba_marseille","lat":43.341486,"lon":5.409093,"is_reserved":false,"is_disabled":false,"rental_uris":{"android":"levelo://app?vid=0ff7aaf4-b18a-47cc-ba55-f23a50841812","ios":"levelo://app?vid=0ff7aaf4-b18a-47cc-ba55-f23a50841812"},"vehicle_type_id":"4","last_reported":1727151074,"current_range_meters":38800,"station_id":"ce4bhqh2rcd13ifvqhlg","pricing_plan_id":"cebpf4jnsgd1na2vs0mg"},{"bike_id":"64051b3b-0df0-4b66-a432-1afbff58364a","system_id":"levelo_inurba_marseille","lat":43.31275,"lon":5.40177,"is_reserved":false,"is_disabled":false,"rental_uris":{"android":"levelo://app?vid=64051b3b-0df0-4b66-a432-1afbff58364a","ios":"levelo://app?vid=64051b3b-0df0-4b66-a432-1afbff58364a"},"vehicle_type_id":"4","last_reported":1727151074,"current_range_meters":33200,"station_id":"ce4bh092rcd13ifvqd30","pricing_plan_id":"cebpf4jnsgd1na2vs0mg"},{"bike_id":"a1c765fc-968a-4334-baa0-5540774c6b65","system_id":"levelo_inurba_marseille","lat":43.29797,"lon":5.40405,"is_reserved":false,"is_disabled":false,"rental_uris":{"android":"levelo://app?vid=a1c765fc-968a-4334-baa0-5540774c6b65","ios":"levelo://app?vid=a1c765fc-968a-4334-baa0-5540774c6b65"},"vehicle_type_id":"4","last_reported":1727151074,"current_range_meters":28400,"station_id":"ce4bh112rcd13ifvqd90","pricing_plan_id":"cebpf4jnsgd1na2vs0mg"},{"bike_id":"4642e3fd-ecc5-495b-a882-d65cdd9365ec","system_id":"levelo_inurba_marseille","lat":43.303512,"lon":5.418732,"is_reserved":false,"is_disabled":false,"rental_uris":{"android":"levelo://app?vid=4642e3fd-ecc5-495b-a882-d65cdd9365ec","ios":"levelo://app?vid=4642e3fd-ecc5-495b-a882-d65cdd9365ec"},"vehicle_type_id":"4","last_reported":1727151074,"current_range_meters":37600,"station_id":"ce4bhop2rcd13ifvqh7g","pricing_plan_id":"cebpf4jnsgd1na2vs0mg"},{"bike_id":"37b52417-87d4-47b4-8910-65bdfc8cdc76","system_id":"levelo_inurba_marseille","lat":43.33582,"lon":5.41037,"is_reserved":false,"is_disabled":false,"rental_uris":{"android":"levelo://app?vid=37b52417-87d4-47b4-8910-65bdfc8cdc76","ios":"levelo://app?vid=37b52417-87d4-47b4-8910-65bdfc8cdc76"},"vehicle_type_id":"4","last_reported":1727151074,"current_range_meters":35200,"station_id":"ce4bhqh2rcd13ifvqhmg","pricing_plan_id":"cebpf4jnsgd1na2vs0mg"},{"bike_id":"917a660b-ad6e-4acd-9957-6431c598b70d","system_id":"levelo_inurba_marseille","lat":43.30648,"lon":5.40073,"is_reserved":false,"is_disabled":false,"rental_uris":{"android":"levelo://app?vid=917a660b-ad6e-4acd-9957-6431c598b70d","ios":"levelo://app?vid=917a660b-ad6e-4acd-9957-6431c598b70d"},"vehicle_type_id":"4","last_reported":1727151074,"current_range_meters":28000,"station_id":"ce4bh112rcd13ifvqda0","pricing_plan_id":"cebpf4jnsgd1na2vs0mg"},{"bike_id":"2a773ee2-e0c9-4daf-b9df-ca397e60aa3e","system_id":"levelo_inurba_marseille","lat":43.2707,"lon":5.42279,"is_reserved":false,"is_disabled":false,"rental_uris":{"android":"levelo://app?vid=2a773ee2-e0c9-4daf-b9df-ca397e60aa3e","ios":"levelo://app?vid=2a773ee2-e0c9-4daf-b9df-ca397e60aa3e"},"vehicle_type_id":"4","last_reported":1727151074,"current_range_meters":38800,"station_id":"ce4bhk92rcd13ifvqgb0","pricing_plan_id":"cebpf4jnsgd1na2vs0mg"},{"bike_id":"48ad8b8a-f1f7-463f-8d50-31c9f6b5c537","system_id":"levelo_inurba_marseille","lat":43.30959,"lon":5.3903,"is_reserved":false,"is_disabled":false,"rental_uris":{"android":"levelo://app?vid=48ad8b8a-f1f7-463f-8d50-31c9f6b5c537","ios":"levelo://app?vid=48ad8b8a-f1f7-463f-8d50-31c9f6b5c537"},"vehicle_type_id":"4","last_reported":1727151074,"current_range_meters":38800,"station_id":"ce4bgup2rcd13ifvqco0","pricing_plan_id":"cebpf4jnsgd1na2vs0mg"},{"bike_id":"d05bb737-2a85-4066-af28-655c71d8f64b","system_id":"levelo_inurba_marseille","lat":43.308029,"lon":5.381499,"is_reserved":false,"is_disabled":false,"rental_uris":{"android":"levelo://app?vid=d05bb737-2a85-4066-af28-655c71d8f64b","ios":"levelo://app?vid=d05bb737-2a85-4066-af28-655c71d8f64b"},"vehicle_type_id":"4","last_reported":1727151074,"current_range_meters":28400,"station_id":"ce4bgt12rcd13ifvqce0","pricing_plan_id":"cebpf4jnsgd1na2vs0mg"},{"bike_id":"d2e7c048-a074-4c88-89e9-a663dccb6e73","system_id":"levelo_inurba_marseille","lat":43.31284,"lon":5.40162,"is_reserved":false,"is_disabled":false,"rental_uris":{"android":"levelo://app?vid=d2e7c048-a074-4c88-89e9-a663dccb6e73","ios":"levelo://app?vid=d2e7c048-a074-4c88-89e9-a663dccb6e73"},"vehicle_type_id":"4","last_reported":1727151074,"current_range_meters":38800,"station_id":"ce4bh092rcd13ifvqd30","pricing_plan_id":"cebpf4jnsgd1na2vs0mg"},{"bike_id":"7d51f166-5f22-4e89-a119-9c8008dde046","system_id":"levelo_inurba_marseille","lat":43.28729,"lon":5.36079,"is_reserved":false,"is_disabled":false,"rental_uris":{"android":"levelo://app?vid=7d51f166-5f22-4e89-a119-9c8008dde046","ios":"levelo://app?vid=7d51f166-5f22-4e89-a119-9c8008dde046"},"vehicle_type_id":"4","last_reported":1727151074,"current_range_meters":38800,"station_id":"cki0cbj6b192h4jlfktg","pricing_plan_id":"cebpf4jnsgd1na2vs0mg"},{"bike_id":"59952b40-b430-40e4-8810-cfcbfc8840b4","system_id":"levelo_inurba_marseille","lat":43.28338,"lon":5.38109,"is_reserved":false,"is_disabled":false,"rental_uris":{"android":"levelo://app?vid=59952b40-b430-40e4-8810-cfcbfc8840b4","ios":"levelo://app?vid=59952b40-b430-40e4-8810-cfcbfc8840b4"},"vehicle_type_id":"4","last_reported":1727151074,"current_range_meters":36400,"station_id":"ce4bh412rcd13ifvqdr0","pricing_plan_id":"cebpf4jnsgd1na2vs0mg"},{"bike_id":"3b5ddd6c-0642-4578-80ee-58b47ac69371","system_id":"levelo_inurba_marseille","lat":43.3237,"lon":5.38882,"is_reserved":false,"is_disabled":false,"rental_uris":{"android":"levelo://app?vid=3b5ddd6c-0642-4578-80ee-58b47ac69371","ios":"levelo://app?vid=3b5ddd6c-0642-4578-80ee-58b47ac69371"},"vehicle_type_id":"4","last_reported":1727151074,"current_range_meters":26000,"station_id":"ce4bhqp2rcd13ifvqhog","pricing_plan_id":"cebpf4jnsgd1na2vs0mg"},{"bike_id":"b03bafa5-eb00-49a0-ace3-3ff26001fbd4","system_id":"levelo_inurba_marseille","lat":43.25865,"lon":5.39905,"is_reserved":false,"is_disabled":false,"rental_uris":{"android":"levelo://app?vid=b03bafa5-eb00-49a0-ace3-3ff26001fbd4","ios":"levelo://app?vid=b03bafa5-eb00-49a0-ace3-3ff26001fbd4"},"vehicle_type_id":"4","last_reported":1727151074,"current_range_meters":38400,"station_id":"ce4bhl92rcd13ifvqghg","pricing_plan_id":"cebpf4jnsgd1na2vs0mg"},{"bike_id":"e2db9acb-237d-47c3-a303-ddb4452de59f","system_id":"levelo_inurba_marseille","lat":43.25578,"lon":5.38238,"is_reserved":false,"is_disabled":false,"rental_uris":{"android":"levelo://app?vid=e2db9acb-237d-47c3-a303-ddb4452de59f","ios":"levelo://app?vid=e2db9acb-237d-47c3-a303-ddb4452de59f"},"vehicle_type_id":"4","last_reported":1727151074,"current_range_meters":39200,"station_id":"ce4bhih2rcd13ifvqfs0","pricing_plan_id":"cebpf4jnsgd1na2vs0mg"},{"bike_id":"196e115b-2a49-4289-a170-affe67e08771","system_id":"levelo_inurba_marseille","lat":43.288452,"lon":5.393174,"is_reserved":false,"is_disabled":false,"rental_uris":{"android":"levelo://app?vid=196e115b-2a49-4289-a170-affe67e08771","ios":"levelo://app?vid=196e115b-2a49-4289-a170-affe67e08771"},"vehicle_type_id":"4","last_reported":1727151074,"current_range_meters":38800,"station_id":"ce4bh392rcd13ifvqdm0","pricing_plan_id":"cebpf4jnsgd1na2vs0mg"},{"bike_id":"276b06a5-a2e6-40bd-ae27-764037965b9a","system_id":"levelo_inurba_marseille","lat":43.29893,"lon":5.43664,"is_reserved":false,"is_disabled":false,"rental_uris":{"android":"levelo://app?vid=276b06a5-a2e6-40bd-ae27-764037965b9a","ios":"levelo://app?vid=276b06a5-a2e6-40bd-ae27-764037965b9a"},"vehicle_type_id":"4","last_reported":1727151074,"current_range_meters":38000,"station_id":"ce4bhpp2rcd13ifvqhfg","pricing_plan_id":"cebpf4jnsgd1na2vs0mg"},{"bike_id":"09e4a0c6-fc88-4b32-b324-89ad5dff2fb7","system_id":"levelo_inurba_marseille","lat":43.25112,"lon":5.40321,"is_reserved":false,"is_disabled":false,"rental_uris":{"android":"levelo://app?vid=09e4a0c6-fc88-4b32-b324-89ad5dff2fb7","ios":"levelo://app?vid=09e4a0c6-fc88-4b32-b324-89ad5dff2fb7"},"vehicle_type_id":"4","last_reported":1727151074,"current_range_meters":38400,"station_id":"ce4bhlh2rcd13ifvqgig","pricing_plan_id":"cebpf4jnsgd1na2vs0mg"},{"bike_id":"2c567e6d-9516-43a8-a805-6a796053112e","system_id":"levelo_inurba_marseille","lat":43.324803,"lon":5.365656,"is_reserved":false,"is_disabled":false,"rental_uris":{"android":"levelo://app?vid=2c567e6d-9516-43a8-a805-6a796053112e","ios":"levelo://app?vid=2c567e6d-9516-43a8-a805-6a796053112e"},"vehicle_type_id":"4","last_reported":1727151074,"current_range_meters":37600,"station_id":"ce4bhs12rcd13ifvqhvg","pricing_plan_id":"cebpf4jnsgd1na2vs0mg"},{"bike_id":"0274edb4-7299-4b61-9692-d7fc38eff9b6","system_id":"levelo_inurba_marseille","lat":43.29554,"lon":5.42292,"is_reserved":false,"is_disabled":false,"rental_uris":{"android":"levelo://app?vid=0274edb4-7299-4b61-9692-d7fc38eff9b6","ios":"levelo://app?vid=0274edb4-7299-4b61-9692-d7fc38eff9b6"},"vehicle_type_id":"4","last_reported":1727151074,"current_range_meters":38000,"station_id":"ce4bhph2rcd13ifvqhdg","pricing_plan_id":"cebpf4jnsgd1na2vs0mg"},{"bike_id":"a18770b1-70cb-46cf-9bcf-2ef5a9875b7c","system_id":"levelo_inurba_marseille","lat":43.313658,"lon":5.385006,"is_reserved":false,"is_disabled":false,"rental_uris":{"android":"levelo://app?vid=a18770b1-70cb-46cf-9bcf-2ef5a9875b7c","ios":"levelo://app?vid=a18770b1-70cb-46cf-9bcf-2ef5a9875b7c"},"vehicle_type_id":"4","last_reported":1727151074,"current_range_meters":19200,"station_id":"ce4bgt92rcd13ifvqcf0","pricing_plan_id":"cebpf4jnsgd1na2vs0mg"},{"bike_id":"9dabbe6d-e784-4fa4-a324-7e2f8534d70d","system_id":"levelo_inurba_marseille","lat":43.30543,"lon":5.38431,"is_reserved":false,"is_disabled":false,"rental_uris":{"android":"levelo://app?vid=9dabbe6d-e784-4fa4-a324-7e2f8534d70d","ios":"levelo://app?vid=9dabbe6d-e784-4fa4-a324-7e2f8534d70d"},"vehicle_type_id":"4","last_reported":1727151074,"current_range_meters":39200,"station_id":"ce4bgg92rcd13ifvqb30","pricing_plan_id":"cebpf4jnsgd1na2vs0mg"},{"bike_id":"904599a9-4a45-4361-927f-7c238ebc5bbe","system_id":"levelo_inurba_marseille","lat":43.30412,"lon":5.4129,"is_reserved":false,"is_disabled":false,"rental_uris":{"android":"levelo://app?vid=904599a9-4a45-4361-927f-7c238ebc5bbe","ios":"levelo://app?vid=904599a9-4a45-4361-927f-7c238ebc5bbe"},"vehicle_type_id":"4","last_reported":1727151074,"current_range_meters":39200,"station_id":"ce4bhop2rcd13ifvqh8g","pricing_plan_id":"cebpf4jnsgd1na2vs0mg"},{"bike_id":"17701005-77c3-4e4f-a0b4-b2ece630517d","system_id":"levelo_inurba_marseille","lat":43.239616,"lon":5.366342,"is_reserved":false,"is_disabled":false,"rental_uris":{"android":"levelo://app?vid=17701005-77c3-4e4f-a0b4-b2ece630517d","ios":"levelo://app?vid=17701005-77c3-4e4f-a0b4-b2ece630517d"},"vehicle_type_id":"4","last_reported":1727151074,"current_range_meters":39200,"station_id":"ce4bhi12rcd13ifvqfp0","pricing_plan_id":"cebpf4jnsgd1na2vs0mg"},{"bike_id":"e5bc3d1c-2264-484d-8328-c21e6c314f91","system_id":"levelo_inurba_marseille","lat":43.307923,"lon":5.37652,"is_reserved":false,"is_disabled":false,"rental_uris":{"android":"levelo://app?vid=e5bc3d1c-2264-484d-8328-c21e6c314f91","ios":"levelo://app?vid=e5bc3d1c-2264-484d-8328-c21e6c314f91"},"vehicle_type_id":"4","last_reported":1727151074,"current_range_meters":25600,"station_id":"ce4bgv92rcd13ifvqcq0","pricing_plan_id":"cebpf4jnsgd1na2vs0mg"},{"bike_id":"6131b0c1-e252-4eec-901d-3f6195f979fb","system_id":"levelo_inurba_marseille","lat":43.27204,"lon":5.3919,"is_reserved":false,"is_disabled":false,"rental_uris":{"android":"levelo://app?vid=6131b0c1-e252-4eec-901d-3f6195f979fb","ios":"levelo://app?vid=6131b0c1-e252-4eec-901d-3f6195f979fb"},"vehicle_type_id":"4","last_reported":1727151074,"current_range_meters":38800,"station_id":"ce4bhhp2rcd13ifvqfm0","pricing_plan_id":"cebpf4jnsgd1na2vs0mg"},{"bike_id":"9f6cd24d-b2cc-4dc8-9746-f28736aa085c","system_id":"levelo_inurba_marseille","lat":43.31167,"lon":5.38726,"is_reserved":false,"is_disabled":false,"rental_uris":{"android":"levelo://app?vid=9f6cd24d-b2cc-4dc8-9746-f28736aa085c","ios":"levelo://app?vid=9f6cd24d-b2cc-4dc8-9746-f28736aa085c"},"vehicle_type_id":"4","last_reported":1727151074,"current_range_meters":33200,"station_id":"ce4bgv12rcd13ifvqcp0","pricing_plan_id":"cebpf4jnsgd1na2vs0mg"},{"bike_id":"ad31ead1-578c-4698-9721-4e9086ba5a3a","system_id":"levelo_inurba_marseille","lat":43.29792,"lon":5.40411,"is_reserved":false,"is_disabled":false,"rental_uris":{"android":"levelo://app?vid=ad31ead1-578c-4698-9721-4e9086ba5a3a","ios":"levelo://app?vid=ad31ead1-578c-4698-9721-4e9086ba5a3a"},"vehicle_type_id":"4","last_reported":1727151074,"current_range_meters":6800,"station_id":"ce4bh112rcd13ifvqd90","pricing_plan_id":"cebpf4jnsgd1na2vs0mg"},{"bike_id":"42487587-56d0-4e15-858f-06967ac400b5","system_id":"levelo_inurba_marseille","lat":43.303231,"lon":5.404473,"is_reserved":false,"is_disabled":false,"rental_uris":{"android":"levelo://app?vid=42487587-56d0-4e15-858f-06967ac400b5","ios":"levelo://app?vid=42487587-56d0-4e15-858f-06967ac400b5"},"vehicle_type_id":"4","last_reported":1727151074,"current_range_meters":27200,"station_id":"ce4bh012rcd13ifvqd10","pricing_plan_id":"cebpf4jnsgd1na2vs0mg"},{"bike_id":"021c6dd8-4a0f-4860-8a5c-c04937e4b414","system_id":"levelo_inurba_marseille","lat":43.27971,"lon":5.3876,"is_reserved":false,"is_disabled":false,"rental_uris":{"android":"levelo://app?vid=021c6dd8-4a0f-4860-8a5c-c04937e4b414","ios":"levelo://app?vid=021c6dd8-4a0f-4860-8a5c-c04937e4b414"},"vehicle_type_id":"4","last_reported":1727151074,"current_range_meters":38800,"station_id":"ce4bhg12rcd13ifvqf80","pricing_plan_id":"cebpf4jnsgd1na2vs0mg"},{"bike_id":"6e0eefe4-f972-47d5-bd23-177c32d51570","system_id":"levelo_inurba_marseille","lat":43.30647,"lon":5.40073,"is_reserved":false,"is_disabled":false,"rental_uris":{"android":"levelo://app?vid=6e0eefe4-f972-47d5-bd23-177c32d51570","ios":"levelo://app?vid=6e0eefe4-f972-47d5-bd23-177c32d51570"},"vehicle_type_id":"4","last_reported":1727151074,"current_range_meters":33600,"station_id":"ce4bh112rcd13ifvqda0","pricing_plan_id":"cebpf4jnsgd1na2vs0mg"},{"bike_id":"4bcde3e3-c011-4259-ad43-b9ca0e89c268","system_id":"levelo_inurba_marseille","lat":43.306492,"lon":5.400848,"is_reserved":false,"is_disabled":false,"rental_uris":{"android":"levelo://app?vid=4bcde3e3-c011-4259-ad43-b9ca0e89c268","ios":"levelo://app?vid=4bcde3e3-c011-4259-ad43-b9ca0e89c268"},"vehicle_type_id":"4","last_reported":1727151074,"current_range_meters":28000,"station_id":"ce4bh112rcd13ifvqda0","pricing_plan_id":"cebpf4jnsgd1na2vs0mg"},{"bike_id":"7cfdc136-1594-406a-ab19-b70dfa6fcf63","system_id":"levelo_inurba_marseille","lat":43.33603,"lon":5.41007,"is_reserved":false,"is_disabled":false,"rental_uris":{"android":"levelo://app?vid=7cfdc136-1594-406a-ab19-b70dfa6fcf63","ios":"levelo://app?vid=7cfdc136-1594-406a-ab19-b70dfa6fcf63"},"vehicle_type_id":"4","last_reported":1727151074,"current_range_meters":37600,"station_id":"ce4bhqh2rcd13ifvqhmg","pricing_plan_id":"cebpf4jnsgd1na2vs0mg"},{"bike_id":"be781c5f-599d-4a3c-94f5-795517d9be16","system_id":"levelo_inurba_marseille","lat":43.298679,"lon":5.397335,"is_reserved":false,"is_disabled":false,"rental_uris":{"android":"levelo://app?vid=be781c5f-599d-4a3c-94f5-795517d9be16","ios":"levelo://app?vid=be781c5f-599d-4a3c-94f5-795517d9be16"},"vehicle_type_id":"4","last_reported":1727151074,"current_range_meters":25600,"station_id":"ce4bh0h2rcd13ifvqd50","pricing_plan_id":"cebpf4jnsgd1na2vs0mg"},{"bike_id":"38191259-dc01-47cd-b867-9764bf4638e8","system_id":"levelo_inurba_marseille","lat":43.29713,"lon":5.37685,"is_reserved":false,"is_disabled":false,"rental_uris":{"android":"levelo://app?vid=38191259-dc01-47cd-b867-9764bf4638e8","ios":"levelo://app?vid=38191259-dc01-47cd-b867-9764bf4638e8"},"vehicle_type_id":"4","last_reported":1727151074,"current_range_meters":34000,"station_id":"ce4bgkh2rcd13ifvqbl0","pricing_plan_id":"cebpf4jnsgd1na2vs0mg"},{"bike_id":"ce554d95-e10d-4011-b0ef-0a3e834d4446","system_id":"levelo_inurba_marseille","lat":43.32281,"lon":5.38271,"is_reserved":false,"is_disabled":false,"rental_uris":{"android":"levelo://app?vid=ce554d95-e10d-4011-b0ef-0a3e834d4446","ios":"levelo://app?vid=ce554d95-e10d-4011-b0ef-0a3e834d4446"},"vehicle_type_id":"4","last_reported":1727151074,"current_range_meters":28800,"station_id":"ce4bhr12rcd13ifvqhqg","pricing_plan_id":"cebpf4jnsgd1na2vs0mg"},{"bike_id":"12c4e687-7d7a-4b22-a38c-369803794279","system_id":"levelo_inurba_marseille","lat":43.23959,"lon":5.36639,"is_reserved":false,"is_disabled":false,"rental_uris":{"android":"levelo://app?vid=12c4e687-7d7a-4b22-a38c-369803794279","ios":"levelo://app?vid=12c4e687-7d7a-4b22-a38c-369803794279"},"vehicle_type_id":"4","last_reported":1727151074,"current_range_meters":36800,"station_id":"ce4bhi12rcd13ifvqfp0","pricing_plan_id":"cebpf4jnsgd1na2vs0mg"},{"bike_id":"e50f138d-89e1-47ff-ad0a-00cb153979b4","system_id":"levelo_inurba_marseille","lat":43.30781,"lon":5.37656,"is_reserved":false,"is_disabled":false,"rental_uris":{"android":"levelo://app?vid=e50f138d-89e1-47ff-ad0a-00cb153979b4","ios":"levelo://app?vid=e50f138d-89e1-47ff-ad0a-00cb153979b4"},"vehicle_type_id":"4","last_reported":1727151074,"current_range_meters":36400,"station_id":"ce4bgv92rcd13ifvqcq0","pricing_plan_id":"cebpf4jnsgd1na2vs0mg"},{"bike_id":"45fc3b17-5894-408f-b9ae-5de147801182","system_id":"levelo_inurba_marseille","lat":43.22934,"lon":5.35379,"is_reserved":false,"is_disabled":false,"rental_uris":{"android":"levelo://app?vid=45fc3b17-5894-408f-b9ae-5de147801182","ios":"levelo://app?vid=45fc3b17-5894-408f-b9ae-5de147801182"},"vehicle_type_id":"4","last_reported":1727151074,"current_range_meters":38800,"station_id":"cpo3532slgdg3j2ikp40","pricing_plan_id":"cebpf4jnsgd1na2vs0mg"},{"bike_id":"ebe71fe2-7b77-46de-a9b4-18e210e60bc2","system_id":"levelo_inurba_marseille","lat":43.309509,"lon":5.390487,"is_reserved":false,"is_disabled":false,"rental_uris":{"android":"levelo://app?vid=ebe71fe2-7b77-46de-a9b4-18e210e60bc2","ios":"levelo://app?vid=ebe71fe2-7b77-46de-a9b4-18e210e60bc2"},"vehicle_type_id":"4","last_reported":1727151074,"current_range_meters":37600,"station_id":"ce4bgup2rcd13ifvqco0","pricing_plan_id":"cebpf4jnsgd1na2vs0mg"},{"bike_id":"daedb236-c4ed-4712-8d9d-079e063bb124","system_id":"levelo_inurba_marseille","lat":43.32341,"lon":5.4062,"is_reserved":false,"is_disabled":false,"rental_uris":{"android":"levelo://app?vid=daedb236-c4ed-4712-8d9d-079e063bb124","ios":"levelo://app?vid=daedb236-c4ed-4712-8d9d-079e063bb124"},"vehicle_type_id":"4","last_reported":1727151074,"current_range_meters":38800,"station_id":"ce4bhq92rcd13ifvqhjg","pricing_plan_id":"cebpf4jnsgd1na2vs0mg"},{"bike_id":"49f08e6a-2e6f-45e1-bfcf-e69dadc3c00c","system_id":"levelo_inurba_marseille","lat":43.3117,"lon":5.38722,"is_reserved":false,"is_disabled":false,"rental_uris":{"android":"levelo://app?vid=49f08e6a-2e6f-45e1-bfcf-e69dadc3c00c","ios":"levelo://app?vid=49f08e6a-2e6f-45e1-bfcf-e69dadc3c00c"},"vehicle_type_id":"4","last_reported":1727151074,"current_range_meters":38400,"station_id":"ce4bgv12rcd13ifvqcp0","pricing_plan_id":"cebpf4jnsgd1na2vs0mg"},{"bike_id":"84c605de-50e4-48a5-a416-7d40a50134bd","system_id":"levelo_inurba_marseille","lat":43.26501,"lon":5.39543,"is_reserved":false,"is_disabled":false,"rental_uris":{"android":"levelo://app?vid=84c605de-50e4-48a5-a416-7d40a50134bd","ios":"levelo://app?vid=84c605de-50e4-48a5-a416-7d40a50134bd"},"vehicle_type_id":"4","last_reported":1727151074,"current_range_meters":7200,"station_id":"ce4bhi12rcd13ifvqfq0","pricing_plan_id":"cebpf4jnsgd1na2vs0mg"},{"bike_id":"e701ef5d-4f0e-4a96-92df-3a4034fcd7a6","system_id":"levelo_inurba_marseille","lat":43.278257,"lon":5.391991,"is_reserved":false,"is_disabled":false,"rental_uris":{"android":"levelo://app?vid=e701ef5d-4f0e-4a96-92df-3a4034fcd7a6","ios":"levelo://app?vid=e701ef5d-4f0e-4a96-92df-3a4034fcd7a6"},"vehicle_type_id":"4","last_reported":1727151074,"current_range_meters":38800,"station_id":"ce4bhjp2rcd13ifvqga0","pricing_plan_id":"cebpf4jnsgd1na2vs0mg"},{"bike_id":"fe1bfd0f-38fb-4e70-9bf4-81a0745aecbe","system_id":"levelo_inurba_marseille","lat":43.28384,"lon":5.38626,"is_reserved":false,"is_disabled":false,"rental_uris":{"android":"levelo://app?vid=fe1bfd0f-38fb-4e70-9bf4-81a0745aecbe","ios":"levelo://app?vid=fe1bfd0f-38fb-4e70-9bf4-81a0745aecbe"},"vehicle_type_id":"4","last_reported":1727151074,"current_range_meters":33200,"station_id":"","pricing_plan_id":"cebpf4jnsgd1na2vs0mg"},{"bike_id":"d932bc68-6017-4020-ba41-43752971c028","system_id":"levelo_inurba_marseille","lat":43.29058,"lon":5.37173,"is_reserved":false,"is_disabled":false,"rental_uris":{"android":"levelo://app?vid=d932bc68-6017-4020-ba41-43752971c028","ios":"levelo://app?vid=d932bc68-6017-4020-ba41-43752971c028"},"vehicle_type_id":"4","last_reported":1727151074,"current_range_meters":38400,"station_id":"ce4bh5p2rcd13ifvqe4g","pricing_plan_id":"cebpf4jnsgd1na2vs0mg"},{"bike_id":"4a887fb4-9ad1-4d92-8a37-bb0aff42aad3","system_id":"levelo_inurba_marseille","lat":43.31763,"lon":5.390171,"is_reserved":false,"is_disabled":false,"rental_uris":{"android":"levelo://app?vid=4a887fb4-9ad1-4d92-8a37-bb0aff42aad3","ios":"levelo://app?vid=4a887fb4-9ad1-4d92-8a37-bb0aff42aad3"},"vehicle_type_id":"4","last_reported":1727151074,"current_range_meters":39200,"station_id":"ce4bhqp2rcd13ifvqhng","pricing_plan_id":"cebpf4jnsgd1na2vs0mg"},{"bike_id":"e1a0a22e-433e-4c89-ab22-d09c032bdbd1","system_id":"levelo_inurba_marseille","lat":43.27892,"lon":5.38008,"is_reserved":false,"is_disabled":false,"rental_uris":{"android":"levelo://app?vid=e1a0a22e-433e-4c89-ab22-d09c032bdbd1","ios":"levelo://app?vid=e1a0a22e-433e-4c89-ab22-d09c032bdbd1"},"vehicle_type_id":"4","last_reported":1727151074,"current_range_meters":38800,"station_id":"ce4bhf92rcd13ifvqf50","pricing_plan_id":"cebpf4jnsgd1na2vs0mg"},{"bike_id":"4876bfd1-c475-4122-aef2-52fad00d3fc2","system_id":"levelo_inurba_marseille","lat":43.282928,"lon":5.385144,"is_reserved":false,"is_disabled":false,"rental_uris":{"android":"levelo://app?vid=4876bfd1-c475-4122-aef2-52fad00d3fc2","ios":"levelo://app?vid=4876bfd1-c475-4122-aef2-52fad00d3fc2"},"vehicle_type_id":"4","last_reported":1727151074,"current_range_meters":29600,"station_id":"","pricing_plan_id":"cebpf4jnsgd1na2vs0mg"},{"bike_id":"e325b288-c4bb-4219-b860-cea9ccf81561","system_id":"levelo_inurba_marseille","lat":43.281553,"lon":5.426432,"is_reserved":false,"is_disabled":false,"rental_uris":{"android":"levelo://app?vid=e325b288-c4bb-4219-b860-cea9ccf81561","ios":"levelo://app?vid=e325b288-c4bb-4219-b860-cea9ccf81561"},"vehicle_type_id":"4","last_reported":1727151074,"current_range_meters":38400,"station_id":"ce4bhnh2rcd13ifvqgug","pricing_plan_id":"cebpf4jnsgd1na2vs0mg"},{"bike_id":"81cc9602-8a2d-4cd2-873e-27f2d33a091d","system_id":"levelo_inurba_marseille","lat":43.310681,"lon":5.383526,"is_reserved":false,"is_disabled":false,"rental_uris":{"android":"levelo://app?vid=81cc9602-8a2d-4cd2-873e-27f2d33a091d","ios":"levelo://app?vid=81cc9602-8a2d-4cd2-873e-27f2d33a091d"},"vehicle_type_id":"4","last_reported":1727151074,"current_range_meters":38400,"station_id":"ce4bgv92rcd13ifvqcr0","pricing_plan_id":"cebpf4jnsgd1na2vs0mg"},{"bike_id":"dde37c46-a508-466b-8733-5293af20f3c3","system_id":"levelo_inurba_marseille","lat":43.33721,"lon":5.39186,"is_reserved":false,"is_disabled":false,"rental_uris":{"android":"levelo://app?vid=dde37c46-a508-466b-8733-5293af20f3c3","ios":"levelo://app?vid=dde37c46-a508-466b-8733-5293af20f3c3"},"vehicle_type_id":"4","last_reported":1727151074,"current_range_meters":37600,"station_id":"ce4bhr92rcd13ifvqhsg","pricing_plan_id":"cebpf4jnsgd1na2vs0mg"},{"bike_id":"31b1b3b5-ac3f-4368-b1c5-d7c59c8dacfc","system_id":"levelo_inurba_marseille","lat":43.25721,"lon":5.41112,"is_reserved":false,"is_disabled":false,"rental_uris":{"android":"levelo://app?vid=31b1b3b5-ac3f-4368-b1c5-d7c59c8dacfc","ios":"levelo://app?vid=31b1b3b5-ac3f-4368-b1c5-d7c59c8dacfc"},"vehicle_type_id":"4","last_reported":1727151074,"current_range_meters":39200,"station_id":"ce4bhkp2rcd13ifvqgd0","pricing_plan_id":"cebpf4jnsgd1na2vs0mg"},{"bike_id":"75682a88-514c-4354-8d39-4a47f67eb774","system_id":"levelo_inurba_marseille","lat":43.27951,"lon":5.38709,"is_reserved":false,"is_disabled":false,"rental_uris":{"android":"levelo://app?vid=75682a88-514c-4354-8d39-4a47f67eb774","ios":"levelo://app?vid=75682a88-514c-4354-8d39-4a47f67eb774"},"vehicle_type_id":"4","last_reported":1727151074,"current_range_meters":34800,"station_id":"ce4bhg12rcd13ifvqf80","pricing_plan_id":"cebpf4jnsgd1na2vs0mg"},{"bike_id":"ac2310cc-8f06-4e33-9417-9306e80abd3b","system_id":"levelo_inurba_marseille","lat":43.25088,"lon":5.39517,"is_reserved":false,"is_disabled":false,"rental_uris":{"android":"levelo://app?vid=ac2310cc-8f06-4e33-9417-9306e80abd3b","ios":"levelo://app?vid=ac2310cc-8f06-4e33-9417-9306e80abd3b"},"vehicle_type_id":"4","last_reported":1727151074,"current_range_meters":9200,"station_id":"ce4bhm12rcd13ifvqgkg","pricing_plan_id":"cebpf4jnsgd1na2vs0mg"},{"bike_id":"f3a53db1-b3e7-439a-ab22-06f8692bc953","system_id":"levelo_inurba_marseille","lat":43.32362,"lon":5.38883,"is_reserved":false,"is_disabled":false,"rental_uris":{"android":"levelo://app?vid=f3a53db1-b3e7-439a-ab22-06f8692bc953","ios":"levelo://app?vid=f3a53db1-b3e7-439a-ab22-06f8692bc953"},"vehicle_type_id":"4","last_reported":1727151074,"current_range_meters":22000,"station_id":"ce4bhqp2rcd13ifvqhog","pricing_plan_id":"cebpf4jnsgd1na2vs0mg"},{"bike_id":"1711c268-4d22-4a77-8ad1-c137e01a4a75","system_id":"levelo_inurba_marseille","lat":43.27917,"lon":5.39576,"is_reserved":false,"is_disabled":false,"rental_uris":{"android":"levelo://app?vid=1711c268-4d22-4a77-8ad1-c137e01a4a75","ios":"levelo://app?vid=1711c268-4d22-4a77-8ad1-c137e01a4a75"},