{"last_updated":1784809367,"ttl":60,"version":"2.2","data":{"bikes":[{"bike_id":"7ef36254-6bb3-448c-8d77-979d957d54b6","system_id":"levelo_inurba_marseille","lat":43.337444,"lon":5.374475,"is_reserved":false,"is_disabled":false,"rental_uris":{"android":"levelo://app?vid=7ef36254-6bb3-448c-8d77-979d957d54b6","ios":"levelo://app?vid=7ef36254-6bb3-448c-8d77-979d957d54b6"},"vehicle_type_id":"4","last_reported":1784809368,"current_range_meters":0,"station_id":"","pricing_plan_id":"cebpf4jnsgd1na2vs0mg"},{"bike_id":"21fe2e98-0432-4b40-a81f-10dd00b0f57d","system_id":"levelo_inurba_marseille","lat":43.337444,"lon":5.374475,"is_reserved":false,"is_disabled":false,"rental_uris":{"android":"levelo://app?vid=21fe2e98-0432-4b40-a81f-10dd00b0f57d","ios":"levelo://app?vid=21fe2e98-0432-4b40-a81f-10dd00b0f57d"},"vehicle_type_id":"4","last_reported":1784809368,"current_range_meters":0,"station_id":"","pricing_plan_id":"cebpf4jnsgd1na2vs0mg"},{"bike_id":"df7929a5-2b0c-4c4a-9607-4bd34960b2e8","system_id":"levelo_inurba_marseille","lat":43.21185,"lon":5.35064,"is_reserved":false,"is_disabled":false,"rental_uris":{"android":"levelo://app?vid=df7929a5-2b0c-4c4a-9607-4bd34960b2e8","ios":"levelo://app?vid=df7929a5-2b0c-4c4a-9607-4bd34960b2e8"},"vehicle_type_id":"4","last_reported":1784809368,"current_range_meters":8800,"station_id":"st_cvj6sg6p6f1abm77japg","pricing_plan_id":"cebpf4jnsgd1na2vs0mg"},{"bike_id":"7446e2dd-cf2a-448e-a013-708dd952d4de","system_id":"levelo_inurba_marseille","lat":43.29574,"lon":5.3751,"is_reserved":false,"is_disabled":false,"rental_uris":{"android":"levelo://app?vid=7446e2dd-cf2a-448e-a013-708dd952d4de","ios":"levelo://app?vid=7446e2dd-cf2a-448e-a013-708dd952d4de"},"vehicle_type_id":"4","last_reported":1784809368,"current_range_meters":31200,"station_id":"ce4bgh92rcd13ifvqb50","pricing_plan_id":"cebpf4jnsgd1na2vs0mg"},{"bike_id":"910edd9b-3f88-46ff-af53-0deba1c167b6","system_id":"levelo_inurba_marseille","lat":43.2398,"lon":5.36615,"is_reserved":false,"is_disabled":false,"rental_uris":{"android":"levelo://app?vid=910edd9b-3f88-46ff-af53-0deba1c167b6","ios":"levelo://app?vid=910edd9b-3f88-46ff-af53-0deba1c167b6"},"vehicle_type_id":"4","last_reported":1784809368,"current_range_meters":38000,"station_id":"ce4bhi12rcd13ifvqfp0","pricing_plan_id":"cebpf4jnsgd1na2vs0mg"},{"bike_id":"0213d0e8-5647-4bb6-bcc4-f759e4e657b6","system_id":"levelo_inurba_marseille","lat":43.29555,"lon":5.37537,"is_reserved":false,"is_disabled":false,"rental_uris":{"android":"levelo://app?vid=0213d0e8-5647-4bb6-bcc4-f759e4e657b6","ios":"levelo://app?vid=0213d0e8-5647-4bb6-bcc4-f759e4e657b6"},"vehicle_type_id":"4","last_reported":1784809368,"current_range_meters":36400,"station_id":"ce4bgh92rcd13ifvqb50","pricing_plan_id":"cebpf4jnsgd1na2vs0mg"},{"bike_id":"2dd5cca7-33b0-40a8-86e1-6ebd7a89fc89","system_id":"levelo_inurba_marseille","lat":43.248,"lon":5.37443,"is_reserved":false,"is_disabled":false,"rental_uris":{"android":"levelo://app?vid=2dd5cca7-33b0-40a8-86e1-6ebd7a89fc89","ios":"levelo://app?vid=2dd5cca7-33b0-40a8-86e1-6ebd7a89fc89"},"vehicle_type_id":"4","last_reported":1784809368,"current_range_meters":17600,"station_id":"ce4bhgh2rcd13ifvqfb0","pricing_plan_id":"cebpf4jnsgd1na2vs0mg"},{"bike_id":"f2c26268-2002-48c9-a2f8-8f76ed8a8540","system_id":"levelo_inurba_marseille","lat":43.23891,"lon":5.3747,"is_reserved":false,"is_disabled":false,"rental_uris":{"android":"levelo://app?vid=f2c26268-2002-48c9-a2f8-8f76ed8a8540","ios":"levelo://app?vid=f2c26268-2002-48c9-a2f8-8f76ed8a8540"},"vehicle_type_id":"4","last_reported":1784809368,"current_range_meters":37600,"station_id":"st_d6sm7csbq4hs73f8fpjg","pricing_plan_id":"cebpf4jnsgd1na2vs0mg"},{"bike_id":"338e86ab-8aa1-42da-9a21-c948a5282493","system_id":"levelo_inurba_marseille","lat":43.27304,"lon":5.39088,"is_reserved":false,"is_disabled":false,"rental_uris":{"android":"levelo://app?vid=338e86ab-8aa1-42da-9a21-c948a5282493","ios":"levelo://app?vid=338e86ab-8aa1-42da-9a21-c948a5282493"},"vehicle_type_id":"4","last_reported":1784809368,"current_range_meters":18800,"station_id":"ce4bhgp2rcd13ifvqfe0","pricing_plan_id":"cebpf4jnsgd1na2vs0mg"},{"bike_id":"72706276-fb69-4388-946e-2b4fb06a5929","system_id":"levelo_inurba_marseille","lat":43.33,"lon":5.39036,"is_reserved":false,"is_disabled":false,"rental_uris":{"android":"levelo://app?vid=72706276-fb69-4388-946e-2b4fb06a5929","ios":"levelo://app?vid=72706276-fb69-4388-946e-2b4fb06a5929"},"vehicle_type_id":"4","last_reported":1784809368,"current_range_meters":38400,"station_id":"ce4bhr92rcd13ifvqhrg","pricing_plan_id":"cebpf4jnsgd1na2vs0mg"},{"bike_id":"3275e5ca-225b-44f6-b554-2e84ebf36240","system_id":"levelo_inurba_marseille","lat":43.32351,"lon":5.36751,"is_reserved":false,"is_disabled":false,"rental_uris":{"android":"levelo://app?vid=3275e5ca-225b-44f6-b554-2e84ebf36240","ios":"levelo://app?vid=3275e5ca-225b-44f6-b554-2e84ebf36240"},"vehicle_type_id":"4","last_reported":1784809368,"current_range_meters":38000,"station_id":"ce4bhsh2rcd13ifvqi2g","pricing_plan_id":"cebpf4jnsgd1na2vs0mg"},{"bike_id":"4e65696c-6612-4320-ba51-86bcf8d4c6c5","system_id":"levelo_inurba_marseille","lat":43.28938,"lon":5.36631,"is_reserved":false,"is_disabled":false,"rental_uris":{"android":"levelo://app?vid=4e65696c-6612-4320-ba51-86bcf8d4c6c5","ios":"levelo://app?vid=4e65696c-6612-4320-ba51-86bcf8d4c6c5"},"vehicle_type_id":"4","last_reported":1784809368,"current_range_meters":6800,"station_id":"ce4bhap2rcd13ifvqek0","pricing_plan_id":"cebpf4jnsgd1na2vs0mg"},{"bike_id":"a3a2fc6a-55a6-4c59-b5eb-af329f69e502","system_id":"levelo_inurba_marseille","lat":43.24392,"lon":5.37061,"is_reserved":false,"is_disabled":false,"rental_uris":{"android":"levelo://app?vid=a3a2fc6a-55a6-4c59-b5eb-af329f69e502","ios":"levelo://app?vid=a3a2fc6a-55a6-4c59-b5eb-af329f69e502"},"vehicle_type_id":"4","last_reported":1784809368,"current_range_meters":32000,"station_id":"ce4bhhh2rcd13ifvqfk0","pricing_plan_id":"cebpf4jnsgd1na2vs0mg"},{"bike_id":"960a9a23-0790-449a-a1bd-8acc2f05bb5d","system_id":"levelo_inurba_marseille","lat":43.27969,"lon":5.38746,"is_reserved":false,"is_disabled":false,"rental_uris":{"android":"levelo://app?vid=960a9a23-0790-449a-a1bd-8acc2f05bb5d","ios":"levelo://app?vid=960a9a23-0790-449a-a1bd-8acc2f05bb5d"},"vehicle_type_id":"4","last_reported":1784809368,"current_range_meters":38000,"station_id":"ce4bhg12rcd13ifvqf80","pricing_plan_id":"cebpf4jnsgd1na2vs0mg"},{"bike_id":"74f51f76-aaea-49ff-96a7-ddfdab1af727","system_id":"levelo_inurba_marseille","lat":43.2842,"lon":5.37524,"is_reserved":false,"is_disabled":false,"rental_uris":{"android":"levelo://app?vid=74f51f76-aaea-49ff-96a7-ddfdab1af727","ios":"levelo://app?vid=74f51f76-aaea-49ff-96a7-ddfdab1af727"},"vehicle_type_id":"4","last_reported":1784809368,"current_range_meters":37600,"station_id":"ce4bh412rcd13ifvqds0","pricing_plan_id":"cebpf4jnsgd1na2vs0mg"},{"bike_id":"cfaddb75-1c76-4cb2-b64c-0cab6bec582a","system_id":"levelo_inurba_marseille","lat":43.27668,"lon":5.38887,"is_reserved":false,"is_disabled":false,"rental_uris":{"android":"levelo://app?vid=cfaddb75-1c76-4cb2-b64c-0cab6bec582a","ios":"levelo://app?vid=cfaddb75-1c76-4cb2-b64c-0cab6bec582a"},"vehicle_type_id":"4","last_reported":1784809368,"current_range_meters":17600,"station_id":"ce4bhi12rcd13ifvqfo0","pricing_plan_id":"cebpf4jnsgd1na2vs0mg"},{"bike_id":"3101f7ce-d802-418d-8fba-8e517979d361","system_id":"levelo_inurba_marseille","lat":43.24175,"lon":5.36405,"is_reserved":false,"is_disabled":false,"rental_uris":{"android":"levelo://app?vid=3101f7ce-d802-418d-8fba-8e517979d361","ios":"levelo://app?vid=3101f7ce-d802-418d-8fba-8e517979d361"},"vehicle_type_id":"4","last_reported":1784809368,"current_range_meters":11200,"station_id":"cpo36qri1sfpv3e86is0","pricing_plan_id":"cebpf4jnsgd1na2vs0mg"},{"bike_id":"e40092d8-e809-444f-887b-ec2d97cdda0b","system_id":"levelo_inurba_marseille","lat":43.30303,"lon":5.39215,"is_reserved":false,"is_disabled":true,"rental_uris":{"android":"levelo://app?vid=e40092d8-e809-444f-887b-ec2d97cdda0b","ios":"levelo://app?vid=e40092d8-e809-444f-887b-ec2d97cdda0b"},"vehicle_type_id":"4","last_reported":1784809368,"current_range_meters":36000,"station_id":"ce4bgkh2rcd13ifvqbk0","pricing_plan_id":"cebpf4jnsgd1na2vs0mg"},{"bike_id":"cd5a00df-da64-4a0f-8575-682df166e1ba","system_id":"levelo_inurba_marseille","lat":43.30541,"lon":5.3653,"is_reserved":false,"is_disabled":false,"rental_uris":{"android":"levelo://app?vid=cd5a00df-da64-4a0f-8575-682df166e1ba","ios":"levelo://app?vid=cd5a00df-da64-4a0f-8575-682df166e1ba"},"vehicle_type_id":"4","last_reported":1784809368,"current_range_meters":30400,"station_id":"ce4bgs12rcd13ifvqcag","pricing_plan_id":"cebpf4jnsgd1na2vs0mg"},{"bike_id":"77f9585f-c7b9-4ad0-94a9-b41de8a55179","system_id":"levelo_inurba_marseille","lat":43.28856,"lon":5.35844,"is_reserved":false,"is_disabled":false,"rental_uris":{"android":"levelo://app?vid=77f9585f-c7b9-4ad0-94a9-b41de8a55179","ios":"levelo://app?vid=77f9585f-c7b9-4ad0-94a9-b41de8a55179"},"vehicle_type_id":"4","last_reported":1784809368,"current_range_meters":30000,"station_id":"ce4bhb12rcd13ifvqem0","pricing_plan_id":"cebpf4jnsgd1na2vs0mg"},{"bike_id":"c27aaa11-19a5-42c9-b529-15599d0ea596","system_id":"levelo_inurba_marseille","lat":43.29244,"lon":5.3762,"is_reserved":false,"is_disabled":false,"rental_uris":{"android":"levelo://app?vid=c27aaa11-19a5-42c9-b529-15599d0ea596","ios":"levelo://app?vid=c27aaa11-19a5-42c9-b529-15599d0ea596"},"vehicle_type_id":"4","last_reported":1784809368,"current_range_meters":27200,"station_id":"ce4bgi12rcd13ifvqb80","pricing_plan_id":"cebpf4jnsgd1na2vs0mg"},{"bike_id":"56b0a84b-a113-4330-9aae-9159d9fa876b","system_id":"levelo_inurba_marseille","lat":43.31248,"lon":5.36867,"is_reserved":false,"is_disabled":false,"rental_uris":{"android":"levelo://app?vid=56b0a84b-a113-4330-9aae-9159d9fa876b","ios":"levelo://app?vid=56b0a84b-a113-4330-9aae-9159d9fa876b"},"vehicle_type_id":"4","last_reported":1784809368,"current_range_meters":23200,"station_id":"ce4bgl92rcd13ifvqbq0","pricing_plan_id":"cebpf4jnsgd1na2vs0mg"},{"bike_id":"bd1fb047-1503-427f-b75e-bda7ffbeebc4","system_id":"levelo_inurba_marseille","lat":43.31763,"lon":5.39002,"is_reserved":false,"is_disabled":false,"rental_uris":{"android":"levelo://app?vid=bd1fb047-1503-427f-b75e-bda7ffbeebc4","ios":"levelo://app?vid=bd1fb047-1503-427f-b75e-bda7ffbeebc4"},"vehicle_type_id":"4","last_reported":1784809368,"current_range_meters":32800,"station_id":"ce4bhqp2rcd13ifvqhng","pricing_plan_id":"cebpf4jnsgd1na2vs0mg"},{"bike_id":"88c36d2f-6d71-4ae4-b478-6fab9ccdb2c2","system_id":"levelo_inurba_marseille","lat":43.28668,"lon":5.38651,"is_reserved":false,"is_disabled":false,"rental_uris":{"android":"levelo://app?vid=88c36d2f-6d71-4ae4-b478-6fab9ccdb2c2","ios":"levelo://app?vid=88c36d2f-6d71-4ae4-b478-6fab9ccdb2c2"},"vehicle_type_id":"4","last_reported":1784809368,"current_range_meters":26800,"station_id":"ce4bh492rcd13ifvqdug","pricing_plan_id":"cebpf4jnsgd1na2vs0mg"},{"bike_id":"8f7c963f-877f-4a35-ba1a-ea656cd67eeb","system_id":"levelo_inurba_marseille","lat":43.29265,"lon":5.3684,"is_reserved":false,"is_disabled":false,"rental_uris":{"android":"levelo://app?vid=8f7c963f-877f-4a35-ba1a-ea656cd67eeb","ios":"levelo://app?vid=8f7c963f-877f-4a35-ba1a-ea656cd67eeb"},"vehicle_type_id":"4","last_reported":1784809368,"current_range_meters":34000,"station_id":"","pricing_plan_id":"cebpf4jnsgd1na2vs0mg"},{"bike_id":"c3689d71-9902-48db-b040-07edf828a3f6","system_id":"levelo_inurba_marseille","lat":43.2985,"lon":5.36252,"is_reserved":false,"is_disabled":false,"rental_uris":{"android":"levelo://app?vid=c3689d71-9902-48db-b040-07edf828a3f6","ios":"levelo://app?vid=c3689d71-9902-48db-b040-07edf828a3f6"},"vehicle_type_id":"4","last_reported":1784809368,"current_range_meters":39200,"station_id":"ce4bgpp2rcd13ifvqc3g","pricing_plan_id":"cebpf4jnsgd1na2vs0mg"},{"bike_id":"f5f2078b-6342-4cb0-9ea4-8653e99238b8","system_id":"levelo_inurba_marseille","lat":43.29003,"lon":5.38139,"is_reserved":false,"is_disabled":false,"rental_uris":{"android":"levelo://app?vid=f5f2078b-6342-4cb0-9ea4-8653e99238b8","ios":"levelo://app?vid=f5f2078b-6342-4cb0-9ea4-8653e99238b8"},"vehicle_type_id":"4","last_reported":1784809368,"current_range_meters":30800,"station_id":"ce4bh4p2rcd13ifvqe1g","pricing_plan_id":"cebpf4jnsgd1na2vs0mg"},{"bike_id":"7302dada-e788-48ca-a955-da1cbe10ca21","system_id":"levelo_inurba_marseille","lat":43.29285,"lon":5.37433,"is_reserved":false,"is_disabled":false,"rental_uris":{"android":"levelo://app?vid=7302dada-e788-48ca-a955-da1cbe10ca21","ios":"levelo://app?vid=7302dada-e788-48ca-a955-da1cbe10ca21"},"vehicle_type_id":"4","last_reported":1784809368,"current_range_meters":39200,"station_id":"ce4bgi12rcd13ifvqb70","pricing_plan_id":"cebpf4jnsgd1na2vs0mg"},{"bike_id":"791444f5-ea77-415c-bc46-acf90bcecbed","system_id":"levelo_inurba_marseille","lat":43.24543,"lon":5.3953,"is_reserved":false,"is_disabled":false,"rental_uris":{"android":"levelo://app?vid=791444f5-ea77-415c-bc46-acf90bcecbed","ios":"levelo://app?vid=791444f5-ea77-415c-bc46-acf90bcecbed"},"vehicle_type_id":"4","last_reported":1784809368,"current_range_meters":38400,"station_id":"ce4bhlp2rcd13ifvqgjg","pricing_plan_id":"cebpf4jnsgd1na2vs0mg"},{"bike_id":"68c936a4-94e4-4078-88ac-9ef7889e6503","system_id":"levelo_inurba_marseille","lat":43.310394,"lon":5.371441,"is_reserved":false,"is_disabled":false,"rental_uris":{"android":"levelo://app?vid=68c936a4-94e4-4078-88ac-9ef7889e6503","ios":"levelo://app?vid=68c936a4-94e4-4078-88ac-9ef7889e6503"},"vehicle_type_id":"4","last_reported":1784809368,"current_range_meters":22000,"station_id":"st_d4kl2rp97mjs73e7tdfg","pricing_plan_id":"cebpf4jnsgd1na2vs0mg"},{"bike_id":"9bf34726-bb15-461f-9e3e-80ad5e4e343b","system_id":"levelo_inurba_marseille","lat":43.3139,"lon":5.3668,"is_reserved":false,"is_disabled":false,"rental_uris":{"android":"levelo://app?vid=9bf34726-bb15-461f-9e3e-80ad5e4e343b","ios":"levelo://app?vid=9bf34726-bb15-461f-9e3e-80ad5e4e343b"},"vehicle_type_id":"4","last_reported":1784809368,"current_range_meters":38800,"station_id":"ce4bgr92rcd13ifvqc6g","pricing_plan_id":"cebpf4jnsgd1na2vs0mg"},{"bike_id":"a338cea5-f797-4d31-b718-3121663ee29c","system_id":"levelo_inurba_marseille","lat":43.30379,"lon":5.37897,"is_reserved":false,"is_disabled":false,"rental_uris":{"android":"levelo://app?vid=a338cea5-f797-4d31-b718-3121663ee29c","ios":"levelo://app?vid=a338cea5-f797-4d31-b718-3121663ee29c"},"vehicle_type_id":"4","last_reported":1784809368,"current_range_meters":30000,"station_id":"","pricing_plan_id":"cebpf4jnsgd1na2vs0mg"},{"bike_id":"d8df631e-0228-438f-a299-9f714c4b44e1","system_id":"levelo_inurba_marseille","lat":43.29032,"lon":5.37556,"is_reserved":false,"is_disabled":false,"rental_uris":{"android":"levelo://app?vid=d8df631e-0228-438f-a299-9f714c4b44e1","ios":"levelo://app?vid=d8df631e-0228-438f-a299-9f714c4b44e1"},"vehicle_type_id":"4","last_reported":1784809368,"current_range_meters":37600,"station_id":"ce4bh692rcd13ifvqe90","pricing_plan_id":"cebpf4jnsgd1na2vs0mg"},{"bike_id":"110a6f3b-d1e5-47a0-91a3-b8755268b072","system_id":"levelo_inurba_marseille","lat":43.267853,"lon":5.394141,"is_reserved":false,"is_disabled":false,"rental_uris":{"android":"levelo://app?vid=110a6f3b-d1e5-47a0-91a3-b8755268b072","ios":"levelo://app?vid=110a6f3b-d1e5-47a0-91a3-b8755268b072"},"vehicle_type_id":"4","last_reported":1784809368,"current_range_meters":39200,"station_id":"ce4bhh12rcd13ifvqfg0","pricing_plan_id":"cebpf4jnsgd1na2vs0mg"},{"bike_id":"dd2d0a4a-1f67-4d16-96ef-1efd93129250","system_id":"levelo_inurba_marseille","lat":43.24389,"lon":5.37047,"is_reserved":false,"is_disabled":false,"rental_uris":{"android":"levelo://app?vid=dd2d0a4a-1f67-4d16-96ef-1efd93129250","ios":"levelo://app?vid=dd2d0a4a-1f67-4d16-96ef-1efd93129250"},"vehicle_type_id":"4","last_reported":1784809368,"current_range_meters":25600,"station_id":"ce4bhhh2rcd13ifvqfk0","pricing_plan_id":"cebpf4jnsgd1na2vs0mg"},{"bike_id":"a7c9489a-3c37-4218-bc38-92c335aa3a8a","system_id":"levelo_inurba_marseille","lat":43.28476,"lon":5.48384,"is_reserved":false,"is_disabled":false,"rental_uris":{"android":"levelo://app?vid=a7c9489a-3c37-4218-bc38-92c335aa3a8a","ios":"levelo://app?vid=a7c9489a-3c37-4218-bc38-92c335aa3a8a"},"vehicle_type_id":"4","last_reported":1784809368,"current_range_meters":39200,"station_id":"st_d3svhcjqgbts73a3dn0g","pricing_plan_id":"cebpf4jnsgd1na2vs0mg"},{"bike_id":"66a838d5-10eb-4fbb-91db-7fba2605a9ce","system_id":"levelo_inurba_marseille","lat":43.25496,"lon":5.3767,"is_reserved":false,"is_disabled":false,"rental_uris":{"android":"levelo://app?vid=66a838d5-10eb-4fbb-91db-7fba2605a9ce","ios":"levelo://app?vid=66a838d5-10eb-4fbb-91db-7fba2605a9ce"},"vehicle_type_id":"4","last_reported":1784809368,"current_range_meters":39200,"station_id":"ce4bhh12rcd13ifvqff0","pricing_plan_id":"cebpf4jnsgd1na2vs0mg"},{"bike_id":"8c1def6b-0927-4158-8185-1819b5c69c82","system_id":"levelo_inurba_marseille","lat":43.25925,"lon":5.40906,"is_reserved":false,"is_disabled":false,"rental_uris":{"android":"levelo://app?vid=8c1def6b-0927-4158-8185-1819b5c69c82","ios":"levelo://app?vid=8c1def6b-0927-4158-8185-1819b5c69c82"},"vehicle_type_id":"4","last_reported":1784809368,"current_range_meters":38000,"station_id":"ce4bhm92rcd13ifvqglg","pricing_plan_id":"cebpf4jnsgd1na2vs0mg"},{"bike_id":"02bc1f6e-a93d-4c6f-8463-6b5ba3d4d3d8","system_id":"levelo_inurba_marseille","lat":43.25512,"lon":5.37643,"is_reserved":false,"is_disabled":false,"rental_uris":{"android":"levelo://app?vid=02bc1f6e-a93d-4c6f-8463-6b5ba3d4d3d8","ios":"levelo://app?vid=02bc1f6e-a93d-4c6f-8463-6b5ba3d4d3d8"},"vehicle_type_id":"4","last_reported":1784809368,"current_range_meters":39200,"station_id":"ce4bhh12rcd13ifvqff0","pricing_plan_id":"cebpf4jnsgd1na2vs0mg"},{"bike_id":"dcb52276-35bc-42b7-9a0d-fe3391fbd2fe","system_id":"levelo_inurba_marseille","lat":43.32492,"lon":5.36563,"is_reserved":false,"is_disabled":false,"rental_uris":{"android":"levelo://app?vid=dcb52276-35bc-42b7-9a0d-fe3391fbd2fe","ios":"levelo://app?vid=dcb52276-35bc-42b7-9a0d-fe3391fbd2fe"},"vehicle_type_id":"4","last_reported":1784809368,"current_range_meters":38800,"station_id":"ce4bhs12rcd13ifvqhvg","pricing_plan_id":"cebpf4jnsgd1na2vs0mg"},{"bike_id":"5aa3ca14-34f8-4cf6-bf98-84664ad40ed9","system_id":"levelo_inurba_marseille","lat":43.32342,"lon":5.38844,"is_reserved":false,"is_disabled":false,"rental_uris":{"android":"levelo://app?vid=5aa3ca14-34f8-4cf6-bf98-84664ad40ed9","ios":"levelo://app?vid=5aa3ca14-34f8-4cf6-bf98-84664ad40ed9"},"vehicle_type_id":"4","last_reported":1784809368,"current_range_meters":33600,"station_id":"ce4bhqp2rcd13ifvqhog","pricing_plan_id":"cebpf4jnsgd1na2vs0mg"},{"bike_id":"8a6ec7fe-bed1-4422-b468-fc06f5bbe6a3","system_id":"levelo_inurba_marseille","lat":43.2971,"lon":5.36605,"is_reserved":false,"is_disabled":false,"rental_uris":{"android":"levelo://app?vid=8a6ec7fe-bed1-4422-b468-fc06f5bbe6a3","ios":"levelo://app?vid=8a6ec7fe-bed1-4422-b468-fc06f5bbe6a3"},"vehicle_type_id":"4","last_reported":1784809368,"current_range_meters":12000,"station_id":"ce4bgn12rcd13ifvqbt0","pricing_plan_id":"cebpf4jnsgd1na2vs0mg"},{"bike_id":"8b48f329-937d-4f33-bc8e-cc3992c67190","system_id":"levelo_inurba_marseille","lat":43.29618,"lon":5.37162,"is_reserved":false,"is_disabled":true,"rental_uris":{"android":"levelo://app?vid=8b48f329-937d-4f33-bc8e-cc3992c67190","ios":"levelo://app?vid=8b48f329-937d-4f33-bc8e-cc3992c67190"},"vehicle_type_id":"4","last_reported":1784809368,"current_range_meters":32400,"station_id":"","pricing_plan_id":"cebpf4jnsgd1na2vs0mg"},{"bike_id":"8f0e7d8f-4628-4ae9-adf4-e14f8541deb9","system_id":"levelo_inurba_marseille","lat":43.27211,"lon":5.4097,"is_reserved":false,"is_disabled":false,"rental_uris":{"android":"levelo://app?vid=8f0e7d8f-4628-4ae9-adf4-e14f8541deb9","ios":"levelo://app?vid=8f0e7d8f-4628-4ae9-adf4-e14f8541deb9"},"vehicle_type_id":"4","last_reported":1784809368,"current_range_meters":17600,"station_id":"ce4bhl12rcd13ifvqgf0","pricing_plan_id":"cebpf4jnsgd1na2vs0mg"},{"bike_id":"d2563e03-959a-47a3-bf94-4194210db192","system_id":"levelo_inurba_marseille","lat":43.25342,"lon":5.39334,"is_reserved":false,"is_disabled":false,"rental_uris":{"android":"levelo://app?vid=d2563e03-959a-47a3-bf94-4194210db192","ios":"levelo://app?vid=d2563e03-959a-47a3-bf94-4194210db192"},"vehicle_type_id":"4","last_reported":1784809368,"current_range_meters":39200,"station_id":"","pricing_plan_id":"cebpf4jnsgd1na2vs0mg"},{"bike_id":"39a36ad1-0b8e-49e6-9193-d176f70f2fb4","system_id":"levelo_inurba_marseille","lat":43.317229,"lon":5.423956,"is_reserved":false,"is_disabled":false,"rental_uris":{"android":"levelo://app?vid=39a36ad1-0b8e-49e6-9193-d176f70f2fb4","ios":"levelo://app?vid=39a36ad1-0b8e-49e6-9193-d176f70f2fb4"},"vehicle_type_id":"4","last_reported":1784809368,"current_range_meters":28400,"station_id":"ce4bhp92rcd13ifvqhbg","pricing_plan_id":"cebpf4jnsgd1na2vs0mg"},{"bike_id":"b62c6f43-d381-4900-8a07-23d79aaa3392","system_id":"levelo_inurba_marseille","lat":43.29561,"lon":5.42297,"is_reserved":false,"is_disabled":false,"rental_uris":{"android":"levelo://app?vid=b62c6f43-d381-4900-8a07-23d79aaa3392","ios":"levelo://app?vid=b62c6f43-d381-4900-8a07-23d79aaa3392"},"vehicle_type_id":"4","last_reported":1784809368,"current_range_meters":12800,"station_id":"ce4bhph2rcd13ifvqhdg","pricing_plan_id":"cebpf4jnsgd1na2vs0mg"},{"bike_id":"b4ac26d0-963a-4a25-bf7e-8083e1294ae5","system_id":"levelo_inurba_marseille","lat":43.23958,"lon":5.36623,"is_reserved":false,"is_disabled":false,"rental_uris":{"android":"levelo://app?vid=b4ac26d0-963a-4a25-bf7e-8083e1294ae5","ios":"levelo://app?vid=b4ac26d0-963a-4a25-bf7e-8083e1294ae5"},"vehicle_type_id":"4","last_reported":1784809368,"current_range_meters":33200,"station_id":"ce4bhi12rcd13ifvqfp0","pricing_plan_id":"cebpf4jnsgd1na2vs0mg"},{"bike_id":"e9d0d147-0632-4910-8ba5-ffca986fabb8","system_id":"levelo_inurba_marseille","lat":43.30313,"lon":5.37677,"is_reserved":false,"is_disabled":false,"rental_uris":{"android":"levelo://app?vid=e9d0d147-0632-4910-8ba5-ffca986fabb8","ios":"levelo://app?vid=e9d0d147-0632-4910-8ba5-ffca986fabb8"},"vehicle_type_id":"4","last_reported":1784809368,"current_range_meters":39200,"station_id":"ce4bguh2rcd13ifvqcj0","pricing_plan_id":"cebpf4jnsgd1na2vs0mg"},{"bike_id":"3a295aff-6816-4af7-ac5a-87a5bd41c1cd","system_id":"levelo_inurba_marseille","lat":43.28484,"lon":5.48384,"is_reserved":false,"is_disabled":false,"rental_uris":{"android":"levelo://app?vid=3a295aff-6816-4af7-ac5a-87a5bd41c1cd","ios":"levelo://app?vid=3a295aff-6816-4af7-ac5a-87a5bd41c1cd"},"vehicle_type_id":"4","last_reported":1784809368,"current_range_meters":24000,"station_id":"st_d3svhcjqgbts73a3dn0g","pricing_plan_id":"cebpf4jnsgd1na2vs0mg"},{"bike_id":"7b1a34a9-9772-429a-ac81-dbcf3805788e","system_id":"levelo_inurba_marseille","lat":43.27888,"lon":5.35541,"is_reserved":false,"is_disabled":false,"rental_uris":{"android":"levelo://app?vid=7b1a34a9-9772-429a-ac81-dbcf3805788e","ios":"levelo://app?vid=7b1a34a9-9772-429a-ac81-dbcf3805788e"},"vehicle_type_id":"4","last_reported":1784809368,"current_range_meters":13600,"station_id":"","pricing_plan_id":"cebpf4jnsgd1na2vs0mg"},{"bike_id":"7604a6fd-063a-4db8-98a5-1a90fb1c01b2","system_id":"levelo_inurba_marseille","lat":43.27365,"lon":5.36256,"is_reserved":false,"is_disabled":false,"rental_uris":{"android":"levelo://app?vid=7604a6fd-063a-4db8-98a5-1a90fb1c01b2","ios":"levelo://app?vid=7604a6fd-063a-4db8-98a5-1a90fb1c01b2"},"vehicle_type_id":"4","last_reported":1784809368,"current_range_meters":11200,"station_id":"ce4bhbh2rcd13ifvqeo0","pricing_plan_id":"cebpf4jnsgd1na2vs0mg"},{"bike_id":"7b3c7af1-c0e8-4cb6-9c62-113673750307","system_id":"levelo_inurba_marseille","lat":43.29699,"lon":5.37294,"is_reserved":false,"is_disabled":false,"rental_uris":{"android":"levelo://app?vid=7b3c7af1-c0e8-4cb6-9c62-113673750307","ios":"levelo://app?vid=7b3c7af1-c0e8-4cb6-9c62-113673750307"},"vehicle_type_id":"4","last_reported":1784809368,"current_range_meters":28000,"station_id":"ce4bgk12rcd13ifvqbj0","pricing_plan_id":"cebpf4jnsgd1na2vs0mg"},{"bike_id":"6cd0b9a2-a893-4d86-a077-a039a6b6a0f1","system_id":"levelo_inurba_marseille","lat":43.28413,"lon":5.35005,"is_reserved":false,"is_disabled":true,"rental_uris":{"android":"levelo://app?vid=6cd0b9a2-a893-4d86-a077-a039a6b6a0f1","ios":"levelo://app?vid=6cd0b9a2-a893-4d86-a077-a039a6b6a0f1"},"vehicle_type_id":"4","last_reported":1784809368,"current_range_meters":20400,"station_id":"ce4bhbh2rcd13ifvqepg","pricing_plan_id":"cebpf4jnsgd1na2vs0mg"},{"bike_id":"b3615f38-9ae4-47b3-be0f-27da959fb130","system_id":"levelo_inurba_marseille","lat":43.26541,"lon":5.39603,"is_reserved":false,"is_disabled":false,"rental_uris":{"android":"levelo://app?vid=b3615f38-9ae4-47b3-be0f-27da959fb130","ios":"levelo://app?vid=b3615f38-9ae4-47b3-be0f-27da959fb130"},"vehicle_type_id":"4","last_reported":1784809368,"current_range_meters":11200,"station_id":"","pricing_plan_id":"cebpf4jnsgd1na2vs0mg"},{"bike_id":"39d72ffc-1a33-41e1-9a17-be2281455bda","system_id":"levelo_inurba_marseille","lat":43.29669,"lon":5.37298,"is_reserved":false,"is_disabled":false,"rental_uris":{"android":"levelo://app?vid=39d72ffc-1a33-41e1-9a17-be2281455bda","ios":"levelo://app?vid=39d72ffc-1a33-41e1-9a17-be2281455bda"},"vehicle_type_id":"4","last_reported":1784809368,"current_range_meters":33200,"station_id":"ce4bgk12rcd13ifvqbj0","pricing_plan_id":"cebpf4jnsgd1na2vs0mg"},{"bike_id":"86e6c05a-8183-49c5-864a-ac306427a2e0","system_id":"levelo_inurba_marseille","lat":43.28666,"lon":5.36347,"is_reserved":false,"is_disabled":false,"rental_uris":{"android":"levelo://app?vid=86e6c05a-8183-49c5-864a-ac306427a2e0","ios":"levelo://app?vid=86e6c05a-8183-49c5-864a-ac306427a2e0"},"vehicle_type_id":"4","last_reported":1784809368,"current_range_meters":34800,"station_id":"ce4bhah2rcd13ifvqej0","pricing_plan_id":"cebpf4jnsgd1na2vs0mg"},{"bike_id":"8094c541-617a-4d8d-a8a0-d0bafcd084c1","system_id":"levelo_inurba_marseille","lat":43.27824,"lon":5.4076,"is_reserved":false,"is_disabled":false,"rental_uris":{"android":"levelo://app?vid=8094c541-617a-4d8d-a8a0-d0bafcd084c1","ios":"levelo://app?vid=8094c541-617a-4d8d-a8a0-d0bafcd084c1"},"vehicle_type_id":"4","last_reported":1784809368,"current_range_meters":38400,"station_id":"ce4bhnh2rcd13ifvqgtg","pricing_plan_id":"cebpf4jnsgd1na2vs0mg"},{"bike_id":"01d9a676-01f3-4b98-beb9-e0a1a490c722","system_id":"levelo_inurba_marseille","lat":43.28158,"lon":5.42661,"is_reserved":false,"is_disabled":false,"rental_uris":{"android":"levelo://app?vid=01d9a676-01f3-4b98-beb9-e0a1a490c722","ios":"levelo://app?vid=01d9a676-01f3-4b98-beb9-e0a1a490c722"},"vehicle_type_id":"4","last_reported":1784809368,"current_range_meters":25200,"station_id":"ce4bhnh2rcd13ifvqgug","pricing_plan_id":"cebpf4jnsgd1na2vs0mg"},{"bike_id":"f765bc46-853b-4f5f-a0cf-13f9a2c85881","system_id":"levelo_inurba_marseille","lat":43.32081,"lon":5.36794,"is_reserved":false,"is_disabled":false,"rental_uris":{"android":"levelo://app?vid=f765bc46-853b-4f5f-a0cf-13f9a2c85881","ios":"levelo://app?vid=f765bc46-853b-4f5f-a0cf-13f9a2c85881"},"vehicle_type_id":"4","last_reported":1784809368,"current_range_meters":29600,"station_id":"ce4bhrh2rcd13ifvqhug","pricing_plan_id":"cebpf4jnsgd1na2vs0mg"},{"bike_id":"d8c0979f-8104-4cab-8d51-f042d27fce31","system_id":"levelo_inurba_marseille","lat":43.31354,"lon":5.36707,"is_reserved":false,"is_disabled":false,"rental_uris":{"android":"levelo://app?vid=d8c0979f-8104-4cab-8d51-f042d27fce31","ios":"levelo://app?vid=d8c0979f-8104-4cab-8d51-f042d27fce31"},"vehicle_type_id":"4","last_reported":1784809368,"current_range_meters":32400,"station_id":"ce4bgr92rcd13ifvqc6g","pricing_plan_id":"cebpf4jnsgd1na2vs0mg"},{"bike_id":"c469d1f0-e1f3-4009-933d-1f7d58ff00a5","system_id":"levelo_inurba_marseille","lat":43.25851,"lon":5.39905,"is_reserved":false,"is_disabled":false,"rental_uris":{"android":"levelo://app?vid=c469d1f0-e1f3-4009-933d-1f7d58ff00a5","ios":"levelo://app?vid=c469d1f0-e1f3-4009-933d-1f7d58ff00a5"},"vehicle_type_id":"4","last_reported":1784809368,"current_range_meters":24400,"station_id":"ce4bhl92rcd13ifvqghg","pricing_plan_id":"cebpf4jnsgd1na2vs0mg"},{"bike_id":"a13e16e4-e177-431d-8bef-33b38f696e96","system_id":"levelo_inurba_marseille","lat":43.26759,"lon":5.3998,"is_reserved":false,"is_disabled":false,"rental_uris":{"android":"levelo://app?vid=a13e16e4-e177-431d-8bef-33b38f696e96","ios":"levelo://app?vid=a13e16e4-e177-431d-8bef-33b38f696e96"},"vehicle_type_id":"4","last_reported":1784809368,"current_range_meters":21600,"station_id":"","pricing_plan_id":"cebpf4jnsgd1na2vs0mg"},{"bike_id":"2d7109ad-46e8-47c3-91fe-8fafb72b67c5","system_id":"levelo_inurba_marseille","lat":43.31882,"lon":5.36818,"is_reserved":false,"is_disabled":false,"rental_uris":{"android":"levelo://app?vid=2d7109ad-46e8-47c3-91fe-8fafb72b67c5","ios":"levelo://app?vid=2d7109ad-46e8-47c3-91fe-8fafb72b67c5"},"vehicle_type_id":"4","last_reported":1784809368,"current_range_meters":3600,"station_id":"st_d6o2h0d0559c73evc1b0","pricing_plan_id":"cebpf4jnsgd1na2vs0mg"},{"bike_id":"95afa2c1-6059-411a-b01e-fbab5e71cd62","system_id":"levelo_inurba_marseille","lat":43.28417,"lon":5.34994,"is_reserved":false,"is_disabled":false,"rental_uris":{"android":"levelo://app?vid=95afa2c1-6059-411a-b01e-fbab5e71cd62","ios":"levelo://app?vid=95afa2c1-6059-411a-b01e-fbab5e71cd62"},"vehicle_type_id":"4","last_reported":1784809368,"current_range_meters":4400,"station_id":"ce4bhbh2rcd13ifvqepg","pricing_plan_id":"cebpf4jnsgd1na2vs0mg"},{"bike_id":"de84f93e-2efe-44dd-902e-99315be80f66","system_id":"levelo_inurba_marseille","lat":43.24707,"lon":5.40316,"is_reserved":false,"is_disabled":false,"rental_uris":{"android":"levelo://app?vid=de84f93e-2efe-44dd-902e-99315be80f66","ios":"levelo://app?vid=de84f93e-2efe-44dd-902e-99315be80f66"},"vehicle_type_id":"4","last_reported":1784809368,"current_range_meters":33200,"station_id":"","pricing_plan_id":"cebpf4jnsgd1na2vs0mg"},{"bike_id":"522b8aa6-8236-4f78-beb0-6379f95a165b","system_id":"levelo_inurba_marseille","lat":43.25495,"lon":5.37648,"is_reserved":false,"is_disabled":false,"rental_uris":{"android":"levelo://app?vid=522b8aa6-8236-4f78-beb0-6379f95a165b","ios":"levelo://app?vid=522b8aa6-8236-4f78-beb0-6379f95a165b"},"vehicle_type_id":"4","last_reported":1784809368,"current_range_meters":33600,"station_id":"ce4bhh12rcd13ifvqff0","pricing_plan_id":"cebpf4jnsgd1na2vs0mg"},{"bike_id":"9204c48f-8df7-43a3-b478-da259247ecd0","system_id":"levelo_inurba_marseille","lat":43.32474,"lon":5.36565,"is_reserved":false,"is_disabled":false,"rental_uris":{"android":"levelo://app?vid=9204c48f-8df7-43a3-b478-da259247ecd0","ios":"levelo://app?vid=9204c48f-8df7-43a3-b478-da259247ecd0"},"vehicle_type_id":"4","last_reported":1784809368,"current_range_meters":40000,"station_id":"ce4bhs12rcd13ifvqhvg","pricing_plan_id":"cebpf4jnsgd1na2vs0mg"},{"bike_id":"05d8a5eb-eb3c-484e-8401-3cb73deadbd0","system_id":"levelo_inurba_marseille","lat":43.24403,"lon":5.37051,"is_reserved":false,"is_disabled":false,"rental_uris":{"android":"levelo://app?vid=05d8a5eb-eb3c-484e-8401-3cb73deadbd0","ios":"levelo://app?vid=05d8a5eb-eb3c-484e-8401-3cb73deadbd0"},"vehicle_type_id":"4","last_reported":1784809368,"current_range_meters":39200,"station_id":"ce4bhhh2rcd13ifvqfk0","pricing_plan_id":"cebpf4jnsgd1na2vs0mg"},{"bike_id":"7d8a4efb-c8d5-4ff5-b142-546ee6ec50fd","system_id":"levelo_inurba_marseille","lat":43.30908,"lon":5.36884,"is_reserved":false,"is_disabled":false,"rental_uris":{"android":"levelo://app?vid=7d8a4efb-c8d5-4ff5-b142-546ee6ec50fd","ios":"levelo://app?vid=7d8a4efb-c8d5-4ff5-b142-546ee6ec50fd"},"vehicle_type_id":"4","last_reported":1784809368,"current_range_meters":39200,"station_id":"ce4bgn92rcd13ifvqbvg","pricing_plan_id":"cebpf4jnsgd1na2vs0mg"},{"bike_id":"0cd505d4-fb3f-4b6f-b3c6-2bf8aadd7189","system_id":"levelo_inurba_marseille","lat":43.290058,"lon":5.356187,"is_reserved":false,"is_disabled":false,"rental_uris":{"android":"levelo://app?vid=0cd505d4-fb3f-4b6f-b3c6-2bf8aadd7189","ios":"levelo://app?vid=0cd505d4-fb3f-4b6f-b3c6-2bf8aadd7189"},"vehicle_type_id":"4","last_reported":1784809368,"current_range_meters":37600,"station_id":"ce4bhgp2rcd13ifvqfc0","pricing_plan_id":"cebpf4jnsgd1na2vs0mg"},{"bike_id":"211436c8-766b-4f01-a0a3-c0ce7d2281b6","system_id":"levelo_inurba_marseille","lat":43.28438,"lon":5.37512,"is_reserved":false,"is_disabled":false,"rental_uris":{"android":"levelo://app?vid=211436c8-766b-4f01-a0a3-c0ce7d2281b6","ios":"levelo://app?vid=211436c8-766b-4f01-a0a3-c0ce7d2281b6"},"vehicle_type_id":"4","last_reported":1784809368,"current_range_meters":22400,"station_id":"ce4bh412rcd13ifvqds0","pricing_plan_id":"cebpf4jnsgd1na2vs0mg"},{"bike_id":"c037fd15-1fb4-4aa0-a4c6-442b2b874fab","system_id":"levelo_inurba_marseille","lat":43.29055,"lon":5.39926,"is_reserved":false,"is_disabled":true,"rental_uris":{"android":"levelo://app?vid=c037fd15-1fb4-4aa0-a4c6-442b2b874fab","ios":"levelo://app?vid=c037fd15-1fb4-4aa0-a4c6-442b2b874fab"},"vehicle_type_id":"4","last_reported":1784809368,"current_range_meters":26000,"station_id":"ce4bh392rcd13ifvqdm0","pricing_plan_id":"cebpf4jnsgd1na2vs0mg"},{"bike_id":"cc006e8d-9994-4528-8a38-cb8b15486a1f","system_id":"levelo_inurba_marseille","lat":43.28504,"lon":5.3856,"is_reserved":false,"is_disabled":false,"rental_uris":{"android":"levelo://app?vid=cc006e8d-9994-4528-8a38-cb8b15486a1f","ios":"levelo://app?vid=cc006e8d-9994-4528-8a38-cb8b15486a1f"},"vehicle_type_id":"4","last_reported":1784809368,"current_range_meters":34000,"station_id":"ce4bh8p2rcd13ifvqeb0","pricing_plan_id":"cebpf4jnsgd1na2vs0mg"},{"bike_id":"b1410dd3-a227-43c2-a1e5-5e0cf1dc88cc","system_id":"levelo_inurba_marseille","lat":43.260297,"lon":5.375483,"is_reserved":false,"is_disabled":false,"rental_uris":{"android":"levelo://app?vid=b1410dd3-a227-43c2-a1e5-5e0cf1dc88cc","ios":"levelo://app?vid=b1410dd3-a227-43c2-a1e5-5e0cf1dc88cc"},"vehicle_type_id":"4","last_reported":1784809368,"current_range_meters":39200,"station_id":"ce4bhgh2rcd13ifvqfa0","pricing_plan_id":"cebpf4jnsgd1na2vs0mg"},{"bike_id":"e1052ad6-9919-402d-856b-e669b10073d1","system_id":"levelo_inurba_marseille","lat":43.29606,"lon":5.3773,"is_reserved":false,"is_disabled":false,"rental_uris":{"android":"levelo://app?vid=e1052ad6-9919-402d-856b-e669b10073d1","ios":"levelo://app?vid=e1052ad6-9919-402d-856b-e669b10073d1"},"vehicle_type_id":"4","last_reported":1784809368,"current_range_meters":8800,"station_id":"ce4bgi92rcd13ifvqb90","pricing_plan_id":"cebpf4jnsgd1na2vs0mg"},{"bike_id":"7caeb169-a2b5-4da4-b7e2-f02205e02dd6","system_id":"levelo_inurba_marseille","lat":43.28691,"lon":5.37937,"is_reserved":false,"is_disabled":false,"rental_uris":{"android":"levelo://app?vid=7caeb169-a2b5-4da4-b7e2-f02205e02dd6","ios":"levelo://app?vid=7caeb169-a2b5-4da4-b7e2-f02205e02dd6"},"vehicle_type_id":"4","last_reported":1784809368,"current_range_meters":36800,"station_id":"ce4bh9p2rcd13ifvqec0","pricing_plan_id":"cebpf4jnsgd1na2vs0mg"},{"bike_id":"c47332da-5d73-4c5e-93dd-1bdf36fd44fc","system_id":"levelo_inurba_marseille","lat":43.23939,"lon":5.36642,"is_reserved":false,"is_disabled":false,"rental_uris":{"android":"levelo://app?vid=c47332da-5d73-4c5e-93dd-1bdf36fd44fc","ios":"levelo://app?vid=c47332da-5d73-4c5e-93dd-1bdf36fd44fc"},"vehicle_type_id":"4","last_reported":1784809368,"current_range_meters":28400,"station_id":"ce4bhi12rcd13ifvqfp0","pricing_plan_id":"cebpf4jnsgd1na2vs0mg"},{"bike_id":"038d64ab-3425-45b2-aa13-b862e9b5e3ba","system_id":"levelo_inurba_marseille","lat":43.30973,"lon":5.39047,"is_reserved":false,"is_disabled":true,"rental_uris":{"android":"levelo://app?vid=038d64ab-3425-45b2-aa13-b862e9b5e3ba","ios":"levelo://app?vid=038d64ab-3425-45b2-aa13-b862e9b5e3ba"},"vehicle_type_id":"4","last_reported":1784809368,"current_range_meters":800,"station_id":"ce4bgup2rcd13ifvqco0","pricing_plan_id":"cebpf4jnsgd1na2vs0mg"},{"bike_id":"130a1451-91d5-42c2-ab7b-3a335873b143","system_id":"levelo_inurba_marseille","lat":43.27501,"lon":5.41573,"is_reserved":false,"is_disabled":false,"rental_uris":{"android":"levelo://app?vid=130a1451-91d5-42c2-ab7b-3a335873b143","ios":"levelo://app?vid=130a1451-91d5-42c2-ab7b-3a335873b143"},"vehicle_type_id":"4","last_reported":1784809368,"current_range_meters":38400,"station_id":"st_d6im8g6chgec73a5pndg","pricing_plan_id":"cebpf4jnsgd1na2vs0mg"},{"bike_id":"f1288106-a8c3-4624-ad2a-44299213b3e2","system_id":"levelo_inurba_marseille","lat":43.29598,"lon":5.36745,"is_reserved":false,"is_disabled":true,"rental_uris":{"android":"levelo://app?vid=f1288106-a8c3-4624-ad2a-44299213b3e2","ios":"levelo://app?vid=f1288106-a8c3-4624-ad2a-44299213b3e2"},"vehicle_type_id":"4","last_reported":1784809368,"current_range_meters":39200,"station_id":"","pricing_plan_id":"cebpf4jnsgd1na2vs0mg"},{"bike_id":"79067745-b4d4-448a-9910-f4dddbdb5cb0","system_id":"levelo_inurba_marseille","lat":43.313308,"lon":5.366996,"is_reserved":false,"is_disabled":false,"rental_uris":{"android":"levelo://app?vid=79067745-b4d4-448a-9910-f4dddbdb5cb0","ios":"levelo://app?vid=79067745-b4d4-448a-9910-f4dddbdb5cb0"},"vehicle_type_id":"4","last_reported":1784809368,"current_range_meters":22000,"station_id":"","pricing_plan_id":"cebpf4jnsgd1na2vs0mg"},{"bike_id":"ab907c16-2123-44c2-912f-95e0f2737c03","system_id":"levelo_inurba_marseille","lat":43.30397,"lon":5.42716,"is_reserved":false,"is_disabled":true,"rental_uris":{"android":"levelo://app?vid=ab907c16-2123-44c2-912f-95e0f2737c03","ios":"levelo://app?vid=ab907c16-2123-44c2-912f-95e0f2737c03"},"vehicle_type_id":"4","last_reported":1784809368,"current_range_meters":20400,"station_id":"","pricing_plan_id":"cebpf4jnsgd1na2vs0mg"},{"bike_id":"0f27047d-3cee-486f-bbfd-4e43b3a3a5db","system_id":"levelo_inurba_marseille","lat":43.32089,"lon":5.36792,"is_reserved":false,"is_disabled":false,"rental_uris":{"android":"levelo://app?vid=0f27047d-3cee-486f-bbfd-4e43b3a3a5db","ios":"levelo://app?vid=0f27047d-3cee-486f-bbfd-4e43b3a3a5db"},"vehicle_type_id":"4","last_reported":1784809368,"current_range_meters":30800,"station_id":"ce4bhrh2rcd13ifvqhug","pricing_plan_id":"cebpf4jnsgd1na2vs0mg"},{"bike_id":"c5647778-c9fd-4faa-80eb-ad7d6bd96069","system_id":"levelo_inurba_marseille","lat":43.28418,"lon":5.37513,"is_reserved":false,"is_disabled":false,"rental_uris":{"android":"levelo://app?vid=c5647778-c9fd-4faa-80eb-ad7d6bd96069","ios":"levelo://app?vid=c5647778-c9fd-4faa-80eb-ad7d6bd96069"},"vehicle_type_id":"4","last_reported":1784809368,"current_range_meters":8800,"station_id":"ce4bh412rcd13ifvqds0","pricing_plan_id":"cebpf4jnsgd1na2vs0mg"},{"bike_id":"a68600bb-7cb8-446a-8af2-4628e3a05293","system_id":"levelo_inurba_marseille","lat":43.31043,"lon":5.3711,"is_reserved":false,"is_disabled":false,"rental_uris":{"android":"levelo://app?vid=a68600bb-7cb8-446a-8af2-4628e3a05293","ios":"levelo://app?vid=a68600bb-7cb8-446a-8af2-4628e3a05293"},"vehicle_type_id":"4","last_reported":1784809368,"current_range_meters":5600,"station_id":"st_d4kl2rp97mjs73e7tdfg","pricing_plan_id":"cebpf4jnsgd1na2vs0mg"},{"bike_id":"88ced82f-3d64-42bd-9b21-5d08c0dbd8d3","system_id":"levelo_inurba_marseille","lat":43.25925,"lon":5.4091,"is_reserved":false,"is_disabled":false,"rental_uris":{"android":"levelo://app?vid=88ced82f-3d64-42bd-9b21-5d08c0dbd8d3","ios":"levelo://app?vid=88ced82f-3d64-42bd-9b21-5d08c0dbd8d3"},"vehicle_type_id":"4","last_reported":1784809368,"current_range_meters":25200,"station_id":"ce4bhm92rcd13ifvqglg","pricing_plan_id":"cebpf4jnsgd1na2vs0mg"},{"bike_id":"c520161e-c250-4161-a55a-6b287776d8da","system_id":"levelo_inurba_marseille","lat":43.28486,"lon":5.48394,"is_reserved":false,"is_disabled":false,"rental_uris":{"android":"levelo://app?vid=c520161e-c250-4161-a55a-6b287776d8da","ios":"levelo://app?vid=c520161e-c250-4161-a55a-6b287776d8da"},"vehicle_type_id":"4","last_reported":1784809368,"current_range_meters":25200,"station_id":"st_d3svhcjqgbts73a3dn0g","pricing_plan_id":"cebpf4jnsgd1na2vs0mg"},{"bike_id":"1be16c68-4af1-419d-93d4-773b2af07f2a","system_id":"levelo_inurba_marseille","lat":43.28533,"lon":5.4413,"is_reserved":false,"is_disabled":false,"rental_uris":{"android":"levelo://app?vid=1be16c68-4af1-419d-93d4-773b2af07f2a","ios":"levelo://app?vid=1be16c68-4af1-419d-93d4-773b2af07f2a"},"vehicle_type_id":"4","last_reported":1784809368,"current_range_meters":39200,"station_id":"st_d3j3df2ikq2c7380ej80","pricing_plan_id":"cebpf4jnsgd1na2vs0mg"},{"bike_id":"5da9832b-9d95-4c71-920e-974ffc445ef1","system_id":"levelo_inurba_marseille","lat":43.25487,"lon":5.3764,"is_reserved":false,"is_disabled":false,"rental_uris":{"android":"levelo://app?vid=5da9832b-9d95-4c71-920e-974ffc445ef1","ios":"levelo://app?vid=5da9832b-9d95-4c71-920e-974ffc445ef1"},"vehicle_type_id":"4","last_reported":1784809368,"current_range_meters":25600,"station_id":"ce4bhh12rcd13ifvqff0","pricing_plan_id":"cebpf4jnsgd1na2vs0mg"},{"bike_id":"871b7acd-6bff-4f2c-9121-63b574d46de7","system_id":"levelo_inurba_marseille","lat":43.32529,"lon":5.41474,"is_reserved":false,"is_disabled":false,"rental_uris":{"android":"levelo://app?vid=871b7acd-6bff-4f2c-9121-63b574d46de7","ios":"levelo://app?vid=871b7acd-6bff-4f2c-9121-63b574d46de7"},"vehicle_type_id":"4","last_reported":1784809368,"current_range_meters":28400,"station_id":"ce4bhq12rcd13ifvqhhg","pricing_plan_id":"cebpf4jnsgd1na2vs0mg"},{"bike_id":"42a5d6f2-926a-4725-99ed-db0e59d1f27f","system_id":"levelo_inurba_marseille","lat":43.31481,"lon":5.37239,"is_reserved":false,"is_disabled":false,"rental_uris":{"android":"levelo://app?vid=42a5d6f2-926a-4725-99ed-db0e59d1f27f","ios":"levelo://app?vid=42a5d6f2-926a-4725-99ed-db0e59d1f27f"},"vehicle_type_id":"4","last_reported":1784809368,"current_range_meters":36800,"station_id":"ce4bgt12rcd13ifvqcd0","pricing_plan_id":"cebpf4jnsgd1na2vs0mg"},{"bike_id":"1aa5a25d-6329-499b-a15c-43cf1a15c141","system_id":"levelo_inurba_marseille","lat":43.3051,"lon":5.36553,"is_reserved":false,"is_disabled":false,"rental_uris":{"android":"levelo://app?vid=1aa5a25d-6329-499b-a15c-43cf1a15c141","ios":"levelo://app?vid=1aa5a25d-6329-499b-a15c-43cf1a15c141"},"vehicle_type_id":"4","last_reported":1784809368,"current_range_meters":9600,"station_id":"","pricing_plan_id":"cebpf4jnsgd1na2vs0mg"},{"bike_id":"57de649b-e049-4a99-96de-111e997e9dcd","system_id":"levelo_inurba_marseille","lat":43.31428,"lon":5.36612,"is_reserved":false,"is_disabled":false,"rental_uris":{"android":"levelo://app?vid=57de649b-e049-4a99-96de-111e997e9dcd","ios":"levelo://app?vid=57de649b-e049-4a99-96de-111e997e9dcd"},"vehicle_type_id":"4","last_reported":1784809368,"current_range_meters":8800,"station_id":"","pricing_plan_id":"cebpf4jnsgd1na2vs0mg"},{"bike_id":"8105a612-d5c9-4adc-bdae-2b4274d6a713","system_id":"levelo_inurba_marseille","lat":43.30291,"lon":5.37705,"is_reserved":false,"is_disabled":false,"rental_uris":{"android":"levelo://app?vid=8105a612-d5c9-4adc-bdae-2b4274d6a713","ios":"levelo://app?vid=8105a612-d5c9-4adc-bdae-2b4274d6a713"},"vehicle_type_id":"4","last_reported":1784809368,"current_range_meters":19200,"station_id":"ce4bguh2rcd13ifvqcj0","pricing_plan_id":"cebpf4jnsgd1na2vs0mg"},{"bike_id":"6c16a819-a38e-43f6-9305-1a06e1a2d455","system_id":"levelo_inurba_marseille","lat":43.29533,"lon":5.38534,"is_reserved":false,"is_disabled":true,"rental_uris":{"android":"levelo://app?vid=6c16a819-a38e-43f6-9305-1a06e1a2d455","ios":"levelo://app?vid=6c16a819-a38e-43f6-9305-1a06e1a2d455"},"vehicle_type_id":"4","last_reported":1784809368,"current_range_meters":1600,"station_id":"ce4bgih2rcd13ifvqba0","pricing_plan_id":"cebpf4jnsgd1na2vs0mg"},{"bike_id":"c31ea38b-cee9-41a1-93fb-85dd217b0cbd","system_id":"levelo_inurba_marseille","lat":43.3373,"lon":5.36715,"is_reserved":false,"is_disabled":false,"rental_uris":{"android":"levelo://app?vid=c31ea38b-cee9-41a1-93fb-85dd217b0cbd","ios":"levelo://app?vid=c31ea38b-cee9-41a1-93fb-85dd217b0cbd"},"vehicle_type_id":"4","last_reported":1784809368,"current_range_meters":28400,"station_id":"","pricing_plan_id":"cebpf4jnsgd1na2vs0mg"},{"bike_id":"0353fca3-fbdd-4286-a9eb-ebce376c25fa","system_id":"levelo_inurba_marseille","lat":43.23374,"lon":5.41247,"is_reserved":false,"is_disabled":false,"rental_uris":{"android":"levelo://app?vid=0353fca3-fbdd-4286-a9eb-ebce376c25fa","ios":"levelo://app?vid=0353fca3-fbdd-4286-a9eb-ebce376c25fa"},"vehicle_type_id":"4","last_reported":1784809368,"current_range_meters":36800,"station_id":"st_d75pvndhf9lc73cqq3eg","pricing_plan_id":"cebpf4jnsgd1na2vs0mg"},{"bike_id":"b8e43a89-3bb1-4279-9cee-f7b093c9b703","system_id":"levelo_inurba_marseille","lat":43.33718,"lon":5.37415,"is_reserved":false,"is_disabled":false,"rental_uris":{"android":"levelo://app?vid=b8e43a89-3bb1-4279-9cee-f7b093c9b703","ios":"levelo://app?vid=b8e43a89-3bb1-4279-9cee-f7b093c9b703"},"vehicle_type_id":"4","last_reported":1784809368,"current_range_meters":10800,"station_id":"","pricing_plan_id":"cebpf4jnsgd1na2vs0mg"},{"bike_id":"0e49b035-1599-4d70-8c3c-5ed7259fb51f","system_id":"levelo_inurba_marseille","lat":43.30425,"lon":5.39732,"is_reserved":false,"is_disabled":true,"rental_uris":{"android":"levelo://app?vid=0e49b035-1599-4d70-8c3c-5ed7259fb51f","ios":"levelo://app?vid=0e49b035-1599-4d70-8c3c-5ed7259fb51f"},"vehicle_type_id":"4","last_reported":1784809368,"current_range_meters":400,"station_id":"ce4bh092rcd13ifvqd20","pricing_plan_id":"cebpf4jnsgd1na2vs0mg"},{"bike_id":"17ec69e9-f82e-42b7-8fd3-de92d2bea59d","system_id":"levelo_inurba_marseille","lat":43.2534,"lon":5.4217,"is_reserved":false,"is_disabled":false,"rental_uris":{"android":"levelo://app?vid=17ec69e9-f82e-42b7-8fd3-de92d2bea59d","ios":"levelo://app?vid=17ec69e9-f82e-42b7-8fd3-de92d2bea59d"},"vehicle_type_id":"4","last_reported":1784809368,"current_range_meters":20000,"station_id":"st_d2m65c5bi1j21697t3ng","pricing_plan_id":"cebpf4jnsgd1na2vs0mg"},{"bike_id":"17db08fa-3ff1-4223-90c8-7ee5991d42bc","system_id":"levelo_inurba_marseille","lat":43.2856,"lon":5.37762,"is_reserved":false,"is_disabled":false,"rental_uris":{"android":"levelo://app?vid=17db08fa-3ff1-4223-90c8-7ee5991d42bc","ios":"levelo://app?vid=17db08fa-3ff1-4223-90c8-7ee5991d42bc"},"vehicle_type_id":"4","last_reported":1784809368,"current_range_meters":33600,"station_id":"","pricing_plan_id":"cebpf4jnsgd1na2vs0mg"},{"bike_id":"b850a1f0-72ca-4919-ab6a-20e0728be7cc","system_id":"levelo_inurba_marseille","lat":43.27207,"lon":5.39195,"is_reserved":false,"is_disabled":false,"rental_uris":{"android":"levelo://app?vid=b850a1f0-72ca-4919-ab6a-20e0728be7cc","ios":"levelo://app?vid=b850a1f0-72ca-4919-ab6a-20e0728be7cc"},"vehicle_type_id":"4","last_reported":1784809368,"current_range_meters":38000,"station_id":"ce4bhhp2rcd13ifvqfm0","pricing_plan_id":"cebpf4jnsgd1na2vs0mg"},{"bike_id":"5783761d-f3a8-46b4-8c26-9812d8d66703","system_id":"levelo_inurba_marseille","lat":43.22535,"lon":5.34809,"is_reserved":false,"is_disabled":false,"rental_uris":{"android":"levelo://app?vid=5783761d-f3a8-46b4-8c26-9812d8d66703","ios":"levelo://app?vid=5783761d-f3a8-46b4-8c26-9812d8d66703"},"vehicle_type_id":"4","last_reported":1784809368,"current_range_meters":19200,"station_id":"st_cvj5dfep6f1abm77gieg","pricing_plan_id":"cebpf4jnsgd1na2vs0mg"},{"bike_id":"b4482313-d442-497e-b2c6-6c9bcdac09f3","system_id":"levelo_inurba_marseille","lat":43.28439,"lon":5.392,"is_reserved":false,"is_disabled":false,"rental_uris":{"android":"levelo://app?vid=b4482313-d442-497e-b2c6-6c9bcdac09f3","ios":"levelo://app?vid=b4482313-d442-497e-b2c6-6c9bcdac09f3"},"vehicle_type_id":"4","last_reported":1784809368,"current_range_meters":34000,"station_id":"ce4bhoh2rcd13ifvqh5g","pricing_plan_id":"cebpf4jnsgd1na2vs0mg"},{"bike_id":"edef674e-d003-42f9-9dc8-7f095b9d6d5a","system_id":"levelo_inurba_marseille","lat":43.30904,"lon":5.36868,"is_reserved":false,"is_disabled":false,"rental_uris":{"android":"levelo://app?vid=edef674e-d003-42f9-9dc8-7f095b9d6d5a","ios":"levelo://app?vid=edef674e-d003-42f9-9dc8-7f095b9d6d5a"},"vehicle_type_id":"4","last_reported":1784809368,"current_range_meters":36800,"station_id":"ce4bgn92rcd13ifvqbvg","pricing_plan_id":"cebpf4jnsgd1na2vs0mg"},{"bike_id":"6772e332-26aa-4530-86da-d14c0f48009d","system_id":"levelo_inurba_marseille","lat":43.26196,"lon":5.37451,"is_reserved":false,"is_disabled":false,"rental_uris":{"android":"levelo://app?vid=6772e332-26aa-4530-86da-d14c0f48009d","ios":"levelo://app?vid=6772e332-26aa-4530-86da-d14c0f48009d"},"vehicle_type_id":"4","last_reported":1784809368,"current_range_meters":38400,"station_id":"ce4bhgp2rcd13ifvqfc0","pricing_plan_id":"cebpf4jnsgd1na2vs0mg"},{"bike_id":"93207308-8c4a-4102-b921-5d8c2b7b7195","system_id":"levelo_inurba_marseille","lat":43.26193,"lon":5.37448,"is_reserved":false,"is_disabled":false,"rental_uris":{"android":"levelo://app?vid=93207308-8c4a-4102-b921-5d8c2b7b7195","ios":"levelo://app?vid=93207308-8c4a-4102-b921-5d8c2b7b7195"},"vehicle_type_id":"4","last_reported":1784809368,"current_range_meters":35600,"station_id":"ce4bhgp2rcd13ifvqfc0","pricing_plan_id":"cebpf4jnsgd1na2vs0mg"},{"bike_id":"13bbfe3b-874b-44d7-9abb-922c8de23c11","system_id":"levelo_inurba_marseille","lat":43.23245,"lon":5.35392,"is_reserved":false,"is_disabled":false,"rental_uris":{"android":"levelo://app?vid=13bbfe3b-874b-44d7-9abb-922c8de23c11","ios":"levelo://app?vid=13bbfe3b-874b-44d7-9abb-922c8de23c11"},"vehicle_type_id":"4","last_reported":1784809368,"current_range_meters":18800,"station_id":"","pricing_plan_id":"cebpf4jnsgd1na2vs0mg"},{"bike_id":"a29fc34b-47f0-4e6c-a49d-ad840f4184cd","system_id":"levelo_inurba_marseille","lat":43.33156,"lon":5.37668,"is_reserved":false,"is_disabled":false,"rental_uris":{"android":"levelo://app?vid=a29fc34b-47f0-4e6c-a49d-ad840f4184cd","ios":"levelo://app?vid=a29fc34b-47f0-4e6c-a49d-ad840f4184cd"},"vehicle_type_id":"4","last_reported":1784809368,"current_range_meters":39200,"station_id":"st_d46cu089ee8s73dldbu0","pricing_plan_id":"cebpf4jnsgd1na2vs0mg"},{"bike_id":"9a86c5d2-1372-44b0-9209-43c3e2bf6ce4","system_id":"levelo_inurba_marseille","lat":43.31359,"lon":5.36765,"is_reserved":false,"is_disabled":false,"rental_uris":{"android":"levelo://app?vid=9a86c5d2-1372-44b0-9209-43c3e2bf6ce4","ios":"levelo://app?vid=9a86c5d2-1372-44b0-9209-43c3e2bf6ce4"},"vehicle_type_id":"4","last_reported":1784809368,"current_range_meters":36800,"station_id":"","pricing_plan_id":"cebpf4jnsgd1na2vs0mg"},{"bike_id":"6ed5f8c3-6da8-4cec-bfad-13253a432d70","system_id":"levelo_inurba_marseille","lat":43.29404,"lon":5.38609,"is_reserved":false,"is_disabled":true,"rental_uris":{"android":"levelo://app?vid=6ed5f8c3-6da8-4cec-bfad-13253a432d70","ios":"levelo://app?vid=6ed5f8c3-6da8-4cec-bfad-13253a432d70"},"vehicle_type_id":"4","last_reported":1784809368,"current_range_meters":28800,"station_id":"","pricing_plan_id":"cebpf4jnsgd1na2vs0mg"},{"bike_id":"2abfcdfb-2eb0-4480-932d-1071dc8638d6","system_id":"levelo_inurba_marseille","lat":43.33521,"lon":5.37459,"is_reserved":false,"is_disabled":false,"rental_uris":{"android":"levelo://app?vid=2abfcdfb-2eb0-4480-932d-1071dc8638d6","ios":"levelo://app?vid=2abfcdfb-2eb0-4480-932d-1071dc8638d6"},"vehicle_type_id":"4","last_reported":1784809368,"current_range_meters":38400,"station_id":"st_d46tts09ee8s73dlu43g","pricing_plan_id":"cebpf4jnsgd1na2vs0mg"},{"bike_id":"0dee0085-d5a5-4c48-b3f1-a323bb744f3d","system_id":"levelo_inurba_marseille","lat":43.22552,"lon":5.41625,"is_reserved":false,"is_disabled":false,"rental_uris":{"android":"levelo://app?vid=0dee0085-d5a5-4c48-b3f1-a323bb744f3d","ios":"levelo://app?vid=0dee0085-d5a5-4c48-b3f1-a323bb744f3d"},"vehicle_type_id":"4","last_reported":1784809368,"current_range_meters":28400,"station_id":"st_d2o4gvlbi1j2169b742g","pricing_plan_id":"cebpf4jnsgd1na2vs0mg"},{"bike_id":"f8a62472-310a-4cdb-8033-1b7409152d27","system_id":"levelo_inurba_marseille","lat":43.25723,"lon":5.4113,"is_reserved":false,"is_disabled":false,"rental_uris":{"android":"levelo://app?vid=f8a62472-310a-4cdb-8033-1b7409152d27","ios":"levelo://app?vid=f8a62472-310a-4cdb-8033-1b7409152d27"},"vehicle_type_id":"4","last_reported":1784809368,"current_range_meters":23200,"station_id":"ce4bhkp2rcd13ifvqgd0","pricing_plan_id":"cebpf4jnsgd1na2vs0mg"},{"bike_id":"082a8540-8653-43a9-9ea9-5771a75d2e6d","system_id":"levelo_inurba_marseille","lat":43.32569,"lon":5.41496,"is_reserved":false,"is_disabled":false,"rental_uris":{"android":"levelo://app?vid=082a8540-8653-43a9-9ea9-5771a75d2e6d","ios":"levelo://app?vid=082a8540-8653-43a9-9ea9-5771a75d2e6d"},"vehicle_type_id":"4","last_reported":1784809368,"current_range_meters":22400,"station_id":"","pricing_plan_id":"cebpf4jnsgd1na2vs0mg"},{"bike_id":"717a125f-b47d-4aed-8e18-13104463fff3","system_id":"levelo_inurba_marseille","lat":43.31346,"lon":5.36721,"is_reserved":false,"is_disabled":false,"rental_uris":{"android":"levelo://app?vid=717a125f-b47d-4aed-8e18-13104463fff3","ios":"levelo://app?vid=717a125f-b47d-4aed-8e18-13104463fff3"},"vehicle_type_id":"4","last_reported":1784809368,"current_range_meters":28000,"station_id":"ce4bgr92rcd13ifvqc6g","pricing_plan_id":"cebpf4jnsgd1na2vs0mg"},{"bike_id":"0b2c45f2-fdaa-45fe-9511-e6426cab85f6","system_id":"levelo_inurba_marseille","lat":43.27481,"lon":5.42452,"is_reserved":false,"is_disabled":false,"rental_uris":{"android":"levelo://app?vid=0b2c45f2-fdaa-45fe-9511-e6426cab85f6","ios":"levelo://app?vid=0b2c45f2-fdaa-45fe-9511-e6426cab85f6"},"vehicle_type_id":"4","last_reported":1784809368,"current_range_meters":16400,"station_id":"ce4bhn92rcd13ifvqgrg","pricing_plan_id":"cebpf4jnsgd1na2vs0mg"},{"bike_id":"bab02215-d053-4e2f-9b13-4d4242979bd8","system_id":"levelo_inurba_marseille","lat":43.2319,"lon":5.35543,"is_reserved":false,"is_disabled":false,"rental_uris":{"android":"levelo://app?vid=bab02215-d053-4e2f-9b13-4d4242979bd8","ios":"levelo://app?vid=bab02215-d053-4e2f-9b13-4d4242979bd8"},"vehicle_type_id":"4","last_reported":1784809368,"current_range_meters":24400,"station_id":"ce4bhu92rcd13ifvqi70","pricing_plan_id":"cebpf4jnsgd1na2vs0mg"},{"bike_id":"41451726-cd6d-43d6-abd0-c4cca036012c","system_id":"levelo_inurba_marseille","lat":43.29293,"lon":5.3744,"is_reserved":false,"is_disabled":false,"rental_uris":{"android":"levelo://app?vid=41451726-cd6d-43d6-abd0-c4cca036012c","ios":"levelo://app?vid=41451726-cd6d-43d6-abd0-c4cca036012c"},"vehicle_type_id":"4","last_reported":1784809368,"current_range_meters":33200,"station_id":"ce4bgi12rcd13ifvqb70","pricing_plan_id":"cebpf4jnsgd1na2vs0mg"},{"bike_id":"a45c40d8-fca3-4348-8d63-233184c7f892","system_id":"levelo_inurba_marseille","lat":43.29558,"lon":5.37534,"is_reserved":false,"is_disabled":false,"rental_uris":{"android":"levelo://app?vid=a45c40d8-fca3-4348-8d63-233184c7f892","ios":"levelo://app?vid=a45c40d8-fca3-4348-8d63-233184c7f892"},"vehicle_type_id":"4","last_reported":1784809368,"current_range_meters":28400,"station_id":"ce4bgh92rcd13ifvqb50","pricing_plan_id":"cebpf4jnsgd1na2vs0mg"},{"bike_id":"dad5eff3-cb3a-4459-ba39-741abe4a6c6c","system_id":"levelo_inurba_marseille","lat":43.321,"lon":5.36768,"is_reserved":false,"is_disabled":false,"rental_uris":{"android":"levelo://app?vid=dad5eff3-cb3a-4459-ba39-741abe4a6c6c","ios":"levelo://app?vid=dad5eff3-cb3a-4459-ba39-741abe4a6c6c"},"vehicle_type_id":"4","last_reported":1784809368,"current_range_meters":4800,"station_id":"ce4bhrh2rcd13ifvqhug","pricing_plan_id":"cebpf4jnsgd1na2vs0mg"},{"bike_id":"4b83ed05-c620-41da-b800-89d3dfda1161","system_id":"levelo_inurba_marseille","lat":43.27371,"lon":5.36259,"is_reserved":false,"is_disabled":false,"rental_uris":{"android":"levelo://app?vid=4b83ed05-c620-41da-b800-89d3dfda1161","ios":"levelo://app?vid=4b83ed05-c620-41da-b800-89d3dfda1161"},"vehicle_type_id":"4","last_reported":1784809368,"current_range_meters":39200,"station_id":"ce4bhbh2rcd13ifvqeo0","pricing_plan_id":"cebpf4jnsgd1na2vs0mg"},{"bike_id":"2ff76878-60d0-43b0-a6e0-ed4e2fa4f72a","system_id":"levelo_inurba_marseille","lat":43.2766,"lon":5.3893,"is_reserved":false,"is_disabled":false,"rental_uris":{"android":"levelo://app?vid=2ff76878-60d0-43b0-a6e0-ed4e2fa4f72a","ios":"levelo://app?vid=2ff76878-60d0-43b0-a6e0-ed4e2fa4f72a"},"vehicle_type_id":"4","last_reported":1784809368,"current_range_meters":39200,"station_id":"ce4bhi12rcd13ifvqfo0","pricing_plan_id":"cebpf4jnsgd1na2vs0mg"},{"bike_id":"803f7df9-868f-456a-ad9f-b9f6950af8c3","system_id":"levelo_inurba_marseille","lat":43.23194,"lon":5.39978,"is_reserved":false,"is_disabled":false,"rental_uris":{"android":"levelo://app?vid=803f7df9-868f-456a-ad9f-b9f6950af8c3","ios":"levelo://app?vid=803f7df9-868f-456a-ad9f-b9f6950af8c3"},"vehicle_type_id":"4","last_reported":1784809368,"current_range_meters":38400,"station_id":"ce4bhn12rcd13ifvqgqg","pricing_plan_id":"cebpf4jnsgd1na2vs0mg"},{"bike_id":"8d8673aa-a69c-4d74-931d-06b8f35221f4","system_id":"levelo_inurba_marseille","lat":43.26698,"lon":5.41983,"is_reserved":false,"is_disabled":false,"rental_uris":{"android":"levelo://app?vid=8d8673aa-a69c-4d74-931d-06b8f35221f4","ios":"levelo://app?vid=8d8673aa-a69c-4d74-931d-06b8f35221f4"},"vehicle_type_id":"4","last_reported":1784809368,"current_range_meters":24400,"station_id":"","pricing_plan_id":"cebpf4jnsgd1na2vs0mg"},{"bike_id":"fafef446-91dd-4676-92a7-98ee5a6f2e38","system_id":"levelo_inurba_marseille","lat":43.299828,"lon":5.371924,"is_reserved":false,"is_disabled":false,"rental_uris":{"android":"levelo://app?vid=fafef446-91dd-4676-92a7-98ee5a6f2e38","ios":"levelo://app?vid=fafef446-91dd-4676-92a7-98ee5a6f2e38"},"vehicle_type_id":"4","last_reported":1784809368,"current_range_meters":32000,"station_id":"ce4bh4p2rcd13ifvqe1g","pricing_plan_id":"cebpf4jnsgd1na2vs0mg"},{"bike_id":"bb6c1d94-b8a1-4d7e-8e26-2628675f7e1d","system_id":"levelo_inurba_marseille","lat":43.29585,"lon":5.37719,"is_reserved":false,"is_disabled":true,"rental_uris":{"android":"levelo://app?vid=bb6c1d94-b8a1-4d7e-8e26-2628675f7e1d","ios":"levelo://app?vid=bb6c1d94-b8a1-4d7e-8e26-2628675f7e1d"},"vehicle_type_id":"4","last_reported":1784809368,"current_range_meters":17600,"station_id":"ce4bgi92rcd13ifvqb90","pricing_plan_id":"cebpf4jnsgd1na2vs0mg"},{"bike_id":"5673a960-0e32-4bdd-8d6b-e6dc82efbb88","system_id":"levelo_inurba_marseille","lat":43.30177,"lon":5.36662,"is_reserved":false,"is_disabled":false,"rental_uris":{"android":"levelo://app?vid=5673a960-0e32-4bdd-8d6b-e6dc82efbb88","ios":"levelo://app?vid=5673a960-0e32-4bdd-8d6b-e6dc82efbb88"},"vehicle_type_id":"4","last_reported":1784809368,"current_range_meters":30000,"station_id":"ce4bgrh2rcd13ifvqc8g","pricing_plan_id":"cebpf4jnsgd1na2vs0mg"},{"bike_id":"4de72bcc-ba73-4789-87ca-02059776a406","system_id":"levelo_inurba_marseille","lat":43.29198,"lon":5.36087,"is_reserved":false,"is_disabled":false,"rental_uris":{"android":"levelo://app?vid=4de72bcc-ba73-4789-87ca-02059776a406","ios":"levelo://app?vid=4de72bcc-ba73-4789-87ca-02059776a406"},"vehicle_type_id":"4","last_reported":1784809368,"current_range_meters":39200,"station_id":"ce4bhbh2rcd13ifvqeqg","pricing_plan_id":"cebpf4jnsgd1na2vs0mg"},{"bike_id":"1fade11d-8e73-4748-8586-d9741ca55ced","system_id":"levelo_inurba_marseille","lat":43.317152,"lon":5.437034,"is_reserved":false,"is_disabled":false,"rental_uris":{"android":"levelo://app?vid=1fade11d-8e73-4748-8586-d9741ca55ced","ios":"levelo://app?vid=1fade11d-8e73-4748-8586-d9741ca55ced"},"vehicle_type_id":"4","last_reported":1784809368,"current_range_meters":27200,"station_id":"ce4bhp92rcd13ifvqhcg","pricing_plan_id":"cebpf4jnsgd1na2vs0mg"},{"bike_id":"3b4b694d-9947-462a-9190-dac84103608c","system_id":"levelo_inurba_marseille","lat":43.29632,"lon":5.37169,"is_reserved":false,"is_disabled":false,"rental_uris":{"android":"levelo://app?vid=3b4b694d-9947-462a-9190-dac84103608c","ios":"levelo://app?vid=3b4b694d-9947-462a-9190-dac84103608c"},"vehicle_type_id":"4","last_reported":1784809368,"current_range_meters":28800,"station_id":"ce4bgnh2rcd13ifvqc0g","pricing_plan_id":"cebpf4jnsgd1na2vs0mg"},{"bike_id":"241041a3-a133-4c5d-a450-c48de99e19c4","system_id":"levelo_inurba_marseille","lat":43.295724,"lon":5.375266,"is_reserved":false,"is_disabled":true,"rental_uris":{"android":"levelo://app?vid=241041a3-a133-4c5d-a450-c48de99e19c4","ios":"levelo://app?vid=241041a3-a133-4c5d-a450-c48de99e19c4"},"vehicle_type_id":"4","last_reported":1784809368,"current_range_meters":1200,"station_id":"ce4bgh92rcd13ifvqb50","pricing_plan_id":"cebpf4jnsgd1na2vs0mg"},{"bike_id":"75146afd-6944-4808-9153-760cee29f303","system_id":"levelo_inurba_marseille","lat":43.24674,"lon":5.37857,"is_reserved":false,"is_disabled":false,"rental_uris":{"android":"levelo://app?vid=75146afd-6944-4808-9153-760cee29f303","ios":"levelo://app?vid=75146afd-6944-4808-9153-760cee29f303"},"vehicle_type_id":"4","last_reported":1784809368,"current_range_meters":21600,"station_id":"","pricing_plan_id":"cebpf4jnsgd1na2vs0mg"},{"bike_id":"6ccdb80e-0c8a-4f17-a34c-33ff437bd75c","system_id":"levelo_inurba_marseille","lat":43.28411,"lon":5.34992,"is_reserved":false,"is_disabled":false,"rental_uris":{"android":"levelo://app?vid=6ccdb80e-0c8a-4f17-a34c-33ff437bd75c","ios":"levelo://app?vid=6ccdb80e-0c8a-4f17-a34c-33ff437bd75c"},"vehicle_type_id":"4","last_reported":1784809368,"current_range_meters":38000,"station_id":"ce4bhbh2rcd13ifvqepg","pricing_plan_id":"cebpf4jnsgd1na2vs0mg"},{"bike_id":"cd3fe74b-3992-49f7-8e04-c4ec293f8de7","system_id":"levelo_inurba_marseille","lat":43.25922,"lon":5.40884,"is_reserved":false,"is_disabled":false,"rental_uris":{"android":"levelo://app?vid=cd3fe74b-3992-49f7-8e04-c4ec293f8de7","ios":"levelo://app?vid=cd3fe74b-3992-49f7-8e04-c4ec293f8de7"},"vehicle_type_id":"4","last_reported":1784809368,"current_range_meters":34000,"station_id":"ce4bhm92rcd13ifvqglg","pricing_plan_id":"cebpf4jnsgd1na2vs0mg"},{"bike_id":"27384048-d139-4f4f-80e7-49b1e71b3d7c","system_id":"levelo_inurba_marseille","lat":43.26195,"lon":5.37447,"is_reserved":false,"is_disabled":false,"rental_uris":{"android":"levelo://app?vid=27384048-d139-4f4f-80e7-49b1e71b3d7c","ios":"levelo://app?vid=27384048-d139-4f4f-80e7-49b1e71b3d7c"},"vehicle_type_id":"4","last_reported":1784809368,"current_range_meters":23200,"station_id":"ce4bhgp2rcd13ifvqfc0","pricing_plan_id":"cebpf4jnsgd1na2vs0mg"},{"bike_id":"0e2bcac4-09cf-40a3-852c-33333ad54630","system_id":"levelo_inurba_marseille","lat":43.26685,"lon":5.38256,"is_reserved":false,"is_disabled":false,"rental_uris":{"android":"levelo://app?vid=0e2bcac4-09cf-40a3-852c-33333ad54630","ios":"levelo://app?vid=0e2bcac4-09cf-40a3-852c-33333ad54630"},"vehicle_type_id":"4","last_reported":1784809368,"current_range_meters":10000,"station_id":"ce4bhg92rcd13ifvqf90","pricing_plan_id":"cebpf4jnsgd1na2vs0mg"},{"bike_id":"869ee720-8e33-4f55-ae56-95bc717bc7c2","system_id":"levelo_inurba_marseille","lat":43.30294,"lon":5.37724,"is_reserved":false,"is_disabled":false,"rental_uris":{"android":"levelo://app?vid=869ee720-8e33-4f55-ae56-95bc717bc7c2","ios":"levelo://app?vid=869ee720-8e33-4f55-ae56-95bc717bc7c2"},"vehicle_type_id":"4","last_reported":1784809368,"current_range_meters":27200,"station_id":"ce4bguh2rcd13ifvqcj0","pricing_plan_id":"cebpf4jnsgd1na2vs0mg"},{"bike_id":"2164a362-2abb-4a53-bf97-41f44930fe0f","system_id":"levelo_inurba_marseille","lat":43.29896,"lon":5.38157,"is_reserved":false,"is_disabled":false,"rental_uris":{"android":"levelo://app?vid=2164a362-2abb-4a53-bf97-41f44930fe0f","ios":"levelo://app?vid=2164a362-2abb-4a53-bf97-41f44930fe0f"},"vehicle_type_id":"4","last_reported":1784809368,"current_range_meters":37600,"station_id":"ce4bgj12rcd13ifvqbc0","pricing_plan_id":"cebpf4jnsgd1na2vs0mg"},{"bike_id":"84c42908-8be3-4d0d-b541-6c525938318a","system_id":"levelo_inurba_marseille","lat":43.25505,"lon":5.37651,"is_reserved":false,"is_disabled":false,"rental_uris":{"android":"levelo://app?vid=84c42908-8be3-4d0d-b541-6c525938318a","ios":"levelo://app?vid=84c42908-8be3-4d0d-b541-6c525938318a"},"vehicle_type_id":"4","last_reported":1784809368,"current_range_meters":12000,"station_id":"ce4bhh12rcd13ifvqff0","pricing_plan_id":"cebpf4jnsgd1na2vs0mg"},{"bike_id":"b99c7497-c8c6-4adf-87b2-7dbc17911de9","system_id":"levelo_inurba_marseille","lat":43.26927,"lon":5.40225,"is_reserved":false,"is_disabled":false,"rental_uris":{"android":"levelo://app?vid=b99c7497-c8c6-4adf-87b2-7dbc17911de9","ios":"levelo://app?vid=b99c7497-c8c6-4adf-87b2-7dbc17911de9"},"vehicle_type_id":"4","last_reported":1784809368,"current_range_meters":38400,"station_id":"cjm6bp8fraef2m0cb0m0","pricing_plan_id":"cebpf4jnsgd1na2vs0mg"},{"bike_id":"acb6c310-64e8-4ffb-9d0e-3645b38213aa","system_id":"levelo_inurba_marseille","lat":43.22551,"lon":5.41632,"is_reserved":false,"is_disabled":false,"rental_uris":{"android":"levelo://app?vid=acb6c310-64e8-4ffb-9d0e-3645b38213aa","ios":"levelo://app?vid=acb6c310-64e8-4ffb-9d0e-3645b38213aa"},"vehicle_type_id":"4","last_reported":1784809368,"current_range_meters":39200,"station_id":"st_d2o4gvlbi1j2169b742g","pricing_plan_id":"cebpf4jnsgd1na2vs0mg"},{"bike_id":"53df9775-9d78-4cf3-869d-128c6212913f","system_id":"levelo_inurba_marseille","lat":43.23211,"lon":5.35562,"is_reserved":false,"is_disabled":false,"rental_uris":{"android":"levelo://app?vid=53df9775-9d78-4cf3-869d-128c6212913f","ios":"levelo://app?vid=53df9775-9d78-4cf3-869d-128c6212913f"},"vehicle_type_id":"4","last_reported":1784809368,"current_range_meters":39200,"station_id":"ce4bhu92rcd13ifvqi70","pricing_plan_id":"cebpf4jnsgd1na2vs0mg"},{"bike_id":"2b2d5806-a98a-4b6d-8666-219c96826a65","system_id":"levelo_inurba_marseille","lat":43.33015,"lon":5.39066,"is_reserved":false,"is_disabled":false,"rental_uris":{"android":"levelo://app?vid=2b2d5806-a98a-4b6d-8666-219c96826a65","ios":"levelo://app?vid=2b2d5806-a98a-4b6d-8666-219c96826a65"},"vehicle_type_id":"4","last_reported":1784809368,"current_range_meters":6000,"station_id":"ce4bhr92rcd13ifvqhrg","pricing_plan_id":"cebpf4jnsgd1na2vs0mg"},{"bike_id":"9d4b8430-c687-4ce9-b117-2b375d0afc9f","system_id":"levelo_inurba_marseille","lat":43.23146,"lon":5.43717,"is_reserved":false,"is_disabled":false,"rental_uris":{"android":"levelo://app?vid=9d4b8430-c687-4ce9-b117-2b375d0afc9f","ios":"levelo://app?vid=9d4b8430-c687-4ce9-b117-2b375d0afc9f"},"vehicle_type_id":"4","last_reported":1784809368,"current_range_meters":31200,"station_id":"ce4bhmp2rcd13ifvqgog","pricing_plan_id":"cebpf4jnsgd1na2vs0mg"},{"bike_id":"39803727-acc1-4fed-9576-2082925b69e1","system_id":"levelo_inurba_marseille","lat":43.312447,"lon":5.368568,"is_reserved":false,"is_disabled":false,"rental_uris":{"android":"levelo://app?vid=39803727-acc1-4fed-9576-2082925b69e1","ios":"levelo://app?vid=39803727-acc1-4fed-9576-2082925b69e1"},"vehicle_type_id":"4","last_reported":1784809368,"current_range_meters":11200,"station_id":"ce4bgl92rcd13ifvqbq0","pricing_plan_id":"cebpf4jnsgd1na2vs0mg"},{"bike_id":"697db094-e28b-4a70-b56c-ce93d54f90f0","system_id":"levelo_inurba_marseille","lat":43.29568,"lon":5.37521,"is_reserved":false,"is_disabled":false,"rental_uris":{"android":"levelo://app?vid=697db094-e28b-4a70-b56c-ce93d54f90f0","ios":"levelo://app?vid=697db094-e28b-4a70-b56c-ce93d54f90f0"},"vehicle_type_id":"4","last_reported":1784809368,"current_range_meters":18000,"station_id":"ce4bgh92rcd13ifvqb50","pricing_plan_id":"cebpf4jnsgd1na2vs0mg"},{"bike_id":"b6047283-25f1-447f-afb4-fff364a0af5c","system_id":"levelo_inurba_marseille","lat":43.26205,"lon":5.37443,"is_reserved":false,"is_disabled":false,"rental_uris":{"android":"levelo://app?vid=b6047283-25f1-447f-afb4-fff364a0af5c","ios":"levelo://app?vid=b6047283-25f1-447f-afb4-fff364a0af5c"},"vehicle_type_id":"4","last_reported":1784809368,"current_range_meters":9600,"station_id":"ce4bhgp2rcd13ifvqfc0","pricing_plan_id":"cebpf4jnsgd1na2vs0mg"},{"bike_id":"a83f6dd4-a966-4c48-9c5e-40cd101889e5","system_id":"levelo_inurba_marseille","lat":43.28651,"lon":5.36358,"is_reserved":false,"is_disabled":false,"rental_uris":{"android":"levelo://app?vid=a83f6dd4-a966-4c48-9c5e-40cd101889e5","ios":"levelo://app?vid=a83f6dd4-a966-4c48-9c5e-40cd101889e5"},"vehicle_type_id":"4","last_reported":1784809368,"current_range_meters":24800,"station_id":"ce4bhah2rcd13ifvqej0","pricing_plan_id":"cebpf4jnsgd1na2vs0mg"},{"bike_id":"429123e4-dc43-429b-abc2-42a83c22e46e","system_id":"levelo_inurba_marseille","lat":43.23249,"lon":5.35542,"is_reserved":false,"is_disabled":false,"rental_uris":{"android":"levelo://app?vid=429123e4-dc43-429b-abc2-42a83c22e46e","ios":"levelo://app?vid=429123e4-dc43-429b-abc2-42a83c22e46e"},"vehicle_type_id":"4","last_reported":1784809368,"current_range_meters":28800,"station_id":"ce4bhu92rcd13ifvqi70","pricing_plan_id":"cebpf4jnsgd1na2vs0mg"},{"bike_id":"d1cf5449-a0cf-44f0-be17-09a200214b04","system_id":"levelo_inurba_marseille","lat":43.2958,"lon":5.37523,"is_reserved":false,"is_disabled":false,"rental_uris":{"android":"levelo://app?vid=d1cf5449-a0cf-44f0-be17-09a200214b04","ios":"levelo://app?vid=d1cf5449-a0cf-44f0-be17-09a200214b04"},"vehicle_type_id":"4","last_reported":1784809368,"current_range_meters":30800,"station_id":"ce4bgh92rcd13ifvqb50","pricing_plan_id":"cebpf4jnsgd1na2vs0mg"},{"bike_id":"662b89b8-94f6-40fd-b687-1617b7728b5f","system_id":"levelo_inurba_marseille","lat":43.24947,"lon":5.40485,"is_reserved":false,"is_disabled":false,"rental_uris":{"android":"levelo://app?vid=662b89b8-94f6-40fd-b687-1617b7728b5f","ios":"levelo://app?vid=662b89b8-94f6-40fd-b687-1617b7728b5f"},"vehicle_type_id":"4","last_reported":1784809368,"current_range_meters":39200,"station_id":"st_d2ngiaodas8pm72gd1h0","pricing_plan_id":"cebpf4jnsgd1na2vs0mg"},{"bike_id":"058a3f1c-d678-48e2-94fa-3407a76aea02","system_id":"levelo_inurba_marseille","lat":43.25515,"lon":5.37652,"is_reserved":false,"is_disabled":false,"rental_uris":{"android":"levelo://app?vid=058a3f1c-d678-48e2-94fa-3407a76aea02","ios":"levelo://app?vid=058a3f1c-d678-48e2-94fa-3407a76aea02"},"vehicle_type_id":"4","last_reported":1784809368,"current_range_meters":38400,"station_id":"ce4bhh12rcd13ifvqff0","pricing_plan_id":"cebpf4jnsgd1na2vs0mg"},{"bike_id":"bace381c-6258-4d80-80f1-070c343af026","system_id":"levelo_inurba_marseille","lat":43.33159,"lon":5.37692,"is_reserved":false,"is_disabled":false,"rental_uris":{"android":"levelo://app?vid=bace381c-6258-4d80-80f1-070c343af026","ios":"levelo://app?vid=bace381c-6258-4d80-80f1-070c343af026"},"vehicle_type_id":"4","last_reported":1784809368,"current_range_meters":6400,"station_id":"st_d46cu089ee8s73dldbu0","pricing_plan_id":"cebpf4jnsgd1na2vs0mg"},{"bike_id":"484e47bb-c244-4caf-825b-8db5ca56ab5f","system_id":"levelo_inurba_marseille","lat":43.24367,"lon":5.37055,"is_reserved":false,"is_disabled":false,"rental_uris":{"android":"levelo://app?vid=484e47bb-c244-4caf-825b-8db5ca56ab5f","ios":"levelo://app?vid=484e47bb-c244-4caf-825b-8db5ca56ab5f"},"vehicle_type_id":"4","last_reported":1784809368,"current_range_meters":38400,"station_id":"ce4bhhh2rcd13ifvqfk0","pricing_plan_id":"cebpf4jnsgd1na2vs0mg"},{"bike_id":"094c82ea-15e4-4be3-87e3-1dcfec8880f8","system_id":"levelo_inurba_marseille","lat":43.287377,"lon":5.361139,"is_reserved":false,"is_disabled":false,"rental_uris":{"android":"levelo://app?vid=094c82ea-15e4-4be3-87e3-1dcfec8880f8","ios":"levelo://app?vid=094c82ea-15e4-4be3-87e3-1dcfec8880f8"},"vehicle_type_id":"4","last_reported":1784809368,"current_range_meters":25200,"station_id":"","pricing_plan_id":"cebpf4jnsgd1na2vs0mg"},{"bike_id":"e9e543b0-8ca5-47a6-998c-4902ea53cdd4","system_id":"levelo_inurba_marseille","lat":43.25179,"lon":5.37324,"is_reserved":false,"is_disabled":true,"rental_uris":{"android":"levelo://app?vid=e9e543b0-8ca5-47a6-998c-4902ea53cdd4","ios":"levelo://app?vid=e9e543b0-8ca5-47a6-998c-4902ea53cdd4"},"vehicle_type_id":"4","last_reported":1784809368,"current_range_meters":8800,"station_id":"","pricing_plan_id":"cebpf4jnsgd1na2vs0mg"},{"bike_id":"2d2d2af5-a584-4e7e-a9e9-6119dd1e5b67","system_id":"levelo_inurba_marseille","lat":43.25923,"lon":5.40891,"is_reserved":false,"is_disabled":false,"rental_uris":{"android":"levelo://app?vid=2d2d2af5-a584-4e7e-a9e9-6119dd1e5b67","ios":"levelo://app?vid=2d2d2af5-a584-4e7e-a9e9-6119dd1e5b67"},"vehicle_type_id":"4","last_reported":1784809368,"current_range_meters":39200,"station_id":"ce4bhm92rcd13ifvqglg","pricing_plan_id":"cebpf4jnsgd1na2vs0mg"},{"bike_id":"74f75dec-8be0-4804-9118-bac5cfdccf76","system_id":"levelo_inurba_marseille","lat":43.279983,"lon":5.400053,"is_reserved":false,"is_disabled":false,"rental_uris":{"android":"levelo://app?vid=74f75dec-8be0-4804-9118-bac5cfdccf76","ios":"levelo://app?vid=74f75dec-8be0-4804-9118-bac5cfdccf76"},"vehicle_type_id":"4","last_reported":1784809368,"current_range_meters":16800,"station_id":"ce4bho92rcd13ifvqh4g","pricing_plan_id":"cebpf4jnsgd1na2vs0mg"},{"bike_id":"d647d695-b783-4a30-b041-b1f54b44b19f","system_id":"levelo_inurba_marseille","lat":43.24413,"lon":5.37039,"is_reserved":false,"is_disabled":false,"rental_uris":{"android":"levelo://app?vid=d647d695-b783-4a30-b041-b1f54b44b19f","ios":"levelo://app?vid=d647d695-b783-4a30-b041-b1f54b44b19f"},"vehicle_type_id":"4","last_reported":1784809368,"current_range_meters":29600,"station_id":"ce4bhhh2rcd13ifvqfk0","pricing_plan_id":"cebpf4jnsgd1na2vs0mg"},{"bike_id":"8f31f3af-0aa6-4421-8e2c-a77a880bef79","system_id":"levelo_inurba_marseille","lat":43.273726,"lon":5.398294,"is_reserved":false,"is_disabled":true,"rental_uris":{"android":"levelo://app?vid=8f31f3af-0aa6-4421-8e2c-a77a880bef79","ios":"levelo://app?vid=8f31f3af-0aa6-4421-8e2c-a77a880bef79"},"vehicle_type_id":"4","last_reported":1784809368,"current_range_meters":2800,"station_id":"","pricing_plan_id":"cebpf4jnsgd1na2vs0mg"},{"bike_id":"693c14b8-dea8-4bd6-9209-8f095362b343","system_id":"levelo_inurba_marseille","lat":43.25872,"lon":5.40441,"is_reserved":false,"is_disabled":false,"rental_uris":{"android":"levelo://app?vid=693c14b8-dea8-4bd6-9209-8f095362b343","ios":"levelo://app?vid=693c14b8-dea8-4bd6-9209-8f095362b343"},"vehicle_type_id":"4","last_reported":1784809368,"current_range_meters":24400,"station_id":"","pricing_plan_id":"cebpf4jnsgd1na2vs0mg"},{"bike_id":"ada4b66c-55a9-4ab5-8101-7fcab4222110","system_id":"levelo_inurba_marseille","lat":43.29064,"lon":5.37157,"is_reserved":false,"is_disabled":false,"rental_uris":{"android":"levelo://app?vid=ada4b66c-55a9-4ab5-8101-7fcab4222110","ios":"levelo://app?vid=ada4b66c-55a9-4ab5-8101-7fcab4222110"},"vehicle_type_id":"4","last_reported":1784809368,"current_range_meters":39200,"station_id":"ce4bh5p2rcd13ifvqe4g","pricing_plan_id":"cebpf4jnsgd1na2vs0mg"},{"bike_id":"e6c805e9-2475-4ae5-9901-cfddbcce79e3","system_id":"levelo_inurba_marseille","lat":43.33758,"lon":5.37454,"is_reserved":false,"is_disabled":false,"rental_uris":{"android":"levelo://app?vid=e6c805e9-2475-4ae5-9901-cfddbcce79e3","ios":"levelo://app?vid=e6c805e9-2475-4ae5-9901-cfddbcce79e3"},"vehicle_type_id":"4","last_reported":1784809368,"current_range_meters":39200,"station_id":"","pricing_plan_id":"cebpf4jnsgd1na2vs0mg"},{"bike_id":"a6e39fb0-f2e5-41d8-b4aa-b3071fa9ec56","system_id":"levelo_inurba_marseille","lat":43.23151,"lon":5.43707,"is_reserved":false,"is_disabled":false,"rental_uris":{"android":"levelo://app?vid=a6e39fb0-f2e5-41d8-b4aa-b3071fa9ec56","ios":"levelo://app?vid=a6e39fb0-f2e5-41d8-b4aa-b3071fa9ec56"},"vehicle_type_id":"4","last_reported":1784809368,"current_range_meters":22800,"station_id":"ce4bhmp2rcd13ifvqgog","pricing_plan_id":"cebpf4jnsgd1na2vs0mg"},{"bike_id":"476beb9f-d625-4af7-8570-9e552e55f6b8","system_id":"levelo_inurba_marseille","lat":43.27411,"lon":5.39425,"is_reserved":false,"is_disabled":false,"rental_uris":{"android":"levelo://app?vid=476beb9f-d625-4af7-8570-9e552e55f6b8","ios":"levelo://app?vid=476beb9f-d625-4af7-8570-9e552e55f6b8"},"vehicle_type_id":"4","last_reported":1784809368,"current_range_meters":39200,"station_id":"ce4bhdp2rcd13ifvqf20","pricing_plan_id":"cebpf4jnsgd1na2vs0mg"},{"bike_id":"a2c9fd6e-925c-4795-ba3f-b9c641931695","system_id":"levelo_inurba_marseille","lat":43.31418,"lon":5.37395,"is_reserved":false,"is_disabled":true,"rental_uris":{"android":"levelo://app?vid=a2c9fd6e-925c-4795-ba3f-b9c641931695","ios":"levelo://app?vid=a2c9fd6e-925c-4795-ba3f-b9c641931695"},"vehicle_type_id":"4","last_reported":1784809368,"current_range_meters":20000,"station_id":"","pricing_plan_id":"cebpf4jnsgd1na2vs0mg"},{"bike_id":"dc6e01e4-afd8-4ee4-9448-dc6f9fd0fadb","system_id":"levelo_inurba_marseille","lat":43.28412,"lon":5.34994,"is_reserved":false,"is_disabled":false,"rental_uris":{"android":"levelo://app?vid=dc6e01e4-afd8-4ee4-9448-dc6f9fd0fadb","ios":"levelo://app?vid=dc6e01e4-afd8-4ee4-9448-dc6f9fd0fadb"},"vehicle_type_id":"4","last_reported":1784809368,"current_range_meters":30400,"station_id":"ce4bhbh2rcd13ifvqepg","pricing_plan_id":"cebpf4jnsgd1na2vs0mg"},{"bike_id":"d5bacd06-8390-4630-8a26-b07308e80e9a","system_id":"levelo_inurba_marseille","lat":43.29565,"lon":5.37548,"is_reserved":false,"is_disabled":false,"rental_uris":{"android":"levelo://app?vid=d5bacd06-8390-4630-8a26-b07308e80e9a","ios":"levelo://app?vid=d5bacd06-8390-4630-8a26-b07308e80e9a"},"vehicle_type_id":"4","last_reported":1784809368,"current_range_meters":37600,"station_id":"ce4bgh92rcd13ifvqb50","pricing_plan_id":"cebpf4jnsgd1na2vs0mg"},{"bike_id":"7b7c350c-7fa0-4260-b6c2-812c00fe7727","system_id":"levelo_inurba_marseille","lat":43.3214,"lon":5.36759,"is_reserved":false,"is_disabled":false,"rental_uris":{"android":"levelo://app?vid=7b7c350c-7fa0-4260-b6c2-812c00fe7727","ios":"levelo://app?vid=7b7c350c-7fa0-4260-b6c2-812c00fe7727"},"vehicle_type_id":"4","last_reported":1784809368,"current_range_meters":24800,"station_id":"","pricing_plan_id":"cebpf4jnsgd1na2vs0mg"},{"bike_id":"002b6de9-4906-4900-bd53-a26437451aab","system_id":"levelo_inurba_marseille","lat":43.33262,"lon":5.35902,"is_reserved":false,"is_disabled":false,"rental_uris":{"android":"levelo://app?vid=002b6de9-4906-4900-bd53-a26437451aab","ios":"levelo://app?vid=002b6de9-4906-4900-bd53-a26437451aab"},"vehicle_type_id":"4","last_reported":1784809368,"current_range_meters":10000,"station_id":"","pricing_plan_id":"cebpf4jnsgd1na2vs0mg"},{"bike_id":"94f1b0ad-aaa9-4b51-806c-9eae39355e9b","system_id":"levelo_inurba_marseille","lat":43.27379,"lon":5.36244,"is_reserved":false,"is_disabled":false,"rental_uris":{"android":"levelo://app?vid=94f1b0ad-aaa9-4b51-806c-9eae39355e9b","ios":"levelo://app?vid=94f1b0ad-aaa9-4b51-806c-9eae39355e9b"},"vehicle_type_id":"4","last_reported":1784809368,"current_range_meters":39200,"station_id":"ce4bhbh2rcd13ifvqeo0","pricing_plan_id":"cebpf4jnsgd1na2vs0mg"},{"bike_id":"f8e0eda3-6b22-4ce8-9214-883019db78cd","system_id":"levelo_inurba_marseille","lat":43.25636,"lon":5.40496,"is_reserved":false,"is_disabled":false,"rental_uris":{"android":"levelo://app?vid=f8e0eda3-6b22-4ce8-9214-883019db78cd","ios":"levelo://app?vid=f8e0eda3-6b22-4ce8-9214-883019db78cd"},"vehicle_type_id":"4","last_reported":1784809368,"current_range_meters":38800,"station_id":"st_d9f0okuplk6c73bumsr0","pricing_plan_id":"cebpf4jnsgd1na2vs0mg"},{"bike_id":"360f5968-6a02-4eab-a96b-94be7bca4d81","system_id":"levelo_inurba_marseille","lat":43.287428,"lon":5.389091,"is_reserved":false,"is_disabled":false,"rental_uris":{"android":"levelo://app?vid=360f5968-6a02-4eab-a96b-94be7bca4d81","ios":"levelo://app?vid=360f5968-6a02-4eab-a96b-94be7bca4d81"},"vehicle_type_id":"4","last_reported":1784809368,"current_range_meters":18800,"station_id":"","pricing_plan_id":"cebpf4jnsgd1na2vs0mg"},{"bike_id":"ba4cd784-e70f-4044-a7ae-eb1f45e59f3c","system_id":"levelo_inurba_marseille","lat":43.25334,"lon":5.39311,"is_reserved":false,"is_disabled":false,"rental_uris":{"android":"levelo://app?vid=ba4cd784-e70f-4044-a7ae-eb1f45e59f3c","ios":"levelo://app?vid=ba4cd784-e70f-4044-a7ae-eb1f45e59f3c"},"vehicle_type_id":"4","last_reported":1784809368,"current_range_meters":34800,"station_id":"","pricing_plan_id":"cebpf4jnsgd1na2vs0mg"},{"bike_id":"1ea64f09-3bbb-4abf-817b-37aa272d04c6","system_id":"levelo_inurba_marseille","lat":43.28502,"lon":5.38576,"is_reserved":false,"is_disabled":true,"rental_uris":{"android":"levelo://app?vid=1ea64f09-3bbb-4abf-817b-37aa272d04c6","ios":"levelo://app?vid=1ea64f09-3bbb-4abf-817b-37aa272d04c6"},"vehicle_type_id":"4","last_reported":1784809368,"current_range_meters":38800,"station_id":"ce4bh8p2rcd13ifvqeb0","pricing_plan_id":"cebpf4jnsgd1na2vs0mg"},{"bike_id":"625b844e-c6af-4e57-bd44-95abb8ae5ee8","system_id":"levelo_inurba_marseille","lat":43.29006,"lon":5.35609,"is_reserved":false,"is_disabled":false,"rental_uris":{"android":"levelo://app?vid=625b844e-c6af-4e57-bd44-95abb8ae5ee8","ios":"levelo://app?vid=625b844e-c6af-4e57-bd44-95abb8ae5ee8"},"vehicle_type_id":"4","last_reported":1784809368,"current_range_meters":39200,"station_id":"ce4bhb92rcd13ifvqen0","pricing_plan_id":"cebpf4jnsgd1na2vs0mg"},{"bike_id":"77bcfa31-f113-42f5-a1d5-390cc9e03aaf","system_id":"levelo_inurba_marseille","lat":43.244,"lon":5.37053,"is_reserved":false,"is_disabled":false,"rental_uris":{"android":"levelo://app?vid=77bcfa31-f113-42f5-a1d5-390cc9e03aaf","ios":"levelo://app?vid=77bcfa31-f113-42f5-a1d5-390cc9e03aaf"},"vehicle_type_id":"4","last_reported":1784809368,"current_range_meters":20000,"station_id":"ce4bhhh2rcd13ifvqfk0","pricing_plan_id":"cebpf4jnsgd1na2vs0mg"},{"bike_id":"22e66e8b-f008-4d04-b17c-751d019a7a36","system_id":"levelo_inurba_marseille","lat":43.29829,"lon":5.44011,"is_reserved":false,"is_disabled":false,"rental_uris":{"android":"levelo://app?vid=22e66e8b-f008-4d04-b17c-751d019a7a36","ios":"levelo://app?vid=22e66e8b-f008-4d04-b17c-751d019a7a36"},"vehicle_type_id":"4","last_reported":1784809368,"current_range_meters":38000,"station_id":"st_d3jp68qikq2c7381ktn0","pricing_plan_id":"cebpf4jnsgd1na2vs0mg"},{"bike_id":"1981d3ef-d7ae-460e-a247-e2f1120f8322","system_id":"levelo_inurba_marseille","lat":43.24572,"lon":5.41967,"is_reserved":false,"is_disabled":false,"rental_uris":{"android":"levelo://app?vid=1981d3ef-d7ae-460e-a247-e2f1120f8322","ios":"levelo://app?vid=1981d3ef-d7ae-460e-a247-e2f1120f8322"},"vehicle_type_id":"4","last_reported":1784809368,"current_range_meters":14400,"station_id":"","pricing_plan_id":"cebpf4jnsgd1na2vs0mg"},{"bike_id":"5399623f-3583-4de0-a7c7-2ff41ef8193a","system_id":"levelo_inurba_marseille","lat":43.23198,"lon":5.35576,"is_reserved":false,"is_disabled":false,"rental_uris":{"android":"levelo://app?vid=5399623f-3583-4de0-a7c7-2ff41ef8193a","ios":"levelo://app?vid=5399623f-3583-4de0-a7c7-2ff41ef8193a"},"vehicle_type_id":"4","last_reported":1784809368,"current_range_meters":27200,"station_id":"ce4bhu92rcd13ifvqi70","pricing_plan_id":"cebpf4jnsgd1na2vs0mg"},{"bike_id":"bbb6d84d-52b2-4523-b78b-60cb354411ef","system_id":"levelo_inurba_marseille","lat":43.32102,"lon":5.36766,"is_reserved":false,"is_disabled":false,"rental_uris":{"android":"levelo://app?vid=bbb6d84d-52b2-4523-b78b-60cb354411ef","ios":"levelo://app?vid=bbb6d84d-52b2-4523-b78b-60cb354411ef"},"vehicle_type_id":"4","last_reported":1784809368,"current_range_meters":32800,"station_id":"ce4bhrh2rcd13ifvqhug","pricing_plan_id":"cebpf4jnsgd1na2vs0mg"},{"bike_id":"19fee056-8438-4b7c-86c9-573f0591638a","system_id":"levelo_inurba_marseille","lat":43.30139,"lon":5.37433,"is_reserved":false,"is_disabled":false,"rental_uris":{"android":"levelo://app?vid=19fee056-8438-4b7c-86c9-573f0591638a","ios":"levelo://app?vid=19fee056-8438-4b7c-86c9-573f0591638a"},"vehicle_type_id":"4","last_reported":1784809368,"current_range_meters":39200,"station_id":"ce4bgs92rcd13ifvqcc0","pricing_plan_id":"cebpf4jnsgd1na2vs0mg"},{"bike_id":"aee765fe-e49e-46c4-8c32-1bee1b42f00e","system_id":"levelo_inurba_marseille","lat":43.2911,"lon":5.3816,"is_reserved":false,"is_disabled":false,"rental_uris":{"android":"levelo://app?vid=aee765fe-e49e-46c4-8c32-1bee1b42f00e","ios":"levelo://app?vid=aee765fe-e49e-46c4-8c32-1bee1b42f00e"},"vehicle_type_id":"4","last_reported":1784809368,"current_range_meters":40000,"station_id":"ce4bh512rcd13ifvqe2g","pricing_plan_id":"cebpf4jnsgd1na2vs0mg"},{"bike_id":"7c215944-6de0-44b9-b267-ecfcdb73eb11","system_id":"levelo_inurba_marseille","lat":43.27835,"lon":5.40702,"is_reserved":false,"is_disabled":true,"rental_uris":{"android":"levelo://app?vid=7c215944-6de0-44b9-b267-ecfcdb73eb11","ios":"levelo://app?vid=7c215944-6de0-44b9-b267-ecfcdb73eb11"},"vehicle_type_id":"4","last_reported":1784809368,"current_range_meters":38800,"station_id":"ce4bhnh2rcd13ifvqgtg","pricing_plan_id":"cebpf4jnsgd1na2vs0mg"},{"bike_id":"a9863fcb-8ca0-4220-b083-cb27e96475fe","system_id":"levelo_inurba_marseille","lat":43.23195,"lon":5.35545,"is_reserved":false,"is_disabled":false,"rental_uris":{"android":"levelo://app?vid=a9863fcb-8ca0-4220-b083-cb27e96475fe","ios":"levelo://app?vid=a9863fcb-8ca0-4220-b083-cb27e96475fe"},"vehicle_type_id":"4","last_reported":1784809368,"current_range_meters":39200,"station_id":"ce4bhu92rcd13ifvqi70","pricing_plan_id":"cebpf4jnsgd1na2vs0mg"},{"bike_id":"64d6a1bb-9f40-4c2f-86db-a81e217c2827","system_id":"levelo_inurba_marseille","lat":43.24399,"lon":5.37028,"is_reserved":false,"is_disabled":false,"rental_uris":{"android":"levelo://app?vid=64d6a1bb-9f40-4c2f-86db-a81e217c2827","ios":"levelo://app?vid=64d6a1bb-9f40-4c2f-86db-a81e217c2827"},"vehicle_type_id":"4","last_reported":1784809368,"current_range_meters":9200,"station_id":"ce4bhhh2rcd13ifvqfk0","pricing_plan_id":"cebpf4jnsgd1na2vs0mg"},{"bike_id":"45fd5ca5-cd0c-4fbd-a63c-a17c2003973c","system_id":"levelo_inurba_marseille","lat":43.276153,"lon":5.361013,"is_reserved":false,"is_disabled":false,"rental_uris":{"android":"levelo://app?vid=45fd5ca5-cd0c-4fbd-a63c-a17c2003973c","ios":"levelo://app?vid=45fd5ca5-cd0c-4fbd-a63c-a17c2003973c"},"vehicle_type_id":"4","last_reported":1784809368,"current_range_meters":30000,"station_id":"ce4bgj92rcd13ifvqbe0","pricing_plan_id":"cebpf4jnsgd1na2vs0mg"},{"bike_id":"a8da38aa-f94e-4c2e-80f0-e41e78a1c855","system_id":"levelo_inurba_marseille","lat":43.298,"lon":5.38108,"is_reserved":false,"is_disabled":true,"rental_uris":{"android":"levelo://app?vid=a8da38aa-f94e-4c2e-80f0-e41e78a1c855","ios":"levelo://app?vid=a8da38aa-f94e-4c2e-80f0-e41e78a1c855"},"vehicle_type_id":"4","last_reported":1784809368,"current_range_meters":35600,"station_id":"ce4bgip2rcd13ifvqbb0","pricing_plan_id":"cebpf4jnsgd1na2vs0mg"},{"bike_id":"d325e769-2ee8-44ac-9428-60ffaee2c8d1","system_id":"levelo_inurba_marseille","lat":43.26228,"lon":5.40456,"is_reserved":false,"is_disabled":false,"rental_uris":{"android":"levelo://app?vid=d325e769-2ee8-44ac-9428-60ffaee2c8d1","ios":"levelo://app?vid=d325e769-2ee8-44ac-9428-60ffaee2c8d1"},"vehicle_type_id":"4","last_reported":1784809368,"current_range_meters":36800,"station_id":"ce4bhmh2rcd13ifvqgmg","pricing_plan_id":"cebpf4jnsgd1na2vs0mg"},{"bike_id":"6beb94b0-4283-4f7d-810d-b229619bc024","system_id":"levelo_inurba_marseille","lat":43.229591,"lon":5.444884,"is_reserved":false,"is_disabled":false,"rental_uris":{"android":"levelo://app?vid=6beb94b0-4283-4f7d-810d-b229619bc024","ios":"levelo://app?vid=6beb94b0-4283-4f7d-810d-b229619bc024"},"vehicle_type_id":"4","last_reported":1784809368,"current_range_meters":20800,"station_id":"","pricing_plan_id":"cebpf4jnsgd1na2vs0mg"},{"bike_id":"b5a9d944-9eb1-434c-931a-e7a13d8c2c58","system_id":"levelo_inurba_marseille","lat":43.27423,"lon":5.39405,"is_reserved":false,"is_disabled":false,"rental_uris":{"android":"levelo://app?vid=b5a9d944-9eb1-434c-931a-e7a13d8c2c58","ios":"levelo://app?vid=b5a9d944-9eb1-434c-931a-e7a13d8c2c58"},"vehicle_type_id":"4","last_reported":1784809368,"current_range_meters":39200,"station_id":"ce4bhdp2rcd13ifvqf20","pricing_plan_id":"cebpf4jnsgd1na2vs0mg"},{"bike_id":"25d63c03-240b-4596-9842-ae7363543101","system_id":"levelo_inurba_marseille","lat":43.33155,"lon":5.37673,"is_reserved":false,"is_disabled":false,"rental_uris":{"android":"levelo://app?vid=25d63c03-240b-4596-9842-ae7363543101","ios":"levelo://app?vid=25d63c03-240b-4596-9842-ae7363543101"},"vehicle_type_id":"4","last_reported":1784809368,"current_range_meters":38000,"station_id":"st_d46cu089ee8s73dldbu0","pricing_plan_id":"cebpf4jnsgd1na2vs0mg"},{"bike_id":"d5ce1f70-45dd-47d5-a2a4-e8a19c2ad395","system_id":"levelo_inurba_marseille","lat":43.23788,"lon":5.36629,"is_reserved":false,"is_disabled":false,"rental_uris":{"android":"levelo://app?vid=d5ce1f70-45dd-47d5-a2a4-e8a19c2ad395","ios":"levelo://app?vid=d5ce1f70-45dd-47d5-a2a4-e8a19c2ad395"},"vehicle_type_id":"4","last_reported":1784809368,"current_range_meters":39200,"station_id":"st_d3nk18o9ro0c73en2l3g","pricing_plan_id":"cebpf4jnsgd1na2vs0mg"},{"bike_id":"3d7f0628-a213-453c-a615-155840b87692","system_id":"levelo_inurba_marseille","lat":43.30527,"lon":5.36708,"is_reserved":false,"is_disabled":false,"rental_uris":{"android":"levelo://app?vid=3d7f0628-a213-453c-a615-155840b87692","ios":"levelo://app?vid=3d7f0628-a213-453c-a615-155840b87692"},"vehicle_type_id":"4","last_reported":1784809368,"current_range_meters":39200,"station_id":"ce4bgrp2rcd13ifvqc9g","pricing_plan_id":"cebpf4jnsgd1na2vs0mg"},{"bike_id":"f31dee0f-bb58-4e48-8ee4-2cb422ff841b","system_id":"levelo_inurba_marseille","lat":43.26215,"lon":5.37447,"is_reserved":false,"is_disabled":false,"rental_uris":{"android":"levelo://app?vid=f31dee0f-bb58-4e48-8ee4-2cb422ff841b","ios":"levelo://app?vid=f31dee0f-bb58-4e48-8ee4-2cb422ff841b"},"vehicle_type_id":"4","last_reported":1784809368,"current_range_meters":11200,"station_id":"ce4bhgp2rcd13ifvqfc0","pricing_plan_id":"cebpf4jnsgd1na2vs0mg"},{"bike_id":"f8d90c4e-4908-4f03-845e-3c10c53cb1f4","system_id":"levelo_inurba_marseille","lat":43.30042,"lon":5.40936,"is_reserved":false,"is_disabled":false,"rental_uris":{"android":"levelo://app?vid=f8d90c4e-4908-4f03-845e-3c10c53cb1f4","ios":"levelo://app?vid=f8d90c4e-4908-4f03-845e-3c10c53cb1f4"},"vehicle_type_id":"4","last_reported":1784809368,"current_range_meters":18800,"station_id":"","pricing_plan_id":"cebpf4jnsgd1na2vs0mg"},{"bike_id":"ebce2622-6e61-4a5f-957d-e025ccb83a8a","system_id":"levelo_inurba_marseille","lat":43.29041,"lon":5.37006,"is_reserved":false,"is_disabled":false,"rental_uris":{"android":"levelo://app?vid=ebce2622-6e61-4a5f-957d-e025ccb83a8a","ios":"levelo://app?vid=ebce2622-6e61-4a5f-957d-e025ccb83a8a"},"vehicle_type_id":"4","last_reported":1784809368,"current_range_meters":19200,"station_id":"","pricing_plan_id":"cebpf4jnsgd1na2vs0mg"},{"bike_id":"3db43737-e2c6-4b3a-bfc8-5ccf41cec215","system_id":"levelo_inurba_marseille","lat":43.29623,"lon":5.37935,"is_reserved":false,"is_disabled":false,"rental_uris":{"android":"levelo://app?vid=3db43737-e2c6-4b3a-bfc8-5ccf41cec215","ios":"levelo://app?vid=3db43737-e2c6-4b3a-bfc8-5ccf41cec215"},"vehicle_type_id":"4","last_reported":1784809368,"current_range_meters":19600,"station_id":"","pricing_plan_id":"cebpf4jnsgd1na2vs0mg"},{"bike_id":"27e1e4c5-a07c-4ba9-9e46-007cc925fb39","system_id":"levelo_inurba_marseille","lat":43.25471,"lon":5.41574,"is_reserved":false,"is_disabled":false,"rental_uris":{"android":"levelo://app?vid=27e1e4c5-a07c-4ba9-9e46-007cc925fb39","ios":"levelo://app?vid=27e1e4c5-a07c-4ba9-9e46-007cc925fb39"},"vehicle_type_id":"4","last_reported":1784809368,"current_range_meters":8000,"station_id":"","pricing_plan_id":"cebpf4jnsgd1na2vs0mg"},{"bike_id":"f0d186e2-5747-443a-b8ce-af02f4115467","system_id":"levelo_inurba_marseille","lat":43.26209,"lon":5.37443,"is_reserved":false,"is_disabled":false,"rental_uris":{"android":"levelo://app?vid=f0d186e2-5747-443a-b8ce-af02f4115467","ios":"levelo://app?vid=f0d186e2-5747-443a-b8ce-af02f4115467"},"vehicle_type_id":"4","last_reported":1784809368,"current_range_meters":36400,"station_id":"ce4bhgp2rcd13ifvqfc0","pricing_plan_id":"cebpf4jnsgd1na2vs0mg"},{"bike_id":"033eab5e-4885-4e3e-a926-9530624df4e6","system_id":"levelo_inurba_marseille","lat":43.29301,"lon":5.3744,"is_reserved":false,"is_disabled":false,"rental_uris":{"android":"levelo://app?vid=033eab5e-4885-4e3e-a926-9530624df4e6","ios":"levelo://app?vid=033eab5e-4885-4e3e-a926-9530624df4e6"},"vehicle_type_id":"4","last_reported":1784809368,"current_range_meters":10800,"station_id":"ce4bgi12rcd13ifvqb70","pricing_plan_id":"cebpf4jnsgd1na2vs0mg"},{"bike_id":"cd288035-eddb-4f42-a73e-3fa03a084ed5","system_id":"levelo_inurba_marseille","lat":43.265732,"lon":5.390492,"is_reserved":false,"is_disabled":false,"rental_uris":{"android":"levelo://app?vid=cd288035-eddb-4f42-a73e-3fa03a084ed5","ios":"levelo://app?vid=cd288035-eddb-4f42-a73e-3fa03a084ed5"},"vehicle_type_id":"4","last_reported":1784809368,"current_range_meters":34000,"station_id":"cpo3532slgdg3j2ikp40","pricing_plan_id":"cebpf4jnsgd1na2vs0mg"},{"bike_id":"1c4ba207-7f45-4bcf-8bff-ba83ff9b61b7","system_id":"levelo_inurba_marseille","lat":43.29215,"lon":5.35785,"is_reserved":false,"is_disabled":false,"rental_uris":{"android":"levelo://app?vid=1c4ba207-7f45-4bcf-8bff-ba83ff9b61b7","ios":"levelo://app?vid=1c4ba207-7f45-4bcf-8bff-ba83ff9b61b7"},"vehicle_type_id":"4","last_reported":1784809368,"current_range_meters":30800,"station_id":"ce4bhb12rcd13ifvqel0","pricing_plan_id":"cebpf4jnsgd1na2vs0mg"},{"bike_id":"1a23851b-8379-4263-b74d-3d7961306525","system_id":"levelo_inurba_marseille","lat":43.31119,"lon":5.37771,"is_reserved":false,"is_disabled":false,"rental_uris":{"android":"levelo://app?vid=1a23851b-8379-4263-b74d-3d7961306525","ios":"levelo://app?vid=1a23851b-8379-4263-b74d-3d7961306525"},"vehicle_type_id":"4","last_reported":1784809368,"current_range_meters":37600,"station_id":"ce4bgt92rcd13ifvqcg0","pricing_plan_id":"cebpf4jnsgd1na2vs0mg"},{"bike_id":"2f3c08d1-4cdc-4610-bf4b-5e5ab3853cf7","system_id":"levelo_inurba_marseille","lat":43.31478,"lon":5.39658,"is_reserved":false,"is_disabled":false,"rental_uris":{"android":"levelo://app?vid=2f3c08d1-4cdc-4610-bf4b-5e5ab3853cf7","ios":"levelo://app?vid=2f3c08d1-4cdc-4610-bf4b-5e5ab3853cf7"},"vehicle_type_id":"4","last_reported":1784809368,"current_range_meters":18000,"station_id":"","pricing_plan_id":"cebpf4jnsgd1na2vs0mg"},{"bike_id":"34a1c55a-1102-48d3-a5dd-6f39d56079ab","system_id":"levelo_inurba_marseille","lat":43.21753,"lon":5.34593,"is_reserved":false,"is_disabled":false,"rental_uris":{"android":"levelo://app?vid=34a1c55a-1102-48d3-a5dd-6f39d56079ab","ios":"levelo://app?vid=34a1c55a-1102-48d3-a5dd-6f39d56079ab"},"vehicle_type_id":"4","last_reported":1784809368,"current_range_meters":6800,"station_id":"st_cvj6r9ubvosntc0bgbag","pricing_plan_id":"cebpf4jnsgd1na2vs0mg"},{"bike_id":"7fb9afed-662a-42d2-8538-5abf8e2cc03b","system_id":"levelo_inurba_marseille","lat":43.26561,"lon":5.37298,"is_reserved":false,"is_disabled":false,"rental_uris":{"android":"levelo://app?vid=7fb9afed-662a-42d2-8538-5abf8e2cc03b","ios":"levelo://app?vid=7fb9afed-662a-42d2-8538-5abf8e2cc03b"},"vehicle_type_id":"4","last_reported":1784809368,"current_range_meters":39200,"station_id":"ce4bhg12rcd13ifvqf70","pricing_plan_id":"cebpf4jnsgd1na2vs0mg"},{"bike_id":"aab91fbb-25df-40d4-83fd-1c88c5001c1a","system_id":"levelo_inurba_marseille","lat":43.30951,"lon":5.39039,"is_reserved":false,"is_disabled":false,"rental_uris":{"android":"levelo://app?vid=aab91fbb-25df-40d4-83fd-1c88c5001c1a","ios":"levelo://app?vid=aab91fbb-25df-40d4-83fd-1c88c5001c1a"},"vehicle_type_id":"4","last_reported":1784809368,"current_range_meters":25600,"station_id":"ce4bgup2rcd13ifvqco0","pricing_plan_id":"cebpf4jnsgd1na2vs0mg"},{"bike_id":"4871f915-bca7-49ea-9398-4e2a69e50f8c","system_id":"levelo_inurba_marseille","lat":43.28402,"lon":5.34996,"is_reserved":false,"is_disabled":false,"rental_uris":{"android":"levelo://app?vid=4871f915-bca7-49ea-9398-4e2a69e50f8c","ios":"levelo://app?vid=4871f915-bca7-49ea-9398-4e2a69e50f8c"},"vehicle_type_id":"4","last_reported":1784809368,"current_range_meters":39200,"station_id":"ce4bhbh2rcd13ifvqepg","pricing_plan_id":"cebpf4jnsgd1na2vs0mg"},{"bike_id":"d1b66825-c158-457e-a6ca-20015eb28f13","system_id":"levelo_inurba_marseille","lat":43.33713,"lon":5.37535,"is_reserved":false,"is_disabled":false,"rental_uris":{"android":"levelo://app?vid=d1b66825-c158-457e-a6ca-20015eb28f13","ios":"levelo://app?vid=d1b66825-c158-457e-a6ca-20015eb28f13"},"vehicle_type_id":"4","last_reported":1784809368,"current_range_meters":12000,"station_id":"","pricing_plan_id":"cebpf4jnsgd1na2vs0mg"},{"bike_id":"1ae20384-5ccd-4145-9a1d-f626b16c7a9e","system_id":"levelo_inurba_marseille","lat":43.3121,"lon":5.46439,"is_reserved":false,"is_disabled":false,"rental_uris":{"android":"levelo://app?vid=1ae20384-5ccd-4145-9a1d-f626b16c7a9e","ios":"levelo://app?vid=1ae20384-5ccd-4145-9a1d-f626b16c7a9e"},"vehicle_type_id":"4","last_reported":1784809368,"current_range_meters":2800,"station_id":"","pricing_plan_id":"cebpf4jnsgd1na2vs0mg"},{"bike_id":"c5032ade-04c2-4ad9-acd6-0c757f219d04","system_id":"levelo_inurba_marseille","lat":43.31894,"lon":5.36793,"is_reserved":false,"is_disabled":false,"rental_uris":{"android":"levelo://app?vid=c5032ade-04c2-4ad9-acd6-0c757f219d04","ios":"levelo://app?vid=c5032ade-04c2-4ad9-acd6-0c757f219d04"},"vehicle_type_id":"4","last_reported":1784809368,"current_range_meters":8800,"station_id":"st_d6o2h0d0559c73evc1b0","pricing_plan_id":"cebpf4jnsgd1na2vs0mg"},{"bike_id":"479a25b1-c1db-4e38-9802-13b8f5b183f0","system_id":"levelo_inurba_marseille","lat":43.28475,"lon":5.48397,"is_reserved":false,"is_disabled":false,"rental_uris":{"android":"levelo://app?vid=479a25b1-c1db-4e38-9802-13b8f5b183f0","ios":"levelo://app?vid=479a25b1-c1db-4e38-9802-13b8f5b183f0"},"vehicle_type_id":"4","last_reported":1784809368,"current_range_meters":27600,"station_id":"st_d3svhcjqgbts73a3dn0g","pricing_plan_id":"cebpf4jnsgd1na2vs0mg"},{"bike_id":"5ba3de10-889b-4152-aef4-4bff1e010d26","system_id":"levelo_inurba_marseille","lat":43.3213,"lon":5.3679,"is_reserved":false,"is_disabled":false,"rental_uris":{"android":"levelo://app?vid=5ba3de10-889b-4152-aef4-4bff1e010d26","ios":"levelo://app?vid=5ba3de10-889b-4152-aef4-4bff1e010d26"},"vehicle_type_id":"4","last_reported":1784809368,"current_range_meters":9200,"station_id":"ce4bhrh2rcd13ifvqhug","pricing_plan_id":"cebpf4jnsgd1na2vs0mg"},{"bike_id":"4a44625a-98e7-4ffe-9d7a-43dbdd22c4d2","system_id":"levelo_inurba_marseille","lat":43.31484,"lon":5.37369,"is_reserved":false,"is_disabled":false,"rental_uris":{"android":"levelo://app?vid=4a44625a-98e7-4ffe-9d7a-43dbdd22c4d2","ios":"levelo://app?vid=4a44625a-98e7-4ffe-9d7a-43dbdd22c4d2"},"vehicle_type_id":"4","last_reported":1784809368,"current_range_meters":24800,"station_id":"ce4bgt12rcd13ifvqcd0","pricing_plan_id":"cebpf4jnsgd1na2vs0mg"},{"bike_id":"1ba77177-7867-4003-aa95-810130201720","system_id":"levelo_inurba_marseille","lat":43.28362,"lon":5.3864,"is_reserved":false,"is_disabled":false,"rental_uris":{"android":"levelo://app?vid=1ba77177-7867-4003-aa95-810130201720","ios":"levelo://app?vid=1ba77177-7867-4003-aa95-810130201720"},"vehicle_type_id":"4","last_reported":1784809368,"current_range_meters":38400,"station_id":"ce4bh492rcd13ifvqdvg","pricing_plan_id":"cebpf4jnsgd1na2vs0mg"},{"bike_id":"203e727c-e81e-4858-987c-f9c9cc6c2467","system_id":"levelo_inurba_marseille","lat":43.29592,"lon":5.36746,"is_reserved":false,"is_disabled":false,"rental_uris":{"android":"levelo://app?vid=203e727c-e81e-4858-987c-f9c9cc6c2467","ios":"levelo://app?vid=203e727c-e81e-4858-987c-f9c9cc6c2467"},"vehicle_type_id":"4","last_reported":1784809368,"current_range_meters":9600,"station_id":"","pricing_plan_id":"cebpf4jnsgd1na2vs0mg"},{"bike_id":"5a9abbc8-0280-47d8-900a-029568d5f37c","system_id":"levelo_inurba_marseille","lat":43.32415,"lon":5.42675,"is_reserved":false,"is_disabled":false,"rental_uris":{"android":"levelo://app?vid=5a9abbc8-0280-47d8-900a-029568d5f37c","ios":"levelo://app?vid=5a9abbc8-0280-47d8-900a-029568d5f37c"},"vehicle_type_id":"4","last_reported":1784809368,"current_range_meters":17200,"station_id":"","pricing_plan_id":"cebpf4jnsgd1na2vs0mg"},