{"last_updated":1752761444,"ttl":60,"version":"2.2","data":{"bikes":[{"bike_id":"53b742a7-31ae-4272-9bba-7740339e2a2f","system_id":"levelo_inurba_marseille","lat":43.33747,"lon":5.37463,"is_reserved":false,"is_disabled":false,"rental_uris":{"android":"levelo://app?vid=53b742a7-31ae-4272-9bba-7740339e2a2f","ios":"levelo://app?vid=53b742a7-31ae-4272-9bba-7740339e2a2f"},"vehicle_type_id":"1","last_reported":1752761444,"current_range_meters":24400,"station_id":"","pricing_plan_id":"cebpf4jnsgd1na2vs0mg"},{"bike_id":"667f296b-5665-483a-b393-2e0edc86a9bc","system_id":"levelo_inurba_marseille","lat":43.230552,"lon":5.35486,"is_reserved":false,"is_disabled":false,"rental_uris":{"android":"levelo://app?vid=667f296b-5665-483a-b393-2e0edc86a9bc","ios":"levelo://app?vid=667f296b-5665-483a-b393-2e0edc86a9bc"},"vehicle_type_id":"4","last_reported":1752761444,"current_range_meters":2800,"station_id":"cpo3342slgdg3j2ifvpg","pricing_plan_id":"cebpf4jnsgd1na2vs0mg"},{"bike_id":"98994f3e-850a-4473-9313-68629cc78714","system_id":"levelo_inurba_marseille","lat":43.26603,"lon":5.37295,"is_reserved":false,"is_disabled":true,"rental_uris":{"android":"levelo://app?vid=98994f3e-850a-4473-9313-68629cc78714","ios":"levelo://app?vid=98994f3e-850a-4473-9313-68629cc78714"},"vehicle_type_id":"4","last_reported":1752761444,"current_range_meters":2800,"station_id":"ce4bhg12rcd13ifvqf70","pricing_plan_id":"cebpf4jnsgd1na2vs0mg"},{"bike_id":"6d4fcbe6-c266-4f77-a06e-b70097ce3914","system_id":"levelo_inurba_marseille","lat":43.2668,"lon":5.38264,"is_reserved":false,"is_disabled":false,"rental_uris":{"android":"levelo://app?vid=6d4fcbe6-c266-4f77-a06e-b70097ce3914","ios":"levelo://app?vid=6d4fcbe6-c266-4f77-a06e-b70097ce3914"},"vehicle_type_id":"4","last_reported":1752761444,"current_range_meters":2800,"station_id":"ce4bhg92rcd13ifvqf90","pricing_plan_id":"cebpf4jnsgd1na2vs0mg"},{"bike_id":"604eedbe-7ca2-4c72-bec5-6fe04489206c","system_id":"levelo_inurba_marseille","lat":43.295739,"lon":5.399791,"is_reserved":false,"is_disabled":false,"rental_uris":{"android":"levelo://app?vid=604eedbe-7ca2-4c72-bec5-6fe04489206c","ios":"levelo://app?vid=604eedbe-7ca2-4c72-bec5-6fe04489206c"},"vehicle_type_id":"4","last_reported":1752761444,"current_range_meters":3200,"station_id":"ce4bh312rcd13ifvqdj0","pricing_plan_id":"cebpf4jnsgd1na2vs0mg"},{"bike_id":"5008b8fd-49eb-450d-a7a2-9193f6c06fc0","system_id":"levelo_inurba_marseille","lat":43.26817,"lon":5.40232,"is_reserved":false,"is_disabled":false,"rental_uris":{"android":"levelo://app?vid=5008b8fd-49eb-450d-a7a2-9193f6c06fc0","ios":"levelo://app?vid=5008b8fd-49eb-450d-a7a2-9193f6c06fc0"},"vehicle_type_id":"4","last_reported":1752761444,"current_range_meters":3600,"station_id":"ce501612rcd8frsf0b60","pricing_plan_id":"cebpf4jnsgd1na2vs0mg"},{"bike_id":"9aed8b9c-3210-4403-8b74-bc7bdc40d9ff","system_id":"levelo_inurba_marseille","lat":43.28485,"lon":5.38557,"is_reserved":false,"is_disabled":false,"rental_uris":{"android":"levelo://app?vid=9aed8b9c-3210-4403-8b74-bc7bdc40d9ff","ios":"levelo://app?vid=9aed8b9c-3210-4403-8b74-bc7bdc40d9ff"},"vehicle_type_id":"4","last_reported":1752761444,"current_range_meters":3600,"station_id":"ce4bh8p2rcd13ifvqeb0","pricing_plan_id":"cebpf4jnsgd1na2vs0mg"},{"bike_id":"080b0f22-14dd-4044-a18f-ee7f74366cea","system_id":"levelo_inurba_marseille","lat":43.32016,"lon":5.3814,"is_reserved":false,"is_disabled":true,"rental_uris":{"android":"levelo://app?vid=080b0f22-14dd-4044-a18f-ee7f74366cea","ios":"levelo://app?vid=080b0f22-14dd-4044-a18f-ee7f74366cea"},"vehicle_type_id":"4","last_reported":1752761444,"current_range_meters":4000,"station_id":"ce4bhr12rcd13ifvqhpg","pricing_plan_id":"cebpf4jnsgd1na2vs0mg"},{"bike_id":"bc7763dc-3608-46ab-98dd-b954f36b06b9","system_id":"levelo_inurba_marseille","lat":43.29725,"lon":5.37702,"is_reserved":false,"is_disabled":false,"rental_uris":{"android":"levelo://app?vid=bc7763dc-3608-46ab-98dd-b954f36b06b9","ios":"levelo://app?vid=bc7763dc-3608-46ab-98dd-b954f36b06b9"},"vehicle_type_id":"4","last_reported":1752761444,"current_range_meters":4400,"station_id":"ce4bgkh2rcd13ifvqbl0","pricing_plan_id":"cebpf4jnsgd1na2vs0mg"},{"bike_id":"e73db4ab-cb65-49e2-aeab-e8d76799777d","system_id":"levelo_inurba_marseille","lat":43.23142,"lon":5.43729,"is_reserved":false,"is_disabled":false,"rental_uris":{"android":"levelo://app?vid=e73db4ab-cb65-49e2-aeab-e8d76799777d","ios":"levelo://app?vid=e73db4ab-cb65-49e2-aeab-e8d76799777d"},"vehicle_type_id":"4","last_reported":1752761444,"current_range_meters":4400,"station_id":"ce4bhmp2rcd13ifvqgog","pricing_plan_id":"cebpf4jnsgd1na2vs0mg"},{"bike_id":"c613db8b-f43c-401e-82df-bc6bd3854fe5","system_id":"levelo_inurba_marseille","lat":43.26208,"lon":5.37441,"is_reserved":false,"is_disabled":false,"rental_uris":{"android":"levelo://app?vid=c613db8b-f43c-401e-82df-bc6bd3854fe5","ios":"levelo://app?vid=c613db8b-f43c-401e-82df-bc6bd3854fe5"},"vehicle_type_id":"4","last_reported":1752761444,"current_range_meters":4800,"station_id":"ce4bhgp2rcd13ifvqfc0","pricing_plan_id":"cebpf4jnsgd1na2vs0mg"},{"bike_id":"d98ef30e-38a0-41ef-a00a-304afa979a1e","system_id":"levelo_inurba_marseille","lat":43.29881,"lon":5.43688,"is_reserved":false,"is_disabled":false,"rental_uris":{"android":"levelo://app?vid=d98ef30e-38a0-41ef-a00a-304afa979a1e","ios":"levelo://app?vid=d98ef30e-38a0-41ef-a00a-304afa979a1e"},"vehicle_type_id":"4","last_reported":1752761444,"current_range_meters":5600,"station_id":"ce4bhpp2rcd13ifvqhfg","pricing_plan_id":"cebpf4jnsgd1na2vs0mg"},{"bike_id":"4fa4ab16-fbe8-4a64-9651-a5a3e11327a1","system_id":"levelo_inurba_marseille","lat":43.31169,"lon":5.38716,"is_reserved":false,"is_disabled":false,"rental_uris":{"android":"levelo://app?vid=4fa4ab16-fbe8-4a64-9651-a5a3e11327a1","ios":"levelo://app?vid=4fa4ab16-fbe8-4a64-9651-a5a3e11327a1"},"vehicle_type_id":"4","last_reported":1752761444,"current_range_meters":5600,"station_id":"ce4bgv12rcd13ifvqcp0","pricing_plan_id":"cebpf4jnsgd1na2vs0mg"},{"bike_id":"4144f60f-0413-4ef4-8237-063f07442ab5","system_id":"levelo_inurba_marseille","lat":43.24548,"lon":5.3952,"is_reserved":false,"is_disabled":false,"rental_uris":{"android":"levelo://app?vid=4144f60f-0413-4ef4-8237-063f07442ab5","ios":"levelo://app?vid=4144f60f-0413-4ef4-8237-063f07442ab5"},"vehicle_type_id":"4","last_reported":1752761444,"current_range_meters":6000,"station_id":"ce4bhlp2rcd13ifvqgjg","pricing_plan_id":"cebpf4jnsgd1na2vs0mg"},{"bike_id":"8b7bbd94-7f00-4aab-86e8-c1f0ee00cb86","system_id":"levelo_inurba_marseille","lat":43.26028,"lon":5.37546,"is_reserved":false,"is_disabled":false,"rental_uris":{"android":"levelo://app?vid=8b7bbd94-7f00-4aab-86e8-c1f0ee00cb86","ios":"levelo://app?vid=8b7bbd94-7f00-4aab-86e8-c1f0ee00cb86"},"vehicle_type_id":"4","last_reported":1752761444,"current_range_meters":5600,"station_id":"ce4bhgh2rcd13ifvqfa0","pricing_plan_id":"cebpf4jnsgd1na2vs0mg"},{"bike_id":"ad9fb554-c66e-4ca0-b405-2f02e74a037c","system_id":"levelo_inurba_marseille","lat":43.27373,"lon":5.36255,"is_reserved":false,"is_disabled":false,"rental_uris":{"android":"levelo://app?vid=ad9fb554-c66e-4ca0-b405-2f02e74a037c","ios":"levelo://app?vid=ad9fb554-c66e-4ca0-b405-2f02e74a037c"},"vehicle_type_id":"4","last_reported":1752761444,"current_range_meters":6400,"station_id":"ce4bhbh2rcd13ifvqeo0","pricing_plan_id":"cebpf4jnsgd1na2vs0mg"},{"bike_id":"f668d1a2-154f-4b3a-9672-303a2c6d23bf","system_id":"levelo_inurba_marseille","lat":43.3107,"lon":5.38356,"is_reserved":false,"is_disabled":true,"rental_uris":{"android":"levelo://app?vid=f668d1a2-154f-4b3a-9672-303a2c6d23bf","ios":"levelo://app?vid=f668d1a2-154f-4b3a-9672-303a2c6d23bf"},"vehicle_type_id":"4","last_reported":1752761444,"current_range_meters":6800,"station_id":"ce4bgv92rcd13ifvqcr0","pricing_plan_id":"cebpf4jnsgd1na2vs0mg"},{"bike_id":"4cbc2220-f1a6-4d70-9c95-ed9dcbf5a5fa","system_id":"levelo_inurba_marseille","lat":43.29339,"lon":5.37383,"is_reserved":false,"is_disabled":true,"rental_uris":{"android":"levelo://app?vid=4cbc2220-f1a6-4d70-9c95-ed9dcbf5a5fa","ios":"levelo://app?vid=4cbc2220-f1a6-4d70-9c95-ed9dcbf5a5fa"},"vehicle_type_id":"4","last_reported":1752761444,"current_range_meters":6800,"station_id":"","pricing_plan_id":"cebpf4jnsgd1na2vs0mg"},{"bike_id":"e6decac7-8084-4c10-8266-d20895c614d0","system_id":"levelo_inurba_marseille","lat":43.31074,"lon":5.42425,"is_reserved":false,"is_disabled":false,"rental_uris":{"android":"levelo://app?vid=e6decac7-8084-4c10-8266-d20895c614d0","ios":"levelo://app?vid=e6decac7-8084-4c10-8266-d20895c614d0"},"vehicle_type_id":"4","last_reported":1752761444,"current_range_meters":7200,"station_id":"ce4bhp92rcd13ifvqhag","pricing_plan_id":"cebpf4jnsgd1na2vs0mg"},{"bike_id":"c4e3adcf-b133-4a48-ad8a-5f7284a8ca7c","system_id":"levelo_inurba_marseille","lat":43.23143,"lon":5.43736,"is_reserved":false,"is_disabled":false,"rental_uris":{"android":"levelo://app?vid=c4e3adcf-b133-4a48-ad8a-5f7284a8ca7c","ios":"levelo://app?vid=c4e3adcf-b133-4a48-ad8a-5f7284a8ca7c"},"vehicle_type_id":"4","last_reported":1752761444,"current_range_meters":7200,"station_id":"ce4bhmp2rcd13ifvqgog","pricing_plan_id":"cebpf4jnsgd1na2vs0mg"},{"bike_id":"799a01ed-1f63-44c0-bd2a-9c106b2da941","system_id":"levelo_inurba_marseille","lat":43.28612,"lon":5.35104,"is_reserved":false,"is_disabled":false,"rental_uris":{"android":"levelo://app?vid=799a01ed-1f63-44c0-bd2a-9c106b2da941","ios":"levelo://app?vid=799a01ed-1f63-44c0-bd2a-9c106b2da941"},"vehicle_type_id":"4","last_reported":1752761444,"current_range_meters":8400,"station_id":"ce4bhch2rcd13ifvqeug","pricing_plan_id":"cebpf4jnsgd1na2vs0mg"},{"bike_id":"675a4573-a1f2-4f9d-b1bd-48fb0f00616c","system_id":"levelo_inurba_marseille","lat":43.28616,"lon":5.35095,"is_reserved":false,"is_disabled":false,"rental_uris":{"android":"levelo://app?vid=675a4573-a1f2-4f9d-b1bd-48fb0f00616c","ios":"levelo://app?vid=675a4573-a1f2-4f9d-b1bd-48fb0f00616c"},"vehicle_type_id":"4","last_reported":1752761444,"current_range_meters":8400,"station_id":"ce4bhch2rcd13ifvqeug","pricing_plan_id":"cebpf4jnsgd1na2vs0mg"},{"bike_id":"9e56c119-b243-4113-b710-6cfcbd16002a","system_id":"levelo_inurba_marseille","lat":43.32335,"lon":5.40622,"is_reserved":false,"is_disabled":false,"rental_uris":{"android":"levelo://app?vid=9e56c119-b243-4113-b710-6cfcbd16002a","ios":"levelo://app?vid=9e56c119-b243-4113-b710-6cfcbd16002a"},"vehicle_type_id":"4","last_reported":1752761444,"current_range_meters":8800,"station_id":"ce4bhq92rcd13ifvqhjg","pricing_plan_id":"cebpf4jnsgd1na2vs0mg"},{"bike_id":"ef5521d0-df37-4cb1-9a60-9dde313590b1","system_id":"levelo_inurba_marseille","lat":43.31333,"lon":5.39688,"is_reserved":false,"is_disabled":false,"rental_uris":{"android":"levelo://app?vid=ef5521d0-df37-4cb1-9a60-9dde313590b1","ios":"levelo://app?vid=ef5521d0-df37-4cb1-9a60-9dde313590b1"},"vehicle_type_id":"4","last_reported":1752761444,"current_range_meters":8800,"station_id":"ce4bgvp2rcd13ifvqcu0","pricing_plan_id":"cebpf4jnsgd1na2vs0mg"},{"bike_id":"61a9e916-b95f-4f2c-8dca-c5b11be80287","system_id":"levelo_inurba_marseille","lat":43.29213,"lon":5.36005,"is_reserved":false,"is_disabled":false,"rental_uris":{"android":"levelo://app?vid=61a9e916-b95f-4f2c-8dca-c5b11be80287","ios":"levelo://app?vid=61a9e916-b95f-4f2c-8dca-c5b11be80287"},"vehicle_type_id":"4","last_reported":1752761444,"current_range_meters":9200,"station_id":"","pricing_plan_id":"cebpf4jnsgd1na2vs0mg"},{"bike_id":"aa486e73-1d27-41ec-b417-f88dfd6c1e5e","system_id":"levelo_inurba_marseille","lat":43.290303,"lon":5.386482,"is_reserved":false,"is_disabled":true,"rental_uris":{"android":"levelo://app?vid=aa486e73-1d27-41ec-b417-f88dfd6c1e5e","ios":"levelo://app?vid=aa486e73-1d27-41ec-b417-f88dfd6c1e5e"},"vehicle_type_id":"4","last_reported":1752761444,"current_range_meters":9600,"station_id":"ce4bh4p2rcd13ifvqe0g","pricing_plan_id":"cebpf4jnsgd1na2vs0mg"},{"bike_id":"a4fd652b-34f8-4c68-a6e6-032a5cc5e418","system_id":"levelo_inurba_marseille","lat":43.31236,"lon":5.36777,"is_reserved":false,"is_disabled":true,"rental_uris":{"android":"levelo://app?vid=a4fd652b-34f8-4c68-a6e6-032a5cc5e418","ios":"levelo://app?vid=a4fd652b-34f8-4c68-a6e6-032a5cc5e418"},"vehicle_type_id":"4","last_reported":1752761444,"current_range_meters":9600,"station_id":"ce4bgl92rcd13ifvqbq0","pricing_plan_id":"cebpf4jnsgd1na2vs0mg"},{"bike_id":"63b68163-23ff-4509-a7ff-da745c70a782","system_id":"levelo_inurba_marseille","lat":43.295232,"lon":5.394075,"is_reserved":false,"is_disabled":false,"rental_uris":{"android":"levelo://app?vid=63b68163-23ff-4509-a7ff-da745c70a782","ios":"levelo://app?vid=63b68163-23ff-4509-a7ff-da745c70a782"},"vehicle_type_id":"4","last_reported":1752761444,"current_range_meters":9600,"station_id":"","pricing_plan_id":"cebpf4jnsgd1na2vs0mg"},{"bike_id":"55ac2b0e-cafe-4b21-8294-c4f155aa592a","system_id":"levelo_inurba_marseille","lat":43.30549,"lon":5.36691,"is_reserved":false,"is_disabled":false,"rental_uris":{"android":"levelo://app?vid=55ac2b0e-cafe-4b21-8294-c4f155aa592a","ios":"levelo://app?vid=55ac2b0e-cafe-4b21-8294-c4f155aa592a"},"vehicle_type_id":"4","last_reported":1752761444,"current_range_meters":9600,"station_id":"ce4bgrp2rcd13ifvqc9g","pricing_plan_id":"cebpf4jnsgd1na2vs0mg"},{"bike_id":"db8096e2-5dd6-4134-a08c-713ec936d3ff","system_id":"levelo_inurba_marseille","lat":43.28699,"lon":5.37406,"is_reserved":false,"is_disabled":false,"rental_uris":{"android":"levelo://app?vid=db8096e2-5dd6-4134-a08c-713ec936d3ff","ios":"levelo://app?vid=db8096e2-5dd6-4134-a08c-713ec936d3ff"},"vehicle_type_id":"4","last_reported":1752761444,"current_range_meters":9600,"station_id":"ce4bh3p2rcd13ifvqdq0","pricing_plan_id":"cebpf4jnsgd1na2vs0mg"},{"bike_id":"f74814ba-cf24-403f-8b90-2a003c5401e3","system_id":"levelo_inurba_marseille","lat":43.27382,"lon":5.36241,"is_reserved":false,"is_disabled":false,"rental_uris":{"android":"levelo://app?vid=f74814ba-cf24-403f-8b90-2a003c5401e3","ios":"levelo://app?vid=f74814ba-cf24-403f-8b90-2a003c5401e3"},"vehicle_type_id":"4","last_reported":1752761444,"current_range_meters":10000,"station_id":"ce4bhbh2rcd13ifvqeo0","pricing_plan_id":"cebpf4jnsgd1na2vs0mg"},{"bike_id":"d5e2c5d5-b87c-4a53-9c6f-6e034c74402e","system_id":"levelo_inurba_marseille","lat":43.30145,"lon":5.38056,"is_reserved":false,"is_disabled":false,"rental_uris":{"android":"levelo://app?vid=d5e2c5d5-b87c-4a53-9c6f-6e034c74402e","ios":"levelo://app?vid=d5e2c5d5-b87c-4a53-9c6f-6e034c74402e"},"vehicle_type_id":"4","last_reported":1752761444,"current_range_meters":10000,"station_id":"ce4bgjp2rcd13ifvqbh0","pricing_plan_id":"cebpf4jnsgd1na2vs0mg"},{"bike_id":"1be28061-1b85-4eb2-8cf5-d832f5e8190e","system_id":"levelo_inurba_marseille","lat":43.30281,"lon":5.37698,"is_reserved":false,"is_disabled":false,"rental_uris":{"android":"levelo://app?vid=1be28061-1b85-4eb2-8cf5-d832f5e8190e","ios":"levelo://app?vid=1be28061-1b85-4eb2-8cf5-d832f5e8190e"},"vehicle_type_id":"4","last_reported":1752761444,"current_range_meters":10800,"station_id":"ce4bguh2rcd13ifvqcj0","pricing_plan_id":"cebpf4jnsgd1na2vs0mg"},{"bike_id":"49166f9b-8a4c-445f-b59b-fa17ff6588f0","system_id":"levelo_inurba_marseille","lat":43.306106,"lon":5.393458,"is_reserved":false,"is_disabled":false,"rental_uris":{"android":"levelo://app?vid=49166f9b-8a4c-445f-b59b-fa17ff6588f0","ios":"levelo://app?vid=49166f9b-8a4c-445f-b59b-fa17ff6588f0"},"vehicle_type_id":"4","last_reported":1752761444,"current_range_meters":10800,"station_id":"ce4bh0p2rcd13ifvqd80","pricing_plan_id":"cebpf4jnsgd1na2vs0mg"},{"bike_id":"b26d307c-9171-4b3b-a115-102cc22a2ba9","system_id":"levelo_inurba_marseille","lat":43.30925,"lon":5.40153,"is_reserved":false,"is_disabled":false,"rental_uris":{"android":"levelo://app?vid=b26d307c-9171-4b3b-a115-102cc22a2ba9","ios":"levelo://app?vid=b26d307c-9171-4b3b-a115-102cc22a2ba9"},"vehicle_type_id":"4","last_reported":1752761444,"current_range_meters":10800,"station_id":"ce4bgvp2rcd13ifvqct0","pricing_plan_id":"cebpf4jnsgd1na2vs0mg"},{"bike_id":"9ff813f5-7ffe-477a-a652-434a34f03c1a","system_id":"levelo_inurba_marseille","lat":43.29255,"lon":5.38427,"is_reserved":false,"is_disabled":true,"rental_uris":{"android":"levelo://app?vid=9ff813f5-7ffe-477a-a652-434a34f03c1a","ios":"levelo://app?vid=9ff813f5-7ffe-477a-a652-434a34f03c1a"},"vehicle_type_id":"4","last_reported":1752761444,"current_range_meters":10800,"station_id":"ce4bh692rcd13ifvqea0","pricing_plan_id":"cebpf4jnsgd1na2vs0mg"},{"bike_id":"57239988-9161-49ce-a0a2-4581baf1b159","system_id":"levelo_inurba_marseille","lat":43.33798,"lon":5.37413,"is_reserved":false,"is_disabled":false,"rental_uris":{"android":"levelo://app?vid=57239988-9161-49ce-a0a2-4581baf1b159","ios":"levelo://app?vid=57239988-9161-49ce-a0a2-4581baf1b159"},"vehicle_type_id":"4","last_reported":1752761444,"current_range_meters":10800,"station_id":"","pricing_plan_id":"cebpf4jnsgd1na2vs0mg"},{"bike_id":"dcdf78e4-dcfd-4b06-8d0c-9dfcc75673bf","system_id":"levelo_inurba_marseille","lat":43.30456,"lon":5.37904,"is_reserved":false,"is_disabled":false,"rental_uris":{"android":"levelo://app?vid=dcdf78e4-dcfd-4b06-8d0c-9dfcc75673bf","ios":"levelo://app?vid=dcdf78e4-dcfd-4b06-8d0c-9dfcc75673bf"},"vehicle_type_id":"4","last_reported":1752761444,"current_range_meters":10800,"station_id":"ce4bgup2rcd13ifvqcn0","pricing_plan_id":"cebpf4jnsgd1na2vs0mg"},{"bike_id":"0a81d3d5-1a88-4207-bfeb-dce61510f31f","system_id":"levelo_inurba_marseille","lat":43.29493,"lon":5.39417,"is_reserved":false,"is_disabled":true,"rental_uris":{"android":"levelo://app?vid=0a81d3d5-1a88-4207-bfeb-dce61510f31f","ios":"levelo://app?vid=0a81d3d5-1a88-4207-bfeb-dce61510f31f"},"vehicle_type_id":"4","last_reported":1752761444,"current_range_meters":11200,"station_id":"ce4bh292rcd13ifvqdf0","pricing_plan_id":"cebpf4jnsgd1na2vs0mg"},{"bike_id":"5daaef4a-1a36-4535-84d5-5d85284835b6","system_id":"levelo_inurba_marseille","lat":43.30143,"lon":5.3806,"is_reserved":false,"is_disabled":false,"rental_uris":{"android":"levelo://app?vid=5daaef4a-1a36-4535-84d5-5d85284835b6","ios":"levelo://app?vid=5daaef4a-1a36-4535-84d5-5d85284835b6"},"vehicle_type_id":"4","last_reported":1752761444,"current_range_meters":11200,"station_id":"ce4bgjp2rcd13ifvqbh0","pricing_plan_id":"cebpf4jnsgd1na2vs0mg"},{"bike_id":"6a69d0cc-faf8-4dc3-8ded-5ef811a5de8d","system_id":"levelo_inurba_marseille","lat":43.30744,"lon":5.42444,"is_reserved":false,"is_disabled":false,"rental_uris":{"android":"levelo://app?vid=6a69d0cc-faf8-4dc3-8ded-5ef811a5de8d","ios":"levelo://app?vid=6a69d0cc-faf8-4dc3-8ded-5ef811a5de8d"},"vehicle_type_id":"4","last_reported":1752761444,"current_range_meters":11200,"station_id":"st_cvj6ca6bvosntc0bfgr0","pricing_plan_id":"cebpf4jnsgd1na2vs0mg"},{"bike_id":"555bc53e-5286-4fb6-9154-af42b3fd9792","system_id":"levelo_inurba_marseille","lat":43.300704,"lon":5.372793,"is_reserved":false,"is_disabled":false,"rental_uris":{"android":"levelo://app?vid=555bc53e-5286-4fb6-9154-af42b3fd9792","ios":"levelo://app?vid=555bc53e-5286-4fb6-9154-af42b3fd9792"},"vehicle_type_id":"4","last_reported":1752761444,"current_range_meters":11600,"station_id":"","pricing_plan_id":"cebpf4jnsgd1na2vs0mg"},{"bike_id":"d55d4cb5-1558-4ea0-aa08-b3c24522217e","system_id":"levelo_inurba_marseille","lat":43.243889,"lon":5.370596,"is_reserved":false,"is_disabled":false,"rental_uris":{"android":"levelo://app?vid=d55d4cb5-1558-4ea0-aa08-b3c24522217e","ios":"levelo://app?vid=d55d4cb5-1558-4ea0-aa08-b3c24522217e"},"vehicle_type_id":"4","last_reported":1752761444,"current_range_meters":12000,"station_id":"ce4bhhh2rcd13ifvqfk0","pricing_plan_id":"cebpf4jnsgd1na2vs0mg"},{"bike_id":"73bca0b0-4c74-4529-b2c1-e6eee305216b","system_id":"levelo_inurba_marseille","lat":43.22935,"lon":5.35377,"is_reserved":false,"is_disabled":false,"rental_uris":{"android":"levelo://app?vid=73bca0b0-4c74-4529-b2c1-e6eee305216b","ios":"levelo://app?vid=73bca0b0-4c74-4529-b2c1-e6eee305216b"},"vehicle_type_id":"4","last_reported":1752761444,"current_range_meters":12000,"station_id":"cpo3532slgdg3j2ikp40","pricing_plan_id":"cebpf4jnsgd1na2vs0mg"},{"bike_id":"37e8189d-3a2e-4706-90e4-fe0a1abcb858","system_id":"levelo_inurba_marseille","lat":43.28911,"lon":5.37857,"is_reserved":false,"is_disabled":false,"rental_uris":{"android":"levelo://app?vid=37e8189d-3a2e-4706-90e4-fe0a1abcb858","ios":"levelo://app?vid=37e8189d-3a2e-4706-90e4-fe0a1abcb858"},"vehicle_type_id":"4","last_reported":1752761444,"current_range_meters":12000,"station_id":"","pricing_plan_id":"cebpf4jnsgd1na2vs0mg"},{"bike_id":"98daf460-c45d-4be9-b03d-fde500644729","system_id":"levelo_inurba_marseille","lat":43.296223,"lon":5.377025,"is_reserved":false,"is_disabled":false,"rental_uris":{"android":"levelo://app?vid=98daf460-c45d-4be9-b03d-fde500644729","ios":"levelo://app?vid=98daf460-c45d-4be9-b03d-fde500644729"},"vehicle_type_id":"4","last_reported":1752761444,"current_range_meters":12400,"station_id":"","pricing_plan_id":"cebpf4jnsgd1na2vs0mg"},{"bike_id":"1a1de22c-864f-4087-990e-227151d55abc","system_id":"levelo_inurba_marseille","lat":43.2121,"lon":5.35081,"is_reserved":false,"is_disabled":false,"rental_uris":{"android":"levelo://app?vid=1a1de22c-864f-4087-990e-227151d55abc","ios":"levelo://app?vid=1a1de22c-864f-4087-990e-227151d55abc"},"vehicle_type_id":"4","last_reported":1752761444,"current_range_meters":12800,"station_id":"st_cvj6sg6p6f1abm77japg","pricing_plan_id":"cebpf4jnsgd1na2vs0mg"},{"bike_id":"3444bdc6-514a-4ba6-9650-f9073305e33d","system_id":"levelo_inurba_marseille","lat":43.29682,"lon":5.3698,"is_reserved":false,"is_disabled":false,"rental_uris":{"android":"levelo://app?vid=3444bdc6-514a-4ba6-9650-f9073305e33d","ios":"levelo://app?vid=3444bdc6-514a-4ba6-9650-f9073305e33d"},"vehicle_type_id":"4","last_reported":1752761444,"current_range_meters":12800,"station_id":"","pricing_plan_id":"cebpf4jnsgd1na2vs0mg"},{"bike_id":"a7223ff8-19eb-451a-8bed-3d0dd4b19a2d","system_id":"levelo_inurba_marseille","lat":43.29272,"lon":5.36842,"is_reserved":false,"is_disabled":false,"rental_uris":{"android":"levelo://app?vid=a7223ff8-19eb-451a-8bed-3d0dd4b19a2d","ios":"levelo://app?vid=a7223ff8-19eb-451a-8bed-3d0dd4b19a2d"},"vehicle_type_id":"4","last_reported":1752761444,"current_range_meters":12800,"station_id":"ce4bhbp2rcd13ifvqesg","pricing_plan_id":"cebpf4jnsgd1na2vs0mg"},{"bike_id":"36a62837-4f91-45c5-a047-9031fba89239","system_id":"levelo_inurba_marseille","lat":43.30927,"lon":5.40143,"is_reserved":false,"is_disabled":false,"rental_uris":{"android":"levelo://app?vid=36a62837-4f91-45c5-a047-9031fba89239","ios":"levelo://app?vid=36a62837-4f91-45c5-a047-9031fba89239"},"vehicle_type_id":"4","last_reported":1752761444,"current_range_meters":12800,"station_id":"ce4bgvp2rcd13ifvqct0","pricing_plan_id":"cebpf4jnsgd1na2vs0mg"},{"bike_id":"b21d184c-0385-4162-a87b-f906b6c3d6b8","system_id":"levelo_inurba_marseille","lat":43.302762,"lon":5.38654,"is_reserved":false,"is_disabled":false,"rental_uris":{"android":"levelo://app?vid=b21d184c-0385-4162-a87b-f906b6c3d6b8","ios":"levelo://app?vid=b21d184c-0385-4162-a87b-f906b6c3d6b8"},"vehicle_type_id":"4","last_reported":1752761444,"current_range_meters":12800,"station_id":"ce4bgg92rcd13ifvqb30","pricing_plan_id":"cebpf4jnsgd1na2vs0mg"},{"bike_id":"e486650a-4a92-4236-ad0b-f4a6cb4e0658","system_id":"levelo_inurba_marseille","lat":43.27378,"lon":5.36254,"is_reserved":false,"is_disabled":false,"rental_uris":{"android":"levelo://app?vid=e486650a-4a92-4236-ad0b-f4a6cb4e0658","ios":"levelo://app?vid=e486650a-4a92-4236-ad0b-f4a6cb4e0658"},"vehicle_type_id":"4","last_reported":1752761444,"current_range_meters":12800,"station_id":"ce4bhbh2rcd13ifvqeo0","pricing_plan_id":"cebpf4jnsgd1na2vs0mg"},{"bike_id":"cd738e42-8b26-40fd-8bc4-825c7f86fb17","system_id":"levelo_inurba_marseille","lat":43.29005,"lon":5.3561,"is_reserved":false,"is_disabled":false,"rental_uris":{"android":"levelo://app?vid=cd738e42-8b26-40fd-8bc4-825c7f86fb17","ios":"levelo://app?vid=cd738e42-8b26-40fd-8bc4-825c7f86fb17"},"vehicle_type_id":"4","last_reported":1752761444,"current_range_meters":12800,"station_id":"ce4bhb92rcd13ifvqen0","pricing_plan_id":"cebpf4jnsgd1na2vs0mg"},{"bike_id":"28d27c17-e6ca-4cec-aec9-f1f6696b8a12","system_id":"levelo_inurba_marseille","lat":43.29907,"lon":5.43668,"is_reserved":false,"is_disabled":true,"rental_uris":{"android":"levelo://app?vid=28d27c17-e6ca-4cec-aec9-f1f6696b8a12","ios":"levelo://app?vid=28d27c17-e6ca-4cec-aec9-f1f6696b8a12"},"vehicle_type_id":"4","last_reported":1752761444,"current_range_meters":12800,"station_id":"ce4bhpp2rcd13ifvqhfg","pricing_plan_id":"cebpf4jnsgd1na2vs0mg"},{"bike_id":"10cc034f-7bd4-4b02-b5b9-91c0f18b5825","system_id":"levelo_inurba_marseille","lat":43.29033,"lon":5.38627,"is_reserved":false,"is_disabled":false,"rental_uris":{"android":"levelo://app?vid=10cc034f-7bd4-4b02-b5b9-91c0f18b5825","ios":"levelo://app?vid=10cc034f-7bd4-4b02-b5b9-91c0f18b5825"},"vehicle_type_id":"4","last_reported":1752761444,"current_range_meters":12800,"station_id":"ce4bh4p2rcd13ifvqe0g","pricing_plan_id":"cebpf4jnsgd1na2vs0mg"},{"bike_id":"725ddd54-0a62-4fdf-9ff9-540c2e640e9e","system_id":"levelo_inurba_marseille","lat":43.280736,"lon":5.396286,"is_reserved":false,"is_disabled":false,"rental_uris":{"android":"levelo://app?vid=725ddd54-0a62-4fdf-9ff9-540c2e640e9e","ios":"levelo://app?vid=725ddd54-0a62-4fdf-9ff9-540c2e640e9e"},"vehicle_type_id":"4","last_reported":1752761444,"current_range_meters":13600,"station_id":"ce4bho12rcd13ifvqh2g","pricing_plan_id":"cebpf4jnsgd1na2vs0mg"},{"bike_id":"f6e67167-3686-4cae-82da-4610049996dc","system_id":"levelo_inurba_marseille","lat":43.269259,"lon":5.385261,"is_reserved":false,"is_disabled":false,"rental_uris":{"android":"levelo://app?vid=f6e67167-3686-4cae-82da-4610049996dc","ios":"levelo://app?vid=f6e67167-3686-4cae-82da-4610049996dc"},"vehicle_type_id":"4","last_reported":1752761444,"current_range_meters":13600,"station_id":"","pricing_plan_id":"cebpf4jnsgd1na2vs0mg"},{"bike_id":"a6ad2597-d35f-40c2-9606-f75afa3aba4c","system_id":"levelo_inurba_marseille","lat":43.28265,"lon":5.35078,"is_reserved":false,"is_disabled":false,"rental_uris":{"android":"levelo://app?vid=a6ad2597-d35f-40c2-9606-f75afa3aba4c","ios":"levelo://app?vid=a6ad2597-d35f-40c2-9606-f75afa3aba4c"},"vehicle_type_id":"4","last_reported":1752761444,"current_range_meters":13600,"station_id":"ce4bhbp2rcd13ifvqerg","pricing_plan_id":"cebpf4jnsgd1na2vs0mg"},{"bike_id":"c303be8a-04b5-403f-a92a-eac34b716859","system_id":"levelo_inurba_marseille","lat":43.22928,"lon":5.35373,"is_reserved":false,"is_disabled":false,"rental_uris":{"android":"levelo://app?vid=c303be8a-04b5-403f-a92a-eac34b716859","ios":"levelo://app?vid=c303be8a-04b5-403f-a92a-eac34b716859"},"vehicle_type_id":"4","last_reported":1752761444,"current_range_meters":13600,"station_id":"cpo3532slgdg3j2ikp40","pricing_plan_id":"cebpf4jnsgd1na2vs0mg"},{"bike_id":"90c949f6-d48f-42c8-86a8-4f5926a38ca2","system_id":"levelo_inurba_marseille","lat":43.31886,"lon":5.40737,"is_reserved":false,"is_disabled":false,"rental_uris":{"android":"levelo://app?vid=90c949f6-d48f-42c8-86a8-4f5926a38ca2","ios":"levelo://app?vid=90c949f6-d48f-42c8-86a8-4f5926a38ca2"},"vehicle_type_id":"4","last_reported":1752761444,"current_range_meters":13600,"station_id":"ce4bhq12rcd13ifvqhig","pricing_plan_id":"cebpf4jnsgd1na2vs0mg"},{"bike_id":"b33be315-9be7-4725-bb3d-eb6adfc3d1ed","system_id":"levelo_inurba_marseille","lat":43.28266,"lon":5.35061,"is_reserved":false,"is_disabled":false,"rental_uris":{"android":"levelo://app?vid=b33be315-9be7-4725-bb3d-eb6adfc3d1ed","ios":"levelo://app?vid=b33be315-9be7-4725-bb3d-eb6adfc3d1ed"},"vehicle_type_id":"4","last_reported":1752761444,"current_range_meters":13600,"station_id":"ce4bhbp2rcd13ifvqerg","pricing_plan_id":"cebpf4jnsgd1na2vs0mg"},{"bike_id":"b6e40dbb-482e-43e6-bc56-ee373b6225ae","system_id":"levelo_inurba_marseille","lat":43.314962,"lon":5.373136,"is_reserved":false,"is_disabled":false,"rental_uris":{"android":"levelo://app?vid=b6e40dbb-482e-43e6-bc56-ee373b6225ae","ios":"levelo://app?vid=b6e40dbb-482e-43e6-bc56-ee373b6225ae"},"vehicle_type_id":"4","last_reported":1752761444,"current_range_meters":14000,"station_id":"ce4bgt12rcd13ifvqcd0","pricing_plan_id":"cebpf4jnsgd1na2vs0mg"},{"bike_id":"143e1bf6-63fd-4081-b646-f6ec0b3c602e","system_id":"levelo_inurba_marseille","lat":43.28492,"lon":5.38584,"is_reserved":false,"is_disabled":false,"rental_uris":{"android":"levelo://app?vid=143e1bf6-63fd-4081-b646-f6ec0b3c602e","ios":"levelo://app?vid=143e1bf6-63fd-4081-b646-f6ec0b3c602e"},"vehicle_type_id":"4","last_reported":1752761444,"current_range_meters":14000,"station_id":"ce4bh8p2rcd13ifvqeb0","pricing_plan_id":"cebpf4jnsgd1na2vs0mg"},{"bike_id":"e8db7860-c461-4659-866b-a14a730ae823","system_id":"levelo_inurba_marseille","lat":43.31496,"lon":5.37302,"is_reserved":false,"is_disabled":false,"rental_uris":{"android":"levelo://app?vid=e8db7860-c461-4659-866b-a14a730ae823","ios":"levelo://app?vid=e8db7860-c461-4659-866b-a14a730ae823"},"vehicle_type_id":"4","last_reported":1752761444,"current_range_meters":14000,"station_id":"ce4bgt12rcd13ifvqcd0","pricing_plan_id":"cebpf4jnsgd1na2vs0mg"},{"bike_id":"07f5ae19-0925-43ef-aab4-48ec58bc62b9","system_id":"levelo_inurba_marseille","lat":43.31445,"lon":5.37439,"is_reserved":false,"is_disabled":false,"rental_uris":{"android":"levelo://app?vid=07f5ae19-0925-43ef-aab4-48ec58bc62b9","ios":"levelo://app?vid=07f5ae19-0925-43ef-aab4-48ec58bc62b9"},"vehicle_type_id":"4","last_reported":1752761444,"current_range_meters":14000,"station_id":"","pricing_plan_id":"cebpf4jnsgd1na2vs0mg"},{"bike_id":"e0ecee7f-625c-4740-ab9e-8af608dda744","system_id":"levelo_inurba_marseille","lat":43.29888,"lon":5.38894,"is_reserved":false,"is_disabled":false,"rental_uris":{"android":"levelo://app?vid=e0ecee7f-625c-4740-ab9e-8af608dda744","ios":"levelo://app?vid=e0ecee7f-625c-4740-ab9e-8af608dda744"},"vehicle_type_id":"4","last_reported":1752761444,"current_range_meters":14000,"station_id":"ce4bh392rcd13ifvqdl0","pricing_plan_id":"cebpf4jnsgd1na2vs0mg"},{"bike_id":"879c6f3b-44db-445e-be8a-b534d3638e3a","system_id":"levelo_inurba_marseille","lat":43.26539,"lon":5.39038,"is_reserved":false,"is_disabled":false,"rental_uris":{"android":"levelo://app?vid=879c6f3b-44db-445e-be8a-b534d3638e3a","ios":"levelo://app?vid=879c6f3b-44db-445e-be8a-b534d3638e3a"},"vehicle_type_id":"4","last_reported":1752761444,"current_range_meters":14400,"station_id":"ce4bhe12rcd13ifvqf30","pricing_plan_id":"cebpf4jnsgd1na2vs0mg"},{"bike_id":"9e5ccea3-b4c5-4352-b137-65fb27193028","system_id":"levelo_inurba_marseille","lat":43.22507,"lon":5.34764,"is_reserved":false,"is_disabled":false,"rental_uris":{"android":"levelo://app?vid=9e5ccea3-b4c5-4352-b137-65fb27193028","ios":"levelo://app?vid=9e5ccea3-b4c5-4352-b137-65fb27193028"},"vehicle_type_id":"4","last_reported":1752761444,"current_range_meters":14400,"station_id":"st_cvj5dfep6f1abm77gieg","pricing_plan_id":"cebpf4jnsgd1na2vs0mg"},{"bike_id":"db5e1d5a-066d-41f1-8e98-cb9ce80fb8b3","system_id":"levelo_inurba_marseille","lat":43.30784,"lon":5.37633,"is_reserved":false,"is_disabled":false,"rental_uris":{"android":"levelo://app?vid=db5e1d5a-066d-41f1-8e98-cb9ce80fb8b3","ios":"levelo://app?vid=db5e1d5a-066d-41f1-8e98-cb9ce80fb8b3"},"vehicle_type_id":"4","last_reported":1752761444,"current_range_meters":14800,"station_id":"ce4bgv92rcd13ifvqcq0","pricing_plan_id":"cebpf4jnsgd1na2vs0mg"},{"bike_id":"10c73ce7-0698-459d-9d1d-72d3386298ef","system_id":"levelo_inurba_marseille","lat":43.23181,"lon":5.39986,"is_reserved":false,"is_disabled":false,"rental_uris":{"android":"levelo://app?vid=10c73ce7-0698-459d-9d1d-72d3386298ef","ios":"levelo://app?vid=10c73ce7-0698-459d-9d1d-72d3386298ef"},"vehicle_type_id":"4","last_reported":1752761444,"current_range_meters":14800,"station_id":"ce4bhn12rcd13ifvqgqg","pricing_plan_id":"cebpf4jnsgd1na2vs0mg"},{"bike_id":"f58bba52-de62-483d-b008-9b3b470ac41e","system_id":"levelo_inurba_marseille","lat":43.29425,"lon":5.39756,"is_reserved":false,"is_disabled":false,"rental_uris":{"android":"levelo://app?vid=f58bba52-de62-483d-b008-9b3b470ac41e","ios":"levelo://app?vid=f58bba52-de62-483d-b008-9b3b470ac41e"},"vehicle_type_id":"4","last_reported":1752761444,"current_range_meters":14800,"station_id":"ce4bh3h2rcd13ifvqdo0","pricing_plan_id":"cebpf4jnsgd1na2vs0mg"},{"bike_id":"2ac93549-5c94-4228-8eea-782a21384d10","system_id":"levelo_inurba_marseille","lat":43.29634,"lon":5.37793,"is_reserved":false,"is_disabled":false,"rental_uris":{"android":"levelo://app?vid=2ac93549-5c94-4228-8eea-782a21384d10","ios":"levelo://app?vid=2ac93549-5c94-4228-8eea-782a21384d10"},"vehicle_type_id":"4","last_reported":1752761444,"current_range_meters":14800,"station_id":"","pricing_plan_id":"cebpf4jnsgd1na2vs0mg"},{"bike_id":"8190b158-4f1a-4f58-a07b-5b1c4e7d71cb","system_id":"levelo_inurba_marseille","lat":43.29221,"lon":5.3604,"is_reserved":false,"is_disabled":false,"rental_uris":{"android":"levelo://app?vid=8190b158-4f1a-4f58-a07b-5b1c4e7d71cb","ios":"levelo://app?vid=8190b158-4f1a-4f58-a07b-5b1c4e7d71cb"},"vehicle_type_id":"4","last_reported":1752761444,"current_range_meters":14800,"station_id":"ce4bhbh2rcd13ifvqeqg","pricing_plan_id":"cebpf4jnsgd1na2vs0mg"},{"bike_id":"fd07f785-948d-48e7-9c57-46cccfaa2b14","system_id":"levelo_inurba_marseille","lat":43.2841,"lon":5.34989,"is_reserved":false,"is_disabled":false,"rental_uris":{"android":"levelo://app?vid=fd07f785-948d-48e7-9c57-46cccfaa2b14","ios":"levelo://app?vid=fd07f785-948d-48e7-9c57-46cccfaa2b14"},"vehicle_type_id":"4","last_reported":1752761444,"current_range_meters":14800,"station_id":"ce4bhbh2rcd13ifvqepg","pricing_plan_id":"cebpf4jnsgd1na2vs0mg"},{"bike_id":"582d5e63-4946-44ff-8da5-cdf3e52be7b6","system_id":"levelo_inurba_marseille","lat":43.27065,"lon":5.40255,"is_reserved":false,"is_disabled":false,"rental_uris":{"android":"levelo://app?vid=582d5e63-4946-44ff-8da5-cdf3e52be7b6","ios":"levelo://app?vid=582d5e63-4946-44ff-8da5-cdf3e52be7b6"},"vehicle_type_id":"4","last_reported":1752761444,"current_range_meters":14800,"station_id":"ce4bhk92rcd13ifvqgc0","pricing_plan_id":"cebpf4jnsgd1na2vs0mg"},{"bike_id":"dab62de4-01c0-4f53-bfde-184f78541cf5","system_id":"levelo_inurba_marseille","lat":43.29832,"lon":5.36301,"is_reserved":false,"is_disabled":false,"rental_uris":{"android":"levelo://app?vid=dab62de4-01c0-4f53-bfde-184f78541cf5","ios":"levelo://app?vid=dab62de4-01c0-4f53-bfde-184f78541cf5"},"vehicle_type_id":"4","last_reported":1752761444,"current_range_meters":14800,"station_id":"ce4bgpp2rcd13ifvqc3g","pricing_plan_id":"cebpf4jnsgd1na2vs0mg"},{"bike_id":"2c6e34ec-e4ad-4b55-908f-732bdcecdb2f","system_id":"levelo_inurba_marseille","lat":43.21204,"lon":5.35057,"is_reserved":false,"is_disabled":false,"rental_uris":{"android":"levelo://app?vid=2c6e34ec-e4ad-4b55-908f-732bdcecdb2f","ios":"levelo://app?vid=2c6e34ec-e4ad-4b55-908f-732bdcecdb2f"},"vehicle_type_id":"4","last_reported":1752761444,"current_range_meters":15200,"station_id":"st_cvj6sg6p6f1abm77japg","pricing_plan_id":"cebpf4jnsgd1na2vs0mg"},{"bike_id":"6d70d6d4-7776-4d1e-a307-46e9e54de733","system_id":"levelo_inurba_marseille","lat":43.295648,"lon":5.399666,"is_reserved":false,"is_disabled":true,"rental_uris":{"android":"levelo://app?vid=6d70d6d4-7776-4d1e-a307-46e9e54de733","ios":"levelo://app?vid=6d70d6d4-7776-4d1e-a307-46e9e54de733"},"vehicle_type_id":"4","last_reported":1752761444,"current_range_meters":15200,"station_id":"ce4bh312rcd13ifvqdj0","pricing_plan_id":"cebpf4jnsgd1na2vs0mg"},{"bike_id":"45603edf-8911-4b33-ac71-015f1e76b606","system_id":"levelo_inurba_marseille","lat":43.31524,"lon":5.38369,"is_reserved":false,"is_disabled":false,"rental_uris":{"android":"levelo://app?vid=45603edf-8911-4b33-ac71-015f1e76b606","ios":"levelo://app?vid=45603edf-8911-4b33-ac71-015f1e76b606"},"vehicle_type_id":"4","last_reported":1752761444,"current_range_meters":15200,"station_id":"","pricing_plan_id":"cebpf4jnsgd1na2vs0mg"},{"bike_id":"da891840-0cec-4ccc-961c-48903736c6fa","system_id":"levelo_inurba_marseille","lat":43.31139,"lon":5.37692,"is_reserved":false,"is_disabled":false,"rental_uris":{"android":"levelo://app?vid=da891840-0cec-4ccc-961c-48903736c6fa","ios":"levelo://app?vid=da891840-0cec-4ccc-961c-48903736c6fa"},"vehicle_type_id":"4","last_reported":1752761444,"current_range_meters":15200,"station_id":"","pricing_plan_id":"cebpf4jnsgd1na2vs0mg"},{"bike_id":"64137eca-6428-4c15-b090-3c90faa6d8cb","system_id":"levelo_inurba_marseille","lat":43.24395,"lon":5.37065,"is_reserved":false,"is_disabled":false,"rental_uris":{"android":"levelo://app?vid=64137eca-6428-4c15-b090-3c90faa6d8cb","ios":"levelo://app?vid=64137eca-6428-4c15-b090-3c90faa6d8cb"},"vehicle_type_id":"4","last_reported":1752761444,"current_range_meters":15200,"station_id":"ce4bhhh2rcd13ifvqfk0","pricing_plan_id":"cebpf4jnsgd1na2vs0mg"},{"bike_id":"b3af22de-804c-4b6e-9abb-abf742899dd0","system_id":"levelo_inurba_marseille","lat":43.24166,"lon":5.36392,"is_reserved":false,"is_disabled":false,"rental_uris":{"android":"levelo://app?vid=b3af22de-804c-4b6e-9abb-abf742899dd0","ios":"levelo://app?vid=b3af22de-804c-4b6e-9abb-abf742899dd0"},"vehicle_type_id":"4","last_reported":1752761444,"current_range_meters":15200,"station_id":"cpo36qri1sfpv3e86is0","pricing_plan_id":"cebpf4jnsgd1na2vs0mg"},{"bike_id":"be8db29c-af24-41b6-8134-2579df328339","system_id":"levelo_inurba_marseille","lat":43.30331,"lon":5.3691,"is_reserved":false,"is_disabled":false,"rental_uris":{"android":"levelo://app?vid=be8db29c-af24-41b6-8134-2579df328339","ios":"levelo://app?vid=be8db29c-af24-41b6-8134-2579df328339"},"vehicle_type_id":"4","last_reported":1752761444,"current_range_meters":15200,"station_id":"ce4bgqh2rcd13ifvqc5g","pricing_plan_id":"cebpf4jnsgd1na2vs0mg"},{"bike_id":"fd75f631-a93f-469d-bea7-4e480ab41eae","system_id":"levelo_inurba_marseille","lat":43.28279,"lon":5.35073,"is_reserved":false,"is_disabled":false,"rental_uris":{"android":"levelo://app?vid=fd75f631-a93f-469d-bea7-4e480ab41eae","ios":"levelo://app?vid=fd75f631-a93f-469d-bea7-4e480ab41eae"},"vehicle_type_id":"4","last_reported":1752761444,"current_range_meters":15200,"station_id":"ce4bhbp2rcd13ifvqerg","pricing_plan_id":"cebpf4jnsgd1na2vs0mg"},{"bike_id":"e555b545-304c-4dce-8496-1643c0f2600e","system_id":"levelo_inurba_marseille","lat":43.337444,"lon":5.374475,"is_reserved":false,"is_disabled":false,"rental_uris":{"android":"levelo://app?vid=e555b545-304c-4dce-8496-1643c0f2600e","ios":"levelo://app?vid=e555b545-304c-4dce-8496-1643c0f2600e"},"vehicle_type_id":"4","last_reported":1752761444,"current_range_meters":15200,"station_id":"","pricing_plan_id":"cebpf4jnsgd1na2vs0mg"},{"bike_id":"be2d9d11-e19c-4a33-99cd-7a0f048a2777","system_id":"levelo_inurba_marseille","lat":43.26595,"lon":5.37287,"is_reserved":false,"is_disabled":false,"rental_uris":{"android":"levelo://app?vid=be2d9d11-e19c-4a33-99cd-7a0f048a2777","ios":"levelo://app?vid=be2d9d11-e19c-4a33-99cd-7a0f048a2777"},"vehicle_type_id":"4","last_reported":1752761444,"current_range_meters":16000,"station_id":"ce4bhg12rcd13ifvqf70","pricing_plan_id":"cebpf4jnsgd1na2vs0mg"},{"bike_id":"08047682-4828-4af3-8084-134e8a9fbd3f","system_id":"levelo_inurba_marseille","lat":43.26802,"lon":5.40261,"is_reserved":false,"is_disabled":false,"rental_uris":{"android":"levelo://app?vid=08047682-4828-4af3-8084-134e8a9fbd3f","ios":"levelo://app?vid=08047682-4828-4af3-8084-134e8a9fbd3f"},"vehicle_type_id":"4","last_reported":1752761444,"current_range_meters":16000,"station_id":"ce501612rcd8frsf0b60","pricing_plan_id":"cebpf4jnsgd1na2vs0mg"},{"bike_id":"a092d05c-8017-44f5-ba8a-35792463d6a3","system_id":"levelo_inurba_marseille","lat":43.225164,"lon":5.347876,"is_reserved":false,"is_disabled":false,"rental_uris":{"android":"levelo://app?vid=a092d05c-8017-44f5-ba8a-35792463d6a3","ios":"levelo://app?vid=a092d05c-8017-44f5-ba8a-35792463d6a3"},"vehicle_type_id":"4","last_reported":1752761444,"current_range_meters":16000,"station_id":"st_cvj5dfep6f1abm77gieg","pricing_plan_id":"cebpf4jnsgd1na2vs0mg"},{"bike_id":"eab9537b-893b-47b5-b14d-13822947026a","system_id":"levelo_inurba_marseille","lat":43.25918,"lon":5.40899,"is_reserved":false,"is_disabled":false,"rental_uris":{"android":"levelo://app?vid=eab9537b-893b-47b5-b14d-13822947026a","ios":"levelo://app?vid=eab9537b-893b-47b5-b14d-13822947026a"},"vehicle_type_id":"4","last_reported":1752761444,"current_range_meters":16000,"station_id":"ce4bhm92rcd13ifvqglg","pricing_plan_id":"cebpf4jnsgd1na2vs0mg"},{"bike_id":"c3a061f7-b76c-4dd1-a988-11757c15f2b6","system_id":"levelo_inurba_marseille","lat":43.265658,"lon":5.372786,"is_reserved":false,"is_disabled":false,"rental_uris":{"android":"levelo://app?vid=c3a061f7-b76c-4dd1-a988-11757c15f2b6","ios":"levelo://app?vid=c3a061f7-b76c-4dd1-a988-11757c15f2b6"},"vehicle_type_id":"4","last_reported":1752761444,"current_range_meters":16000,"station_id":"ce4bhg12rcd13ifvqf70","pricing_plan_id":"cebpf4jnsgd1na2vs0mg"},{"bike_id":"e25389df-277a-4026-8c68-552853d58d68","system_id":"levelo_inurba_marseille","lat":43.27311,"lon":5.39094,"is_reserved":false,"is_disabled":false,"rental_uris":{"android":"levelo://app?vid=e25389df-277a-4026-8c68-552853d58d68","ios":"levelo://app?vid=e25389df-277a-4026-8c68-552853d58d68"},"vehicle_type_id":"4","last_reported":1752761444,"current_range_meters":16000,"station_id":"ce4bhgp2rcd13ifvqfe0","pricing_plan_id":"cebpf4jnsgd1na2vs0mg"},{"bike_id":"a6925f3c-d3d1-4189-a180-b325ef653dcf","system_id":"levelo_inurba_marseille","lat":43.28624,"lon":5.35093,"is_reserved":false,"is_disabled":false,"rental_uris":{"android":"levelo://app?vid=a6925f3c-d3d1-4189-a180-b325ef653dcf","ios":"levelo://app?vid=a6925f3c-d3d1-4189-a180-b325ef653dcf"},"vehicle_type_id":"4","last_reported":1752761444,"current_range_meters":16000,"station_id":"ce4bhch2rcd13ifvqeug","pricing_plan_id":"cebpf4jnsgd1na2vs0mg"},{"bike_id":"4ce23f9a-ac9e-46f9-8867-f89caa95c0e6","system_id":"levelo_inurba_marseille","lat":43.313295,"lon":5.396905,"is_reserved":false,"is_disabled":false,"rental_uris":{"android":"levelo://app?vid=4ce23f9a-ac9e-46f9-8867-f89caa95c0e6","ios":"levelo://app?vid=4ce23f9a-ac9e-46f9-8867-f89caa95c0e6"},"vehicle_type_id":"4","last_reported":1752761444,"current_range_meters":16000,"station_id":"ce4bgvp2rcd13ifvqcu0","pricing_plan_id":"cebpf4jnsgd1na2vs0mg"},{"bike_id":"8fa09330-1cdd-4e07-8f6c-d55c7ba849ee","system_id":"levelo_inurba_marseille","lat":43.28618,"lon":5.35108,"is_reserved":false,"is_disabled":false,"rental_uris":{"android":"levelo://app?vid=8fa09330-1cdd-4e07-8f6c-d55c7ba849ee","ios":"levelo://app?vid=8fa09330-1cdd-4e07-8f6c-d55c7ba849ee"},"vehicle_type_id":"4","last_reported":1752761444,"current_range_meters":16000,"station_id":"ce4bhch2rcd13ifvqeug","pricing_plan_id":"cebpf4jnsgd1na2vs0mg"},{"bike_id":"1cbb36cf-5291-4fc5-9449-4e65432b7868","system_id":"levelo_inurba_marseille","lat":43.307793,"lon":5.376446,"is_reserved":false,"is_disabled":false,"rental_uris":{"android":"levelo://app?vid=1cbb36cf-5291-4fc5-9449-4e65432b7868","ios":"levelo://app?vid=1cbb36cf-5291-4fc5-9449-4e65432b7868"},"vehicle_type_id":"4","last_reported":1752761444,"current_range_meters":16000,"station_id":"ce4bgv92rcd13ifvqcq0","pricing_plan_id":"cebpf4jnsgd1na2vs0mg"},{"bike_id":"81f88721-00d0-431c-83bf-446e11578408","system_id":"levelo_inurba_marseille","lat":43.225045,"lon":5.347796,"is_reserved":false,"is_disabled":false,"rental_uris":{"android":"levelo://app?vid=81f88721-00d0-431c-83bf-446e11578408","ios":"levelo://app?vid=81f88721-00d0-431c-83bf-446e11578408"},"vehicle_type_id":"4","last_reported":1752761444,"current_range_meters":16000,"station_id":"st_cvj5dfep6f1abm77gieg","pricing_plan_id":"cebpf4jnsgd1na2vs0mg"},{"bike_id":"aebeee84-419c-4ac0-8ad4-257b0df9d04f","system_id":"levelo_inurba_marseille","lat":43.33581,"lon":5.40996,"is_reserved":false,"is_disabled":false,"rental_uris":{"android":"levelo://app?vid=aebeee84-419c-4ac0-8ad4-257b0df9d04f","ios":"levelo://app?vid=aebeee84-419c-4ac0-8ad4-257b0df9d04f"},"vehicle_type_id":"4","last_reported":1752761444,"current_range_meters":16400,"station_id":"ce4bhqh2rcd13ifvqhmg","pricing_plan_id":"cebpf4jnsgd1na2vs0mg"},{"bike_id":"778d24c4-0e7c-4abd-97ee-0cf7e003e57e","system_id":"levelo_inurba_marseille","lat":43.25497,"lon":5.37645,"is_reserved":false,"is_disabled":false,"rental_uris":{"android":"levelo://app?vid=778d24c4-0e7c-4abd-97ee-0cf7e003e57e","ios":"levelo://app?vid=778d24c4-0e7c-4abd-97ee-0cf7e003e57e"},"vehicle_type_id":"4","last_reported":1752761444,"current_range_meters":16400,"station_id":"ce4bhh12rcd13ifvqff0","pricing_plan_id":"cebpf4jnsgd1na2vs0mg"},{"bike_id":"890172f6-453b-4901-8b32-8e56512b45a4","system_id":"levelo_inurba_marseille","lat":43.23151,"lon":5.43697,"is_reserved":false,"is_disabled":false,"rental_uris":{"android":"levelo://app?vid=890172f6-453b-4901-8b32-8e56512b45a4","ios":"levelo://app?vid=890172f6-453b-4901-8b32-8e56512b45a4"},"vehicle_type_id":"4","last_reported":1752761444,"current_range_meters":16400,"station_id":"ce4bhmp2rcd13ifvqgog","pricing_plan_id":"cebpf4jnsgd1na2vs0mg"},{"bike_id":"2272a1cb-30d4-47dd-bed5-39b01483f853","system_id":"levelo_inurba_marseille","lat":43.22904,"lon":5.35432,"is_reserved":false,"is_disabled":false,"rental_uris":{"android":"levelo://app?vid=2272a1cb-30d4-47dd-bed5-39b01483f853","ios":"levelo://app?vid=2272a1cb-30d4-47dd-bed5-39b01483f853"},"vehicle_type_id":"4","last_reported":1752761444,"current_range_meters":16400,"station_id":"cpo3532slgdg3j2ikp40","pricing_plan_id":"cebpf4jnsgd1na2vs0mg"},{"bike_id":"531dca68-8617-41b0-a6cd-abffc94e1d45","system_id":"levelo_inurba_marseille","lat":43.31192,"lon":5.37361,"is_reserved":false,"is_disabled":false,"rental_uris":{"android":"levelo://app?vid=531dca68-8617-41b0-a6cd-abffc94e1d45","ios":"levelo://app?vid=531dca68-8617-41b0-a6cd-abffc94e1d45"},"vehicle_type_id":"4","last_reported":1752761444,"current_range_meters":16400,"station_id":"","pricing_plan_id":"cebpf4jnsgd1na2vs0mg"},{"bike_id":"830426b6-a0d3-4fd9-861b-27431d791277","system_id":"levelo_inurba_marseille","lat":43.26223,"lon":5.40442,"is_reserved":false,"is_disabled":false,"rental_uris":{"android":"levelo://app?vid=830426b6-a0d3-4fd9-861b-27431d791277","ios":"levelo://app?vid=830426b6-a0d3-4fd9-861b-27431d791277"},"vehicle_type_id":"4","last_reported":1752761444,"current_range_meters":16400,"station_id":"ce4bhmh2rcd13ifvqgmg","pricing_plan_id":"cebpf4jnsgd1na2vs0mg"},{"bike_id":"66373baf-0ad7-431b-bc8d-6a440adb486a","system_id":"levelo_inurba_marseille","lat":43.26566,"lon":5.38995,"is_reserved":false,"is_disabled":false,"rental_uris":{"android":"levelo://app?vid=66373baf-0ad7-431b-bc8d-6a440adb486a","ios":"levelo://app?vid=66373baf-0ad7-431b-bc8d-6a440adb486a"},"vehicle_type_id":"4","last_reported":1752761444,"current_range_meters":16400,"station_id":"ce4bhe12rcd13ifvqf30","pricing_plan_id":"cebpf4jnsgd1na2vs0mg"},{"bike_id":"17d5835f-94fc-4b49-af95-c93c2311a156","system_id":"levelo_inurba_marseille","lat":43.24384,"lon":5.37061,"is_reserved":false,"is_disabled":false,"rental_uris":{"android":"levelo://app?vid=17d5835f-94fc-4b49-af95-c93c2311a156","ios":"levelo://app?vid=17d5835f-94fc-4b49-af95-c93c2311a156"},"vehicle_type_id":"4","last_reported":1752761444,"current_range_meters":16800,"station_id":"ce4bhhh2rcd13ifvqfk0","pricing_plan_id":"cebpf4jnsgd1na2vs0mg"},{"bike_id":"3d81bf7d-01ed-4b33-9451-cbb539dac082","system_id":"levelo_inurba_marseille","lat":43.31485,"lon":5.37298,"is_reserved":false,"is_disabled":false,"rental_uris":{"android":"levelo://app?vid=3d81bf7d-01ed-4b33-9451-cbb539dac082","ios":"levelo://app?vid=3d81bf7d-01ed-4b33-9451-cbb539dac082"},"vehicle_type_id":"4","last_reported":1752761444,"current_range_meters":16800,"station_id":"ce4bgt12rcd13ifvqcd0","pricing_plan_id":"cebpf4jnsgd1na2vs0mg"},{"bike_id":"ee77f27c-f1c1-46ed-bbc3-8ed0a48c0994","system_id":"levelo_inurba_marseille","lat":43.30543,"lon":5.36533,"is_reserved":false,"is_disabled":false,"rental_uris":{"android":"levelo://app?vid=ee77f27c-f1c1-46ed-bbc3-8ed0a48c0994","ios":"levelo://app?vid=ee77f27c-f1c1-46ed-bbc3-8ed0a48c0994"},"vehicle_type_id":"4","last_reported":1752761444,"current_range_meters":16800,"station_id":"ce4bgs12rcd13ifvqcag","pricing_plan_id":"cebpf4jnsgd1na2vs0mg"},{"bike_id":"d56be23e-d113-4007-9a0a-913805c7fa3e","system_id":"levelo_inurba_marseille","lat":43.28364,"lon":5.38638,"is_reserved":false,"is_disabled":false,"rental_uris":{"android":"levelo://app?vid=d56be23e-d113-4007-9a0a-913805c7fa3e","ios":"levelo://app?vid=d56be23e-d113-4007-9a0a-913805c7fa3e"},"vehicle_type_id":"4","last_reported":1752761444,"current_range_meters":16800,"station_id":"ce4bh492rcd13ifvqdvg","pricing_plan_id":"cebpf4jnsgd1na2vs0mg"},{"bike_id":"a4f0c1f2-8678-4634-a70f-4baa024b89b1","system_id":"levelo_inurba_marseille","lat":43.27977,"lon":5.38749,"is_reserved":false,"is_disabled":false,"rental_uris":{"android":"levelo://app?vid=a4f0c1f2-8678-4634-a70f-4baa024b89b1","ios":"levelo://app?vid=a4f0c1f2-8678-4634-a70f-4baa024b89b1"},"vehicle_type_id":"4","last_reported":1752761444,"current_range_meters":16800,"station_id":"ce4bhg12rcd13ifvqf80","pricing_plan_id":"cebpf4jnsgd1na2vs0mg"},{"bike_id":"36c99f2a-ae20-4b30-a93b-ec43a5e74e82","system_id":"levelo_inurba_marseille","lat":43.28567,"lon":5.39492,"is_reserved":false,"is_disabled":false,"rental_uris":{"android":"levelo://app?vid=36c99f2a-ae20-4b30-a93b-ec43a5e74e82","ios":"levelo://app?vid=36c99f2a-ae20-4b30-a93b-ec43a5e74e82"},"vehicle_type_id":"4","last_reported":1752761444,"current_range_meters":16800,"station_id":"ce4bh292rcd13ifvqdg0","pricing_plan_id":"cebpf4jnsgd1na2vs0mg"},{"bike_id":"78274e74-ab73-4fa7-b1a3-d1a684863996","system_id":"levelo_inurba_marseille","lat":43.225041,"lon":5.347796,"is_reserved":false,"is_disabled":false,"rental_uris":{"android":"levelo://app?vid=78274e74-ab73-4fa7-b1a3-d1a684863996","ios":"levelo://app?vid=78274e74-ab73-4fa7-b1a3-d1a684863996"},"vehicle_type_id":"4","last_reported":1752761444,"current_range_meters":16800,"station_id":"st_cvj5dfep6f1abm77gieg","pricing_plan_id":"cebpf4jnsgd1na2vs0mg"},{"bike_id":"beaf768d-8a14-4503-a527-4a484efc759b","system_id":"levelo_inurba_marseille","lat":43.21722,"lon":5.34615,"is_reserved":false,"is_disabled":false,"rental_uris":{"android":"levelo://app?vid=beaf768d-8a14-4503-a527-4a484efc759b","ios":"levelo://app?vid=beaf768d-8a14-4503-a527-4a484efc759b"},"vehicle_type_id":"4","last_reported":1752761444,"current_range_meters":17200,"station_id":"st_cvj6r9ubvosntc0bgbag","pricing_plan_id":"cebpf4jnsgd1na2vs0mg"},{"bike_id":"6a2a2eff-b41a-4bf9-8442-102de566cf7e","system_id":"levelo_inurba_marseille","lat":43.23969,"lon":5.36619,"is_reserved":false,"is_disabled":false,"rental_uris":{"android":"levelo://app?vid=6a2a2eff-b41a-4bf9-8442-102de566cf7e","ios":"levelo://app?vid=6a2a2eff-b41a-4bf9-8442-102de566cf7e"},"vehicle_type_id":"4","last_reported":1752761444,"current_range_meters":16800,"station_id":"ce4bhi12rcd13ifvqfp0","pricing_plan_id":"cebpf4jnsgd1na2vs0mg"},{"bike_id":"9bf51b37-6159-4c3d-aa2c-0f67a9dba9ac","system_id":"levelo_inurba_marseille","lat":43.30793,"lon":5.38152,"is_reserved":false,"is_disabled":false,"rental_uris":{"android":"levelo://app?vid=9bf51b37-6159-4c3d-aa2c-0f67a9dba9ac","ios":"levelo://app?vid=9bf51b37-6159-4c3d-aa2c-0f67a9dba9ac"},"vehicle_type_id":"4","last_reported":1752761444,"current_range_meters":17200,"station_id":"ce4bgt12rcd13ifvqce0","pricing_plan_id":"cebpf4jnsgd1na2vs0mg"},{"bike_id":"82361dee-a9b8-4b2d-ac79-a168ddf80f4e","system_id":"levelo_inurba_marseille","lat":43.29041,"lon":5.38622,"is_reserved":false,"is_disabled":false,"rental_uris":{"android":"levelo://app?vid=82361dee-a9b8-4b2d-ac79-a168ddf80f4e","ios":"levelo://app?vid=82361dee-a9b8-4b2d-ac79-a168ddf80f4e"},"vehicle_type_id":"4","last_reported":1752761444,"current_range_meters":16800,"station_id":"ce4bh4p2rcd13ifvqe0g","pricing_plan_id":"cebpf4jnsgd1na2vs0mg"},{"bike_id":"43c41d74-e827-4455-bdbc-da0b9f2a4518","system_id":"levelo_inurba_marseille","lat":43.21731,"lon":5.34611,"is_reserved":false,"is_disabled":false,"rental_uris":{"android":"levelo://app?vid=43c41d74-e827-4455-bdbc-da0b9f2a4518","ios":"levelo://app?vid=43c41d74-e827-4455-bdbc-da0b9f2a4518"},"vehicle_type_id":"4","last_reported":1752761444,"current_range_meters":17200,"station_id":"st_cvj6r9ubvosntc0bgbag","pricing_plan_id":"cebpf4jnsgd1na2vs0mg"},{"bike_id":"a07d2709-212a-469a-9e86-fe6624f858b0","system_id":"levelo_inurba_marseille","lat":43.21767,"lon":5.34609,"is_reserved":false,"is_disabled":false,"rental_uris":{"android":"levelo://app?vid=a07d2709-212a-469a-9e86-fe6624f858b0","ios":"levelo://app?vid=a07d2709-212a-469a-9e86-fe6624f858b0"},"vehicle_type_id":"4","last_reported":1752761444,"current_range_meters":17200,"station_id":"st_cvj6r9ubvosntc0bgbag","pricing_plan_id":"cebpf4jnsgd1na2vs0mg"},{"bike_id":"660d6db3-3d46-4bf1-a04a-db097cd3027d","system_id":"levelo_inurba_marseille","lat":43.28251,"lon":5.35077,"is_reserved":false,"is_disabled":false,"rental_uris":{"android":"levelo://app?vid=660d6db3-3d46-4bf1-a04a-db097cd3027d","ios":"levelo://app?vid=660d6db3-3d46-4bf1-a04a-db097cd3027d"},"vehicle_type_id":"4","last_reported":1752761444,"current_range_meters":17200,"station_id":"ce4bhbp2rcd13ifvqerg","pricing_plan_id":"cebpf4jnsgd1na2vs0mg"},{"bike_id":"e54582ed-ba92-4640-a97f-9e97144ce87f","system_id":"levelo_inurba_marseille","lat":43.32264,"lon":5.40658,"is_reserved":false,"is_disabled":false,"rental_uris":{"android":"levelo://app?vid=e54582ed-ba92-4640-a97f-9e97144ce87f","ios":"levelo://app?vid=e54582ed-ba92-4640-a97f-9e97144ce87f"},"vehicle_type_id":"4","last_reported":1752761444,"current_range_meters":17200,"station_id":"","pricing_plan_id":"cebpf4jnsgd1na2vs0mg"},{"bike_id":"19ad3498-cf12-46e7-82a8-66fa131ccc4c","system_id":"levelo_inurba_marseille","lat":43.32361,"lon":5.36753,"is_reserved":false,"is_disabled":false,"rental_uris":{"android":"levelo://app?vid=19ad3498-cf12-46e7-82a8-66fa131ccc4c","ios":"levelo://app?vid=19ad3498-cf12-46e7-82a8-66fa131ccc4c"},"vehicle_type_id":"4","last_reported":1752761444,"current_range_meters":17200,"station_id":"ce4bhsh2rcd13ifvqi2g","pricing_plan_id":"cebpf4jnsgd1na2vs0mg"},{"bike_id":"324c4ef1-e66f-4597-9e7b-bb337e77e9e9","system_id":"levelo_inurba_marseille","lat":43.26791,"lon":5.3942,"is_reserved":false,"is_disabled":false,"rental_uris":{"android":"levelo://app?vid=324c4ef1-e66f-4597-9e7b-bb337e77e9e9","ios":"levelo://app?vid=324c4ef1-e66f-4597-9e7b-bb337e77e9e9"},"vehicle_type_id":"4","last_reported":1752761444,"current_range_meters":16800,"station_id":"ce4bhh12rcd13ifvqfg0","pricing_plan_id":"cebpf4jnsgd1na2vs0mg"},{"bike_id":"74189f97-0c0f-4cd0-9a60-8e5cd29d7c75","system_id":"levelo_inurba_marseille","lat":43.2904,"lon":5.38113,"is_reserved":false,"is_disabled":false,"rental_uris":{"android":"levelo://app?vid=74189f97-0c0f-4cd0-9a60-8e5cd29d7c75","ios":"levelo://app?vid=74189f97-0c0f-4cd0-9a60-8e5cd29d7c75"},"vehicle_type_id":"4","last_reported":1752761444,"current_range_meters":17200,"station_id":"","pricing_plan_id":"cebpf4jnsgd1na2vs0mg"},{"bike_id":"6be86623-c65c-4a0d-b3a4-c58891bfa931","system_id":"levelo_inurba_marseille","lat":43.22503,"lon":5.34769,"is_reserved":false,"is_disabled":false,"rental_uris":{"android":"levelo://app?vid=6be86623-c65c-4a0d-b3a4-c58891bfa931","ios":"levelo://app?vid=6be86623-c65c-4a0d-b3a4-c58891bfa931"},"vehicle_type_id":"4","last_reported":1752761444,"current_range_meters":17600,"station_id":"st_cvj5dfep6f1abm77gieg","pricing_plan_id":"cebpf4jnsgd1na2vs0mg"},{"bike_id":"73beccd1-f184-4326-8064-c91f6505c977","system_id":"levelo_inurba_marseille","lat":43.33576,"lon":5.40993,"is_reserved":false,"is_disabled":false,"rental_uris":{"android":"levelo://app?vid=73beccd1-f184-4326-8064-c91f6505c977","ios":"levelo://app?vid=73beccd1-f184-4326-8064-c91f6505c977"},"vehicle_type_id":"4","last_reported":1752761444,"current_range_meters":17600,"station_id":"","pricing_plan_id":"cebpf4jnsgd1na2vs0mg"},{"bike_id":"715485f6-4125-4423-80fd-2024c0a54a34","system_id":"levelo_inurba_marseille","lat":43.2827,"lon":5.35064,"is_reserved":false,"is_disabled":false,"rental_uris":{"android":"levelo://app?vid=715485f6-4125-4423-80fd-2024c0a54a34","ios":"levelo://app?vid=715485f6-4125-4423-80fd-2024c0a54a34"},"vehicle_type_id":"4","last_reported":1752761444,"current_range_meters":17600,"station_id":"ce4bhbp2rcd13ifvqerg","pricing_plan_id":"cebpf4jnsgd1na2vs0mg"},{"bike_id":"ba841532-4a0b-4b85-af08-c9ce0c16b4e3","system_id":"levelo_inurba_marseille","lat":43.32655,"lon":5.4099,"is_reserved":false,"is_disabled":false,"rental_uris":{"android":"levelo://app?vid=ba841532-4a0b-4b85-af08-c9ce0c16b4e3","ios":"levelo://app?vid=ba841532-4a0b-4b85-af08-c9ce0c16b4e3"},"vehicle_type_id":"4","last_reported":1752761444,"current_range_meters":17600,"station_id":"ce4bhpp2rcd13ifvqhgg","pricing_plan_id":"cebpf4jnsgd1na2vs0mg"},{"bike_id":"10f85b4f-3c8c-4eda-9c73-dac21c1e7c22","system_id":"levelo_inurba_marseille","lat":43.32484,"lon":5.365864,"is_reserved":false,"is_disabled":false,"rental_uris":{"android":"levelo://app?vid=10f85b4f-3c8c-4eda-9c73-dac21c1e7c22","ios":"levelo://app?vid=10f85b4f-3c8c-4eda-9c73-dac21c1e7c22"},"vehicle_type_id":"4","last_reported":1752761444,"current_range_meters":17600,"station_id":"ce4bhs12rcd13ifvqhvg","pricing_plan_id":"cebpf4jnsgd1na2vs0mg"},{"bike_id":"ed822664-f978-4865-b4d3-8b7323601ddf","system_id":"levelo_inurba_marseille","lat":43.29783,"lon":5.39346,"is_reserved":false,"is_disabled":true,"rental_uris":{"android":"levelo://app?vid=ed822664-f978-4865-b4d3-8b7323601ddf","ios":"levelo://app?vid=ed822664-f978-4865-b4d3-8b7323601ddf"},"vehicle_type_id":"4","last_reported":1752761444,"current_range_meters":17600,"station_id":"chh1huq6cuj3fo74tm60","pricing_plan_id":"cebpf4jnsgd1na2vs0mg"},{"bike_id":"72712d78-f8ef-49ca-840d-42880d468206","system_id":"levelo_inurba_marseille","lat":43.302827,"lon":5.3692,"is_reserved":false,"is_disabled":false,"rental_uris":{"android":"levelo://app?vid=72712d78-f8ef-49ca-840d-42880d468206","ios":"levelo://app?vid=72712d78-f8ef-49ca-840d-42880d468206"},"vehicle_type_id":"4","last_reported":1752761444,"current_range_meters":17600,"station_id":"ce4bgqh2rcd13ifvqc5g","pricing_plan_id":"cebpf4jnsgd1na2vs0mg"},{"bike_id":"2f49c0bd-1fa3-4487-8922-9564c7b35ecb","system_id":"levelo_inurba_marseille","lat":43.27503,"lon":5.42453,"is_reserved":false,"is_disabled":false,"rental_uris":{"android":"levelo://app?vid=2f49c0bd-1fa3-4487-8922-9564c7b35ecb","ios":"levelo://app?vid=2f49c0bd-1fa3-4487-8922-9564c7b35ecb"},"vehicle_type_id":"4","last_reported":1752761444,"current_range_meters":17600,"station_id":"ce4bhn92rcd13ifvqgrg","pricing_plan_id":"cebpf4jnsgd1na2vs0mg"},{"bike_id":"d8b55396-0a3b-4c30-95c1-a87c7c7246d7","system_id":"levelo_inurba_marseille","lat":43.31491,"lon":5.37303,"is_reserved":false,"is_disabled":false,"rental_uris":{"android":"levelo://app?vid=d8b55396-0a3b-4c30-95c1-a87c7c7246d7","ios":"levelo://app?vid=d8b55396-0a3b-4c30-95c1-a87c7c7246d7"},"vehicle_type_id":"4","last_reported":1752761444,"current_range_meters":17600,"station_id":"ce4bgt12rcd13ifvqcd0","pricing_plan_id":"cebpf4jnsgd1na2vs0mg"},{"bike_id":"4c0580d4-f2e2-4c67-8250-a65c39c0f7d6","system_id":"levelo_inurba_marseille","lat":43.22499,"lon":5.34768,"is_reserved":false,"is_disabled":false,"rental_uris":{"android":"levelo://app?vid=4c0580d4-f2e2-4c67-8250-a65c39c0f7d6","ios":"levelo://app?vid=4c0580d4-f2e2-4c67-8250-a65c39c0f7d6"},"vehicle_type_id":"4","last_reported":1752761444,"current_range_meters":17600,"station_id":"st_cvj5dfep6f1abm77gieg","pricing_plan_id":"cebpf4jnsgd1na2vs0mg"},{"bike_id":"5b4e5f0f-cac3-450a-9463-e6a77e2c277e","system_id":"levelo_inurba_marseille","lat":43.246423,"lon":5.388921,"is_reserved":false,"is_disabled":true,"rental_uris":{"android":"levelo://app?vid=5b4e5f0f-cac3-450a-9463-e6a77e2c277e","ios":"levelo://app?vid=5b4e5f0f-cac3-450a-9463-e6a77e2c277e"},"vehicle_type_id":"4","last_reported":1752761444,"current_range_meters":17600,"station_id":"ce4bhg12rcd13ifvqf60","pricing_plan_id":"cebpf4jnsgd1na2vs0mg"},{"bike_id":"c2dba01e-7253-4f47-be7e-556b63c0e205","system_id":"levelo_inurba_marseille","lat":43.30264,"lon":5.37682,"is_reserved":false,"is_disabled":false,"rental_uris":{"android":"levelo://app?vid=c2dba01e-7253-4f47-be7e-556b63c0e205","ios":"levelo://app?vid=c2dba01e-7253-4f47-be7e-556b63c0e205"},"vehicle_type_id":"4","last_reported":1752761444,"current_range_meters":17600,"station_id":"ce4bguh2rcd13ifvqcj0","pricing_plan_id":"cebpf4jnsgd1na2vs0mg"},{"bike_id":"c6db0f6a-96fe-4e1d-8ded-c2ef38c9bab4","system_id":"levelo_inurba_marseille","lat":43.304183,"lon":5.412838,"is_reserved":false,"is_disabled":true,"rental_uris":{"android":"levelo://app?vid=c6db0f6a-96fe-4e1d-8ded-c2ef38c9bab4","ios":"levelo://app?vid=c6db0f6a-96fe-4e1d-8ded-c2ef38c9bab4"},"vehicle_type_id":"4","last_reported":1752761444,"current_range_meters":18000,"station_id":"ce4bhop2rcd13ifvqh8g","pricing_plan_id":"cebpf4jnsgd1na2vs0mg"},{"bike_id":"dc5f5a9e-bdfb-495e-902a-909f8687d937","system_id":"levelo_inurba_marseille","lat":43.29435,"lon":5.43343,"is_reserved":false,"is_disabled":false,"rental_uris":{"android":"levelo://app?vid=dc5f5a9e-bdfb-495e-902a-909f8687d937","ios":"levelo://app?vid=dc5f5a9e-bdfb-495e-902a-909f8687d937"},"vehicle_type_id":"4","last_reported":1752761444,"current_range_meters":18000,"station_id":"","pricing_plan_id":"cebpf4jnsgd1na2vs0mg"},{"bike_id":"080ee0f3-5635-4d04-b7b6-5c5d8d6224c0","system_id":"levelo_inurba_marseille","lat":43.23184,"lon":5.35557,"is_reserved":false,"is_disabled":false,"rental_uris":{"android":"levelo://app?vid=080ee0f3-5635-4d04-b7b6-5c5d8d6224c0","ios":"levelo://app?vid=080ee0f3-5635-4d04-b7b6-5c5d8d6224c0"},"vehicle_type_id":"4","last_reported":1752761444,"current_range_meters":18000,"station_id":"ce4bhu92rcd13ifvqi70","pricing_plan_id":"cebpf4jnsgd1na2vs0mg"},{"bike_id":"aa588c37-f712-4582-ba0c-20b04da8d8c8","system_id":"levelo_inurba_marseille","lat":43.28491,"lon":5.3841,"is_reserved":false,"is_disabled":false,"rental_uris":{"android":"levelo://app?vid=aa588c37-f712-4582-ba0c-20b04da8d8c8","ios":"levelo://app?vid=aa588c37-f712-4582-ba0c-20b04da8d8c8"},"vehicle_type_id":"4","last_reported":1752761444,"current_range_meters":18000,"station_id":"ce4bh512rcd13ifvqe3g","pricing_plan_id":"cebpf4jnsgd1na2vs0mg"},{"bike_id":"084eace8-045f-4012-9455-c501cad7ce10","system_id":"levelo_inurba_marseille","lat":43.225,"lon":5.34774,"is_reserved":false,"is_disabled":false,"rental_uris":{"android":"levelo://app?vid=084eace8-045f-4012-9455-c501cad7ce10","ios":"levelo://app?vid=084eace8-045f-4012-9455-c501cad7ce10"},"vehicle_type_id":"4","last_reported":1752761444,"current_range_meters":18000,"station_id":"st_cvj5dfep6f1abm77gieg","pricing_plan_id":"cebpf4jnsgd1na2vs0mg"},{"bike_id":"31695fe3-ba1a-451d-a7a2-e6e81aefdddc","system_id":"levelo_inurba_marseille","lat":43.28617,"lon":5.35105,"is_reserved":false,"is_disabled":true,"rental_uris":{"android":"levelo://app?vid=31695fe3-ba1a-451d-a7a2-e6e81aefdddc","ios":"levelo://app?vid=31695fe3-ba1a-451d-a7a2-e6e81aefdddc"},"vehicle_type_id":"4","last_reported":1752761444,"current_range_meters":18000,"station_id":"ce4bhch2rcd13ifvqeug","pricing_plan_id":"cebpf4jnsgd1na2vs0mg"},{"bike_id":"ea75efb2-ac36-4344-b925-58a5bd2f6327","system_id":"levelo_inurba_marseille","lat":43.271854,"lon":5.362776,"is_reserved":false,"is_disabled":false,"rental_uris":{"android":"levelo://app?vid=ea75efb2-ac36-4344-b925-58a5bd2f6327","ios":"levelo://app?vid=ea75efb2-ac36-4344-b925-58a5bd2f6327"},"vehicle_type_id":"4","last_reported":1752761444,"current_range_meters":18000,"station_id":"","pricing_plan_id":"cebpf4jnsgd1na2vs0mg"},{"bike_id":"d99ff2fe-54a6-4e1d-bef4-d02c8c2f8b9e","system_id":"levelo_inurba_marseille","lat":43.27546,"lon":5.38427,"is_reserved":false,"is_disabled":false,"rental_uris":{"android":"levelo://app?vid=d99ff2fe-54a6-4e1d-bef4-d02c8c2f8b9e","ios":"levelo://app?vid=d99ff2fe-54a6-4e1d-bef4-d02c8c2f8b9e"},"vehicle_type_id":"4","last_reported":1752761444,"current_range_meters":17600,"station_id":"ce4bhh92rcd13ifvqfi0","pricing_plan_id":"cebpf4jnsgd1na2vs0mg"},{"bike_id":"409515f8-3415-426d-b0c7-61f840c7c187","system_id":"levelo_inurba_marseille","lat":43.22503,"lon":5.34772,"is_reserved":false,"is_disabled":false,"rental_uris":{"android":"levelo://app?vid=409515f8-3415-426d-b0c7-61f840c7c187","ios":"levelo://app?vid=409515f8-3415-426d-b0c7-61f840c7c187"},"vehicle_type_id":"4","last_reported":1752761444,"current_range_meters":18000,"station_id":"st_cvj5dfep6f1abm77gieg","pricing_plan_id":"cebpf4jnsgd1na2vs0mg"},{"bike_id":"793d4ec3-9f7a-47ee-aee7-1db0c16e63c1","system_id":"levelo_inurba_marseille","lat":43.28263,"lon":5.35065,"is_reserved":false,"is_disabled":false,"rental_uris":{"android":"levelo://app?vid=793d4ec3-9f7a-47ee-aee7-1db0c16e63c1","ios":"levelo://app?vid=793d4ec3-9f7a-47ee-aee7-1db0c16e63c1"},"vehicle_type_id":"4","last_reported":1752761444,"current_range_meters":18000,"station_id":"ce4bhbp2rcd13ifvqerg","pricing_plan_id":"cebpf4jnsgd1na2vs0mg"},{"bike_id":"627d2d3b-237c-42fb-9bf6-0cf421eebeef","system_id":"levelo_inurba_marseille","lat":43.217318,"lon":5.34604,"is_reserved":false,"is_disabled":false,"rental_uris":{"android":"levelo://app?vid=627d2d3b-237c-42fb-9bf6-0cf421eebeef","ios":"levelo://app?vid=627d2d3b-237c-42fb-9bf6-0cf421eebeef"},"vehicle_type_id":"4","last_reported":1752761444,"current_range_meters":18800,"station_id":"st_cvj6r9ubvosntc0bgbag","pricing_plan_id":"cebpf4jnsgd1na2vs0mg"},{"bike_id":"f99ff1e4-4111-475a-aa3e-cb902d081040","system_id":"levelo_inurba_marseille","lat":43.23198,"lon":5.35549,"is_reserved":false,"is_disabled":false,"rental_uris":{"android":"levelo://app?vid=f99ff1e4-4111-475a-aa3e-cb902d081040","ios":"levelo://app?vid=f99ff1e4-4111-475a-aa3e-cb902d081040"},"vehicle_type_id":"4","last_reported":1752761444,"current_range_meters":18800,"station_id":"ce4bhu92rcd13ifvqi70","pricing_plan_id":"cebpf4jnsgd1na2vs0mg"},{"bike_id":"46f7a96c-ee13-4f0d-b4c2-99bd3d09b680","system_id":"levelo_inurba_marseille","lat":43.28259,"lon":5.35068,"is_reserved":false,"is_disabled":false,"rental_uris":{"android":"levelo://app?vid=46f7a96c-ee13-4f0d-b4c2-99bd3d09b680","ios":"levelo://app?vid=46f7a96c-ee13-4f0d-b4c2-99bd3d09b680"},"vehicle_type_id":"4","last_reported":1752761444,"current_range_meters":18800,"station_id":"ce4bhbp2rcd13ifvqerg","pricing_plan_id":"cebpf4jnsgd1na2vs0mg"},{"bike_id":"72790707-035c-4bca-b9bf-a8b4e9ad2919","system_id":"levelo_inurba_marseille","lat":43.23147,"lon":5.4372,"is_reserved":false,"is_disabled":false,"rental_uris":{"android":"levelo://app?vid=72790707-035c-4bca-b9bf-a8b4e9ad2919","ios":"levelo://app?vid=72790707-035c-4bca-b9bf-a8b4e9ad2919"},"vehicle_type_id":"4","last_reported":1752761444,"current_range_meters":18800,"station_id":"ce4bhmp2rcd13ifvqgog","pricing_plan_id":"cebpf4jnsgd1na2vs0mg"},{"bike_id":"ea8239c6-d099-42a9-b54c-af65493c715d","system_id":"levelo_inurba_marseille","lat":43.28419,"lon":5.34976,"is_reserved":false,"is_disabled":false,"rental_uris":{"android":"levelo://app?vid=ea8239c6-d099-42a9-b54c-af65493c715d","ios":"levelo://app?vid=ea8239c6-d099-42a9-b54c-af65493c715d"},"vehicle_type_id":"4","last_reported":1752761444,"current_range_meters":18800,"station_id":"ce4bhbh2rcd13ifvqepg","pricing_plan_id":"cebpf4jnsgd1na2vs0mg"},{"bike_id":"debfc020-8eea-40e1-9dc9-f47a17dff607","system_id":"levelo_inurba_marseille","lat":43.29004,"lon":5.35614,"is_reserved":false,"is_disabled":false,"rental_uris":{"android":"levelo://app?vid=debfc020-8eea-40e1-9dc9-f47a17dff607","ios":"levelo://app?vid=debfc020-8eea-40e1-9dc9-f47a17dff607"},"vehicle_type_id":"4","last_reported":1752761444,"current_range_meters":18800,"station_id":"ce4bhb92rcd13ifvqen0","pricing_plan_id":"cebpf4jnsgd1na2vs0mg"},{"bike_id":"4426515e-94c3-417f-9b06-252f2942bf88","system_id":"levelo_inurba_marseille","lat":43.26791,"lon":5.39408,"is_reserved":false,"is_disabled":false,"rental_uris":{"android":"levelo://app?vid=4426515e-94c3-417f-9b06-252f2942bf88","ios":"levelo://app?vid=4426515e-94c3-417f-9b06-252f2942bf88"},"vehicle_type_id":"4","last_reported":1752761444,"current_range_meters":18800,"station_id":"ce4bhh12rcd13ifvqfg0","pricing_plan_id":"cebpf4jnsgd1na2vs0mg"},{"bike_id":"ce40837d-3edf-4cc2-a747-2f8d4ee2c7fb","system_id":"levelo_inurba_marseille","lat":43.22486,"lon":5.3481,"is_reserved":false,"is_disabled":false,"rental_uris":{"android":"levelo://app?vid=ce40837d-3edf-4cc2-a747-2f8d4ee2c7fb","ios":"levelo://app?vid=ce40837d-3edf-4cc2-a747-2f8d4ee2c7fb"},"vehicle_type_id":"4","last_reported":1752761444,"current_range_meters":18800,"station_id":"st_cvj5dfep6f1abm77gieg","pricing_plan_id":"cebpf4jnsgd1na2vs0mg"},{"bike_id":"1fa6e47a-247c-43f3-a2d5-2457ee6c5d39","system_id":"levelo_inurba_marseille","lat":43.211913,"lon":5.350786,"is_reserved":false,"is_disabled":false,"rental_uris":{"android":"levelo://app?vid=1fa6e47a-247c-43f3-a2d5-2457ee6c5d39","ios":"levelo://app?vid=1fa6e47a-247c-43f3-a2d5-2457ee6c5d39"},"vehicle_type_id":"4","last_reported":1752761444,"current_range_meters":18800,"station_id":"st_cvj6sg6p6f1abm77japg","pricing_plan_id":"cebpf4jnsgd1na2vs0mg"},{"bike_id":"9e46aa88-7b19-47c3-b789-71b8902b53cb","system_id":"levelo_inurba_marseille","lat":43.281613,"lon":5.42661,"is_reserved":false,"is_disabled":false,"rental_uris":{"android":"levelo://app?vid=9e46aa88-7b19-47c3-b789-71b8902b53cb","ios":"levelo://app?vid=9e46aa88-7b19-47c3-b789-71b8902b53cb"},"vehicle_type_id":"4","last_reported":1752761444,"current_range_meters":18800,"station_id":"ce4bhnh2rcd13ifvqgug","pricing_plan_id":"cebpf4jnsgd1na2vs0mg"},{"bike_id":"66867a12-d88b-4820-bc2a-9a8726321e3c","system_id":"levelo_inurba_marseille","lat":43.295549,"lon":5.423009,"is_reserved":false,"is_disabled":false,"rental_uris":{"android":"levelo://app?vid=66867a12-d88b-4820-bc2a-9a8726321e3c","ios":"levelo://app?vid=66867a12-d88b-4820-bc2a-9a8726321e3c"},"vehicle_type_id":"4","last_reported":1752761444,"current_range_meters":18800,"station_id":"ce4bhph2rcd13ifvqhdg","pricing_plan_id":"cebpf4jnsgd1na2vs0mg"},{"bike_id":"2b4f500e-621a-49e9-98e0-204a2d3ef15f","system_id":"levelo_inurba_marseille","lat":43.25494,"lon":5.37648,"is_reserved":false,"is_disabled":false,"rental_uris":{"android":"levelo://app?vid=2b4f500e-621a-49e9-98e0-204a2d3ef15f","ios":"levelo://app?vid=2b4f500e-621a-49e9-98e0-204a2d3ef15f"},"vehicle_type_id":"4","last_reported":1752761444,"current_range_meters":19200,"station_id":"ce4bhh12rcd13ifvqff0","pricing_plan_id":"cebpf4jnsgd1na2vs0mg"},{"bike_id":"44b2f65b-6a83-48ed-961f-10474fc261eb","system_id":"levelo_inurba_marseille","lat":43.2786,"lon":5.40684,"is_reserved":false,"is_disabled":false,"rental_uris":{"android":"levelo://app?vid=44b2f65b-6a83-48ed-961f-10474fc261eb","ios":"levelo://app?vid=44b2f65b-6a83-48ed-961f-10474fc261eb"},"vehicle_type_id":"4","last_reported":1752761444,"current_range_meters":19200,"station_id":"ce4bhnh2rcd13ifvqgtg","pricing_plan_id":"cebpf4jnsgd1na2vs0mg"},{"bike_id":"eb4ea239-f528-479a-8b5c-313a80deb412","system_id":"levelo_inurba_marseille","lat":43.2606,"lon":5.39394,"is_reserved":false,"is_disabled":false,"rental_uris":{"android":"levelo://app?vid=eb4ea239-f528-479a-8b5c-313a80deb412","ios":"levelo://app?vid=eb4ea239-f528-479a-8b5c-313a80deb412"},"vehicle_type_id":"4","last_reported":1752761444,"current_range_meters":19200,"station_id":"","pricing_plan_id":"cebpf4jnsgd1na2vs0mg"},{"bike_id":"ac0ed4be-466c-4caa-b855-3c6bbe5a11b5","system_id":"levelo_inurba_marseille","lat":43.26755,"lon":5.37184,"is_reserved":false,"is_disabled":false,"rental_uris":{"android":"levelo://app?vid=ac0ed4be-466c-4caa-b855-3c6bbe5a11b5","ios":"levelo://app?vid=ac0ed4be-466c-4caa-b855-3c6bbe5a11b5"},"vehicle_type_id":"4","last_reported":1752761444,"current_range_meters":19200,"station_id":"","pricing_plan_id":"cebpf4jnsgd1na2vs0mg"},{"bike_id":"01c4cad4-ab83-4c6c-bb99-def54328b75f","system_id":"levelo_inurba_marseille","lat":43.28624,"lon":5.35091,"is_reserved":false,"is_disabled":false,"rental_uris":{"android":"levelo://app?vid=01c4cad4-ab83-4c6c-bb99-def54328b75f","ios":"levelo://app?vid=01c4cad4-ab83-4c6c-bb99-def54328b75f"},"vehicle_type_id":"4","last_reported":1752761444,"current_range_meters":19200,"station_id":"ce4bhch2rcd13ifvqeug","pricing_plan_id":"cebpf4jnsgd1na2vs0mg"},{"bike_id":"e63db760-60f2-4063-aa2b-9e0100a40135","system_id":"levelo_inurba_marseille","lat":43.30726,"lon":5.42455,"is_reserved":false,"is_disabled":false,"rental_uris":{"android":"levelo://app?vid=e63db760-60f2-4063-aa2b-9e0100a40135","ios":"levelo://app?vid=e63db760-60f2-4063-aa2b-9e0100a40135"},"vehicle_type_id":"4","last_reported":1752761444,"current_range_meters":19200,"station_id":"st_cvj6ca6bvosntc0bfgr0","pricing_plan_id":"cebpf4jnsgd1na2vs0mg"},{"bike_id":"8bd1463a-9344-40db-b0c8-a8d6a0c62efb","system_id":"levelo_inurba_marseille","lat":43.29164,"lon":5.3715,"is_reserved":false,"is_disabled":false,"rental_uris":{"android":"levelo://app?vid=8bd1463a-9344-40db-b0c8-a8d6a0c62efb","ios":"levelo://app?vid=8bd1463a-9344-40db-b0c8-a8d6a0c62efb"},"vehicle_type_id":"4","last_reported":1752761444,"current_range_meters":19200,"station_id":"ce4bha92rcd13ifvqeh0","pricing_plan_id":"cebpf4jnsgd1na2vs0mg"},{"bike_id":"ce7bd25b-5213-4881-a28b-f582e6a1d712","system_id":"levelo_inurba_marseille","lat":43.31349,"lon":5.36683,"is_reserved":false,"is_disabled":true,"rental_uris":{"android":"levelo://app?vid=ce7bd25b-5213-4881-a28b-f582e6a1d712","ios":"levelo://app?vid=ce7bd25b-5213-4881-a28b-f582e6a1d712"},"vehicle_type_id":"4","last_reported":1752761444,"current_range_meters":19200,"station_id":"ce4bgr92rcd13ifvqc6g","pricing_plan_id":"cebpf4jnsgd1na2vs0mg"},{"bike_id":"9597582c-88bf-4e54-b394-212a494e5387","system_id":"levelo_inurba_marseille","lat":43.30378,"lon":5.42486,"is_reserved":false,"is_disabled":false,"rental_uris":{"android":"levelo://app?vid=9597582c-88bf-4e54-b394-212a494e5387","ios":"levelo://app?vid=9597582c-88bf-4e54-b394-212a494e5387"},"vehicle_type_id":"4","last_reported":1752761444,"current_range_meters":19200,"station_id":"ce4bhoh2rcd13ifvqh6g","pricing_plan_id":"cebpf4jnsgd1na2vs0mg"},{"bike_id":"d8eb8f2f-df0a-4c63-af99-112cd7385b86","system_id":"levelo_inurba_marseille","lat":43.28624,"lon":5.35096,"is_reserved":false,"is_disabled":false,"rental_uris":{"android":"levelo://app?vid=d8eb8f2f-df0a-4c63-af99-112cd7385b86","ios":"levelo://app?vid=d8eb8f2f-df0a-4c63-af99-112cd7385b86"},"vehicle_type_id":"4","last_reported":1752761444,"current_range_meters":19200,"station_id":"ce4bhch2rcd13ifvqeug","pricing_plan_id":"cebpf4jnsgd1na2vs0mg"},{"bike_id":"57673fd9-e9a8-4292-9f48-49558084ac5a","system_id":"levelo_inurba_marseille","lat":43.30557,"lon":5.36543,"is_reserved":false,"is_disabled":false,"rental_uris":{"android":"levelo://app?vid=57673fd9-e9a8-4292-9f48-49558084ac5a","ios":"levelo://app?vid=57673fd9-e9a8-4292-9f48-49558084ac5a"},"vehicle_type_id":"4","last_reported":1752761444,"current_range_meters":19200,"station_id":"ce4bgs12rcd13ifvqcag","pricing_plan_id":"cebpf4jnsgd1na2vs0mg"},{"bike_id":"c83e5866-3057-41c7-b1dc-bfd42f8bcd2a","system_id":"levelo_inurba_marseille","lat":43.231425,"lon":5.437136,"is_reserved":false,"is_disabled":false,"rental_uris":{"android":"levelo://app?vid=c83e5866-3057-41c7-b1dc-bfd42f8bcd2a","ios":"levelo://app?vid=c83e5866-3057-41c7-b1dc-bfd42f8bcd2a"},"vehicle_type_id":"4","last_reported":1752761444,"current_range_meters":19600,"station_id":"ce4bhmp2rcd13ifvqgog","pricing_plan_id":"cebpf4jnsgd1na2vs0mg"},{"bike_id":"23a2298e-9350-4cf3-824c-07445f5bec48","system_id":"levelo_inurba_marseille","lat":43.28488,"lon":5.38571,"is_reserved":false,"is_disabled":false,"rental_uris":{"android":"levelo://app?vid=23a2298e-9350-4cf3-824c-07445f5bec48","ios":"levelo://app?vid=23a2298e-9350-4cf3-824c-07445f5bec48"},"vehicle_type_id":"4","last_reported":1752761444,"current_range_meters":19600,"station_id":"ce4bh8p2rcd13ifvqeb0","pricing_plan_id":"cebpf4jnsgd1na2vs0mg"},{"bike_id":"af445d04-545e-4008-bf6d-71b2068dfacf","system_id":"levelo_inurba_marseille","lat":43.29896,"lon":5.43654,"is_reserved":false,"is_disabled":false,"rental_uris":{"android":"levelo://app?vid=af445d04-545e-4008-bf6d-71b2068dfacf","ios":"levelo://app?vid=af445d04-545e-4008-bf6d-71b2068dfacf"},"vehicle_type_id":"4","last_reported":1752761444,"current_range_meters":19600,"station_id":"ce4bhpp2rcd13ifvqhfg","pricing_plan_id":"cebpf4jnsgd1na2vs0mg"},{"bike_id":"bac54617-0d38-48e0-9ce0-fb91ac7c437e","system_id":"levelo_inurba_marseille","lat":43.305526,"lon":5.3656,"is_reserved":false,"is_disabled":false,"rental_uris":{"android":"levelo://app?vid=bac54617-0d38-48e0-9ce0-fb91ac7c437e","ios":"levelo://app?vid=bac54617-0d38-48e0-9ce0-fb91ac7c437e"},"vehicle_type_id":"4","last_reported":1752761444,"current_range_meters":19600,"station_id":"ce4bgs12rcd13ifvqcag","pricing_plan_id":"cebpf4jnsgd1na2vs0mg"},{"bike_id":"9e599d24-8bd8-4636-ad57-522e6529d764","system_id":"levelo_inurba_marseille","lat":43.28429,"lon":5.34994,"is_reserved":false,"is_disabled":false,"rental_uris":{"android":"levelo://app?vid=9e599d24-8bd8-4636-ad57-522e6529d764","ios":"levelo://app?vid=9e599d24-8bd8-4636-ad57-522e6529d764"},"vehicle_type_id":"4","last_reported":1752761444,"current_range_meters":19600,"station_id":"ce4bhbh2rcd13ifvqepg","pricing_plan_id":"cebpf4jnsgd1na2vs0mg"},{"bike_id":"6a737cae-81af-4cea-a9c2-583961550529","system_id":"levelo_inurba_marseille","lat":43.23194,"lon":5.35547,"is_reserved":false,"is_disabled":false,"rental_uris":{"android":"levelo://app?vid=6a737cae-81af-4cea-a9c2-583961550529","ios":"levelo://app?vid=6a737cae-81af-4cea-a9c2-583961550529"},"vehicle_type_id":"4","last_reported":1752761444,"current_range_meters":19600,"station_id":"ce4bhu92rcd13ifvqi70","pricing_plan_id":"cebpf4jnsgd1na2vs0mg"},{"bike_id":"a67156ae-789e-45f5-ab3f-ed7d95b24540","system_id":"levelo_inurba_marseille","lat":43.211904,"lon":5.350726,"is_reserved":false,"is_disabled":false,"rental_uris":{"android":"levelo://app?vid=a67156ae-789e-45f5-ab3f-ed7d95b24540","ios":"levelo://app?vid=a67156ae-789e-45f5-ab3f-ed7d95b24540"},"vehicle_type_id":"4","last_reported":1752761444,"current_range_meters":19600,"station_id":"st_cvj6sg6p6f1abm77japg","pricing_plan_id":"cebpf4jnsgd1na2vs0mg"},{"bike_id":"cfb52d04-9134-4c86-8269-771716b20f27","system_id":"levelo_inurba_marseille","lat":43.21192,"lon":5.35076,"is_reserved":false,"is_disabled":false,"rental_uris":{"android":"levelo://app?vid=cfb52d04-9134-4c86-8269-771716b20f27","ios":"levelo://app?vid=cfb52d04-9134-4c86-8269-771716b20f27"},"vehicle_type_id":"4","last_reported":1752761444,"current_range_meters":19600,"station_id":"st_cvj6sg6p6f1abm77japg","pricing_plan_id":"cebpf4jnsgd1na2vs0mg"},{"bike_id":"03c4e37a-9d44-4a60-b09e-c2fe99e2bf34","system_id":"levelo_inurba_marseille","lat":43.22945,"lon":5.35358,"is_reserved":false,"is_disabled":false,"rental_uris":{"android":"levelo://app?vid=03c4e37a-9d44-4a60-b09e-c2fe99e2bf34","ios":"levelo://app?vid=03c4e37a-9d44-4a60-b09e-c2fe99e2bf34"},"vehicle_type_id":"4","last_reported":1752761444,"current_range_meters":19600,"station_id":"cpo3532slgdg3j2ikp40","pricing_plan_id":"cebpf4jnsgd1na2vs0mg"},{"bike_id":"5ac93e7c-286a-4c1e-b6c0-4e9963e5a9f8","system_id":"levelo_inurba_marseille","lat":43.21193,"lon":5.3507,"is_reserved":false,"is_disabled":false,"rental_uris":{"android":"levelo://app?vid=5ac93e7c-286a-4c1e-b6c0-4e9963e5a9f8","ios":"levelo://app?vid=5ac93e7c-286a-4c1e-b6c0-4e9963e5a9f8"},"vehicle_type_id":"4","last_reported":1752761444,"current_range_meters":19600,"station_id":"st_cvj6sg6p6f1abm77japg","pricing_plan_id":"cebpf4jnsgd1na2vs0mg"},{"bike_id":"22fb51ee-bb9d-4dbd-b43f-ad433c3ad4de","system_id":"levelo_inurba_marseille","lat":43.29009,"lon":5.35601,"is_reserved":false,"is_disabled":false,"rental_uris":{"android":"levelo://app?vid=22fb51ee-bb9d-4dbd-b43f-ad433c3ad4de","ios":"levelo://app?vid=22fb51ee-bb9d-4dbd-b43f-ad433c3ad4de"},"vehicle_type_id":"4","last_reported":1752761444,"current_range_meters":20000,"station_id":"ce4bhb92rcd13ifvqen0","pricing_plan_id":"cebpf4jnsgd1na2vs0mg"},{"bike_id":"7458c479-e754-4c46-8935-3d8a7d5394e5","system_id":"levelo_inurba_marseille","lat":43.26675,"lon":5.38266,"is_reserved":false,"is_disabled":false,"rental_uris":{"android":"levelo://app?vid=7458c479-e754-4c46-8935-3d8a7d5394e5","ios":"levelo://app?vid=7458c479-e754-4c46-8935-3d8a7d5394e5"},"vehicle_type_id":"4","last_reported":1752761444,"current_range_meters":20000,"station_id":"ce4bhg92rcd13ifvqf90","pricing_plan_id":"cebpf4jnsgd1na2vs0mg"},{"bike_id":"eb5e954c-b3bf-48c3-aa20-b166f84e680c","system_id":"levelo_inurba_marseille","lat":43.28423,"lon":5.34995,"is_reserved":false,"is_disabled":false,"rental_uris":{"android":"levelo://app?vid=eb5e954c-b3bf-48c3-aa20-b166f84e680c","ios":"levelo://app?vid=eb5e954c-b3bf-48c3-aa20-b166f84e680c"},"vehicle_type_id":"4","last_reported":1752761444,"current_range_meters":20000,"station_id":"ce4bhbh2rcd13ifvqepg","pricing_plan_id":"cebpf4jnsgd1na2vs0mg"},{"bike_id":"11f8bac9-cf42-45fc-afe4-bc93c656499e","system_id":"levelo_inurba_marseille","lat":43.26548,"lon":5.37294,"is_reserved":false,"is_disabled":false,"rental_uris":{"android":"levelo://app?vid=11f8bac9-cf42-45fc-afe4-bc93c656499e","ios":"levelo://app?vid=11f8bac9-cf42-45fc-afe4-bc93c656499e"},"vehicle_type_id":"4","last_reported":1752761444,"current_range_meters":20000,"station_id":"ce4bhg12rcd13ifvqf70","pricing_plan_id":"cebpf4jnsgd1na2vs0mg"},{"bike_id":"39156484-d3df-4ce6-9da5-beeab1f9c214","system_id":"levelo_inurba_marseille","lat":43.2171,"lon":5.34607,"is_reserved":false,"is_disabled":false,"rental_uris":{"android":"levelo://app?vid=39156484-d3df-4ce6-9da5-beeab1f9c214","ios":"levelo://app?vid=39156484-d3df-4ce6-9da5-beeab1f9c214"},"vehicle_type_id":"4","last_reported":1752761444,"current_range_meters":20000,"station_id":"st_cvj6r9ubvosntc0bgbag","pricing_plan_id":"cebpf4jnsgd1na2vs0mg"},{"bike_id":"2d95b47d-d06f-40a4-bb6e-c13e954e3c8f","system_id":"levelo_inurba_marseille","lat":43.27719,"lon":5.41416,"is_reserved":false,"is_disabled":false,"rental_uris":{"android":"levelo://app?vid=2d95b47d-d06f-40a4-bb6e-c13e954e3c8f","ios":"levelo://app?vid=2d95b47d-d06f-40a4-bb6e-c13e954e3c8f"},"vehicle_type_id":"4","last_reported":1752761444,"current_range_meters":20000,"station_id":"","pricing_plan_id":"cebpf4jnsgd1na2vs0mg"},{"bike_id":"7dca47e4-1ca9-4398-ac67-2b486981bf98","system_id":"levelo_inurba_marseille","lat":43.26569,"lon":5.39001,"is_reserved":false,"is_disabled":false,"rental_uris":{"android":"levelo://app?vid=7dca47e4-1ca9-4398-ac67-2b486981bf98","ios":"levelo://app?vid=7dca47e4-1ca9-4398-ac67-2b486981bf98"},"vehicle_type_id":"4","last_reported":1752761444,"current_range_meters":20000,"station_id":"ce4bhe12rcd13ifvqf30","pricing_plan_id":"cebpf4jnsgd1na2vs0mg"},{"bike_id":"7d76d4d1-7a05-450a-a653-7ead3da5fd2d","system_id":"levelo_inurba_marseille","lat":43.29954,"lon":5.37151,"is_reserved":false,"is_disabled":false,"rental_uris":{"android":"levelo://app?vid=7d76d4d1-7a05-450a-a653-7ead3da5fd2d","ios":"levelo://app?vid=7d76d4d1-7a05-450a-a653-7ead3da5fd2d"},"vehicle_type_id":"4","last_reported":1752761444,"current_range_meters":19600,"station_id":"ce4bgr92rcd13ifvqc7g","pricing_plan_id":"cebpf4jnsgd1na2vs0mg"},{"bike_id":"c120b10e-3c54-499a-96f4-fb08d196aabd","system_id":"levelo_inurba_marseille","lat":43.260266,"lon":5.375489,"is_reserved":false,"is_disabled":false,"rental_uris":{"android":"levelo://app?vid=c120b10e-3c54-499a-96f4-fb08d196aabd","ios":"levelo://app?vid=c120b10e-3c54-499a-96f4-fb08d196aabd"},"vehicle_type_id":"4","last_reported":1752761444,"current_range_meters":20000,"station_id":"ce4bh112rcd13ifvqda0","pricing_plan_id":"cebpf4jnsgd1na2vs0mg"},{"bike_id":"8ce9b80c-19c6-4985-81c6-50f285c26740","system_id":"levelo_inurba_marseille","lat":43.23959,"lon":5.36627,"is_reserved":false,"is_disabled":false,"rental_uris":{"android":"levelo://app?vid=8ce9b80c-19c6-4985-81c6-50f285c26740","ios":"levelo://app?vid=8ce9b80c-19c6-4985-81c6-50f285c26740"},"vehicle_type_id":"4","last_reported":1752761444,"current_range_meters":20000,"station_id":"ce4bhi12rcd13ifvqfp0","pricing_plan_id":"cebpf4jnsgd1na2vs0mg"},{"bike_id":"3e841188-9914-4290-abd4-b2dc37de991c","system_id":"levelo_inurba_marseille","lat":43.2927,"lon":5.40136,"is_reserved":false,"is_disabled":false,"rental_uris":{"android":"levelo://app?vid=3e841188-9914-4290-abd4-b2dc37de991c","ios":"levelo://app?vid=3e841188-9914-4290-abd4-b2dc37de991c"},"vehicle_type_id":"4","last_reported":1752761444,"current_range_meters":19600,"station_id":"ce4bh312rcd13ifvqdk0","pricing_plan_id":"cebpf4jnsgd1na2vs0mg"},{"bike_id":"db42604b-c15c-49d3-b62c-7cc2ce8e29c6","system_id":"levelo_inurba_marseille","lat":43.2119,"lon":5.35069,"is_reserved":false,"is_disabled":false,"rental_uris":{"android":"levelo://app?vid=db42604b-c15c-49d3-b62c-7cc2ce8e29c6","ios":"levelo://app?vid=db42604b-c15c-49d3-b62c-7cc2ce8e29c6"},"vehicle_type_id":"4","last_reported":1752761444,"current_range_meters":20000,"station_id":"st_cvj6sg6p6f1abm77japg","pricing_plan_id":"cebpf4jnsgd1na2vs0mg"},{"bike_id":"db7bad39-17ec-4f0b-95ae-0ccbb39420e1","system_id":"levelo_inurba_marseille","lat":43.2251,"lon":5.34793,"is_reserved":false,"is_disabled":false,"rental_uris":{"android":"levelo://app?vid=db7bad39-17ec-4f0b-95ae-0ccbb39420e1","ios":"levelo://app?vid=db7bad39-17ec-4f0b-95ae-0ccbb39420e1"},"vehicle_type_id":"4","last_reported":1752761444,"current_range_meters":20000,"station_id":"st_cvj5dfep6f1abm77gieg","pricing_plan_id":"cebpf4jnsgd1na2vs0mg"},{"bike_id":"d6d17411-0526-45dc-841f-3cde305afeae","system_id":"levelo_inurba_marseille","lat":43.21739,"lon":5.34614,"is_reserved":false,"is_disabled":false,"rental_uris":{"android":"levelo://app?vid=d6d17411-0526-45dc-841f-3cde305afeae","ios":"levelo://app?vid=d6d17411-0526-45dc-841f-3cde305afeae"},"vehicle_type_id":"4","last_reported":1752761444,"current_range_meters":20000,"station_id":"st_cvj6r9ubvosntc0bgbag","pricing_plan_id":"cebpf4jnsgd1na2vs0mg"},{"bike_id":"edd0079d-996b-4ae3-9a31-d781f3a059ec","system_id":"levelo_inurba_marseille","lat":43.33786,"lon":5.37426,"is_reserved":false,"is_disabled":false,"rental_uris":{"android":"levelo://app?vid=edd0079d-996b-4ae3-9a31-d781f3a059ec","ios":"levelo://app?vid=edd0079d-996b-4ae3-9a31-d781f3a059ec"},"vehicle_type_id":"4","last_reported":1752761444,"current_range_meters":20000,"station_id":"","pricing_plan_id":"cebpf4jnsgd1na2vs0mg"},{"bike_id":"734423fd-3999-4f31-85ef-66c24e824834","system_id":"levelo_inurba_marseille","lat":43.29008,"lon":5.35613,"is_reserved":false,"is_disabled":false,"rental_uris":{"android":"levelo://app?vid=734423fd-3999-4f31-85ef-66c24e824834","ios":"levelo://app?vid=734423fd-3999-4f31-85ef-66c24e824834"},"vehicle_type_id":"4","last_reported":1752761444,"current_range_meters":20000,"station_id":"ce4bhb92rcd13ifvqen0","pricing_plan_id":"cebpf4jnsgd1na2vs0mg"},{"bike_id":"9e7bd4c8-c6d4-4892-8738-e35c92d3a2d5","system_id":"levelo_inurba_marseille","lat":43.28633,"lon":5.35082,"is_reserved":false,"is_disabled":false,"rental_uris":{"android":"levelo://app?vid=9e7bd4c8-c6d4-4892-8738-e35c92d3a2d5","ios":"levelo://app?vid=9e7bd4c8-c6d4-4892-8738-e35c92d3a2d5"},"vehicle_type_id":"4","last_reported":1752761444,"current_range_meters":20400,"station_id":"ce4bhch2rcd13ifvqeug","pricing_plan_id":"cebpf4jnsgd1na2vs0mg"},{"bike_id":"ff025aeb-288a-41f4-af92-26dbddf28a07","system_id":"levelo_inurba_marseille","lat":43.28264,"lon":5.35092,"is_reserved":false,"is_disabled":false,"rental_uris":{"android":"levelo://app?vid=ff025aeb-288a-41f4-af92-26dbddf28a07","ios":"levelo://app?vid=ff025aeb-288a-41f4-af92-26dbddf28a07"},"vehicle_type_id":"4","last_reported":1752761444,"current_range_meters":20400,"station_id":"ce4bhbp2rcd13ifvqerg","pricing_plan_id":"cebpf4jnsgd1na2vs0mg"},{"bike_id":"98796bfc-f10c-44f8-a5aa-8a51dd096a85","system_id":"levelo_inurba_marseille","lat":43.28533,"lon":5.34853,"is_reserved":false,"is_disabled":false,"rental_uris":{"android":"levelo://app?vid=98796bfc-f10c-44f8-a5aa-8a51dd096a85","ios":"levelo://app?vid=98796bfc-f10c-44f8-a5aa-8a51dd096a85"},"vehicle_type_id":"4","last_reported":1752761444,"current_range_meters":20400,"station_id":"","pricing_plan_id":"cebpf4jnsgd1na2vs0mg"},{"bike_id":"58cb234b-86ec-4b63-99db-717c732d6291","system_id":"levelo_inurba_marseille","lat":43.31233,"lon":5.36871,"is_reserved":false,"is_disabled":false,"rental_uris":{"android":"levelo://app?vid=58cb234b-86ec-4b63-99db-717c732d6291","ios":"levelo://app?vid=58cb234b-86ec-4b63-99db-717c732d6291"},"vehicle_type_id":"4","last_reported":1752761444,"current_range_meters":20400,"station_id":"ce4bgl92rcd13ifvqbq0","pricing_plan_id":"cebpf4jnsgd1na2vs0mg"},{"bike_id":"c8630112-2204-471e-93dc-0115496604da","system_id":"levelo_inurba_marseille","lat":43.31322,"lon":5.39691,"is_reserved":false,"is_disabled":false,"rental_uris":{"android":"levelo://app?vid=c8630112-2204-471e-93dc-0115496604da","ios":"levelo://app?vid=c8630112-2204-471e-93dc-0115496604da"},"vehicle_type_id":"4","last_reported":1752761444,"current_range_meters":20400,"station_id":"ce4bgvp2rcd13ifvqcu0","pricing_plan_id":"cebpf4jnsgd1na2vs0mg"},{"bike_id":"4aa575b6-a204-4fdb-acf3-66934cd34b50","system_id":"levelo_inurba_marseille","lat":43.32501,"lon":5.36556,"is_reserved":false,"is_disabled":false,"rental_uris":{"android":"levelo://app?vid=4aa575b6-a204-4fdb-acf3-66934cd34b50","ios":"levelo://app?vid=4aa575b6-a204-4fdb-acf3-66934cd34b50"},"vehicle_type_id":"4","last_reported":1752761444,"current_range_meters":20400,"station_id":"ce4bhs12rcd13ifvqhvg","pricing_plan_id":"cebpf4jnsgd1na2vs0mg"},{"bike_id":"a675df32-16e1-46de-af30-d0726fd89292","system_id":"levelo_inurba_marseille","lat":43.243877,"lon":5.370636,"is_reserved":false,"is_disabled":false,"rental_uris":{"android":"levelo://app?vid=a675df32-16e1-46de-af30-d0726fd89292","ios":"levelo://app?vid=a675df32-16e1-46de-af30-d0726fd89292"},"vehicle_type_id":"4","last_reported":1752761444,"current_range_meters":20400,"station_id":"ce4bhhh2rcd13ifvqfk0","pricing_plan_id":"cebpf4jnsgd1na2vs0mg"},{"bike_id":"db155edd-2fa6-40c3-811a-f8218e95f9c7","system_id":"levelo_inurba_marseille","lat":43.28155,"lon":5.42633,"is_reserved":false,"is_disabled":false,"rental_uris":{"android":"levelo://app?vid=db155edd-2fa6-40c3-811a-f8218e95f9c7","ios":"levelo://app?vid=db155edd-2fa6-40c3-811a-f8218e95f9c7"},"vehicle_type_id":"4","last_reported":1752761444,"current_range_meters":20400,"station_id":"ce4bhnh2rcd13ifvqgug","pricing_plan_id":"cebpf4jnsgd1na2vs0mg"},{"bike_id":"ffa2ee83-2cef-4aab-92df-68c776cd54ff","system_id":"levelo_inurba_marseille","lat":43.23966,"lon":5.36632,"is_reserved":false,"is_disabled":false,"rental_uris":{"android":"levelo://app?vid=ffa2ee83-2cef-4aab-92df-68c776cd54ff","ios":"levelo://app?vid=ffa2ee83-2cef-4aab-92df-68c776cd54ff"},"vehicle_type_id":"4","last_reported":1752761444,"current_range_meters":20400,"station_id":"ce4bhi12rcd13ifvqfp0","pricing_plan_id":"cebpf4jnsgd1na2vs0mg"},{"bike_id":"7d11b2f6-67d9-4d1a-8f35-4103f3161280","system_id":"levelo_inurba_marseille","lat":43.21222,"lon":5.35085,"is_reserved":false,"is_disabled":false,"rental_uris":{"android":"levelo://app?vid=7d11b2f6-67d9-4d1a-8f35-4103f3161280","ios":"levelo://app?vid=7d11b2f6-67d9-4d1a-8f35-4103f3161280"},"vehicle_type_id":"4","last_reported":1752761444,"current_range_meters":20800,"station_id":"st_cvj6sg6p6f1abm77japg","pricing_plan_id":"cebpf4jnsgd1na2vs0mg"},{"bike_id":"1d9bf584-41ef-4bf3-aa4f-c2cce8d3727b","system_id":"levelo_inurba_marseille","lat":43.22521,"lon":5.3478,"is_reserved":false,"is_disabled":true,"rental_uris":{"android":"levelo://app?vid=1d9bf584-41ef-4bf3-aa4f-c2cce8d3727b","ios":"levelo://app?vid=1d9bf584-41ef-4bf3-aa4f-c2cce8d3727b"},"vehicle_type_id":"4","last_reported":1752761444,"current_range_meters":20800,"station_id":"st_cvj5dfep6f1abm77gieg","pricing_plan_id":"cebpf4jnsgd1na2vs0mg"},{"bike_id":"1a0099e3-6328-47f5-9a16-f27f6b3dadc2","system_id":"levelo_inurba_marseille","lat":43.290368,"lon":5.386452,"is_reserved":false,"is_disabled":false,"rental_uris":{"android":"levelo://app?vid=1a0099e3-6328-47f5-9a16-f27f6b3dadc2","ios":"levelo://app?vid=1a0099e3-6328-47f5-9a16-f27f6b3dadc2"},"vehicle_type_id":"4","last_reported":1752761444,"current_range_meters":20400,"station_id":"ce4bh4p2rcd13ifvqe0g","pricing_plan_id":"cebpf4jnsgd1na2vs0mg"},{"bike_id":"5f609dac-09f6-4f7d-905f-6338275679f0","system_id":"levelo_inurba_marseille","lat":43.30374,"lon":5.4248,"is_reserved":false,"is_disabled":false,"rental_uris":{"android":"levelo://app?vid=5f609dac-09f6-4f7d-905f-6338275679f0","ios":"levelo://app?vid=5f609dac-09f6-4f7d-905f-6338275679f0"},"vehicle_type_id":"4","last_reported":1752761444,"current_range_meters":20800,"station_id":"ce4bhoh2rcd13ifvqh6g","pricing_plan_id":"cebpf4jnsgd1na2vs0mg"},{"bike_id":"b9354840-2204-42f6-a2ce-76c0ad8aa4f1","system_id":"levelo_inurba_marseille","lat":43.28272,"lon":5.35062,"is_reserved":false,"is_disabled":false,"rental_uris":{"android":"levelo://app?vid=b9354840-2204-42f6-a2ce-76c0ad8aa4f1","ios":"levelo://app?vid=b9354840-2204-42f6-a2ce-76c0ad8aa4f1"},"vehicle_type_id":"4","last_reported":1752761444,"current_range_meters":20800,"station_id":"ce4bhbp2rcd13ifvqerg","pricing_plan_id":"cebpf4jnsgd1na2vs0mg"},{"bike_id":"c4505469-0f36-4262-8ebb-1522d5b3e8fb","system_id":"levelo_inurba_marseille","lat":43.2119,"lon":5.35066,"is_reserved":false,"is_disabled":false,"rental_uris":{"android":"levelo://app?vid=c4505469-0f36-4262-8ebb-1522d5b3e8fb","ios":"levelo://app?vid=c4505469-0f36-4262-8ebb-1522d5b3e8fb"},"vehicle_type_id":"4","last_reported":1752761444,"current_range_meters":20800,"station_id":"st_cvj6sg6p6f1abm77japg","pricing_plan_id":"cebpf4jnsgd1na2vs0mg"},{"bike_id":"984bb35a-606c-4f64-b428-1b09677bfdd2","system_id":"levelo_inurba_marseille","lat":43.26028,"lon":5.37546,"is_reserved":false,"is_disabled":false,"rental_uris":{"android":"levelo://app?vid=984bb35a-606c-4f64-b428-1b09677bfdd2","ios":"levelo://app?vid=984bb35a-606c-4f64-b428-1b09677bfdd2"},"vehicle_type_id":"4","last_reported":1752761444,"current_range_meters":20800,"station_id":"ce4bhgh2rcd13ifvqfa0","pricing_plan_id":"cebpf4jnsgd1na2vs0mg"},{"bike_id":"20abd928-fdbc-49de-92d4-3be0957db393","system_id":"levelo_inurba_marseille","lat":43.31331,"lon":5.39697,"is_reserved":false,"is_disabled":false,"rental_uris":{"android":"levelo://app?vid=20abd928-fdbc-49de-92d4-3be0957db393","ios":"levelo://app?vid=20abd928-fdbc-49de-92d4-3be0957db393"},"vehicle_type_id":"4","last_reported":1752761444,"current_range_meters":20800,"station_id":"ce4bgvp2rcd13ifvqcu0","pricing_plan_id":"cebpf4jnsgd1na2vs0mg"},{"bike_id":"b7fe52dd-f025-4212-9e78-19e7f6f09593","system_id":"levelo_inurba_marseille","lat":43.211942,"lon":5.350774,"is_reserved":false,"is_disabled":false,"rental_uris":{"android":"levelo://app?vid=b7fe52dd-f025-4212-9e78-19e7f6f09593","ios":"levelo://app?vid=b7fe52dd-f025-4212-9e78-19e7f6f09593"},"vehicle_type_id":"4","last_reported":1752761444,"current_range_meters":20800,"station_id":"st_cvj6sg6p6f1abm77japg","pricing_plan_id":"cebpf4jnsgd1na2vs0mg"},{"bike_id":"903d9bc8-2cf7-45f3-8641-7f41ca11b200","system_id":"levelo_inurba_marseille","lat":43.23058,"lon":5.35494,"is_reserved":false,"is_disabled":false,"rental_uris":{"android":"levelo://app?vid=903d9bc8-2cf7-45f3-8641-7f41ca11b200","ios":"levelo://app?vid=903d9bc8-2cf7-45f3-8641-7f41ca11b200"},"vehicle_type_id":"4","last_reported":1752761444,"current_range_meters":20400,"station_id":"cpo3342slgdg3j2ifvpg","pricing_plan_id":"cebpf4jnsgd1na2vs0mg"},{"bike_id":"9adcead1-8060-4cf9-abb2-a9d88e8182fb","system_id":"levelo_inurba_marseille","lat":43.29294,"lon":5.37424,"is_reserved":false,"is_disabled":false,"rental_uris":{"android":"levelo://app?vid=9adcead1-8060-4cf9-abb2-a9d88e8182fb","ios":"levelo://app?vid=9adcead1-8060-4cf9-abb2-a9d88e8182fb"},"vehicle_type_id":"4","last_reported":1752761444,"current_range_meters":21600,"station_id":"ce4bgi12rcd13ifvqb70","pricing_plan_id":"cebpf4jnsgd1na2vs0mg"},{"bike_id":"50c911ae-f1ca-45ee-9ed7-9a227c3a6fc5","system_id":"levelo_inurba_marseille","lat":43.31958,"lon":5.38074,"is_reserved":false,"is_disabled":false,"rental_uris":{"android":"levelo://app?vid=50c911ae-f1ca-45ee-9ed7-9a227c3a6fc5","ios":"levelo://app?vid=50c911ae-f1ca-45ee-9ed7-9a227c3a6fc5"},"vehicle_type_id":"4","last_reported":1752761444,"current_range_meters":21600,"station_id":"","pricing_plan_id":"cebpf4jnsgd1na2vs0mg"},{"bike_id":"c3292ee5-3cea-419c-b14b-5ce21026c206","system_id":"levelo_inurba_marseille","lat":43.25859,"lon":5.40975,"is_reserved":false,"is_disabled":false,"rental_uris":{"android":"levelo://app?vid=c3292ee5-3cea-419c-b14b-5ce21026c206","ios":"levelo://app?vid=c3292ee5-3cea-419c-b14b-5ce21026c206"},"vehicle_type_id":"4","last_reported":1752761444,"current_range_meters":21600,"station_id":"","pricing_plan_id":"cebpf4jnsgd1na2vs0mg"},{"bike_id":"5b0c8f34-ae09-4d86-92be-e000c0247b1d","system_id":"levelo_inurba_marseille","lat":43.27959,"lon":5.41048,"is_reserved":false,"is_disabled":false,"rental_uris":{"android":"levelo://app?vid=5b0c8f34-ae09-4d86-92be-e000c0247b1d","ios":"levelo://app?vid=5b0c8f34-ae09-4d86-92be-e000c0247b1d"},"vehicle_type_id":"4","last_reported":1752761444,"current_range_meters":21600,"station_id":"ce4bhnp2rcd13ifvqh0g","pricing_plan_id":"cebpf4jnsgd1na2vs0mg"},{"bike_id":"60a62c56-3144-4a4d-8f98-19ef52d81dff","system_id":"levelo_inurba_marseille","lat":43.28268,"lon":5.35081,"is_reserved":false,"is_disabled":false,"rental_uris":{"android":"levelo://app?vid=60a62c56-3144-4a4d-8f98-19ef52d81dff","ios":"levelo://app?vid=60a62c56-3144-4a4d-8f98-19ef52d81dff"},"vehicle_type_id":"4","last_reported":1752761444,"current_range_meters":22000,"station_id":"ce4bhbp2rcd13ifvqerg","pricing_plan_id":"cebpf4jnsgd1na2vs0mg"},{"bike_id":"15132693-3a99-490b-880f-0da7b4e30151","system_id":"levelo_inurba_marseille","lat":43.28621,"lon":5.35094,"is_reserved":false,"is_disabled":false,"rental_uris":{"android":"levelo://app?vid=15132693-3a99-490b-880f-0da7b4e30151","ios":"levelo://app?vid=15132693-3a99-490b-880f-0da7b4e30151"},"vehicle_type_id":"4","last_reported":1752761444,"current_range_meters":22000,"station_id":"ce4bhch2rcd13ifvqeug","pricing_plan_id":"cebpf4jnsgd1na2vs0mg"},{"bike_id":"8067caa6-b1a9-4239-a90d-d432f39144df","system_id":"levelo_inurba_marseille","lat":43.26217,"lon":5.37437,"is_reserved":false,"is_disabled":false,"rental_uris":{"android":"levelo://app?vid=8067caa6-b1a9-4239-a90d-d432f39144df","ios":"levelo://app?vid=8067caa6-b1a9-4239-a90d-d432f39144df"},"vehicle_type_id":"4","last_reported":1752761444,"current_range_meters":22000,"station_id":"ce4bhgp2rcd13ifvqfc0","pricing_plan_id":"cebpf4jnsgd1na2vs0mg"},{"bike_id":"26b680ff-13c4-4c75-9afb-17c9ff79a6bf","system_id":"levelo_inurba_marseille","lat":43.303113,"lon":5.369156,"is_reserved":false,"is_disabled":false,"rental_uris":{"android":"levelo://app?vid=26b680ff-13c4-4c75-9afb-17c9ff79a6bf","ios":"levelo://app?vid=26b680ff-13c4-4c75-9afb-17c9ff79a6bf"},"vehicle_type_id":"4","last_reported":1752761444,"current_range_meters":22000,"station_id":"ce4bgqh2rcd13ifvqc5g","pricing_plan_id":"cebpf4jnsgd1na2vs0mg"},{"bike_id":"23b67836-e5ff-43af-846b-acbc71ce3016","system_id":"levelo_inurba_marseille","lat":43.29558,"lon":5.42284,"is_reserved":false,"is_disabled":false,"rental_uris":{"android":"levelo://app?vid=23b67836-e5ff-43af-846b-acbc71ce3016","ios":"levelo://app?vid=23b67836-e5ff-43af-846b-acbc71ce3016"},"vehicle_type_id":"4","last_reported":1752761444,"current_range_meters":22000,"station_id":"ce4bhph2rcd13ifvqhdg","pricing_plan_id":"cebpf4jnsgd1na2vs0mg"},{"bike_id":"5d059165-a2a9-4097-a62d-e0b1d1a5a283","system_id":"levelo_inurba_marseille","lat":43.28427,"lon":5.34989,"is_reserved":false,"is_disabled":false,"rental_uris":{"android":"levelo://app?vid=5d059165-a2a9-4097-a62d-e0b1d1a5a283","ios":"levelo://app?vid=5d059165-a2a9-4097-a62d-e0b1d1a5a283"},