{"last_updated":1723824666,"ttl":30,"version":"2.2","data":{"bikes":[{"bike_id":"46008010-7f49-45fd-b501-5d442c43ac0e","system_id":"levelo_inurba_marseille","lat":43.312239,"lon":5.368562,"is_reserved":false,"is_disabled":false,"rental_uris":{"android":"levelo://app?vid=46008010-7f49-45fd-b501-5d442c43ac0e","ios":"levelo://app?vid=46008010-7f49-45fd-b501-5d442c43ac0e"},"vehicle_type_id":"4","last_reported":1723824666,"current_range_meters":25200,"station_id":"ce4bgl92rcd13ifvqbq0","pricing_plan_id":"cebpf4jnsgd1na2vs0mg"},{"bike_id":"554bb53d-53b9-458d-a74c-f175f07c7ec4","system_id":"levelo_inurba_marseille","lat":43.312239,"lon":5.368562,"is_reserved":false,"is_disabled":false,"rental_uris":{"android":"levelo://app?vid=554bb53d-53b9-458d-a74c-f175f07c7ec4","ios":"levelo://app?vid=554bb53d-53b9-458d-a74c-f175f07c7ec4"},"vehicle_type_id":"4","last_reported":1723824666,"current_range_meters":14800,"station_id":"ce4bgl92rcd13ifvqbq0","pricing_plan_id":"cebpf4jnsgd1na2vs0mg"},{"bike_id":"efb088f1-3e40-4f7a-9531-854c3cef744a","system_id":"levelo_inurba_marseille","lat":43.309076,"lon":5.368465,"is_reserved":false,"is_disabled":false,"rental_uris":{"android":"levelo://app?vid=efb088f1-3e40-4f7a-9531-854c3cef744a","ios":"levelo://app?vid=efb088f1-3e40-4f7a-9531-854c3cef744a"},"vehicle_type_id":"4","last_reported":1723824666,"current_range_meters":26400,"station_id":"ce4bgn92rcd13ifvqbvg","pricing_plan_id":"cebpf4jnsgd1na2vs0mg"},{"bike_id":"abb6b0f3-3f4a-470b-ba52-f7eb1e765f77","system_id":"levelo_inurba_marseille","lat":43.309076,"lon":5.368465,"is_reserved":false,"is_disabled":false,"rental_uris":{"android":"levelo://app?vid=abb6b0f3-3f4a-470b-ba52-f7eb1e765f77","ios":"levelo://app?vid=abb6b0f3-3f4a-470b-ba52-f7eb1e765f77"},"vehicle_type_id":"4","last_reported":1723824666,"current_range_meters":4400,"station_id":"ce4bgn92rcd13ifvqbvg","pricing_plan_id":"cebpf4jnsgd1na2vs0mg"},{"bike_id":"31529b7e-e0e1-479a-9e4e-a0f5165e645d","system_id":"levelo_inurba_marseille","lat":43.309076,"lon":5.368465,"is_reserved":false,"is_disabled":false,"rental_uris":{"android":"levelo://app?vid=31529b7e-e0e1-479a-9e4e-a0f5165e645d","ios":"levelo://app?vid=31529b7e-e0e1-479a-9e4e-a0f5165e645d"},"vehicle_type_id":"4","last_reported":1723824666,"current_range_meters":10400,"station_id":"ce4bgn92rcd13ifvqbvg","pricing_plan_id":"cebpf4jnsgd1na2vs0mg"},{"bike_id":"0bec9390-194d-4d6b-86e2-9b9427187de3","system_id":"levelo_inurba_marseille","lat":43.309076,"lon":5.368465,"is_reserved":false,"is_disabled":false,"rental_uris":{"android":"levelo://app?vid=0bec9390-194d-4d6b-86e2-9b9427187de3","ios":"levelo://app?vid=0bec9390-194d-4d6b-86e2-9b9427187de3"},"vehicle_type_id":"4","last_reported":1723824666,"current_range_meters":27200,"station_id":"ce4bgn92rcd13ifvqbvg","pricing_plan_id":"cebpf4jnsgd1na2vs0mg"},{"bike_id":"0409264e-488b-4274-ace9-2f27c37b6cad","system_id":"levelo_inurba_marseille","lat":43.314811,"lon":5.373103,"is_reserved":false,"is_disabled":false,"rental_uris":{"android":"levelo://app?vid=0409264e-488b-4274-ace9-2f27c37b6cad","ios":"levelo://app?vid=0409264e-488b-4274-ace9-2f27c37b6cad"},"vehicle_type_id":"4","last_reported":1723824666,"current_range_meters":26400,"station_id":"ce4bgt12rcd13ifvqcd0","pricing_plan_id":"cebpf4jnsgd1na2vs0mg"},{"bike_id":"0d4ee732-d3b1-4440-97aa-4e70e42a81c1","system_id":"levelo_inurba_marseille","lat":43.314811,"lon":5.373103,"is_reserved":false,"is_disabled":false,"rental_uris":{"android":"levelo://app?vid=0d4ee732-d3b1-4440-97aa-4e70e42a81c1","ios":"levelo://app?vid=0d4ee732-d3b1-4440-97aa-4e70e42a81c1"},"vehicle_type_id":"4","last_reported":1723824666,"current_range_meters":7600,"station_id":"ce4bgt12rcd13ifvqcd0","pricing_plan_id":"cebpf4jnsgd1na2vs0mg"},{"bike_id":"cb87e29b-4629-40b4-a413-0640bea5c1f5","system_id":"levelo_inurba_marseille","lat":43.314811,"lon":5.373103,"is_reserved":false,"is_disabled":false,"rental_uris":{"android":"levelo://app?vid=cb87e29b-4629-40b4-a413-0640bea5c1f5","ios":"levelo://app?vid=cb87e29b-4629-40b4-a413-0640bea5c1f5"},"vehicle_type_id":"4","last_reported":1723824666,"current_range_meters":8800,"station_id":"ce4bgt12rcd13ifvqcd0","pricing_plan_id":"cebpf4jnsgd1na2vs0mg"},{"bike_id":"98639e6e-b020-443d-be81-8c90fd1005bb","system_id":"levelo_inurba_marseille","lat":43.314811,"lon":5.373103,"is_reserved":false,"is_disabled":false,"rental_uris":{"android":"levelo://app?vid=98639e6e-b020-443d-be81-8c90fd1005bb","ios":"levelo://app?vid=98639e6e-b020-443d-be81-8c90fd1005bb"},"vehicle_type_id":"4","last_reported":1723824666,"current_range_meters":5200,"station_id":"ce4bgt12rcd13ifvqcd0","pricing_plan_id":"cebpf4jnsgd1na2vs0mg"},{"bike_id":"6fda0af2-ee5b-4814-9bdf-d0551f5b7861","system_id":"levelo_inurba_marseille","lat":43.314811,"lon":5.373103,"is_reserved":false,"is_disabled":false,"rental_uris":{"android":"levelo://app?vid=6fda0af2-ee5b-4814-9bdf-d0551f5b7861","ios":"levelo://app?vid=6fda0af2-ee5b-4814-9bdf-d0551f5b7861"},"vehicle_type_id":"4","last_reported":1723824666,"current_range_meters":23600,"station_id":"ce4bgt12rcd13ifvqcd0","pricing_plan_id":"cebpf4jnsgd1na2vs0mg"},{"bike_id":"a7804f22-7994-4ef9-bb29-e44369665f3c","system_id":"levelo_inurba_marseille","lat":43.30541,"lon":5.36711,"is_reserved":false,"is_disabled":false,"rental_uris":{"android":"levelo://app?vid=a7804f22-7994-4ef9-bb29-e44369665f3c","ios":"levelo://app?vid=a7804f22-7994-4ef9-bb29-e44369665f3c"},"vehicle_type_id":"4","last_reported":1723824666,"current_range_meters":0,"station_id":"ce4bgrp2rcd13ifvqc9g","pricing_plan_id":"cebpf4jnsgd1na2vs0mg"},{"bike_id":"e839c01b-7564-43bb-adbc-9b28c3de8384","system_id":"levelo_inurba_marseille","lat":43.3055,"lon":5.36525,"is_reserved":false,"is_disabled":false,"rental_uris":{"android":"levelo://app?vid=e839c01b-7564-43bb-adbc-9b28c3de8384","ios":"levelo://app?vid=e839c01b-7564-43bb-adbc-9b28c3de8384"},"vehicle_type_id":"4","last_reported":1723824666,"current_range_meters":31200,"station_id":"ce4bgs12rcd13ifvqcag","pricing_plan_id":"cebpf4jnsgd1na2vs0mg"},{"bike_id":"c01dd807-3eb9-497b-a2f0-e8c3c01623f0","system_id":"levelo_inurba_marseille","lat":43.305706,"lon":5.365654,"is_reserved":false,"is_disabled":false,"rental_uris":{"android":"levelo://app?vid=c01dd807-3eb9-497b-a2f0-e8c3c01623f0","ios":"levelo://app?vid=c01dd807-3eb9-497b-a2f0-e8c3c01623f0"},"vehicle_type_id":"4","last_reported":1723824666,"current_range_meters":26800,"station_id":"ce4bgs12rcd13ifvqcag","pricing_plan_id":"cebpf4jnsgd1na2vs0mg"},{"bike_id":"e5c498ba-4ba6-4218-92a0-16b62a673a85","system_id":"levelo_inurba_marseille","lat":43.305706,"lon":5.365654,"is_reserved":false,"is_disabled":false,"rental_uris":{"android":"levelo://app?vid=e5c498ba-4ba6-4218-92a0-16b62a673a85","ios":"levelo://app?vid=e5c498ba-4ba6-4218-92a0-16b62a673a85"},"vehicle_type_id":"4","last_reported":1723824666,"current_range_meters":14800,"station_id":"ce4bgs12rcd13ifvqcag","pricing_plan_id":"cebpf4jnsgd1na2vs0mg"},{"bike_id":"42b3ad24-b159-4c16-95a4-c607fcca79a3","system_id":"levelo_inurba_marseille","lat":43.305402,"lon":5.365492,"is_reserved":false,"is_disabled":false,"rental_uris":{"android":"levelo://app?vid=42b3ad24-b159-4c16-95a4-c607fcca79a3","ios":"levelo://app?vid=42b3ad24-b159-4c16-95a4-c607fcca79a3"},"vehicle_type_id":"4","last_reported":1723824666,"current_range_meters":31200,"station_id":"ce4bgs12rcd13ifvqcag","pricing_plan_id":"cebpf4jnsgd1na2vs0mg"},{"bike_id":"3f169da6-f7ac-41a5-ba00-1980f9da3fb3","system_id":"levelo_inurba_marseille","lat":43.30542,"lon":5.36527,"is_reserved":false,"is_disabled":false,"rental_uris":{"android":"levelo://app?vid=3f169da6-f7ac-41a5-ba00-1980f9da3fb3","ios":"levelo://app?vid=3f169da6-f7ac-41a5-ba00-1980f9da3fb3"},"vehicle_type_id":"4","last_reported":1723824666,"current_range_meters":31200,"station_id":"","pricing_plan_id":"cebpf4jnsgd1na2vs0mg"},{"bike_id":"00bb0649-dde5-437b-a28f-9269767ae6b7","system_id":"levelo_inurba_marseille","lat":43.30539,"lon":5.36531,"is_reserved":false,"is_disabled":false,"rental_uris":{"android":"levelo://app?vid=00bb0649-dde5-437b-a28f-9269767ae6b7","ios":"levelo://app?vid=00bb0649-dde5-437b-a28f-9269767ae6b7"},"vehicle_type_id":"4","last_reported":1723824666,"current_range_meters":8800,"station_id":"ce4bgs12rcd13ifvqcag","pricing_plan_id":"cebpf4jnsgd1na2vs0mg"},{"bike_id":"2e0c93cc-aa8e-4e75-ab9b-47400f096e09","system_id":"levelo_inurba_marseille","lat":43.305989,"lon":5.37225,"is_reserved":false,"is_disabled":false,"rental_uris":{"android":"levelo://app?vid=2e0c93cc-aa8e-4e75-ab9b-47400f096e09","ios":"levelo://app?vid=2e0c93cc-aa8e-4e75-ab9b-47400f096e09"},"vehicle_type_id":"4","last_reported":1723824666,"current_range_meters":14800,"station_id":"ce4bgqh2rcd13ifvqc4g","pricing_plan_id":"cebpf4jnsgd1na2vs0mg"},{"bike_id":"822839a4-a265-43a9-96e4-aae9b3bc4a3f","system_id":"levelo_inurba_marseille","lat":43.311125,"lon":5.377624,"is_reserved":false,"is_disabled":false,"rental_uris":{"android":"levelo://app?vid=822839a4-a265-43a9-96e4-aae9b3bc4a3f","ios":"levelo://app?vid=822839a4-a265-43a9-96e4-aae9b3bc4a3f"},"vehicle_type_id":"4","last_reported":1723824666,"current_range_meters":21200,"station_id":"ce4bgt92rcd13ifvqcg0","pricing_plan_id":"cebpf4jnsgd1na2vs0mg"},{"bike_id":"6f3b0fff-03c6-4bf2-bf94-008f2d7ba3a4","system_id":"levelo_inurba_marseille","lat":43.3137,"lon":5.3792,"is_reserved":false,"is_disabled":false,"rental_uris":{"android":"levelo://app?vid=6f3b0fff-03c6-4bf2-bf94-008f2d7ba3a4","ios":"levelo://app?vid=6f3b0fff-03c6-4bf2-bf94-008f2d7ba3a4"},"vehicle_type_id":"4","last_reported":1723824666,"current_range_meters":6400,"station_id":"","pricing_plan_id":"cebpf4jnsgd1na2vs0mg"},{"bike_id":"5793e408-c1af-4b75-9ecc-43482d215064","system_id":"levelo_inurba_marseille","lat":43.30304,"lon":5.368987,"is_reserved":false,"is_disabled":false,"rental_uris":{"android":"levelo://app?vid=5793e408-c1af-4b75-9ecc-43482d215064","ios":"levelo://app?vid=5793e408-c1af-4b75-9ecc-43482d215064"},"vehicle_type_id":"4","last_reported":1723824666,"current_range_meters":10800,"station_id":"ce4bgqh2rcd13ifvqc5g","pricing_plan_id":"cebpf4jnsgd1na2vs0mg"},{"bike_id":"570ab7be-0612-4383-9d87-ba909e813420","system_id":"levelo_inurba_marseille","lat":43.315289,"lon":5.380349,"is_reserved":false,"is_disabled":false,"rental_uris":{"android":"levelo://app?vid=570ab7be-0612-4383-9d87-ba909e813420","ios":"levelo://app?vid=570ab7be-0612-4383-9d87-ba909e813420"},"vehicle_type_id":"4","last_reported":1723824666,"current_range_meters":7200,"station_id":"ce4bhsp2rcd13ifvqi50","pricing_plan_id":"cebpf4jnsgd1na2vs0mg"},{"bike_id":"a47adbc4-7eef-417d-8a66-cda62d42b256","system_id":"levelo_inurba_marseille","lat":43.308012,"lon":5.381511,"is_reserved":false,"is_disabled":false,"rental_uris":{"android":"levelo://app?vid=a47adbc4-7eef-417d-8a66-cda62d42b256","ios":"levelo://app?vid=a47adbc4-7eef-417d-8a66-cda62d42b256"},"vehicle_type_id":"4","last_reported":1723824666,"current_range_meters":21600,"station_id":"ce4bgt12rcd13ifvqce0","pricing_plan_id":"cebpf4jnsgd1na2vs0mg"},{"bike_id":"d6320d4a-31cf-4af6-9b9a-d33bed56ca19","system_id":"levelo_inurba_marseille","lat":43.308012,"lon":5.381511,"is_reserved":false,"is_disabled":false,"rental_uris":{"android":"levelo://app?vid=d6320d4a-31cf-4af6-9b9a-d33bed56ca19","ios":"levelo://app?vid=d6320d4a-31cf-4af6-9b9a-d33bed56ca19"},"vehicle_type_id":"4","last_reported":1723824666,"current_range_meters":15600,"station_id":"ce4bgt12rcd13ifvqce0","pricing_plan_id":"cebpf4jnsgd1na2vs0mg"},{"bike_id":"a0a9766d-839c-487d-9ca8-765fe7cc5078","system_id":"levelo_inurba_marseille","lat":43.308012,"lon":5.381511,"is_reserved":false,"is_disabled":false,"rental_uris":{"android":"levelo://app?vid=a0a9766d-839c-487d-9ca8-765fe7cc5078","ios":"levelo://app?vid=a0a9766d-839c-487d-9ca8-765fe7cc5078"},"vehicle_type_id":"4","last_reported":1723824666,"current_range_meters":10800,"station_id":"ce4bgt12rcd13ifvqce0","pricing_plan_id":"cebpf4jnsgd1na2vs0mg"},{"bike_id":"f2ef0f05-350c-4b46-afdf-859ee10c40f2","system_id":"levelo_inurba_marseille","lat":43.324771,"lon":5.36557,"is_reserved":false,"is_disabled":false,"rental_uris":{"android":"levelo://app?vid=f2ef0f05-350c-4b46-afdf-859ee10c40f2","ios":"levelo://app?vid=f2ef0f05-350c-4b46-afdf-859ee10c40f2"},"vehicle_type_id":"4","last_reported":1723824666,"current_range_meters":21200,"station_id":"ce4bhs12rcd13ifvqhvg","pricing_plan_id":"cebpf4jnsgd1na2vs0mg"},{"bike_id":"1cc1a06a-9534-4f77-a6ce-b9613dd45db2","system_id":"levelo_inurba_marseille","lat":43.324771,"lon":5.36557,"is_reserved":false,"is_disabled":false,"rental_uris":{"android":"levelo://app?vid=1cc1a06a-9534-4f77-a6ce-b9613dd45db2","ios":"levelo://app?vid=1cc1a06a-9534-4f77-a6ce-b9613dd45db2"},"vehicle_type_id":"4","last_reported":1723824666,"current_range_meters":15600,"station_id":"ce4bhs12rcd13ifvqhvg","pricing_plan_id":"cebpf4jnsgd1na2vs0mg"},{"bike_id":"f9ad0309-7f53-4d9b-9ddf-f24ce78ffb0d","system_id":"levelo_inurba_marseille","lat":43.324771,"lon":5.36557,"is_reserved":false,"is_disabled":false,"rental_uris":{"android":"levelo://app?vid=f9ad0309-7f53-4d9b-9ddf-f24ce78ffb0d","ios":"levelo://app?vid=f9ad0309-7f53-4d9b-9ddf-f24ce78ffb0d"},"vehicle_type_id":"4","last_reported":1723824666,"current_range_meters":3600,"station_id":"ce4bhs12rcd13ifvqhvg","pricing_plan_id":"cebpf4jnsgd1na2vs0mg"},{"bike_id":"cbebe41c-6d78-4ed9-a493-b3d38c3ac453","system_id":"levelo_inurba_marseille","lat":43.324771,"lon":5.36557,"is_reserved":false,"is_disabled":false,"rental_uris":{"android":"levelo://app?vid=cbebe41c-6d78-4ed9-a493-b3d38c3ac453","ios":"levelo://app?vid=cbebe41c-6d78-4ed9-a493-b3d38c3ac453"},"vehicle_type_id":"4","last_reported":1723824666,"current_range_meters":22000,"station_id":"ce4bhs12rcd13ifvqhvg","pricing_plan_id":"cebpf4jnsgd1na2vs0mg"},{"bike_id":"94077f2b-f47f-48d7-8e74-d50d3804e489","system_id":"levelo_inurba_marseille","lat":43.324771,"lon":5.36557,"is_reserved":false,"is_disabled":false,"rental_uris":{"android":"levelo://app?vid=94077f2b-f47f-48d7-8e74-d50d3804e489","ios":"levelo://app?vid=94077f2b-f47f-48d7-8e74-d50d3804e489"},"vehicle_type_id":"4","last_reported":1723824666,"current_range_meters":15200,"station_id":"ce4bhs12rcd13ifvqhvg","pricing_plan_id":"cebpf4jnsgd1na2vs0mg"},{"bike_id":"5a2741d8-697b-4ed8-8c0b-57f762126b01","system_id":"levelo_inurba_marseille","lat":43.324771,"lon":5.36557,"is_reserved":false,"is_disabled":false,"rental_uris":{"android":"levelo://app?vid=5a2741d8-697b-4ed8-8c0b-57f762126b01","ios":"levelo://app?vid=5a2741d8-697b-4ed8-8c0b-57f762126b01"},"vehicle_type_id":"4","last_reported":1723824666,"current_range_meters":24400,"station_id":"ce4bhs12rcd13ifvqhvg","pricing_plan_id":"cebpf4jnsgd1na2vs0mg"},{"bike_id":"bb7ac0de-3141-4df4-9cde-e9fcc41f6e7c","system_id":"levelo_inurba_marseille","lat":43.324771,"lon":5.36557,"is_reserved":false,"is_disabled":false,"rental_uris":{"android":"levelo://app?vid=bb7ac0de-3141-4df4-9cde-e9fcc41f6e7c","ios":"levelo://app?vid=bb7ac0de-3141-4df4-9cde-e9fcc41f6e7c"},"vehicle_type_id":"4","last_reported":1723824666,"current_range_meters":25600,"station_id":"ce4bhs12rcd13ifvqhvg","pricing_plan_id":"cebpf4jnsgd1na2vs0mg"},{"bike_id":"edd52fff-d71f-4b44-8b00-5583186ff434","system_id":"levelo_inurba_marseille","lat":43.324771,"lon":5.36557,"is_reserved":false,"is_disabled":false,"rental_uris":{"android":"levelo://app?vid=edd52fff-d71f-4b44-8b00-5583186ff434","ios":"levelo://app?vid=edd52fff-d71f-4b44-8b00-5583186ff434"},"vehicle_type_id":"4","last_reported":1723824666,"current_range_meters":12800,"station_id":"ce4bhs12rcd13ifvqhvg","pricing_plan_id":"cebpf4jnsgd1na2vs0mg"},{"bike_id":"6472a88b-9da4-4029-9f21-391a56f4cfc1","system_id":"levelo_inurba_marseille","lat":43.324771,"lon":5.36557,"is_reserved":false,"is_disabled":false,"rental_uris":{"android":"levelo://app?vid=6472a88b-9da4-4029-9f21-391a56f4cfc1","ios":"levelo://app?vid=6472a88b-9da4-4029-9f21-391a56f4cfc1"},"vehicle_type_id":"4","last_reported":1723824666,"current_range_meters":31600,"station_id":"ce4bhs12rcd13ifvqhvg","pricing_plan_id":"cebpf4jnsgd1na2vs0mg"},{"bike_id":"ca38bb0f-4641-46c2-8c69-df1ac2afc96c","system_id":"levelo_inurba_marseille","lat":43.324771,"lon":5.36557,"is_reserved":false,"is_disabled":false,"rental_uris":{"android":"levelo://app?vid=ca38bb0f-4641-46c2-8c69-df1ac2afc96c","ios":"levelo://app?vid=ca38bb0f-4641-46c2-8c69-df1ac2afc96c"},"vehicle_type_id":"4","last_reported":1723824666,"current_range_meters":10400,"station_id":"ce4bhs12rcd13ifvqhvg","pricing_plan_id":"cebpf4jnsgd1na2vs0mg"},{"bike_id":"553af5b7-a029-4159-9ca6-b50ea0febd5f","system_id":"levelo_inurba_marseille","lat":43.324771,"lon":5.36557,"is_reserved":false,"is_disabled":false,"rental_uris":{"android":"levelo://app?vid=553af5b7-a029-4159-9ca6-b50ea0febd5f","ios":"levelo://app?vid=553af5b7-a029-4159-9ca6-b50ea0febd5f"},"vehicle_type_id":"4","last_reported":1723824666,"current_range_meters":28000,"station_id":"ce4bhs12rcd13ifvqhvg","pricing_plan_id":"cebpf4jnsgd1na2vs0mg"},{"bike_id":"6f16028c-a336-449b-b49b-06bd5641ba4e","system_id":"levelo_inurba_marseille","lat":43.302784,"lon":5.377158,"is_reserved":false,"is_disabled":false,"rental_uris":{"android":"levelo://app?vid=6f16028c-a336-449b-b49b-06bd5641ba4e","ios":"levelo://app?vid=6f16028c-a336-449b-b49b-06bd5641ba4e"},"vehicle_type_id":"4","last_reported":1723824666,"current_range_meters":32000,"station_id":"ce4bguh2rcd13ifvqcj0","pricing_plan_id":"cebpf4jnsgd1na2vs0mg"},{"bike_id":"8b471063-1f1b-49a2-8063-4034ad073dcd","system_id":"levelo_inurba_marseille","lat":43.302784,"lon":5.377158,"is_reserved":false,"is_disabled":false,"rental_uris":{"android":"levelo://app?vid=8b471063-1f1b-49a2-8063-4034ad073dcd","ios":"levelo://app?vid=8b471063-1f1b-49a2-8063-4034ad073dcd"},"vehicle_type_id":"4","last_reported":1723824666,"current_range_meters":17200,"station_id":"ce4bguh2rcd13ifvqcj0","pricing_plan_id":"cebpf4jnsgd1na2vs0mg"},{"bike_id":"10a70e12-a087-4023-b041-da1ba4e16632","system_id":"levelo_inurba_marseille","lat":43.302784,"lon":5.377158,"is_reserved":false,"is_disabled":false,"rental_uris":{"android":"levelo://app?vid=10a70e12-a087-4023-b041-da1ba4e16632","ios":"levelo://app?vid=10a70e12-a087-4023-b041-da1ba4e16632"},"vehicle_type_id":"4","last_reported":1723824666,"current_range_meters":32000,"station_id":"ce4bguh2rcd13ifvqcj0","pricing_plan_id":"cebpf4jnsgd1na2vs0mg"},{"bike_id":"59046749-4bb3-4f09-b97f-6002e5a3ef2b","system_id":"levelo_inurba_marseille","lat":43.30143,"lon":5.37413,"is_reserved":false,"is_disabled":false,"rental_uris":{"android":"levelo://app?vid=59046749-4bb3-4f09-b97f-6002e5a3ef2b","ios":"levelo://app?vid=59046749-4bb3-4f09-b97f-6002e5a3ef2b"},"vehicle_type_id":"4","last_reported":1723824666,"current_range_meters":14400,"station_id":"ce4bgs92rcd13ifvqcc0","pricing_plan_id":"cebpf4jnsgd1na2vs0mg"},{"bike_id":"ae45be4b-bb17-4db3-aaa8-8598f182a506","system_id":"levelo_inurba_marseille","lat":43.30143,"lon":5.37413,"is_reserved":false,"is_disabled":false,"rental_uris":{"android":"levelo://app?vid=ae45be4b-bb17-4db3-aaa8-8598f182a506","ios":"levelo://app?vid=ae45be4b-bb17-4db3-aaa8-8598f182a506"},"vehicle_type_id":"4","last_reported":1723824666,"current_range_meters":10800,"station_id":"ce4bgs92rcd13ifvqcc0","pricing_plan_id":"cebpf4jnsgd1na2vs0mg"},{"bike_id":"520907e9-7d8e-4f71-bce1-4901622d270c","system_id":"levelo_inurba_marseille","lat":43.302784,"lon":5.377158,"is_reserved":false,"is_disabled":false,"rental_uris":{"android":"levelo://app?vid=520907e9-7d8e-4f71-bce1-4901622d270c","ios":"levelo://app?vid=520907e9-7d8e-4f71-bce1-4901622d270c"},"vehicle_type_id":"4","last_reported":1723824666,"current_range_meters":31600,"station_id":"ce4bguh2rcd13ifvqcj0","pricing_plan_id":"cebpf4jnsgd1na2vs0mg"},{"bike_id":"d41321f0-495e-4b4c-9513-44db93355f7b","system_id":"levelo_inurba_marseille","lat":43.30143,"lon":5.37413,"is_reserved":false,"is_disabled":false,"rental_uris":{"android":"levelo://app?vid=d41321f0-495e-4b4c-9513-44db93355f7b","ios":"levelo://app?vid=d41321f0-495e-4b4c-9513-44db93355f7b"},"vehicle_type_id":"4","last_reported":1723824666,"current_range_meters":20400,"station_id":"ce4bgs92rcd13ifvqcc0","pricing_plan_id":"cebpf4jnsgd1na2vs0mg"},{"bike_id":"0ad53721-b284-4ed1-91fa-12dee594b6d7","system_id":"levelo_inurba_marseille","lat":43.301429,"lon":5.37413,"is_reserved":false,"is_disabled":false,"rental_uris":{"android":"levelo://app?vid=0ad53721-b284-4ed1-91fa-12dee594b6d7","ios":"levelo://app?vid=0ad53721-b284-4ed1-91fa-12dee594b6d7"},"vehicle_type_id":"4","last_reported":1723824666,"current_range_meters":31200,"station_id":"ce4bgs92rcd13ifvqcc0","pricing_plan_id":"cebpf4jnsgd1na2vs0mg"},{"bike_id":"4979e2d9-9755-4fc0-aa4e-4979b7919747","system_id":"levelo_inurba_marseille","lat":43.301429,"lon":5.37413,"is_reserved":false,"is_disabled":false,"rental_uris":{"android":"levelo://app?vid=4979e2d9-9755-4fc0-aa4e-4979b7919747","ios":"levelo://app?vid=4979e2d9-9755-4fc0-aa4e-4979b7919747"},"vehicle_type_id":"4","last_reported":1723824666,"current_range_meters":26800,"station_id":"ce4bgs92rcd13ifvqcc0","pricing_plan_id":"cebpf4jnsgd1na2vs0mg"},{"bike_id":"823f4ee1-06d0-4ec2-8296-a02c07722aca","system_id":"levelo_inurba_marseille","lat":43.30143,"lon":5.37413,"is_reserved":false,"is_disabled":false,"rental_uris":{"android":"levelo://app?vid=823f4ee1-06d0-4ec2-8296-a02c07722aca","ios":"levelo://app?vid=823f4ee1-06d0-4ec2-8296-a02c07722aca"},"vehicle_type_id":"4","last_reported":1723824666,"current_range_meters":28800,"station_id":"ce4bgs92rcd13ifvqcc0","pricing_plan_id":"cebpf4jnsgd1na2vs0mg"},{"bike_id":"3002f280-7517-4418-82ef-061406a0cac0","system_id":"levelo_inurba_marseille","lat":43.325266,"lon":5.369396,"is_reserved":false,"is_disabled":false,"rental_uris":{"android":"levelo://app?vid=3002f280-7517-4418-82ef-061406a0cac0","ios":"levelo://app?vid=3002f280-7517-4418-82ef-061406a0cac0"},"vehicle_type_id":"4","last_reported":1723824666,"current_range_meters":6400,"station_id":"","pricing_plan_id":"cebpf4jnsgd1na2vs0mg"},{"bike_id":"ce02ec92-1446-4adf-a543-f97cf98b6137","system_id":"levelo_inurba_marseille","lat":43.30583,"lon":5.38161,"is_reserved":false,"is_disabled":false,"rental_uris":{"android":"levelo://app?vid=ce02ec92-1446-4adf-a543-f97cf98b6137","ios":"levelo://app?vid=ce02ec92-1446-4adf-a543-f97cf98b6137"},"vehicle_type_id":"4","last_reported":1723824666,"current_range_meters":26400,"station_id":"","pricing_plan_id":"cebpf4jnsgd1na2vs0mg"},{"bike_id":"300e3a8d-8747-4da0-afcd-1dc8d1b079fb","system_id":"levelo_inurba_marseille","lat":43.29942,"lon":5.36534,"is_reserved":false,"is_disabled":false,"rental_uris":{"android":"levelo://app?vid=300e3a8d-8747-4da0-afcd-1dc8d1b079fb","ios":"levelo://app?vid=300e3a8d-8747-4da0-afcd-1dc8d1b079fb"},"vehicle_type_id":"4","last_reported":1723824666,"current_range_meters":30800,"station_id":"ce4bgm92rcd13ifvqbr0","pricing_plan_id":"cebpf4jnsgd1na2vs0mg"},{"bike_id":"0e0871c9-c561-4a78-8e24-29416ff7d1d7","system_id":"levelo_inurba_marseille","lat":43.299222,"lon":5.365554,"is_reserved":false,"is_disabled":false,"rental_uris":{"android":"levelo://app?vid=0e0871c9-c561-4a78-8e24-29416ff7d1d7","ios":"levelo://app?vid=0e0871c9-c561-4a78-8e24-29416ff7d1d7"},"vehicle_type_id":"4","last_reported":1723824666,"current_range_meters":10800,"station_id":"ce4bgm92rcd13ifvqbr0","pricing_plan_id":"cebpf4jnsgd1na2vs0mg"},{"bike_id":"2f6e5cf0-270b-4bc0-8487-f4c229d7dc7b","system_id":"levelo_inurba_marseille","lat":43.299222,"lon":5.365554,"is_reserved":false,"is_disabled":false,"rental_uris":{"android":"levelo://app?vid=2f6e5cf0-270b-4bc0-8487-f4c229d7dc7b","ios":"levelo://app?vid=2f6e5cf0-270b-4bc0-8487-f4c229d7dc7b"},"vehicle_type_id":"4","last_reported":1723824666,"current_range_meters":16800,"station_id":"ce4bgm92rcd13ifvqbr0","pricing_plan_id":"cebpf4jnsgd1na2vs0mg"},{"bike_id":"0daf74c2-a6b3-4e4f-bec5-a05c6d1f65bf","system_id":"levelo_inurba_marseille","lat":43.299316,"lon":5.371897,"is_reserved":false,"is_disabled":false,"rental_uris":{"android":"levelo://app?vid=0daf74c2-a6b3-4e4f-bec5-a05c6d1f65bf","ios":"levelo://app?vid=0daf74c2-a6b3-4e4f-bec5-a05c6d1f65bf"},"vehicle_type_id":"4","last_reported":1723824666,"current_range_meters":28800,"station_id":"","pricing_plan_id":"cebpf4jnsgd1na2vs0mg"},{"bike_id":"f4bb82aa-3d7e-4385-85c7-5b03e7cceb50","system_id":"levelo_inurba_marseille","lat":43.31227,"lon":5.38636,"is_reserved":false,"is_disabled":false,"rental_uris":{"android":"levelo://app?vid=f4bb82aa-3d7e-4385-85c7-5b03e7cceb50","ios":"levelo://app?vid=f4bb82aa-3d7e-4385-85c7-5b03e7cceb50"},"vehicle_type_id":"4","last_reported":1723824666,"current_range_meters":11200,"station_id":"","pricing_plan_id":"cebpf4jnsgd1na2vs0mg"},{"bike_id":"a7cffd0d-3c3b-477b-acf5-17db197ec6fb","system_id":"levelo_inurba_marseille","lat":43.305364,"lon":5.384119,"is_reserved":false,"is_disabled":false,"rental_uris":{"android":"levelo://app?vid=a7cffd0d-3c3b-477b-acf5-17db197ec6fb","ios":"levelo://app?vid=a7cffd0d-3c3b-477b-acf5-17db197ec6fb"},"vehicle_type_id":"4","last_reported":1723824666,"current_range_meters":26000,"station_id":"ce4bgg92rcd13ifvqb30","pricing_plan_id":"cebpf4jnsgd1na2vs0mg"},{"bike_id":"b1f8553e-60eb-4d9f-abc4-a85d590ed8ad","system_id":"levelo_inurba_marseille","lat":43.305364,"lon":5.384119,"is_reserved":false,"is_disabled":false,"rental_uris":{"android":"levelo://app?vid=b1f8553e-60eb-4d9f-abc4-a85d590ed8ad","ios":"levelo://app?vid=b1f8553e-60eb-4d9f-abc4-a85d590ed8ad"},"vehicle_type_id":"4","last_reported":1723824666,"current_range_meters":11600,"station_id":"ce4bgg92rcd13ifvqb30","pricing_plan_id":"cebpf4jnsgd1na2vs0mg"},{"bike_id":"a3f52049-f799-4b2d-b92f-1a64e47a6816","system_id":"levelo_inurba_marseille","lat":43.29815,"lon":5.36607,"is_reserved":false,"is_disabled":false,"rental_uris":{"android":"levelo://app?vid=a3f52049-f799-4b2d-b92f-1a64e47a6816","ios":"levelo://app?vid=a3f52049-f799-4b2d-b92f-1a64e47a6816"},"vehicle_type_id":"4","last_reported":1723824666,"current_range_meters":0,"station_id":"","pricing_plan_id":"cebpf4jnsgd1na2vs0mg"},{"bike_id":"6411ea2e-c1bf-42d0-bfa3-6a18c77873ba","system_id":"levelo_inurba_marseille","lat":43.299243,"lon":5.37481,"is_reserved":false,"is_disabled":false,"rental_uris":{"android":"levelo://app?vid=6411ea2e-c1bf-42d0-bfa3-6a18c77873ba","ios":"levelo://app?vid=6411ea2e-c1bf-42d0-bfa3-6a18c77873ba"},"vehicle_type_id":"4","last_reported":1723824666,"current_range_meters":12800,"station_id":"ce4bgjh2rcd13ifvqbg0","pricing_plan_id":"cebpf4jnsgd1na2vs0mg"},{"bike_id":"82bfed1a-0ab0-4928-98be-cf07516bdf39","system_id":"levelo_inurba_marseille","lat":43.299243,"lon":5.374807,"is_reserved":false,"is_disabled":false,"rental_uris":{"android":"levelo://app?vid=82bfed1a-0ab0-4928-98be-cf07516bdf39","ios":"levelo://app?vid=82bfed1a-0ab0-4928-98be-cf07516bdf39"},"vehicle_type_id":"4","last_reported":1723824666,"current_range_meters":30400,"station_id":"ce4bgjh2rcd13ifvqbg0","pricing_plan_id":"cebpf4jnsgd1na2vs0mg"},{"bike_id":"17a4fad6-8716-495a-b2e1-31e20ed03242","system_id":"levelo_inurba_marseille","lat":43.299243,"lon":5.374807,"is_reserved":false,"is_disabled":false,"rental_uris":{"android":"levelo://app?vid=17a4fad6-8716-495a-b2e1-31e20ed03242","ios":"levelo://app?vid=17a4fad6-8716-495a-b2e1-31e20ed03242"},"vehicle_type_id":"4","last_reported":1723824666,"current_range_meters":4800,"station_id":"ce4bgjh2rcd13ifvqbg0","pricing_plan_id":"cebpf4jnsgd1na2vs0mg"},{"bike_id":"ce5220db-e1f9-4770-9aa0-eb89d3600336","system_id":"levelo_inurba_marseille","lat":43.299243,"lon":5.37481,"is_reserved":false,"is_disabled":false,"rental_uris":{"android":"levelo://app?vid=ce5220db-e1f9-4770-9aa0-eb89d3600336","ios":"levelo://app?vid=ce5220db-e1f9-4770-9aa0-eb89d3600336"},"vehicle_type_id":"4","last_reported":1723824666,"current_range_meters":21200,"station_id":"ce4bgjh2rcd13ifvqbg0","pricing_plan_id":"cebpf4jnsgd1na2vs0mg"},{"bike_id":"830f70bc-bf73-4d66-8a7b-171a63267ca0","system_id":"levelo_inurba_marseille","lat":43.299243,"lon":5.37481,"is_reserved":false,"is_disabled":false,"rental_uris":{"android":"levelo://app?vid=830f70bc-bf73-4d66-8a7b-171a63267ca0","ios":"levelo://app?vid=830f70bc-bf73-4d66-8a7b-171a63267ca0"},"vehicle_type_id":"4","last_reported":1723824666,"current_range_meters":23200,"station_id":"ce4bgjh2rcd13ifvqbg0","pricing_plan_id":"cebpf4jnsgd1na2vs0mg"},{"bike_id":"2f474e54-306e-409e-bda6-2c1f10c8fa87","system_id":"levelo_inurba_marseille","lat":43.30152,"lon":5.38074,"is_reserved":false,"is_disabled":false,"rental_uris":{"android":"levelo://app?vid=2f474e54-306e-409e-bda6-2c1f10c8fa87","ios":"levelo://app?vid=2f474e54-306e-409e-bda6-2c1f10c8fa87"},"vehicle_type_id":"4","last_reported":1723824666,"current_range_meters":6400,"station_id":"ce4bgjp2rcd13ifvqbh0","pricing_plan_id":"cebpf4jnsgd1na2vs0mg"},{"bike_id":"f4c60cfd-a1e9-42ae-92ab-9fbe1e219df6","system_id":"levelo_inurba_marseille","lat":43.301567,"lon":5.380857,"is_reserved":false,"is_disabled":false,"rental_uris":{"android":"levelo://app?vid=f4c60cfd-a1e9-42ae-92ab-9fbe1e219df6","ios":"levelo://app?vid=f4c60cfd-a1e9-42ae-92ab-9fbe1e219df6"},"vehicle_type_id":"4","last_reported":1723824666,"current_range_meters":4400,"station_id":"ce4bgjp2rcd13ifvqbh0","pricing_plan_id":"cebpf4jnsgd1na2vs0mg"},{"bike_id":"4a09b090-8823-433c-8ed5-a0c8f44f6a0a","system_id":"levelo_inurba_marseille","lat":43.297794,"lon":5.370888,"is_reserved":false,"is_disabled":false,"rental_uris":{"android":"levelo://app?vid=4a09b090-8823-433c-8ed5-a0c8f44f6a0a","ios":"levelo://app?vid=4a09b090-8823-433c-8ed5-a0c8f44f6a0a"},"vehicle_type_id":"4","last_reported":1723824666,"current_range_meters":14400,"station_id":"ce4bgop2rcd13ifvqc1g","pricing_plan_id":"cebpf4jnsgd1na2vs0mg"},{"bike_id":"0862c630-3430-44a3-b425-431ee92ee331","system_id":"levelo_inurba_marseille","lat":43.301417,"lon":5.3809,"is_reserved":false,"is_disabled":false,"rental_uris":{"android":"levelo://app?vid=0862c630-3430-44a3-b425-431ee92ee331","ios":"levelo://app?vid=0862c630-3430-44a3-b425-431ee92ee331"},"vehicle_type_id":"4","last_reported":1723824666,"current_range_meters":20400,"station_id":"ce4bgjp2rcd13ifvqbh0","pricing_plan_id":"cebpf4jnsgd1na2vs0mg"},{"bike_id":"b5336e6e-c1b8-45d4-87d1-fd1a18b027a5","system_id":"levelo_inurba_marseille","lat":43.301417,"lon":5.3809,"is_reserved":false,"is_disabled":false,"rental_uris":{"android":"levelo://app?vid=b5336e6e-c1b8-45d4-87d1-fd1a18b027a5","ios":"levelo://app?vid=b5336e6e-c1b8-45d4-87d1-fd1a18b027a5"},"vehicle_type_id":"4","last_reported":1723824666,"current_range_meters":14400,"station_id":"ce4bgjp2rcd13ifvqbh0","pricing_plan_id":"cebpf4jnsgd1na2vs0mg"},{"bike_id":"6d8b6192-cf50-46ae-9e45-ca141a009f74","system_id":"levelo_inurba_marseille","lat":43.297794,"lon":5.370888,"is_reserved":false,"is_disabled":false,"rental_uris":{"android":"levelo://app?vid=6d8b6192-cf50-46ae-9e45-ca141a009f74","ios":"levelo://app?vid=6d8b6192-cf50-46ae-9e45-ca141a009f74"},"vehicle_type_id":"4","last_reported":1723824666,"current_range_meters":26800,"station_id":"ce4bgop2rcd13ifvqc1g","pricing_plan_id":"cebpf4jnsgd1na2vs0mg"},{"bike_id":"96c071f3-dd74-4695-8b54-3ab43f214f23","system_id":"levelo_inurba_marseille","lat":43.29778,"lon":5.37098,"is_reserved":false,"is_disabled":false,"rental_uris":{"android":"levelo://app?vid=96c071f3-dd74-4695-8b54-3ab43f214f23","ios":"levelo://app?vid=96c071f3-dd74-4695-8b54-3ab43f214f23"},"vehicle_type_id":"4","last_reported":1723824666,"current_range_meters":21600,"station_id":"ce4bgop2rcd13ifvqc1g","pricing_plan_id":"cebpf4jnsgd1na2vs0mg"},{"bike_id":"44c04a4f-0a75-4d98-87fa-b87bfe9289da","system_id":"levelo_inurba_marseille","lat":43.297774,"lon":5.370875,"is_reserved":false,"is_disabled":false,"rental_uris":{"android":"levelo://app?vid=44c04a4f-0a75-4d98-87fa-b87bfe9289da","ios":"levelo://app?vid=44c04a4f-0a75-4d98-87fa-b87bfe9289da"},"vehicle_type_id":"4","last_reported":1723824666,"current_range_meters":22000,"station_id":"ce4bgop2rcd13ifvqc1g","pricing_plan_id":"cebpf4jnsgd1na2vs0mg"},{"bike_id":"6a376e67-87b3-4071-b519-99f8302ba717","system_id":"levelo_inurba_marseille","lat":43.297774,"lon":5.370875,"is_reserved":false,"is_disabled":false,"rental_uris":{"android":"levelo://app?vid=6a376e67-87b3-4071-b519-99f8302ba717","ios":"levelo://app?vid=6a376e67-87b3-4071-b519-99f8302ba717"},"vehicle_type_id":"4","last_reported":1723824666,"current_range_meters":26400,"station_id":"ce4bgop2rcd13ifvqc1g","pricing_plan_id":"cebpf4jnsgd1na2vs0mg"},{"bike_id":"c9632053-6d2a-49cb-8009-62cade9c2fe9","system_id":"levelo_inurba_marseille","lat":43.322872,"lon":5.382756,"is_reserved":false,"is_disabled":false,"rental_uris":{"android":"levelo://app?vid=c9632053-6d2a-49cb-8009-62cade9c2fe9","ios":"levelo://app?vid=c9632053-6d2a-49cb-8009-62cade9c2fe9"},"vehicle_type_id":"4","last_reported":1723824666,"current_range_meters":4000,"station_id":"ce4bhr12rcd13ifvqhqg","pricing_plan_id":"cebpf4jnsgd1na2vs0mg"},{"bike_id":"2335bd10-1189-4ff1-bfa8-4c0c93828373","system_id":"levelo_inurba_marseille","lat":43.297163,"lon":5.365866,"is_reserved":false,"is_disabled":false,"rental_uris":{"android":"levelo://app?vid=2335bd10-1189-4ff1-bfa8-4c0c93828373","ios":"levelo://app?vid=2335bd10-1189-4ff1-bfa8-4c0c93828373"},"vehicle_type_id":"4","last_reported":1723824666,"current_range_meters":13200,"station_id":"ce4bgn12rcd13ifvqbt0","pricing_plan_id":"cebpf4jnsgd1na2vs0mg"},{"bike_id":"c8c791ab-a13e-4f5a-9aad-f5f1f2246dc9","system_id":"levelo_inurba_marseille","lat":43.297163,"lon":5.365866,"is_reserved":false,"is_disabled":false,"rental_uris":{"android":"levelo://app?vid=c8c791ab-a13e-4f5a-9aad-f5f1f2246dc9","ios":"levelo://app?vid=c8c791ab-a13e-4f5a-9aad-f5f1f2246dc9"},"vehicle_type_id":"4","last_reported":1723824666,"current_range_meters":21600,"station_id":"ce4bgn12rcd13ifvqbt0","pricing_plan_id":"cebpf4jnsgd1na2vs0mg"},{"bike_id":"358d7a6b-8264-469d-809b-d3c41c2f4ab9","system_id":"levelo_inurba_marseille","lat":43.2968,"lon":5.37291,"is_reserved":false,"is_disabled":false,"rental_uris":{"android":"levelo://app?vid=358d7a6b-8264-469d-809b-d3c41c2f4ab9","ios":"levelo://app?vid=358d7a6b-8264-469d-809b-d3c41c2f4ab9"},"vehicle_type_id":"4","last_reported":1723824666,"current_range_meters":24800,"station_id":"ce4bgk12rcd13ifvqbj0","pricing_plan_id":"cebpf4jnsgd1na2vs0mg"},{"bike_id":"2041e027-d388-411f-bc8e-9bfe976299c4","system_id":"levelo_inurba_marseille","lat":43.2968,"lon":5.37291,"is_reserved":false,"is_disabled":false,"rental_uris":{"android":"levelo://app?vid=2041e027-d388-411f-bc8e-9bfe976299c4","ios":"levelo://app?vid=2041e027-d388-411f-bc8e-9bfe976299c4"},"vehicle_type_id":"4","last_reported":1723824666,"current_range_meters":5600,"station_id":"ce4bgk12rcd13ifvqbj0","pricing_plan_id":"cebpf4jnsgd1na2vs0mg"},{"bike_id":"7093457f-8e56-43bf-88db-2fb1373faf90","system_id":"levelo_inurba_marseille","lat":43.296131,"lon":5.370773,"is_reserved":false,"is_disabled":false,"rental_uris":{"android":"levelo://app?vid=7093457f-8e56-43bf-88db-2fb1373faf90","ios":"levelo://app?vid=7093457f-8e56-43bf-88db-2fb1373faf90"},"vehicle_type_id":"4","last_reported":1723824666,"current_range_meters":3600,"station_id":"ce4bgnh2rcd13ifvqc0g","pricing_plan_id":"cebpf4jnsgd1na2vs0mg"},{"bike_id":"f9385275-7133-4e5c-9c6b-809daacee5e7","system_id":"levelo_inurba_marseille","lat":43.29594,"lon":5.36586,"is_reserved":false,"is_disabled":false,"rental_uris":{"android":"levelo://app?vid=f9385275-7133-4e5c-9c6b-809daacee5e7","ios":"levelo://app?vid=f9385275-7133-4e5c-9c6b-809daacee5e7"},"vehicle_type_id":"4","last_reported":1723824666,"current_range_meters":31200,"station_id":"","pricing_plan_id":"cebpf4jnsgd1na2vs0mg"},{"bike_id":"bceabb36-aca6-437e-9224-0749f80410a4","system_id":"levelo_inurba_marseille","lat":43.296131,"lon":5.370791,"is_reserved":false,"is_disabled":false,"rental_uris":{"android":"levelo://app?vid=bceabb36-aca6-437e-9224-0749f80410a4","ios":"levelo://app?vid=bceabb36-aca6-437e-9224-0749f80410a4"},"vehicle_type_id":"4","last_reported":1723824666,"current_range_meters":30800,"station_id":"ce4bgnh2rcd13ifvqc0g","pricing_plan_id":"cebpf4jnsgd1na2vs0mg"},{"bike_id":"8a3b694b-bab4-4cba-8e5b-51879d115e5d","system_id":"levelo_inurba_marseille","lat":43.296131,"lon":5.370791,"is_reserved":false,"is_disabled":false,"rental_uris":{"android":"levelo://app?vid=8a3b694b-bab4-4cba-8e5b-51879d115e5d","ios":"levelo://app?vid=8a3b694b-bab4-4cba-8e5b-51879d115e5d"},"vehicle_type_id":"4","last_reported":1723824666,"current_range_meters":6800,"station_id":"ce4bgnh2rcd13ifvqc0g","pricing_plan_id":"cebpf4jnsgd1na2vs0mg"},{"bike_id":"46c53092-647c-4d07-9064-0b0decce98ee","system_id":"levelo_inurba_marseille","lat":43.29573,"lon":5.367355,"is_reserved":false,"is_disabled":false,"rental_uris":{"android":"levelo://app?vid=46c53092-647c-4d07-9064-0b0decce98ee","ios":"levelo://app?vid=46c53092-647c-4d07-9064-0b0decce98ee"},"vehicle_type_id":"4","last_reported":1723824666,"current_range_meters":16800,"station_id":"ce4bgph2rcd13ifvqc2g","pricing_plan_id":"cebpf4jnsgd1na2vs0mg"},{"bike_id":"11154db2-2515-4f02-8654-8c413ea67ac1","system_id":"levelo_inurba_marseille","lat":43.2962,"lon":5.37161,"is_reserved":false,"is_disabled":false,"rental_uris":{"android":"levelo://app?vid=11154db2-2515-4f02-8654-8c413ea67ac1","ios":"levelo://app?vid=11154db2-2515-4f02-8654-8c413ea67ac1"},"vehicle_type_id":"4","last_reported":1723824666,"current_range_meters":6000,"station_id":"ce4bgnh2rcd13ifvqc0g","pricing_plan_id":"cebpf4jnsgd1na2vs0mg"},{"bike_id":"99bb18a5-dc65-4cbd-8473-6ec80ec7f4e5","system_id":"levelo_inurba_marseille","lat":43.29573,"lon":5.367355,"is_reserved":false,"is_disabled":false,"rental_uris":{"android":"levelo://app?vid=99bb18a5-dc65-4cbd-8473-6ec80ec7f4e5","ios":"levelo://app?vid=99bb18a5-dc65-4cbd-8473-6ec80ec7f4e5"},"vehicle_type_id":"4","last_reported":1723824666,"current_range_meters":21600,"station_id":"ce4bgph2rcd13ifvqc2g","pricing_plan_id":"cebpf4jnsgd1na2vs0mg"},{"bike_id":"4e4844b4-7803-4c28-854d-1b4042f1823a","system_id":"levelo_inurba_marseille","lat":43.29573,"lon":5.367355,"is_reserved":false,"is_disabled":false,"rental_uris":{"android":"levelo://app?vid=4e4844b4-7803-4c28-854d-1b4042f1823a","ios":"levelo://app?vid=4e4844b4-7803-4c28-854d-1b4042f1823a"},"vehicle_type_id":"4","last_reported":1723824666,"current_range_meters":14000,"station_id":"ce4bgph2rcd13ifvqc2g","pricing_plan_id":"cebpf4jnsgd1na2vs0mg"},{"bike_id":"167750f9-51db-46d2-8b8b-ce549bbab706","system_id":"levelo_inurba_marseille","lat":43.29573,"lon":5.367355,"is_reserved":false,"is_disabled":false,"rental_uris":{"android":"levelo://app?vid=167750f9-51db-46d2-8b8b-ce549bbab706","ios":"levelo://app?vid=167750f9-51db-46d2-8b8b-ce549bbab706"},"vehicle_type_id":"4","last_reported":1723824666,"current_range_meters":14000,"station_id":"ce4bgph2rcd13ifvqc2g","pricing_plan_id":"cebpf4jnsgd1na2vs0mg"},{"bike_id":"541a9855-30ca-43cc-ae81-3a910e41821a","system_id":"levelo_inurba_marseille","lat":43.29726,"lon":5.37688,"is_reserved":false,"is_disabled":false,"rental_uris":{"android":"levelo://app?vid=541a9855-30ca-43cc-ae81-3a910e41821a","ios":"levelo://app?vid=541a9855-30ca-43cc-ae81-3a910e41821a"},"vehicle_type_id":"4","last_reported":1723824666,"current_range_meters":27600,"station_id":"ce4bgkh2rcd13ifvqbl0","pricing_plan_id":"cebpf4jnsgd1na2vs0mg"},{"bike_id":"f503e6d4-7da5-4991-95c7-5b93c190f340","system_id":"levelo_inurba_marseille","lat":43.296921,"lon":5.376579,"is_reserved":false,"is_disabled":false,"rental_uris":{"android":"levelo://app?vid=f503e6d4-7da5-4991-95c7-5b93c190f340","ios":"levelo://app?vid=f503e6d4-7da5-4991-95c7-5b93c190f340"},"vehicle_type_id":"4","last_reported":1723824666,"current_range_meters":32000,"station_id":"ce4bgkh2rcd13ifvqbl0","pricing_plan_id":"cebpf4jnsgd1na2vs0mg"},{"bike_id":"e1922306-a39e-432d-990c-c1aa21c31ba7","system_id":"levelo_inurba_marseille","lat":43.296935,"lon":5.376544,"is_reserved":false,"is_disabled":false,"rental_uris":{"android":"levelo://app?vid=e1922306-a39e-432d-990c-c1aa21c31ba7","ios":"levelo://app?vid=e1922306-a39e-432d-990c-c1aa21c31ba7"},"vehicle_type_id":"4","last_reported":1723824666,"current_range_meters":14000,"station_id":"ce4bgkh2rcd13ifvqbl0","pricing_plan_id":"cebpf4jnsgd1na2vs0mg"},{"bike_id":"437ec4ac-3117-4f0e-b788-a9ec57a42201","system_id":"levelo_inurba_marseille","lat":43.299028,"lon":5.381509,"is_reserved":false,"is_disabled":false,"rental_uris":{"android":"levelo://app?vid=437ec4ac-3117-4f0e-b788-a9ec57a42201","ios":"levelo://app?vid=437ec4ac-3117-4f0e-b788-a9ec57a42201"},"vehicle_type_id":"4","last_reported":1723824666,"current_range_meters":30000,"station_id":"ce4bgj12rcd13ifvqbc0","pricing_plan_id":"cebpf4jnsgd1na2vs0mg"},{"bike_id":"61819ee7-dfd2-440d-8621-66e8637b277e","system_id":"levelo_inurba_marseille","lat":43.299028,"lon":5.381509,"is_reserved":false,"is_disabled":false,"rental_uris":{"android":"levelo://app?vid=61819ee7-dfd2-440d-8621-66e8637b277e","ios":"levelo://app?vid=61819ee7-dfd2-440d-8621-66e8637b277e"},"vehicle_type_id":"4","last_reported":1723824666,"current_range_meters":4800,"station_id":"ce4bgj12rcd13ifvqbc0","pricing_plan_id":"cebpf4jnsgd1na2vs0mg"},{"bike_id":"0d27e456-dc49-44ae-b967-94b03e8495ba","system_id":"levelo_inurba_marseille","lat":43.296921,"lon":5.376579,"is_reserved":false,"is_disabled":false,"rental_uris":{"android":"levelo://app?vid=0d27e456-dc49-44ae-b967-94b03e8495ba","ios":"levelo://app?vid=0d27e456-dc49-44ae-b967-94b03e8495ba"},"vehicle_type_id":"4","last_reported":1723824666,"current_range_meters":3200,"station_id":"ce4bgkh2rcd13ifvqbl0","pricing_plan_id":"cebpf4jnsgd1na2vs0mg"},{"bike_id":"af853860-9b31-4d60-892c-f9b32db111ba","system_id":"levelo_inurba_marseille","lat":43.299028,"lon":5.381509,"is_reserved":false,"is_disabled":false,"rental_uris":{"android":"levelo://app?vid=af853860-9b31-4d60-892c-f9b32db111ba","ios":"levelo://app?vid=af853860-9b31-4d60-892c-f9b32db111ba"},"vehicle_type_id":"4","last_reported":1723824666,"current_range_meters":26000,"station_id":"ce4bgj12rcd13ifvqbc0","pricing_plan_id":"cebpf4jnsgd1na2vs0mg"},{"bike_id":"55633ec7-1a8b-451d-9942-531809147dbc","system_id":"levelo_inurba_marseille","lat":43.299028,"lon":5.381509,"is_reserved":false,"is_disabled":false,"rental_uris":{"android":"levelo://app?vid=55633ec7-1a8b-451d-9942-531809147dbc","ios":"levelo://app?vid=55633ec7-1a8b-451d-9942-531809147dbc"},"vehicle_type_id":"4","last_reported":1723824666,"current_range_meters":16400,"station_id":"ce4bgj12rcd13ifvqbc0","pricing_plan_id":"cebpf4jnsgd1na2vs0mg"},{"bike_id":"097d2e9b-3940-4663-8c4a-a9dab44c6385","system_id":"levelo_inurba_marseille","lat":43.299028,"lon":5.381509,"is_reserved":false,"is_disabled":false,"rental_uris":{"android":"levelo://app?vid=097d2e9b-3940-4663-8c4a-a9dab44c6385","ios":"levelo://app?vid=097d2e9b-3940-4663-8c4a-a9dab44c6385"},"vehicle_type_id":"4","last_reported":1723824666,"current_range_meters":26400,"station_id":"ce4bgj12rcd13ifvqbc0","pricing_plan_id":"cebpf4jnsgd1na2vs0mg"},{"bike_id":"c99b63f4-d4a1-4b83-b43c-4d397b560c35","system_id":"levelo_inurba_marseille","lat":43.299028,"lon":5.381509,"is_reserved":false,"is_disabled":false,"rental_uris":{"android":"levelo://app?vid=c99b63f4-d4a1-4b83-b43c-4d397b560c35","ios":"levelo://app?vid=c99b63f4-d4a1-4b83-b43c-4d397b560c35"},"vehicle_type_id":"4","last_reported":1723824666,"current_range_meters":7600,"station_id":"ce4bgj12rcd13ifvqbc0","pricing_plan_id":"cebpf4jnsgd1na2vs0mg"},{"bike_id":"2012bc7d-c36b-4b2d-972c-ad032d8fc9e4","system_id":"levelo_inurba_marseille","lat":43.296921,"lon":5.376579,"is_reserved":false,"is_disabled":false,"rental_uris":{"android":"levelo://app?vid=2012bc7d-c36b-4b2d-972c-ad032d8fc9e4","ios":"levelo://app?vid=2012bc7d-c36b-4b2d-972c-ad032d8fc9e4"},"vehicle_type_id":"4","last_reported":1723824666,"current_range_meters":24400,"station_id":"ce4bgkh2rcd13ifvqbl0","pricing_plan_id":"cebpf4jnsgd1na2vs0mg"},{"bike_id":"db6cefed-7425-468f-8ee1-4d22cab99f17","system_id":"levelo_inurba_marseille","lat":43.299028,"lon":5.381509,"is_reserved":false,"is_disabled":false,"rental_uris":{"android":"levelo://app?vid=db6cefed-7425-468f-8ee1-4d22cab99f17","ios":"levelo://app?vid=db6cefed-7425-468f-8ee1-4d22cab99f17"},"vehicle_type_id":"4","last_reported":1723824666,"current_range_meters":22000,"station_id":"ce4bgj12rcd13ifvqbc0","pricing_plan_id":"cebpf4jnsgd1na2vs0mg"},{"bike_id":"4fefe471-d322-43fc-9d7a-be9442025b15","system_id":"levelo_inurba_marseille","lat":43.309589,"lon":5.390258,"is_reserved":false,"is_disabled":false,"rental_uris":{"android":"levelo://app?vid=4fefe471-d322-43fc-9d7a-be9442025b15","ios":"levelo://app?vid=4fefe471-d322-43fc-9d7a-be9442025b15"},"vehicle_type_id":"4","last_reported":1723824666,"current_range_meters":26800,"station_id":"ce4bgup2rcd13ifvqco0","pricing_plan_id":"cebpf4jnsgd1na2vs0mg"},{"bike_id":"7ff8e16c-3cbf-4fd1-9c8a-9d2a356c11e3","system_id":"levelo_inurba_marseille","lat":43.299028,"lon":5.381509,"is_reserved":false,"is_disabled":false,"rental_uris":{"android":"levelo://app?vid=7ff8e16c-3cbf-4fd1-9c8a-9d2a356c11e3","ios":"levelo://app?vid=7ff8e16c-3cbf-4fd1-9c8a-9d2a356c11e3"},"vehicle_type_id":"4","last_reported":1723824666,"current_range_meters":14800,"station_id":"ce4bgj12rcd13ifvqbc0","pricing_plan_id":"cebpf4jnsgd1na2vs0mg"},{"bike_id":"184a8269-b0ca-4706-acf7-ccdc8e50392b","system_id":"levelo_inurba_marseille","lat":43.29907,"lon":5.38142,"is_reserved":false,"is_disabled":false,"rental_uris":{"android":"levelo://app?vid=184a8269-b0ca-4706-acf7-ccdc8e50392b","ios":"levelo://app?vid=184a8269-b0ca-4706-acf7-ccdc8e50392b"},"vehicle_type_id":"4","last_reported":1723824666,"current_range_meters":3200,"station_id":"ce4bgj12rcd13ifvqbc0","pricing_plan_id":"cebpf4jnsgd1na2vs0mg"},{"bike_id":"d6aca7b3-ea9e-46ea-893e-a103aa9edfa2","system_id":"levelo_inurba_marseille","lat":43.309589,"lon":5.390258,"is_reserved":false,"is_disabled":false,"rental_uris":{"android":"levelo://app?vid=d6aca7b3-ea9e-46ea-893e-a103aa9edfa2","ios":"levelo://app?vid=d6aca7b3-ea9e-46ea-893e-a103aa9edfa2"},"vehicle_type_id":"4","last_reported":1723824666,"current_range_meters":26800,"station_id":"ce4bgup2rcd13ifvqco0","pricing_plan_id":"cebpf4jnsgd1na2vs0mg"},{"bike_id":"6d19e127-ea28-4fae-9ea9-63fc26ca6ad5","system_id":"levelo_inurba_marseille","lat":43.299028,"lon":5.381509,"is_reserved":false,"is_disabled":false,"rental_uris":{"android":"levelo://app?vid=6d19e127-ea28-4fae-9ea9-63fc26ca6ad5","ios":"levelo://app?vid=6d19e127-ea28-4fae-9ea9-63fc26ca6ad5"},"vehicle_type_id":"4","last_reported":1723824666,"current_range_meters":30000,"station_id":"ce4bgj12rcd13ifvqbc0","pricing_plan_id":"cebpf4jnsgd1na2vs0mg"},{"bike_id":"020407a5-9b64-4158-8cab-8faa159ba5ec","system_id":"levelo_inurba_marseille","lat":43.317557,"lon":5.390173,"is_reserved":false,"is_disabled":false,"rental_uris":{"android":"levelo://app?vid=020407a5-9b64-4158-8cab-8faa159ba5ec","ios":"levelo://app?vid=020407a5-9b64-4158-8cab-8faa159ba5ec"},"vehicle_type_id":"4","last_reported":1723824666,"current_range_meters":8800,"station_id":"ce4bhqp2rcd13ifvqhng","pricing_plan_id":"cebpf4jnsgd1na2vs0mg"},{"bike_id":"5fdd442c-d04f-4271-ac3d-3d9ce980f35d","system_id":"levelo_inurba_marseille","lat":43.317557,"lon":5.390173,"is_reserved":false,"is_disabled":false,"rental_uris":{"android":"levelo://app?vid=5fdd442c-d04f-4271-ac3d-3d9ce980f35d","ios":"levelo://app?vid=5fdd442c-d04f-4271-ac3d-3d9ce980f35d"},"vehicle_type_id":"4","last_reported":1723824666,"current_range_meters":20400,"station_id":"ce4bhqp2rcd13ifvqhng","pricing_plan_id":"cebpf4jnsgd1na2vs0mg"},{"bike_id":"6170d0b4-d7b2-4211-9f21-31450160d96c","system_id":"levelo_inurba_marseille","lat":43.317557,"lon":5.390173,"is_reserved":false,"is_disabled":false,"rental_uris":{"android":"levelo://app?vid=6170d0b4-d7b2-4211-9f21-31450160d96c","ios":"levelo://app?vid=6170d0b4-d7b2-4211-9f21-31450160d96c"},"vehicle_type_id":"4","last_reported":1723824666,"current_range_meters":16400,"station_id":"ce4bhqp2rcd13ifvqhng","pricing_plan_id":"cebpf4jnsgd1na2vs0mg"},{"bike_id":"db8bf8a1-d46c-4a27-b15d-916cfe310c4f","system_id":"levelo_inurba_marseille","lat":43.317557,"lon":5.390173,"is_reserved":false,"is_disabled":false,"rental_uris":{"android":"levelo://app?vid=db8bf8a1-d46c-4a27-b15d-916cfe310c4f","ios":"levelo://app?vid=db8bf8a1-d46c-4a27-b15d-916cfe310c4f"},"vehicle_type_id":"4","last_reported":1723824666,"current_range_meters":12000,"station_id":"ce4bhqp2rcd13ifvqhng","pricing_plan_id":"cebpf4jnsgd1na2vs0mg"},{"bike_id":"96de4920-b221-4316-8aa6-538ee4b9fb79","system_id":"levelo_inurba_marseille","lat":43.298987,"lon":5.38212,"is_reserved":false,"is_disabled":false,"rental_uris":{"android":"levelo://app?vid=96de4920-b221-4316-8aa6-538ee4b9fb79","ios":"levelo://app?vid=96de4920-b221-4316-8aa6-538ee4b9fb79"},"vehicle_type_id":"4","last_reported":1723824666,"current_range_meters":21200,"station_id":"ce4bgj12rcd13ifvqbc0","pricing_plan_id":"cebpf4jnsgd1na2vs0mg"},{"bike_id":"864dbf84-46a8-4a39-9e14-a484ee7bed9e","system_id":"levelo_inurba_marseille","lat":43.29747,"lon":5.37937,"is_reserved":false,"is_disabled":false,"rental_uris":{"android":"levelo://app?vid=864dbf84-46a8-4a39-9e14-a484ee7bed9e","ios":"levelo://app?vid=864dbf84-46a8-4a39-9e14-a484ee7bed9e"},"vehicle_type_id":"4","last_reported":1723824666,"current_range_meters":10400,"station_id":"","pricing_plan_id":"cebpf4jnsgd1na2vs0mg"},{"bike_id":"ed30e008-7301-44dd-8497-8284690b609b","system_id":"levelo_inurba_marseille","lat":43.298037,"lon":5.381066,"is_reserved":false,"is_disabled":false,"rental_uris":{"android":"levelo://app?vid=ed30e008-7301-44dd-8497-8284690b609b","ios":"levelo://app?vid=ed30e008-7301-44dd-8497-8284690b609b"},"vehicle_type_id":"4","last_reported":1723824666,"current_range_meters":23200,"station_id":"ce4bgip2rcd13ifvqbb0","pricing_plan_id":"cebpf4jnsgd1na2vs0mg"},{"bike_id":"904dda20-8fc3-437a-abf0-60dd84fcd6da","system_id":"levelo_inurba_marseille","lat":43.297933,"lon":5.381037,"is_reserved":false,"is_disabled":false,"rental_uris":{"android":"levelo://app?vid=904dda20-8fc3-437a-abf0-60dd84fcd6da","ios":"levelo://app?vid=904dda20-8fc3-437a-abf0-60dd84fcd6da"},"vehicle_type_id":"4","last_reported":1723824666,"current_range_meters":0,"station_id":"ce4bgip2rcd13ifvqbb0","pricing_plan_id":"cebpf4jnsgd1na2vs0mg"},{"bike_id":"428c5b11-bbf9-47f7-b870-5d19481cb778","system_id":"levelo_inurba_marseille","lat":43.304278,"lon":5.388868,"is_reserved":false,"is_disabled":false,"rental_uris":{"android":"levelo://app?vid=428c5b11-bbf9-47f7-b870-5d19481cb778","ios":"levelo://app?vid=428c5b11-bbf9-47f7-b870-5d19481cb778"},"vehicle_type_id":"4","last_reported":1723824666,"current_range_meters":17600,"station_id":"ce4bgk12rcd13ifvqbi0","pricing_plan_id":"cebpf4jnsgd1na2vs0mg"},{"bike_id":"e3e143d5-3ec8-4f74-8cb8-ab1485439bca","system_id":"levelo_inurba_marseille","lat":43.304278,"lon":5.388868,"is_reserved":false,"is_disabled":false,"rental_uris":{"android":"levelo://app?vid=e3e143d5-3ec8-4f74-8cb8-ab1485439bca","ios":"levelo://app?vid=e3e143d5-3ec8-4f74-8cb8-ab1485439bca"},"vehicle_type_id":"4","last_reported":1723824666,"current_range_meters":10800,"station_id":"ce4bgk12rcd13ifvqbi0","pricing_plan_id":"cebpf4jnsgd1na2vs0mg"},{"bike_id":"d9edcea9-1c1b-4a65-ac05-ef8f45b24b0c","system_id":"levelo_inurba_marseille","lat":43.296277,"lon":5.377108,"is_reserved":false,"is_disabled":false,"rental_uris":{"android":"levelo://app?vid=d9edcea9-1c1b-4a65-ac05-ef8f45b24b0c","ios":"levelo://app?vid=d9edcea9-1c1b-4a65-ac05-ef8f45b24b0c"},"vehicle_type_id":"4","last_reported":1723824666,"current_range_meters":2400,"station_id":"ce4bgi92rcd13ifvqb90","pricing_plan_id":"cebpf4jnsgd1na2vs0mg"},{"bike_id":"0d3e1d2e-08d1-4417-8b20-083a058fdb0f","system_id":"levelo_inurba_marseille","lat":43.296263,"lon":5.377094,"is_reserved":false,"is_disabled":false,"rental_uris":{"android":"levelo://app?vid=0d3e1d2e-08d1-4417-8b20-083a058fdb0f","ios":"levelo://app?vid=0d3e1d2e-08d1-4417-8b20-083a058fdb0f"},"vehicle_type_id":"4","last_reported":1723824666,"current_range_meters":10400,"station_id":"ce4bgi92rcd13ifvqb90","pricing_plan_id":"cebpf4jnsgd1na2vs0mg"},{"bike_id":"7f7593fb-710c-4c93-81e8-2334763208fa","system_id":"levelo_inurba_marseille","lat":43.296277,"lon":5.377108,"is_reserved":false,"is_disabled":false,"rental_uris":{"android":"levelo://app?vid=7f7593fb-710c-4c93-81e8-2334763208fa","ios":"levelo://app?vid=7f7593fb-710c-4c93-81e8-2334763208fa"},"vehicle_type_id":"4","last_reported":1723824666,"current_range_meters":10000,"station_id":"ce4bgi92rcd13ifvqb90","pricing_plan_id":"cebpf4jnsgd1na2vs0mg"},{"bike_id":"a3e16ee8-bb75-48af-847c-cd85a4eecd0e","system_id":"levelo_inurba_marseille","lat":43.296277,"lon":5.377108,"is_reserved":false,"is_disabled":false,"rental_uris":{"android":"levelo://app?vid=a3e16ee8-bb75-48af-847c-cd85a4eecd0e","ios":"levelo://app?vid=a3e16ee8-bb75-48af-847c-cd85a4eecd0e"},"vehicle_type_id":"4","last_reported":1723824666,"current_range_meters":6800,"station_id":"ce4bgi92rcd13ifvqb90","pricing_plan_id":"cebpf4jnsgd1na2vs0mg"},{"bike_id":"a9158f93-9b76-442b-91c8-06b7f8e3c17d","system_id":"levelo_inurba_marseille","lat":43.299707,"lon":5.384859,"is_reserved":false,"is_disabled":false,"rental_uris":{"android":"levelo://app?vid=a9158f93-9b76-442b-91c8-06b7f8e3c17d","ios":"levelo://app?vid=a9158f93-9b76-442b-91c8-06b7f8e3c17d"},"vehicle_type_id":"4","last_reported":1723824666,"current_range_meters":31600,"station_id":"ce4bgj92rcd13ifvqbd0","pricing_plan_id":"cebpf4jnsgd1na2vs0mg"},{"bike_id":"d302fc25-c955-4ee9-b07b-cec8f4ffdd8e","system_id":"levelo_inurba_marseille","lat":43.296263,"lon":5.377094,"is_reserved":false,"is_disabled":false,"rental_uris":{"android":"levelo://app?vid=d302fc25-c955-4ee9-b07b-cec8f4ffdd8e","ios":"levelo://app?vid=d302fc25-c955-4ee9-b07b-cec8f4ffdd8e"},"vehicle_type_id":"4","last_reported":1723824666,"current_range_meters":28400,"station_id":"ce4bgi92rcd13ifvqb90","pricing_plan_id":"cebpf4jnsgd1na2vs0mg"},{"bike_id":"b0121287-6389-498e-9b44-17f7b84a03da","system_id":"levelo_inurba_marseille","lat":43.296277,"lon":5.377108,"is_reserved":false,"is_disabled":false,"rental_uris":{"android":"levelo://app?vid=b0121287-6389-498e-9b44-17f7b84a03da","ios":"levelo://app?vid=b0121287-6389-498e-9b44-17f7b84a03da"},"vehicle_type_id":"4","last_reported":1723824666,"current_range_meters":7600,"station_id":"ce4bgi92rcd13ifvqb90","pricing_plan_id":"cebpf4jnsgd1na2vs0mg"},{"bike_id":"96977407-618a-41f3-af43-a193b0c30de1","system_id":"levelo_inurba_marseille","lat":43.296277,"lon":5.377108,"is_reserved":false,"is_disabled":false,"rental_uris":{"android":"levelo://app?vid=96977407-618a-41f3-af43-a193b0c30de1","ios":"levelo://app?vid=96977407-618a-41f3-af43-a193b0c30de1"},"vehicle_type_id":"4","last_reported":1723824666,"current_range_meters":16000,"station_id":"ce4bgi92rcd13ifvqb90","pricing_plan_id":"cebpf4jnsgd1na2vs0mg"},{"bike_id":"cae6c69f-1206-4df5-9b3d-23afd158aa9e","system_id":"levelo_inurba_marseille","lat":43.296277,"lon":5.377108,"is_reserved":false,"is_disabled":false,"rental_uris":{"android":"levelo://app?vid=cae6c69f-1206-4df5-9b3d-23afd158aa9e","ios":"levelo://app?vid=cae6c69f-1206-4df5-9b3d-23afd158aa9e"},"vehicle_type_id":"4","last_reported":1723824666,"current_range_meters":23600,"station_id":"ce4bgi92rcd13ifvqb90","pricing_plan_id":"cebpf4jnsgd1na2vs0mg"},{"bike_id":"d652297b-d8cd-4a14-8a08-c7496afe7c8a","system_id":"levelo_inurba_marseille","lat":43.296263,"lon":5.377094,"is_reserved":false,"is_disabled":false,"rental_uris":{"android":"levelo://app?vid=d652297b-d8cd-4a14-8a08-c7496afe7c8a","ios":"levelo://app?vid=d652297b-d8cd-4a14-8a08-c7496afe7c8a"},"vehicle_type_id":"4","last_reported":1723824666,"current_range_meters":4800,"station_id":"ce4bgi92rcd13ifvqb90","pricing_plan_id":"cebpf4jnsgd1na2vs0mg"},{"bike_id":"db2bb809-29d2-4c1d-8777-174beed4a6db","system_id":"levelo_inurba_marseille","lat":43.295279,"lon":5.375048,"is_reserved":false,"is_disabled":false,"rental_uris":{"android":"levelo://app?vid=db2bb809-29d2-4c1d-8777-174beed4a6db","ios":"levelo://app?vid=db2bb809-29d2-4c1d-8777-174beed4a6db"},"vehicle_type_id":"4","last_reported":1723824666,"current_range_meters":12000,"station_id":"ce4bgkp2rcd13ifvqbmg","pricing_plan_id":"cebpf4jnsgd1na2vs0mg"},{"bike_id":"337579a2-6c25-47c5-b875-44631b706d4f","system_id":"levelo_inurba_marseille","lat":43.296277,"lon":5.377108,"is_reserved":false,"is_disabled":false,"rental_uris":{"android":"levelo://app?vid=337579a2-6c25-47c5-b875-44631b706d4f","ios":"levelo://app?vid=337579a2-6c25-47c5-b875-44631b706d4f"},"vehicle_type_id":"4","last_reported":1723824666,"current_range_meters":12400,"station_id":"ce4bgi92rcd13ifvqb90","pricing_plan_id":"cebpf4jnsgd1na2vs0mg"},{"bike_id":"98c44855-0348-4d0f-a5e4-2d7b488e7592","system_id":"levelo_inurba_marseille","lat":43.295279,"lon":5.375048,"is_reserved":false,"is_disabled":false,"rental_uris":{"android":"levelo://app?vid=98c44855-0348-4d0f-a5e4-2d7b488e7592","ios":"levelo://app?vid=98c44855-0348-4d0f-a5e4-2d7b488e7592"},"vehicle_type_id":"4","last_reported":1723824666,"current_range_meters":0,"station_id":"ce4bgkp2rcd13ifvqbmg","pricing_plan_id":"cebpf4jnsgd1na2vs0mg"},{"bike_id":"fd86ab5b-d2fc-497a-b450-758daf77b267","system_id":"levelo_inurba_marseille","lat":43.295279,"lon":5.375048,"is_reserved":false,"is_disabled":false,"rental_uris":{"android":"levelo://app?vid=fd86ab5b-d2fc-497a-b450-758daf77b267","ios":"levelo://app?vid=fd86ab5b-d2fc-497a-b450-758daf77b267"},"vehicle_type_id":"4","last_reported":1723824666,"current_range_meters":5600,"station_id":"ce4bgkp2rcd13ifvqbmg","pricing_plan_id":"cebpf4jnsgd1na2vs0mg"},{"bike_id":"f3e2f630-43d3-4b8f-bdc0-8722f0cb7d0d","system_id":"levelo_inurba_marseille","lat":43.295279,"lon":5.375048,"is_reserved":false,"is_disabled":false,"rental_uris":{"android":"levelo://app?vid=f3e2f630-43d3-4b8f-bdc0-8722f0cb7d0d","ios":"levelo://app?vid=f3e2f630-43d3-4b8f-bdc0-8722f0cb7d0d"},"vehicle_type_id":"4","last_reported":1723824666,"current_range_meters":1200,"station_id":"ce4bgkp2rcd13ifvqbmg","pricing_plan_id":"cebpf4jnsgd1na2vs0mg"},{"bike_id":"ad5b4922-72a4-4900-83f8-f738c75bea60","system_id":"levelo_inurba_marseille","lat":43.295279,"lon":5.375048,"is_reserved":false,"is_disabled":false,"rental_uris":{"android":"levelo://app?vid=ad5b4922-72a4-4900-83f8-f738c75bea60","ios":"levelo://app?vid=ad5b4922-72a4-4900-83f8-f738c75bea60"},"vehicle_type_id":"4","last_reported":1723824666,"current_range_meters":7600,"station_id":"ce4bgkp2rcd13ifvqbmg","pricing_plan_id":"cebpf4jnsgd1na2vs0mg"},{"bike_id":"41ff9e71-4e53-49c5-9222-3a470185a966","system_id":"levelo_inurba_marseille","lat":43.296277,"lon":5.377108,"is_reserved":false,"is_disabled":false,"rental_uris":{"android":"levelo://app?vid=41ff9e71-4e53-49c5-9222-3a470185a966","ios":"levelo://app?vid=41ff9e71-4e53-49c5-9222-3a470185a966"},"vehicle_type_id":"4","last_reported":1723824666,"current_range_meters":30400,"station_id":"ce4bgi92rcd13ifvqb90","pricing_plan_id":"cebpf4jnsgd1na2vs0mg"},{"bike_id":"5b4417c6-165b-4da9-9b81-f5e5e6beedae","system_id":"levelo_inurba_marseille","lat":43.295279,"lon":5.375048,"is_reserved":false,"is_disabled":false,"rental_uris":{"android":"levelo://app?vid=5b4417c6-165b-4da9-9b81-f5e5e6beedae","ios":"levelo://app?vid=5b4417c6-165b-4da9-9b81-f5e5e6beedae"},"vehicle_type_id":"4","last_reported":1723824666,"current_range_meters":23600,"station_id":"ce4bgkp2rcd13ifvqbmg","pricing_plan_id":"cebpf4jnsgd1na2vs0mg"},{"bike_id":"53391472-6a44-4ddb-a53a-7631134825a7","system_id":"levelo_inurba_marseille","lat":43.295279,"lon":5.375048,"is_reserved":false,"is_disabled":false,"rental_uris":{"android":"levelo://app?vid=53391472-6a44-4ddb-a53a-7631134825a7","ios":"levelo://app?vid=53391472-6a44-4ddb-a53a-7631134825a7"},"vehicle_type_id":"4","last_reported":1723824666,"current_range_meters":11200,"station_id":"ce4bgkp2rcd13ifvqbmg","pricing_plan_id":"cebpf4jnsgd1na2vs0mg"},{"bike_id":"1c4ba3fc-25a3-45f2-934d-ae30ac381ce4","system_id":"levelo_inurba_marseille","lat":43.299707,"lon":5.384859,"is_reserved":false,"is_disabled":false,"rental_uris":{"android":"levelo://app?vid=1c4ba3fc-25a3-45f2-934d-ae30ac381ce4","ios":"levelo://app?vid=1c4ba3fc-25a3-45f2-934d-ae30ac381ce4"},"vehicle_type_id":"4","last_reported":1723824666,"current_range_meters":24800,"station_id":"ce4bgj92rcd13ifvqbd0","pricing_plan_id":"cebpf4jnsgd1na2vs0mg"},{"bike_id":"86aafbba-681a-40aa-a507-e2706a2c69a2","system_id":"levelo_inurba_marseille","lat":43.299707,"lon":5.384859,"is_reserved":false,"is_disabled":false,"rental_uris":{"android":"levelo://app?vid=86aafbba-681a-40aa-a507-e2706a2c69a2","ios":"levelo://app?vid=86aafbba-681a-40aa-a507-e2706a2c69a2"},"vehicle_type_id":"4","last_reported":1723824666,"current_range_meters":31200,"station_id":"ce4bgj92rcd13ifvqbd0","pricing_plan_id":"cebpf4jnsgd1na2vs0mg"},{"bike_id":"c9c6d8ea-9733-47c8-9072-c41baa2ad1aa","system_id":"levelo_inurba_marseille","lat":43.29972,"lon":5.38491,"is_reserved":false,"is_disabled":false,"rental_uris":{"android":"levelo://app?vid=c9c6d8ea-9733-47c8-9072-c41baa2ad1aa","ios":"levelo://app?vid=c9c6d8ea-9733-47c8-9072-c41baa2ad1aa"},"vehicle_type_id":"4","last_reported":1723824666,"current_range_meters":31600,"station_id":"ce4bgj92rcd13ifvqbd0","pricing_plan_id":"cebpf4jnsgd1na2vs0mg"},{"bike_id":"974154e5-093f-4537-8160-dd330fc76501","system_id":"levelo_inurba_marseille","lat":43.299717,"lon":5.384845,"is_reserved":false,"is_disabled":false,"rental_uris":{"android":"levelo://app?vid=974154e5-093f-4537-8160-dd330fc76501","ios":"levelo://app?vid=974154e5-093f-4537-8160-dd330fc76501"},"vehicle_type_id":"4","last_reported":1723824666,"current_range_meters":27600,"station_id":"ce4bgj92rcd13ifvqbd0","pricing_plan_id":"cebpf4jnsgd1na2vs0mg"},{"bike_id":"c8572be2-f88d-4f77-be45-9219acb16225","system_id":"levelo_inurba_marseille","lat":43.299707,"lon":5.384859,"is_reserved":false,"is_disabled":false,"rental_uris":{"android":"levelo://app?vid=c8572be2-f88d-4f77-be45-9219acb16225","ios":"levelo://app?vid=c8572be2-f88d-4f77-be45-9219acb16225"},"vehicle_type_id":"4","last_reported":1723824666,"current_range_meters":10800,"station_id":"ce4bgj92rcd13ifvqbd0","pricing_plan_id":"cebpf4jnsgd1na2vs0mg"},{"bike_id":"ccc5c506-a7d2-4497-ac41-1edc953ad97c","system_id":"levelo_inurba_marseille","lat":43.295279,"lon":5.375048,"is_reserved":false,"is_disabled":false,"rental_uris":{"android":"levelo://app?vid=ccc5c506-a7d2-4497-ac41-1edc953ad97c","ios":"levelo://app?vid=ccc5c506-a7d2-4497-ac41-1edc953ad97c"},"vehicle_type_id":"4","last_reported":1723824666,"current_range_meters":14400,"station_id":"ce4bgkp2rcd13ifvqbmg","pricing_plan_id":"cebpf4jnsgd1na2vs0mg"},{"bike_id":"d65801f0-cc36-447a-a530-08262f8958b5","system_id":"levelo_inurba_marseille","lat":43.29974,"lon":5.38495,"is_reserved":false,"is_disabled":false,"rental_uris":{"android":"levelo://app?vid=d65801f0-cc36-447a-a530-08262f8958b5","ios":"levelo://app?vid=d65801f0-cc36-447a-a530-08262f8958b5"},"vehicle_type_id":"4","last_reported":1723824666,"current_range_meters":13600,"station_id":"ce4bgj92rcd13ifvqbd0","pricing_plan_id":"cebpf4jnsgd1na2vs0mg"},{"bike_id":"d5107e52-1857-43fd-ad42-ebb91b707944","system_id":"levelo_inurba_marseille","lat":43.295279,"lon":5.375048,"is_reserved":false,"is_disabled":false,"rental_uris":{"android":"levelo://app?vid=d5107e52-1857-43fd-ad42-ebb91b707944","ios":"levelo://app?vid=d5107e52-1857-43fd-ad42-ebb91b707944"},"vehicle_type_id":"4","last_reported":1723824666,"current_range_meters":26000,"station_id":"ce4bgkp2rcd13ifvqbmg","pricing_plan_id":"cebpf4jnsgd1na2vs0mg"},{"bike_id":"c497d1f4-10af-4c11-bbac-d6df3194dfe6","system_id":"levelo_inurba_marseille","lat":43.299707,"lon":5.384859,"is_reserved":false,"is_disabled":false,"rental_uris":{"android":"levelo://app?vid=c497d1f4-10af-4c11-bbac-d6df3194dfe6","ios":"levelo://app?vid=c497d1f4-10af-4c11-bbac-d6df3194dfe6"},"vehicle_type_id":"4","last_reported":1723824666,"current_range_meters":20400,"station_id":"ce4bgj92rcd13ifvqbd0","pricing_plan_id":"cebpf4jnsgd1na2vs0mg"},{"bike_id":"28b48d12-c4d8-4f1c-a582-da3ba6743f65","system_id":"levelo_inurba_marseille","lat":43.2997,"lon":5.38496,"is_reserved":false,"is_disabled":false,"rental_uris":{"android":"levelo://app?vid=28b48d12-c4d8-4f1c-a582-da3ba6743f65","ios":"levelo://app?vid=28b48d12-c4d8-4f1c-a582-da3ba6743f65"},"vehicle_type_id":"4","last_reported":1723824666,"current_range_meters":24400,"station_id":"ce4bgj92rcd13ifvqbd0","pricing_plan_id":"cebpf4jnsgd1na2vs0mg"},{"bike_id":"2e3733d7-80a3-4586-9006-5bdfe26db5ba","system_id":"levelo_inurba_marseille","lat":43.299707,"lon":5.384859,"is_reserved":false,"is_disabled":false,"rental_uris":{"android":"levelo://app?vid=2e3733d7-80a3-4586-9006-5bdfe26db5ba","ios":"levelo://app?vid=2e3733d7-80a3-4586-9006-5bdfe26db5ba"},"vehicle_type_id":"4","last_reported":1723824666,"current_range_meters":31600,"station_id":"ce4bgj92rcd13ifvqbd0","pricing_plan_id":"cebpf4jnsgd1na2vs0mg"},{"bike_id":"011b3a54-222f-46a3-82e7-f28f91d37151","system_id":"levelo_inurba_marseille","lat":43.29966,"lon":5.38499,"is_reserved":false,"is_disabled":false,"rental_uris":{"android":"levelo://app?vid=011b3a54-222f-46a3-82e7-f28f91d37151","ios":"levelo://app?vid=011b3a54-222f-46a3-82e7-f28f91d37151"},"vehicle_type_id":"4","last_reported":1723824666,"current_range_meters":23600,"station_id":"ce4bgj92rcd13ifvqbd0","pricing_plan_id":"cebpf4jnsgd1na2vs0mg"},{"bike_id":"85b189b2-ec1c-4ba0-83e6-cfa8c024f644","system_id":"levelo_inurba_marseille","lat":43.29963,"lon":5.385,"is_reserved":false,"is_disabled":false,"rental_uris":{"android":"levelo://app?vid=85b189b2-ec1c-4ba0-83e6-cfa8c024f644","ios":"levelo://app?vid=85b189b2-ec1c-4ba0-83e6-cfa8c024f644"},"vehicle_type_id":"4","last_reported":1723824666,"current_range_meters":28800,"station_id":"ce4bgj92rcd13ifvqbd0","pricing_plan_id":"cebpf4jnsgd1na2vs0mg"},{"bike_id":"1454b225-ed80-4886-9720-597cdba25a46","system_id":"levelo_inurba_marseille","lat":43.29961,"lon":5.38501,"is_reserved":false,"is_disabled":false,"rental_uris":{"android":"levelo://app?vid=1454b225-ed80-4886-9720-597cdba25a46","ios":"levelo://app?vid=1454b225-ed80-4886-9720-597cdba25a46"},"vehicle_type_id":"4","last_reported":1723824666,"current_range_meters":15600,"station_id":"ce4bgj92rcd13ifvqbd0","pricing_plan_id":"cebpf4jnsgd1na2vs0mg"},{"bike_id":"be20f751-57a4-448f-b42a-bfaa3ac464ae","system_id":"levelo_inurba_marseille","lat":43.29958,"lon":5.38499,"is_reserved":false,"is_disabled":false,"rental_uris":{"android":"levelo://app?vid=be20f751-57a4-448f-b42a-bfaa3ac464ae","ios":"levelo://app?vid=be20f751-57a4-448f-b42a-bfaa3ac464ae"},"vehicle_type_id":"4","last_reported":1723824666,"current_range_meters":18000,"station_id":"ce4bgj92rcd13ifvqbd0","pricing_plan_id":"cebpf4jnsgd1na2vs0mg"},{"bike_id":"29c19d5c-3e19-4a65-bd28-76776889b537","system_id":"levelo_inurba_marseille","lat":43.29963,"lon":5.3851,"is_reserved":false,"is_disabled":false,"rental_uris":{"android":"levelo://app?vid=29c19d5c-3e19-4a65-bd28-76776889b537","ios":"levelo://app?vid=29c19d5c-3e19-4a65-bd28-76776889b537"},"vehicle_type_id":"4","last_reported":1723824666,"current_range_meters":31600,"station_id":"ce4bgj92rcd13ifvqbd0","pricing_plan_id":"cebpf4jnsgd1na2vs0mg"},{"bike_id":"71d959ec-82d1-412e-80fb-ca8a4a55b26d","system_id":"levelo_inurba_marseille","lat":43.295279,"lon":5.375048,"is_reserved":false,"is_disabled":false,"rental_uris":{"android":"levelo://app?vid=71d959ec-82d1-412e-80fb-ca8a4a55b26d","ios":"levelo://app?vid=71d959ec-82d1-412e-80fb-ca8a4a55b26d"},"vehicle_type_id":"4","last_reported":1723824666,"current_range_meters":17200,"station_id":"ce4bgkp2rcd13ifvqbmg","pricing_plan_id":"cebpf4jnsgd1na2vs0mg"},{"bike_id":"c0b4827c-2685-4da8-b816-65146719ef96","system_id":"levelo_inurba_marseille","lat":43.299571,"lon":5.385285,"is_reserved":false,"is_disabled":false,"rental_uris":{"android":"levelo://app?vid=c0b4827c-2685-4da8-b816-65146719ef96","ios":"levelo://app?vid=c0b4827c-2685-4da8-b816-65146719ef96"},"vehicle_type_id":"4","last_reported":1723824666,"current_range_meters":8800,"station_id":"","pricing_plan_id":"cebpf4jnsgd1na2vs0mg"},{"bike_id":"95516c70-d8dc-4460-8c76-2cb7b847cd24","system_id":"levelo_inurba_marseille","lat":43.300795,"lon":5.386932,"is_reserved":false,"is_disabled":false,"rental_uris":{"android":"levelo://app?vid=95516c70-d8dc-4460-8c76-2cb7b847cd24","ios":"levelo://app?vid=95516c70-d8dc-4460-8c76-2cb7b847cd24"},"vehicle_type_id":"4","last_reported":1723824666,"current_range_meters":0,"station_id":"","pricing_plan_id":"cebpf4jnsgd1na2vs0mg"},{"bike_id":"d9991e04-f623-4056-906b-34c1a9e29624","system_id":"levelo_inurba_marseille","lat":43.30144,"lon":5.38774,"is_reserved":false,"is_disabled":false,"rental_uris":{"android":"levelo://app?vid=d9991e04-f623-4056-906b-34c1a9e29624","ios":"levelo://app?vid=d9991e04-f623-4056-906b-34c1a9e29624"},"vehicle_type_id":"4","last_reported":1723824666,"current_range_meters":3600,"station_id":"ce4bghh2rcd13ifvqb60","pricing_plan_id":"cebpf4jnsgd1na2vs0mg"},{"bike_id":"a7206393-188f-4b24-8667-30aeffa364a6","system_id":"levelo_inurba_marseille","lat":43.301396,"lon":5.387812,"is_reserved":false,"is_disabled":false,"rental_uris":{"android":"levelo://app?vid=a7206393-188f-4b24-8667-30aeffa364a6","ios":"levelo://app?vid=a7206393-188f-4b24-8667-30aeffa364a6"},"vehicle_type_id":"4","last_reported":1723824666,"current_range_meters":31200,"station_id":"ce4bghh2rcd13ifvqb60","pricing_plan_id":"cebpf4jnsgd1na2vs0mg"},{"bike_id":"798f0719-a919-47b1-8660-588f11526eb4","system_id":"levelo_inurba_marseille","lat":43.30134,"lon":5.38781,"is_reserved":false,"is_disabled":false,"rental_uris":{"android":"levelo://app?vid=798f0719-a919-47b1-8660-588f11526eb4","ios":"levelo://app?vid=798f0719-a919-47b1-8660-588f11526eb4"},"vehicle_type_id":"4","last_reported":1723824666,"current_range_meters":21200,"station_id":"ce4bghh2rcd13ifvqb60","pricing_plan_id":"cebpf4jnsgd1na2vs0mg"},{"bike_id":"4274ad57-e00d-413c-b33f-ca5008df51fd","system_id":"levelo_inurba_marseille","lat":43.30133,"lon":5.3878,"is_reserved":false,"is_disabled":false,"rental_uris":{"android":"levelo://app?vid=4274ad57-e00d-413c-b33f-ca5008df51fd","ios":"levelo://app?vid=4274ad57-e00d-413c-b33f-ca5008df51fd"},"vehicle_type_id":"4","last_reported":1723824666,"current_range_meters":9600,"station_id":"ce4bghh2rcd13ifvqb60","pricing_plan_id":"cebpf4jnsgd1na2vs0mg"},{"bike_id":"e49b03b7-05cc-46ce-9306-8ca3b3202db0","system_id":"levelo_inurba_marseille","lat":43.30132,"lon":5.38781,"is_reserved":false,"is_disabled":false,"rental_uris":{"android":"levelo://app?vid=e49b03b7-05cc-46ce-9306-8ca3b3202db0","ios":"levelo://app?vid=e49b03b7-05cc-46ce-9306-8ca3b3202db0"},"vehicle_type_id":"4","last_reported":1723824666,"current_range_meters":29200,"station_id":"ce4bghh2rcd13ifvqb60","pricing_plan_id":"cebpf4jnsgd1na2vs0mg"},{"bike_id":"9d1bc532-0745-4cd0-8414-f1013c6b0f10","system_id":"levelo_inurba_marseille","lat":43.301396,"lon":5.387812,"is_reserved":false,"is_disabled":false,"rental_uris":{"android":"levelo://app?vid=9d1bc532-0745-4cd0-8414-f1013c6b0f10","ios":"levelo://app?vid=9d1bc532-0745-4cd0-8414-f1013c6b0f10"},"vehicle_type_id":"4","last_reported":1723824666,"current_range_meters":16000,"station_id":"ce4bghh2rcd13ifvqb60","pricing_plan_id":"cebpf4jnsgd1na2vs0mg"},{"bike_id":"c34ba3e9-c426-4132-9db3-6329ac8d10a2","system_id":"levelo_inurba_marseille","lat":43.301396,"lon":5.387812,"is_reserved":false,"is_disabled":false,"rental_uris":{"android":"levelo://app?vid=c34ba3e9-c426-4132-9db3-6329ac8d10a2","ios":"levelo://app?vid=c34ba3e9-c426-4132-9db3-6329ac8d10a2"},"vehicle_type_id":"4","last_reported":1723824666,"current_range_meters":30400,"station_id":"ce4bghh2rcd13ifvqb60","pricing_plan_id":"cebpf4jnsgd1na2vs0mg"},{"bike_id":"f26118e3-e298-4c80-be8b-06cd510ec021","system_id":"levelo_inurba_marseille","lat":43.29601,"lon":5.381084,"is_reserved":false,"is_disabled":false,"rental_uris":{"android":"levelo://app?vid=f26118e3-e298-4c80-be8b-06cd510ec021","ios":"levelo://app?vid=f26118e3-e298-4c80-be8b-06cd510ec021"},"vehicle_type_id":"4","last_reported":1723824666,"current_range_meters":4400,"station_id":"ce4bgl12rcd13ifvqbo0","pricing_plan_id":"cebpf4jnsgd1na2vs0mg"},{"bike_id":"15a0e7ca-adf9-4cfd-8333-2327eb958c3c","system_id":"levelo_inurba_marseille","lat":43.29602,"lon":5.381084,"is_reserved":false,"is_disabled":false,"rental_uris":{"android":"levelo://app?vid=15a0e7ca-adf9-4cfd-8333-2327eb958c3c","ios":"levelo://app?vid=15a0e7ca-adf9-4cfd-8333-2327eb958c3c"},"vehicle_type_id":"4","last_reported":1723824666,"current_range_meters":8800,"station_id":"ce4bgl12rcd13ifvqbo0","pricing_plan_id":"cebpf4jnsgd1na2vs0mg"},{"bike_id":"ef51062a-1a86-4a9a-9c8a-ee0064bdbf53","system_id":"levelo_inurba_marseille","lat":43.29601,"lon":5.381084,"is_reserved":false,"is_disabled":false,"rental_uris":{"android":"levelo://app?vid=ef51062a-1a86-4a9a-9c8a-ee0064bdbf53","ios":"levelo://app?vid=ef51062a-1a86-4a9a-9c8a-ee0064bdbf53"},"vehicle_type_id":"4","last_reported":1723824666,"current_range_meters":7200,"station_id":"ce4bgl12rcd13ifvqbo0","pricing_plan_id":"cebpf4jnsgd1na2vs0mg"},{"bike_id":"473f5dfb-df9e-4c9c-9e4c-5ba9d7e558e4","system_id":"levelo_inurba_marseille","lat":43.29602,"lon":5.381084,"is_reserved":false,"is_disabled":false,"rental_uris":{"android":"levelo://app?vid=473f5dfb-df9e-4c9c-9e4c-5ba9d7e558e4","ios":"levelo://app?vid=473f5dfb-df9e-4c9c-9e4c-5ba9d7e558e4"},"vehicle_type_id":"4","last_reported":1723824666,"current_range_meters":10000,"station_id":"ce4bgl12rcd13ifvqbo0","pricing_plan_id":"cebpf4jnsgd1na2vs0mg"},{"bike_id":"224c65da-27be-4d98-80e8-ad7f49eb8c25","system_id":"levelo_inurba_marseille","lat":43.29601,"lon":5.381084,"is_reserved":false,"is_disabled":false,"rental_uris":{"android":"levelo://app?vid=224c65da-27be-4d98-80e8-ad7f49eb8c25","ios":"levelo://app?vid=224c65da-27be-4d98-80e8-ad7f49eb8c25"},"vehicle_type_id":"4","last_reported":1723824666,"current_range_meters":20000,"station_id":"ce4bgl12rcd13ifvqbo0","pricing_plan_id":"cebpf4jnsgd1na2vs0mg"},{"bike_id":"315b0a7a-2a54-4676-89b3-7e64647a87cf","system_id":"levelo_inurba_marseille","lat":43.29602,"lon":5.381084,"is_reserved":false,"is_disabled":false,"rental_uris":{"android":"levelo://app?vid=315b0a7a-2a54-4676-89b3-7e64647a87cf","ios":"levelo://app?vid=315b0a7a-2a54-4676-89b3-7e64647a87cf"},"vehicle_type_id":"4","last_reported":1723824666,"current_range_meters":21600,"station_id":"ce4bgl12rcd13ifvqbo0","pricing_plan_id":"cebpf4jnsgd1na2vs0mg"},{"bike_id":"7a742198-88b0-4cc1-8eda-4e4be4adda81","system_id":"levelo_inurba_marseille","lat":43.29602,"lon":5.381084,"is_reserved":false,"is_disabled":false,"rental_uris":{"android":"levelo://app?vid=7a742198-88b0-4cc1-8eda-4e4be4adda81","ios":"levelo://app?vid=7a742198-88b0-4cc1-8eda-4e4be4adda81"},"vehicle_type_id":"4","last_reported":1723824666,"current_range_meters":20400,"station_id":"ce4bgl12rcd13ifvqbo0","pricing_plan_id":"cebpf4jnsgd1na2vs0mg"},{"bike_id":"adb800f4-8836-45b5-92d4-da9b9b465894","system_id":"levelo_inurba_marseille","lat":43.29601,"lon":5.381084,"is_reserved":false,"is_disabled":false,"rental_uris":{"android":"levelo://app?vid=adb800f4-8836-45b5-92d4-da9b9b465894","ios":"levelo://app?vid=adb800f4-8836-45b5-92d4-da9b9b465894"},"vehicle_type_id":"4","last_reported":1723824666,"current_range_meters":26400,"station_id":"ce4bgl12rcd13ifvqbo0","pricing_plan_id":"cebpf4jnsgd1na2vs0mg"},{"bike_id":"f22bfad4-e529-447a-b346-513355ec74a4","system_id":"levelo_inurba_marseille","lat":43.29601,"lon":5.381084,"is_reserved":false,"is_disabled":false,"rental_uris":{"android":"levelo://app?vid=f22bfad4-e529-447a-b346-513355ec74a4","ios":"levelo://app?vid=f22bfad4-e529-447a-b346-513355ec74a4"},"vehicle_type_id":"4","last_reported":1723824666,"current_range_meters":28400,"station_id":"ce4bgl12rcd13ifvqbo0","pricing_plan_id":"cebpf4jnsgd1na2vs0mg"},{"bike_id":"fdc1a234-9130-4d67-bcc2-8296c53b092c","system_id":"levelo_inurba_marseille","lat":43.29602,"lon":5.381084,"is_reserved":false,"is_disabled":false,"rental_uris":{"android":"levelo://app?vid=fdc1a234-9130-4d67-bcc2-8296c53b092c","ios":"levelo://app?vid=fdc1a234-9130-4d67-bcc2-8296c53b092c"},"vehicle_type_id":"4","last_reported":1723824666,"current_range_meters":24000,"station_id":"ce4bgl12rcd13ifvqbo0","pricing_plan_id":"cebpf4jnsgd1na2vs0mg"},{"bike_id":"0bcc5b5e-8b77-43bc-a2ea-5f03c00d7b95","system_id":"levelo_inurba_marseille","lat":43.29602,"lon":5.381084,"is_reserved":false,"is_disabled":false,"rental_uris":{"android":"levelo://app?vid=0bcc5b5e-8b77-43bc-a2ea-5f03c00d7b95","ios":"levelo://app?vid=0bcc5b5e-8b77-43bc-a2ea-5f03c00d7b95"},"vehicle_type_id":"4","last_reported":1723824666,"current_range_meters":7200,"station_id":"ce4bgl12rcd13ifvqbo0","pricing_plan_id":"cebpf4jnsgd1na2vs0mg"},{"bike_id":"68b72129-9972-4483-a300-186d0f5e8a3b","system_id":"levelo_inurba_marseille","lat":43.29602,"lon":5.381084,"is_reserved":false,"is_disabled":false,"rental_uris":{"android":"levelo://app?vid=68b72129-9972-4483-a300-186d0f5e8a3b","ios":"levelo://app?vid=68b72129-9972-4483-a300-186d0f5e8a3b"},"vehicle_type_id":"4","last_reported":1723824666,"current_range_meters":5600,"station_id":"ce4bgl12rcd13ifvqbo0","pricing_plan_id":"cebpf4jnsgd1na2vs0mg"},{"bike_id":"1f0d75b0-874d-489e-830e-555fb35cc2e0","system_id":"levelo_inurba_marseille","lat":43.292749,"lon":5.368398,"is_reserved":false,"is_disabled":false,"rental_uris":{"android":"levelo://app?vid=1f0d75b0-874d-489e-830e-555fb35cc2e0","ios":"levelo://app?vid=1f0d75b0-874d-489e-830e-555fb35cc2e0"},"vehicle_type_id":"4","last_reported":1723824666,"current_range_meters":13200,"station_id":"ce4bhbp2rcd13ifvqesg","pricing_plan_id":"cebpf4jnsgd1na2vs0mg"},{"bike_id":"c3aebfc7-a3cd-47d2-afb0-16a7658ae6ca","system_id":"levelo_inurba_marseille","lat":43.29313,"lon":5.37165,"is_reserved":false,"is_disabled":false,"rental_uris":{"android":"levelo://app?vid=c3aebfc7-a3cd-47d2-afb0-16a7658ae6ca","ios":"levelo://app?vid=c3aebfc7-a3cd-47d2-afb0-16a7658ae6ca"},"vehicle_type_id":"4","last_reported":1723824666,"current_range_meters":0,"station_id":"ce4bgh92rcd13ifvqb40","pricing_plan_id":"cebpf4jnsgd1na2vs0mg"},{"bike_id":"a6e5af51-9d76-45dd-8534-3b430d755646","system_id":"levelo_inurba_marseille","lat":43.29313,"lon":5.37178,"is_reserved":false,"is_disabled":false,"rental_uris":{"android":"levelo://app?vid=a6e5af51-9d76-45dd-8534-3b430d755646","ios":"levelo://app?vid=a6e5af51-9d76-45dd-8534-3b430d755646"},"vehicle_type_id":"4","last_reported":1723824666,"current_range_meters":4800,"station_id":"ce4bgh92rcd13ifvqb40","pricing_plan_id":"cebpf4jnsgd1na2vs0mg"},{"bike_id":"901eddc6-7188-4e89-8816-6ac8576429ce","system_id":"levelo_inurba_marseille","lat":43.29312,"lon":5.37172,"is_reserved":false,"is_disabled":false,"rental_uris":{"android":"levelo://app?vid=901eddc6-7188-4e89-8816-6ac8576429ce","ios":"levelo://app?vid=901eddc6-7188-4e89-8816-6ac8576429ce"},"vehicle_type_id":"4","last_reported":1723824666,"current_range_meters":23200,"station_id":"ce4bgh92rcd13ifvqb40","pricing_plan_id":"cebpf4jnsgd1na2vs0mg"},{"bike_id":"e2353cb0-a3b2-4f25-9f0c-b282f74a286b","system_id":"levelo_inurba_marseille","lat":43.29313,"lon":5.37182,"is_reserved":false,"is_disabled":false,"rental_uris":{"android":"levelo://app?vid=e2353cb0-a3b2-4f25-9f0c-b282f74a286b","ios":"levelo://app?vid=e2353cb0-a3b2-4f25-9f0c-b282f74a286b"},"vehicle_type_id":"4","last_reported":1723824666,"current_range_meters":17600,"station_id":"ce4bgh92rcd13ifvqb40","pricing_plan_id":"cebpf4jnsgd1na2vs0mg"},{"bike_id":"37aff6e1-9209-4b53-903a-aed722b6e9df","system_id":"levelo_inurba_marseille","lat":43.292749,"lon":5.368402,"is_reserved":false,"is_disabled":false,"rental_uris":{"android":"levelo://app?vid=37aff6e1-9209-4b53-903a-aed722b6e9df","ios":"levelo://app?vid=37aff6e1-9209-4b53-903a-aed722b6e9df"},"vehicle_type_id":"4","last_reported":1723824666,"current_range_meters":26800,"station_id":"ce4bhbp2rcd13ifvqesg","pricing_plan_id":"cebpf4jnsgd1na2vs0mg"},{"bike_id":"5b9c2db8-78a8-4921-945b-01616a40a32f","system_id":"levelo_inurba_marseille","lat":43.2931,"lon":5.37169,"is_reserved":false,"is_disabled":false,"rental_uris":{"android":"levelo://app?vid=5b9c2db8-78a8-4921-945b-01616a40a32f","ios":"levelo://app?vid=5b9c2db8-78a8-4921-945b-01616a40a32f"},"vehicle_type_id":"4","last_reported":1723824666,"current_range_meters":18400,"station_id":"ce4bgh92rcd13ifvqb40","pricing_plan_id":"cebpf4jnsgd1na2vs0mg"},{"bike_id":"ecf499ea-43e9-4303-a40a-abfd5e7fc48b","system_id":"levelo_inurba_marseille","lat":43.2931,"lon":5.37169,"is_reserved":false,"is_disabled":false,"rental_uris":{"android":"levelo://app?vid=ecf499ea-43e9-4303-a40a-abfd5e7fc48b","ios":"levelo://app?vid=ecf499ea-43e9-4303-a40a-abfd5e7fc48b"},"vehicle_type_id":"4","last_reported":1723824666,"current_range_meters":2000,"station_id":"ce4bgh92rcd13ifvqb40","pricing_plan_id":"cebpf4jnsgd1na2vs0mg"},{"bike_id":"dff724fe-f480-4ad5-bdf0-53b387798b6e","system_id":"levelo_inurba_marseille","lat":43.293249,"lon":5.371578,"is_reserved":false,"is_disabled":false,"rental_uris":{"android":"levelo://app?vid=dff724fe-f480-4ad5-bdf0-53b387798b6e","ios":"levelo://app?vid=dff724fe-f480-4ad5-bdf0-53b387798b6e"},"vehicle_type_id":"4","last_reported":1723824666,"current_range_meters":20400,"station_id":"ce4bgh92rcd13ifvqb40","pricing_plan_id":"cebpf4jnsgd1na2vs0mg"},{"bike_id":"62320cdf-360d-438b-bb22-67fe1067720b","system_id":"levelo_inurba_marseille","lat":43.293249,"lon":5.371578,"is_reserved":false,"is_disabled":false,"rental_uris":{"android":"levelo://app?vid=62320cdf-360d-438b-bb22-67fe1067720b","ios":"levelo://app?vid=62320cdf-360d-438b-bb22-67fe1067720b"},"vehicle_type_id":"4","last_reported":1723824666,"current_range_meters":22000,"station_id":"ce4bgh92rcd13ifvqb40","pricing_plan_id":"cebpf4jnsgd1na2vs0mg"},{"bike_id":"e449f2f0-cf87-4c0d-a475-b317f893b12f","system_id":"levelo_inurba_marseille","lat":43.29306,"lon":5.37177,"is_reserved":false,"is_disabled":false,"rental_uris":{"android":"levelo://app?vid=e449f2f0-cf87-4c0d-a475-b317f893b12f","ios":"levelo://app?vid=e449f2f0-cf87-4c0d-a475-b317f893b12f"},"vehicle_type_id":"4","last_reported":1723824666,"current_range_meters":29600,"station_id":"ce4bgh92rcd13ifvqb40","pricing_plan_id":"cebpf4jnsgd1na2vs0mg"},{"bike_id":"a9be00f7-deca-44d5-a3a7-4197cc7191aa","system_id":"levelo_inurba_marseille","lat":43.29304,"lon":5.37181,"is_reserved":false,"is_disabled":false,"rental_uris":{"android":"levelo://app?vid=a9be00f7-deca-44d5-a3a7-4197cc7191aa","ios":"levelo://app?vid=a9be00f7-deca-44d5-a3a7-4197cc7191aa"},"vehicle_type_id":"4","last_reported":1723824666,"current_range_meters":25600,"station_id":"ce4bgh92rcd13ifvqb40","pricing_plan_id":"cebpf4jnsgd1na2vs0mg"},{"bike_id":"64a634dc-cccb-4a14-99c2-a038d4b5f91d","system_id":"levelo_inurba_marseille","lat":43.29297,"lon":5.37153,"is_reserved":false,"is_disabled":false,"rental_uris":{"android":"levelo://app?vid=64a634dc-cccb-4a14-99c2-a038d4b5f91d","ios":"levelo://app?vid=64a634dc-cccb-4a14-99c2-a038d4b5f91d"},"vehicle_type_id":"4","last_reported":1723824666,"current_range_meters":28000,"station_id":"ce4bgh92rcd13ifvqb40","pricing_plan_id":"cebpf4jnsgd1na2vs0mg"},{"bike_id":"bc4aad92-6dfe-431e-96d7-64e8339c93d4","system_id":"levelo_inurba_marseille","lat":43.292749,"lon":5.368402,"is_reserved":false,"is_disabled":false,"rental_uris":{"android":"levelo://app?vid=bc4aad92-6dfe-431e-96d7-64e8339c93d4","ios":"levelo://app?vid=bc4aad92-6dfe-431e-96d7-64e8339c93d4"},"vehicle_type_id":"4","last_reported":1723824666,"current_range_meters":30400,"station_id":"ce4bhbp2rcd13ifvqesg","pricing_plan_id":"cebpf4jnsgd1na2vs0mg"},{"bike_id":"abdcb605-01a3-4469-b9a1-7938759979d8","system_id":"levelo_inurba_marseille","lat":43.29295,"lon":5.37187,"is_reserved":false,"is_disabled":false,"rental_uris":{"android":"levelo://app?vid=abdcb605-01a3-4469-b9a1-7938759979d8","ios":"levelo://app?vid=abdcb605-01a3-4469-b9a1-7938759979d8"},"vehicle_type_id":"4","last_reported":1723824666,"current_range_meters":21200,"station_id":"ce4bgh92rcd13ifvqb40","pricing_plan_id":"cebpf4jnsgd1na2vs0mg"},{"bike_id":"f38fa803-c2e9-4b17-ad96-bf95f011eb03","system_id":"levelo_inurba_marseille","lat":43.292423,"lon":5.36479,"is_reserved":false,"is_disabled":false,"rental_uris":{"android":"levelo://app?vid=f38fa803-c2e9-4b17-ad96-bf95f011eb03","ios":"levelo://app?vid=f38fa803-c2e9-4b17-ad96-bf95f011eb03"},"vehicle_type_id":"4","last_reported":1723824666,"current_range_meters":13200,"station_id":"","pricing_plan_id":"cebpf4jnsgd1na2vs0mg"},{"bike_id":"f2c5d336-aa49-4d67-833a-5bc0f74dd923","system_id":"levelo_inurba_marseille","lat":43.293009,"lon":5.374584,"is_reserved":false,"is_disabled":false,"rental_uris":{"android":"levelo://app?vid=f2c5d336-aa49-4d67-833a-5bc0f74dd923","ios":"levelo://app?vid=f2c5d336-aa49-4d67-833a-5bc0f74dd923"},"vehicle_type_id":"4","last_reported":1723824666,"current_range_meters":22000,"station_id":"ce4bgi12rcd13ifvqb70","pricing_plan_id":"cebpf4jnsgd1na2vs0mg"},{"bike_id":"acec5997-7c4b-4766-a3fb-a34f7905dbb6","system_id":"levelo_inurba_marseille","lat":43.293009,"lon":5.374584,"is_reserved":false,"is_disabled":false,"rental_uris":{"android":"levelo://app?vid=acec5997-7c4b-4766-a3fb-a34f7905dbb6","ios":"levelo://app?vid=acec5997-7c4b-4766-a3fb-a34f7905dbb6"},"vehicle_type_id":"4","last_reported":1723824666,"current_range_meters":24800,"station_id":"ce4bgi12rcd13ifvqb70","pricing_plan_id":"cebpf4jnsgd1na2vs0mg"},{"bike_id":"2ab57826-b77b-4821-99a5-4c4499f72baf","system_id":"levelo_inurba_marseille","lat":43.293009,"lon":5.374584,"is_reserved":false,"is_disabled":false,"rental_uris":{"android":"levelo://app?vid=2ab57826-b77b-4821-99a5-4c4499f72baf","ios":"levelo://app?vid=2ab57826-b77b-4821-99a5-4c4499f72baf"},"vehicle_type_id":"4","last_reported":1723824666,"current_range_meters":8800,"station_id":"ce4bgi12rcd13ifvqb70","pricing_plan_id":"cebpf4jnsgd1na2vs0mg"},{"bike_id":"c3303450-6956-4c5f-baa1-997a6f127d09","system_id":"levelo_inurba_marseille","lat":43.293009,"lon":5.374584,"is_reserved":false,"is_disabled":false,"rental_uris":{"android":"levelo://app?vid=c3303450-6956-4c5f-baa1-997a6f127d09","ios":"levelo://app?vid=c3303450-6956-4c5f-baa1-997a6f127d09"},"vehicle_type_id":"4","last_reported":1723824666,"current_range_meters":28800,"station_id":"ce4bgi12rcd13ifvqb70","pricing_plan_id":"cebpf4jnsgd1na2vs0mg"},{"bike_id":"8c27a969-70bb-4b7d-b304-dd051d07e661","system_id":"levelo_inurba_marseille","lat":43.293009,"lon":5.374584,"is_reserved":false,"is_disabled":false,"rental_uris":{"android":"levelo://app?vid=8c27a969-70bb-4b7d-b304-dd051d07e661","ios":"levelo://app?vid=8c27a969-70bb-4b7d-b304-dd051d07e661"},"vehicle_type_id":"4","last_reported":1723824666,"current_range_meters":20400,"station_id":"ce4bgi12rcd13ifvqb70","pricing_plan_id":"cebpf4jnsgd1na2vs0mg"},{"bike_id":"3b8d8af0-0109-4d20-9707-846abf2ec476","system_id":"levelo_inurba_marseille","lat":43.3059,"lon":5.39354,"is_reserved":false,"is_disabled":false,"rental_uris":{"android":"levelo://app?vid=3b8d8af0-0109-4d20-9707-846abf2ec476","ios":"levelo://app?vid=3b8d8af0-0109-4d20-9707-846abf2ec476"},"vehicle_type_id":"4","last_reported":1723824666,"current_range_meters":20800,"station_id":"ce4bh0p2rcd13ifvqd80","pricing_plan_id":"cebpf4jnsgd1na2vs0mg"},{"bike_id":"6e9c5a9b-1904-4553-a30a-c015f97f95fd","system_id":"levelo_inurba_marseille","lat":43.29293,"lon":5.37448,"is_reserved":false,"is_disabled":false,"rental_uris":{"android":"levelo://app?vid=6e9c5a9b-1904-4553-a30a-c015f97f95fd","ios":"levelo://app?vid=6e9c5a9b-1904-4553-a30a-c015f97f95fd"},"vehicle_type_id":"4","last_reported":1723824666,"current_range_meters":4800,"station_id":"ce4bgi12rcd13ifvqb70","pricing_plan_id":"cebpf4jnsgd1na2vs0mg"},{"bike_id":"72598dce-984f-4bc0-bbf9-60d6b91e623b","system_id":"levelo_inurba_marseille","lat":43.305857,"lon":5.39362,"is_reserved":false,"is_disabled":false,"rental_uris":{"android":"levelo://app?vid=72598dce-984f-4bc0-bbf9-60d6b91e623b","ios":"levelo://app?vid=72598dce-984f-4bc0-bbf9-60d6b91e623b"},"vehicle_type_id":"4","last_reported":1723824666,"current_range_meters":19600,"station_id":"ce4bh0p2rcd13ifvqd80","pricing_plan_id":"cebpf4jnsgd1na2vs0mg"},{"bike_id":"4900bc7a-7ce2-4f37-8f0b-64bd6c297de2","system_id":"levelo_inurba_marseille","lat":43.29289,"lon":5.37463,"is_reserved":false,"is_disabled":false,"rental_uris":{"android":"levelo://app?vid=4900bc7a-7ce2-4f37-8f0b-64bd6c297de2","ios":"levelo://app?vid=4900bc7a-7ce2-4f37-8f0b-64bd6c297de2"},"vehicle_type_id":"4","last_reported":1723824666,"current_range_meters":0,"station_id":"ce4bgi12rcd13ifvqb70","pricing_plan_id":"cebpf4jnsgd1na2vs0mg"},{"bike_id":"b367c4f0-46b5-4a84-bf0a-b5f94e51a161","system_id":"levelo_inurba_marseille","lat":43.29285,"lon":5.37455,"is_reserved":false,"is_disabled":false,"rental_uris":{"android":"levelo://app?vid=b367c4f0-46b5-4a84-bf0a-b5f94e51a161","ios":"levelo://app?vid=b367c4f0-46b5-4a84-bf0a-b5f94e51a161"},"vehicle_type_id":"4","last_reported":1723824666,"current_range_meters":2800,"station_id":"ce4bgi12rcd13ifvqb70","pricing_plan_id":"cebpf4jnsgd1na2vs0mg"},{"bike_id":"6b141dff-f5e6-415f-96c6-9bb045b98a74","system_id":"levelo_inurba_marseille","lat":43.292311,"lon":5.360731,"is_reserved":false,"is_disabled":false,"rental_uris":{"android":"levelo://app?vid=6b141dff-f5e6-415f-96c6-9bb045b98a74","ios":"levelo://app?vid=6b141dff-f5e6-415f-96c6-9bb045b98a74"},"vehicle_type_id":"4","last_reported":1723824666,"current_range_meters":2400,"station_id":"ce4bhbh2rcd13ifvqeqg","pricing_plan_id":"cebpf4jnsgd1na2vs0mg"},{"bike_id":"902d949b-a68c-46ca-b352-c7e11d40abec","system_id":"levelo_inurba_marseille","lat":43.2936,"lon":5.37835,"is_reserved":false,"is_disabled":false,"rental_uris":{"android":"levelo://app?vid=902d949b-a68c-46ca-b352-c7e11d40abec","ios":"levelo://app?vid=902d949b-a68c-46ca-b352-c7e11d40abec"},"vehicle_type_id":"4","last_reported":1723824666,"current_range_meters":2400,"station_id":"ce4bgjh2rcd13ifvqbf0","pricing_plan_id":"cebpf4jnsgd1na2vs0mg"},{"bike_id":"a9d2cc4d-6463-4765-84e0-2a2f1bf36e39","system_id":"levelo_inurba_marseille","lat":43.292311,"lon":5.360731,"is_reserved":false,"is_disabled":false,"rental_uris":{"android":"levelo://app?vid=a9d2cc4d-6463-4765-84e0-2a2f1bf36e39","ios":"levelo://app?vid=a9d2cc4d-6463-4765-84e0-2a2f1bf36e39"},"vehicle_type_id":"4","last_reported":1723824666,"current_range_meters":0,"station_id":"ce4bhbh2rcd13ifvqeqg","pricing_plan_id":"cebpf4jnsgd1na2vs0mg"},{"bike_id":"658a667b-be9c-4dba-a462-c48c8b21da5e","system_id":"levelo_inurba_marseille","lat":43.292311,"lon":5.360731,"is_reserved":false,"is_disabled":false,"rental_uris":{"android":"levelo://app?vid=658a667b-be9c-4dba-a462-c48c8b21da5e","ios":"levelo://app?vid=658a667b-be9c-4dba-a462-c48c8b21da5e"},"vehicle_type_id":"4","last_reported":1723824666,"current_range_meters":29200,"station_id":"ce4bhbh2rcd13ifvqeqg","pricing_plan_id":"cebpf4jnsgd1na2vs0mg"},{"bike_id":"6b0cdd9f-e3bd-47c1-b0f6-2a9f39781102","system_id":"levelo_inurba_marseille","lat":43.30085,"lon":5.390856,"is_reserved":false,"is_disabled":false,"rental_uris":{"android":"levelo://app?vid=6b0cdd9f-e3bd-47c1-b0f6-2a9f39781102","ios":"levelo://app?vid=6b0cdd9f-e3bd-47c1-b0f6-2a9f39781102"},"vehicle_type_id":"4","last_reported":1723824666,"current_range_meters":24400,"station_id":"ce4bh192rcd13ifvqdb0","pricing_plan_id":"cebpf4jnsgd1na2vs0mg"},{"bike_id":"7f0a6188-b0bb-4d7e-9afe-eaff175f3f97","system_id":"levelo_inurba_marseille","lat":43.292311,"lon":5.360731,"is_reserved":false,"is_disabled":false,"rental_uris":{"android":"levelo://app?vid=7f0a6188-b0bb-4d7e-9afe-eaff175f3f97","ios":"levelo://app?vid=7f0a6188-b0bb-4d7e-9afe-eaff175f3f97"},"vehicle_type_id":"4","last_reported":1723824666,"current_range_meters":28000,"station_id":"ce4bhbh2rcd13ifvqeqg","pricing_plan_id":"cebpf4jnsgd1na2vs0mg"},{"bike_id":"b186844f-b188-44c4-897f-7e1a346ba6ea","system_id":"levelo_inurba_marseille","lat":43.298764,"lon":5.388973,"is_reserved":false,"is_disabled":false,"rental_uris":{"android":"levelo://app?vid=b186844f-b188-44c4-897f-7e1a346ba6ea","ios":"levelo://app?vid=b186844f-b188-44c4-897f-7e1a346ba6ea"},"vehicle_type_id":"4","last_reported":1723824666,"current_range_meters":11600,"station_id":"ce4bh392rcd13ifvqdl0","pricing_plan_id":"cebpf4jnsgd1na2vs0mg"},{"bike_id":"c87620b8-5abd-4419-91e5-1b9f7c6482ac","system_id":"levelo_inurba_marseille","lat":43.298764,"lon":5.388973,"is_reserved":false,"is_disabled":false,"rental_uris":{"android":"levelo://app?vid=c87620b8-5abd-4419-91e5-1b9f7c6482ac","ios":"levelo://app?vid=c87620b8-5abd-4419-91e5-1b9f7c6482ac"},"vehicle_type_id":"4","last_reported":1723824666,"current_range_meters":2800,"station_id":"ce4bh392rcd13ifvqdl0","pricing_plan_id":"cebpf4jnsgd1na2vs0mg"},{"bike_id":"bb9c2d81-5615-44c8-acf4-5530aa0f6d3d","system_id":"levelo_inurba_marseille","lat":43.298764,"lon":5.388973,"is_reserved":false,"is_disabled":false,"rental_uris":{"android":"levelo://app?vid=bb9c2d81-5615-44c8-acf4-5530aa0f6d3d","ios":"levelo://app?vid=bb9c2d81-5615-44c8-acf4-5530aa0f6d3d"},"vehicle_type_id":"4","last_reported":1723824666,"current_range_meters":27600,"station_id":"ce4bh392rcd13ifvqdl0","pricing_plan_id":"cebpf4jnsgd1na2vs0mg"},{"bike_id":"dd86bcd8-d8ae-4a57-8920-8d9d682c9456","system_id":"levelo_inurba_marseille","lat":43.298764,"lon":5.388973,"is_reserved":false,"is_disabled":false,"rental_uris":{"android":"levelo://app?vid=dd86bcd8-d8ae-4a57-8920-8d9d682c9456","ios":"levelo://app?vid=dd86bcd8-d8ae-4a57-8920-8d9d682c9456"},"vehicle_type_id":"4","last_reported":1723824666,"current_range_meters":2800,"station_id":"ce4bh392rcd13ifvqdl0","pricing_plan_id":"cebpf4jnsgd1na2vs0mg"},{"bike_id":"91a4af83-b48a-40ca-8e27-8930331b72ca","system_id":"levelo_inurba_marseille","lat":43.29198,"lon":5.35809,"is_reserved":false,"is_disabled":false,"rental_uris":{"android":"levelo://app?vid=91a4af83-b48a-40ca-8e27-8930331b72ca","ios":"levelo://app?vid=91a4af83-b48a-40ca-8e27-8930331b72ca"},"vehicle_type_id":"4","last_reported":1723824666,"current_range_meters":10000,"station_id":"ce4bhb12rcd13ifvqel0","pricing_plan_id":"cebpf4jnsgd1na2vs0mg"},{"bike_id":"14f3ee83-846d-4cff-afcc-ad3476d5bcde","system_id":"levelo_inurba_marseille","lat":43.29195,"lon":5.35807,"is_reserved":false,"is_disabled":false,"rental_uris":{"android":"levelo://app?vid=14f3ee83-846d-4cff-afcc-ad3476d5bcde","ios":"levelo://app?vid=14f3ee83-846d-4cff-afcc-ad3476d5bcde"},"vehicle_type_id":"4","last_reported":1723824666,"current_range_meters":4800,"station_id":"ce4bhb12rcd13ifvqel0","pricing_plan_id":"cebpf4jnsgd1na2vs0mg"},{"bike_id":"bb2119dc-cd19-4c7e-b342-31e08ed85997","system_id":"levelo_inurba_marseille","lat":43.291939,"lon":5.358114,"is_reserved":false,"is_disabled":false,"rental_uris":{"android":"levelo://app?vid=bb2119dc-cd19-4c7e-b342-31e08ed85997","ios":"levelo://app?vid=bb2119dc-cd19-4c7e-b342-31e08ed85997"},"vehicle_type_id":"4","last_reported":1723824666,"current_range_meters":29600,"station_id":"ce4bhb12rcd13ifvqel0","pricing_plan_id":"cebpf4jnsgd1na2vs0mg"},{"bike_id":"474a4edd-f61c-4ebe-9302-5ae2cb429222","system_id":"levelo_inurba_marseille","lat":43.29194,"lon":5.35806,"is_reserved":false,"is_disabled":false,"rental_uris":{"android":"levelo://app?vid=474a4edd-f61c-4ebe-9302-5ae2cb429222","ios":"levelo://app?vid=474a4edd-f61c-4ebe-9302-5ae2cb429222"},"vehicle_type_id":"4","last_reported":1723824666,"current_range_meters":10800,"station_id":"ce4bhb12rcd13ifvqel0","pricing_plan_id":"cebpf4jnsgd1na2vs0mg"},{"bike_id":"7b0e55e9-3e98-4882-8bb0-c26f760a1c2d","system_id":"levelo_inurba_marseille","lat":43.291923,"lon":5.35799,"is_reserved":false,"is_disabled":false,"rental_uris":{"android":"levelo://app?vid=7b0e55e9-3e98-4882-8bb0-c26f760a1c2d","ios":"levelo://app?vid=7b0e55e9-3e98-4882-8bb0-c26f760a1c2d"},"vehicle_type_id":"4","last_reported":1723824666,"current_range_meters":0,"station_id":"ce4bhb12rcd13ifvqel0","pricing_plan_id":"cebpf4jnsgd1na2vs0mg"},{"bike_id":"c51ed28b-39fd-4171-837c-bc0a73fd5291","system_id":"levelo_inurba_marseille","lat":43.29191,"lon":5.35804,"is_reserved":false,"is_disabled":false,"rental_uris":{"android":"levelo://app?vid=c51ed28b-39fd-4171-837c-bc0a73fd5291","ios":"levelo://app?vid=c51ed28b-39fd-4171-837c-bc0a73fd5291"},"vehicle_type_id":"4","last_reported":1723824666,"current_range_meters":0,"station_id":"ce4bhb12rcd13ifvqel0","pricing_plan_id":"cebpf4jnsgd1na2vs0mg"},{"bike_id":"6a96e5c1-3883-40f9-98f2-d70d8f11af51","system_id":"levelo_inurba_marseille","lat":43.29189,"lon":5.35791,"is_reserved":false,"is_disabled":false,"rental_uris":{"android":"levelo://app?vid=6a96e5c1-3883-40f9-98f2-d70d8f11af51","ios":"levelo://app?vid=6a96e5c1-3883-40f9-98f2-d70d8f11af51"},"vehicle_type_id":"4","last_reported":1723824666,"current_range_meters":17200,"station_id":"ce4bhb12rcd13ifvqel0","pricing_plan_id":"cebpf4jnsgd1na2vs0mg"},{"bike_id":"077affc4-ee76-4f95-9e60-aa2548000bb2","system_id":"levelo_inurba_marseille","lat":43.29529,"lon":5.385581,"is_reserved":false,"is_disabled":false,"rental_uris":{"android":"levelo://app?vid=077affc4-ee76-4f95-9e60-aa2548000bb2","ios":"levelo://app?vid=077affc4-ee76-4f95-9e60-aa2548000bb2"},"vehicle_type_id":"4","last_reported":1723824666,"current_range_meters":22000,"station_id":"ce4bgih2rcd13ifvqba0","pricing_plan_id":"cebpf4jnsgd1na2vs0mg"},{"bike_id":"3cd7904c-83e1-4182-b193-4a412e02e630","system_id":"levelo_inurba_marseille","lat":43.290779,"lon":5.371482,"is_reserved":false,"is_disabled":false,"rental_uris":{"android":"levelo://app?vid=3cd7904c-83e1-4182-b193-4a412e02e630","ios":"levelo://app?vid=3cd7904c-83e1-4182-b193-4a412e02e630"},"vehicle_type_id":"4","last_reported":1723824666,"current_range_meters":27200,"station_id":"ce4bh5p2rcd13ifvqe4g","pricing_plan_id":"cebpf4jnsgd1na2vs0mg"},{"bike_id":"082a2003-4b40-4bc2-bb72-224a2873fa83","system_id":"levelo_inurba_marseille","lat":43.290779,"lon":5.371482,"is_reserved":false,"is_disabled":false,"rental_uris":{"android":"levelo://app?vid=082a2003-4b40-4bc2-bb72-224a2873fa83","ios":"levelo://app?vid=082a2003-4b40-4bc2-bb72-224a2873fa83"},"vehicle_type_id":"4","last_reported":1723824666,"current_range_meters":4800,"station_id":"ce4bh5p2rcd13ifvqe4g","pricing_plan_id":"cebpf4jnsgd1na2vs0mg"},{"bike_id":"cb0d4664-df8e-4661-8f7e-c511878d5d3a","system_id":"levelo_inurba_marseille","lat":43.290631,"lon":5.359244,"is_reserved":false,"is_disabled":false,"rental_uris":{"android":"levelo://app?vid=cb0d4664-df8e-4661-8f7e-c511878d5d3a","ios":"levelo://app?vid=cb0d4664-df8e-4661-8f7e-c511878d5d3a"},"vehicle_type_id":"4","last_reported":1723824666,"current_range_meters":31200,"station_id":"ce4bha92rcd13ifvqeg0","pricing_plan_id":"cebpf4jnsgd1na2vs0mg"},{"bike_id":"572c3776-7a9c-4544-8cdf-4c39263d5d6e","system_id":"levelo_inurba_marseille","lat":43.290631,"lon":5.359244,"is_reserved":false,"is_disabled":false,"rental_uris":{"android":"levelo://app?vid=572c3776-7a9c-4544-8cdf-4c39263d5d6e","ios":"levelo://app?vid=572c3776-7a9c-4544-8cdf-4c39263d5d6e"},"vehicle_type_id":"4","last_reported":1723824666,"current_range_meters":3600,"station_id":"ce4bha92rcd13ifvqeg0","pricing_plan_id":"cebpf4jnsgd1na2vs0mg"},{"bike_id":"77604207-4e88-4c8c-8383-f976a505145f","system_id":"levelo_inurba_marseille","lat":43.290631,"lon":5.359244,"is_reserved":false,"is_disabled":false,"rental_uris":{"android":"levelo://app?vid=77604207-4e88-4c8c-8383-f976a505145f","ios":"levelo://app?vid=77604207-4e88-4c8c-8383-f976a505145f"},"vehicle_type_id":"4","last_reported":1723824666,"current_range_meters":30400,"station_id":"ce4bha92rcd13ifvqeg0","pricing_plan_id":"cebpf4jnsgd1na2vs0mg"},{"bike_id":"68027db7-5b24-4769-b4d0-fc2eb4a14250","system_id":"levelo_inurba_marseille","lat":43.290631,"lon":5.359244,"is_reserved":false,"is_disabled":false,"rental_uris":{"android":"levelo://app?vid=68027db7-5b24-4769-b4d0-fc2eb4a14250","ios":"levelo://app?vid=68027db7-5b24-4769-b4d0-fc2eb4a14250"},