{"last_updated":1777506159,"ttl":60,"version":"2.2","data":{"bikes":[{"bike_id":"5367fafd-42a5-4c52-bd35-5d85953af91c","system_id":"levelo_inurba_marseille","lat":43.3145,"lon":5.37379,"is_reserved":false,"is_disabled":true,"rental_uris":{"android":"levelo://app?vid=5367fafd-42a5-4c52-bd35-5d85953af91c","ios":"levelo://app?vid=5367fafd-42a5-4c52-bd35-5d85953af91c"},"vehicle_type_id":"4","last_reported":1777506160,"current_range_meters":2800,"station_id":"","pricing_plan_id":"cebpf4jnsgd1na2vs0mg"},{"bike_id":"ca7e766e-0c22-4bb4-9391-ff9b9db52725","system_id":"levelo_inurba_marseille","lat":43.28233,"lon":5.40595,"is_reserved":false,"is_disabled":false,"rental_uris":{"android":"levelo://app?vid=ca7e766e-0c22-4bb4-9391-ff9b9db52725","ios":"levelo://app?vid=ca7e766e-0c22-4bb4-9391-ff9b9db52725"},"vehicle_type_id":"4","last_reported":1777506160,"current_range_meters":2800,"station_id":"","pricing_plan_id":"cebpf4jnsgd1na2vs0mg"},{"bike_id":"7e8e0fee-6132-4429-8ff1-6943be88a91d","system_id":"levelo_inurba_marseille","lat":43.31517,"lon":5.38031,"is_reserved":false,"is_disabled":false,"rental_uris":{"android":"levelo://app?vid=7e8e0fee-6132-4429-8ff1-6943be88a91d","ios":"levelo://app?vid=7e8e0fee-6132-4429-8ff1-6943be88a91d"},"vehicle_type_id":"4","last_reported":1777506160,"current_range_meters":2800,"station_id":"ce4bhsp2rcd13ifvqi50","pricing_plan_id":"cebpf4jnsgd1na2vs0mg"},{"bike_id":"6e5b6dae-47c2-4560-a34e-9c7316bfef54","system_id":"levelo_inurba_marseille","lat":43.28464,"lon":5.39192,"is_reserved":false,"is_disabled":true,"rental_uris":{"android":"levelo://app?vid=6e5b6dae-47c2-4560-a34e-9c7316bfef54","ios":"levelo://app?vid=6e5b6dae-47c2-4560-a34e-9c7316bfef54"},"vehicle_type_id":"4","last_reported":1777506160,"current_range_meters":2800,"station_id":"ce4bhoh2rcd13ifvqh5g","pricing_plan_id":"cebpf4jnsgd1na2vs0mg"},{"bike_id":"ff6db1cc-79f5-4a62-a9b1-1bd728c1f3d4","system_id":"levelo_inurba_marseille","lat":43.22554,"lon":5.41628,"is_reserved":false,"is_disabled":false,"rental_uris":{"android":"levelo://app?vid=ff6db1cc-79f5-4a62-a9b1-1bd728c1f3d4","ios":"levelo://app?vid=ff6db1cc-79f5-4a62-a9b1-1bd728c1f3d4"},"vehicle_type_id":"4","last_reported":1777506160,"current_range_meters":2800,"station_id":"st_d2o4gvlbi1j2169b742g","pricing_plan_id":"cebpf4jnsgd1na2vs0mg"},{"bike_id":"37004a31-c1d7-4f3f-917b-0bfdfaa1f9c9","system_id":"levelo_inurba_marseille","lat":43.2439,"lon":5.37075,"is_reserved":false,"is_disabled":false,"rental_uris":{"android":"levelo://app?vid=37004a31-c1d7-4f3f-917b-0bfdfaa1f9c9","ios":"levelo://app?vid=37004a31-c1d7-4f3f-917b-0bfdfaa1f9c9"},"vehicle_type_id":"4","last_reported":1777506160,"current_range_meters":2800,"station_id":"ce4bhhh2rcd13ifvqfk0","pricing_plan_id":"cebpf4jnsgd1na2vs0mg"},{"bike_id":"43fdb549-43c4-4e83-9216-7de77072648d","system_id":"levelo_inurba_marseille","lat":43.29272,"lon":5.38362,"is_reserved":false,"is_disabled":false,"rental_uris":{"android":"levelo://app?vid=43fdb549-43c4-4e83-9216-7de77072648d","ios":"levelo://app?vid=43fdb549-43c4-4e83-9216-7de77072648d"},"vehicle_type_id":"4","last_reported":1777506160,"current_range_meters":2800,"station_id":"","pricing_plan_id":"cebpf4jnsgd1na2vs0mg"},{"bike_id":"b528abb8-34b0-4561-97fc-02eb2d8ebe66","system_id":"levelo_inurba_marseille","lat":43.306118,"lon":5.372268,"is_reserved":false,"is_disabled":false,"rental_uris":{"android":"levelo://app?vid=b528abb8-34b0-4561-97fc-02eb2d8ebe66","ios":"levelo://app?vid=b528abb8-34b0-4561-97fc-02eb2d8ebe66"},"vehicle_type_id":"4","last_reported":1777506160,"current_range_meters":2800,"station_id":"ce4bgqh2rcd13ifvqc4g","pricing_plan_id":"cebpf4jnsgd1na2vs0mg"},{"bike_id":"341d1e8b-eda7-4fb8-829d-1be9d91cd487","system_id":"levelo_inurba_marseille","lat":43.23147,"lon":5.43718,"is_reserved":false,"is_disabled":false,"rental_uris":{"android":"levelo://app?vid=341d1e8b-eda7-4fb8-829d-1be9d91cd487","ios":"levelo://app?vid=341d1e8b-eda7-4fb8-829d-1be9d91cd487"},"vehicle_type_id":"4","last_reported":1777506160,"current_range_meters":3200,"station_id":"ce4bhmp2rcd13ifvqgog","pricing_plan_id":"cebpf4jnsgd1na2vs0mg"},{"bike_id":"5678126e-8eaa-4b9d-b237-332cf8c5166b","system_id":"levelo_inurba_marseille","lat":43.285,"lon":5.38588,"is_reserved":false,"is_disabled":false,"rental_uris":{"android":"levelo://app?vid=5678126e-8eaa-4b9d-b237-332cf8c5166b","ios":"levelo://app?vid=5678126e-8eaa-4b9d-b237-332cf8c5166b"},"vehicle_type_id":"4","last_reported":1777506160,"current_range_meters":3200,"station_id":"ce4bh8p2rcd13ifvqeb0","pricing_plan_id":"cebpf4jnsgd1na2vs0mg"},{"bike_id":"cc3d50af-6c47-45ab-bb02-8b17262baa2e","system_id":"levelo_inurba_marseille","lat":43.28705,"lon":5.46689,"is_reserved":false,"is_disabled":false,"rental_uris":{"android":"levelo://app?vid=cc3d50af-6c47-45ab-bb02-8b17262baa2e","ios":"levelo://app?vid=cc3d50af-6c47-45ab-bb02-8b17262baa2e"},"vehicle_type_id":"4","last_reported":1777506160,"current_range_meters":3200,"station_id":"st_d6tc3vkotcvc738tfjhg","pricing_plan_id":"cebpf4jnsgd1na2vs0mg"},{"bike_id":"1db34559-bc22-4688-95be-9fc0333390e7","system_id":"levelo_inurba_marseille","lat":43.29068,"lon":5.36573,"is_reserved":false,"is_disabled":false,"rental_uris":{"android":"levelo://app?vid=1db34559-bc22-4688-95be-9fc0333390e7","ios":"levelo://app?vid=1db34559-bc22-4688-95be-9fc0333390e7"},"vehicle_type_id":"4","last_reported":1777506160,"current_range_meters":3200,"station_id":"","pricing_plan_id":"cebpf4jnsgd1na2vs0mg"},{"bike_id":"6ce1fbf6-aa33-457e-92f8-add9d9043d49","system_id":"levelo_inurba_marseille","lat":43.28085,"lon":5.38216,"is_reserved":false,"is_disabled":false,"rental_uris":{"android":"levelo://app?vid=6ce1fbf6-aa33-457e-92f8-add9d9043d49","ios":"levelo://app?vid=6ce1fbf6-aa33-457e-92f8-add9d9043d49"},"vehicle_type_id":"4","last_reported":1777506160,"current_range_meters":3200,"station_id":"","pricing_plan_id":"cebpf4jnsgd1na2vs0mg"},{"bike_id":"4efd232b-ef39-490c-93c2-48999f105f2e","system_id":"levelo_inurba_marseille","lat":43.24695,"lon":5.40102,"is_reserved":false,"is_disabled":false,"rental_uris":{"android":"levelo://app?vid=4efd232b-ef39-490c-93c2-48999f105f2e","ios":"levelo://app?vid=4efd232b-ef39-490c-93c2-48999f105f2e"},"vehicle_type_id":"4","last_reported":1777506160,"current_range_meters":3200,"station_id":"","pricing_plan_id":"cebpf4jnsgd1na2vs0mg"},{"bike_id":"1c28d351-cb39-469d-9299-02130efdbcdd","system_id":"levelo_inurba_marseille","lat":43.28417,"lon":5.34968,"is_reserved":false,"is_disabled":true,"rental_uris":{"android":"levelo://app?vid=1c28d351-cb39-469d-9299-02130efdbcdd","ios":"levelo://app?vid=1c28d351-cb39-469d-9299-02130efdbcdd"},"vehicle_type_id":"4","last_reported":1777506160,"current_range_meters":3200,"station_id":"ce4bhbh2rcd13ifvqepg","pricing_plan_id":"cebpf4jnsgd1na2vs0mg"},{"bike_id":"b9c0ca4a-61af-4a0b-994f-7b554a71a91c","system_id":"levelo_inurba_marseille","lat":43.32359,"lon":5.36885,"is_reserved":false,"is_disabled":false,"rental_uris":{"android":"levelo://app?vid=b9c0ca4a-61af-4a0b-994f-7b554a71a91c","ios":"levelo://app?vid=b9c0ca4a-61af-4a0b-994f-7b554a71a91c"},"vehicle_type_id":"4","last_reported":1777506160,"current_range_meters":3600,"station_id":"","pricing_plan_id":"cebpf4jnsgd1na2vs0mg"},{"bike_id":"c53b0575-4201-44a3-8e35-94bea536841a","system_id":"levelo_inurba_marseille","lat":43.29724,"lon":5.37701,"is_reserved":false,"is_disabled":true,"rental_uris":{"android":"levelo://app?vid=c53b0575-4201-44a3-8e35-94bea536841a","ios":"levelo://app?vid=c53b0575-4201-44a3-8e35-94bea536841a"},"vehicle_type_id":"4","last_reported":1777506160,"current_range_meters":3600,"station_id":"ce4bgkh2rcd13ifvqbl0","pricing_plan_id":"cebpf4jnsgd1na2vs0mg"},{"bike_id":"145c254e-4088-4fef-87dc-d9bee17d760f","system_id":"levelo_inurba_marseille","lat":43.32099,"lon":5.36801,"is_reserved":false,"is_disabled":false,"rental_uris":{"android":"levelo://app?vid=145c254e-4088-4fef-87dc-d9bee17d760f","ios":"levelo://app?vid=145c254e-4088-4fef-87dc-d9bee17d760f"},"vehicle_type_id":"4","last_reported":1777506160,"current_range_meters":3600,"station_id":"ce4bhrh2rcd13ifvqhug","pricing_plan_id":"cebpf4jnsgd1na2vs0mg"},{"bike_id":"5a0e82d9-007a-4ab6-99a8-1c3937c52dee","system_id":"levelo_inurba_marseille","lat":43.31903,"lon":5.36803,"is_reserved":false,"is_disabled":false,"rental_uris":{"android":"levelo://app?vid=5a0e82d9-007a-4ab6-99a8-1c3937c52dee","ios":"levelo://app?vid=5a0e82d9-007a-4ab6-99a8-1c3937c52dee"},"vehicle_type_id":"4","last_reported":1777506160,"current_range_meters":3600,"station_id":"st_d6o2h0d0559c73evc1b0","pricing_plan_id":"cebpf4jnsgd1na2vs0mg"},{"bike_id":"21fa33d0-28a0-4e0a-9999-8d9d767ac49c","system_id":"levelo_inurba_marseille","lat":43.27054,"lon":5.38597,"is_reserved":false,"is_disabled":false,"rental_uris":{"android":"levelo://app?vid=21fa33d0-28a0-4e0a-9999-8d9d767ac49c","ios":"levelo://app?vid=21fa33d0-28a0-4e0a-9999-8d9d767ac49c"},"vehicle_type_id":"4","last_reported":1777506160,"current_range_meters":3600,"station_id":"","pricing_plan_id":"cebpf4jnsgd1na2vs0mg"},{"bike_id":"e56c1985-fff4-4847-ac92-fee4e7183c40","system_id":"levelo_inurba_marseille","lat":43.32275,"lon":5.38266,"is_reserved":false,"is_disabled":false,"rental_uris":{"android":"levelo://app?vid=e56c1985-fff4-4847-ac92-fee4e7183c40","ios":"levelo://app?vid=e56c1985-fff4-4847-ac92-fee4e7183c40"},"vehicle_type_id":"4","last_reported":1777506160,"current_range_meters":3600,"station_id":"ce4bhr12rcd13ifvqhqg","pricing_plan_id":"cebpf4jnsgd1na2vs0mg"},{"bike_id":"16fcaa98-136d-4bf1-b3b3-f8340380b05d","system_id":"levelo_inurba_marseille","lat":43.30795,"lon":5.3816,"is_reserved":false,"is_disabled":false,"rental_uris":{"android":"levelo://app?vid=16fcaa98-136d-4bf1-b3b3-f8340380b05d","ios":"levelo://app?vid=16fcaa98-136d-4bf1-b3b3-f8340380b05d"},"vehicle_type_id":"4","last_reported":1777506160,"current_range_meters":3600,"station_id":"ce4bgt12rcd13ifvqce0","pricing_plan_id":"cebpf4jnsgd1na2vs0mg"},{"bike_id":"9cdace97-08e0-4bf7-b03a-3f8ab0cea526","system_id":"levelo_inurba_marseille","lat":43.27852,"lon":5.39199,"is_reserved":false,"is_disabled":false,"rental_uris":{"android":"levelo://app?vid=9cdace97-08e0-4bf7-b03a-3f8ab0cea526","ios":"levelo://app?vid=9cdace97-08e0-4bf7-b03a-3f8ab0cea526"},"vehicle_type_id":"4","last_reported":1777506160,"current_range_meters":3600,"station_id":"ce4bhjp2rcd13ifvqga0","pricing_plan_id":"cebpf4jnsgd1na2vs0mg"},{"bike_id":"ef3a68ef-5b94-411a-921f-f7cda00ffdfc","system_id":"levelo_inurba_marseille","lat":43.29471,"lon":5.39015,"is_reserved":false,"is_disabled":false,"rental_uris":{"android":"levelo://app?vid=ef3a68ef-5b94-411a-921f-f7cda00ffdfc","ios":"levelo://app?vid=ef3a68ef-5b94-411a-921f-f7cda00ffdfc"},"vehicle_type_id":"4","last_reported":1777506160,"current_range_meters":3600,"station_id":"","pricing_plan_id":"cebpf4jnsgd1na2vs0mg"},{"bike_id":"0b661933-8573-4b22-af13-69629e77b293","system_id":"levelo_inurba_marseille","lat":43.30216,"lon":5.40449,"is_reserved":false,"is_disabled":false,"rental_uris":{"android":"levelo://app?vid=0b661933-8573-4b22-af13-69629e77b293","ios":"levelo://app?vid=0b661933-8573-4b22-af13-69629e77b293"},"vehicle_type_id":"4","last_reported":1777506160,"current_range_meters":3600,"station_id":"","pricing_plan_id":"cebpf4jnsgd1na2vs0mg"},{"bike_id":"8a152fbe-1d12-4881-828a-1f3a3b0e9a7c","system_id":"levelo_inurba_marseille","lat":43.23393,"lon":5.41201,"is_reserved":false,"is_disabled":false,"rental_uris":{"android":"levelo://app?vid=8a152fbe-1d12-4881-828a-1f3a3b0e9a7c","ios":"levelo://app?vid=8a152fbe-1d12-4881-828a-1f3a3b0e9a7c"},"vehicle_type_id":"4","last_reported":1777506160,"current_range_meters":3600,"station_id":"st_d75pvndhf9lc73cqq3eg","pricing_plan_id":"cebpf4jnsgd1na2vs0mg"},{"bike_id":"3c574151-1aa5-4a8e-9540-9ba7f7d465cb","system_id":"levelo_inurba_marseille","lat":43.24772,"lon":5.37461,"is_reserved":false,"is_disabled":false,"rental_uris":{"android":"levelo://app?vid=3c574151-1aa5-4a8e-9540-9ba7f7d465cb","ios":"levelo://app?vid=3c574151-1aa5-4a8e-9540-9ba7f7d465cb"},"vehicle_type_id":"4","last_reported":1777506160,"current_range_meters":3600,"station_id":"ce4bhgh2rcd13ifvqfb0","pricing_plan_id":"cebpf4jnsgd1na2vs0mg"},{"bike_id":"da0349b2-4622-4334-9b40-81111cf2be05","system_id":"levelo_inurba_marseille","lat":43.31529,"lon":5.38029,"is_reserved":false,"is_disabled":false,"rental_uris":{"android":"levelo://app?vid=da0349b2-4622-4334-9b40-81111cf2be05","ios":"levelo://app?vid=da0349b2-4622-4334-9b40-81111cf2be05"},"vehicle_type_id":"4","last_reported":1777506160,"current_range_meters":4000,"station_id":"ce4bhsp2rcd13ifvqi50","pricing_plan_id":"cebpf4jnsgd1na2vs0mg"},{"bike_id":"c4932f5a-867e-4991-9b71-bc80069f4e17","system_id":"levelo_inurba_marseille","lat":43.286614,"lon":5.36346,"is_reserved":false,"is_disabled":false,"rental_uris":{"android":"levelo://app?vid=c4932f5a-867e-4991-9b71-bc80069f4e17","ios":"levelo://app?vid=c4932f5a-867e-4991-9b71-bc80069f4e17"},"vehicle_type_id":"4","last_reported":1777506160,"current_range_meters":4000,"station_id":"ce4bhah2rcd13ifvqej0","pricing_plan_id":"cebpf4jnsgd1na2vs0mg"},{"bike_id":"ff4152af-18c8-411e-a459-6b385583029b","system_id":"levelo_inurba_marseille","lat":43.3088,"lon":5.39659,"is_reserved":false,"is_disabled":false,"rental_uris":{"android":"levelo://app?vid=ff4152af-18c8-411e-a459-6b385583029b","ios":"levelo://app?vid=ff4152af-18c8-411e-a459-6b385583029b"},"vehicle_type_id":"4","last_reported":1777506160,"current_range_meters":4000,"station_id":"ce4bh012rcd13ifvqcv0","pricing_plan_id":"cebpf4jnsgd1na2vs0mg"},{"bike_id":"92f3985c-2c50-4589-a4e5-b365bc0828db","system_id":"levelo_inurba_marseille","lat":43.27181,"lon":5.40987,"is_reserved":false,"is_disabled":false,"rental_uris":{"android":"levelo://app?vid=92f3985c-2c50-4589-a4e5-b365bc0828db","ios":"levelo://app?vid=92f3985c-2c50-4589-a4e5-b365bc0828db"},"vehicle_type_id":"4","last_reported":1777506160,"current_range_meters":4000,"station_id":"ce4bhl12rcd13ifvqgf0","pricing_plan_id":"cebpf4jnsgd1na2vs0mg"},{"bike_id":"ea26fbb8-1fe9-45fd-86a8-020ce9ce5f0e","system_id":"levelo_inurba_marseille","lat":43.27088,"lon":5.39081,"is_reserved":false,"is_disabled":false,"rental_uris":{"android":"levelo://app?vid=ea26fbb8-1fe9-45fd-86a8-020ce9ce5f0e","ios":"levelo://app?vid=ea26fbb8-1fe9-45fd-86a8-020ce9ce5f0e"},"vehicle_type_id":"4","last_reported":1777506160,"current_range_meters":4000,"station_id":"","pricing_plan_id":"cebpf4jnsgd1na2vs0mg"},{"bike_id":"f11e3633-986d-40f4-8b5f-6b5e41220dfc","system_id":"levelo_inurba_marseille","lat":43.31886,"lon":5.36812,"is_reserved":false,"is_disabled":false,"rental_uris":{"android":"levelo://app?vid=f11e3633-986d-40f4-8b5f-6b5e41220dfc","ios":"levelo://app?vid=f11e3633-986d-40f4-8b5f-6b5e41220dfc"},"vehicle_type_id":"4","last_reported":1777506160,"current_range_meters":4000,"station_id":"st_d6o2h0d0559c73evc1b0","pricing_plan_id":"cebpf4jnsgd1na2vs0mg"},{"bike_id":"4a6e6396-5ef9-4e02-befe-28d9d3170066","system_id":"levelo_inurba_marseille","lat":43.31113,"lon":5.3776,"is_reserved":false,"is_disabled":false,"rental_uris":{"android":"levelo://app?vid=4a6e6396-5ef9-4e02-befe-28d9d3170066","ios":"levelo://app?vid=4a6e6396-5ef9-4e02-befe-28d9d3170066"},"vehicle_type_id":"4","last_reported":1777506160,"current_range_meters":4000,"station_id":"ce4bgt92rcd13ifvqcg0","pricing_plan_id":"cebpf4jnsgd1na2vs0mg"},{"bike_id":"1132fbdf-d3e2-4de2-bcb2-c2fe9eae3094","system_id":"levelo_inurba_marseille","lat":43.28078,"lon":5.39669,"is_reserved":false,"is_disabled":false,"rental_uris":{"android":"levelo://app?vid=1132fbdf-d3e2-4de2-bcb2-c2fe9eae3094","ios":"levelo://app?vid=1132fbdf-d3e2-4de2-bcb2-c2fe9eae3094"},"vehicle_type_id":"4","last_reported":1777506160,"current_range_meters":4000,"station_id":"ce4bho12rcd13ifvqh2g","pricing_plan_id":"cebpf4jnsgd1na2vs0mg"},{"bike_id":"ea36c9e8-58b8-4f79-a3ce-b396281d3b24","system_id":"levelo_inurba_marseille","lat":43.305074,"lon":5.380769,"is_reserved":false,"is_disabled":false,"rental_uris":{"android":"levelo://app?vid=ea36c9e8-58b8-4f79-a3ce-b396281d3b24","ios":"levelo://app?vid=ea36c9e8-58b8-4f79-a3ce-b396281d3b24"},"vehicle_type_id":"4","last_reported":1777506160,"current_range_meters":4000,"station_id":"","pricing_plan_id":"cebpf4jnsgd1na2vs0mg"},{"bike_id":"797fe398-0e88-4021-aa34-08f74073a77e","system_id":"levelo_inurba_marseille","lat":43.29525,"lon":5.3901,"is_reserved":false,"is_disabled":false,"rental_uris":{"android":"levelo://app?vid=797fe398-0e88-4021-aa34-08f74073a77e","ios":"levelo://app?vid=797fe398-0e88-4021-aa34-08f74073a77e"},"vehicle_type_id":"4","last_reported":1777506160,"current_range_meters":4000,"station_id":"ce4bh3p2rcd13ifvqdp0","pricing_plan_id":"cebpf4jnsgd1na2vs0mg"},{"bike_id":"de127ff3-4dbd-40a5-926e-7a6862dbaee1","system_id":"levelo_inurba_marseille","lat":43.24462,"lon":5.42536,"is_reserved":false,"is_disabled":false,"rental_uris":{"android":"levelo://app?vid=de127ff3-4dbd-40a5-926e-7a6862dbaee1","ios":"levelo://app?vid=de127ff3-4dbd-40a5-926e-7a6862dbaee1"},"vehicle_type_id":"4","last_reported":1777506160,"current_range_meters":4400,"station_id":"st_d4a3vfp97mjs738cd8kg","pricing_plan_id":"cebpf4jnsgd1na2vs0mg"},{"bike_id":"d95faafa-3229-49af-ac36-99c740ad799d","system_id":"levelo_inurba_marseille","lat":43.29537,"lon":5.39014,"is_reserved":false,"is_disabled":false,"rental_uris":{"android":"levelo://app?vid=d95faafa-3229-49af-ac36-99c740ad799d","ios":"levelo://app?vid=d95faafa-3229-49af-ac36-99c740ad799d"},"vehicle_type_id":"4","last_reported":1777506160,"current_range_meters":4400,"station_id":"ce4bh3p2rcd13ifvqdp0","pricing_plan_id":"cebpf4jnsgd1na2vs0mg"},{"bike_id":"d4d191c1-1e42-44ce-acaa-f4fdd3a7ce8e","system_id":"levelo_inurba_marseille","lat":43.28522,"lon":5.38542,"is_reserved":false,"is_disabled":false,"rental_uris":{"android":"levelo://app?vid=d4d191c1-1e42-44ce-acaa-f4fdd3a7ce8e","ios":"levelo://app?vid=d4d191c1-1e42-44ce-acaa-f4fdd3a7ce8e"},"vehicle_type_id":"4","last_reported":1777506160,"current_range_meters":4400,"station_id":"","pricing_plan_id":"cebpf4jnsgd1na2vs0mg"},{"bike_id":"83a82950-3efb-4a04-9eb7-13259ab970cf","system_id":"levelo_inurba_marseille","lat":43.28453,"lon":5.35895,"is_reserved":false,"is_disabled":false,"rental_uris":{"android":"levelo://app?vid=83a82950-3efb-4a04-9eb7-13259ab970cf","ios":"levelo://app?vid=83a82950-3efb-4a04-9eb7-13259ab970cf"},"vehicle_type_id":"4","last_reported":1777506160,"current_range_meters":4400,"station_id":"ce4bhah2rcd13ifvqei0","pricing_plan_id":"cebpf4jnsgd1na2vs0mg"},{"bike_id":"c221a120-8e98-40bd-8495-75f882903dd5","system_id":"levelo_inurba_marseille","lat":43.31999,"lon":5.38145,"is_reserved":false,"is_disabled":false,"rental_uris":{"android":"levelo://app?vid=c221a120-8e98-40bd-8495-75f882903dd5","ios":"levelo://app?vid=c221a120-8e98-40bd-8495-75f882903dd5"},"vehicle_type_id":"4","last_reported":1777506160,"current_range_meters":4400,"station_id":"ce4bhr12rcd13ifvqhpg","pricing_plan_id":"cebpf4jnsgd1na2vs0mg"},{"bike_id":"24ece96c-de68-44c6-8cd2-ca134b921b67","system_id":"levelo_inurba_marseille","lat":43.29185,"lon":5.39313,"is_reserved":false,"is_disabled":false,"rental_uris":{"android":"levelo://app?vid=24ece96c-de68-44c6-8cd2-ca134b921b67","ios":"levelo://app?vid=24ece96c-de68-44c6-8cd2-ca134b921b67"},"vehicle_type_id":"4","last_reported":1777506160,"current_range_meters":4400,"station_id":"ce4bh192rcd13ifvqdd0","pricing_plan_id":"cebpf4jnsgd1na2vs0mg"},{"bike_id":"7bd770c4-4531-4c57-a651-ffa6ac060caa","system_id":"levelo_inurba_marseille","lat":43.27572,"lon":5.38398,"is_reserved":false,"is_disabled":false,"rental_uris":{"android":"levelo://app?vid=7bd770c4-4531-4c57-a651-ffa6ac060caa","ios":"levelo://app?vid=7bd770c4-4531-4c57-a651-ffa6ac060caa"},"vehicle_type_id":"4","last_reported":1777506160,"current_range_meters":4400,"station_id":"ce4bhh92rcd13ifvqfi0","pricing_plan_id":"cebpf4jnsgd1na2vs0mg"},{"bike_id":"36a88428-e754-4363-93d1-89cd7a8e2550","system_id":"levelo_inurba_marseille","lat":43.29182,"lon":5.386,"is_reserved":false,"is_disabled":false,"rental_uris":{"android":"levelo://app?vid=36a88428-e754-4363-93d1-89cd7a8e2550","ios":"levelo://app?vid=36a88428-e754-4363-93d1-89cd7a8e2550"},"vehicle_type_id":"4","last_reported":1777506160,"current_range_meters":4400,"station_id":"","pricing_plan_id":"cebpf4jnsgd1na2vs0mg"},{"bike_id":"cd5fa923-7cad-4362-80bd-a901b52e8500","system_id":"levelo_inurba_marseille","lat":43.27976,"lon":5.41668,"is_reserved":false,"is_disabled":false,"rental_uris":{"android":"levelo://app?vid=cd5fa923-7cad-4362-80bd-a901b52e8500","ios":"levelo://app?vid=cd5fa923-7cad-4362-80bd-a901b52e8500"},"vehicle_type_id":"4","last_reported":1777506160,"current_range_meters":4400,"station_id":"ce4bho12rcd13ifvqh1g","pricing_plan_id":"cebpf4jnsgd1na2vs0mg"},{"bike_id":"5f4360fa-9be3-4759-a27f-c7197cedd7e1","system_id":"levelo_inurba_marseille","lat":43.29803,"lon":5.39863,"is_reserved":false,"is_disabled":false,"rental_uris":{"android":"levelo://app?vid=5f4360fa-9be3-4759-a27f-c7197cedd7e1","ios":"levelo://app?vid=5f4360fa-9be3-4759-a27f-c7197cedd7e1"},"vehicle_type_id":"4","last_reported":1777506160,"current_range_meters":4400,"station_id":"","pricing_plan_id":"cebpf4jnsgd1na2vs0mg"},{"bike_id":"c393576f-dc7e-40b1-876f-3c25a664dd5f","system_id":"levelo_inurba_marseille","lat":43.32096,"lon":5.36764,"is_reserved":false,"is_disabled":false,"rental_uris":{"android":"levelo://app?vid=c393576f-dc7e-40b1-876f-3c25a664dd5f","ios":"levelo://app?vid=c393576f-dc7e-40b1-876f-3c25a664dd5f"},"vehicle_type_id":"4","last_reported":1777506160,"current_range_meters":4400,"station_id":"ce4bhrh2rcd13ifvqhug","pricing_plan_id":"cebpf4jnsgd1na2vs0mg"},{"bike_id":"c46d8a22-772b-40f4-a01d-512476bc1bbf","system_id":"levelo_inurba_marseille","lat":43.24951,"lon":5.40504,"is_reserved":false,"is_disabled":false,"rental_uris":{"android":"levelo://app?vid=c46d8a22-772b-40f4-a01d-512476bc1bbf","ios":"levelo://app?vid=c46d8a22-772b-40f4-a01d-512476bc1bbf"},"vehicle_type_id":"4","last_reported":1777506160,"current_range_meters":4400,"station_id":"st_d2ngiaodas8pm72gd1h0","pricing_plan_id":"cebpf4jnsgd1na2vs0mg"},{"bike_id":"0b68c8dc-741a-48da-823d-02ffd3bef2ee","system_id":"levelo_inurba_marseille","lat":43.31294,"lon":5.40229,"is_reserved":false,"is_disabled":false,"rental_uris":{"android":"levelo://app?vid=0b68c8dc-741a-48da-823d-02ffd3bef2ee","ios":"levelo://app?vid=0b68c8dc-741a-48da-823d-02ffd3bef2ee"},"vehicle_type_id":"4","last_reported":1777506160,"current_range_meters":4400,"station_id":"","pricing_plan_id":"cebpf4jnsgd1na2vs0mg"},{"bike_id":"34f79ee3-0315-4628-b92d-415ca46576e9","system_id":"levelo_inurba_marseille","lat":43.24661,"lon":5.38167,"is_reserved":false,"is_disabled":false,"rental_uris":{"android":"levelo://app?vid=34f79ee3-0315-4628-b92d-415ca46576e9","ios":"levelo://app?vid=34f79ee3-0315-4628-b92d-415ca46576e9"},"vehicle_type_id":"4","last_reported":1777506160,"current_range_meters":4400,"station_id":"ce4bhih2rcd13ifvqfr0","pricing_plan_id":"cebpf4jnsgd1na2vs0mg"},{"bike_id":"e03a9553-f014-4591-84d1-bb481db182e5","system_id":"levelo_inurba_marseille","lat":43.28705,"lon":5.46695,"is_reserved":false,"is_disabled":false,"rental_uris":{"android":"levelo://app?vid=e03a9553-f014-4591-84d1-bb481db182e5","ios":"levelo://app?vid=e03a9553-f014-4591-84d1-bb481db182e5"},"vehicle_type_id":"4","last_reported":1777506160,"current_range_meters":4400,"station_id":"st_d6tc3vkotcvc738tfjhg","pricing_plan_id":"cebpf4jnsgd1na2vs0mg"},{"bike_id":"39c090b7-9a74-4e0c-add2-1000b75cfa22","system_id":"levelo_inurba_marseille","lat":43.25826,"lon":5.39442,"is_reserved":false,"is_disabled":false,"rental_uris":{"android":"levelo://app?vid=39c090b7-9a74-4e0c-add2-1000b75cfa22","ios":"levelo://app?vid=39c090b7-9a74-4e0c-add2-1000b75cfa22"},"vehicle_type_id":"4","last_reported":1777506160,"current_range_meters":4400,"station_id":"ce4bhip2rcd13ifvqft0","pricing_plan_id":"cebpf4jnsgd1na2vs0mg"},{"bike_id":"d7ff4366-a2b4-446e-ba29-d062b2256f1c","system_id":"levelo_inurba_marseille","lat":43.29896,"lon":5.4368,"is_reserved":false,"is_disabled":false,"rental_uris":{"android":"levelo://app?vid=d7ff4366-a2b4-446e-ba29-d062b2256f1c","ios":"levelo://app?vid=d7ff4366-a2b4-446e-ba29-d062b2256f1c"},"vehicle_type_id":"4","last_reported":1777506160,"current_range_meters":4400,"station_id":"ce4bhpp2rcd13ifvqhfg","pricing_plan_id":"cebpf4jnsgd1na2vs0mg"},{"bike_id":"a25b3b45-c83d-4cac-832c-c6baa24c1205","system_id":"levelo_inurba_marseille","lat":43.30736,"lon":5.42443,"is_reserved":false,"is_disabled":false,"rental_uris":{"android":"levelo://app?vid=a25b3b45-c83d-4cac-832c-c6baa24c1205","ios":"levelo://app?vid=a25b3b45-c83d-4cac-832c-c6baa24c1205"},"vehicle_type_id":"4","last_reported":1777506160,"current_range_meters":4400,"station_id":"st_cvj6ca6bvosntc0bfgr0","pricing_plan_id":"cebpf4jnsgd1na2vs0mg"},{"bike_id":"d5aa4baf-bc7a-4b8f-a794-d37433e8ed98","system_id":"levelo_inurba_marseille","lat":43.27813,"lon":5.40715,"is_reserved":false,"is_disabled":false,"rental_uris":{"android":"levelo://app?vid=d5aa4baf-bc7a-4b8f-a794-d37433e8ed98","ios":"levelo://app?vid=d5aa4baf-bc7a-4b8f-a794-d37433e8ed98"},"vehicle_type_id":"4","last_reported":1777506160,"current_range_meters":4800,"station_id":"ce4bhnh2rcd13ifvqgtg","pricing_plan_id":"cebpf4jnsgd1na2vs0mg"},{"bike_id":"1cbd7a2f-c172-4047-b937-0c242d2d7b98","system_id":"levelo_inurba_marseille","lat":43.29936,"lon":5.39074,"is_reserved":false,"is_disabled":false,"rental_uris":{"android":"levelo://app?vid=1cbd7a2f-c172-4047-b937-0c242d2d7b98","ios":"levelo://app?vid=1cbd7a2f-c172-4047-b937-0c242d2d7b98"},"vehicle_type_id":"4","last_reported":1777506160,"current_range_meters":4800,"station_id":"","pricing_plan_id":"cebpf4jnsgd1na2vs0mg"},{"bike_id":"dcd3e25f-5746-4434-bb90-db714cca926b","system_id":"levelo_inurba_marseille","lat":43.29869,"lon":5.39745,"is_reserved":false,"is_disabled":false,"rental_uris":{"android":"levelo://app?vid=dcd3e25f-5746-4434-bb90-db714cca926b","ios":"levelo://app?vid=dcd3e25f-5746-4434-bb90-db714cca926b"},"vehicle_type_id":"4","last_reported":1777506160,"current_range_meters":4800,"station_id":"ce4bh0h2rcd13ifvqd50","pricing_plan_id":"cebpf4jnsgd1na2vs0mg"},{"bike_id":"f6dce53f-7018-47f9-bfd2-251ba4be96ae","system_id":"levelo_inurba_marseille","lat":43.26365,"lon":5.41085,"is_reserved":false,"is_disabled":false,"rental_uris":{"android":"levelo://app?vid=f6dce53f-7018-47f9-bfd2-251ba4be96ae","ios":"levelo://app?vid=f6dce53f-7018-47f9-bfd2-251ba4be96ae"},"vehicle_type_id":"4","last_reported":1777506160,"current_range_meters":4800,"station_id":"st_d4e5ca6na9uc73bfl5fg","pricing_plan_id":"cebpf4jnsgd1na2vs0mg"},{"bike_id":"e1d26622-7491-4fdf-a6f0-77cbc7cac2ef","system_id":"levelo_inurba_marseille","lat":43.24165,"lon":5.36403,"is_reserved":false,"is_disabled":false,"rental_uris":{"android":"levelo://app?vid=e1d26622-7491-4fdf-a6f0-77cbc7cac2ef","ios":"levelo://app?vid=e1d26622-7491-4fdf-a6f0-77cbc7cac2ef"},"vehicle_type_id":"4","last_reported":1777506160,"current_range_meters":4800,"station_id":"cpo36qri1sfpv3e86is0","pricing_plan_id":"cebpf4jnsgd1na2vs0mg"},{"bike_id":"b52ffd43-f0b5-471b-895f-34632dd32259","system_id":"levelo_inurba_marseille","lat":43.28211,"lon":5.39048,"is_reserved":false,"is_disabled":false,"rental_uris":{"android":"levelo://app?vid=b52ffd43-f0b5-471b-895f-34632dd32259","ios":"levelo://app?vid=b52ffd43-f0b5-471b-895f-34632dd32259"},"vehicle_type_id":"4","last_reported":1777506160,"current_range_meters":4800,"station_id":"ce4bhn92rcd13ifvqgsg","pricing_plan_id":"cebpf4jnsgd1na2vs0mg"},{"bike_id":"de82078d-e0fe-4854-afb7-413340d0a9fe","system_id":"levelo_inurba_marseille","lat":43.316971,"lon":5.371762,"is_reserved":false,"is_disabled":false,"rental_uris":{"android":"levelo://app?vid=de82078d-e0fe-4854-afb7-413340d0a9fe","ios":"levelo://app?vid=de82078d-e0fe-4854-afb7-413340d0a9fe"},"vehicle_type_id":"4","last_reported":1777506160,"current_range_meters":4800,"station_id":"ce4bhh12rcd13ifvqff0","pricing_plan_id":"cebpf4jnsgd1na2vs0mg"},{"bike_id":"490d543e-6b30-4b0c-b6b3-5dfd9086fe8a","system_id":"levelo_inurba_marseille","lat":43.28557,"lon":5.38386,"is_reserved":false,"is_disabled":false,"rental_uris":{"android":"levelo://app?vid=490d543e-6b30-4b0c-b6b3-5dfd9086fe8a","ios":"levelo://app?vid=490d543e-6b30-4b0c-b6b3-5dfd9086fe8a"},"vehicle_type_id":"4","last_reported":1777506160,"current_range_meters":4800,"station_id":"","pricing_plan_id":"cebpf4jnsgd1na2vs0mg"},{"bike_id":"9491e6c6-2dd7-4afc-ae57-d0c881ef797c","system_id":"levelo_inurba_marseille","lat":43.28691,"lon":5.37349,"is_reserved":false,"is_disabled":false,"rental_uris":{"android":"levelo://app?vid=9491e6c6-2dd7-4afc-ae57-d0c881ef797c","ios":"levelo://app?vid=9491e6c6-2dd7-4afc-ae57-d0c881ef797c"},"vehicle_type_id":"4","last_reported":1777506160,"current_range_meters":4800,"station_id":"ce4bh3p2rcd13ifvqdq0","pricing_plan_id":"cebpf4jnsgd1na2vs0mg"},{"bike_id":"550b61bf-024e-4f9e-9492-2a8f7afeae1e","system_id":"levelo_inurba_marseille","lat":43.30844,"lon":5.40495,"is_reserved":false,"is_disabled":false,"rental_uris":{"android":"levelo://app?vid=550b61bf-024e-4f9e-9492-2a8f7afeae1e","ios":"levelo://app?vid=550b61bf-024e-4f9e-9492-2a8f7afeae1e"},"vehicle_type_id":"4","last_reported":1777506160,"current_range_meters":4800,"station_id":"","pricing_plan_id":"cebpf4jnsgd1na2vs0mg"},{"bike_id":"2d25c2ef-7361-4b19-8e13-2f3751f3fcdd","system_id":"levelo_inurba_marseille","lat":43.25186,"lon":5.41136,"is_reserved":false,"is_disabled":false,"rental_uris":{"android":"levelo://app?vid=2d25c2ef-7361-4b19-8e13-2f3751f3fcdd","ios":"levelo://app?vid=2d25c2ef-7361-4b19-8e13-2f3751f3fcdd"},"vehicle_type_id":"4","last_reported":1777506160,"current_range_meters":4800,"station_id":"","pricing_plan_id":"cebpf4jnsgd1na2vs0mg"},{"bike_id":"5537dfa5-a5e0-4afa-afaa-71ea6ad83ffd","system_id":"levelo_inurba_marseille","lat":43.28841,"lon":5.35843,"is_reserved":false,"is_disabled":true,"rental_uris":{"android":"levelo://app?vid=5537dfa5-a5e0-4afa-afaa-71ea6ad83ffd","ios":"levelo://app?vid=5537dfa5-a5e0-4afa-afaa-71ea6ad83ffd"},"vehicle_type_id":"4","last_reported":1777506160,"current_range_meters":5600,"station_id":"ce4bhb12rcd13ifvqem0","pricing_plan_id":"cebpf4jnsgd1na2vs0mg"},{"bike_id":"bbc2f778-ecf6-4419-b9a7-78a6f4492f95","system_id":"levelo_inurba_marseille","lat":43.292273,"lon":5.360653,"is_reserved":false,"is_disabled":false,"rental_uris":{"android":"levelo://app?vid=bbc2f778-ecf6-4419-b9a7-78a6f4492f95","ios":"levelo://app?vid=bbc2f778-ecf6-4419-b9a7-78a6f4492f95"},"vehicle_type_id":"4","last_reported":1777506160,"current_range_meters":5600,"station_id":"ce4bhbh2rcd13ifvqeqg","pricing_plan_id":"cebpf4jnsgd1na2vs0mg"},{"bike_id":"94f11d13-a2b0-4f18-a58b-01e14d3c2001","system_id":"levelo_inurba_marseille","lat":43.24083,"lon":5.37767,"is_reserved":false,"is_disabled":true,"rental_uris":{"android":"levelo://app?vid=94f11d13-a2b0-4f18-a58b-01e14d3c2001","ios":"levelo://app?vid=94f11d13-a2b0-4f18-a58b-01e14d3c2001"},"vehicle_type_id":"4","last_reported":1777506160,"current_range_meters":5600,"station_id":"ce4bhnp2rcd13ifvqgvg","pricing_plan_id":"cebpf4jnsgd1na2vs0mg"},{"bike_id":"d1b0cfb9-74d2-4ee1-ab25-6099cdfdd0f2","system_id":"levelo_inurba_marseille","lat":43.2837,"lon":5.40094,"is_reserved":false,"is_disabled":false,"rental_uris":{"android":"levelo://app?vid=d1b0cfb9-74d2-4ee1-ab25-6099cdfdd0f2","ios":"levelo://app?vid=d1b0cfb9-74d2-4ee1-ab25-6099cdfdd0f2"},"vehicle_type_id":"4","last_reported":1777506160,"current_range_meters":5600,"station_id":"","pricing_plan_id":"cebpf4jnsgd1na2vs0mg"},{"bike_id":"484fb1ff-9b60-474a-9a2b-f9c0ac219c4e","system_id":"levelo_inurba_marseille","lat":43.31165,"lon":5.38717,"is_reserved":false,"is_disabled":false,"rental_uris":{"android":"levelo://app?vid=484fb1ff-9b60-474a-9a2b-f9c0ac219c4e","ios":"levelo://app?vid=484fb1ff-9b60-474a-9a2b-f9c0ac219c4e"},"vehicle_type_id":"4","last_reported":1777506160,"current_range_meters":5600,"station_id":"ce4bgv12rcd13ifvqcp0","pricing_plan_id":"cebpf4jnsgd1na2vs0mg"},{"bike_id":"e28ee9fd-4d27-4343-815f-4fe16ddfc2c7","system_id":"levelo_inurba_marseille","lat":43.27072,"lon":5.38311,"is_reserved":false,"is_disabled":false,"rental_uris":{"android":"levelo://app?vid=e28ee9fd-4d27-4343-815f-4fe16ddfc2c7","ios":"levelo://app?vid=e28ee9fd-4d27-4343-815f-4fe16ddfc2c7"},"vehicle_type_id":"4","last_reported":1777506160,"current_range_meters":5600,"station_id":"st_d3n2fo6cfp8s73cte1j0","pricing_plan_id":"cebpf4jnsgd1na2vs0mg"},{"bike_id":"5e4372d3-fba2-470f-9034-af3ba5bb5e2e","system_id":"levelo_inurba_marseille","lat":43.27326,"lon":5.39092,"is_reserved":false,"is_disabled":true,"rental_uris":{"android":"levelo://app?vid=5e4372d3-fba2-470f-9034-af3ba5bb5e2e","ios":"levelo://app?vid=5e4372d3-fba2-470f-9034-af3ba5bb5e2e"},"vehicle_type_id":"4","last_reported":1777506160,"current_range_meters":5600,"station_id":"ce4bhgp2rcd13ifvqfe0","pricing_plan_id":"cebpf4jnsgd1na2vs0mg"},{"bike_id":"afce14e9-d3d8-4e4c-a556-c5c0519b0370","system_id":"levelo_inurba_marseille","lat":43.29905,"lon":5.3922,"is_reserved":false,"is_disabled":false,"rental_uris":{"android":"levelo://app?vid=afce14e9-d3d8-4e4c-a556-c5c0519b0370","ios":"levelo://app?vid=afce14e9-d3d8-4e4c-a556-c5c0519b0370"},"vehicle_type_id":"4","last_reported":1777506160,"current_range_meters":5600,"station_id":"","pricing_plan_id":"cebpf4jnsgd1na2vs0mg"},{"bike_id":"25926b90-7656-45cb-9aac-f32bfdbe8ad5","system_id":"levelo_inurba_marseille","lat":43.27942,"lon":5.43602,"is_reserved":false,"is_disabled":true,"rental_uris":{"android":"levelo://app?vid=25926b90-7656-45cb-9aac-f32bfdbe8ad5","ios":"levelo://app?vid=25926b90-7656-45cb-9aac-f32bfdbe8ad5"},"vehicle_type_id":"4","last_reported":1777506160,"current_range_meters":5600,"station_id":"","pricing_plan_id":"cebpf4jnsgd1na2vs0mg"},{"bike_id":"4da23bbf-8aab-4991-bb00-1a569a4581cc","system_id":"levelo_inurba_marseille","lat":43.27066,"lon":5.42282,"is_reserved":false,"is_disabled":false,"rental_uris":{"android":"levelo://app?vid=4da23bbf-8aab-4991-bb00-1a569a4581cc","ios":"levelo://app?vid=4da23bbf-8aab-4991-bb00-1a569a4581cc"},"vehicle_type_id":"4","last_reported":1777506160,"current_range_meters":5600,"station_id":"ce4bhk92rcd13ifvqgb0","pricing_plan_id":"cebpf4jnsgd1na2vs0mg"},{"bike_id":"510fc79e-9732-4d6f-9901-92a69d0052be","system_id":"levelo_inurba_marseille","lat":43.25339,"lon":5.42185,"is_reserved":false,"is_disabled":false,"rental_uris":{"android":"levelo://app?vid=510fc79e-9732-4d6f-9901-92a69d0052be","ios":"levelo://app?vid=510fc79e-9732-4d6f-9901-92a69d0052be"},"vehicle_type_id":"4","last_reported":1777506160,"current_range_meters":5600,"station_id":"st_d2m65c5bi1j21697t3ng","pricing_plan_id":"cebpf4jnsgd1na2vs0mg"},{"bike_id":"b4a497ea-222e-419c-a826-4feb72e6ade8","system_id":"levelo_inurba_marseille","lat":43.28696,"lon":5.46692,"is_reserved":false,"is_disabled":false,"rental_uris":{"android":"levelo://app?vid=b4a497ea-222e-419c-a826-4feb72e6ade8","ios":"levelo://app?vid=b4a497ea-222e-419c-a826-4feb72e6ade8"},"vehicle_type_id":"4","last_reported":1777506160,"current_range_meters":6000,"station_id":"st_d6tc3vkotcvc738tfjhg","pricing_plan_id":"cebpf4jnsgd1na2vs0mg"},{"bike_id":"d29eb708-8881-444e-9044-09968ccad5bd","system_id":"levelo_inurba_marseille","lat":43.31492,"lon":5.37287,"is_reserved":false,"is_disabled":false,"rental_uris":{"android":"levelo://app?vid=d29eb708-8881-444e-9044-09968ccad5bd","ios":"levelo://app?vid=d29eb708-8881-444e-9044-09968ccad5bd"},"vehicle_type_id":"4","last_reported":1777506160,"current_range_meters":6000,"station_id":"ce4bgt12rcd13ifvqcd0","pricing_plan_id":"cebpf4jnsgd1na2vs0mg"},{"bike_id":"8599c90a-3518-422e-828d-0a863fb684ea","system_id":"levelo_inurba_marseille","lat":43.30249,"lon":5.40145,"is_reserved":false,"is_disabled":false,"rental_uris":{"android":"levelo://app?vid=8599c90a-3518-422e-828d-0a863fb684ea","ios":"levelo://app?vid=8599c90a-3518-422e-828d-0a863fb684ea"},"vehicle_type_id":"4","last_reported":1777506160,"current_range_meters":6000,"station_id":"","pricing_plan_id":"cebpf4jnsgd1na2vs0mg"},{"bike_id":"066dfa00-b1f7-4430-8185-d8b0b60f921f","system_id":"levelo_inurba_marseille","lat":43.30078,"lon":5.39071,"is_reserved":false,"is_disabled":false,"rental_uris":{"android":"levelo://app?vid=066dfa00-b1f7-4430-8185-d8b0b60f921f","ios":"levelo://app?vid=066dfa00-b1f7-4430-8185-d8b0b60f921f"},"vehicle_type_id":"4","last_reported":1777506160,"current_range_meters":6000,"station_id":"ce4bh192rcd13ifvqdb0","pricing_plan_id":"cebpf4jnsgd1na2vs0mg"},{"bike_id":"95ca8cc5-afd5-46a2-b335-22ee4def044e","system_id":"levelo_inurba_marseille","lat":43.24622,"lon":5.4316,"is_reserved":false,"is_disabled":false,"rental_uris":{"android":"levelo://app?vid=95ca8cc5-afd5-46a2-b335-22ee4def044e","ios":"levelo://app?vid=95ca8cc5-afd5-46a2-b335-22ee4def044e"},"vehicle_type_id":"4","last_reported":1777506160,"current_range_meters":6000,"station_id":"st_d2m6c4gdas8pm72e190g","pricing_plan_id":"cebpf4jnsgd1na2vs0mg"},{"bike_id":"449be96e-c28c-4612-a637-9c45f36bf8b9","system_id":"levelo_inurba_marseille","lat":43.28928,"lon":5.36632,"is_reserved":false,"is_disabled":false,"rental_uris":{"android":"levelo://app?vid=449be96e-c28c-4612-a637-9c45f36bf8b9","ios":"levelo://app?vid=449be96e-c28c-4612-a637-9c45f36bf8b9"},"vehicle_type_id":"4","last_reported":1777506160,"current_range_meters":6000,"station_id":"ce4bhap2rcd13ifvqek0","pricing_plan_id":"cebpf4jnsgd1na2vs0mg"},{"bike_id":"cdecdba8-0440-4e27-8f88-2f26c7919ff8","system_id":"levelo_inurba_marseille","lat":43.28548,"lon":5.37225,"is_reserved":false,"is_disabled":false,"rental_uris":{"android":"levelo://app?vid=cdecdba8-0440-4e27-8f88-2f26c7919ff8","ios":"levelo://app?vid=cdecdba8-0440-4e27-8f88-2f26c7919ff8"},"vehicle_type_id":"4","last_reported":1777506160,"current_range_meters":6000,"station_id":"","pricing_plan_id":"cebpf4jnsgd1na2vs0mg"},{"bike_id":"32ce4a48-baf2-48fe-a472-5404969ae354","system_id":"levelo_inurba_marseille","lat":43.29875,"lon":5.38902,"is_reserved":false,"is_disabled":false,"rental_uris":{"android":"levelo://app?vid=32ce4a48-baf2-48fe-a472-5404969ae354","ios":"levelo://app?vid=32ce4a48-baf2-48fe-a472-5404969ae354"},"vehicle_type_id":"4","last_reported":1777506160,"current_range_meters":6000,"station_id":"ce4bh392rcd13ifvqdl0","pricing_plan_id":"cebpf4jnsgd1na2vs0mg"},{"bike_id":"69bed6b3-f53b-4286-bac2-14ab33299680","system_id":"levelo_inurba_marseille","lat":43.30589,"lon":5.39358,"is_reserved":false,"is_disabled":true,"rental_uris":{"android":"levelo://app?vid=69bed6b3-f53b-4286-bac2-14ab33299680","ios":"levelo://app?vid=69bed6b3-f53b-4286-bac2-14ab33299680"},"vehicle_type_id":"4","last_reported":1777506160,"current_range_meters":6000,"station_id":"ce4bh0p2rcd13ifvqd80","pricing_plan_id":"cebpf4jnsgd1na2vs0mg"},{"bike_id":"e80f8c62-7705-40b7-808f-fa9231dbf360","system_id":"levelo_inurba_marseille","lat":43.29887,"lon":5.39713,"is_reserved":false,"is_disabled":false,"rental_uris":{"android":"levelo://app?vid=e80f8c62-7705-40b7-808f-fa9231dbf360","ios":"levelo://app?vid=e80f8c62-7705-40b7-808f-fa9231dbf360"},"vehicle_type_id":"4","last_reported":1777506160,"current_range_meters":6000,"station_id":"ce4bh0h2rcd13ifvqd50","pricing_plan_id":"cebpf4jnsgd1na2vs0mg"},{"bike_id":"d2bffbeb-b1c3-4c62-834a-33d6be2c2f87","system_id":"levelo_inurba_marseille","lat":43.27211,"lon":5.39188,"is_reserved":false,"is_disabled":true,"rental_uris":{"android":"levelo://app?vid=d2bffbeb-b1c3-4c62-834a-33d6be2c2f87","ios":"levelo://app?vid=d2bffbeb-b1c3-4c62-834a-33d6be2c2f87"},"vehicle_type_id":"4","last_reported":1777506160,"current_range_meters":6400,"station_id":"ce4bhhp2rcd13ifvqfm0","pricing_plan_id":"cebpf4jnsgd1na2vs0mg"},{"bike_id":"e8c45a74-740f-4fc5-b008-5dd3be21b931","system_id":"levelo_inurba_marseille","lat":43.31149,"lon":5.38008,"is_reserved":false,"is_disabled":false,"rental_uris":{"android":"levelo://app?vid=e8c45a74-740f-4fc5-b008-5dd3be21b931","ios":"levelo://app?vid=e8c45a74-740f-4fc5-b008-5dd3be21b931"},"vehicle_type_id":"4","last_reported":1777506160,"current_range_meters":6400,"station_id":"","pricing_plan_id":"cebpf4jnsgd1na2vs0mg"},{"bike_id":"31042abc-fdb4-45c6-af1d-f214e842ea8b","system_id":"levelo_inurba_marseille","lat":43.30955,"lon":5.42166,"is_reserved":false,"is_disabled":false,"rental_uris":{"android":"levelo://app?vid=31042abc-fdb4-45c6-af1d-f214e842ea8b","ios":"levelo://app?vid=31042abc-fdb4-45c6-af1d-f214e842ea8b"},"vehicle_type_id":"4","last_reported":1777506160,"current_range_meters":6400,"station_id":"","pricing_plan_id":"cebpf4jnsgd1na2vs0mg"},{"bike_id":"bccd3b93-1cdb-49b7-8d2b-b6c4f5686242","system_id":"levelo_inurba_marseille","lat":43.30093,"lon":5.39097,"is_reserved":false,"is_disabled":false,"rental_uris":{"android":"levelo://app?vid=bccd3b93-1cdb-49b7-8d2b-b6c4f5686242","ios":"levelo://app?vid=bccd3b93-1cdb-49b7-8d2b-b6c4f5686242"},"vehicle_type_id":"4","last_reported":1777506160,"current_range_meters":6400,"station_id":"ce4bh192rcd13ifvqdb0","pricing_plan_id":"cebpf4jnsgd1na2vs0mg"},{"bike_id":"8795c779-0e99-4a77-a45d-0721141a9d8a","system_id":"levelo_inurba_marseille","lat":43.28988,"lon":5.37813,"is_reserved":false,"is_disabled":false,"rental_uris":{"android":"levelo://app?vid=8795c779-0e99-4a77-a45d-0721141a9d8a","ios":"levelo://app?vid=8795c779-0e99-4a77-a45d-0721141a9d8a"},"vehicle_type_id":"4","last_reported":1777506160,"current_range_meters":6400,"station_id":"ce4bh9p2rcd13ifvqed0","pricing_plan_id":"cebpf4jnsgd1na2vs0mg"},{"bike_id":"de4c0c87-b72a-499a-b48b-cb96a6d61600","system_id":"levelo_inurba_marseille","lat":43.28688,"lon":5.39983,"is_reserved":false,"is_disabled":false,"rental_uris":{"android":"levelo://app?vid=de4c0c87-b72a-499a-b48b-cb96a6d61600","ios":"levelo://app?vid=de4c0c87-b72a-499a-b48b-cb96a6d61600"},"vehicle_type_id":"4","last_reported":1777506160,"current_range_meters":6400,"station_id":"ce4bho92rcd13ifvqh3g","pricing_plan_id":"cebpf4jnsgd1na2vs0mg"},{"bike_id":"cd735691-a8cf-469c-b880-28ec2dcf0dc2","system_id":"levelo_inurba_marseille","lat":43.33527,"lon":5.37473,"is_reserved":false,"is_disabled":false,"rental_uris":{"android":"levelo://app?vid=cd735691-a8cf-469c-b880-28ec2dcf0dc2","ios":"levelo://app?vid=cd735691-a8cf-469c-b880-28ec2dcf0dc2"},"vehicle_type_id":"4","last_reported":1777506160,"current_range_meters":6400,"station_id":"st_d46tts09ee8s73dlu43g","pricing_plan_id":"cebpf4jnsgd1na2vs0mg"},{"bike_id":"7e661621-2d60-436d-82ab-1d584e90908a","system_id":"levelo_inurba_marseille","lat":43.27822,"lon":5.40689,"is_reserved":false,"is_disabled":false,"rental_uris":{"android":"levelo://app?vid=7e661621-2d60-436d-82ab-1d584e90908a","ios":"levelo://app?vid=7e661621-2d60-436d-82ab-1d584e90908a"},"vehicle_type_id":"4","last_reported":1777506160,"current_range_meters":6400,"station_id":"ce4bhnh2rcd13ifvqgtg","pricing_plan_id":"cebpf4jnsgd1na2vs0mg"},{"bike_id":"5563704b-f889-41a1-a394-6e3417437bea","system_id":"levelo_inurba_marseille","lat":43.30311,"lon":5.39181,"is_reserved":false,"is_disabled":true,"rental_uris":{"android":"levelo://app?vid=5563704b-f889-41a1-a394-6e3417437bea","ios":"levelo://app?vid=5563704b-f889-41a1-a394-6e3417437bea"},"vehicle_type_id":"4","last_reported":1777506160,"current_range_meters":6400,"station_id":"ce4bgkh2rcd13ifvqbk0","pricing_plan_id":"cebpf4jnsgd1na2vs0mg"},{"bike_id":"ab5638f9-d49e-43c8-bab0-5e1b77321ada","system_id":"levelo_inurba_marseille","lat":43.30802,"lon":5.38157,"is_reserved":false,"is_disabled":false,"rental_uris":{"android":"levelo://app?vid=ab5638f9-d49e-43c8-bab0-5e1b77321ada","ios":"levelo://app?vid=ab5638f9-d49e-43c8-bab0-5e1b77321ada"},"vehicle_type_id":"4","last_reported":1777506160,"current_range_meters":6400,"station_id":"ce4bgt12rcd13ifvqce0","pricing_plan_id":"cebpf4jnsgd1na2vs0mg"},{"bike_id":"b5592bc3-7c5d-4ba9-b1ae-b173928aef8c","system_id":"levelo_inurba_marseille","lat":43.28492,"lon":5.48381,"is_reserved":false,"is_disabled":false,"rental_uris":{"android":"levelo://app?vid=b5592bc3-7c5d-4ba9-b1ae-b173928aef8c","ios":"levelo://app?vid=b5592bc3-7c5d-4ba9-b1ae-b173928aef8c"},"vehicle_type_id":"4","last_reported":1777506160,"current_range_meters":6800,"station_id":"","pricing_plan_id":"cebpf4jnsgd1na2vs0mg"},{"bike_id":"a750cf25-5dfc-44c2-8510-6a2a9f9a56c2","system_id":"levelo_inurba_marseille","lat":43.31333,"lon":5.397,"is_reserved":false,"is_disabled":false,"rental_uris":{"android":"levelo://app?vid=a750cf25-5dfc-44c2-8510-6a2a9f9a56c2","ios":"levelo://app?vid=a750cf25-5dfc-44c2-8510-6a2a9f9a56c2"},"vehicle_type_id":"4","last_reported":1777506160,"current_range_meters":6800,"station_id":"ce4bgvp2rcd13ifvqcu0","pricing_plan_id":"cebpf4jnsgd1na2vs0mg"},{"bike_id":"84caa600-f83f-4ce9-888d-fe1ec9949215","system_id":"levelo_inurba_marseille","lat":43.26363,"lon":5.41079,"is_reserved":false,"is_disabled":false,"rental_uris":{"android":"levelo://app?vid=84caa600-f83f-4ce9-888d-fe1ec9949215","ios":"levelo://app?vid=84caa600-f83f-4ce9-888d-fe1ec9949215"},"vehicle_type_id":"4","last_reported":1777506160,"current_range_meters":6800,"station_id":"st_d4e5ca6na9uc73bfl5fg","pricing_plan_id":"cebpf4jnsgd1na2vs0mg"},{"bike_id":"acc57406-75de-43a2-a6ec-d941193f0be0","system_id":"levelo_inurba_marseille","lat":43.32325,"lon":5.3552,"is_reserved":false,"is_disabled":false,"rental_uris":{"android":"levelo://app?vid=acc57406-75de-43a2-a6ec-d941193f0be0","ios":"levelo://app?vid=acc57406-75de-43a2-a6ec-d941193f0be0"},"vehicle_type_id":"4","last_reported":1777506160,"current_range_meters":6800,"station_id":"","pricing_plan_id":"cebpf4jnsgd1na2vs0mg"},{"bike_id":"9875a7bf-ab8a-453d-af6a-02eaa4a26bba","system_id":"levelo_inurba_marseille","lat":43.28694,"lon":5.3739,"is_reserved":false,"is_disabled":false,"rental_uris":{"android":"levelo://app?vid=9875a7bf-ab8a-453d-af6a-02eaa4a26bba","ios":"levelo://app?vid=9875a7bf-ab8a-453d-af6a-02eaa4a26bba"},"vehicle_type_id":"4","last_reported":1777506160,"current_range_meters":6800,"station_id":"ce4bh3p2rcd13ifvqdq0","pricing_plan_id":"cebpf4jnsgd1na2vs0mg"},{"bike_id":"2c514eca-0c7c-4c54-8544-da1a555049b6","system_id":"levelo_inurba_marseille","lat":43.26503,"lon":5.36949,"is_reserved":false,"is_disabled":false,"rental_uris":{"android":"levelo://app?vid=2c514eca-0c7c-4c54-8544-da1a555049b6","ios":"levelo://app?vid=2c514eca-0c7c-4c54-8544-da1a555049b6"},"vehicle_type_id":"4","last_reported":1777506160,"current_range_meters":6800,"station_id":"","pricing_plan_id":"cebpf4jnsgd1na2vs0mg"},{"bike_id":"a496669f-42ea-4ec8-b909-b71bb128370f","system_id":"levelo_inurba_marseille","lat":43.33535,"lon":5.37469,"is_reserved":false,"is_disabled":false,"rental_uris":{"android":"levelo://app?vid=a496669f-42ea-4ec8-b909-b71bb128370f","ios":"levelo://app?vid=a496669f-42ea-4ec8-b909-b71bb128370f"},"vehicle_type_id":"4","last_reported":1777506160,"current_range_meters":6800,"station_id":"st_d46tts09ee8s73dlu43g","pricing_plan_id":"cebpf4jnsgd1na2vs0mg"},{"bike_id":"07919e2d-9a9f-4079-9fd2-ae993e85b930","system_id":"levelo_inurba_marseille","lat":43.21122,"lon":5.3508,"is_reserved":false,"is_disabled":false,"rental_uris":{"android":"levelo://app?vid=07919e2d-9a9f-4079-9fd2-ae993e85b930","ios":"levelo://app?vid=07919e2d-9a9f-4079-9fd2-ae993e85b930"},"vehicle_type_id":"4","last_reported":1777506160,"current_range_meters":6800,"station_id":"","pricing_plan_id":"cebpf4jnsgd1na2vs0mg"},{"bike_id":"b91f4f99-7987-40ea-afbb-1e1af65ec675","system_id":"levelo_inurba_marseille","lat":43.2943,"lon":5.40922,"is_reserved":false,"is_disabled":false,"rental_uris":{"android":"levelo://app?vid=b91f4f99-7987-40ea-afbb-1e1af65ec675","ios":"levelo://app?vid=b91f4f99-7987-40ea-afbb-1e1af65ec675"},"vehicle_type_id":"4","last_reported":1777506160,"current_range_meters":6800,"station_id":"","pricing_plan_id":"cebpf4jnsgd1na2vs0mg"},{"bike_id":"c49761ac-9f33-4552-bf2f-10763f93fa50","system_id":"levelo_inurba_marseille","lat":43.31898,"lon":5.367987,"is_reserved":false,"is_disabled":false,"rental_uris":{"android":"levelo://app?vid=c49761ac-9f33-4552-bf2f-10763f93fa50","ios":"levelo://app?vid=c49761ac-9f33-4552-bf2f-10763f93fa50"},"vehicle_type_id":"4","last_reported":1777506160,"current_range_meters":6800,"station_id":"st_d6o2h0d0559c73evc1b0","pricing_plan_id":"cebpf4jnsgd1na2vs0mg"},{"bike_id":"9704bc80-93c0-4593-9446-7d79d9f301af","system_id":"levelo_inurba_marseille","lat":43.28632,"lon":5.39864,"is_reserved":false,"is_disabled":false,"rental_uris":{"android":"levelo://app?vid=9704bc80-93c0-4593-9446-7d79d9f301af","ios":"levelo://app?vid=9704bc80-93c0-4593-9446-7d79d9f301af"},"vehicle_type_id":"4","last_reported":1777506160,"current_range_meters":6800,"station_id":"st_d4a7ka997mjs738ck50g","pricing_plan_id":"cebpf4jnsgd1na2vs0mg"},{"bike_id":"4c4fd5bf-edd1-4e64-bbba-8e4e3d30b47b","system_id":"levelo_inurba_marseille","lat":43.29116,"lon":5.42999,"is_reserved":false,"is_disabled":false,"rental_uris":{"android":"levelo://app?vid=4c4fd5bf-edd1-4e64-bbba-8e4e3d30b47b","ios":"levelo://app?vid=4c4fd5bf-edd1-4e64-bbba-8e4e3d30b47b"},"vehicle_type_id":"4","last_reported":1777506160,"current_range_meters":6800,"station_id":"","pricing_plan_id":"cebpf4jnsgd1na2vs0mg"},{"bike_id":"202a2148-e07f-4b9b-afd8-f9429f3e2618","system_id":"levelo_inurba_marseille","lat":43.307925,"lon":5.381692,"is_reserved":false,"is_disabled":false,"rental_uris":{"android":"levelo://app?vid=202a2148-e07f-4b9b-afd8-f9429f3e2618","ios":"levelo://app?vid=202a2148-e07f-4b9b-afd8-f9429f3e2618"},"vehicle_type_id":"4","last_reported":1777506160,"current_range_meters":6800,"station_id":"ce4bgt12rcd13ifvqce0","pricing_plan_id":"cebpf4jnsgd1na2vs0mg"},{"bike_id":"d8de0a64-e3bb-4f89-8f07-313cae5af722","system_id":"levelo_inurba_marseille","lat":43.22549,"lon":5.41627,"is_reserved":false,"is_disabled":false,"rental_uris":{"android":"levelo://app?vid=d8de0a64-e3bb-4f89-8f07-313cae5af722","ios":"levelo://app?vid=d8de0a64-e3bb-4f89-8f07-313cae5af722"},"vehicle_type_id":"4","last_reported":1777506160,"current_range_meters":7200,"station_id":"st_d2o4gvlbi1j2169b742g","pricing_plan_id":"cebpf4jnsgd1na2vs0mg"},{"bike_id":"1f7a6ae0-f1ec-49cf-b1ad-70943b7230f5","system_id":"levelo_inurba_marseille","lat":43.28641,"lon":5.41523,"is_reserved":false,"is_disabled":false,"rental_uris":{"android":"levelo://app?vid=1f7a6ae0-f1ec-49cf-b1ad-70943b7230f5","ios":"levelo://app?vid=1f7a6ae0-f1ec-49cf-b1ad-70943b7230f5"},"vehicle_type_id":"4","last_reported":1777506160,"current_range_meters":7200,"station_id":"","pricing_plan_id":"cebpf4jnsgd1na2vs0mg"},{"bike_id":"dde9cb7a-d2cd-49d4-9390-db18f4c0f172","system_id":"levelo_inurba_marseille","lat":43.337444,"lon":5.374475,"is_reserved":false,"is_disabled":false,"rental_uris":{"android":"levelo://app?vid=dde9cb7a-d2cd-49d4-9390-db18f4c0f172","ios":"levelo://app?vid=dde9cb7a-d2cd-49d4-9390-db18f4c0f172"},"vehicle_type_id":"4","last_reported":1777506160,"current_range_meters":7200,"station_id":"ce4bgj12rcd13ifvqbc0","pricing_plan_id":"cebpf4jnsgd1na2vs0mg"},{"bike_id":"74b97888-2010-4f62-9143-1297c2114922","system_id":"levelo_inurba_marseille","lat":43.27832,"lon":5.392,"is_reserved":false,"is_disabled":true,"rental_uris":{"android":"levelo://app?vid=74b97888-2010-4f62-9143-1297c2114922","ios":"levelo://app?vid=74b97888-2010-4f62-9143-1297c2114922"},"vehicle_type_id":"4","last_reported":1777506160,"current_range_meters":7200,"station_id":"ce4bhjp2rcd13ifvqga0","pricing_plan_id":"cebpf4jnsgd1na2vs0mg"},{"bike_id":"0438d68d-b4c6-4b23-a7e1-82657231ebe9","system_id":"levelo_inurba_marseille","lat":43.28472,"lon":5.48397,"is_reserved":false,"is_disabled":false,"rental_uris":{"android":"levelo://app?vid=0438d68d-b4c6-4b23-a7e1-82657231ebe9","ios":"levelo://app?vid=0438d68d-b4c6-4b23-a7e1-82657231ebe9"},"vehicle_type_id":"4","last_reported":1777506160,"current_range_meters":7200,"station_id":"","pricing_plan_id":"cebpf4jnsgd1na2vs0mg"},{"bike_id":"82a8043e-804e-4dc9-b426-b4d299449f67","system_id":"levelo_inurba_marseille","lat":43.31051,"lon":5.37186,"is_reserved":false,"is_disabled":false,"rental_uris":{"android":"levelo://app?vid=82a8043e-804e-4dc9-b426-b4d299449f67","ios":"levelo://app?vid=82a8043e-804e-4dc9-b426-b4d299449f67"},"vehicle_type_id":"4","last_reported":1777506160,"current_range_meters":7200,"station_id":"st_d4kl2rp97mjs73e7tdfg","pricing_plan_id":"cebpf4jnsgd1na2vs0mg"},{"bike_id":"ffbdf26b-e976-4ff5-ba3a-313cefc48e50","system_id":"levelo_inurba_marseille","lat":43.274364,"lon":5.361684,"is_reserved":false,"is_disabled":false,"rental_uris":{"android":"levelo://app?vid=ffbdf26b-e976-4ff5-ba3a-313cefc48e50","ios":"levelo://app?vid=ffbdf26b-e976-4ff5-ba3a-313cefc48e50"},"vehicle_type_id":"4","last_reported":1777506160,"current_range_meters":7200,"station_id":"ce4bhbh2rcd13ifvqeo0","pricing_plan_id":"cebpf4jnsgd1na2vs0mg"},{"bike_id":"20c418db-2f1d-4a9c-9013-660ef304788e","system_id":"levelo_inurba_marseille","lat":43.32373,"lon":5.36751,"is_reserved":false,"is_disabled":false,"rental_uris":{"android":"levelo://app?vid=20c418db-2f1d-4a9c-9013-660ef304788e","ios":"levelo://app?vid=20c418db-2f1d-4a9c-9013-660ef304788e"},"vehicle_type_id":"4","last_reported":1777506160,"current_range_meters":7200,"station_id":"ce4bhsh2rcd13ifvqi2g","pricing_plan_id":"cebpf4jnsgd1na2vs0mg"},{"bike_id":"8a4a0249-4f4c-41b5-bc94-e064df2c0d36","system_id":"levelo_inurba_marseille","lat":43.30431,"lon":5.38883,"is_reserved":false,"is_disabled":false,"rental_uris":{"android":"levelo://app?vid=8a4a0249-4f4c-41b5-bc94-e064df2c0d36","ios":"levelo://app?vid=8a4a0249-4f4c-41b5-bc94-e064df2c0d36"},"vehicle_type_id":"4","last_reported":1777506160,"current_range_meters":7200,"station_id":"ce4bgk12rcd13ifvqbi0","pricing_plan_id":"cebpf4jnsgd1na2vs0mg"},{"bike_id":"87a8d930-7997-4f14-ba22-09e556016ed7","system_id":"levelo_inurba_marseille","lat":43.29525,"lon":5.38999,"is_reserved":false,"is_disabled":false,"rental_uris":{"android":"levelo://app?vid=87a8d930-7997-4f14-ba22-09e556016ed7","ios":"levelo://app?vid=87a8d930-7997-4f14-ba22-09e556016ed7"},"vehicle_type_id":"4","last_reported":1777506160,"current_range_meters":7200,"station_id":"ce4bh3p2rcd13ifvqdp0","pricing_plan_id":"cebpf4jnsgd1na2vs0mg"},{"bike_id":"4973a181-d17c-430e-bbdc-8fc4d0df0c6f","system_id":"levelo_inurba_marseille","lat":43.23165,"lon":5.43708,"is_reserved":false,"is_disabled":false,"rental_uris":{"android":"levelo://app?vid=4973a181-d17c-430e-bbdc-8fc4d0df0c6f","ios":"levelo://app?vid=4973a181-d17c-430e-bbdc-8fc4d0df0c6f"},"vehicle_type_id":"4","last_reported":1777506160,"current_range_meters":7200,"station_id":"ce4bhmp2rcd13ifvqgog","pricing_plan_id":"cebpf4jnsgd1na2vs0mg"},{"bike_id":"907b975e-fb54-4198-ad71-0a6fda3075d0","system_id":"levelo_inurba_marseille","lat":43.29904,"lon":5.3975,"is_reserved":false,"is_disabled":true,"rental_uris":{"android":"levelo://app?vid=907b975e-fb54-4198-ad71-0a6fda3075d0","ios":"levelo://app?vid=907b975e-fb54-4198-ad71-0a6fda3075d0"},"vehicle_type_id":"4","last_reported":1777506160,"current_range_meters":7200,"station_id":"ce4bh0h2rcd13ifvqd50","pricing_plan_id":"cebpf4jnsgd1na2vs0mg"},{"bike_id":"4d3b0fb9-4fcc-46d7-8f90-81b232f0c7b3","system_id":"levelo_inurba_marseille","lat":43.3012,"lon":5.4312,"is_reserved":false,"is_disabled":false,"rental_uris":{"android":"levelo://app?vid=4d3b0fb9-4fcc-46d7-8f90-81b232f0c7b3","ios":"levelo://app?vid=4d3b0fb9-4fcc-46d7-8f90-81b232f0c7b3"},"vehicle_type_id":"4","last_reported":1777506160,"current_range_meters":7200,"station_id":"st_d3js3co5814s73ftftug","pricing_plan_id":"cebpf4jnsgd1na2vs0mg"},{"bike_id":"094338b1-0a83-48da-9b7e-c1551256decc","system_id":"levelo_inurba_marseille","lat":43.31076,"lon":5.42424,"is_reserved":false,"is_disabled":false,"rental_uris":{"android":"levelo://app?vid=094338b1-0a83-48da-9b7e-c1551256decc","ios":"levelo://app?vid=094338b1-0a83-48da-9b7e-c1551256decc"},"vehicle_type_id":"4","last_reported":1777506160,"current_range_meters":7200,"station_id":"ce4bhp92rcd13ifvqhag","pricing_plan_id":"cebpf4jnsgd1na2vs0mg"},{"bike_id":"9a859507-8be6-48d0-b50b-2a4aa35502e5","system_id":"levelo_inurba_marseille","lat":43.2718,"lon":5.40982,"is_reserved":false,"is_disabled":false,"rental_uris":{"android":"levelo://app?vid=9a859507-8be6-48d0-b50b-2a4aa35502e5","ios":"levelo://app?vid=9a859507-8be6-48d0-b50b-2a4aa35502e5"},"vehicle_type_id":"4","last_reported":1777506160,"current_range_meters":7200,"station_id":"ce4bhl12rcd13ifvqgf0","pricing_plan_id":"cebpf4jnsgd1na2vs0mg"},{"bike_id":"a0962752-11ad-4b5b-9547-24da32793d8b","system_id":"levelo_inurba_marseille","lat":43.28644,"lon":5.36385,"is_reserved":false,"is_disabled":false,"rental_uris":{"android":"levelo://app?vid=a0962752-11ad-4b5b-9547-24da32793d8b","ios":"levelo://app?vid=a0962752-11ad-4b5b-9547-24da32793d8b"},"vehicle_type_id":"4","last_reported":1777506160,"current_range_meters":7200,"station_id":"ce4bhah2rcd13ifvqej0","pricing_plan_id":"cebpf4jnsgd1na2vs0mg"},{"bike_id":"bf9b525b-6169-435d-b06d-d31fa4c2a776","system_id":"levelo_inurba_marseille","lat":43.24462,"lon":5.4253,"is_reserved":false,"is_disabled":false,"rental_uris":{"android":"levelo://app?vid=bf9b525b-6169-435d-b06d-d31fa4c2a776","ios":"levelo://app?vid=bf9b525b-6169-435d-b06d-d31fa4c2a776"},"vehicle_type_id":"4","last_reported":1777506160,"current_range_meters":7200,"station_id":"st_d4a3vfp97mjs738cd8kg","pricing_plan_id":"cebpf4jnsgd1na2vs0mg"},{"bike_id":"403cf342-31b2-41be-881d-cc85980e3124","system_id":"levelo_inurba_marseille","lat":43.24382,"lon":5.37077,"is_reserved":false,"is_disabled":false,"rental_uris":{"android":"levelo://app?vid=403cf342-31b2-41be-881d-cc85980e3124","ios":"levelo://app?vid=403cf342-31b2-41be-881d-cc85980e3124"},"vehicle_type_id":"4","last_reported":1777506160,"current_range_meters":7200,"station_id":"ce4bhhh2rcd13ifvqfk0","pricing_plan_id":"cebpf4jnsgd1na2vs0mg"},{"bike_id":"d5388f7a-4e0a-4376-b76b-701e4b281dc2","system_id":"levelo_inurba_marseille","lat":43.27067,"lon":5.40279,"is_reserved":false,"is_disabled":true,"rental_uris":{"android":"levelo://app?vid=d5388f7a-4e0a-4376-b76b-701e4b281dc2","ios":"levelo://app?vid=d5388f7a-4e0a-4376-b76b-701e4b281dc2"},"vehicle_type_id":"4","last_reported":1777506160,"current_range_meters":7200,"station_id":"ce4bhk92rcd13ifvqgc0","pricing_plan_id":"cebpf4jnsgd1na2vs0mg"},{"bike_id":"4f1ea70f-93bd-4cf0-aeb5-3608ec18929c","system_id":"levelo_inurba_marseille","lat":43.24634,"lon":5.38177,"is_reserved":false,"is_disabled":false,"rental_uris":{"android":"levelo://app?vid=4f1ea70f-93bd-4cf0-aeb5-3608ec18929c","ios":"levelo://app?vid=4f1ea70f-93bd-4cf0-aeb5-3608ec18929c"},"vehicle_type_id":"4","last_reported":1777506160,"current_range_meters":7200,"station_id":"ce4bhih2rcd13ifvqfr0","pricing_plan_id":"cebpf4jnsgd1na2vs0mg"},{"bike_id":"bbc3c05e-aac0-405d-847a-bea6b7c4a0ad","system_id":"levelo_inurba_marseille","lat":43.29871,"lon":5.39738,"is_reserved":false,"is_disabled":false,"rental_uris":{"android":"levelo://app?vid=bbc3c05e-aac0-405d-847a-bea6b7c4a0ad","ios":"levelo://app?vid=bbc3c05e-aac0-405d-847a-bea6b7c4a0ad"},"vehicle_type_id":"4","last_reported":1777506160,"current_range_meters":7200,"station_id":"ce4bh0h2rcd13ifvqd50","pricing_plan_id":"cebpf4jnsgd1na2vs0mg"},{"bike_id":"10ee5b03-7c4d-4483-aa0c-578e209dda87","system_id":"levelo_inurba_marseille","lat":43.2928,"lon":5.40901,"is_reserved":false,"is_disabled":false,"rental_uris":{"android":"levelo://app?vid=10ee5b03-7c4d-4483-aa0c-578e209dda87","ios":"levelo://app?vid=10ee5b03-7c4d-4483-aa0c-578e209dda87"},"vehicle_type_id":"4","last_reported":1777506160,"current_range_meters":8000,"station_id":"ce4bh192rcd13ifvqdc0","pricing_plan_id":"cebpf4jnsgd1na2vs0mg"},{"bike_id":"8829f460-aa5f-4233-9846-cd6731fc4acd","system_id":"levelo_inurba_marseille","lat":43.26983,"lon":5.40434,"is_reserved":false,"is_disabled":false,"rental_uris":{"android":"levelo://app?vid=8829f460-aa5f-4233-9846-cd6731fc4acd","ios":"levelo://app?vid=8829f460-aa5f-4233-9846-cd6731fc4acd"},"vehicle_type_id":"4","last_reported":1777506160,"current_range_meters":8000,"station_id":"","pricing_plan_id":"cebpf4jnsgd1na2vs0mg"},{"bike_id":"345bc929-f498-4128-a39a-b953913f5208","system_id":"levelo_inurba_marseille","lat":43.25574,"lon":5.38236,"is_reserved":false,"is_disabled":false,"rental_uris":{"android":"levelo://app?vid=345bc929-f498-4128-a39a-b953913f5208","ios":"levelo://app?vid=345bc929-f498-4128-a39a-b953913f5208"},"vehicle_type_id":"4","last_reported":1777506160,"current_range_meters":8000,"station_id":"ce4bhih2rcd13ifvqfs0","pricing_plan_id":"cebpf4jnsgd1na2vs0mg"},{"bike_id":"77eb40db-cfb8-4174-994b-5cff78da6f81","system_id":"levelo_inurba_marseille","lat":43.28658,"lon":5.3634,"is_reserved":false,"is_disabled":false,"rental_uris":{"android":"levelo://app?vid=77eb40db-cfb8-4174-994b-5cff78da6f81","ios":"levelo://app?vid=77eb40db-cfb8-4174-994b-5cff78da6f81"},"vehicle_type_id":"4","last_reported":1777506160,"current_range_meters":8000,"station_id":"ce4bhah2rcd13ifvqej0","pricing_plan_id":"cebpf4jnsgd1na2vs0mg"},{"bike_id":"7a4f9c5b-0770-4973-b065-ff441b4f0ec4","system_id":"levelo_inurba_marseille","lat":43.28865,"lon":5.42505,"is_reserved":false,"is_disabled":false,"rental_uris":{"android":"levelo://app?vid=7a4f9c5b-0770-4973-b065-ff441b4f0ec4","ios":"levelo://app?vid=7a4f9c5b-0770-4973-b065-ff441b4f0ec4"},"vehicle_type_id":"4","last_reported":1777506160,"current_range_meters":8000,"station_id":"st_d3b462108ojc7389ooeg","pricing_plan_id":"cebpf4jnsgd1na2vs0mg"},{"bike_id":"8d820e9e-e468-4ef4-b4d1-11b769f0d4c2","system_id":"levelo_inurba_marseille","lat":43.28442,"lon":5.3918,"is_reserved":false,"is_disabled":false,"rental_uris":{"android":"levelo://app?vid=8d820e9e-e468-4ef4-b4d1-11b769f0d4c2","ios":"levelo://app?vid=8d820e9e-e468-4ef4-b4d1-11b769f0d4c2"},"vehicle_type_id":"4","last_reported":1777506160,"current_range_meters":8000,"station_id":"ce4bhoh2rcd13ifvqh5g","pricing_plan_id":"cebpf4jnsgd1na2vs0mg"},{"bike_id":"262fc285-b6eb-4eda-9ac1-639b6caaacc5","system_id":"levelo_inurba_marseille","lat":43.32357,"lon":5.36749,"is_reserved":false,"is_disabled":false,"rental_uris":{"android":"levelo://app?vid=262fc285-b6eb-4eda-9ac1-639b6caaacc5","ios":"levelo://app?vid=262fc285-b6eb-4eda-9ac1-639b6caaacc5"},"vehicle_type_id":"4","last_reported":1777506160,"current_range_meters":8000,"station_id":"ce4bhsh2rcd13ifvqi2g","pricing_plan_id":"cebpf4jnsgd1na2vs0mg"},{"bike_id":"b664614e-0298-48de-96bc-27654df9d7fb","system_id":"levelo_inurba_marseille","lat":43.25711,"lon":5.39979,"is_reserved":false,"is_disabled":false,"rental_uris":{"android":"levelo://app?vid=b664614e-0298-48de-96bc-27654df9d7fb","ios":"levelo://app?vid=b664614e-0298-48de-96bc-27654df9d7fb"},"vehicle_type_id":"4","last_reported":1777506160,"current_range_meters":8000,"station_id":"","pricing_plan_id":"cebpf4jnsgd1na2vs0mg"},{"bike_id":"483bceac-8a40-4ca9-a59f-b53f2d8dd2bb","system_id":"levelo_inurba_marseille","lat":43.29196,"lon":5.39316,"is_reserved":false,"is_disabled":false,"rental_uris":{"android":"levelo://app?vid=483bceac-8a40-4ca9-a59f-b53f2d8dd2bb","ios":"levelo://app?vid=483bceac-8a40-4ca9-a59f-b53f2d8dd2bb"},"vehicle_type_id":"4","last_reported":1777506160,"current_range_meters":8000,"station_id":"ce4bh192rcd13ifvqdd0","pricing_plan_id":"cebpf4jnsgd1na2vs0mg"},{"bike_id":"73d36e8f-c10a-47a5-b1bc-bdbbb165a673","system_id":"levelo_inurba_marseille","lat":43.25091,"lon":5.39512,"is_reserved":false,"is_disabled":false,"rental_uris":{"android":"levelo://app?vid=73d36e8f-c10a-47a5-b1bc-bdbbb165a673","ios":"levelo://app?vid=73d36e8f-c10a-47a5-b1bc-bdbbb165a673"},"vehicle_type_id":"4","last_reported":1777506160,"current_range_meters":8000,"station_id":"ce4bhm12rcd13ifvqgkg","pricing_plan_id":"cebpf4jnsgd1na2vs0mg"},{"bike_id":"a4c6045c-f52e-4bc6-99bb-b3f5097eb70b","system_id":"levelo_inurba_marseille","lat":43.24612,"lon":5.40278,"is_reserved":false,"is_disabled":false,"rental_uris":{"android":"levelo://app?vid=a4c6045c-f52e-4bc6-99bb-b3f5097eb70b","ios":"levelo://app?vid=a4c6045c-f52e-4bc6-99bb-b3f5097eb70b"},"vehicle_type_id":"4","last_reported":1777506160,"current_range_meters":8000,"station_id":"","pricing_plan_id":"cebpf4jnsgd1na2vs0mg"},{"bike_id":"2f798a50-39ab-4470-a6ac-8519317ed515","system_id":"levelo_inurba_marseille","lat":43.29868,"lon":5.39736,"is_reserved":false,"is_disabled":false,"rental_uris":{"android":"levelo://app?vid=2f798a50-39ab-4470-a6ac-8519317ed515","ios":"levelo://app?vid=2f798a50-39ab-4470-a6ac-8519317ed515"},"vehicle_type_id":"4","last_reported":1777506160,"current_range_meters":8000,"station_id":"ce4bh0h2rcd13ifvqd50","pricing_plan_id":"cebpf4jnsgd1na2vs0mg"},{"bike_id":"945b3f65-3522-4839-bb4a-92155b98bfd3","system_id":"levelo_inurba_marseille","lat":43.28432,"lon":5.34991,"is_reserved":false,"is_disabled":true,"rental_uris":{"android":"levelo://app?vid=945b3f65-3522-4839-bb4a-92155b98bfd3","ios":"levelo://app?vid=945b3f65-3522-4839-bb4a-92155b98bfd3"},"vehicle_type_id":"4","last_reported":1777506160,"current_range_meters":8000,"station_id":"ce4bhbh2rcd13ifvqepg","pricing_plan_id":"cebpf4jnsgd1na2vs0mg"},{"bike_id":"b98306a6-5611-4674-9d87-336fabb8dd2a","system_id":"levelo_inurba_marseille","lat":43.28219,"lon":5.3906,"is_reserved":false,"is_disabled":false,"rental_uris":{"android":"levelo://app?vid=b98306a6-5611-4674-9d87-336fabb8dd2a","ios":"levelo://app?vid=b98306a6-5611-4674-9d87-336fabb8dd2a"},"vehicle_type_id":"4","last_reported":1777506160,"current_range_meters":8000,"station_id":"ce4bhn92rcd13ifvqgsg","pricing_plan_id":"cebpf4jnsgd1na2vs0mg"},{"bike_id":"acf51c63-cf78-493c-a43a-a6f1a5bc1497","system_id":"levelo_inurba_marseille","lat":43.23183,"lon":5.39965,"is_reserved":false,"is_disabled":false,"rental_uris":{"android":"levelo://app?vid=acf51c63-cf78-493c-a43a-a6f1a5bc1497","ios":"levelo://app?vid=acf51c63-cf78-493c-a43a-a6f1a5bc1497"},"vehicle_type_id":"4","last_reported":1777506160,"current_range_meters":8000,"station_id":"ce4bhn12rcd13ifvqgqg","pricing_plan_id":"cebpf4jnsgd1na2vs0mg"},{"bike_id":"b4708557-5c1b-41a3-a0cb-d47843cb2d67","system_id":"levelo_inurba_marseille","lat":43.29256,"lon":5.40911,"is_reserved":false,"is_disabled":false,"rental_uris":{"android":"levelo://app?vid=b4708557-5c1b-41a3-a0cb-d47843cb2d67","ios":"levelo://app?vid=b4708557-5c1b-41a3-a0cb-d47843cb2d67"},"vehicle_type_id":"4","last_reported":1777506160,"current_range_meters":8000,"station_id":"ce4bh192rcd13ifvqdc0","pricing_plan_id":"cebpf4jnsgd1na2vs0mg"},{"bike_id":"26335112-9b2a-4a27-9ec1-b93b9cc755ad","system_id":"levelo_inurba_marseille","lat":43.30854,"lon":5.41892,"is_reserved":false,"is_disabled":false,"rental_uris":{"android":"levelo://app?vid=26335112-9b2a-4a27-9ec1-b93b9cc755ad","ios":"levelo://app?vid=26335112-9b2a-4a27-9ec1-b93b9cc755ad"},"vehicle_type_id":"4","last_reported":1777506160,"current_range_meters":8000,"station_id":"","pricing_plan_id":"cebpf4jnsgd1na2vs0mg"},{"bike_id":"3be4a7db-61a4-4555-aa09-c404800b0f79","system_id":"levelo_inurba_marseille","lat":43.33139,"lon":5.37716,"is_reserved":false,"is_disabled":false,"rental_uris":{"android":"levelo://app?vid=3be4a7db-61a4-4555-aa09-c404800b0f79","ios":"levelo://app?vid=3be4a7db-61a4-4555-aa09-c404800b0f79"},"vehicle_type_id":"4","last_reported":1777506160,"current_range_meters":8000,"station_id":"st_d46cu089ee8s73dldbu0","pricing_plan_id":"cebpf4jnsgd1na2vs0mg"},{"bike_id":"486754d9-e4fe-4ce6-be2d-73e031393d75","system_id":"levelo_inurba_marseille","lat":43.26555,"lon":5.37291,"is_reserved":false,"is_disabled":false,"rental_uris":{"android":"levelo://app?vid=486754d9-e4fe-4ce6-be2d-73e031393d75","ios":"levelo://app?vid=486754d9-e4fe-4ce6-be2d-73e031393d75"},"vehicle_type_id":"4","last_reported":1777506160,"current_range_meters":8000,"station_id":"ce4bhg12rcd13ifvqf70","pricing_plan_id":"cebpf4jnsgd1na2vs0mg"},{"bike_id":"60d77da4-6419-429b-9e7a-b2cf161a2f69","system_id":"levelo_inurba_marseille","lat":43.32642,"lon":5.39497,"is_reserved":false,"is_disabled":false,"rental_uris":{"android":"levelo://app?vid=60d77da4-6419-429b-9e7a-b2cf161a2f69","ios":"levelo://app?vid=60d77da4-6419-429b-9e7a-b2cf161a2f69"},"vehicle_type_id":"4","last_reported":1777506160,"current_range_meters":8000,"station_id":"","pricing_plan_id":"cebpf4jnsgd1na2vs0mg"},{"bike_id":"3c3103cb-26c9-410d-a5af-cb2f4bb78f8c","system_id":"levelo_inurba_marseille","lat":43.29782,"lon":5.39351,"is_reserved":false,"is_disabled":false,"rental_uris":{"android":"levelo://app?vid=3c3103cb-26c9-410d-a5af-cb2f4bb78f8c","ios":"levelo://app?vid=3c3103cb-26c9-410d-a5af-cb2f4bb78f8c"},"vehicle_type_id":"4","last_reported":1777506160,"current_range_meters":8400,"station_id":"chh1huq6cuj3fo74tm60","pricing_plan_id":"cebpf4jnsgd1na2vs0mg"},{"bike_id":"d97ed6ed-9254-4b2c-9752-a3aaf3378900","system_id":"levelo_inurba_marseille","lat":43.33539,"lon":5.37467,"is_reserved":false,"is_disabled":false,"rental_uris":{"android":"levelo://app?vid=d97ed6ed-9254-4b2c-9752-a3aaf3378900","ios":"levelo://app?vid=d97ed6ed-9254-4b2c-9752-a3aaf3378900"},"vehicle_type_id":"4","last_reported":1777506160,"current_range_meters":8400,"station_id":"st_d46tts09ee8s73dlu43g","pricing_plan_id":"cebpf4jnsgd1na2vs0mg"},{"bike_id":"aa4a5261-6c55-406c-ab2e-ac3475161cf3","system_id":"levelo_inurba_marseille","lat":43.28652,"lon":5.3636,"is_reserved":false,"is_disabled":false,"rental_uris":{"android":"levelo://app?vid=aa4a5261-6c55-406c-ab2e-ac3475161cf3","ios":"levelo://app?vid=aa4a5261-6c55-406c-ab2e-ac3475161cf3"},"vehicle_type_id":"4","last_reported":1777506160,"current_range_meters":8400,"station_id":"ce4bhah2rcd13ifvqej0","pricing_plan_id":"cebpf4jnsgd1na2vs0mg"},{"bike_id":"2096886e-d452-40d2-8425-3769c8ba6880","system_id":"levelo_inurba_marseille","lat":43.26566,"lon":5.39008,"is_reserved":false,"is_disabled":false,"rental_uris":{"android":"levelo://app?vid=2096886e-d452-40d2-8425-3769c8ba6880","ios":"levelo://app?vid=2096886e-d452-40d2-8425-3769c8ba6880"},"vehicle_type_id":"4","last_reported":1777506160,"current_range_meters":8400,"station_id":"ce4bhe12rcd13ifvqf30","pricing_plan_id":"cebpf4jnsgd1na2vs0mg"},{"bike_id":"67770120-bd85-4b15-af1e-f85ca14859f3","system_id":"levelo_inurba_marseille","lat":43.28858,"lon":5.42512,"is_reserved":false,"is_disabled":false,"rental_uris":{"android":"levelo://app?vid=67770120-bd85-4b15-af1e-f85ca14859f3","ios":"levelo://app?vid=67770120-bd85-4b15-af1e-f85ca14859f3"},"vehicle_type_id":"4","last_reported":1777506160,"current_range_meters":8400,"station_id":"st_d3b462108ojc7389ooeg","pricing_plan_id":"cebpf4jnsgd1na2vs0mg"},{"bike_id":"34836c56-e730-457a-8c8c-10390370c912","system_id":"levelo_inurba_marseille","lat":43.3111,"lon":5.3778,"is_reserved":false,"is_disabled":false,"rental_uris":{"android":"levelo://app?vid=34836c56-e730-457a-8c8c-10390370c912","ios":"levelo://app?vid=34836c56-e730-457a-8c8c-10390370c912"},"vehicle_type_id":"4","last_reported":1777506160,"current_range_meters":8400,"station_id":"ce4bgt92rcd13ifvqcg0","pricing_plan_id":"cebpf4jnsgd1na2vs0mg"},{"bike_id":"00ff0799-7689-45c9-8cd0-76bddacfdb63","system_id":"levelo_inurba_marseille","lat":43.28152,"lon":5.42641,"is_reserved":false,"is_disabled":false,"rental_uris":{"android":"levelo://app?vid=00ff0799-7689-45c9-8cd0-76bddacfdb63","ios":"levelo://app?vid=00ff0799-7689-45c9-8cd0-76bddacfdb63"},"vehicle_type_id":"4","last_reported":1777506160,"current_range_meters":8400,"station_id":"ce4bhnh2rcd13ifvqgug","pricing_plan_id":"cebpf4jnsgd1na2vs0mg"},{"bike_id":"b432775d-0815-483e-8816-3dba71ffd2cd","system_id":"levelo_inurba_marseille","lat":43.28985,"lon":5.36483,"is_reserved":false,"is_disabled":false,"rental_uris":{"android":"levelo://app?vid=b432775d-0815-483e-8816-3dba71ffd2cd","ios":"levelo://app?vid=b432775d-0815-483e-8816-3dba71ffd2cd"},"vehicle_type_id":"4","last_reported":1777506160,"current_range_meters":8400,"station_id":"","pricing_plan_id":"cebpf4jnsgd1na2vs0mg"},{"bike_id":"aca1a7b0-39a7-4d08-ba21-6ea3398a225f","system_id":"levelo_inurba_marseille","lat":43.28402,"lon":5.37522,"is_reserved":false,"is_disabled":false,"rental_uris":{"android":"levelo://app?vid=aca1a7b0-39a7-4d08-ba21-6ea3398a225f","ios":"levelo://app?vid=aca1a7b0-39a7-4d08-ba21-6ea3398a225f"},"vehicle_type_id":"4","last_reported":1777506160,"current_range_meters":8400,"station_id":"ce4bh412rcd13ifvqds0","pricing_plan_id":"cebpf4jnsgd1na2vs0mg"},{"bike_id":"7be06c3a-8473-4b45-a3f6-aea060cfe576","system_id":"levelo_inurba_marseille","lat":43.25578,"lon":5.3823,"is_reserved":false,"is_disabled":false,"rental_uris":{"android":"levelo://app?vid=7be06c3a-8473-4b45-a3f6-aea060cfe576","ios":"levelo://app?vid=7be06c3a-8473-4b45-a3f6-aea060cfe576"},"vehicle_type_id":"4","last_reported":1777506160,"current_range_meters":8400,"station_id":"ce4bhih2rcd13ifvqfs0","pricing_plan_id":"cebpf4jnsgd1na2vs0mg"},{"bike_id":"0a7821c8-bd70-4a35-bff5-59058c7628e8","system_id":"levelo_inurba_marseille","lat":43.29553,"lon":5.39054,"is_reserved":false,"is_disabled":false,"rental_uris":{"android":"levelo://app?vid=0a7821c8-bd70-4a35-bff5-59058c7628e8","ios":"levelo://app?vid=0a7821c8-bd70-4a35-bff5-59058c7628e8"},"vehicle_type_id":"4","last_reported":1777506160,"current_range_meters":8400,"station_id":"ce4bh3p2rcd13ifvqdp0","pricing_plan_id":"cebpf4jnsgd1na2vs0mg"},{"bike_id":"6f0d5a4b-08e1-4336-9fc6-d57686cf0751","system_id":"levelo_inurba_marseille","lat":43.28432,"lon":5.37539,"is_reserved":false,"is_disabled":false,"rental_uris":{"android":"levelo://app?vid=6f0d5a4b-08e1-4336-9fc6-d57686cf0751","ios":"levelo://app?vid=6f0d5a4b-08e1-4336-9fc6-d57686cf0751"},"vehicle_type_id":"4","last_reported":1777506160,"current_range_meters":8400,"station_id":"ce4bh412rcd13ifvqds0","pricing_plan_id":"cebpf4jnsgd1na2vs0mg"},{"bike_id":"4ebf2ac9-d757-47ad-ba0b-714b235991dd","system_id":"levelo_inurba_marseille","lat":43.28147,"lon":5.42642,"is_reserved":false,"is_disabled":false,"rental_uris":{"android":"levelo://app?vid=4ebf2ac9-d757-47ad-ba0b-714b235991dd","ios":"levelo://app?vid=4ebf2ac9-d757-47ad-ba0b-714b235991dd"},"vehicle_type_id":"4","last_reported":1777506160,"current_range_meters":8400,"station_id":"ce4bhnh2rcd13ifvqgug","pricing_plan_id":"cebpf4jnsgd1na2vs0mg"},{"bike_id":"3a530688-3fe7-4e09-9385-01003a337a95","system_id":"levelo_inurba_marseille","lat":43.30931,"lon":5.40147,"is_reserved":false,"is_disabled":false,"rental_uris":{"android":"levelo://app?vid=3a530688-3fe7-4e09-9385-01003a337a95","ios":"levelo://app?vid=3a530688-3fe7-4e09-9385-01003a337a95"},"vehicle_type_id":"4","last_reported":1777506160,"current_range_meters":8400,"station_id":"ce4bgvp2rcd13ifvqct0","pricing_plan_id":"cebpf4jnsgd1na2vs0mg"},{"bike_id":"3bcecd58-64c0-4e2d-8d18-75964e1abbf6","system_id":"levelo_inurba_marseille","lat":43.27197,"lon":5.40985,"is_reserved":false,"is_disabled":false,"rental_uris":{"android":"levelo://app?vid=3bcecd58-64c0-4e2d-8d18-75964e1abbf6","ios":"levelo://app?vid=3bcecd58-64c0-4e2d-8d18-75964e1abbf6"},"vehicle_type_id":"4","last_reported":1777506160,"current_range_meters":8400,"station_id":"ce4bhl12rcd13ifvqgf0","pricing_plan_id":"cebpf4jnsgd1na2vs0mg"},{"bike_id":"d20e7dd1-c0ce-4e63-b6fe-439fd2d44a3a","system_id":"levelo_inurba_marseille","lat":43.28685,"lon":5.36321,"is_reserved":false,"is_disabled":false,"rental_uris":{"android":"levelo://app?vid=d20e7dd1-c0ce-4e63-b6fe-439fd2d44a3a","ios":"levelo://app?vid=d20e7dd1-c0ce-4e63-b6fe-439fd2d44a3a"},"vehicle_type_id":"4","last_reported":1777506160,"current_range_meters":8400,"station_id":"ce4bhah2rcd13ifvqej0","pricing_plan_id":"cebpf4jnsgd1na2vs0mg"},{"bike_id":"ae5dfbbd-1caf-4019-b26d-f227bc82a32c","system_id":"levelo_inurba_marseille","lat":43.31993,"lon":5.38165,"is_reserved":false,"is_disabled":false,"rental_uris":{"android":"levelo://app?vid=ae5dfbbd-1caf-4019-b26d-f227bc82a32c","ios":"levelo://app?vid=ae5dfbbd-1caf-4019-b26d-f227bc82a32c"},"vehicle_type_id":"4","last_reported":1777506160,"current_range_meters":8400,"station_id":"ce4bhr12rcd13ifvqhpg","pricing_plan_id":"cebpf4jnsgd1na2vs0mg"},{"bike_id":"5bd5a600-2958-4d93-9b83-f566c8356231","system_id":"levelo_inurba_marseille","lat":43.29556,"lon":5.39967,"is_reserved":false,"is_disabled":false,"rental_uris":{"android":"levelo://app?vid=5bd5a600-2958-4d93-9b83-f566c8356231","ios":"levelo://app?vid=5bd5a600-2958-4d93-9b83-f566c8356231"},"vehicle_type_id":"4","last_reported":1777506160,"current_range_meters":8400,"station_id":"ce4bh312rcd13ifvqdj0","pricing_plan_id":"cebpf4jnsgd1na2vs0mg"},{"bike_id":"dd649e74-ed5e-4ce6-b6fc-191746436a7b","system_id":"levelo_inurba_marseille","lat":43.25071,"lon":5.42495,"is_reserved":false,"is_disabled":false,"rental_uris":{"android":"levelo://app?vid=dd649e74-ed5e-4ce6-b6fc-191746436a7b","ios":"levelo://app?vid=dd649e74-ed5e-4ce6-b6fc-191746436a7b"},"vehicle_type_id":"4","last_reported":1777506160,"current_range_meters":8400,"station_id":"","pricing_plan_id":"cebpf4jnsgd1na2vs0mg"},{"bike_id":"dee044cf-2f66-47af-8c49-b579901e7a7b","system_id":"levelo_inurba_marseille","lat":43.24957,"lon":5.40543,"is_reserved":false,"is_disabled":false,"rental_uris":{"android":"levelo://app?vid=dee044cf-2f66-47af-8c49-b579901e7a7b","ios":"levelo://app?vid=dee044cf-2f66-47af-8c49-b579901e7a7b"},"vehicle_type_id":"4","last_reported":1777506160,"current_range_meters":8400,"station_id":"st_d2ngiaodas8pm72gd1h0","pricing_plan_id":"cebpf4jnsgd1na2vs0mg"},{"bike_id":"5bb9c1c5-7495-453c-9b09-a522a41f8d43","system_id":"levelo_inurba_marseille","lat":43.25518,"lon":5.40311,"is_reserved":false,"is_disabled":false,"rental_uris":{"android":"levelo://app?vid=5bb9c1c5-7495-453c-9b09-a522a41f8d43","ios":"levelo://app?vid=5bb9c1c5-7495-453c-9b09-a522a41f8d43"},"vehicle_type_id":"4","last_reported":1777506160,"current_range_meters":8400,"station_id":"","pricing_plan_id":"cebpf4jnsgd1na2vs0mg"},{"bike_id":"c8948370-8c37-4be4-871c-799685e22b12","system_id":"levelo_inurba_marseille","lat":43.26375,"lon":5.41106,"is_reserved":false,"is_disabled":false,"rental_uris":{"android":"levelo://app?vid=c8948370-8c37-4be4-871c-799685e22b12","ios":"levelo://app?vid=c8948370-8c37-4be4-871c-799685e22b12"},"vehicle_type_id":"4","last_reported":1777506160,"current_range_meters":8400,"station_id":"st_d4e5ca6na9uc73bfl5fg","pricing_plan_id":"cebpf4jnsgd1na2vs0mg"},{"bike_id":"105f32f6-c368-4de0-8ad5-1075cdf8978e","system_id":"levelo_inurba_marseille","lat":43.24094,"lon":5.36468,"is_reserved":false,"is_disabled":false,"rental_uris":{"android":"levelo://app?vid=105f32f6-c368-4de0-8ad5-1075cdf8978e","ios":"levelo://app?vid=105f32f6-c368-4de0-8ad5-1075cdf8978e"},"vehicle_type_id":"4","last_reported":1777506160,"current_range_meters":8400,"station_id":"","pricing_plan_id":"cebpf4jnsgd1na2vs0mg"},{"bike_id":"67f14d76-7533-4b57-a379-d5e462e525ab","system_id":"levelo_inurba_marseille","lat":43.24943,"lon":5.40495,"is_reserved":false,"is_disabled":false,"rental_uris":{"android":"levelo://app?vid=67f14d76-7533-4b57-a379-d5e462e525ab","ios":"levelo://app?vid=67f14d76-7533-4b57-a379-d5e462e525ab"},"vehicle_type_id":"4","last_reported":1777506160,"current_range_meters":8800,"station_id":"st_d2ngiaodas8pm72gd1h0","pricing_plan_id":"cebpf4jnsgd1na2vs0mg"},{"bike_id":"c354f800-661c-4bbb-a057-e22f3a81af92","system_id":"levelo_inurba_marseille","lat":43.28073,"lon":5.39663,"is_reserved":false,"is_disabled":false,"rental_uris":{"android":"levelo://app?vid=c354f800-661c-4bbb-a057-e22f3a81af92","ios":"levelo://app?vid=c354f800-661c-4bbb-a057-e22f3a81af92"},"vehicle_type_id":"4","last_reported":1777506160,"current_range_meters":8800,"station_id":"ce4bho12rcd13ifvqh2g","pricing_plan_id":"cebpf4jnsgd1na2vs0mg"},{"bike_id":"5a8c60a4-2348-419c-bc04-e77900ec74d4","system_id":"levelo_inurba_marseille","lat":43.28103,"lon":5.37845,"is_reserved":false,"is_disabled":false,"rental_uris":{"android":"levelo://app?vid=5a8c60a4-2348-419c-bc04-e77900ec74d4","ios":"levelo://app?vid=5a8c60a4-2348-419c-bc04-e77900ec74d4"},"vehicle_type_id":"4","last_reported":1777506160,"current_range_meters":8800,"station_id":"ce4bha12rcd13ifvqee0","pricing_plan_id":"cebpf4jnsgd1na2vs0mg"},{"bike_id":"46523cb2-6b8e-455f-9277-3808cf80d4d2","system_id":"levelo_inurba_marseille","lat":43.337444,"lon":5.374475,"is_reserved":false,"is_disabled":true,"rental_uris":{"android":"levelo://app?vid=46523cb2-6b8e-455f-9277-3808cf80d4d2","ios":"levelo://app?vid=46523cb2-6b8e-455f-9277-3808cf80d4d2"},"vehicle_type_id":"4","last_reported":1777506160,"current_range_meters":8800,"station_id":"","pricing_plan_id":"cebpf4jnsgd1na2vs0mg"},{"bike_id":"97c9a33b-79cf-429d-a3f2-acd13460133f","system_id":"levelo_inurba_marseille","lat":43.25462,"lon":5.37659,"is_reserved":false,"is_disabled":false,"rental_uris":{"android":"levelo://app?vid=97c9a33b-79cf-429d-a3f2-acd13460133f","ios":"levelo://app?vid=97c9a33b-79cf-429d-a3f2-acd13460133f"},"vehicle_type_id":"4","last_reported":1777506160,"current_range_meters":8800,"station_id":"ce4bhh12rcd13ifvqff0","pricing_plan_id":"cebpf4jnsgd1na2vs0mg"},{"bike_id":"c9a70d1c-d704-4c7d-bc3b-2b3d635492af","system_id":"levelo_inurba_marseille","lat":43.2719,"lon":5.40994,"is_reserved":false,"is_disabled":false,"rental_uris":{"android":"levelo://app?vid=c9a70d1c-d704-4c7d-bc3b-2b3d635492af","ios":"levelo://app?vid=c9a70d1c-d704-4c7d-bc3b-2b3d635492af"},"vehicle_type_id":"4","last_reported":1777506160,"current_range_meters":8800,"station_id":"ce4bhl12rcd13ifvqgf0","pricing_plan_id":"cebpf4jnsgd1na2vs0mg"},{"bike_id":"9c85ea94-e0db-4d3e-baca-fa152ee440d3","system_id":"levelo_inurba_marseille","lat":43.25598,"lon":5.38215,"is_reserved":false,"is_disabled":false,"rental_uris":{"android":"levelo://app?vid=9c85ea94-e0db-4d3e-baca-fa152ee440d3","ios":"levelo://app?vid=9c85ea94-e0db-4d3e-baca-fa152ee440d3"},"vehicle_type_id":"4","last_reported":1777506160,"current_range_meters":8800,"station_id":"ce4bhih2rcd13ifvqfs0","pricing_plan_id":"cebpf4jnsgd1na2vs0mg"},{"bike_id":"8ecd22d6-ea16-4947-a7cb-5d0643282d24","system_id":"levelo_inurba_marseille","lat":43.281,"lon":5.37839,"is_reserved":false,"is_disabled":false,"rental_uris":{"android":"levelo://app?vid=8ecd22d6-ea16-4947-a7cb-5d0643282d24","ios":"levelo://app?vid=8ecd22d6-ea16-4947-a7cb-5d0643282d24"},"vehicle_type_id":"4","last_reported":1777506160,"current_range_meters":8800,"station_id":"ce4bha12rcd13ifvqee0","pricing_plan_id":"cebpf4jnsgd1na2vs0mg"},{"bike_id":"73ddb866-5c7b-49bc-a174-3923f7263bab","system_id":"levelo_inurba_marseille","lat":43.29635,"lon":5.36015,"is_reserved":false,"is_disabled":false,"rental_uris":{"android":"levelo://app?vid=73ddb866-5c7b-49bc-a174-3923f7263bab","ios":"levelo://app?vid=73ddb866-5c7b-49bc-a174-3923f7263bab"},"vehicle_type_id":"4","last_reported":1777506160,"current_range_meters":8800,"station_id":"","pricing_plan_id":"cebpf4jnsgd1na2vs0mg"},{"bike_id":"14ffd392-a207-41da-942f-3d5d62a42696","system_id":"levelo_inurba_marseille","lat":43.31909,"lon":5.36822,"is_reserved":false,"is_disabled":false,"rental_uris":{"android":"levelo://app?vid=14ffd392-a207-41da-942f-3d5d62a42696","ios":"levelo://app?vid=14ffd392-a207-41da-942f-3d5d62a42696"},"vehicle_type_id":"4","last_reported":1777506160,"current_range_meters":8800,"station_id":"st_d6o2h0d0559c73evc1b0","pricing_plan_id":"cebpf4jnsgd1na2vs0mg"},{"bike_id":"5cc847c3-c7ab-4803-a64a-cfb2e18548c3","system_id":"levelo_inurba_marseille","lat":43.29646,"lon":5.37012,"is_reserved":false,"is_disabled":false,"rental_uris":{"android":"levelo://app?vid=5cc847c3-c7ab-4803-a64a-cfb2e18548c3","ios":"levelo://app?vid=5cc847c3-c7ab-4803-a64a-cfb2e18548c3"},"vehicle_type_id":"4","last_reported":1777506160,"current_range_meters":8800,"station_id":"","pricing_plan_id":"cebpf4jnsgd1na2vs0mg"},{"bike_id":"6004f203-06e3-407e-9893-7686eaa27bd3","system_id":"levelo_inurba_marseille","lat":43.28647,"lon":5.35628,"is_reserved":false,"is_disabled":false,"rental_uris":{"android":"levelo://app?vid=6004f203-06e3-407e-9893-7686eaa27bd3","ios":"levelo://app?vid=6004f203-06e3-407e-9893-7686eaa27bd3"},"vehicle_type_id":"4","last_reported":1777506160,"current_range_meters":8800,"station_id":"","pricing_plan_id":"cebpf4jnsgd1na2vs0mg"},{"bike_id":"cadcdc4c-2148-4dec-a8c2-bb77e59fbd52","system_id":"levelo_inurba_marseille","lat":43.281,"lon":5.37834,"is_reserved":false,"is_disabled":false,"rental_uris":{"android":"levelo://app?vid=cadcdc4c-2148-4dec-a8c2-bb77e59fbd52","ios":"levelo://app?vid=cadcdc4c-2148-4dec-a8c2-bb77e59fbd52"},"vehicle_type_id":"4","last_reported":1777506160,"current_range_meters":8800,"station_id":"ce4bha12rcd13ifvqee0","pricing_plan_id":"cebpf4jnsgd1na2vs0mg"},{"bike_id":"ee6a3540-ce9d-481a-aea0-1ace92116eeb","system_id":"levelo_inurba_marseille","lat":43.30409,"lon":5.38882,"is_reserved":false,"is_disabled":true,"rental_uris":{"android":"levelo://app?vid=ee6a3540-ce9d-481a-aea0-1ace92116eeb","ios":"levelo://app?vid=ee6a3540-ce9d-481a-aea0-1ace92116eeb"},"vehicle_type_id":"4","last_reported":1777506160,"current_range_meters":8800,"station_id":"ce4bgk12rcd13ifvqbi0","pricing_plan_id":"cebpf4jnsgd1na2vs0mg"},{"bike_id":"8e94c400-bf74-4fb6-80b8-f54c0ec64626","system_id":"levelo_inurba_marseille","lat":43.29881,"lon":5.39781,"is_reserved":false,"is_disabled":false,"rental_uris":{"android":"levelo://app?vid=8e94c400-bf74-4fb6-80b8-f54c0ec64626","ios":"levelo://app?vid=8e94c400-bf74-4fb6-80b8-f54c0ec64626"},"vehicle_type_id":"4","last_reported":1777506160,"current_range_meters":8800,"station_id":"ce4bh0h2rcd13ifvqd50","pricing_plan_id":"cebpf4jnsgd1na2vs0mg"},{"bike_id":"983c419f-b2e5-41c0-a6de-4665722d0571","system_id":"levelo_inurba_marseille","lat":43.30809,"lon":5.38138,"is_reserved":false,"is_disabled":false,"rental_uris":{"android":"levelo://app?vid=983c419f-b2e5-41c0-a6de-4665722d0571","ios":"levelo://app?vid=983c419f-b2e5-41c0-a6de-4665722d0571"},"vehicle_type_id":"4","last_reported":1777506160,"current_range_meters":8800,"station_id":"ce4bgt12rcd13ifvqce0","pricing_plan_id":"cebpf4jnsgd1na2vs0mg"},{"bike_id":"7f9a77c6-d4c3-4558-be05-05cc57911974","system_id":"levelo_inurba_marseille","lat":43.2319,"lon":5.39988,"is_reserved":false,"is_disabled":false,"rental_uris":{"android":"levelo://app?vid=7f9a77c6-d4c3-4558-be05-05cc57911974","ios":"levelo://app?vid=7f9a77c6-d4c3-4558-be05-05cc57911974"},"vehicle_type_id":"4","last_reported":1777506160,"current_range_meters":8800,"station_id":"ce4bhn12rcd13ifvqgqg","pricing_plan_id":"cebpf4jnsgd1na2vs0mg"},{"bike_id":"a2a694ab-bd57-45a8-a651-048e4cefae01","system_id":"levelo_inurba_marseille","lat":43.287,"lon":5.46675,"is_reserved":false,"is_disabled":false,"rental_uris":{"android":"levelo://app?vid=a2a694ab-bd57-45a8-a651-048e4cefae01","ios":"levelo://app?vid=a2a694ab-bd57-45a8-a651-048e4cefae01"},"vehicle_type_id":"4","last_reported":1777506160,"current_range_meters":8800,"station_id":"st_d6tc3vkotcvc738tfjhg","pricing_plan_id":"cebpf4jnsgd1na2vs0mg"},{"bike_id":"4f17915c-c3cf-4b49-8182-ea8a59f07c39","system_id":"levelo_inurba_marseille","lat":43.31113,"lon":5.37775,"is_reserved":false,"is_disabled":false,"rental_uris":{"android":"levelo://app?vid=4f17915c-c3cf-4b49-8182-ea8a59f07c39","ios":"levelo://app?vid=4f17915c-c3cf-4b49-8182-ea8a59f07c39"},"vehicle_type_id":"4","last_reported":1777506160,"current_range_meters":8800,"station_id":"ce4bgt92rcd13ifvqcg0","pricing_plan_id":"cebpf4jnsgd1na2vs0mg"},{"bike_id":"f63574be-46fd-43e4-b3e0-62a6ff7a835c","system_id":"levelo_inurba_marseille","lat":43.24721,"lon":5.37436,"is_reserved":false,"is_disabled":false,"rental_uris":{"android":"levelo://app?vid=f63574be-46fd-43e4-b3e0-62a6ff7a835c","ios":"levelo://app?vid=f63574be-46fd-43e4-b3e0-62a6ff7a835c"},"vehicle_type_id":"4","last_reported":1777506160,"current_range_meters":8800,"station_id":"","pricing_plan_id":"cebpf4jnsgd1na2vs0mg"},{"bike_id":"9da0ce04-fea7-4211-9b8c-75f2176dd9ad","system_id":"levelo_inurba_marseille","lat":43.29865,"lon":5.39725,"is_reserved":false,"is_disabled":false,"rental_uris":{"android":"levelo://app?vid=9da0ce04-fea7-4211-9b8c-75f2176dd9ad","ios":"levelo://app?vid=9da0ce04-fea7-4211-9b8c-75f2176dd9ad"},"vehicle_type_id":"4","last_reported":1777506160,"current_range_meters":8800,"station_id":"ce4bh0h2rcd13ifvqd50","pricing_plan_id":"cebpf4jnsgd1na2vs0mg"},{"bike_id":"9087a029-3792-4d95-bab1-f70d1a6c3adc","system_id":"levelo_inurba_marseille","lat":43.27574,"lon":5.38416,"is_reserved":false,"is_disabled":false,"rental_uris":{"android":"levelo://app?vid=9087a029-3792-4d95-bab1-f70d1a6c3adc","ios":"levelo://app?vid=9087a029-3792-4d95-bab1-f70d1a6c3adc"},"vehicle_type_id":"4","last_reported":1777506160,"current_range_meters":8800,"station_id":"ce4bhh92rcd13ifvqfi0","pricing_plan_id":"cebpf4jnsgd1na2vs0mg"},{"bike_id":"d5a1c556-e49b-4c6b-a72c-cdea49280001","system_id":"levelo_inurba_marseille","lat":43.27829,"lon":5.40635,"is_reserved":false,"is_disabled":false,"rental_uris":{"android":"levelo://app?vid=d5a1c556-e49b-4c6b-a72c-cdea49280001","ios":"levelo://app?vid=d5a1c556-e49b-4c6b-a72c-cdea49280001"},"vehicle_type_id":"4","last_reported":1777506160,"current_range_meters":8800,"station_id":"ce4bhnh2rcd13ifvqgtg","pricing_plan_id":"cebpf4jnsgd1na2vs0mg"},{"bike_id":"fa7e045d-8c9f-4859-94b9-0ac50a9adab0","system_id":"levelo_inurba_marseille","lat":43.31126,"lon":5.37755,"is_reserved":false,"is_disabled":false,"rental_uris":{"android":"levelo://app?vid=fa7e045d-8c9f-4859-94b9-0ac50a9adab0","ios":"levelo://app?vid=fa7e045d-8c9f-4859-94b9-0ac50a9adab0"},"vehicle_type_id":"4","last_reported":1777506160,"current_range_meters":8800,"station_id":"ce4bgt92rcd13ifvqcg0","pricing_plan_id":"cebpf4jnsgd1na2vs0mg"},{"bike_id":"d5cda9f5-de5e-48fd-b8fa-56c4fdce3a61","system_id":"levelo_inurba_marseille","lat":43.30466,"lon":5.36517,"is_reserved":false,"is_disabled":false,"rental_uris":{"android":"levelo://app?vid=d5cda9f5-de5e-48fd-b8fa-56c4fdce3a61","ios":"levelo://app?vid=d5cda9f5-de5e-48fd-b8fa-56c4fdce3a61"},"vehicle_type_id":"4","last_reported":1777506160,"current_range_meters":8800,"station_id":"","pricing_plan_id":"cebpf4jnsgd1na2vs0mg"},{"bike_id":"3b7270e9-1a3a-442b-a0f4-052f4f8c02c1","system_id":"levelo_inurba_marseille","lat":43.28675,"lon":5.36355,"is_reserved":false,"is_disabled":false,"rental_uris":{"android":"levelo://app?vid=3b7270e9-1a3a-442b-a0f4-052f4f8c02c1","ios":"levelo://app?vid=3b7270e9-1a3a-442b-a0f4-052f4f8c02c1"},"vehicle_type_id":"4","last_reported":1777506160,"current_range_meters":9200,"station_id":"ce4bhah2rcd13ifvqej0","pricing_plan_id":"cebpf4jnsgd1na2vs0mg"},{"bike_id":"ccedb001-1c75-44a2-83e0-a8ca858e15b9","system_id":"levelo_inurba_marseille","lat":43.30295,"lon":5.39204,"is_reserved":false,"is_disabled":false,"rental_uris":{"android":"levelo://app?vid=ccedb001-1c75-44a2-83e0-a8ca858e15b9","ios":"levelo://app?vid=ccedb001-1c75-44a2-83e0-a8ca858e15b9"},"vehicle_type_id":"4","last_reported":1777506160,"current_range_meters":9200,"station_id":"ce4bgkh2rcd13ifvqbk0","pricing_plan_id":"cebpf4jnsgd1na2vs0mg"},{"bike_id":"76e312ed-0ba7-4367-b9b4-c4384fce99c5","system_id":"levelo_inurba_marseille","lat":43.29027,"lon":5.38645,"is_reserved":false,"is_disabled":false,"rental_uris":{"android":"levelo://app?vid=76e312ed-0ba7-4367-b9b4-c4384fce99c5","ios":"levelo://app?vid=76e312ed-0ba7-4367-b9b4-c4384fce99c5"},"vehicle_type_id":"4","last_reported":1777506160,"current_range_meters":9200,"station_id":"ce4bh4p2rcd13ifvqe0g","pricing_plan_id":"cebpf4jnsgd1na2vs0mg"},{"bike_id":"29367b16-8f0b-4d37-9fef-19df22f7ec79","system_id":"levelo_inurba_marseille","lat":43.25066,"lon":5.39507,"is_reserved":false,"is_disabled":false,"rental_uris":{"android":"levelo://app?vid=29367b16-8f0b-4d37-9fef-19df22f7ec79","ios":"levelo://app?vid=29367b16-8f0b-4d37-9fef-19df22f7ec79"},"vehicle_type_id":"4","last_reported":1777506160,"current_range_meters":9200,"station_id":"ce4bhm12rcd13ifvqgkg","pricing_plan_id":"cebpf4jnsgd1na2vs0mg"},{"bike_id":"aa1066a2-52ee-4b5e-9ea8-f5bfb38bf0a4","system_id":"levelo_inurba_marseille","lat":43.32344,"lon":5.36745,"is_reserved":false,"is_disabled":false,"rental_uris":{"android":"levelo://app?vid=aa1066a2-52ee-4b5e-9ea8-f5bfb38bf0a4","ios":"levelo://app?vid=aa1066a2-52ee-4b5e-9ea8-f5bfb38bf0a4"},"vehicle_type_id":"4","last_reported":1777506160,"current_range_meters":9200,"station_id":"ce4bhsh2rcd13ifvqi2g","pricing_plan_id":"cebpf4jnsgd1na2vs0mg"},{"bike_id":"95f47514-1d7f-4013-95fe-a0916f7cc45a","system_id":"levelo_inurba_marseille","lat":43.33537,"lon":5.37479,"is_reserved":false,"is_disabled":false,"rental_uris":{"android":"levelo://app?vid=95f47514-1d7f-4013-95fe-a0916f7cc45a","ios":"levelo://app?vid=95f47514-1d7f-4013-95fe-a0916f7cc45a"},"vehicle_type_id":"4","last_reported":1777506160,"current_range_meters":9200,"station_id":"st_d46tts09ee8s73dlu43g","pricing_plan_id":"cebpf4jnsgd1na2vs0mg"},{"bike_id":"c3bd92b3-d288-490d-8844-d42c64b64444","system_id":"levelo_inurba_marseille","lat":43.30818,"lon":5.38166,"is_reserved":false,"is_disabled":false,"rental_uris":{"android":"levelo://app?vid=c3bd92b3-d288-490d-8844-d42c64b64444","ios":"levelo://app?vid=c3bd92b3-d288-490d-8844-d42c64b64444"},"vehicle_type_id":"4","last_reported":1777506160,"current_range_meters":9200,"station_id":"ce4bgt12rcd13ifvqce0","pricing_plan_id":"cebpf4jnsgd1na2vs0mg"},{"bike_id":"275f0e36-65c4-489f-bd62-ec5e03923f09","system_id":"levelo_inurba_marseille","lat":43.22557,"lon":5.41656,"is_reserved":false,"is_disabled":false,"rental_uris":{"android":"levelo://app?vid=275f0e36-65c4-489f-bd62-ec5e03923f09","ios":"levelo://app?vid=275f0e36-65c4-489f-bd62-ec5e03923f09"},"vehicle_type_id":"4","last_reported":1777506160,"current_range_meters":9200,"station_id":"st_d2o4gvlbi1j2169b742g","pricing_plan_id":"cebpf4jnsgd1na2vs0mg"},{"bike_id":"14ba79c9-6b6d-4bd7-bb4a-1a9c5cfbd596","system_id":"levelo_inurba_marseille","lat":43.29023,"lon":5.3866,"is_reserved":false,"is_disabled":false,"rental_uris":{"android":"levelo://app?vid=14ba79c9-6b6d-4bd7-bb4a-1a9c5cfbd596","ios":"levelo://app?vid=14ba79c9-6b6d-4bd7-bb4a-1a9c5cfbd596"},"vehicle_type_id":"4","last_reported":1777506160,"current_range_meters":9200,"station_id":"ce4bh4p2rcd13ifvqe0g","pricing_plan_id":"cebpf4jnsgd1na2vs0mg"},{"bike_id":"72bd37aa-b4c7-4ee6-8962-d13721dbabae","system_id":"levelo_inurba_marseille","lat":43.29249,"lon":5.40155,"is_reserved":false,"is_disabled":false,"rental_uris":{"android":"levelo://app?vid=72bd37aa-b4c7-4ee6-8962-d13721dbabae","ios":"levelo://app?vid=72bd37aa-b4c7-4ee6-8962-d13721dbabae"},"vehicle_type_id":"4","last_reported":1777506160,"current_range_meters":9200,"station_id":"ce4bh312rcd13ifvqdk0","pricing_plan_id":"cebpf4jnsgd1na2vs0mg"},{"bike_id":"dbb0c20e-17c7-4709-a167-36f0096ce9f6","system_id":"levelo_inurba_marseille","lat":43.30774,"lon":5.38102,"is_reserved":false,"is_disabled":false,"rental_uris":{"android":"levelo://app?vid=dbb0c20e-17c7-4709-a167-36f0096ce9f6","ios":"levelo://app?vid=dbb0c20e-17c7-4709-a167-36f0096ce9f6"},"vehicle_type_id":"4","last_reported":1777506160,"current_range_meters":9200,"station_id":"","pricing_plan_id":"cebpf4jnsgd1na2vs0mg"},{"bike_id":"94fbbe2c-6e1d-4059-96a0-91932af26958","system_id":"levelo_inurba_marseille","lat":43.30639,"lon":5.40074,"is_reserved":false,"is_disabled":false,"rental_uris":{"android":"levelo://app?vid=94fbbe2c-6e1d-4059-96a0-91932af26958","ios":"levelo://app?vid=94fbbe2c-6e1d-4059-96a0-91932af26958"},"vehicle_type_id":"4","last_reported":1777506160,"current_range_meters":9200,"station_id":"ce4bh112rcd13ifvqda0","pricing_plan_id":"cebpf4jnsgd1na2vs0mg"},{"bike_id":"e95d8c76-9b74-447b-94cb-9c6e728afddf","system_id":"levelo_inurba_marseille","lat":43.31113,"lon":5.37759,"is_reserved":false,"is_disabled":false,"rental_uris":{"android":"levelo://app?vid=e95d8c76-9b74-447b-94cb-9c6e728afddf","ios":"levelo://app?vid=e95d8c76-9b74-447b-94cb-9c6e728afddf"},"vehicle_type_id":"4","last_reported":1777506160,"current_range_meters":9200,"station_id":"ce4bgt92rcd13ifvqcg0","pricing_plan_id":"cebpf4jnsgd1na2vs0mg"},{"bike_id":"bd381285-9688-4b86-bb58-500e4f0f2544","system_id":"levelo_inurba_marseille","lat":43.23352,"lon":5.39981,"is_reserved":false,"is_disabled":false,"rental_uris":{"android":"levelo://app?vid=bd381285-9688-4b86-bb58-500e4f0f2544","ios":"levelo://app?vid=bd381285-9688-4b86-bb58-500e4f0f2544"},"vehicle_type_id":"4","last_reported":1777506160,"current_range_meters":9200,"station_id":"","pricing_plan_id":"cebpf4jnsgd1na2vs0mg"},{"bike_id":"2f16a5b2-9673-4b05-8c84-08bbbce700b2","system_id":"levelo_inurba_marseille","lat":43.30878,"lon":5.39659,"is_reserved":false,"is_disabled":false,"rental_uris":{"android":"levelo://app?vid=2f16a5b2-9673-4b05-8c84-08bbbce700b2","ios":"levelo://app?vid=2f16a5b2-9673-4b05-8c84-08bbbce700b2"},"vehicle_type_id":"4","last_reported":1777506160,"current_range_meters":9200,"station_id":"ce4bh012rcd13ifvqcv0","pricing_plan_id":"cebpf4jnsgd1na2vs0mg"},{"bike_id":"b6b19092-1d16-47fb-b5df-265994d940cc","system_id":"levelo_inurba_marseille","lat":43.29266,"lon":5.40904,"is_reserved":false,"is_disabled":true,"rental_uris":{"android":"levelo://app?vid=b6b19092-1d16-47fb-b5df-265994d940cc","ios":"levelo://app?vid=b6b19092-1d16-47fb-b5df-265994d940cc"},"vehicle_type_id":"4","last_reported":1777506160,"current_range_meters":9200,"station_id":"ce4bh192rcd13ifvqdc0","pricing_plan_id":"cebpf4jnsgd1na2vs0mg"},{"bike_id":"96c1677c-ba34-44c4-b8f0-676f4f85c27f","system_id":"levelo_inurba_marseille","lat":43.29449,"lon":5.38801,"is_reserved":false,"is_disabled":true,"rental_uris":{"android":"levelo://app?vid=96c1677c-ba34-44c4-b8f0-676f4f85c27f","ios":"levelo://app?vid=96c1677c-ba34-44c4-b8f0-676f4f85c27f"},"vehicle_type_id":"4","last_reported":1777506160,"current_range_meters":9200,"station_id":"","pricing_plan_id":"cebpf4jnsgd1na2vs0mg"},{"bike_id":"fca2ebc7-28fb-4219-b362-e446c7fd3372","system_id":"levelo_inurba_marseille","lat":43.28599,"lon":5.39874,"is_reserved":false,"is_disabled":false,"rental_uris":{"android":"levelo://app?vid=fca2ebc7-28fb-4219-b362-e446c7fd3372","ios":"levelo://app?vid=fca2ebc7-28fb-4219-b362-e446c7fd3372"},"vehicle_type_id":"4","last_reported":1777506160,"current_range_meters":9200,"station_id":"st_d4a7ka997mjs738ck50g","pricing_plan_id":"cebpf4jnsgd1na2vs0mg"},{"bike_id":"bc804c16-17c2-4902-8c5c-afe58eb0e0c2","system_id":"levelo_inurba_marseille","lat":43.30133,"lon":5.39907,"is_reserved":false,"is_disabled":false,"rental_uris":{"android":"levelo://app?vid=bc804c16-17c2-4902-8c5c-afe58eb0e0c2","ios":"levelo://app?vid=bc804c16-17c2-4902-8c5c-afe58eb0e0c2"},"vehicle_type_id":"4","last_reported":1777506160,"current_range_meters":9200,"station_id":"ce4bh0h2rcd13ifvqd40","pricing_plan_id":"cebpf4jnsgd1na2vs0mg"},{"bike_id":"03c04f60-2059-46c6-a5f2-01ced091b087","system_id":"levelo_inurba_marseille","lat":43.27995,"lon":5.41683,"is_reserved":false,"is_disabled":false,"rental_uris":{"android":"levelo://app?vid=03c04f60-2059-46c6-a5f2-01ced091b087","ios":"levelo://app?vid=03c04f60-2059-46c6-a5f2-01ced091b087"},"vehicle_type_id":"4","last_reported":1777506160,"current_range_meters":9200,"station_id":"ce4bho12rcd13ifvqh1g","pricing_plan_id":"cebpf4jnsgd1na2vs0mg"},{"bike_id":"4634e38d-6875-4f1d-b4f4-f9b580771dcd","system_id":"levelo_inurba_marseille","lat":43.28395,"lon":5.37503,"is_reserved":false,"is_disabled":false,"rental_uris":{"android":"levelo://app?vid=4634e38d-6875-4f1d-b4f4-f9b580771dcd","ios":"levelo://app?vid=4634e38d-6875-4f1d-b4f4-f9b580771dcd"},"vehicle_type_id":"4","last_reported":1777506160,"current_range_meters":9200,"station_id":"ce4bh412rcd13ifvqds0","pricing_plan_id":"cebpf4jnsgd1na2vs0mg"},{"bike_id":"01063f98-6477-47d4-9359-1128a1cf3115","system_id":"levelo_inurba_marseille","lat":43.28106,"lon":5.37833,"is_reserved":false,"is_disabled":false,"rental_uris":{"android":"levelo://app?vid=01063f98-6477-47d4-9359-1128a1cf3115","ios":"levelo://app?vid=01063f98-6477-47d4-9359-1128a1cf3115"},"vehicle_type_id":"4","last_reported":1777506160,"current_range_meters":9200,"station_id":"ce4bha12rcd13ifvqee0","pricing_plan_id":"cebpf4jnsgd1na2vs0mg"},