{"last_updated":1752495774,"ttl":60,"version":"2.2","data":{"bikes":[{"bike_id":"feb1ed1d-b0db-45cc-9e1b-7311a8d72058","system_id":"levelo_inurba_marseille","lat":43.33747,"lon":5.37463,"is_reserved":false,"is_disabled":false,"rental_uris":{"android":"levelo://app?vid=feb1ed1d-b0db-45cc-9e1b-7311a8d72058","ios":"levelo://app?vid=feb1ed1d-b0db-45cc-9e1b-7311a8d72058"},"vehicle_type_id":"1","last_reported":1752495774,"current_range_meters":38000,"station_id":"","pricing_plan_id":"cebpf4jnsgd1na2vs0mg"},{"bike_id":"3d7c83a1-d94c-4aab-95a9-8a04bec43d63","system_id":"levelo_inurba_marseille","lat":43.32331,"lon":5.36745,"is_reserved":false,"is_disabled":false,"rental_uris":{"android":"levelo://app?vid=3d7c83a1-d94c-4aab-95a9-8a04bec43d63","ios":"levelo://app?vid=3d7c83a1-d94c-4aab-95a9-8a04bec43d63"},"vehicle_type_id":"4","last_reported":1752495774,"current_range_meters":3600,"station_id":"ce4bhsh2rcd13ifvqi2g","pricing_plan_id":"cebpf4jnsgd1na2vs0mg"},{"bike_id":"68afdf6b-9f0a-4b3a-a422-353f729d06d6","system_id":"levelo_inurba_marseille","lat":43.27378,"lon":5.36256,"is_reserved":false,"is_disabled":false,"rental_uris":{"android":"levelo://app?vid=68afdf6b-9f0a-4b3a-a422-353f729d06d6","ios":"levelo://app?vid=68afdf6b-9f0a-4b3a-a422-353f729d06d6"},"vehicle_type_id":"4","last_reported":1752495774,"current_range_meters":3600,"station_id":"ce4bhbh2rcd13ifvqeo0","pricing_plan_id":"cebpf4jnsgd1na2vs0mg"},{"bike_id":"dbba3321-20c7-4989-a7b5-ea9ab2c4b3e8","system_id":"levelo_inurba_marseille","lat":43.261935,"lon":5.374477,"is_reserved":false,"is_disabled":true,"rental_uris":{"android":"levelo://app?vid=dbba3321-20c7-4989-a7b5-ea9ab2c4b3e8","ios":"levelo://app?vid=dbba3321-20c7-4989-a7b5-ea9ab2c4b3e8"},"vehicle_type_id":"4","last_reported":1752495774,"current_range_meters":3600,"station_id":"ce4bhgp2rcd13ifvqfc0","pricing_plan_id":"cebpf4jnsgd1na2vs0mg"},{"bike_id":"bb570d96-6840-4e88-b87f-fab3365e63fc","system_id":"levelo_inurba_marseille","lat":43.26032,"lon":5.37553,"is_reserved":false,"is_disabled":false,"rental_uris":{"android":"levelo://app?vid=bb570d96-6840-4e88-b87f-fab3365e63fc","ios":"levelo://app?vid=bb570d96-6840-4e88-b87f-fab3365e63fc"},"vehicle_type_id":"4","last_reported":1752495774,"current_range_meters":4000,"station_id":"ce4bhgh2rcd13ifvqfa0","pricing_plan_id":"cebpf4jnsgd1na2vs0mg"},{"bike_id":"b6c4f940-d226-42cf-afe9-1bce1099110a","system_id":"levelo_inurba_marseille","lat":43.27372,"lon":5.36258,"is_reserved":false,"is_disabled":false,"rental_uris":{"android":"levelo://app?vid=b6c4f940-d226-42cf-afe9-1bce1099110a","ios":"levelo://app?vid=b6c4f940-d226-42cf-afe9-1bce1099110a"},"vehicle_type_id":"4","last_reported":1752495774,"current_range_meters":4400,"station_id":"ce4bhbh2rcd13ifvqeo0","pricing_plan_id":"cebpf4jnsgd1na2vs0mg"},{"bike_id":"ba1f3513-0d7f-45a8-8709-762eca506646","system_id":"levelo_inurba_marseille","lat":43.28615,"lon":5.35106,"is_reserved":false,"is_disabled":false,"rental_uris":{"android":"levelo://app?vid=ba1f3513-0d7f-45a8-8709-762eca506646","ios":"levelo://app?vid=ba1f3513-0d7f-45a8-8709-762eca506646"},"vehicle_type_id":"4","last_reported":1752495774,"current_range_meters":4800,"station_id":"ce4bhch2rcd13ifvqeug","pricing_plan_id":"cebpf4jnsgd1na2vs0mg"},{"bike_id":"83051a0a-e6b0-4c50-8e39-06f7b1a7bb98","system_id":"levelo_inurba_marseille","lat":43.21747,"lon":5.34605,"is_reserved":false,"is_disabled":false,"rental_uris":{"android":"levelo://app?vid=83051a0a-e6b0-4c50-8e39-06f7b1a7bb98","ios":"levelo://app?vid=83051a0a-e6b0-4c50-8e39-06f7b1a7bb98"},"vehicle_type_id":"4","last_reported":1752495774,"current_range_meters":5600,"station_id":"st_cvj6r9ubvosntc0bgbag","pricing_plan_id":"cebpf4jnsgd1na2vs0mg"},{"bike_id":"fb62ca1b-146e-4f82-b485-190d0f8ca6b2","system_id":"levelo_inurba_marseille","lat":43.21744,"lon":5.34602,"is_reserved":false,"is_disabled":false,"rental_uris":{"android":"levelo://app?vid=fb62ca1b-146e-4f82-b485-190d0f8ca6b2","ios":"levelo://app?vid=fb62ca1b-146e-4f82-b485-190d0f8ca6b2"},"vehicle_type_id":"4","last_reported":1752495774,"current_range_meters":6000,"station_id":"st_cvj6r9ubvosntc0bgbag","pricing_plan_id":"cebpf4jnsgd1na2vs0mg"},{"bike_id":"e905217c-abda-468b-92f5-fd38a8ede7d5","system_id":"levelo_inurba_marseille","lat":43.22498,"lon":5.34771,"is_reserved":false,"is_disabled":false,"rental_uris":{"android":"levelo://app?vid=e905217c-abda-468b-92f5-fd38a8ede7d5","ios":"levelo://app?vid=e905217c-abda-468b-92f5-fd38a8ede7d5"},"vehicle_type_id":"4","last_reported":1752495774,"current_range_meters":6000,"station_id":"st_cvj5dfep6f1abm77gieg","pricing_plan_id":"cebpf4jnsgd1na2vs0mg"},{"bike_id":"470d1e9d-8c05-40b8-a6b2-039f183b9f6a","system_id":"levelo_inurba_marseille","lat":43.231942,"lon":5.355572,"is_reserved":false,"is_disabled":true,"rental_uris":{"android":"levelo://app?vid=470d1e9d-8c05-40b8-a6b2-039f183b9f6a","ios":"levelo://app?vid=470d1e9d-8c05-40b8-a6b2-039f183b9f6a"},"vehicle_type_id":"4","last_reported":1752495774,"current_range_meters":6000,"station_id":"ce4bhu92rcd13ifvqi70","pricing_plan_id":"cebpf4jnsgd1na2vs0mg"},{"bike_id":"44dd919c-32df-4fe9-8b1c-c9988fb68d5b","system_id":"levelo_inurba_marseille","lat":43.26944,"lon":5.40285,"is_reserved":false,"is_disabled":true,"rental_uris":{"android":"levelo://app?vid=44dd919c-32df-4fe9-8b1c-c9988fb68d5b","ios":"levelo://app?vid=44dd919c-32df-4fe9-8b1c-c9988fb68d5b"},"vehicle_type_id":"4","last_reported":1752495774,"current_range_meters":6400,"station_id":"cjm6bp8fraef2m0cb0m0","pricing_plan_id":"cebpf4jnsgd1na2vs0mg"},{"bike_id":"99202e83-2375-41bb-812b-e811ff73eea0","system_id":"levelo_inurba_marseille","lat":43.2482,"lon":5.37462,"is_reserved":false,"is_disabled":false,"rental_uris":{"android":"levelo://app?vid=99202e83-2375-41bb-812b-e811ff73eea0","ios":"levelo://app?vid=99202e83-2375-41bb-812b-e811ff73eea0"},"vehicle_type_id":"4","last_reported":1752495774,"current_range_meters":6800,"station_id":"ce4bhgh2rcd13ifvqfb0","pricing_plan_id":"cebpf4jnsgd1na2vs0mg"},{"bike_id":"e2783bf3-f0a5-4e56-9334-95b2fbc83a6e","system_id":"levelo_inurba_marseille","lat":43.21746,"lon":5.34613,"is_reserved":false,"is_disabled":false,"rental_uris":{"android":"levelo://app?vid=e2783bf3-f0a5-4e56-9334-95b2fbc83a6e","ios":"levelo://app?vid=e2783bf3-f0a5-4e56-9334-95b2fbc83a6e"},"vehicle_type_id":"4","last_reported":1752495774,"current_range_meters":6800,"station_id":"st_cvj6r9ubvosntc0bgbag","pricing_plan_id":"cebpf4jnsgd1na2vs0mg"},{"bike_id":"5d522e77-ec27-4fd6-a510-ea7d6f16223a","system_id":"levelo_inurba_marseille","lat":43.27593,"lon":5.3709,"is_reserved":false,"is_disabled":false,"rental_uris":{"android":"levelo://app?vid=5d522e77-ec27-4fd6-a510-ea7d6f16223a","ios":"levelo://app?vid=5d522e77-ec27-4fd6-a510-ea7d6f16223a"},"vehicle_type_id":"4","last_reported":1752495774,"current_range_meters":7200,"station_id":"","pricing_plan_id":"cebpf4jnsgd1na2vs0mg"},{"bike_id":"f335a309-5534-4e32-badf-7483e42e876b","system_id":"levelo_inurba_marseille","lat":43.27209,"lon":5.39178,"is_reserved":false,"is_disabled":false,"rental_uris":{"android":"levelo://app?vid=f335a309-5534-4e32-badf-7483e42e876b","ios":"levelo://app?vid=f335a309-5534-4e32-badf-7483e42e876b"},"vehicle_type_id":"4","last_reported":1752495774,"current_range_meters":7200,"station_id":"ce4bhhp2rcd13ifvqfm0","pricing_plan_id":"cebpf4jnsgd1na2vs0mg"},{"bike_id":"c457eb15-24d1-48e6-9795-02e664761e09","system_id":"levelo_inurba_marseille","lat":43.30945,"lon":5.39027,"is_reserved":false,"is_disabled":false,"rental_uris":{"android":"levelo://app?vid=c457eb15-24d1-48e6-9795-02e664761e09","ios":"levelo://app?vid=c457eb15-24d1-48e6-9795-02e664761e09"},"vehicle_type_id":"4","last_reported":1752495774,"current_range_meters":8000,"station_id":"ce4bgup2rcd13ifvqco0","pricing_plan_id":"cebpf4jnsgd1na2vs0mg"},{"bike_id":"a66f299e-6fcd-4efa-9296-412b5c4d85fc","system_id":"levelo_inurba_marseille","lat":43.289345,"lon":5.366425,"is_reserved":false,"is_disabled":false,"rental_uris":{"android":"levelo://app?vid=a66f299e-6fcd-4efa-9296-412b5c4d85fc","ios":"levelo://app?vid=a66f299e-6fcd-4efa-9296-412b5c4d85fc"},"vehicle_type_id":"4","last_reported":1752495774,"current_range_meters":8000,"station_id":"ce4bhap2rcd13ifvqek0","pricing_plan_id":"cebpf4jnsgd1na2vs0mg"},{"bike_id":"1228fbbd-4fb1-4f5b-89d2-46fd73d3f7bb","system_id":"levelo_inurba_marseille","lat":43.23962,"lon":5.36629,"is_reserved":false,"is_disabled":false,"rental_uris":{"android":"levelo://app?vid=1228fbbd-4fb1-4f5b-89d2-46fd73d3f7bb","ios":"levelo://app?vid=1228fbbd-4fb1-4f5b-89d2-46fd73d3f7bb"},"vehicle_type_id":"4","last_reported":1752495774,"current_range_meters":8000,"station_id":"ce4bhi12rcd13ifvqfp0","pricing_plan_id":"cebpf4jnsgd1na2vs0mg"},{"bike_id":"4a897875-601f-44e4-bed7-89d6f848f2e6","system_id":"levelo_inurba_marseille","lat":43.32052,"lon":5.41541,"is_reserved":false,"is_disabled":false,"rental_uris":{"android":"levelo://app?vid=4a897875-601f-44e4-bed7-89d6f848f2e6","ios":"levelo://app?vid=4a897875-601f-44e4-bed7-89d6f848f2e6"},"vehicle_type_id":"4","last_reported":1752495774,"current_range_meters":8000,"station_id":"ce4bhq92rcd13ifvqhkg","pricing_plan_id":"cebpf4jnsgd1na2vs0mg"},{"bike_id":"9a8b0931-f754-41b1-83c6-b9eee7982ee0","system_id":"levelo_inurba_marseille","lat":43.30374,"lon":5.41883,"is_reserved":false,"is_disabled":false,"rental_uris":{"android":"levelo://app?vid=9a8b0931-f754-41b1-83c6-b9eee7982ee0","ios":"levelo://app?vid=9a8b0931-f754-41b1-83c6-b9eee7982ee0"},"vehicle_type_id":"4","last_reported":1752495774,"current_range_meters":8400,"station_id":"ce4bhop2rcd13ifvqh7g","pricing_plan_id":"cebpf4jnsgd1na2vs0mg"},{"bike_id":"bbf2c276-3b35-4728-b45c-2713d906bd20","system_id":"levelo_inurba_marseille","lat":43.21738,"lon":5.34606,"is_reserved":false,"is_disabled":false,"rental_uris":{"android":"levelo://app?vid=bbf2c276-3b35-4728-b45c-2713d906bd20","ios":"levelo://app?vid=bbf2c276-3b35-4728-b45c-2713d906bd20"},"vehicle_type_id":"4","last_reported":1752495774,"current_range_meters":8400,"station_id":"st_cvj6r9ubvosntc0bgbag","pricing_plan_id":"cebpf4jnsgd1na2vs0mg"},{"bike_id":"f23760ff-ab61-4853-aa67-28aac93822c1","system_id":"levelo_inurba_marseille","lat":43.337444,"lon":5.374475,"is_reserved":false,"is_disabled":false,"rental_uris":{"android":"levelo://app?vid=f23760ff-ab61-4853-aa67-28aac93822c1","ios":"levelo://app?vid=f23760ff-ab61-4853-aa67-28aac93822c1"},"vehicle_type_id":"4","last_reported":1752495774,"current_range_meters":8400,"station_id":"","pricing_plan_id":"cebpf4jnsgd1na2vs0mg"},{"bike_id":"961f2a6f-ee81-49f9-a431-572f46b86440","system_id":"levelo_inurba_marseille","lat":43.28703,"lon":5.37388,"is_reserved":false,"is_disabled":false,"rental_uris":{"android":"levelo://app?vid=961f2a6f-ee81-49f9-a431-572f46b86440","ios":"levelo://app?vid=961f2a6f-ee81-49f9-a431-572f46b86440"},"vehicle_type_id":"4","last_reported":1752495774,"current_range_meters":8800,"station_id":"ce4bh3p2rcd13ifvqdq0","pricing_plan_id":"cebpf4jnsgd1na2vs0mg"},{"bike_id":"6a96a8f4-aaff-4bf9-95b0-b7794db1a763","system_id":"levelo_inurba_marseille","lat":43.23178,"lon":5.35546,"is_reserved":false,"is_disabled":false,"rental_uris":{"android":"levelo://app?vid=6a96a8f4-aaff-4bf9-95b0-b7794db1a763","ios":"levelo://app?vid=6a96a8f4-aaff-4bf9-95b0-b7794db1a763"},"vehicle_type_id":"4","last_reported":1752495774,"current_range_meters":8800,"station_id":"ce4bhu92rcd13ifvqi70","pricing_plan_id":"cebpf4jnsgd1na2vs0mg"},{"bike_id":"430b9c1b-125a-4e4e-9edf-36a80fef5ce0","system_id":"levelo_inurba_marseille","lat":43.27375,"lon":5.36275,"is_reserved":false,"is_disabled":false,"rental_uris":{"android":"levelo://app?vid=430b9c1b-125a-4e4e-9edf-36a80fef5ce0","ios":"levelo://app?vid=430b9c1b-125a-4e4e-9edf-36a80fef5ce0"},"vehicle_type_id":"4","last_reported":1752495774,"current_range_meters":8800,"station_id":"ce4bhbh2rcd13ifvqeo0","pricing_plan_id":"cebpf4jnsgd1na2vs0mg"},{"bike_id":"7bb6743e-cd8c-4b57-b01b-ee37c3845066","system_id":"levelo_inurba_marseille","lat":43.25281,"lon":5.37578,"is_reserved":false,"is_disabled":false,"rental_uris":{"android":"levelo://app?vid=7bb6743e-cd8c-4b57-b01b-ee37c3845066","ios":"levelo://app?vid=7bb6743e-cd8c-4b57-b01b-ee37c3845066"},"vehicle_type_id":"4","last_reported":1752495774,"current_range_meters":8800,"station_id":"","pricing_plan_id":"cebpf4jnsgd1na2vs0mg"},{"bike_id":"acb120b1-8119-4e6e-92fd-c5b80102b786","system_id":"levelo_inurba_marseille","lat":43.28609,"lon":5.37045,"is_reserved":false,"is_disabled":false,"rental_uris":{"android":"levelo://app?vid=acb120b1-8119-4e6e-92fd-c5b80102b786","ios":"levelo://app?vid=acb120b1-8119-4e6e-92fd-c5b80102b786"},"vehicle_type_id":"4","last_reported":1752495774,"current_range_meters":8800,"station_id":"ce4bht12rcd13ifvqi60","pricing_plan_id":"cebpf4jnsgd1na2vs0mg"},{"bike_id":"a5fa1708-aa13-48e4-bcba-011e7e3384cf","system_id":"levelo_inurba_marseille","lat":43.282661,"lon":5.350577,"is_reserved":false,"is_disabled":false,"rental_uris":{"android":"levelo://app?vid=a5fa1708-aa13-48e4-bcba-011e7e3384cf","ios":"levelo://app?vid=a5fa1708-aa13-48e4-bcba-011e7e3384cf"},"vehicle_type_id":"4","last_reported":1752495774,"current_range_meters":9600,"station_id":"","pricing_plan_id":"cebpf4jnsgd1na2vs0mg"},{"bike_id":"3f120f17-0b38-44cc-9487-b67b05ae39c5","system_id":"levelo_inurba_marseille","lat":43.31481,"lon":5.37306,"is_reserved":false,"is_disabled":false,"rental_uris":{"android":"levelo://app?vid=3f120f17-0b38-44cc-9487-b67b05ae39c5","ios":"levelo://app?vid=3f120f17-0b38-44cc-9487-b67b05ae39c5"},"vehicle_type_id":"4","last_reported":1752495774,"current_range_meters":9600,"station_id":"ce4bgt12rcd13ifvqcd0","pricing_plan_id":"cebpf4jnsgd1na2vs0mg"},{"bike_id":"0eadb807-73f6-424a-bcd7-3b07bd18ff50","system_id":"levelo_inurba_marseille","lat":43.3211,"lon":5.36756,"is_reserved":false,"is_disabled":false,"rental_uris":{"android":"levelo://app?vid=0eadb807-73f6-424a-bcd7-3b07bd18ff50","ios":"levelo://app?vid=0eadb807-73f6-424a-bcd7-3b07bd18ff50"},"vehicle_type_id":"4","last_reported":1752495774,"current_range_meters":9600,"station_id":"ce4bhrh2rcd13ifvqhug","pricing_plan_id":"cebpf4jnsgd1na2vs0mg"},{"bike_id":"2d20d04c-847b-4085-a58f-d98f887283c8","system_id":"levelo_inurba_marseille","lat":43.29709,"lon":5.37316,"is_reserved":false,"is_disabled":false,"rental_uris":{"android":"levelo://app?vid=2d20d04c-847b-4085-a58f-d98f887283c8","ios":"levelo://app?vid=2d20d04c-847b-4085-a58f-d98f887283c8"},"vehicle_type_id":"4","last_reported":1752495774,"current_range_meters":10000,"station_id":"ce4bgk12rcd13ifvqbj0","pricing_plan_id":"cebpf4jnsgd1na2vs0mg"},{"bike_id":"2ef51ee8-5dba-4636-b65b-077dc6d0a7e6","system_id":"levelo_inurba_marseille","lat":43.29574,"lon":5.42292,"is_reserved":false,"is_disabled":false,"rental_uris":{"android":"levelo://app?vid=2ef51ee8-5dba-4636-b65b-077dc6d0a7e6","ios":"levelo://app?vid=2ef51ee8-5dba-4636-b65b-077dc6d0a7e6"},"vehicle_type_id":"4","last_reported":1752495774,"current_range_meters":10000,"station_id":"ce4bhph2rcd13ifvqhdg","pricing_plan_id":"cebpf4jnsgd1na2vs0mg"},{"bike_id":"b77bc38d-6191-404a-9544-2803e406c033","system_id":"levelo_inurba_marseille","lat":43.241809,"lon":5.397296,"is_reserved":false,"is_disabled":false,"rental_uris":{"android":"levelo://app?vid=b77bc38d-6191-404a-9544-2803e406c033","ios":"levelo://app?vid=b77bc38d-6191-404a-9544-2803e406c033"},"vehicle_type_id":"4","last_reported":1752495774,"current_range_meters":6400,"station_id":"ce4bhn12rcd13ifvqgpg","pricing_plan_id":"cebpf4jnsgd1na2vs0mg"},{"bike_id":"07b80ba8-94f7-4006-b883-d44157aa02a8","system_id":"levelo_inurba_marseille","lat":43.211868,"lon":5.350722,"is_reserved":false,"is_disabled":false,"rental_uris":{"android":"levelo://app?vid=07b80ba8-94f7-4006-b883-d44157aa02a8","ios":"levelo://app?vid=07b80ba8-94f7-4006-b883-d44157aa02a8"},"vehicle_type_id":"4","last_reported":1752495774,"current_range_meters":10000,"station_id":"st_cvj6sg6p6f1abm77japg","pricing_plan_id":"cebpf4jnsgd1na2vs0mg"},{"bike_id":"aee36bad-0825-424f-a11e-0d19c76c89d1","system_id":"levelo_inurba_marseille","lat":43.32342,"lon":5.40614,"is_reserved":false,"is_disabled":false,"rental_uris":{"android":"levelo://app?vid=aee36bad-0825-424f-a11e-0d19c76c89d1","ios":"levelo://app?vid=aee36bad-0825-424f-a11e-0d19c76c89d1"},"vehicle_type_id":"4","last_reported":1752495774,"current_range_meters":10000,"station_id":"ce4bhq92rcd13ifvqhjg","pricing_plan_id":"cebpf4jnsgd1na2vs0mg"},{"bike_id":"44745ac3-4df9-409c-9422-194cd101e66b","system_id":"levelo_inurba_marseille","lat":43.28719,"lon":5.36101,"is_reserved":false,"is_disabled":false,"rental_uris":{"android":"levelo://app?vid=44745ac3-4df9-409c-9422-194cd101e66b","ios":"levelo://app?vid=44745ac3-4df9-409c-9422-194cd101e66b"},"vehicle_type_id":"4","last_reported":1752495774,"current_range_meters":10000,"station_id":"cki0cbj6b192h4jlfktg","pricing_plan_id":"cebpf4jnsgd1na2vs0mg"},{"bike_id":"4ab22ae3-200e-48ad-9314-7cf6ed2dfed5","system_id":"levelo_inurba_marseille","lat":43.24168,"lon":5.36393,"is_reserved":false,"is_disabled":false,"rental_uris":{"android":"levelo://app?vid=4ab22ae3-200e-48ad-9314-7cf6ed2dfed5","ios":"levelo://app?vid=4ab22ae3-200e-48ad-9314-7cf6ed2dfed5"},"vehicle_type_id":"4","last_reported":1752495774,"current_range_meters":10000,"station_id":"cpo36qri1sfpv3e86is0","pricing_plan_id":"cebpf4jnsgd1na2vs0mg"},{"bike_id":"7b2a94b5-ebb1-47eb-91e5-7a0c146f2f1f","system_id":"levelo_inurba_marseille","lat":43.32283,"lon":5.38274,"is_reserved":false,"is_disabled":false,"rental_uris":{"android":"levelo://app?vid=7b2a94b5-ebb1-47eb-91e5-7a0c146f2f1f","ios":"levelo://app?vid=7b2a94b5-ebb1-47eb-91e5-7a0c146f2f1f"},"vehicle_type_id":"4","last_reported":1752495774,"current_range_meters":9600,"station_id":"ce4bhr12rcd13ifvqhqg","pricing_plan_id":"cebpf4jnsgd1na2vs0mg"},{"bike_id":"a44f68aa-b920-4eb6-845e-df1183944a6b","system_id":"levelo_inurba_marseille","lat":43.285744,"lon":5.350807,"is_reserved":false,"is_disabled":false,"rental_uris":{"android":"levelo://app?vid=a44f68aa-b920-4eb6-845e-df1183944a6b","ios":"levelo://app?vid=a44f68aa-b920-4eb6-845e-df1183944a6b"},"vehicle_type_id":"4","last_reported":1752495774,"current_range_meters":10800,"station_id":"","pricing_plan_id":"cebpf4jnsgd1na2vs0mg"},{"bike_id":"e3b686d1-f0b1-4887-9c05-4bc370c43021","system_id":"levelo_inurba_marseille","lat":43.27201,"lon":5.40978,"is_reserved":false,"is_disabled":true,"rental_uris":{"android":"levelo://app?vid=e3b686d1-f0b1-4887-9c05-4bc370c43021","ios":"levelo://app?vid=e3b686d1-f0b1-4887-9c05-4bc370c43021"},"vehicle_type_id":"4","last_reported":1752495774,"current_range_meters":10800,"station_id":"ce4bhl12rcd13ifvqgf0","pricing_plan_id":"cebpf4jnsgd1na2vs0mg"},{"bike_id":"3add91de-70c6-4b47-8614-c24c006724bb","system_id":"levelo_inurba_marseille","lat":43.21752,"lon":5.34593,"is_reserved":false,"is_disabled":false,"rental_uris":{"android":"levelo://app?vid=3add91de-70c6-4b47-8614-c24c006724bb","ios":"levelo://app?vid=3add91de-70c6-4b47-8614-c24c006724bb"},"vehicle_type_id":"4","last_reported":1752495774,"current_range_meters":10800,"station_id":"st_cvj6r9ubvosntc0bgbag","pricing_plan_id":"cebpf4jnsgd1na2vs0mg"},{"bike_id":"53116da6-8cb2-4cba-bc4a-3ec81caba7ee","system_id":"levelo_inurba_marseille","lat":43.30146,"lon":5.3808,"is_reserved":false,"is_disabled":false,"rental_uris":{"android":"levelo://app?vid=53116da6-8cb2-4cba-bc4a-3ec81caba7ee","ios":"levelo://app?vid=53116da6-8cb2-4cba-bc4a-3ec81caba7ee"},"vehicle_type_id":"4","last_reported":1752495774,"current_range_meters":10800,"station_id":"ce4bgjp2rcd13ifvqbh0","pricing_plan_id":"cebpf4jnsgd1na2vs0mg"},{"bike_id":"7d8c67ad-3e66-42f9-8c6e-098cca666cf3","system_id":"levelo_inurba_marseille","lat":43.32341,"lon":5.36722,"is_reserved":false,"is_disabled":false,"rental_uris":{"android":"levelo://app?vid=7d8c67ad-3e66-42f9-8c6e-098cca666cf3","ios":"levelo://app?vid=7d8c67ad-3e66-42f9-8c6e-098cca666cf3"},"vehicle_type_id":"4","last_reported":1752495774,"current_range_meters":10800,"station_id":"ce4bhsh2rcd13ifvqi2g","pricing_plan_id":"cebpf4jnsgd1na2vs0mg"},{"bike_id":"a3c928d4-98be-4e1e-adc8-a1c1556e7c79","system_id":"levelo_inurba_marseille","lat":43.29553,"lon":5.42288,"is_reserved":false,"is_disabled":false,"rental_uris":{"android":"levelo://app?vid=a3c928d4-98be-4e1e-adc8-a1c1556e7c79","ios":"levelo://app?vid=a3c928d4-98be-4e1e-adc8-a1c1556e7c79"},"vehicle_type_id":"4","last_reported":1752495774,"current_range_meters":10800,"station_id":"ce4bhph2rcd13ifvqhdg","pricing_plan_id":"cebpf4jnsgd1na2vs0mg"},{"bike_id":"f2277502-3ead-496a-898d-e537ccdc12a6","system_id":"levelo_inurba_marseille","lat":43.3052,"lon":5.36552,"is_reserved":false,"is_disabled":false,"rental_uris":{"android":"levelo://app?vid=f2277502-3ead-496a-898d-e537ccdc12a6","ios":"levelo://app?vid=f2277502-3ead-496a-898d-e537ccdc12a6"},"vehicle_type_id":"4","last_reported":1752495774,"current_range_meters":11200,"station_id":"ce4bgs12rcd13ifvqcag","pricing_plan_id":"cebpf4jnsgd1na2vs0mg"},{"bike_id":"efe396ae-2fb2-4c3f-8f38-3cabd09f4912","system_id":"levelo_inurba_marseille","lat":43.2962,"lon":5.3771,"is_reserved":false,"is_disabled":false,"rental_uris":{"android":"levelo://app?vid=efe396ae-2fb2-4c3f-8f38-3cabd09f4912","ios":"levelo://app?vid=efe396ae-2fb2-4c3f-8f38-3cabd09f4912"},"vehicle_type_id":"4","last_reported":1752495774,"current_range_meters":11200,"station_id":"ce4bgi92rcd13ifvqb90","pricing_plan_id":"cebpf4jnsgd1na2vs0mg"},{"bike_id":"457bf7b2-5c35-41c2-88d1-1ccad8eab0fb","system_id":"levelo_inurba_marseille","lat":43.21754,"lon":5.34618,"is_reserved":false,"is_disabled":false,"rental_uris":{"android":"levelo://app?vid=457bf7b2-5c35-41c2-88d1-1ccad8eab0fb","ios":"levelo://app?vid=457bf7b2-5c35-41c2-88d1-1ccad8eab0fb"},"vehicle_type_id":"4","last_reported":1752495774,"current_range_meters":11200,"station_id":"st_cvj6r9ubvosntc0bgbag","pricing_plan_id":"cebpf4jnsgd1na2vs0mg"},{"bike_id":"58375fde-ca97-4dab-be52-59caf98323d3","system_id":"levelo_inurba_marseille","lat":43.26544,"lon":5.37289,"is_reserved":false,"is_disabled":true,"rental_uris":{"android":"levelo://app?vid=58375fde-ca97-4dab-be52-59caf98323d3","ios":"levelo://app?vid=58375fde-ca97-4dab-be52-59caf98323d3"},"vehicle_type_id":"4","last_reported":1752495774,"current_range_meters":11200,"station_id":"ce4bhg12rcd13ifvqf70","pricing_plan_id":"cebpf4jnsgd1na2vs0mg"},{"bike_id":"048779bb-bf90-495b-8e97-59e73a734cad","system_id":"levelo_inurba_marseille","lat":43.3018,"lon":5.36607,"is_reserved":false,"is_disabled":false,"rental_uris":{"android":"levelo://app?vid=048779bb-bf90-495b-8e97-59e73a734cad","ios":"levelo://app?vid=048779bb-bf90-495b-8e97-59e73a734cad"},"vehicle_type_id":"4","last_reported":1752495774,"current_range_meters":11200,"station_id":"ce4bgrh2rcd13ifvqc8g","pricing_plan_id":"cebpf4jnsgd1na2vs0mg"},{"bike_id":"1700fcd6-30ad-4b74-a158-50e5dcb60b9b","system_id":"levelo_inurba_marseille","lat":43.289407,"lon":5.366276,"is_reserved":false,"is_disabled":true,"rental_uris":{"android":"levelo://app?vid=1700fcd6-30ad-4b74-a158-50e5dcb60b9b","ios":"levelo://app?vid=1700fcd6-30ad-4b74-a158-50e5dcb60b9b"},"vehicle_type_id":"4","last_reported":1752495774,"current_range_meters":11200,"station_id":"ce4bhap2rcd13ifvqek0","pricing_plan_id":"cebpf4jnsgd1na2vs0mg"},{"bike_id":"cf59bb05-2b54-4c6b-b4fa-4cf7761b8495","system_id":"levelo_inurba_marseille","lat":43.2825,"lon":5.35041,"is_reserved":false,"is_disabled":false,"rental_uris":{"android":"levelo://app?vid=cf59bb05-2b54-4c6b-b4fa-4cf7761b8495","ios":"levelo://app?vid=cf59bb05-2b54-4c6b-b4fa-4cf7761b8495"},"vehicle_type_id":"4","last_reported":1752495774,"current_range_meters":10800,"station_id":"ce4bhbp2rcd13ifvqerg","pricing_plan_id":"cebpf4jnsgd1na2vs0mg"},{"bike_id":"ff7aa45c-0d3f-4caa-9191-18ba98829473","system_id":"levelo_inurba_marseille","lat":43.21741,"lon":5.34625,"is_reserved":false,"is_disabled":false,"rental_uris":{"android":"levelo://app?vid=ff7aa45c-0d3f-4caa-9191-18ba98829473","ios":"levelo://app?vid=ff7aa45c-0d3f-4caa-9191-18ba98829473"},"vehicle_type_id":"4","last_reported":1752495774,"current_range_meters":11600,"station_id":"st_cvj6r9ubvosntc0bgbag","pricing_plan_id":"cebpf4jnsgd1na2vs0mg"},{"bike_id":"8f5fef96-8f46-4bdd-bf7c-206d528a0d0c","system_id":"levelo_inurba_marseille","lat":43.22934,"lon":5.35377,"is_reserved":false,"is_disabled":false,"rental_uris":{"android":"levelo://app?vid=8f5fef96-8f46-4bdd-bf7c-206d528a0d0c","ios":"levelo://app?vid=8f5fef96-8f46-4bdd-bf7c-206d528a0d0c"},"vehicle_type_id":"4","last_reported":1752495774,"current_range_meters":11600,"station_id":"cpo3532slgdg3j2ikp40","pricing_plan_id":"cebpf4jnsgd1na2vs0mg"},{"bike_id":"9d31d9a3-9360-47cc-9360-3d8ed75b64a4","system_id":"levelo_inurba_marseille","lat":43.32926,"lon":5.36724,"is_reserved":false,"is_disabled":false,"rental_uris":{"android":"levelo://app?vid=9d31d9a3-9360-47cc-9360-3d8ed75b64a4","ios":"levelo://app?vid=9d31d9a3-9360-47cc-9360-3d8ed75b64a4"},"vehicle_type_id":"4","last_reported":1752495774,"current_range_meters":11600,"station_id":"","pricing_plan_id":"cebpf4jnsgd1na2vs0mg"},{"bike_id":"66b6f52b-aa6d-40f3-8510-28ef51ca705e","system_id":"levelo_inurba_marseille","lat":43.23064,"lon":5.35485,"is_reserved":false,"is_disabled":false,"rental_uris":{"android":"levelo://app?vid=66b6f52b-aa6d-40f3-8510-28ef51ca705e","ios":"levelo://app?vid=66b6f52b-aa6d-40f3-8510-28ef51ca705e"},"vehicle_type_id":"4","last_reported":1752495774,"current_range_meters":11600,"station_id":"cpo3342slgdg3j2ifvpg","pricing_plan_id":"cebpf4jnsgd1na2vs0mg"},{"bike_id":"d916aace-830c-451e-a376-c1312f1fc6af","system_id":"levelo_inurba_marseille","lat":43.225056,"lon":5.347845,"is_reserved":false,"is_disabled":false,"rental_uris":{"android":"levelo://app?vid=d916aace-830c-451e-a376-c1312f1fc6af","ios":"levelo://app?vid=d916aace-830c-451e-a376-c1312f1fc6af"},"vehicle_type_id":"4","last_reported":1752495774,"current_range_meters":11600,"station_id":"","pricing_plan_id":"cebpf4jnsgd1na2vs0mg"},{"bike_id":"ca6d4a0f-7d3c-4a72-9cce-48bcdb3b8b91","system_id":"levelo_inurba_marseille","lat":43.28612,"lon":5.35101,"is_reserved":false,"is_disabled":false,"rental_uris":{"android":"levelo://app?vid=ca6d4a0f-7d3c-4a72-9cce-48bcdb3b8b91","ios":"levelo://app?vid=ca6d4a0f-7d3c-4a72-9cce-48bcdb3b8b91"},"vehicle_type_id":"4","last_reported":1752495774,"current_range_meters":11600,"station_id":"ce4bhch2rcd13ifvqeug","pricing_plan_id":"cebpf4jnsgd1na2vs0mg"},{"bike_id":"b2464811-ed1c-444d-b5b2-f0f5cb56794f","system_id":"levelo_inurba_marseille","lat":43.28708,"lon":5.35204,"is_reserved":false,"is_disabled":true,"rental_uris":{"android":"levelo://app?vid=b2464811-ed1c-444d-b5b2-f0f5cb56794f","ios":"levelo://app?vid=b2464811-ed1c-444d-b5b2-f0f5cb56794f"},"vehicle_type_id":"4","last_reported":1752495774,"current_range_meters":12000,"station_id":"","pricing_plan_id":"cebpf4jnsgd1na2vs0mg"},{"bike_id":"7381e49a-378c-46ce-a40e-dd242082bdeb","system_id":"levelo_inurba_marseille","lat":43.24158,"lon":5.3641,"is_reserved":false,"is_disabled":false,"rental_uris":{"android":"levelo://app?vid=7381e49a-378c-46ce-a40e-dd242082bdeb","ios":"levelo://app?vid=7381e49a-378c-46ce-a40e-dd242082bdeb"},"vehicle_type_id":"4","last_reported":1752495774,"current_range_meters":12400,"station_id":"cpo36qri1sfpv3e86is0","pricing_plan_id":"cebpf4jnsgd1na2vs0mg"},{"bike_id":"f27027a6-2a25-4193-9f89-90e958769b0a","system_id":"levelo_inurba_marseille","lat":43.27621,"lon":5.36104,"is_reserved":false,"is_disabled":false,"rental_uris":{"android":"levelo://app?vid=f27027a6-2a25-4193-9f89-90e958769b0a","ios":"levelo://app?vid=f27027a6-2a25-4193-9f89-90e958769b0a"},"vehicle_type_id":"4","last_reported":1752495774,"current_range_meters":12400,"station_id":"ce4bgj92rcd13ifvqbe0","pricing_plan_id":"cebpf4jnsgd1na2vs0mg"},{"bike_id":"350baf57-19b6-4304-9c57-75c381c047e9","system_id":"levelo_inurba_marseille","lat":43.303217,"lon":5.36905,"is_reserved":false,"is_disabled":false,"rental_uris":{"android":"levelo://app?vid=350baf57-19b6-4304-9c57-75c381c047e9","ios":"levelo://app?vid=350baf57-19b6-4304-9c57-75c381c047e9"},"vehicle_type_id":"4","last_reported":1752495774,"current_range_meters":12800,"station_id":"ce4bgqh2rcd13ifvqc5g","pricing_plan_id":"cebpf4jnsgd1na2vs0mg"},{"bike_id":"67527249-b045-40c2-8b35-83907f2842da","system_id":"levelo_inurba_marseille","lat":43.29005,"lon":5.35606,"is_reserved":false,"is_disabled":false,"rental_uris":{"android":"levelo://app?vid=67527249-b045-40c2-8b35-83907f2842da","ios":"levelo://app?vid=67527249-b045-40c2-8b35-83907f2842da"},"vehicle_type_id":"4","last_reported":1752495774,"current_range_meters":12800,"station_id":"ce4bhb92rcd13ifvqen0","pricing_plan_id":"cebpf4jnsgd1na2vs0mg"},{"bike_id":"002e6944-aa53-41b5-94a1-97e8a1b31e28","system_id":"levelo_inurba_marseille","lat":43.31489,"lon":5.37298,"is_reserved":false,"is_disabled":false,"rental_uris":{"android":"levelo://app?vid=002e6944-aa53-41b5-94a1-97e8a1b31e28","ios":"levelo://app?vid=002e6944-aa53-41b5-94a1-97e8a1b31e28"},"vehicle_type_id":"4","last_reported":1752495774,"current_range_meters":12800,"station_id":"ce4bgt12rcd13ifvqcd0","pricing_plan_id":"cebpf4jnsgd1na2vs0mg"},{"bike_id":"ad5eb277-50fe-4683-8834-d753b852b58a","system_id":"levelo_inurba_marseille","lat":43.27852,"lon":5.38515,"is_reserved":false,"is_disabled":false,"rental_uris":{"android":"levelo://app?vid=ad5eb277-50fe-4683-8834-d753b852b58a","ios":"levelo://app?vid=ad5eb277-50fe-4683-8834-d753b852b58a"},"vehicle_type_id":"4","last_reported":1752495774,"current_range_meters":13600,"station_id":"","pricing_plan_id":"cebpf4jnsgd1na2vs0mg"},{"bike_id":"2ec427da-b403-4a7e-86be-3f48ba535d18","system_id":"levelo_inurba_marseille","lat":43.21189,"lon":5.35115,"is_reserved":false,"is_disabled":false,"rental_uris":{"android":"levelo://app?vid=2ec427da-b403-4a7e-86be-3f48ba535d18","ios":"levelo://app?vid=2ec427da-b403-4a7e-86be-3f48ba535d18"},"vehicle_type_id":"4","last_reported":1752495774,"current_range_meters":13600,"station_id":"st_cvj6sg6p6f1abm77japg","pricing_plan_id":"cebpf4jnsgd1na2vs0mg"},{"bike_id":"42c5b973-aaee-479e-8573-bddef517138d","system_id":"levelo_inurba_marseille","lat":43.241638,"lon":5.363963,"is_reserved":false,"is_disabled":false,"rental_uris":{"android":"levelo://app?vid=42c5b973-aaee-479e-8573-bddef517138d","ios":"levelo://app?vid=42c5b973-aaee-479e-8573-bddef517138d"},"vehicle_type_id":"4","last_reported":1752495774,"current_range_meters":13600,"station_id":"ce4bgg92rcd13ifvqb30","pricing_plan_id":"cebpf4jnsgd1na2vs0mg"},{"bike_id":"e3538395-ba1b-423d-a35d-ffeae75b2194","system_id":"levelo_inurba_marseille","lat":43.23196,"lon":5.35555,"is_reserved":false,"is_disabled":false,"rental_uris":{"android":"levelo://app?vid=e3538395-ba1b-423d-a35d-ffeae75b2194","ios":"levelo://app?vid=e3538395-ba1b-423d-a35d-ffeae75b2194"},"vehicle_type_id":"4","last_reported":1752495774,"current_range_meters":13600,"station_id":"ce4bhu92rcd13ifvqi70","pricing_plan_id":"cebpf4jnsgd1na2vs0mg"},{"bike_id":"33d19954-b867-4892-9ec6-fa7fafbe6bb0","system_id":"levelo_inurba_marseille","lat":43.29259,"lon":5.40908,"is_reserved":false,"is_disabled":false,"rental_uris":{"android":"levelo://app?vid=33d19954-b867-4892-9ec6-fa7fafbe6bb0","ios":"levelo://app?vid=33d19954-b867-4892-9ec6-fa7fafbe6bb0"},"vehicle_type_id":"4","last_reported":1752495774,"current_range_meters":13600,"station_id":"ce4bh192rcd13ifvqdc0","pricing_plan_id":"cebpf4jnsgd1na2vs0mg"},{"bike_id":"524aa4a6-de1f-43a4-8707-0c4e56731a3a","system_id":"levelo_inurba_marseille","lat":43.30886,"lon":5.39655,"is_reserved":false,"is_disabled":false,"rental_uris":{"android":"levelo://app?vid=524aa4a6-de1f-43a4-8707-0c4e56731a3a","ios":"levelo://app?vid=524aa4a6-de1f-43a4-8707-0c4e56731a3a"},"vehicle_type_id":"4","last_reported":1752495774,"current_range_meters":13600,"station_id":"ce4bh012rcd13ifvqcv0","pricing_plan_id":"cebpf4jnsgd1na2vs0mg"},{"bike_id":"8a01e88a-8371-4085-9838-47ae11897cd3","system_id":"levelo_inurba_marseille","lat":43.28164,"lon":5.42646,"is_reserved":false,"is_disabled":true,"rental_uris":{"android":"levelo://app?vid=8a01e88a-8371-4085-9838-47ae11897cd3","ios":"levelo://app?vid=8a01e88a-8371-4085-9838-47ae11897cd3"},"vehicle_type_id":"4","last_reported":1752495774,"current_range_meters":13600,"station_id":"ce4bhnh2rcd13ifvqgug","pricing_plan_id":"cebpf4jnsgd1na2vs0mg"},{"bike_id":"c8c4de1a-846f-4f5b-aace-9fb14bf7ad52","system_id":"levelo_inurba_marseille","lat":43.21193,"lon":5.35075,"is_reserved":false,"is_disabled":false,"rental_uris":{"android":"levelo://app?vid=c8c4de1a-846f-4f5b-aace-9fb14bf7ad52","ios":"levelo://app?vid=c8c4de1a-846f-4f5b-aace-9fb14bf7ad52"},"vehicle_type_id":"4","last_reported":1752495774,"current_range_meters":13600,"station_id":"st_cvj6sg6p6f1abm77japg","pricing_plan_id":"cebpf4jnsgd1na2vs0mg"},{"bike_id":"b465f2a1-73c2-4acc-98a4-0d57afd20d42","system_id":"levelo_inurba_marseille","lat":43.301556,"lon":5.380763,"is_reserved":false,"is_disabled":false,"rental_uris":{"android":"levelo://app?vid=b465f2a1-73c2-4acc-98a4-0d57afd20d42","ios":"levelo://app?vid=b465f2a1-73c2-4acc-98a4-0d57afd20d42"},"vehicle_type_id":"4","last_reported":1752495774,"current_range_meters":14000,"station_id":"ce4bgjp2rcd13ifvqbh0","pricing_plan_id":"cebpf4jnsgd1na2vs0mg"},{"bike_id":"6331d513-d0e9-4972-a65c-fd301f7939d5","system_id":"levelo_inurba_marseille","lat":43.24165,"lon":5.36391,"is_reserved":false,"is_disabled":false,"rental_uris":{"android":"levelo://app?vid=6331d513-d0e9-4972-a65c-fd301f7939d5","ios":"levelo://app?vid=6331d513-d0e9-4972-a65c-fd301f7939d5"},"vehicle_type_id":"4","last_reported":1752495774,"current_range_meters":14000,"station_id":"cpo36qri1sfpv3e86is0","pricing_plan_id":"cebpf4jnsgd1na2vs0mg"},{"bike_id":"5339879b-e0c0-4d6a-884f-077444327b43","system_id":"levelo_inurba_marseille","lat":43.305266,"lon":5.366047,"is_reserved":false,"is_disabled":false,"rental_uris":{"android":"levelo://app?vid=5339879b-e0c0-4d6a-884f-077444327b43","ios":"levelo://app?vid=5339879b-e0c0-4d6a-884f-077444327b43"},"vehicle_type_id":"4","last_reported":1752495774,"current_range_meters":14000,"station_id":"","pricing_plan_id":"cebpf4jnsgd1na2vs0mg"},{"bike_id":"088e6b1d-8a81-47e0-9ad0-36233ed399c0","system_id":"levelo_inurba_marseille","lat":43.27926,"lon":5.39609,"is_reserved":false,"is_disabled":true,"rental_uris":{"android":"levelo://app?vid=088e6b1d-8a81-47e0-9ad0-36233ed399c0","ios":"levelo://app?vid=088e6b1d-8a81-47e0-9ad0-36233ed399c0"},"vehicle_type_id":"4","last_reported":1752495774,"current_range_meters":14000,"station_id":"ce4bhf92rcd13ifvqf40","pricing_plan_id":"cebpf4jnsgd1na2vs0mg"},{"bike_id":"c89808e0-90fe-4bed-b0de-71eb01d1540d","system_id":"levelo_inurba_marseille","lat":43.27374,"lon":5.36246,"is_reserved":false,"is_disabled":false,"rental_uris":{"android":"levelo://app?vid=c89808e0-90fe-4bed-b0de-71eb01d1540d","ios":"levelo://app?vid=c89808e0-90fe-4bed-b0de-71eb01d1540d"},"vehicle_type_id":"4","last_reported":1752495774,"current_range_meters":14400,"station_id":"ce4bhbh2rcd13ifvqeo0","pricing_plan_id":"cebpf4jnsgd1na2vs0mg"},{"bike_id":"a72ec8b0-f188-4939-9928-0fa16fdf3fdd","system_id":"levelo_inurba_marseille","lat":43.273835,"lon":5.362499,"is_reserved":false,"is_disabled":false,"rental_uris":{"android":"levelo://app?vid=a72ec8b0-f188-4939-9928-0fa16fdf3fdd","ios":"levelo://app?vid=a72ec8b0-f188-4939-9928-0fa16fdf3fdd"},"vehicle_type_id":"4","last_reported":1752495774,"current_range_meters":14400,"station_id":"ce4bhbh2rcd13ifvqeo0","pricing_plan_id":"cebpf4jnsgd1na2vs0mg"},{"bike_id":"3af9fab0-ae4c-4037-928e-7c8f1ec82fad","system_id":"levelo_inurba_marseille","lat":43.28418,"lon":5.3497,"is_reserved":false,"is_disabled":false,"rental_uris":{"android":"levelo://app?vid=3af9fab0-ae4c-4037-928e-7c8f1ec82fad","ios":"levelo://app?vid=3af9fab0-ae4c-4037-928e-7c8f1ec82fad"},"vehicle_type_id":"4","last_reported":1752495774,"current_range_meters":14400,"station_id":"ce4bhbh2rcd13ifvqepg","pricing_plan_id":"cebpf4jnsgd1na2vs0mg"},{"bike_id":"f5a47db5-6fb2-46bd-a2de-efa4ad13bf60","system_id":"levelo_inurba_marseille","lat":43.21194,"lon":5.35088,"is_reserved":false,"is_disabled":false,"rental_uris":{"android":"levelo://app?vid=f5a47db5-6fb2-46bd-a2de-efa4ad13bf60","ios":"levelo://app?vid=f5a47db5-6fb2-46bd-a2de-efa4ad13bf60"},"vehicle_type_id":"4","last_reported":1752495774,"current_range_meters":14400,"station_id":"st_cvj6sg6p6f1abm77japg","pricing_plan_id":"cebpf4jnsgd1na2vs0mg"},{"bike_id":"b3c2c9ff-3a88-40a9-8df9-1c1b36bb996f","system_id":"levelo_inurba_marseille","lat":43.28098,"lon":5.37863,"is_reserved":false,"is_disabled":false,"rental_uris":{"android":"levelo://app?vid=b3c2c9ff-3a88-40a9-8df9-1c1b36bb996f","ios":"levelo://app?vid=b3c2c9ff-3a88-40a9-8df9-1c1b36bb996f"},"vehicle_type_id":"4","last_reported":1752495774,"current_range_meters":14400,"station_id":"ce4bha12rcd13ifvqee0","pricing_plan_id":"cebpf4jnsgd1na2vs0mg"},{"bike_id":"1aedaa42-1f03-48cc-8e38-d983e72f730b","system_id":"levelo_inurba_marseille","lat":43.270717,"lon":5.422769,"is_reserved":false,"is_disabled":false,"rental_uris":{"android":"levelo://app?vid=1aedaa42-1f03-48cc-8e38-d983e72f730b","ios":"levelo://app?vid=1aedaa42-1f03-48cc-8e38-d983e72f730b"},"vehicle_type_id":"4","last_reported":1752495774,"current_range_meters":14400,"station_id":"ce4bhk92rcd13ifvqgb0","pricing_plan_id":"cebpf4jnsgd1na2vs0mg"},{"bike_id":"b6771d12-4d0b-4004-8d85-15a22b02cf35","system_id":"levelo_inurba_marseille","lat":43.25575,"lon":5.382273,"is_reserved":false,"is_disabled":false,"rental_uris":{"android":"levelo://app?vid=b6771d12-4d0b-4004-8d85-15a22b02cf35","ios":"levelo://app?vid=b6771d12-4d0b-4004-8d85-15a22b02cf35"},"vehicle_type_id":"4","last_reported":1752495774,"current_range_meters":14400,"station_id":"ce4bhih2rcd13ifvqfs0","pricing_plan_id":"cebpf4jnsgd1na2vs0mg"},{"bike_id":"c95e69db-c279-4e26-832d-b98d42e4e80e","system_id":"levelo_inurba_marseille","lat":43.217438,"lon":5.34602,"is_reserved":false,"is_disabled":false,"rental_uris":{"android":"levelo://app?vid=c95e69db-c279-4e26-832d-b98d42e4e80e","ios":"levelo://app?vid=c95e69db-c279-4e26-832d-b98d42e4e80e"},"vehicle_type_id":"4","last_reported":1752495774,"current_range_meters":14800,"station_id":"st_cvj6r9ubvosntc0bgbag","pricing_plan_id":"cebpf4jnsgd1na2vs0mg"},{"bike_id":"a93b58dc-e3c7-461e-9796-b8a79ce0c52b","system_id":"levelo_inurba_marseille","lat":43.29259,"lon":5.4091,"is_reserved":false,"is_disabled":false,"rental_uris":{"android":"levelo://app?vid=a93b58dc-e3c7-461e-9796-b8a79ce0c52b","ios":"levelo://app?vid=a93b58dc-e3c7-461e-9796-b8a79ce0c52b"},"vehicle_type_id":"4","last_reported":1752495774,"current_range_meters":14800,"station_id":"ce4bh192rcd13ifvqdc0","pricing_plan_id":"cebpf4jnsgd1na2vs0mg"},{"bike_id":"83a097fd-9d2c-4f5f-bc86-6265602d9c6a","system_id":"levelo_inurba_marseille","lat":43.28844,"lon":5.35842,"is_reserved":false,"is_disabled":false,"rental_uris":{"android":"levelo://app?vid=83a097fd-9d2c-4f5f-bc86-6265602d9c6a","ios":"levelo://app?vid=83a097fd-9d2c-4f5f-bc86-6265602d9c6a"},"vehicle_type_id":"4","last_reported":1752495774,"current_range_meters":14800,"station_id":"ce4bhb12rcd13ifvqem0","pricing_plan_id":"cebpf4jnsgd1na2vs0mg"},{"bike_id":"a4d07f45-19f9-4df9-9728-be6623530a64","system_id":"levelo_inurba_marseille","lat":43.23702,"lon":5.38804,"is_reserved":false,"is_disabled":false,"rental_uris":{"android":"levelo://app?vid=a4d07f45-19f9-4df9-9728-be6623530a64","ios":"levelo://app?vid=a4d07f45-19f9-4df9-9728-be6623530a64"},"vehicle_type_id":"4","last_reported":1752495774,"current_range_meters":14800,"station_id":"","pricing_plan_id":"cebpf4jnsgd1na2vs0mg"},{"bike_id":"e91ced2f-2041-4b38-8446-0d5d97adec95","system_id":"levelo_inurba_marseille","lat":43.25578,"lon":5.38254,"is_reserved":false,"is_disabled":true,"rental_uris":{"android":"levelo://app?vid=e91ced2f-2041-4b38-8446-0d5d97adec95","ios":"levelo://app?vid=e91ced2f-2041-4b38-8446-0d5d97adec95"},"vehicle_type_id":"4","last_reported":1752495774,"current_range_meters":14800,"station_id":"ce4bhih2rcd13ifvqfs0","pricing_plan_id":"cebpf4jnsgd1na2vs0mg"},{"bike_id":"74f54b00-7712-41ee-bc83-c3abd3b239b0","system_id":"levelo_inurba_marseille","lat":43.217409,"lon":5.346035,"is_reserved":false,"is_disabled":false,"rental_uris":{"android":"levelo://app?vid=74f54b00-7712-41ee-bc83-c3abd3b239b0","ios":"levelo://app?vid=74f54b00-7712-41ee-bc83-c3abd3b239b0"},"vehicle_type_id":"4","last_reported":1752495774,"current_range_meters":14800,"station_id":"st_cvj6r9ubvosntc0bgbag","pricing_plan_id":"cebpf4jnsgd1na2vs0mg"},{"bike_id":"3cdf7207-d77b-4ad1-a2f8-9575fb02e238","system_id":"levelo_inurba_marseille","lat":43.21763,"lon":5.34609,"is_reserved":false,"is_disabled":false,"rental_uris":{"android":"levelo://app?vid=3cdf7207-d77b-4ad1-a2f8-9575fb02e238","ios":"levelo://app?vid=3cdf7207-d77b-4ad1-a2f8-9575fb02e238"},"vehicle_type_id":"4","last_reported":1752495774,"current_range_meters":14800,"station_id":"st_cvj6r9ubvosntc0bgbag","pricing_plan_id":"cebpf4jnsgd1na2vs0mg"},{"bike_id":"697d5fc4-b988-4a4e-8323-c1ce5ed61a61","system_id":"levelo_inurba_marseille","lat":43.211889,"lon":5.350712,"is_reserved":false,"is_disabled":false,"rental_uris":{"android":"levelo://app?vid=697d5fc4-b988-4a4e-8323-c1ce5ed61a61","ios":"levelo://app?vid=697d5fc4-b988-4a4e-8323-c1ce5ed61a61"},"vehicle_type_id":"4","last_reported":1752495774,"current_range_meters":15200,"station_id":"st_cvj6sg6p6f1abm77japg","pricing_plan_id":"cebpf4jnsgd1na2vs0mg"},{"bike_id":"244fbdad-4e79-4133-88f9-f57ff04cac04","system_id":"levelo_inurba_marseille","lat":43.21742,"lon":5.346,"is_reserved":false,"is_disabled":false,"rental_uris":{"android":"levelo://app?vid=244fbdad-4e79-4133-88f9-f57ff04cac04","ios":"levelo://app?vid=244fbdad-4e79-4133-88f9-f57ff04cac04"},"vehicle_type_id":"4","last_reported":1752495774,"current_range_meters":15200,"station_id":"st_cvj6r9ubvosntc0bgbag","pricing_plan_id":"cebpf4jnsgd1na2vs0mg"},{"bike_id":"12d48e4d-a291-49bb-ab45-967804b53d7b","system_id":"levelo_inurba_marseille","lat":43.27611,"lon":5.36107,"is_reserved":false,"is_disabled":true,"rental_uris":{"android":"levelo://app?vid=12d48e4d-a291-49bb-ab45-967804b53d7b","ios":"levelo://app?vid=12d48e4d-a291-49bb-ab45-967804b53d7b"},"vehicle_type_id":"4","last_reported":1752495774,"current_range_meters":15200,"station_id":"ce4bgj92rcd13ifvqbe0","pricing_plan_id":"cebpf4jnsgd1na2vs0mg"},{"bike_id":"e1442ff3-c767-4bb3-901d-e5f60873ad13","system_id":"levelo_inurba_marseille","lat":43.23169,"lon":5.4,"is_reserved":false,"is_disabled":false,"rental_uris":{"android":"levelo://app?vid=e1442ff3-c767-4bb3-901d-e5f60873ad13","ios":"levelo://app?vid=e1442ff3-c767-4bb3-901d-e5f60873ad13"},"vehicle_type_id":"4","last_reported":1752495774,"current_range_meters":15200,"station_id":"ce4bhn12rcd13ifvqgqg","pricing_plan_id":"cebpf4jnsgd1na2vs0mg"},{"bike_id":"e1928b01-bff5-4cea-b60c-f8d9223daef3","system_id":"levelo_inurba_marseille","lat":43.270753,"lon":5.42277,"is_reserved":false,"is_disabled":false,"rental_uris":{"android":"levelo://app?vid=e1928b01-bff5-4cea-b60c-f8d9223daef3","ios":"levelo://app?vid=e1928b01-bff5-4cea-b60c-f8d9223daef3"},"vehicle_type_id":"4","last_reported":1752495774,"current_range_meters":15200,"station_id":"ce4bhk92rcd13ifvqgb0","pricing_plan_id":"cebpf4jnsgd1na2vs0mg"},{"bike_id":"6ac174d4-75c5-4a9c-9699-97cd631c6e65","system_id":"levelo_inurba_marseille","lat":43.25454,"lon":5.39927,"is_reserved":false,"is_disabled":false,"rental_uris":{"android":"levelo://app?vid=6ac174d4-75c5-4a9c-9699-97cd631c6e65","ios":"levelo://app?vid=6ac174d4-75c5-4a9c-9699-97cd631c6e65"},"vehicle_type_id":"4","last_reported":1752495774,"current_range_meters":15200,"station_id":"","pricing_plan_id":"cebpf4jnsgd1na2vs0mg"},{"bike_id":"23a0fc67-4c39-4b74-8a86-2903d79b1606","system_id":"levelo_inurba_marseille","lat":43.23194,"lon":5.35591,"is_reserved":false,"is_disabled":false,"rental_uris":{"android":"levelo://app?vid=23a0fc67-4c39-4b74-8a86-2903d79b1606","ios":"levelo://app?vid=23a0fc67-4c39-4b74-8a86-2903d79b1606"},"vehicle_type_id":"4","last_reported":1752495774,"current_range_meters":15200,"station_id":"ce4bhu92rcd13ifvqi70","pricing_plan_id":"cebpf4jnsgd1na2vs0mg"},{"bike_id":"974a8c9e-9e0c-4fb0-9089-f03c1ea978b7","system_id":"levelo_inurba_marseille","lat":43.25582,"lon":5.38237,"is_reserved":false,"is_disabled":false,"rental_uris":{"android":"levelo://app?vid=974a8c9e-9e0c-4fb0-9089-f03c1ea978b7","ios":"levelo://app?vid=974a8c9e-9e0c-4fb0-9089-f03c1ea978b7"},"vehicle_type_id":"4","last_reported":1752495774,"current_range_meters":15200,"station_id":"ce4bhih2rcd13ifvqfs0","pricing_plan_id":"cebpf4jnsgd1na2vs0mg"},{"bike_id":"4c15aebe-18ab-4353-a234-87063157bf88","system_id":"levelo_inurba_marseille","lat":43.24167,"lon":5.39755,"is_reserved":false,"is_disabled":false,"rental_uris":{"android":"levelo://app?vid=4c15aebe-18ab-4353-a234-87063157bf88","ios":"levelo://app?vid=4c15aebe-18ab-4353-a234-87063157bf88"},"vehicle_type_id":"4","last_reported":1752495774,"current_range_meters":15200,"station_id":"ce4bhn12rcd13ifvqgpg","pricing_plan_id":"cebpf4jnsgd1na2vs0mg"},{"bike_id":"66350285-eedd-42da-89d4-1c415c118694","system_id":"levelo_inurba_marseille","lat":43.27998,"lon":5.41664,"is_reserved":false,"is_disabled":false,"rental_uris":{"android":"levelo://app?vid=66350285-eedd-42da-89d4-1c415c118694","ios":"levelo://app?vid=66350285-eedd-42da-89d4-1c415c118694"},"vehicle_type_id":"4","last_reported":1752495774,"current_range_meters":16000,"station_id":"ce4bho12rcd13ifvqh1g","pricing_plan_id":"cebpf4jnsgd1na2vs0mg"},{"bike_id":"2c81c752-b139-48bc-a4ee-7fa7f8526278","system_id":"levelo_inurba_marseille","lat":43.21748,"lon":5.34614,"is_reserved":false,"is_disabled":false,"rental_uris":{"android":"levelo://app?vid=2c81c752-b139-48bc-a4ee-7fa7f8526278","ios":"levelo://app?vid=2c81c752-b139-48bc-a4ee-7fa7f8526278"},"vehicle_type_id":"4","last_reported":1752495774,"current_range_meters":16000,"station_id":"st_cvj6r9ubvosntc0bgbag","pricing_plan_id":"cebpf4jnsgd1na2vs0mg"},{"bike_id":"08dbf31c-b540-4ca6-b57d-3481ea73d97b","system_id":"levelo_inurba_marseille","lat":43.22513,"lon":5.34786,"is_reserved":false,"is_disabled":false,"rental_uris":{"android":"levelo://app?vid=08dbf31c-b540-4ca6-b57d-3481ea73d97b","ios":"levelo://app?vid=08dbf31c-b540-4ca6-b57d-3481ea73d97b"},"vehicle_type_id":"4","last_reported":1752495774,"current_range_meters":16000,"station_id":"st_cvj5dfep6f1abm77gieg","pricing_plan_id":"cebpf4jnsgd1na2vs0mg"},{"bike_id":"1d175a82-e2c4-4436-9e19-4d35440467f8","system_id":"levelo_inurba_marseille","lat":43.25083,"lon":5.39522,"is_reserved":false,"is_disabled":false,"rental_uris":{"android":"levelo://app?vid=1d175a82-e2c4-4436-9e19-4d35440467f8","ios":"levelo://app?vid=1d175a82-e2c4-4436-9e19-4d35440467f8"},"vehicle_type_id":"4","last_reported":1752495774,"current_range_meters":15200,"station_id":"ce4bhm12rcd13ifvqgkg","pricing_plan_id":"cebpf4jnsgd1na2vs0mg"},{"bike_id":"aa260077-cb0d-43c9-8e67-329c1b69779f","system_id":"levelo_inurba_marseille","lat":43.21208,"lon":5.35088,"is_reserved":false,"is_disabled":false,"rental_uris":{"android":"levelo://app?vid=aa260077-cb0d-43c9-8e67-329c1b69779f","ios":"levelo://app?vid=aa260077-cb0d-43c9-8e67-329c1b69779f"},"vehicle_type_id":"4","last_reported":1752495774,"current_range_meters":16000,"station_id":"st_cvj6sg6p6f1abm77japg","pricing_plan_id":"cebpf4jnsgd1na2vs0mg"},{"bike_id":"ed74f810-226b-4edb-a7d8-2c9a86d071a4","system_id":"levelo_inurba_marseille","lat":43.21185,"lon":5.35078,"is_reserved":false,"is_disabled":false,"rental_uris":{"android":"levelo://app?vid=ed74f810-226b-4edb-a7d8-2c9a86d071a4","ios":"levelo://app?vid=ed74f810-226b-4edb-a7d8-2c9a86d071a4"},"vehicle_type_id":"4","last_reported":1752495774,"current_range_meters":16000,"station_id":"st_cvj6sg6p6f1abm77japg","pricing_plan_id":"cebpf4jnsgd1na2vs0mg"},{"bike_id":"d06cbd22-a2d7-43dc-a1a4-7ed973ef45ae","system_id":"levelo_inurba_marseille","lat":43.28857,"lon":5.35848,"is_reserved":false,"is_disabled":false,"rental_uris":{"android":"levelo://app?vid=d06cbd22-a2d7-43dc-a1a4-7ed973ef45ae","ios":"levelo://app?vid=d06cbd22-a2d7-43dc-a1a4-7ed973ef45ae"},"vehicle_type_id":"4","last_reported":1752495774,"current_range_meters":16000,"station_id":"ce4bhb12rcd13ifvqem0","pricing_plan_id":"cebpf4jnsgd1na2vs0mg"},{"bike_id":"6b6619c5-6cd2-4092-aacb-23aa7b5e47c6","system_id":"levelo_inurba_marseille","lat":43.24168,"lon":5.36397,"is_reserved":false,"is_disabled":false,"rental_uris":{"android":"levelo://app?vid=6b6619c5-6cd2-4092-aacb-23aa7b5e47c6","ios":"levelo://app?vid=6b6619c5-6cd2-4092-aacb-23aa7b5e47c6"},"vehicle_type_id":"4","last_reported":1752495774,"current_range_meters":16000,"station_id":"","pricing_plan_id":"cebpf4jnsgd1na2vs0mg"},{"bike_id":"aadec9b8-803d-4b60-b623-b9c41bfc8025","system_id":"levelo_inurba_marseille","lat":43.27373,"lon":5.36274,"is_reserved":false,"is_disabled":false,"rental_uris":{"android":"levelo://app?vid=aadec9b8-803d-4b60-b623-b9c41bfc8025","ios":"levelo://app?vid=aadec9b8-803d-4b60-b623-b9c41bfc8025"},"vehicle_type_id":"4","last_reported":1752495774,"current_range_meters":16000,"station_id":"ce4bhbh2rcd13ifvqeo0","pricing_plan_id":"cebpf4jnsgd1na2vs0mg"},{"bike_id":"86ff6ad5-0612-4a71-a375-5d5132f5b609","system_id":"levelo_inurba_marseille","lat":43.29548,"lon":5.4229,"is_reserved":false,"is_disabled":false,"rental_uris":{"android":"levelo://app?vid=86ff6ad5-0612-4a71-a375-5d5132f5b609","ios":"levelo://app?vid=86ff6ad5-0612-4a71-a375-5d5132f5b609"},"vehicle_type_id":"4","last_reported":1752495774,"current_range_meters":16400,"station_id":"ce4bhph2rcd13ifvqhdg","pricing_plan_id":"cebpf4jnsgd1na2vs0mg"},{"bike_id":"38496208-88d4-4b8f-bcdc-a84be804053f","system_id":"levelo_inurba_marseille","lat":43.30888,"lon":5.37186,"is_reserved":false,"is_disabled":false,"rental_uris":{"android":"levelo://app?vid=38496208-88d4-4b8f-bcdc-a84be804053f","ios":"levelo://app?vid=38496208-88d4-4b8f-bcdc-a84be804053f"},"vehicle_type_id":"4","last_reported":1752495774,"current_range_meters":16400,"station_id":"ce4bguh2rcd13ifvqckg","pricing_plan_id":"cebpf4jnsgd1na2vs0mg"},{"bike_id":"16447671-2048-438e-8288-9b0ec148bc1b","system_id":"levelo_inurba_marseille","lat":43.28257,"lon":5.35062,"is_reserved":false,"is_disabled":false,"rental_uris":{"android":"levelo://app?vid=16447671-2048-438e-8288-9b0ec148bc1b","ios":"levelo://app?vid=16447671-2048-438e-8288-9b0ec148bc1b"},"vehicle_type_id":"4","last_reported":1752495774,"current_range_meters":16400,"station_id":"","pricing_plan_id":"cebpf4jnsgd1na2vs0mg"},{"bike_id":"b48ebc3a-ef7d-4d6d-92b1-f7470ad8f721","system_id":"levelo_inurba_marseille","lat":43.28613,"lon":5.35108,"is_reserved":false,"is_disabled":false,"rental_uris":{"android":"levelo://app?vid=b48ebc3a-ef7d-4d6d-92b1-f7470ad8f721","ios":"levelo://app?vid=b48ebc3a-ef7d-4d6d-92b1-f7470ad8f721"},"vehicle_type_id":"4","last_reported":1752495774,"current_range_meters":16400,"station_id":"ce4bhch2rcd13ifvqeug","pricing_plan_id":"cebpf4jnsgd1na2vs0mg"},{"bike_id":"44e90a0d-e459-4fb6-9ccd-8df9b0287084","system_id":"levelo_inurba_marseille","lat":43.29301,"lon":5.37165,"is_reserved":false,"is_disabled":false,"rental_uris":{"android":"levelo://app?vid=44e90a0d-e459-4fb6-9ccd-8df9b0287084","ios":"levelo://app?vid=44e90a0d-e459-4fb6-9ccd-8df9b0287084"},"vehicle_type_id":"4","last_reported":1752495774,"current_range_meters":16400,"station_id":"ce4bgh92rcd13ifvqb40","pricing_plan_id":"cebpf4jnsgd1na2vs0mg"},{"bike_id":"2c5a0a8d-b80f-43a1-91ae-93c8cb7cac46","system_id":"levelo_inurba_marseille","lat":43.290249,"lon":5.381227,"is_reserved":false,"is_disabled":false,"rental_uris":{"android":"levelo://app?vid=2c5a0a8d-b80f-43a1-91ae-93c8cb7cac46","ios":"levelo://app?vid=2c5a0a8d-b80f-43a1-91ae-93c8cb7cac46"},"vehicle_type_id":"4","last_reported":1752495774,"current_range_meters":16400,"station_id":"","pricing_plan_id":"cebpf4jnsgd1na2vs0mg"},{"bike_id":"04a1b387-7804-4611-854e-c36ba9d577fc","system_id":"levelo_inurba_marseille","lat":43.24388,"lon":5.37068,"is_reserved":false,"is_disabled":false,"rental_uris":{"android":"levelo://app?vid=04a1b387-7804-4611-854e-c36ba9d577fc","ios":"levelo://app?vid=04a1b387-7804-4611-854e-c36ba9d577fc"},"vehicle_type_id":"4","last_reported":1752495774,"current_range_meters":16400,"station_id":"ce4bhhh2rcd13ifvqfk0","pricing_plan_id":"cebpf4jnsgd1na2vs0mg"},{"bike_id":"00fc1402-4dd5-4160-81c9-e4ee05f4960b","system_id":"levelo_inurba_marseille","lat":43.22504,"lon":5.34765,"is_reserved":false,"is_disabled":false,"rental_uris":{"android":"levelo://app?vid=00fc1402-4dd5-4160-81c9-e4ee05f4960b","ios":"levelo://app?vid=00fc1402-4dd5-4160-81c9-e4ee05f4960b"},"vehicle_type_id":"4","last_reported":1752495774,"current_range_meters":16400,"station_id":"st_cvj5dfep6f1abm77gieg","pricing_plan_id":"cebpf4jnsgd1na2vs0mg"},{"bike_id":"4c68a4e8-1762-4d65-8098-26a5fa1a6fa8","system_id":"levelo_inurba_marseille","lat":43.286152,"lon":5.351004,"is_reserved":false,"is_disabled":false,"rental_uris":{"android":"levelo://app?vid=4c68a4e8-1762-4d65-8098-26a5fa1a6fa8","ios":"levelo://app?vid=4c68a4e8-1762-4d65-8098-26a5fa1a6fa8"},"vehicle_type_id":"4","last_reported":1752495774,"current_range_meters":16400,"station_id":"ce4bhch2rcd13ifvqeug","pricing_plan_id":"cebpf4jnsgd1na2vs0mg"},{"bike_id":"328fdc6d-b36f-4007-94a0-c32a63e1fcc0","system_id":"levelo_inurba_marseille","lat":43.28405,"lon":5.34988,"is_reserved":false,"is_disabled":false,"rental_uris":{"android":"levelo://app?vid=328fdc6d-b36f-4007-94a0-c32a63e1fcc0","ios":"levelo://app?vid=328fdc6d-b36f-4007-94a0-c32a63e1fcc0"},"vehicle_type_id":"4","last_reported":1752495774,"current_range_meters":16800,"station_id":"ce4bhbh2rcd13ifvqepg","pricing_plan_id":"cebpf4jnsgd1na2vs0mg"},{"bike_id":"3945caf1-a3ed-4500-a05f-e4d3291f48da","system_id":"levelo_inurba_marseille","lat":43.28267,"lon":5.35063,"is_reserved":false,"is_disabled":false,"rental_uris":{"android":"levelo://app?vid=3945caf1-a3ed-4500-a05f-e4d3291f48da","ios":"levelo://app?vid=3945caf1-a3ed-4500-a05f-e4d3291f48da"},"vehicle_type_id":"4","last_reported":1752495774,"current_range_meters":16800,"station_id":"ce4bhbp2rcd13ifvqerg","pricing_plan_id":"cebpf4jnsgd1na2vs0mg"},{"bike_id":"244722db-f86e-443c-a85b-c027d297bcef","system_id":"levelo_inurba_marseille","lat":43.288606,"lon":5.358388,"is_reserved":false,"is_disabled":false,"rental_uris":{"android":"levelo://app?vid=244722db-f86e-443c-a85b-c027d297bcef","ios":"levelo://app?vid=244722db-f86e-443c-a85b-c027d297bcef"},"vehicle_type_id":"4","last_reported":1752495774,"current_range_meters":16800,"station_id":"ce4bhb12rcd13ifvqem0","pricing_plan_id":"cebpf4jnsgd1na2vs0mg"},{"bike_id":"0be8b6ff-89df-4994-876a-5f9632d04ae6","system_id":"levelo_inurba_marseille","lat":43.25106,"lon":5.4036,"is_reserved":false,"is_disabled":false,"rental_uris":{"android":"levelo://app?vid=0be8b6ff-89df-4994-876a-5f9632d04ae6","ios":"levelo://app?vid=0be8b6ff-89df-4994-876a-5f9632d04ae6"},"vehicle_type_id":"4","last_reported":1752495774,"current_range_meters":16800,"station_id":"ce4bhlh2rcd13ifvqgig","pricing_plan_id":"cebpf4jnsgd1na2vs0mg"},{"bike_id":"c2857b8a-2544-48ae-936c-90bab1dd6ab6","system_id":"levelo_inurba_marseille","lat":43.21193,"lon":5.35077,"is_reserved":false,"is_disabled":false,"rental_uris":{"android":"levelo://app?vid=c2857b8a-2544-48ae-936c-90bab1dd6ab6","ios":"levelo://app?vid=c2857b8a-2544-48ae-936c-90bab1dd6ab6"},"vehicle_type_id":"4","last_reported":1752495774,"current_range_meters":16800,"station_id":"st_cvj6sg6p6f1abm77japg","pricing_plan_id":"cebpf4jnsgd1na2vs0mg"},{"bike_id":"96b26ea4-7604-4e35-a8de-8af31e5282cd","system_id":"levelo_inurba_marseille","lat":43.29899,"lon":5.38144,"is_reserved":false,"is_disabled":false,"rental_uris":{"android":"levelo://app?vid=96b26ea4-7604-4e35-a8de-8af31e5282cd","ios":"levelo://app?vid=96b26ea4-7604-4e35-a8de-8af31e5282cd"},"vehicle_type_id":"4","last_reported":1752495774,"current_range_meters":16800,"station_id":"ce4bgj12rcd13ifvqbc0","pricing_plan_id":"cebpf4jnsgd1na2vs0mg"},{"bike_id":"1eb30bbc-25a0-4a0b-b6cc-68f11abcb23c","system_id":"levelo_inurba_marseille","lat":43.28599,"lon":5.3707,"is_reserved":false,"is_disabled":false,"rental_uris":{"android":"levelo://app?vid=1eb30bbc-25a0-4a0b-b6cc-68f11abcb23c","ios":"levelo://app?vid=1eb30bbc-25a0-4a0b-b6cc-68f11abcb23c"},"vehicle_type_id":"4","last_reported":1752495774,"current_range_meters":16800,"station_id":"ce4bht12rcd13ifvqi60","pricing_plan_id":"cebpf4jnsgd1na2vs0mg"},{"bike_id":"ce4d14d7-9e5a-40df-9fcf-5fd8b2e9178f","system_id":"levelo_inurba_marseille","lat":43.257175,"lon":5.411138,"is_reserved":false,"is_disabled":false,"rental_uris":{"android":"levelo://app?vid=ce4d14d7-9e5a-40df-9fcf-5fd8b2e9178f","ios":"levelo://app?vid=ce4d14d7-9e5a-40df-9fcf-5fd8b2e9178f"},"vehicle_type_id":"4","last_reported":1752495774,"current_range_meters":17200,"station_id":"ce4bhkp2rcd13ifvqgd0","pricing_plan_id":"cebpf4jnsgd1na2vs0mg"},{"bike_id":"fc63a067-9cf2-4c58-bfdd-3270ab1898f2","system_id":"levelo_inurba_marseille","lat":43.229316,"lon":5.353867,"is_reserved":false,"is_disabled":false,"rental_uris":{"android":"levelo://app?vid=fc63a067-9cf2-4c58-bfdd-3270ab1898f2","ios":"levelo://app?vid=fc63a067-9cf2-4c58-bfdd-3270ab1898f2"},"vehicle_type_id":"4","last_reported":1752495774,"current_range_meters":17200,"station_id":"cpo3532slgdg3j2ikp40","pricing_plan_id":"cebpf4jnsgd1na2vs0mg"},{"bike_id":"44e10618-e1b8-4569-bc24-980853c4bf04","system_id":"levelo_inurba_marseille","lat":43.229289,"lon":5.353766,"is_reserved":false,"is_disabled":true,"rental_uris":{"android":"levelo://app?vid=44e10618-e1b8-4569-bc24-980853c4bf04","ios":"levelo://app?vid=44e10618-e1b8-4569-bc24-980853c4bf04"},"vehicle_type_id":"4","last_reported":1752495774,"current_range_meters":17200,"station_id":"cpo3532slgdg3j2ikp40","pricing_plan_id":"cebpf4jnsgd1na2vs0mg"},{"bike_id":"d0f90c24-dd03-411b-9731-55305f76b7c8","system_id":"levelo_inurba_marseille","lat":43.21193,"lon":5.35072,"is_reserved":false,"is_disabled":false,"rental_uris":{"android":"levelo://app?vid=d0f90c24-dd03-411b-9731-55305f76b7c8","ios":"levelo://app?vid=d0f90c24-dd03-411b-9731-55305f76b7c8"},"vehicle_type_id":"4","last_reported":1752495774,"current_range_meters":17200,"station_id":"st_cvj6sg6p6f1abm77japg","pricing_plan_id":"cebpf4jnsgd1na2vs0mg"},{"bike_id":"64944800-4445-4731-9a81-3baf530026d7","system_id":"levelo_inurba_marseille","lat":43.28726,"lon":5.36089,"is_reserved":false,"is_disabled":false,"rental_uris":{"android":"levelo://app?vid=64944800-4445-4731-9a81-3baf530026d7","ios":"levelo://app?vid=64944800-4445-4731-9a81-3baf530026d7"},"vehicle_type_id":"4","last_reported":1752495774,"current_range_meters":17200,"station_id":"cki0cbj6b192h4jlfktg","pricing_plan_id":"cebpf4jnsgd1na2vs0mg"},{"bike_id":"e0b88937-0cb8-4374-8110-357b6a1974b9","system_id":"levelo_inurba_marseille","lat":43.24075,"lon":5.37757,"is_reserved":false,"is_disabled":false,"rental_uris":{"android":"levelo://app?vid=e0b88937-0cb8-4374-8110-357b6a1974b9","ios":"levelo://app?vid=e0b88937-0cb8-4374-8110-357b6a1974b9"},"vehicle_type_id":"4","last_reported":1752495774,"current_range_meters":17200,"station_id":"ce4bhnp2rcd13ifvqgvg","pricing_plan_id":"cebpf4jnsgd1na2vs0mg"},{"bike_id":"7ee20da9-1cff-49a1-948b-0f3dc0e132c0","system_id":"levelo_inurba_marseille","lat":43.29906,"lon":5.38155,"is_reserved":false,"is_disabled":false,"rental_uris":{"android":"levelo://app?vid=7ee20da9-1cff-49a1-948b-0f3dc0e132c0","ios":"levelo://app?vid=7ee20da9-1cff-49a1-948b-0f3dc0e132c0"},"vehicle_type_id":"4","last_reported":1752495774,"current_range_meters":16800,"station_id":"ce4bgj12rcd13ifvqbc0","pricing_plan_id":"cebpf4jnsgd1na2vs0mg"},{"bike_id":"22060ed4-4224-4eb8-b34f-7fe6bdc84783","system_id":"levelo_inurba_marseille","lat":43.31483,"lon":5.37289,"is_reserved":false,"is_disabled":false,"rental_uris":{"android":"levelo://app?vid=22060ed4-4224-4eb8-b34f-7fe6bdc84783","ios":"levelo://app?vid=22060ed4-4224-4eb8-b34f-7fe6bdc84783"},"vehicle_type_id":"4","last_reported":1752495774,"current_range_meters":17200,"station_id":"ce4bgt12rcd13ifvqcd0","pricing_plan_id":"cebpf4jnsgd1na2vs0mg"},{"bike_id":"cd968d96-405f-43ed-b7af-0a593276ab0f","system_id":"levelo_inurba_marseille","lat":43.30424,"lon":5.39745,"is_reserved":false,"is_disabled":false,"rental_uris":{"android":"levelo://app?vid=cd968d96-405f-43ed-b7af-0a593276ab0f","ios":"levelo://app?vid=cd968d96-405f-43ed-b7af-0a593276ab0f"},"vehicle_type_id":"4","last_reported":1752495774,"current_range_meters":17200,"station_id":"ce4bh092rcd13ifvqd20","pricing_plan_id":"cebpf4jnsgd1na2vs0mg"},{"bike_id":"42311d29-3264-41c0-add0-a7f387e21814","system_id":"levelo_inurba_marseille","lat":43.27806,"lon":5.40692,"is_reserved":false,"is_disabled":false,"rental_uris":{"android":"levelo://app?vid=42311d29-3264-41c0-add0-a7f387e21814","ios":"levelo://app?vid=42311d29-3264-41c0-add0-a7f387e21814"},"vehicle_type_id":"4","last_reported":1752495774,"current_range_meters":17200,"station_id":"ce4bhnh2rcd13ifvqgtg","pricing_plan_id":"cebpf4jnsgd1na2vs0mg"},{"bike_id":"f10941ce-d19a-4475-b0ba-1c38d332727e","system_id":"levelo_inurba_marseille","lat":43.32174,"lon":5.38724,"is_reserved":false,"is_disabled":false,"rental_uris":{"android":"levelo://app?vid=f10941ce-d19a-4475-b0ba-1c38d332727e","ios":"levelo://app?vid=f10941ce-d19a-4475-b0ba-1c38d332727e"},"vehicle_type_id":"4","last_reported":1752495774,"current_range_meters":17600,"station_id":"","pricing_plan_id":"cebpf4jnsgd1na2vs0mg"},{"bike_id":"d376d275-88a6-4a1d-bb9c-c2c0fe77436f","system_id":"levelo_inurba_marseille","lat":43.24429,"lon":5.37038,"is_reserved":false,"is_disabled":false,"rental_uris":{"android":"levelo://app?vid=d376d275-88a6-4a1d-bb9c-c2c0fe77436f","ios":"levelo://app?vid=d376d275-88a6-4a1d-bb9c-c2c0fe77436f"},"vehicle_type_id":"4","last_reported":1752495774,"current_range_meters":17600,"station_id":"ce4bhhh2rcd13ifvqfk0","pricing_plan_id":"cebpf4jnsgd1na2vs0mg"},{"bike_id":"5c604cee-8163-4508-b1f3-ec8c5d644770","system_id":"levelo_inurba_marseille","lat":43.231926,"lon":5.355565,"is_reserved":false,"is_disabled":false,"rental_uris":{"android":"levelo://app?vid=5c604cee-8163-4508-b1f3-ec8c5d644770","ios":"levelo://app?vid=5c604cee-8163-4508-b1f3-ec8c5d644770"},"vehicle_type_id":"4","last_reported":1752495774,"current_range_meters":17600,"station_id":"ce4bhu92rcd13ifvqi70","pricing_plan_id":"cebpf4jnsgd1na2vs0mg"},{"bike_id":"48a72147-d63a-4fad-9403-9184689656c8","system_id":"levelo_inurba_marseille","lat":43.243951,"lon":5.370672,"is_reserved":false,"is_disabled":true,"rental_uris":{"android":"levelo://app?vid=48a72147-d63a-4fad-9403-9184689656c8","ios":"levelo://app?vid=48a72147-d63a-4fad-9403-9184689656c8"},"vehicle_type_id":"4","last_reported":1752495774,"current_range_meters":17600,"station_id":"ce4bhhh2rcd13ifvqfk0","pricing_plan_id":"cebpf4jnsgd1na2vs0mg"},{"bike_id":"d28220a6-e714-479a-90d7-cadb4af1cdc2","system_id":"levelo_inurba_marseille","lat":43.27808,"lon":5.40708,"is_reserved":false,"is_disabled":false,"rental_uris":{"android":"levelo://app?vid=d28220a6-e714-479a-90d7-cadb4af1cdc2","ios":"levelo://app?vid=d28220a6-e714-479a-90d7-cadb4af1cdc2"},"vehicle_type_id":"4","last_reported":1752495774,"current_range_meters":17600,"station_id":"ce4bhnh2rcd13ifvqgtg","pricing_plan_id":"cebpf4jnsgd1na2vs0mg"},{"bike_id":"5084babc-9e40-4691-99c4-778b7e48f00b","system_id":"levelo_inurba_marseille","lat":43.23962,"lon":5.36635,"is_reserved":false,"is_disabled":false,"rental_uris":{"android":"levelo://app?vid=5084babc-9e40-4691-99c4-778b7e48f00b","ios":"levelo://app?vid=5084babc-9e40-4691-99c4-778b7e48f00b"},"vehicle_type_id":"4","last_reported":1752495774,"current_range_meters":18000,"station_id":"ce4bhi12rcd13ifvqfp0","pricing_plan_id":"cebpf4jnsgd1na2vs0mg"},{"bike_id":"17911de8-6634-4c0a-81e9-2a901f8423b6","system_id":"levelo_inurba_marseille","lat":43.28268,"lon":5.35059,"is_reserved":false,"is_disabled":false,"rental_uris":{"android":"levelo://app?vid=17911de8-6634-4c0a-81e9-2a901f8423b6","ios":"levelo://app?vid=17911de8-6634-4c0a-81e9-2a901f8423b6"},"vehicle_type_id":"4","last_reported":1752495774,"current_range_meters":18000,"station_id":"ce4bhbp2rcd13ifvqerg","pricing_plan_id":"cebpf4jnsgd1na2vs0mg"},{"bike_id":"c26c1691-b88a-4afa-8943-f715ea1352ad","system_id":"levelo_inurba_marseille","lat":43.29009,"lon":5.38127,"is_reserved":false,"is_disabled":false,"rental_uris":{"android":"levelo://app?vid=c26c1691-b88a-4afa-8943-f715ea1352ad","ios":"levelo://app?vid=c26c1691-b88a-4afa-8943-f715ea1352ad"},"vehicle_type_id":"4","last_reported":1752495774,"current_range_meters":18000,"station_id":"ce4bh4p2rcd13ifvqe1g","pricing_plan_id":"cebpf4jnsgd1na2vs0mg"},{"bike_id":"9ec7ded0-07a0-4052-88cd-c68cfaa8fdd7","system_id":"levelo_inurba_marseille","lat":43.21757,"lon":5.3462,"is_reserved":false,"is_disabled":false,"rental_uris":{"android":"levelo://app?vid=9ec7ded0-07a0-4052-88cd-c68cfaa8fdd7","ios":"levelo://app?vid=9ec7ded0-07a0-4052-88cd-c68cfaa8fdd7"},"vehicle_type_id":"4","last_reported":1752495774,"current_range_meters":18000,"station_id":"st_cvj6r9ubvosntc0bgbag","pricing_plan_id":"cebpf4jnsgd1na2vs0mg"},{"bike_id":"ba84d48b-3479-4acf-9cec-8ce133342e57","system_id":"levelo_inurba_marseille","lat":43.29254,"lon":5.3763,"is_reserved":false,"is_disabled":false,"rental_uris":{"android":"levelo://app?vid=ba84d48b-3479-4acf-9cec-8ce133342e57","ios":"levelo://app?vid=ba84d48b-3479-4acf-9cec-8ce133342e57"},"vehicle_type_id":"4","last_reported":1752495774,"current_range_meters":18000,"station_id":"ce4bgi12rcd13ifvqb80","pricing_plan_id":"cebpf4jnsgd1na2vs0mg"},{"bike_id":"0f6e2d1e-1402-4217-bd46-d4dccc77d350","system_id":"levelo_inurba_marseille","lat":43.29238,"lon":5.36559,"is_reserved":false,"is_disabled":false,"rental_uris":{"android":"levelo://app?vid=0f6e2d1e-1402-4217-bd46-d4dccc77d350","ios":"levelo://app?vid=0f6e2d1e-1402-4217-bd46-d4dccc77d350"},"vehicle_type_id":"4","last_reported":1752495774,"current_range_meters":18000,"station_id":"","pricing_plan_id":"cebpf4jnsgd1na2vs0mg"},{"bike_id":"52cb12ce-7568-4969-9d5b-e929fc857857","system_id":"levelo_inurba_marseille","lat":43.29079,"lon":5.37952,"is_reserved":false,"is_disabled":false,"rental_uris":{"android":"levelo://app?vid=52cb12ce-7568-4969-9d5b-e929fc857857","ios":"levelo://app?vid=52cb12ce-7568-4969-9d5b-e929fc857857"},"vehicle_type_id":"4","last_reported":1752495774,"current_range_meters":18000,"station_id":"","pricing_plan_id":"cebpf4jnsgd1na2vs0mg"},{"bike_id":"abd54454-eac9-4f10-9247-3e0bb034a891","system_id":"levelo_inurba_marseille","lat":43.28263,"lon":5.35076,"is_reserved":false,"is_disabled":false,"rental_uris":{"android":"levelo://app?vid=abd54454-eac9-4f10-9247-3e0bb034a891","ios":"levelo://app?vid=abd54454-eac9-4f10-9247-3e0bb034a891"},"vehicle_type_id":"4","last_reported":1752495774,"current_range_meters":18000,"station_id":"ce4bhbp2rcd13ifvqerg","pricing_plan_id":"cebpf4jnsgd1na2vs0mg"},{"bike_id":"6c6d4d9a-6141-481c-9c1a-8e61054bdc43","system_id":"levelo_inurba_marseille","lat":43.24787,"lon":5.4179,"is_reserved":false,"is_disabled":false,"rental_uris":{"android":"levelo://app?vid=6c6d4d9a-6141-481c-9c1a-8e61054bdc43","ios":"levelo://app?vid=6c6d4d9a-6141-481c-9c1a-8e61054bdc43"},"vehicle_type_id":"4","last_reported":1752495774,"current_range_meters":18000,"station_id":"","pricing_plan_id":"cebpf4jnsgd1na2vs0mg"},{"bike_id":"0227391e-353b-4f24-b587-702004b142f9","system_id":"levelo_inurba_marseille","lat":43.295295,"lon":5.385459,"is_reserved":false,"is_disabled":false,"rental_uris":{"android":"levelo://app?vid=0227391e-353b-4f24-b587-702004b142f9","ios":"levelo://app?vid=0227391e-353b-4f24-b587-702004b142f9"},"vehicle_type_id":"4","last_reported":1752495774,"current_range_meters":17200,"station_id":"ce4bgih2rcd13ifvqba0","pricing_plan_id":"cebpf4jnsgd1na2vs0mg"},{"bike_id":"c3eb31c9-e106-4cd2-bb91-f2d0ee3e7a6f","system_id":"levelo_inurba_marseille","lat":43.24021,"lon":5.36273,"is_reserved":false,"is_disabled":false,"rental_uris":{"android":"levelo://app?vid=c3eb31c9-e106-4cd2-bb91-f2d0ee3e7a6f","ios":"levelo://app?vid=c3eb31c9-e106-4cd2-bb91-f2d0ee3e7a6f"},"vehicle_type_id":"4","last_reported":1752495774,"current_range_meters":18000,"station_id":"","pricing_plan_id":"cebpf4jnsgd1na2vs0mg"},{"bike_id":"a1f0c7e1-0bdc-4118-b503-84f5f7fdb140","system_id":"levelo_inurba_marseille","lat":43.28615,"lon":5.3512,"is_reserved":false,"is_disabled":false,"rental_uris":{"android":"levelo://app?vid=a1f0c7e1-0bdc-4118-b503-84f5f7fdb140","ios":"levelo://app?vid=a1f0c7e1-0bdc-4118-b503-84f5f7fdb140"},"vehicle_type_id":"4","last_reported":1752495774,"current_range_meters":18000,"station_id":"ce4bhch2rcd13ifvqeug","pricing_plan_id":"cebpf4jnsgd1na2vs0mg"},{"bike_id":"08e67338-a2ff-42fc-a939-92ad435f118e","system_id":"levelo_inurba_marseille","lat":43.27674,"lon":5.35714,"is_reserved":false,"is_disabled":false,"rental_uris":{"android":"levelo://app?vid=08e67338-a2ff-42fc-a939-92ad435f118e","ios":"levelo://app?vid=08e67338-a2ff-42fc-a939-92ad435f118e"},"vehicle_type_id":"4","last_reported":1752495774,"current_range_meters":18000,"station_id":"","pricing_plan_id":"cebpf4jnsgd1na2vs0mg"},{"bike_id":"002126f6-737b-4641-9e75-1e3a41731156","system_id":"levelo_inurba_marseille","lat":43.2175,"lon":5.34606,"is_reserved":false,"is_disabled":false,"rental_uris":{"android":"levelo://app?vid=002126f6-737b-4641-9e75-1e3a41731156","ios":"levelo://app?vid=002126f6-737b-4641-9e75-1e3a41731156"},"vehicle_type_id":"4","last_reported":1752495774,"current_range_meters":18000,"station_id":"st_cvj6r9ubvosntc0bgbag","pricing_plan_id":"cebpf4jnsgd1na2vs0mg"},{"bike_id":"0755cb70-08ea-4ee0-9fc0-1b832c502a85","system_id":"levelo_inurba_marseille","lat":43.21745,"lon":5.34598,"is_reserved":false,"is_disabled":false,"rental_uris":{"android":"levelo://app?vid=0755cb70-08ea-4ee0-9fc0-1b832c502a85","ios":"levelo://app?vid=0755cb70-08ea-4ee0-9fc0-1b832c502a85"},"vehicle_type_id":"4","last_reported":1752495774,"current_range_meters":18000,"station_id":"st_cvj6r9ubvosntc0bgbag","pricing_plan_id":"cebpf4jnsgd1na2vs0mg"},{"bike_id":"38b62f52-9dbf-4855-b3f6-3afc42f4292b","system_id":"levelo_inurba_marseille","lat":43.25734,"lon":5.41103,"is_reserved":false,"is_disabled":false,"rental_uris":{"android":"levelo://app?vid=38b62f52-9dbf-4855-b3f6-3afc42f4292b","ios":"levelo://app?vid=38b62f52-9dbf-4855-b3f6-3afc42f4292b"},"vehicle_type_id":"4","last_reported":1752495774,"current_range_meters":18800,"station_id":"ce4bhkp2rcd13ifvqgd0","pricing_plan_id":"cebpf4jnsgd1na2vs0mg"},{"bike_id":"01beb3f2-c54f-4f68-af15-b28ae7c75196","system_id":"levelo_inurba_marseille","lat":43.30105,"lon":5.39833,"is_reserved":false,"is_disabled":true,"rental_uris":{"android":"levelo://app?vid=01beb3f2-c54f-4f68-af15-b28ae7c75196","ios":"levelo://app?vid=01beb3f2-c54f-4f68-af15-b28ae7c75196"},"vehicle_type_id":"4","last_reported":1752495774,"current_range_meters":18800,"station_id":"ce4bh0h2rcd13ifvqd40","pricing_plan_id":"cebpf4jnsgd1na2vs0mg"},{"bike_id":"2ab7d655-face-469d-b1de-b3156f48f484","system_id":"levelo_inurba_marseille","lat":43.27998,"lon":5.41681,"is_reserved":false,"is_disabled":false,"rental_uris":{"android":"levelo://app?vid=2ab7d655-face-469d-b1de-b3156f48f484","ios":"levelo://app?vid=2ab7d655-face-469d-b1de-b3156f48f484"},"vehicle_type_id":"4","last_reported":1752495774,"current_range_meters":18800,"station_id":"ce4bho12rcd13ifvqh1g","pricing_plan_id":"cebpf4jnsgd1na2vs0mg"},{"bike_id":"d047fac5-8bb3-4205-ab52-0b8e2aebb27e","system_id":"levelo_inurba_marseille","lat":43.28605,"lon":5.370533,"is_reserved":false,"is_disabled":false,"rental_uris":{"android":"levelo://app?vid=d047fac5-8bb3-4205-ab52-0b8e2aebb27e","ios":"levelo://app?vid=d047fac5-8bb3-4205-ab52-0b8e2aebb27e"},"vehicle_type_id":"4","last_reported":1752495774,"current_range_meters":18800,"station_id":"ce4bht12rcd13ifvqi60","pricing_plan_id":"cebpf4jnsgd1na2vs0mg"},{"bike_id":"d7345bd6-482c-45c1-a31f-8da9edb02a99","system_id":"levelo_inurba_marseille","lat":43.31529,"lon":5.38023,"is_reserved":false,"is_disabled":false,"rental_uris":{"android":"levelo://app?vid=d7345bd6-482c-45c1-a31f-8da9edb02a99","ios":"levelo://app?vid=d7345bd6-482c-45c1-a31f-8da9edb02a99"},"vehicle_type_id":"4","last_reported":1752495774,"current_range_meters":18800,"station_id":"ce4bhsp2rcd13ifvqi50","pricing_plan_id":"cebpf4jnsgd1na2vs0mg"},{"bike_id":"85ceb5f3-6997-4e9a-af0b-0c8834f53996","system_id":"levelo_inurba_marseille","lat":43.23191,"lon":5.3555,"is_reserved":false,"is_disabled":false,"rental_uris":{"android":"levelo://app?vid=85ceb5f3-6997-4e9a-af0b-0c8834f53996","ios":"levelo://app?vid=85ceb5f3-6997-4e9a-af0b-0c8834f53996"},"vehicle_type_id":"4","last_reported":1752495774,"current_range_meters":18800,"station_id":"ce4bhu92rcd13ifvqi70","pricing_plan_id":"cebpf4jnsgd1na2vs0mg"},{"bike_id":"161b4d5a-b382-4eb1-b9aa-78c6f7c7f3fe","system_id":"levelo_inurba_marseille","lat":43.23195,"lon":5.35552,"is_reserved":false,"is_disabled":false,"rental_uris":{"android":"levelo://app?vid=161b4d5a-b382-4eb1-b9aa-78c6f7c7f3fe","ios":"levelo://app?vid=161b4d5a-b382-4eb1-b9aa-78c6f7c7f3fe"},"vehicle_type_id":"4","last_reported":1752495774,"current_range_meters":19200,"station_id":"ce4bhu92rcd13ifvqi70","pricing_plan_id":"cebpf4jnsgd1na2vs0mg"},{"bike_id":"a2ec712e-5e92-404e-8a52-2aeee908d86c","system_id":"levelo_inurba_marseille","lat":43.21741,"lon":5.34606,"is_reserved":false,"is_disabled":false,"rental_uris":{"android":"levelo://app?vid=a2ec712e-5e92-404e-8a52-2aeee908d86c","ios":"levelo://app?vid=a2ec712e-5e92-404e-8a52-2aeee908d86c"},"vehicle_type_id":"4","last_reported":1752495774,"current_range_meters":19200,"station_id":"st_cvj6r9ubvosntc0bgbag","pricing_plan_id":"cebpf4jnsgd1na2vs0mg"},{"bike_id":"b7e18bfc-4bc1-4c1e-afb9-01e90ed35340","system_id":"levelo_inurba_marseille","lat":43.2827,"lon":5.35075,"is_reserved":false,"is_disabled":false,"rental_uris":{"android":"levelo://app?vid=b7e18bfc-4bc1-4c1e-afb9-01e90ed35340","ios":"levelo://app?vid=b7e18bfc-4bc1-4c1e-afb9-01e90ed35340"},"vehicle_type_id":"4","last_reported":1752495774,"current_range_meters":19200,"station_id":"","pricing_plan_id":"cebpf4jnsgd1na2vs0mg"},{"bike_id":"c26b5803-1934-443f-a178-b5a6c19165be","system_id":"levelo_inurba_marseille","lat":43.299,"lon":5.38127,"is_reserved":false,"is_disabled":true,"rental_uris":{"android":"levelo://app?vid=c26b5803-1934-443f-a178-b5a6c19165be","ios":"levelo://app?vid=c26b5803-1934-443f-a178-b5a6c19165be"},"vehicle_type_id":"4","last_reported":1752495774,"current_range_meters":19200,"station_id":"ce4bgj12rcd13ifvqbc0","pricing_plan_id":"cebpf4jnsgd1na2vs0mg"},{"bike_id":"9799756d-8a1a-4311-a37c-e4137bc6d111","system_id":"levelo_inurba_marseille","lat":43.217457,"lon":5.346041,"is_reserved":false,"is_disabled":false,"rental_uris":{"android":"levelo://app?vid=9799756d-8a1a-4311-a37c-e4137bc6d111","ios":"levelo://app?vid=9799756d-8a1a-4311-a37c-e4137bc6d111"},"vehicle_type_id":"4","last_reported":1752495774,"current_range_meters":19200,"station_id":"st_cvj6r9ubvosntc0bgbag","pricing_plan_id":"cebpf4jnsgd1na2vs0mg"},{"bike_id":"c9601b75-1189-4dc2-869e-ec1fa6096933","system_id":"levelo_inurba_marseille","lat":43.21752,"lon":5.34619,"is_reserved":false,"is_disabled":false,"rental_uris":{"android":"levelo://app?vid=c9601b75-1189-4dc2-869e-ec1fa6096933","ios":"levelo://app?vid=c9601b75-1189-4dc2-869e-ec1fa6096933"},"vehicle_type_id":"4","last_reported":1752495774,"current_range_meters":19200,"station_id":"st_cvj6r9ubvosntc0bgbag","pricing_plan_id":"cebpf4jnsgd1na2vs0mg"},{"bike_id":"cd700f17-9c20-4b8c-b060-5a541f4a78ef","system_id":"levelo_inurba_marseille","lat":43.24166,"lon":5.36389,"is_reserved":false,"is_disabled":false,"rental_uris":{"android":"levelo://app?vid=cd700f17-9c20-4b8c-b060-5a541f4a78ef","ios":"levelo://app?vid=cd700f17-9c20-4b8c-b060-5a541f4a78ef"},"vehicle_type_id":"4","last_reported":1752495774,"current_range_meters":19200,"station_id":"cpo36qri1sfpv3e86is0","pricing_plan_id":"cebpf4jnsgd1na2vs0mg"},{"bike_id":"dda715df-b27b-404b-b880-33a43346b8d6","system_id":"levelo_inurba_marseille","lat":43.29178,"lon":5.358791,"is_reserved":false,"is_disabled":false,"rental_uris":{"android":"levelo://app?vid=dda715df-b27b-404b-b880-33a43346b8d6","ios":"levelo://app?vid=dda715df-b27b-404b-b880-33a43346b8d6"},"vehicle_type_id":"4","last_reported":1752495774,"current_range_meters":19200,"station_id":"ce4bhb12rcd13ifvqel0","pricing_plan_id":"cebpf4jnsgd1na2vs0mg"},{"bike_id":"94560d17-0815-4d87-8025-757636bdc65a","system_id":"levelo_inurba_marseille","lat":43.28944,"lon":5.36632,"is_reserved":false,"is_disabled":false,"rental_uris":{"android":"levelo://app?vid=94560d17-0815-4d87-8025-757636bdc65a","ios":"levelo://app?vid=94560d17-0815-4d87-8025-757636bdc65a"},"vehicle_type_id":"4","last_reported":1752495774,"current_range_meters":19200,"station_id":"ce4bhap2rcd13ifvqek0","pricing_plan_id":"cebpf4jnsgd1na2vs0mg"},{"bike_id":"d7159adf-94a3-498c-948b-458c9b026277","system_id":"levelo_inurba_marseille","lat":43.225036,"lon":5.347845,"is_reserved":false,"is_disabled":false,"rental_uris":{"android":"levelo://app?vid=d7159adf-94a3-498c-948b-458c9b026277","ios":"levelo://app?vid=d7159adf-94a3-498c-948b-458c9b026277"},"vehicle_type_id":"4","last_reported":1752495774,"current_range_meters":19200,"station_id":"","pricing_plan_id":"cebpf4jnsgd1na2vs0mg"},{"bike_id":"1aaa7e29-8268-4a68-b982-06e4cb580b86","system_id":"levelo_inurba_marseille","lat":43.33617,"lon":5.41043,"is_reserved":false,"is_disabled":false,"rental_uris":{"android":"levelo://app?vid=1aaa7e29-8268-4a68-b982-06e4cb580b86","ios":"levelo://app?vid=1aaa7e29-8268-4a68-b982-06e4cb580b86"},"vehicle_type_id":"4","last_reported":1752495774,"current_range_meters":19200,"station_id":"ce4bhqh2rcd13ifvqhmg","pricing_plan_id":"cebpf4jnsgd1na2vs0mg"},{"bike_id":"62936865-b560-4edf-91f6-dc3cbff51cec","system_id":"levelo_inurba_marseille","lat":43.272426,"lon":5.36263,"is_reserved":false,"is_disabled":false,"rental_uris":{"android":"levelo://app?vid=62936865-b560-4edf-91f6-dc3cbff51cec","ios":"levelo://app?vid=62936865-b560-4edf-91f6-dc3cbff51cec"},"vehicle_type_id":"4","last_reported":1752495774,"current_range_meters":19200,"station_id":"","pricing_plan_id":"cebpf4jnsgd1na2vs0mg"},{"bike_id":"09a93a64-fbb1-49a9-be1f-f86a34310e71","system_id":"levelo_inurba_marseille","lat":43.21204,"lon":5.35121,"is_reserved":false,"is_disabled":false,"rental_uris":{"android":"levelo://app?vid=09a93a64-fbb1-49a9-be1f-f86a34310e71","ios":"levelo://app?vid=09a93a64-fbb1-49a9-be1f-f86a34310e71"},"vehicle_type_id":"4","last_reported":1752495774,"current_range_meters":19200,"station_id":"st_cvj6sg6p6f1abm77japg","pricing_plan_id":"cebpf4jnsgd1na2vs0mg"},{"bike_id":"de3c7479-ad03-448f-a78e-88898eddd51a","system_id":"levelo_inurba_marseille","lat":43.32961,"lon":5.39739,"is_reserved":false,"is_disabled":false,"rental_uris":{"android":"levelo://app?vid=de3c7479-ad03-448f-a78e-88898eddd51a","ios":"levelo://app?vid=de3c7479-ad03-448f-a78e-88898eddd51a"},"vehicle_type_id":"4","last_reported":1752495774,"current_range_meters":19600,"station_id":"","pricing_plan_id":"cebpf4jnsgd1na2vs0mg"},{"bike_id":"74122de3-6e57-4ccd-905d-d75187fd6df1","system_id":"levelo_inurba_marseille","lat":43.23854,"lon":5.36331,"is_reserved":false,"is_disabled":false,"rental_uris":{"android":"levelo://app?vid=74122de3-6e57-4ccd-905d-d75187fd6df1","ios":"levelo://app?vid=74122de3-6e57-4ccd-905d-d75187fd6df1"},"vehicle_type_id":"4","last_reported":1752495774,"current_range_meters":19600,"station_id":"","pricing_plan_id":"cebpf4jnsgd1na2vs0mg"},{"bike_id":"903197e4-3da2-471b-9537-d88bae7e31c4","system_id":"levelo_inurba_marseille","lat":43.26516,"lon":5.39528,"is_reserved":false,"is_disabled":true,"rental_uris":{"android":"levelo://app?vid=903197e4-3da2-471b-9537-d88bae7e31c4","ios":"levelo://app?vid=903197e4-3da2-471b-9537-d88bae7e31c4"},"vehicle_type_id":"4","last_reported":1752495774,"current_range_meters":19600,"station_id":"ce4bhi12rcd13ifvqfq0","pricing_plan_id":"cebpf4jnsgd1na2vs0mg"},{"bike_id":"c721e394-5d5d-4900-9e11-2bd1a6cf3eea","system_id":"levelo_inurba_marseille","lat":43.25098,"lon":5.40306,"is_reserved":false,"is_disabled":false,"rental_uris":{"android":"levelo://app?vid=c721e394-5d5d-4900-9e11-2bd1a6cf3eea","ios":"levelo://app?vid=c721e394-5d5d-4900-9e11-2bd1a6cf3eea"},"vehicle_type_id":"4","last_reported":1752495774,"current_range_meters":19600,"station_id":"ce4bhlh2rcd13ifvqgig","pricing_plan_id":"cebpf4jnsgd1na2vs0mg"},{"bike_id":"f00dbaf9-8a53-43e6-a888-25c1cd416ef2","system_id":"levelo_inurba_marseille","lat":43.27374,"lon":5.36257,"is_reserved":false,"is_disabled":false,"rental_uris":{"android":"levelo://app?vid=f00dbaf9-8a53-43e6-a888-25c1cd416ef2","ios":"levelo://app?vid=f00dbaf9-8a53-43e6-a888-25c1cd416ef2"},"vehicle_type_id":"4","last_reported":1752495774,"current_range_meters":19600,"station_id":"ce4bhbh2rcd13ifvqeo0","pricing_plan_id":"cebpf4jnsgd1na2vs0mg"},{"bike_id":"a3ee9641-9cba-4c5b-8bf0-faf2262191ed","system_id":"levelo_inurba_marseille","lat":43.28251,"lon":5.350553,"is_reserved":false,"is_disabled":false,"rental_uris":{"android":"levelo://app?vid=a3ee9641-9cba-4c5b-8bf0-faf2262191ed","ios":"levelo://app?vid=a3ee9641-9cba-4c5b-8bf0-faf2262191ed"},"vehicle_type_id":"4","last_reported":1752495774,"current_range_meters":19600,"station_id":"ce4bhbp2rcd13ifvqerg","pricing_plan_id":"cebpf4jnsgd1na2vs0mg"},{"bike_id":"7bce7a34-5113-458d-9330-3d00164f4612","system_id":"levelo_inurba_marseille","lat":43.21184,"lon":5.35113,"is_reserved":false,"is_disabled":false,"rental_uris":{"android":"levelo://app?vid=7bce7a34-5113-458d-9330-3d00164f4612","ios":"levelo://app?vid=7bce7a34-5113-458d-9330-3d00164f4612"},"vehicle_type_id":"4","last_reported":1752495774,"current_range_meters":19600,"station_id":"st_cvj6sg6p6f1abm77japg","pricing_plan_id":"cebpf4jnsgd1na2vs0mg"},{"bike_id":"0196692f-9dd4-4f43-ab4a-8a90a506eba0","system_id":"levelo_inurba_marseille","lat":43.292634,"lon":5.384339,"is_reserved":false,"is_disabled":false,"rental_uris":{"android":"levelo://app?vid=0196692f-9dd4-4f43-ab4a-8a90a506eba0","ios":"levelo://app?vid=0196692f-9dd4-4f43-ab4a-8a90a506eba0"},"vehicle_type_id":"4","last_reported":1752495774,"current_range_meters":19600,"station_id":"","pricing_plan_id":"cebpf4jnsgd1na2vs0mg"},{"bike_id":"74b145b4-5ddd-48db-a2ec-c61b6b5cb914","system_id":"levelo_inurba_marseille","lat":43.21747,"lon":5.3463,"is_reserved":false,"is_disabled":false,"rental_uris":{"android":"levelo://app?vid=74b145b4-5ddd-48db-a2ec-c61b6b5cb914","ios":"levelo://app?vid=74b145b4-5ddd-48db-a2ec-c61b6b5cb914"},"vehicle_type_id":"4","last_reported":1752495774,"current_range_meters":19600,"station_id":"st_cvj6r9ubvosntc0bgbag","pricing_plan_id":"cebpf4jnsgd1na2vs0mg"},{"bike_id":"60cd0578-222b-4cea-93a9-5ed6e663f65d","system_id":"levelo_inurba_marseille","lat":43.21744,"lon":5.34603,"is_reserved":false,"is_disabled":false,"rental_uris":{"android":"levelo://app?vid=60cd0578-222b-4cea-93a9-5ed6e663f65d","ios":"levelo://app?vid=60cd0578-222b-4cea-93a9-5ed6e663f65d"},"vehicle_type_id":"4","last_reported":1752495774,"current_range_meters":19600,"station_id":"st_cvj6r9ubvosntc0bgbag","pricing_plan_id":"cebpf4jnsgd1na2vs0mg"},{"bike_id":"28a0d5c9-af70-4194-8b1e-e42c84fb2c50","system_id":"levelo_inurba_marseille","lat":43.292624,"lon":5.40916,"is_reserved":false,"is_disabled":false,"rental_uris":{"android":"levelo://app?vid=28a0d5c9-af70-4194-8b1e-e42c84fb2c50","ios":"levelo://app?vid=28a0d5c9-af70-4194-8b1e-e42c84fb2c50"},"vehicle_type_id":"4","last_reported":1752495774,"current_range_meters":19600,"station_id":"","pricing_plan_id":"cebpf4jnsgd1na2vs0mg"},{"bike_id":"9c39830b-ce85-4249-8871-2a47f21d4c8a","system_id":"levelo_inurba_marseille","lat":43.31479,"lon":5.37306,"is_reserved":false,"is_disabled":false,"rental_uris":{"android":"levelo://app?vid=9c39830b-ce85-4249-8871-2a47f21d4c8a","ios":"levelo://app?vid=9c39830b-ce85-4249-8871-2a47f21d4c8a"},"vehicle_type_id":"4","last_reported":1752495774,"current_range_meters":19600,"station_id":"ce4bgt12rcd13ifvqcd0","pricing_plan_id":"cebpf4jnsgd1na2vs0mg"},{"bike_id":"90d8578f-7619-4279-84b6-4ed88aa377e2","system_id":"levelo_inurba_marseille","lat":43.2119,"lon":5.35067,"is_reserved":false,"is_disabled":false,"rental_uris":{"android":"levelo://app?vid=90d8578f-7619-4279-84b6-4ed88aa377e2","ios":"levelo://app?vid=90d8578f-7619-4279-84b6-4ed88aa377e2"},"vehicle_type_id":"4","last_reported":1752495774,"current_range_meters":20000,"station_id":"st_cvj6sg6p6f1abm77japg","pricing_plan_id":"cebpf4jnsgd1na2vs0mg"},{"bike_id":"30807472-8cbe-46f0-912a-3ab15a5f44f5","system_id":"levelo_inurba_marseille","lat":43.31875,"lon":5.40771,"is_reserved":false,"is_disabled":false,"rental_uris":{"android":"levelo://app?vid=30807472-8cbe-46f0-912a-3ab15a5f44f5","ios":"levelo://app?vid=30807472-8cbe-46f0-912a-3ab15a5f44f5"},"vehicle_type_id":"4","last_reported":1752495774,"current_range_meters":20000,"station_id":"ce4bhq12rcd13ifvqhig","pricing_plan_id":"cebpf4jnsgd1na2vs0mg"},{"bike_id":"7344a727-b91f-481e-b08a-0f3465e83901","system_id":"levelo_inurba_marseille","lat":43.27679,"lon":5.41701,"is_reserved":false,"is_disabled":false,"rental_uris":{"android":"levelo://app?vid=7344a727-b91f-481e-b08a-0f3465e83901","ios":"levelo://app?vid=7344a727-b91f-481e-b08a-0f3465e83901"},"vehicle_type_id":"4","last_reported":1752495774,"current_range_meters":20000,"station_id":"","pricing_plan_id":"cebpf4jnsgd1na2vs0mg"},{"bike_id":"489e603b-6303-4c5a-a3da-d47c39cd6b15","system_id":"levelo_inurba_marseille","lat":43.2174,"lon":5.34602,"is_reserved":false,"is_disabled":false,"rental_uris":{"android":"levelo://app?vid=489e603b-6303-4c5a-a3da-d47c39cd6b15","ios":"levelo://app?vid=489e603b-6303-4c5a-a3da-d47c39cd6b15"},"vehicle_type_id":"4","last_reported":1752495774,"current_range_meters":20000,"station_id":"st_cvj6r9ubvosntc0bgbag","pricing_plan_id":"cebpf4jnsgd1na2vs0mg"},{"bike_id":"46ae153a-8d53-4a64-ab91-0f68bb1948d2","system_id":"levelo_inurba_marseille","lat":43.291941,"lon":5.393425,"is_reserved":false,"is_disabled":false,"rental_uris":{"android":"levelo://app?vid=46ae153a-8d53-4a64-ab91-0f68bb1948d2","ios":"levelo://app?vid=46ae153a-8d53-4a64-ab91-0f68bb1948d2"},"vehicle_type_id":"4","last_reported":1752495774,"current_range_meters":20000,"station_id":"ce4bh192rcd13ifvqdd0","pricing_plan_id":"cebpf4jnsgd1na2vs0mg"},{"bike_id":"0b76e657-8433-4c09-8e40-f032993cf950","system_id":"levelo_inurba_marseille","lat":43.28263,"lon":5.35061,"is_reserved":false,"is_disabled":false,"rental_uris":{"android":"levelo://app?vid=0b76e657-8433-4c09-8e40-f032993cf950","ios":"levelo://app?vid=0b76e657-8433-4c09-8e40-f032993cf950"},"vehicle_type_id":"4","last_reported":1752495774,"current_range_meters":20000,"station_id":"","pricing_plan_id":"cebpf4jnsgd1na2vs0mg"},{"bike_id":"8e94c017-5f6f-4d9e-aca5-8912dfa2917e","system_id":"levelo_inurba_marseille","lat":43.28263,"lon":5.35065,"is_reserved":false,"is_disabled":false,"rental_uris":{"android":"levelo://app?vid=8e94c017-5f6f-4d9e-aca5-8912dfa2917e","ios":"levelo://app?vid=8e94c017-5f6f-4d9e-aca5-8912dfa2917e"},"vehicle_type_id":"4","last_reported":1752495774,"current_range_meters":20000,"station_id":"","pricing_plan_id":"cebpf4jnsgd1na2vs0mg"},{"bike_id":"d4a35763-cd68-4119-93e5-ee92dbacf514","system_id":"levelo_inurba_marseille","lat":43.31695,"lon":5.40472,"is_reserved":false,"is_disabled":false,"rental_uris":{"android":"levelo://app?vid=d4a35763-cd68-4119-93e5-ee92dbacf514","ios":"levelo://app?vid=d4a35763-cd68-4119-93e5-ee92dbacf514"},"vehicle_type_id":"4","last_reported":1752495774,"current_range_meters":20000,"station_id":"ce4bh012rcd13ifvqd00","pricing_plan_id":"cebpf4jnsgd1na2vs0mg"},{"bike_id":"8fc15437-905b-4a26-a508-d32c4625959c","system_id":"levelo_inurba_marseille","lat":43.27993,"lon":5.41648,"is_reserved":false,"is_disabled":false,"rental_uris":{"android":"levelo://app?vid=8fc15437-905b-4a26-a508-d32c4625959c","ios":"levelo://app?vid=8fc15437-905b-4a26-a508-d32c4625959c"},"vehicle_type_id":"4","last_reported":1752495774,"current_range_meters":20000,"station_id":"ce4bho12rcd13ifvqh1g","pricing_plan_id":"cebpf4jnsgd1na2vs0mg"},{"bike_id":"ed3a226b-4ec7-465a-b998-9c1369112c1f","system_id":"levelo_inurba_marseille","lat":43.23141,"lon":5.43719,"is_reserved":false,"is_disabled":false,"rental_uris":{"android":"levelo://app?vid=ed3a226b-4ec7-465a-b998-9c1369112c1f","ios":"levelo://app?vid=ed3a226b-4ec7-465a-b998-9c1369112c1f"},"vehicle_type_id":"4","last_reported":1752495774,"current_range_meters":20000,"station_id":"ce4bhmp2rcd13ifvqgog","pricing_plan_id":"cebpf4jnsgd1na2vs0mg"},{"bike_id":"7891b1fa-c169-42f9-9c94-dc831e7c152e","system_id":"levelo_inurba_marseille","lat":43.2931,"lon":5.37187,"is_reserved":false,"is_disabled":false,"rental_uris":{"android":"levelo://app?vid=7891b1fa-c169-42f9-9c94-dc831e7c152e","ios":"levelo://app?vid=7891b1fa-c169-42f9-9c94-dc831e7c152e"},"vehicle_type_id":"4","last_reported":1752495774,"current_range_meters":20400,"station_id":"ce4bgh92rcd13ifvqb40","pricing_plan_id":"cebpf4jnsgd1na2vs0mg"},{"bike_id":"263f6f53-1897-411c-8ea7-f127f93436c4","system_id":"levelo_inurba_marseille","lat":43.21748,"lon":5.34601,"is_reserved":false,"is_disabled":false,"rental_uris":{"android":"levelo://app?vid=263f6f53-1897-411c-8ea7-f127f93436c4","ios":"levelo://app?vid=263f6f53-1897-411c-8ea7-f127f93436c4"},"vehicle_type_id":"4","last_reported":1752495774,"current_range_meters":20400,"station_id":"st_cvj6r9ubvosntc0bgbag","pricing_plan_id":"cebpf4jnsgd1na2vs0mg"},{"bike_id":"6d0e128f-457e-4106-8115-fe411e380888","system_id":"levelo_inurba_marseille","lat":43.298979,"lon":5.436618,"is_reserved":false,"is_disabled":false,"rental_uris":{"android":"levelo://app?vid=6d0e128f-457e-4106-8115-fe411e380888","ios":"levelo://app?vid=6d0e128f-457e-4106-8115-fe411e380888"},"vehicle_type_id":"4","last_reported":1752495774,"current_range_meters":20400,"station_id":"ce4bhpp2rcd13ifvqhfg","pricing_plan_id":"cebpf4jnsgd1na2vs0mg"},{"bike_id":"a77c84ef-0639-440b-aace-308a493bff68","system_id":"levelo_inurba_marseille","lat":43.30186,"lon":5.3659,"is_reserved":false,"is_disabled":false,"rental_uris":{"android":"levelo://app?vid=a77c84ef-0639-440b-aace-308a493bff68","ios":"levelo://app?vid=a77c84ef-0639-440b-aace-308a493bff68"},"vehicle_type_id":"4","last_reported":1752495774,"current_range_meters":20400,"station_id":"ce4bgrh2rcd13ifvqc8g","pricing_plan_id":"cebpf4jnsgd1na2vs0mg"},{"bike_id":"4852acc5-0cd4-4ac5-bd4c-3f245414b4fd","system_id":"levelo_inurba_marseille","lat":43.212,"lon":5.35077,"is_reserved":false,"is_disabled":false,"rental_uris":{"android":"levelo://app?vid=4852acc5-0cd4-4ac5-bd4c-3f245414b4fd","ios":"levelo://app?vid=4852acc5-0cd4-4ac5-bd4c-3f245414b4fd"},"vehicle_type_id":"4","last_reported":1752495774,"current_range_meters":20400,"station_id":"st_cvj6sg6p6f1abm77japg","pricing_plan_id":"cebpf4jnsgd1na2vs0mg"},{"bike_id":"f8b13442-2676-494a-b07f-7265a4ddd2d3","system_id":"levelo_inurba_marseille","lat":43.30188,"lon":5.36627,"is_reserved":false,"is_disabled":false,"rental_uris":{"android":"levelo://app?vid=f8b13442-2676-494a-b07f-7265a4ddd2d3","ios":"levelo://app?vid=f8b13442-2676-494a-b07f-7265a4ddd2d3"},"vehicle_type_id":"4","last_reported":1752495774,"current_range_meters":20400,"station_id":"ce4bgrh2rcd13ifvqc8g","pricing_plan_id":"cebpf4jnsgd1na2vs0mg"},{"bike_id":"70e99ac6-c5f8-4a24-b517-2afb9240895c","system_id":"levelo_inurba_marseille","lat":43.2417,"lon":5.39708,"is_reserved":false,"is_disabled":false,"rental_uris":{"android":"levelo://app?vid=70e99ac6-c5f8-4a24-b517-2afb9240895c","ios":"levelo://app?vid=70e99ac6-c5f8-4a24-b517-2afb9240895c"},"vehicle_type_id":"4","last_reported":1752495774,"current_range_meters":20400,"station_id":"ce4bhn12rcd13ifvqgpg","pricing_plan_id":"cebpf4jnsgd1na2vs0mg"},{"bike_id":"a087ab4f-8a7f-43ec-bab5-8df0bc2f9583","system_id":"levelo_inurba_marseille","lat":43.28634,"lon":5.35083,"is_reserved":false,"is_disabled":false,"rental_uris":{"android":"levelo://app?vid=a087ab4f-8a7f-43ec-bab5-8df0bc2f9583","ios":"levelo://app?vid=a087ab4f-8a7f-43ec-bab5-8df0bc2f9583"},"vehicle_type_id":"4","last_reported":1752495774,"current_range_meters":20400,"station_id":"ce4bhch2rcd13ifvqeug","pricing_plan_id":"cebpf4jnsgd1na2vs0mg"},{"bike_id":"0d59d516-5bd5-444b-9c9f-3425b328b901","system_id":"levelo_inurba_marseille","lat":43.32359,"lon":5.36753,"is_reserved":false,"is_disabled":false,"rental_uris":{"android":"levelo://app?vid=0d59d516-5bd5-444b-9c9f-3425b328b901","ios":"levelo://app?vid=0d59d516-5bd5-444b-9c9f-3425b328b901"},"vehicle_type_id":"4","last_reported":1752495774,"current_range_meters":20800,"station_id":"ce4bhsh2rcd13ifvqi2g","pricing_plan_id":"cebpf4jnsgd1na2vs0mg"},{"bike_id":"81da23e0-56f8-4095-bf0b-77071c0e69c0","system_id":"levelo_inurba_marseille","lat":43.24075,"lon":5.37753,"is_reserved":false,"is_disabled":false,"rental_uris":{"android":"levelo://app?vid=81da23e0-56f8-4095-bf0b-77071c0e69c0","ios":"levelo://app?vid=81da23e0-56f8-4095-bf0b-77071c0e69c0"},"vehicle_type_id":"4","last_reported":1752495774,"current_range_meters":20800,"station_id":"ce4bhnp2rcd13ifvqgvg","pricing_plan_id":"cebpf4jnsgd1na2vs0mg"},{"bike_id":"942ac89e-7e50-4351-aed2-d97e4b81d9a8","system_id":"levelo_inurba_marseille","lat":43.23194,"lon":5.35552,"is_reserved":false,"is_disabled":false,"rental_uris":{"android":"levelo://app?vid=942ac89e-7e50-4351-aed2-d97e4b81d9a8","ios":"levelo://app?vid=942ac89e-7e50-4351-aed2-d97e4b81d9a8"},"vehicle_type_id":"4","last_reported":1752495774,"current_range_meters":20800,"station_id":"ce4bhu92rcd13ifvqi70","pricing_plan_id":"cebpf4jnsgd1na2vs0mg"},{"bike_id":"9acc9a93-612a-45e9-ad2c-6e81e8832947","system_id":"levelo_inurba_marseille","lat":43.21763,"lon":5.34599,"is_reserved":false,"is_disabled":false,"rental_uris":{"android":"levelo://app?vid=9acc9a93-612a-45e9-ad2c-6e81e8832947","ios":"levelo://app?vid=9acc9a93-612a-45e9-ad2c-6e81e8832947"},"vehicle_type_id":"4","last_reported":1752495774,"current_range_meters":20800,"station_id":"","pricing_plan_id":"cebpf4jnsgd1na2vs0mg"},{"bike_id":"de5e4790-edcb-4408-827a-be7f9258ff0f","system_id":"levelo_inurba_marseille","lat":43.27389,"lon":5.36273,"is_reserved":false,"is_disabled":false,"rental_uris":{"android":"levelo://app?vid=de5e4790-edcb-4408-827a-be7f9258ff0f","ios":"levelo://app?vid=de5e4790-edcb-4408-827a-be7f9258ff0f"},"vehicle_type_id":"4","last_reported":1752495774,"current_range_meters":20800,"station_id":"ce4bhbh2rcd13ifvqeo0","pricing_plan_id":"cebpf4jnsgd1na2vs0mg"},{"bike_id":"b899f22e-5828-4407-bcf7-8129df4150d0","system_id":"levelo_inurba_marseille","lat":43.315367,"lon":5.380253,"is_reserved":false,"is_disabled":false,"rental_uris":{"android":"levelo://app?vid=b899f22e-5828-4407-bcf7-8129df4150d0","ios":"levelo://app?vid=b899f22e-5828-4407-bcf7-8129df4150d0"},"vehicle_type_id":"4","last_reported":1752495774,"current_range_meters":20800,"station_id":"ce4bhsp2rcd13ifvqi50","pricing_plan_id":"cebpf4jnsgd1na2vs0mg"},{"bike_id":"bc874a22-c9db-4904-811a-b5cf614264f3","system_id":"levelo_inurba_marseille","lat":43.24804,"lon":5.37454,"is_reserved":false,"is_disabled":false,"rental_uris":{"android":"levelo://app?vid=bc874a22-c9db-4904-811a-b5cf614264f3","ios":"levelo://app?vid=bc874a22-c9db-4904-811a-b5cf614264f3"},"vehicle_type_id":"4","last_reported":1752495774,"current_range_meters":20800,"station_id":"ce4bhgh2rcd13ifvqfb0","pricing_plan_id":"cebpf4jnsgd1na2vs0mg"},{"bike_id":"553697d0-2c29-488e-9b00-46e604fe98c9","system_id":"levelo_inurba_marseille","lat":43.27374,"lon":5.36253,"is_reserved":false,"is_disabled":false,"rental_uris":{"android":"levelo://app?vid=553697d0-2c29-488e-9b00-46e604fe98c9","ios":"levelo://app?vid=553697d0-2c29-488e-9b00-46e604fe98c9"},"vehicle_type_id":"4","last_reported":1752495774,"current_range_meters":20800,"station_id":"ce4bhbh2rcd13ifvqeo0","pricing_plan_id":"cebpf4jnsgd1na2vs0mg"},{"bike_id":"7bfd792f-e462-4040-abd3-f206f8d88e7e","system_id":"levelo_inurba_marseille","lat":43.262329,"lon":5.374747,"is_reserved":false,"is_disabled":false,"rental_uris":{"android":"levelo://app?vid=7bfd792f-e462-4040-abd3-f206f8d88e7e","ios":"levelo://app?vid=7bfd792f-e462-4040-abd3-f206f8d88e7e"},"vehicle_type_id":"4","last_reported":1752495774,"current_range_meters":21600,"station_id":"ce4bhgp2rcd13ifvqfc0","pricing_plan_id":"cebpf4jnsgd1na2vs0mg"},{"bike_id":"44ed586a-9c40-4947-9d07-675a87cf2284","system_id":"levelo_inurba_marseille","lat":43.273688,"lon":5.362533,"is_reserved":false,"is_disabled":false,"rental_uris":{"android":"levelo://app?vid=44ed586a-9c40-4947-9d07-675a87cf2284","ios":"levelo://app?vid=44ed586a-9c40-4947-9d07-675a87cf2284"},"vehicle_type_id":"4","last_reported":1752495774,"current_range_meters":21600,"station_id":"ce4bhbh2rcd13ifvqeo0","pricing_plan_id":"cebpf4jnsgd1na2vs0mg"},{"bike_id":"97726710-de8b-4f04-803a-bb000afb39c0","system_id":"levelo_inurba_marseille","lat":43.28473,"lon":5.35898,"is_reserved":false,"is_disabled":false,"rental_uris":{"android":"levelo://app?vid=97726710-de8b-4f04-803a-bb000afb39c0","ios":"levelo://app?vid=97726710-de8b-4f04-803a-bb000afb39c0"},"vehicle_type_id":"4","last_reported":1752495774,"current_range_meters":21600,"station_id":"ce4bhah2rcd13ifvqei0","pricing_plan_id":"cebpf4jnsgd1na2vs0mg"},{"bike_id":"232a3b41-f4d7-4140-a967-89b3849050f1","system_id":"levelo_inurba_marseille","lat":43.32348,"lon":5.40625,"is_reserved":false,"is_disabled":false,"rental_uris":{"android":"levelo://app?vid=232a3b41-f4d7-4140-a967-89b3849050f1","ios":"levelo://app?vid=232a3b41-f4d7-4140-a967-89b3849050f1"},"vehicle_type_id":"4","last_reported":1752495774,"current_range_meters":21600,"station_id":"ce4bhq92rcd13ifvqhjg","pricing_plan_id":"cebpf4jnsgd1na2vs0mg"},{"bike_id":"4c789e3f-00cb-4cbb-b217-c1a31582085e","system_id":"levelo_inurba_marseille","lat":43.23064,"lon":5.35492,"is_reserved":false,"is_disabled":false,"rental_uris":{"android":"levelo://app?vid=4c789e3f-00cb-4cbb-b217-c1a31582085e","ios":"levelo://app?vid=4c789e3f-00cb-4cbb-b217-c1a31582085e"},"vehicle_type_id":"4","last_reported":1752495774,"current_range_meters":22000,"station_id":"cpo3342slgdg3j2ifvpg","pricing_plan_id":"cebpf4jnsgd1na2vs0mg"},{"bike_id":"a691b701-38dd-46c6-b4d6-7f852bdae641","system_id":"levelo_inurba_marseille","lat":43.29795,"lon":5.40395,"is_reserved":false,"is_disabled":false,"rental_uris":{"android":"levelo://app?vid=a691b701-38dd-46c6-b4d6-7f852bdae641","ios":"levelo://app?vid=a691b701-38dd-46c6-b4d6-7f852bdae641"},"vehicle_type_id":"4","last_reported":1752495774,"current_range_meters":22000,"station_id":"ce4bh112rcd13ifvqd90","pricing_plan_id":"cebpf4jnsgd1na2vs0mg"},{"bike_id":"78147a5f-2244-411d-b0ca-52e2d0b21c96","system_id":"levelo_inurba_marseille","lat":43.30533,"lon":5.36551,"is_reserved":false,"is_disabled":false,"rental_uris":{"android":"levelo://app?vid=78147a5f-2244-411d-b0ca-52e2d0b21c96","ios":"levelo://app?vid=78147a5f-2244-411d-b0ca-52e2d0b21c96"},"vehicle_type_id":"4","last_reported":1752495774,"current_range_meters":22000,"station_id":"ce4bgs12rcd13ifvqcag","pricing_plan_id":"cebpf4jnsgd1na2vs0mg"},{"bike_id":"ef803289-85ad-44c1-9424-d8124d128703","system_id":"levelo_inurba_marseille","lat":43.28264,"lon":5.35067,"is_reserved":false,"is_disabled":false,"rental_uris":{"android":"levelo://app?vid=ef803289-85ad-44c1-9424-d8124d128703","ios":"levelo://app?vid=ef803289-85ad-44c1-9424-d8124d128703"},"vehicle_type_id":"4","last_reported":1752495774,"current_range_meters":22000,"station_id":"","pricing_plan_id":"cebpf4jnsgd1na2vs0mg"},{"bike_id":"73954c3d-527b-41ae-8ffc-24e88406b53b","system_id":"levelo_inurba_marseille","lat":43.29302,"lon":5.37451,"is_reserved":false,"is_disabled":false,"rental_uris":{"android":"levelo://app?vid=73954c3d-527b-41ae-8ffc-24e88406b53b","ios":"levelo://app?vid=73954c3d-527b-41ae-8ffc-24e88406b53b"},