{"last_updated":1738786230,"ttl":60,"version":"2.2","data":{"bikes":[{"bike_id":"a3410efb-5a6c-42e0-bea2-6fd911ada6ce","system_id":"levelo_inurba_marseille","lat":43.28081,"lon":5.39661,"is_reserved":false,"is_disabled":false,"rental_uris":{"android":"levelo://app?vid=a3410efb-5a6c-42e0-bea2-6fd911ada6ce","ios":"levelo://app?vid=a3410efb-5a6c-42e0-bea2-6fd911ada6ce"},"vehicle_type_id":"4","last_reported":1738786231,"current_range_meters":17200,"station_id":"ce4bho12rcd13ifvqh2g","pricing_plan_id":"cebpf4jnsgd1na2vs0mg"},{"bike_id":"4927017d-00a4-41ad-adcc-553dace88671","system_id":"levelo_inurba_marseille","lat":43.33604,"lon":5.41011,"is_reserved":false,"is_disabled":true,"rental_uris":{"android":"levelo://app?vid=4927017d-00a4-41ad-adcc-553dace88671","ios":"levelo://app?vid=4927017d-00a4-41ad-adcc-553dace88671"},"vehicle_type_id":"4","last_reported":1738786231,"current_range_meters":39200,"station_id":"ce4bhqh2rcd13ifvqhmg","pricing_plan_id":"cebpf4jnsgd1na2vs0mg"},{"bike_id":"eaaf8654-8746-4687-b134-6cab9927ea37","system_id":"levelo_inurba_marseille","lat":43.29034,"lon":5.38644,"is_reserved":false,"is_disabled":false,"rental_uris":{"android":"levelo://app?vid=eaaf8654-8746-4687-b134-6cab9927ea37","ios":"levelo://app?vid=eaaf8654-8746-4687-b134-6cab9927ea37"},"vehicle_type_id":"4","last_reported":1738786231,"current_range_meters":24400,"station_id":"ce4bh4p2rcd13ifvqe0g","pricing_plan_id":"cebpf4jnsgd1na2vs0mg"},{"bike_id":"28e210b1-e961-42d1-9697-bd7c07688d0e","system_id":"levelo_inurba_marseille","lat":43.26221,"lon":5.404463,"is_reserved":false,"is_disabled":false,"rental_uris":{"android":"levelo://app?vid=28e210b1-e961-42d1-9697-bd7c07688d0e","ios":"levelo://app?vid=28e210b1-e961-42d1-9697-bd7c07688d0e"},"vehicle_type_id":"4","last_reported":1738786231,"current_range_meters":9600,"station_id":"ce4bhmh2rcd13ifvqgmg","pricing_plan_id":"cebpf4jnsgd1na2vs0mg"},{"bike_id":"0c1aa443-797b-4ead-a921-12d953ed5f46","system_id":"levelo_inurba_marseille","lat":43.29296,"lon":5.37171,"is_reserved":false,"is_disabled":false,"rental_uris":{"android":"levelo://app?vid=0c1aa443-797b-4ead-a921-12d953ed5f46","ios":"levelo://app?vid=0c1aa443-797b-4ead-a921-12d953ed5f46"},"vehicle_type_id":"4","last_reported":1738786231,"current_range_meters":36800,"station_id":"ce4bgh92rcd13ifvqb40","pricing_plan_id":"cebpf4jnsgd1na2vs0mg"},{"bike_id":"22072124-3fc8-4458-8fd2-fef60edb4e69","system_id":"levelo_inurba_marseille","lat":43.29532,"lon":5.38538,"is_reserved":false,"is_disabled":false,"rental_uris":{"android":"levelo://app?vid=22072124-3fc8-4458-8fd2-fef60edb4e69","ios":"levelo://app?vid=22072124-3fc8-4458-8fd2-fef60edb4e69"},"vehicle_type_id":"4","last_reported":1738786231,"current_range_meters":24800,"station_id":"ce4bgih2rcd13ifvqba0","pricing_plan_id":"cebpf4jnsgd1na2vs0mg"},{"bike_id":"8585327e-57a3-45ee-8586-4c89099c229b","system_id":"levelo_inurba_marseille","lat":43.293042,"lon":5.374626,"is_reserved":false,"is_disabled":false,"rental_uris":{"android":"levelo://app?vid=8585327e-57a3-45ee-8586-4c89099c229b","ios":"levelo://app?vid=8585327e-57a3-45ee-8586-4c89099c229b"},"vehicle_type_id":"4","last_reported":1738786231,"current_range_meters":8800,"station_id":"ce4bgi12rcd13ifvqb70","pricing_plan_id":"cebpf4jnsgd1na2vs0mg"},{"bike_id":"695c8903-2a1f-4f36-ae79-da101aaac2a2","system_id":"levelo_inurba_marseille","lat":43.23193,"lon":5.39971,"is_reserved":false,"is_disabled":false,"rental_uris":{"android":"levelo://app?vid=695c8903-2a1f-4f36-ae79-da101aaac2a2","ios":"levelo://app?vid=695c8903-2a1f-4f36-ae79-da101aaac2a2"},"vehicle_type_id":"4","last_reported":1738786231,"current_range_meters":20000,"station_id":"ce4bhn12rcd13ifvqgqg","pricing_plan_id":"cebpf4jnsgd1na2vs0mg"},{"bike_id":"60efba71-1f79-4331-8e03-d1cbb62a05fd","system_id":"levelo_inurba_marseille","lat":43.23185,"lon":5.39977,"is_reserved":false,"is_disabled":false,"rental_uris":{"android":"levelo://app?vid=60efba71-1f79-4331-8e03-d1cbb62a05fd","ios":"levelo://app?vid=60efba71-1f79-4331-8e03-d1cbb62a05fd"},"vehicle_type_id":"4","last_reported":1738786231,"current_range_meters":21600,"station_id":"ce4bhn12rcd13ifvqgqg","pricing_plan_id":"cebpf4jnsgd1na2vs0mg"},{"bike_id":"b859db77-ffba-4217-b4ae-7cc84f949524","system_id":"levelo_inurba_marseille","lat":43.28941,"lon":5.36632,"is_reserved":false,"is_disabled":false,"rental_uris":{"android":"levelo://app?vid=b859db77-ffba-4217-b4ae-7cc84f949524","ios":"levelo://app?vid=b859db77-ffba-4217-b4ae-7cc84f949524"},"vehicle_type_id":"4","last_reported":1738786231,"current_range_meters":13600,"station_id":"ce4bhap2rcd13ifvqek0","pricing_plan_id":"cebpf4jnsgd1na2vs0mg"},{"bike_id":"0ea911b0-68e2-463d-bf34-fae8b8859d0a","system_id":"levelo_inurba_marseille","lat":43.31115,"lon":5.37772,"is_reserved":false,"is_disabled":false,"rental_uris":{"android":"levelo://app?vid=0ea911b0-68e2-463d-bf34-fae8b8859d0a","ios":"levelo://app?vid=0ea911b0-68e2-463d-bf34-fae8b8859d0a"},"vehicle_type_id":"4","last_reported":1738786231,"current_range_meters":39200,"station_id":"ce4bgt92rcd13ifvqcg0","pricing_plan_id":"cebpf4jnsgd1na2vs0mg"},{"bike_id":"991c7de2-eee4-4288-bb1b-b211acf198b1","system_id":"levelo_inurba_marseille","lat":43.29539,"lon":5.38538,"is_reserved":false,"is_disabled":false,"rental_uris":{"android":"levelo://app?vid=991c7de2-eee4-4288-bb1b-b211acf198b1","ios":"levelo://app?vid=991c7de2-eee4-4288-bb1b-b211acf198b1"},"vehicle_type_id":"4","last_reported":1738786231,"current_range_meters":10800,"station_id":"ce4bgih2rcd13ifvqba0","pricing_plan_id":"cebpf4jnsgd1na2vs0mg"},{"bike_id":"3c4c5484-dbab-44f9-a5f9-f6b9db37e2bf","system_id":"levelo_inurba_marseille","lat":43.31339,"lon":5.3671,"is_reserved":false,"is_disabled":false,"rental_uris":{"android":"levelo://app?vid=3c4c5484-dbab-44f9-a5f9-f6b9db37e2bf","ios":"levelo://app?vid=3c4c5484-dbab-44f9-a5f9-f6b9db37e2bf"},"vehicle_type_id":"4","last_reported":1738786231,"current_range_meters":16800,"station_id":"ce4bgr92rcd13ifvqc6g","pricing_plan_id":"cebpf4jnsgd1na2vs0mg"},{"bike_id":"580c6d6c-3589-48ed-b004-acabddfdd103","system_id":"levelo_inurba_marseille","lat":43.28848,"lon":5.35856,"is_reserved":false,"is_disabled":false,"rental_uris":{"android":"levelo://app?vid=580c6d6c-3589-48ed-b004-acabddfdd103","ios":"levelo://app?vid=580c6d6c-3589-48ed-b004-acabddfdd103"},"vehicle_type_id":"4","last_reported":1738786231,"current_range_meters":28000,"station_id":"ce4bhb12rcd13ifvqem0","pricing_plan_id":"cebpf4jnsgd1na2vs0mg"},{"bike_id":"96559f85-f0b0-4a89-9803-99a731c200eb","system_id":"levelo_inurba_marseille","lat":43.31332,"lon":5.38519,"is_reserved":false,"is_disabled":false,"rental_uris":{"android":"levelo://app?vid=96559f85-f0b0-4a89-9803-99a731c200eb","ios":"levelo://app?vid=96559f85-f0b0-4a89-9803-99a731c200eb"},"vehicle_type_id":"4","last_reported":1738786231,"current_range_meters":36800,"station_id":"ce4bgt92rcd13ifvqcf0","pricing_plan_id":"cebpf4jnsgd1na2vs0mg"},{"bike_id":"c47151b7-6300-4d10-af3b-e7f427fdce45","system_id":"levelo_inurba_marseille","lat":43.29726,"lon":5.3768,"is_reserved":false,"is_disabled":true,"rental_uris":{"android":"levelo://app?vid=c47151b7-6300-4d10-af3b-e7f427fdce45","ios":"levelo://app?vid=c47151b7-6300-4d10-af3b-e7f427fdce45"},"vehicle_type_id":"4","last_reported":1738786231,"current_range_meters":24400,"station_id":"ce4bgkh2rcd13ifvqbl0","pricing_plan_id":"cebpf4jnsgd1na2vs0mg"},{"bike_id":"fe4eda7a-df34-4c44-bd35-a4db53885b6b","system_id":"levelo_inurba_marseille","lat":43.30101,"lon":5.39084,"is_reserved":false,"is_disabled":false,"rental_uris":{"android":"levelo://app?vid=fe4eda7a-df34-4c44-bd35-a4db53885b6b","ios":"levelo://app?vid=fe4eda7a-df34-4c44-bd35-a4db53885b6b"},"vehicle_type_id":"4","last_reported":1738786231,"current_range_meters":38800,"station_id":"ce4bh192rcd13ifvqdb0","pricing_plan_id":"cebpf4jnsgd1na2vs0mg"},{"bike_id":"5096573c-91b5-4931-902e-4b97b22bd12d","system_id":"levelo_inurba_marseille","lat":43.25113,"lon":5.40313,"is_reserved":false,"is_disabled":false,"rental_uris":{"android":"levelo://app?vid=5096573c-91b5-4931-902e-4b97b22bd12d","ios":"levelo://app?vid=5096573c-91b5-4931-902e-4b97b22bd12d"},"vehicle_type_id":"4","last_reported":1738786231,"current_range_meters":10000,"station_id":"ce4bhlh2rcd13ifvqgig","pricing_plan_id":"cebpf4jnsgd1na2vs0mg"},{"bike_id":"af7d62a3-9dd4-4a14-8ce3-460ca17c81d5","system_id":"levelo_inurba_marseille","lat":43.33082,"lon":5.39075,"is_reserved":false,"is_disabled":false,"rental_uris":{"android":"levelo://app?vid=af7d62a3-9dd4-4a14-8ce3-460ca17c81d5","ios":"levelo://app?vid=af7d62a3-9dd4-4a14-8ce3-460ca17c81d5"},"vehicle_type_id":"4","last_reported":1738786231,"current_range_meters":28400,"station_id":"","pricing_plan_id":"cebpf4jnsgd1na2vs0mg"},{"bike_id":"e6063af1-0efa-497e-9151-6c78cac151e6","system_id":"levelo_inurba_marseille","lat":43.29524,"lon":5.39035,"is_reserved":false,"is_disabled":false,"rental_uris":{"android":"levelo://app?vid=e6063af1-0efa-497e-9151-6c78cac151e6","ios":"levelo://app?vid=e6063af1-0efa-497e-9151-6c78cac151e6"},"vehicle_type_id":"4","last_reported":1738786231,"current_range_meters":6400,"station_id":"ce4bh3p2rcd13ifvqdp0","pricing_plan_id":"cebpf4jnsgd1na2vs0mg"},{"bike_id":"7eaacd34-10f9-4246-8aa1-4a22e07a7c06","system_id":"levelo_inurba_marseille","lat":43.3166,"lon":5.37383,"is_reserved":false,"is_disabled":false,"rental_uris":{"android":"levelo://app?vid=7eaacd34-10f9-4246-8aa1-4a22e07a7c06","ios":"levelo://app?vid=7eaacd34-10f9-4246-8aa1-4a22e07a7c06"},"vehicle_type_id":"4","last_reported":1738786231,"current_range_meters":25200,"station_id":"","pricing_plan_id":"cebpf4jnsgd1na2vs0mg"},{"bike_id":"b85d0f36-4ceb-47ae-b932-72d8372ef081","system_id":"levelo_inurba_marseille","lat":43.23195,"lon":5.39977,"is_reserved":false,"is_disabled":false,"rental_uris":{"android":"levelo://app?vid=b85d0f36-4ceb-47ae-b932-72d8372ef081","ios":"levelo://app?vid=b85d0f36-4ceb-47ae-b932-72d8372ef081"},"vehicle_type_id":"4","last_reported":1738786231,"current_range_meters":38800,"station_id":"ce4bhn12rcd13ifvqgqg","pricing_plan_id":"cebpf4jnsgd1na2vs0mg"},{"bike_id":"695c8159-ac4a-408d-a3d5-26e203af1693","system_id":"levelo_inurba_marseille","lat":43.33029,"lon":5.39045,"is_reserved":false,"is_disabled":false,"rental_uris":{"android":"levelo://app?vid=695c8159-ac4a-408d-a3d5-26e203af1693","ios":"levelo://app?vid=695c8159-ac4a-408d-a3d5-26e203af1693"},"vehicle_type_id":"4","last_reported":1738786231,"current_range_meters":36800,"station_id":"ce4bhr92rcd13ifvqhrg","pricing_plan_id":"cebpf4jnsgd1na2vs0mg"},{"bike_id":"19cfb078-9854-4658-91b7-e1746e55420c","system_id":"levelo_inurba_marseille","lat":43.3154,"lon":5.38039,"is_reserved":false,"is_disabled":false,"rental_uris":{"android":"levelo://app?vid=19cfb078-9854-4658-91b7-e1746e55420c","ios":"levelo://app?vid=19cfb078-9854-4658-91b7-e1746e55420c"},"vehicle_type_id":"4","last_reported":1738786231,"current_range_meters":39200,"station_id":"ce4bhsp2rcd13ifvqi50","pricing_plan_id":"cebpf4jnsgd1na2vs0mg"},{"bike_id":"321a7fe4-6953-4c8f-9479-aca227879548","system_id":"levelo_inurba_marseille","lat":43.23961,"lon":5.36639,"is_reserved":false,"is_disabled":false,"rental_uris":{"android":"levelo://app?vid=321a7fe4-6953-4c8f-9479-aca227879548","ios":"levelo://app?vid=321a7fe4-6953-4c8f-9479-aca227879548"},"vehicle_type_id":"4","last_reported":1738786231,"current_range_meters":38000,"station_id":"ce4bhi12rcd13ifvqfp0","pricing_plan_id":"cebpf4jnsgd1na2vs0mg"},{"bike_id":"11c556d6-c6b7-4156-aeb0-e99ce30fdcd7","system_id":"levelo_inurba_marseille","lat":43.24823,"lon":5.37445,"is_reserved":false,"is_disabled":false,"rental_uris":{"android":"levelo://app?vid=11c556d6-c6b7-4156-aeb0-e99ce30fdcd7","ios":"levelo://app?vid=11c556d6-c6b7-4156-aeb0-e99ce30fdcd7"},"vehicle_type_id":"4","last_reported":1738786231,"current_range_meters":22800,"station_id":"ce4bhgh2rcd13ifvqfb0","pricing_plan_id":"cebpf4jnsgd1na2vs0mg"},{"bike_id":"bd42563d-6ded-4a27-8446-f13fff32889d","system_id":"levelo_inurba_marseille","lat":43.31764,"lon":5.39007,"is_reserved":false,"is_disabled":false,"rental_uris":{"android":"levelo://app?vid=bd42563d-6ded-4a27-8446-f13fff32889d","ios":"levelo://app?vid=bd42563d-6ded-4a27-8446-f13fff32889d"},"vehicle_type_id":"4","last_reported":1738786231,"current_range_meters":39200,"station_id":"ce4bhqp2rcd13ifvqhng","pricing_plan_id":"cebpf4jnsgd1na2vs0mg"},{"bike_id":"af81d637-bf11-4fc7-b406-ee12a0f4be21","system_id":"levelo_inurba_marseille","lat":43.28663,"lon":5.36351,"is_reserved":false,"is_disabled":false,"rental_uris":{"android":"levelo://app?vid=af81d637-bf11-4fc7-b406-ee12a0f4be21","ios":"levelo://app?vid=af81d637-bf11-4fc7-b406-ee12a0f4be21"},"vehicle_type_id":"4","last_reported":1738786231,"current_range_meters":38800,"station_id":"ce4bhah2rcd13ifvqej0","pricing_plan_id":"cebpf4jnsgd1na2vs0mg"},{"bike_id":"2d0ce14b-f753-4ba9-809d-0a2503692788","system_id":"levelo_inurba_marseille","lat":43.27048,"lon":5.40262,"is_reserved":false,"is_disabled":false,"rental_uris":{"android":"levelo://app?vid=2d0ce14b-f753-4ba9-809d-0a2503692788","ios":"levelo://app?vid=2d0ce14b-f753-4ba9-809d-0a2503692788"},"vehicle_type_id":"4","last_reported":1738786231,"current_range_meters":15200,"station_id":"ce4bhk92rcd13ifvqgc0","pricing_plan_id":"cebpf4jnsgd1na2vs0mg"},{"bike_id":"85506d97-0f87-4df9-ad07-8dd2dedad0b3","system_id":"levelo_inurba_marseille","lat":43.27213,"lon":5.39189,"is_reserved":false,"is_disabled":true,"rental_uris":{"android":"levelo://app?vid=85506d97-0f87-4df9-ad07-8dd2dedad0b3","ios":"levelo://app?vid=85506d97-0f87-4df9-ad07-8dd2dedad0b3"},"vehicle_type_id":"4","last_reported":1738786231,"current_range_meters":36400,"station_id":"ce4bhhp2rcd13ifvqfm0","pricing_plan_id":"cebpf4jnsgd1na2vs0mg"},{"bike_id":"a1a7079b-68b5-45ca-9af8-b6bc9f7cd559","system_id":"levelo_inurba_marseille","lat":43.22919,"lon":5.35373,"is_reserved":false,"is_disabled":false,"rental_uris":{"android":"levelo://app?vid=a1a7079b-68b5-45ca-9af8-b6bc9f7cd559","ios":"levelo://app?vid=a1a7079b-68b5-45ca-9af8-b6bc9f7cd559"},"vehicle_type_id":"4","last_reported":1738786231,"current_range_meters":38800,"station_id":"cpo3532slgdg3j2ikp40","pricing_plan_id":"cebpf4jnsgd1na2vs0mg"},{"bike_id":"e76be20c-9015-465c-9eee-e0b85ab2de66","system_id":"levelo_inurba_marseille","lat":43.30293,"lon":5.39197,"is_reserved":false,"is_disabled":false,"rental_uris":{"android":"levelo://app?vid=e76be20c-9015-465c-9eee-e0b85ab2de66","ios":"levelo://app?vid=e76be20c-9015-465c-9eee-e0b85ab2de66"},"vehicle_type_id":"4","last_reported":1738786231,"current_range_meters":38800,"station_id":"ce4bgkh2rcd13ifvqbk0","pricing_plan_id":"cebpf4jnsgd1na2vs0mg"},{"bike_id":"b2660fa8-4e11-4fe9-a0db-a5dbdd15312e","system_id":"levelo_inurba_marseille","lat":43.24386,"lon":5.37057,"is_reserved":false,"is_disabled":false,"rental_uris":{"android":"levelo://app?vid=b2660fa8-4e11-4fe9-a0db-a5dbdd15312e","ios":"levelo://app?vid=b2660fa8-4e11-4fe9-a0db-a5dbdd15312e"},"vehicle_type_id":"4","last_reported":1738786231,"current_range_meters":8000,"station_id":"ce4bhhh2rcd13ifvqfk0","pricing_plan_id":"cebpf4jnsgd1na2vs0mg"},{"bike_id":"b5a42769-cb7c-4f74-b744-34ef9279a48b","system_id":"levelo_inurba_marseille","lat":43.24813,"lon":5.37451,"is_reserved":false,"is_disabled":false,"rental_uris":{"android":"levelo://app?vid=b5a42769-cb7c-4f74-b744-34ef9279a48b","ios":"levelo://app?vid=b5a42769-cb7c-4f74-b744-34ef9279a48b"},"vehicle_type_id":"4","last_reported":1738786231,"current_range_meters":16000,"station_id":"ce4bhgh2rcd13ifvqfb0","pricing_plan_id":"cebpf4jnsgd1na2vs0mg"},{"bike_id":"9bed730f-1adf-4444-a5ac-fa2d282ef048","system_id":"levelo_inurba_marseille","lat":43.30782,"lon":5.43533,"is_reserved":false,"is_disabled":false,"rental_uris":{"android":"levelo://app?vid=9bed730f-1adf-4444-a5ac-fa2d282ef048","ios":"levelo://app?vid=9bed730f-1adf-4444-a5ac-fa2d282ef048"},"vehicle_type_id":"4","last_reported":1738786231,"current_range_meters":7200,"station_id":"ce4bhph2rcd13ifvqheg","pricing_plan_id":"cebpf4jnsgd1na2vs0mg"},{"bike_id":"90c4c78b-e4a7-4853-a5ee-228a6bb5a7ce","system_id":"levelo_inurba_marseille","lat":43.29035,"lon":5.37562,"is_reserved":false,"is_disabled":true,"rental_uris":{"android":"levelo://app?vid=90c4c78b-e4a7-4853-a5ee-228a6bb5a7ce","ios":"levelo://app?vid=90c4c78b-e4a7-4853-a5ee-228a6bb5a7ce"},"vehicle_type_id":"4","last_reported":1738786231,"current_range_meters":36000,"station_id":"ce4bh692rcd13ifvqe90","pricing_plan_id":"cebpf4jnsgd1na2vs0mg"},{"bike_id":"971bdfb5-8ca1-433f-aab2-09be2e9f69d1","system_id":"levelo_inurba_marseille","lat":43.29559,"lon":5.4229,"is_reserved":false,"is_disabled":false,"rental_uris":{"android":"levelo://app?vid=971bdfb5-8ca1-433f-aab2-09be2e9f69d1","ios":"levelo://app?vid=971bdfb5-8ca1-433f-aab2-09be2e9f69d1"},"vehicle_type_id":"4","last_reported":1738786231,"current_range_meters":38800,"station_id":"ce4bhph2rcd13ifvqhdg","pricing_plan_id":"cebpf4jnsgd1na2vs0mg"},{"bike_id":"f423adf0-93aa-4c47-9d8a-b1e2e7e85005","system_id":"levelo_inurba_marseille","lat":43.28419,"lon":5.34989,"is_reserved":false,"is_disabled":true,"rental_uris":{"android":"levelo://app?vid=f423adf0-93aa-4c47-9d8a-b1e2e7e85005","ios":"levelo://app?vid=f423adf0-93aa-4c47-9d8a-b1e2e7e85005"},"vehicle_type_id":"4","last_reported":1738786231,"current_range_meters":9600,"station_id":"ce4bhbh2rcd13ifvqepg","pricing_plan_id":"cebpf4jnsgd1na2vs0mg"},{"bike_id":"770db6e9-cd74-4bd2-9d00-237aaff5d805","system_id":"levelo_inurba_marseille","lat":43.3116,"lon":5.38717,"is_reserved":false,"is_disabled":false,"rental_uris":{"android":"levelo://app?vid=770db6e9-cd74-4bd2-9d00-237aaff5d805","ios":"levelo://app?vid=770db6e9-cd74-4bd2-9d00-237aaff5d805"},"vehicle_type_id":"4","last_reported":1738786231,"current_range_meters":20400,"station_id":"ce4bgv12rcd13ifvqcp0","pricing_plan_id":"cebpf4jnsgd1na2vs0mg"},{"bike_id":"28e814d5-4407-4077-a3f3-b04d77aefc7f","system_id":"levelo_inurba_marseille","lat":43.28621,"lon":5.35098,"is_reserved":false,"is_disabled":false,"rental_uris":{"android":"levelo://app?vid=28e814d5-4407-4077-a3f3-b04d77aefc7f","ios":"levelo://app?vid=28e814d5-4407-4077-a3f3-b04d77aefc7f"},"vehicle_type_id":"4","last_reported":1738786231,"current_range_meters":15200,"station_id":"ce4bhch2rcd13ifvqeug","pricing_plan_id":"cebpf4jnsgd1na2vs0mg"},{"bike_id":"92cb1359-6ba2-4a7e-87ab-429c4cdcfede","system_id":"levelo_inurba_marseille","lat":43.2953,"lon":5.3903,"is_reserved":false,"is_disabled":false,"rental_uris":{"android":"levelo://app?vid=92cb1359-6ba2-4a7e-87ab-429c4cdcfede","ios":"levelo://app?vid=92cb1359-6ba2-4a7e-87ab-429c4cdcfede"},"vehicle_type_id":"4","last_reported":1738786231,"current_range_meters":34800,"station_id":"ce4bh3p2rcd13ifvqdp0","pricing_plan_id":"cebpf4jnsgd1na2vs0mg"},{"bike_id":"0e28d866-e509-43b0-8b1e-0fd6790842dc","system_id":"levelo_inurba_marseille","lat":43.29727,"lon":5.36622,"is_reserved":false,"is_disabled":true,"rental_uris":{"android":"levelo://app?vid=0e28d866-e509-43b0-8b1e-0fd6790842dc","ios":"levelo://app?vid=0e28d866-e509-43b0-8b1e-0fd6790842dc"},"vehicle_type_id":"4","last_reported":1738786231,"current_range_meters":0,"station_id":"ce4bgn12rcd13ifvqbt0","pricing_plan_id":"cebpf4jnsgd1na2vs0mg"},{"bike_id":"fc5e7914-d569-4a06-83ba-595cdcc60603","system_id":"levelo_inurba_marseille","lat":43.30292,"lon":5.39198,"is_reserved":false,"is_disabled":false,"rental_uris":{"android":"levelo://app?vid=fc5e7914-d569-4a06-83ba-595cdcc60603","ios":"levelo://app?vid=fc5e7914-d569-4a06-83ba-595cdcc60603"},"vehicle_type_id":"4","last_reported":1738786231,"current_range_meters":29600,"station_id":"ce4bgkh2rcd13ifvqbk0","pricing_plan_id":"cebpf4jnsgd1na2vs0mg"},{"bike_id":"22d7d5c8-23b1-4a29-9d97-2595194d451f","system_id":"levelo_inurba_marseille","lat":43.2811,"lon":5.37874,"is_reserved":false,"is_disabled":false,"rental_uris":{"android":"levelo://app?vid=22d7d5c8-23b1-4a29-9d97-2595194d451f","ios":"levelo://app?vid=22d7d5c8-23b1-4a29-9d97-2595194d451f"},"vehicle_type_id":"4","last_reported":1738786231,"current_range_meters":39200,"station_id":"ce4bha12rcd13ifvqee0","pricing_plan_id":"cebpf4jnsgd1na2vs0mg"},{"bike_id":"6bba36c7-75a6-4b1b-96cb-c03d219a6faa","system_id":"levelo_inurba_marseille","lat":43.33033,"lon":5.39038,"is_reserved":false,"is_disabled":false,"rental_uris":{"android":"levelo://app?vid=6bba36c7-75a6-4b1b-96cb-c03d219a6faa","ios":"levelo://app?vid=6bba36c7-75a6-4b1b-96cb-c03d219a6faa"},"vehicle_type_id":"4","last_reported":1738786231,"current_range_meters":36400,"station_id":"ce4bhr92rcd13ifvqhrg","pricing_plan_id":"cebpf4jnsgd1na2vs0mg"},{"bike_id":"1af63a99-36b1-4f29-8c78-2e71539c52b6","system_id":"levelo_inurba_marseille","lat":43.28137,"lon":5.37831,"is_reserved":false,"is_disabled":false,"rental_uris":{"android":"levelo://app?vid=1af63a99-36b1-4f29-8c78-2e71539c52b6","ios":"levelo://app?vid=1af63a99-36b1-4f29-8c78-2e71539c52b6"},"vehicle_type_id":"4","last_reported":1738786231,"current_range_meters":35600,"station_id":"ce4bha12rcd13ifvqee0","pricing_plan_id":"cebpf4jnsgd1na2vs0mg"},{"bike_id":"c90bee22-93e6-4769-a402-7c2dd626c38f","system_id":"levelo_inurba_marseille","lat":43.27627,"lon":5.36105,"is_reserved":false,"is_disabled":false,"rental_uris":{"android":"levelo://app?vid=c90bee22-93e6-4769-a402-7c2dd626c38f","ios":"levelo://app?vid=c90bee22-93e6-4769-a402-7c2dd626c38f"},"vehicle_type_id":"4","last_reported":1738786231,"current_range_meters":36800,"station_id":"ce4bgj92rcd13ifvqbe0","pricing_plan_id":"cebpf4jnsgd1na2vs0mg"},{"bike_id":"56ec3037-73f2-4dea-95b9-0161b73a13cd","system_id":"levelo_inurba_marseille","lat":43.28151,"lon":5.42645,"is_reserved":false,"is_disabled":false,"rental_uris":{"android":"levelo://app?vid=56ec3037-73f2-4dea-95b9-0161b73a13cd","ios":"levelo://app?vid=56ec3037-73f2-4dea-95b9-0161b73a13cd"},"vehicle_type_id":"4","last_reported":1738786231,"current_range_meters":16400,"station_id":"ce4bhnh2rcd13ifvqgug","pricing_plan_id":"cebpf4jnsgd1na2vs0mg"},{"bike_id":"865da38e-7662-4cd0-8259-ddab14436918","system_id":"levelo_inurba_marseille","lat":43.28434,"lon":5.39178,"is_reserved":false,"is_disabled":false,"rental_uris":{"android":"levelo://app?vid=865da38e-7662-4cd0-8259-ddab14436918","ios":"levelo://app?vid=865da38e-7662-4cd0-8259-ddab14436918"},"vehicle_type_id":"4","last_reported":1738786231,"current_range_meters":38800,"station_id":"ce4bhoh2rcd13ifvqh5g","pricing_plan_id":"cebpf4jnsgd1na2vs0mg"},{"bike_id":"934d774b-675f-4d9b-9eed-3a29b86466f7","system_id":"levelo_inurba_marseille","lat":43.2894,"lon":5.3662,"is_reserved":false,"is_disabled":false,"rental_uris":{"android":"levelo://app?vid=934d774b-675f-4d9b-9eed-3a29b86466f7","ios":"levelo://app?vid=934d774b-675f-4d9b-9eed-3a29b86466f7"},"vehicle_type_id":"4","last_reported":1738786231,"current_range_meters":35600,"station_id":"ce4bhap2rcd13ifvqek0","pricing_plan_id":"cebpf4jnsgd1na2vs0mg"},{"bike_id":"585829b3-6401-45a0-8835-1ef0bbd3a57c","system_id":"levelo_inurba_marseille","lat":43.28151,"lon":5.42648,"is_reserved":false,"is_disabled":false,"rental_uris":{"android":"levelo://app?vid=585829b3-6401-45a0-8835-1ef0bbd3a57c","ios":"levelo://app?vid=585829b3-6401-45a0-8835-1ef0bbd3a57c"},"vehicle_type_id":"4","last_reported":1738786231,"current_range_meters":27600,"station_id":"ce4bhnh2rcd13ifvqgug","pricing_plan_id":"cebpf4jnsgd1na2vs0mg"},{"bike_id":"fd64b753-eef1-468f-806d-d5d7989309bf","system_id":"levelo_inurba_marseille","lat":43.30324,"lon":5.40437,"is_reserved":false,"is_disabled":false,"rental_uris":{"android":"levelo://app?vid=fd64b753-eef1-468f-806d-d5d7989309bf","ios":"levelo://app?vid=fd64b753-eef1-468f-806d-d5d7989309bf"},"vehicle_type_id":"4","last_reported":1738786231,"current_range_meters":38800,"station_id":"ce4bh012rcd13ifvqd10","pricing_plan_id":"cebpf4jnsgd1na2vs0mg"},{"bike_id":"4a71a176-eb41-4410-abfa-fed6dcd64cff","system_id":"levelo_inurba_marseille","lat":43.31178,"lon":5.3871,"is_reserved":false,"is_disabled":false,"rental_uris":{"android":"levelo://app?vid=4a71a176-eb41-4410-abfa-fed6dcd64cff","ios":"levelo://app?vid=4a71a176-eb41-4410-abfa-fed6dcd64cff"},"vehicle_type_id":"4","last_reported":1738786231,"current_range_meters":27600,"station_id":"ce4bgv12rcd13ifvqcp0","pricing_plan_id":"cebpf4jnsgd1na2vs0mg"},{"bike_id":"2cd60774-c2f8-4e8f-9236-a6b0c03a1062","system_id":"levelo_inurba_marseille","lat":43.28083,"lon":5.39663,"is_reserved":false,"is_disabled":false,"rental_uris":{"android":"levelo://app?vid=2cd60774-c2f8-4e8f-9236-a6b0c03a1062","ios":"levelo://app?vid=2cd60774-c2f8-4e8f-9236-a6b0c03a1062"},"vehicle_type_id":"4","last_reported":1738786231,"current_range_meters":12000,"station_id":"ce4bho12rcd13ifvqh2g","pricing_plan_id":"cebpf4jnsgd1na2vs0mg"},{"bike_id":"26224e4b-c230-413d-a160-7493a0237940","system_id":"levelo_inurba_marseille","lat":43.29426,"lon":5.38613,"is_reserved":false,"is_disabled":false,"rental_uris":{"android":"levelo://app?vid=26224e4b-c230-413d-a160-7493a0237940","ios":"levelo://app?vid=26224e4b-c230-413d-a160-7493a0237940"},"vehicle_type_id":"4","last_reported":1738786231,"current_range_meters":28400,"station_id":"ce4bh2h2rcd13ifvqdh0","pricing_plan_id":"cebpf4jnsgd1na2vs0mg"},{"bike_id":"058abc28-aed9-4267-8fdd-7b7ed8597e26","system_id":"levelo_inurba_marseille","lat":43.28919,"lon":5.38393,"is_reserved":false,"is_disabled":false,"rental_uris":{"android":"levelo://app?vid=058abc28-aed9-4267-8fdd-7b7ed8597e26","ios":"levelo://app?vid=058abc28-aed9-4267-8fdd-7b7ed8597e26"},"vehicle_type_id":"4","last_reported":1738786231,"current_range_meters":11200,"station_id":"ce4bh612rcd13ifvqe6g","pricing_plan_id":"cebpf4jnsgd1na2vs0mg"},{"bike_id":"c67d8e59-7626-453e-9b14-a4daf41b2b5f","system_id":"levelo_inurba_marseille","lat":43.28564,"lon":5.3949,"is_reserved":false,"is_disabled":false,"rental_uris":{"android":"levelo://app?vid=c67d8e59-7626-453e-9b14-a4daf41b2b5f","ios":"levelo://app?vid=c67d8e59-7626-453e-9b14-a4daf41b2b5f"},"vehicle_type_id":"4","last_reported":1738786231,"current_range_meters":25200,"station_id":"ce4bh292rcd13ifvqdg0","pricing_plan_id":"cebpf4jnsgd1na2vs0mg"},{"bike_id":"6712f04b-f35d-4e3a-a70d-c89aec85d9b2","system_id":"levelo_inurba_marseille","lat":43.22934,"lon":5.35385,"is_reserved":false,"is_disabled":false,"rental_uris":{"android":"levelo://app?vid=6712f04b-f35d-4e3a-a70d-c89aec85d9b2","ios":"levelo://app?vid=6712f04b-f35d-4e3a-a70d-c89aec85d9b2"},"vehicle_type_id":"4","last_reported":1738786231,"current_range_meters":38800,"station_id":"cpo3532slgdg3j2ikp40","pricing_plan_id":"cebpf4jnsgd1na2vs0mg"},{"bike_id":"9470dd73-7393-47ca-8f05-fd76cdac2879","system_id":"levelo_inurba_marseille","lat":43.24075,"lon":5.37764,"is_reserved":false,"is_disabled":false,"rental_uris":{"android":"levelo://app?vid=9470dd73-7393-47ca-8f05-fd76cdac2879","ios":"levelo://app?vid=9470dd73-7393-47ca-8f05-fd76cdac2879"},"vehicle_type_id":"4","last_reported":1738786231,"current_range_meters":38800,"station_id":"ce4bhnp2rcd13ifvqgvg","pricing_plan_id":"cebpf4jnsgd1na2vs0mg"},{"bike_id":"c8193f61-b798-45ec-afd5-ed0015f66360","system_id":"levelo_inurba_marseille","lat":43.2951,"lon":5.39031,"is_reserved":false,"is_disabled":false,"rental_uris":{"android":"levelo://app?vid=c8193f61-b798-45ec-afd5-ed0015f66360","ios":"levelo://app?vid=c8193f61-b798-45ec-afd5-ed0015f66360"},"vehicle_type_id":"4","last_reported":1738786231,"current_range_meters":36400,"station_id":"ce4bh3p2rcd13ifvqdp0","pricing_plan_id":"cebpf4jnsgd1na2vs0mg"},{"bike_id":"cb2e142b-8956-4e08-816f-7dc7ab66ecae","system_id":"levelo_inurba_marseille","lat":43.31711,"lon":5.3776,"is_reserved":false,"is_disabled":false,"rental_uris":{"android":"levelo://app?vid=cb2e142b-8956-4e08-816f-7dc7ab66ecae","ios":"levelo://app?vid=cb2e142b-8956-4e08-816f-7dc7ab66ecae"},"vehicle_type_id":"4","last_reported":1738786231,"current_range_meters":38800,"station_id":"ce4bgth2rcd13ifvqch0","pricing_plan_id":"cebpf4jnsgd1na2vs0mg"},{"bike_id":"2c0e26dd-9e66-407f-9384-efd866399aa3","system_id":"levelo_inurba_marseille","lat":43.29176,"lon":5.3715,"is_reserved":false,"is_disabled":true,"rental_uris":{"android":"levelo://app?vid=2c0e26dd-9e66-407f-9384-efd866399aa3","ios":"levelo://app?vid=2c0e26dd-9e66-407f-9384-efd866399aa3"},"vehicle_type_id":"4","last_reported":1738786231,"current_range_meters":38800,"station_id":"ce4bha92rcd13ifvqeh0","pricing_plan_id":"cebpf4jnsgd1na2vs0mg"},{"bike_id":"73fce39a-9295-4170-b814-54a116608c46","system_id":"levelo_inurba_marseille","lat":43.31897,"lon":5.4073,"is_reserved":false,"is_disabled":false,"rental_uris":{"android":"levelo://app?vid=73fce39a-9295-4170-b814-54a116608c46","ios":"levelo://app?vid=73fce39a-9295-4170-b814-54a116608c46"},"vehicle_type_id":"4","last_reported":1738786231,"current_range_meters":39200,"station_id":"ce4bhq12rcd13ifvqhig","pricing_plan_id":"cebpf4jnsgd1na2vs0mg"},{"bike_id":"550632c2-98e7-4c6c-9264-fead842f4f50","system_id":"levelo_inurba_marseille","lat":43.29227,"lon":5.3607,"is_reserved":false,"is_disabled":false,"rental_uris":{"android":"levelo://app?vid=550632c2-98e7-4c6c-9264-fead842f4f50","ios":"levelo://app?vid=550632c2-98e7-4c6c-9264-fead842f4f50"},"vehicle_type_id":"4","last_reported":1738786231,"current_range_meters":38000,"station_id":"ce4bhbh2rcd13ifvqeqg","pricing_plan_id":"cebpf4jnsgd1na2vs0mg"},{"bike_id":"7916a023-f95f-47e5-90bf-3795d3dd92b0","system_id":"levelo_inurba_marseille","lat":43.29936,"lon":5.36533,"is_reserved":false,"is_disabled":false,"rental_uris":{"android":"levelo://app?vid=7916a023-f95f-47e5-90bf-3795d3dd92b0","ios":"levelo://app?vid=7916a023-f95f-47e5-90bf-3795d3dd92b0"},"vehicle_type_id":"4","last_reported":1738786231,"current_range_meters":25200,"station_id":"ce4bgm92rcd13ifvqbr0","pricing_plan_id":"cebpf4jnsgd1na2vs0mg"},{"bike_id":"d2883f5c-c74b-4794-a67e-fcb675612689","system_id":"levelo_inurba_marseille","lat":43.29878,"lon":5.39733,"is_reserved":false,"is_disabled":false,"rental_uris":{"android":"levelo://app?vid=d2883f5c-c74b-4794-a67e-fcb675612689","ios":"levelo://app?vid=d2883f5c-c74b-4794-a67e-fcb675612689"},"vehicle_type_id":"4","last_reported":1738786231,"current_range_meters":37600,"station_id":"ce4bh0h2rcd13ifvqd50","pricing_plan_id":"cebpf4jnsgd1na2vs0mg"},{"bike_id":"96283d00-ede9-46ed-a906-e47bd3a98cc9","system_id":"levelo_inurba_marseille","lat":43.27989,"lon":5.394895,"is_reserved":false,"is_disabled":false,"rental_uris":{"android":"levelo://app?vid=96283d00-ede9-46ed-a906-e47bd3a98cc9","ios":"levelo://app?vid=96283d00-ede9-46ed-a906-e47bd3a98cc9"},"vehicle_type_id":"4","last_reported":1738786231,"current_range_meters":35600,"station_id":"ce4bhf92rcd13ifvqf40","pricing_plan_id":"cebpf4jnsgd1na2vs0mg"},{"bike_id":"ab4084f7-75d2-4018-a72a-0226a6e59f79","system_id":"levelo_inurba_marseille","lat":43.27051,"lon":5.40261,"is_reserved":false,"is_disabled":false,"rental_uris":{"android":"levelo://app?vid=ab4084f7-75d2-4018-a72a-0226a6e59f79","ios":"levelo://app?vid=ab4084f7-75d2-4018-a72a-0226a6e59f79"},"vehicle_type_id":"4","last_reported":1738786231,"current_range_meters":27200,"station_id":"ce4bhk92rcd13ifvqgc0","pricing_plan_id":"cebpf4jnsgd1na2vs0mg"},{"bike_id":"6fa58392-3c6e-405d-9a0d-8612c55d9e3f","system_id":"levelo_inurba_marseille","lat":43.2927,"lon":5.38456,"is_reserved":false,"is_disabled":false,"rental_uris":{"android":"levelo://app?vid=6fa58392-3c6e-405d-9a0d-8612c55d9e3f","ios":"levelo://app?vid=6fa58392-3c6e-405d-9a0d-8612c55d9e3f"},"vehicle_type_id":"4","last_reported":1738786231,"current_range_meters":38800,"station_id":"ce4bh692rcd13ifvqea0","pricing_plan_id":"cebpf4jnsgd1na2vs0mg"},{"bike_id":"091d41d7-c1d3-4cdf-9b5c-052439e6b669","system_id":"levelo_inurba_marseille","lat":43.30525,"lon":5.36693,"is_reserved":false,"is_disabled":true,"rental_uris":{"android":"levelo://app?vid=091d41d7-c1d3-4cdf-9b5c-052439e6b669","ios":"levelo://app?vid=091d41d7-c1d3-4cdf-9b5c-052439e6b669"},"vehicle_type_id":"4","last_reported":1738786231,"current_range_meters":25600,"station_id":"ce4bgrp2rcd13ifvqc9g","pricing_plan_id":"cebpf4jnsgd1na2vs0mg"},{"bike_id":"205283b2-a0b9-4a6f-b278-0f0a01187f2c","system_id":"levelo_inurba_marseille","lat":43.30883,"lon":5.39629,"is_reserved":false,"is_disabled":false,"rental_uris":{"android":"levelo://app?vid=205283b2-a0b9-4a6f-b278-0f0a01187f2c","ios":"levelo://app?vid=205283b2-a0b9-4a6f-b278-0f0a01187f2c"},"vehicle_type_id":"4","last_reported":1738786231,"current_range_meters":4800,"station_id":"ce4bh012rcd13ifvqcv0","pricing_plan_id":"cebpf4jnsgd1na2vs0mg"},{"bike_id":"44dde5cf-c2f0-4ca3-a927-e2c7152ee089","system_id":"levelo_inurba_marseille","lat":43.27813,"lon":5.40721,"is_reserved":false,"is_disabled":false,"rental_uris":{"android":"levelo://app?vid=44dde5cf-c2f0-4ca3-a927-e2c7152ee089","ios":"levelo://app?vid=44dde5cf-c2f0-4ca3-a927-e2c7152ee089"},"vehicle_type_id":"4","last_reported":1738786231,"current_range_meters":39200,"station_id":"ce4bhnh2rcd13ifvqgtg","pricing_plan_id":"cebpf4jnsgd1na2vs0mg"},{"bike_id":"015782d1-9091-4e98-bdb6-e10f48d06bd0","system_id":"levelo_inurba_marseille","lat":43.29527,"lon":5.39039,"is_reserved":false,"is_disabled":false,"rental_uris":{"android":"levelo://app?vid=015782d1-9091-4e98-bdb6-e10f48d06bd0","ios":"levelo://app?vid=015782d1-9091-4e98-bdb6-e10f48d06bd0"},"vehicle_type_id":"4","last_reported":1738786231,"current_range_meters":35200,"station_id":"ce4bh3p2rcd13ifvqdp0","pricing_plan_id":"cebpf4jnsgd1na2vs0mg"},{"bike_id":"a6b2428a-7d23-4892-a3bf-86cc25978b7a","system_id":"levelo_inurba_marseille","lat":43.25497,"lon":5.37664,"is_reserved":false,"is_disabled":true,"rental_uris":{"android":"levelo://app?vid=a6b2428a-7d23-4892-a3bf-86cc25978b7a","ios":"levelo://app?vid=a6b2428a-7d23-4892-a3bf-86cc25978b7a"},"vehicle_type_id":"4","last_reported":1738786231,"current_range_meters":25200,"station_id":"ce4bhh12rcd13ifvqff0","pricing_plan_id":"cebpf4jnsgd1na2vs0mg"},{"bike_id":"8f55a9a2-e3bf-4734-b1cd-752d8460ce0f","system_id":"levelo_inurba_marseille","lat":43.29523,"lon":5.39409,"is_reserved":false,"is_disabled":false,"rental_uris":{"android":"levelo://app?vid=8f55a9a2-e3bf-4734-b1cd-752d8460ce0f","ios":"levelo://app?vid=8f55a9a2-e3bf-4734-b1cd-752d8460ce0f"},"vehicle_type_id":"4","last_reported":1738786231,"current_range_meters":38800,"station_id":"ce4bh292rcd13ifvqdf0","pricing_plan_id":"cebpf4jnsgd1na2vs0mg"},{"bike_id":"bdd0a34b-09ac-4305-8ddb-b9b97b92eba0","system_id":"levelo_inurba_marseille","lat":43.29994,"lon":5.37174,"is_reserved":false,"is_disabled":false,"rental_uris":{"android":"levelo://app?vid=bdd0a34b-09ac-4305-8ddb-b9b97b92eba0","ios":"levelo://app?vid=bdd0a34b-09ac-4305-8ddb-b9b97b92eba0"},"vehicle_type_id":"4","last_reported":1738786231,"current_range_meters":35200,"station_id":"ce4bgr92rcd13ifvqc7g","pricing_plan_id":"cebpf4jnsgd1na2vs0mg"},{"bike_id":"8dfcc3bb-fd66-46ab-888d-bac268b93ab6","system_id":"levelo_inurba_marseille","lat":43.26944,"lon":5.4025,"is_reserved":false,"is_disabled":false,"rental_uris":{"android":"levelo://app?vid=8dfcc3bb-fd66-46ab-888d-bac268b93ab6","ios":"levelo://app?vid=8dfcc3bb-fd66-46ab-888d-bac268b93ab6"},"vehicle_type_id":"4","last_reported":1738786231,"current_range_meters":39200,"station_id":"cjm6bp8fraef2m0cb0m0","pricing_plan_id":"cebpf4jnsgd1na2vs0mg"},{"bike_id":"c85a26e1-f53e-4ec1-b1ea-8b32d23f1f4d","system_id":"levelo_inurba_marseille","lat":43.23057,"lon":5.35502,"is_reserved":false,"is_disabled":false,"rental_uris":{"android":"levelo://app?vid=c85a26e1-f53e-4ec1-b1ea-8b32d23f1f4d","ios":"levelo://app?vid=c85a26e1-f53e-4ec1-b1ea-8b32d23f1f4d"},"vehicle_type_id":"4","last_reported":1738786231,"current_range_meters":20800,"station_id":"cpo3342slgdg3j2ifvpg","pricing_plan_id":"cebpf4jnsgd1na2vs0mg"},{"bike_id":"1368b82d-e5b6-4c03-95ce-b6cc44f0d8ef","system_id":"levelo_inurba_marseille","lat":43.28032,"lon":5.36942,"is_reserved":false,"is_disabled":false,"rental_uris":{"android":"levelo://app?vid=1368b82d-e5b6-4c03-95ce-b6cc44f0d8ef","ios":"levelo://app?vid=1368b82d-e5b6-4c03-95ce-b6cc44f0d8ef"},"vehicle_type_id":"4","last_reported":1738786231,"current_range_meters":39200,"station_id":"ce4bha12rcd13ifvqef0","pricing_plan_id":"cebpf4jnsgd1na2vs0mg"},{"bike_id":"68b2c66c-f566-47c6-83ba-ec30dc2cf83f","system_id":"levelo_inurba_marseille","lat":43.30298,"lon":5.39194,"is_reserved":false,"is_disabled":false,"rental_uris":{"android":"levelo://app?vid=68b2c66c-f566-47c6-83ba-ec30dc2cf83f","ios":"levelo://app?vid=68b2c66c-f566-47c6-83ba-ec30dc2cf83f"},"vehicle_type_id":"4","last_reported":1738786231,"current_range_meters":25200,"station_id":"ce4bgkh2rcd13ifvqbk0","pricing_plan_id":"cebpf4jnsgd1na2vs0mg"},{"bike_id":"11830a47-80ed-48b2-84f4-89fd50ec577f","system_id":"levelo_inurba_marseille","lat":43.29521,"lon":5.39037,"is_reserved":false,"is_disabled":false,"rental_uris":{"android":"levelo://app?vid=11830a47-80ed-48b2-84f4-89fd50ec577f","ios":"levelo://app?vid=11830a47-80ed-48b2-84f4-89fd50ec577f"},"vehicle_type_id":"4","last_reported":1738786231,"current_range_meters":37600,"station_id":"ce4bh3p2rcd13ifvqdp0","pricing_plan_id":"cebpf4jnsgd1na2vs0mg"},{"bike_id":"18346df9-43f2-4a93-8925-96a12828428d","system_id":"levelo_inurba_marseille","lat":43.29527,"lon":5.39392,"is_reserved":false,"is_disabled":false,"rental_uris":{"android":"levelo://app?vid=18346df9-43f2-4a93-8925-96a12828428d","ios":"levelo://app?vid=18346df9-43f2-4a93-8925-96a12828428d"},"vehicle_type_id":"4","last_reported":1738786231,"current_range_meters":22800,"station_id":"ce4bh292rcd13ifvqdf0","pricing_plan_id":"cebpf4jnsgd1na2vs0mg"},{"bike_id":"d514230b-01d1-4e6e-b07b-dd83ae518c95","system_id":"levelo_inurba_marseille","lat":43.25087,"lon":5.39532,"is_reserved":false,"is_disabled":false,"rental_uris":{"android":"levelo://app?vid=d514230b-01d1-4e6e-b07b-dd83ae518c95","ios":"levelo://app?vid=d514230b-01d1-4e6e-b07b-dd83ae518c95"},"vehicle_type_id":"4","last_reported":1738786231,"current_range_meters":39200,"station_id":"ce4bhm12rcd13ifvqgkg","pricing_plan_id":"cebpf4jnsgd1na2vs0mg"},{"bike_id":"9c207c45-ddb2-4217-8d34-079a5658cd14","system_id":"levelo_inurba_marseille","lat":43.32288,"lon":5.38253,"is_reserved":false,"is_disabled":false,"rental_uris":{"android":"levelo://app?vid=9c207c45-ddb2-4217-8d34-079a5658cd14","ios":"levelo://app?vid=9c207c45-ddb2-4217-8d34-079a5658cd14"},"vehicle_type_id":"4","last_reported":1738786231,"current_range_meters":37600,"station_id":"ce4bhr12rcd13ifvqhqg","pricing_plan_id":"cebpf4jnsgd1na2vs0mg"},{"bike_id":"ec082224-142e-47c9-9eb8-e6d8a202641a","system_id":"levelo_inurba_marseille","lat":43.29305,"lon":5.37467,"is_reserved":false,"is_disabled":false,"rental_uris":{"android":"levelo://app?vid=ec082224-142e-47c9-9eb8-e6d8a202641a","ios":"levelo://app?vid=ec082224-142e-47c9-9eb8-e6d8a202641a"},"vehicle_type_id":"4","last_reported":1738786231,"current_range_meters":38000,"station_id":"ce4bgi12rcd13ifvqb70","pricing_plan_id":"cebpf4jnsgd1na2vs0mg"},{"bike_id":"96f78f37-05c0-4d07-b65a-c3cd938781d7","system_id":"levelo_inurba_marseille","lat":43.29264,"lon":5.38442,"is_reserved":false,"is_disabled":false,"rental_uris":{"android":"levelo://app?vid=96f78f37-05c0-4d07-b65a-c3cd938781d7","ios":"levelo://app?vid=96f78f37-05c0-4d07-b65a-c3cd938781d7"},"vehicle_type_id":"4","last_reported":1738786231,"current_range_meters":4000,"station_id":"ce4bh692rcd13ifvqea0","pricing_plan_id":"cebpf4jnsgd1na2vs0mg"},{"bike_id":"d8233d8b-1a5f-4807-bf45-6a2149d5960a","system_id":"levelo_inurba_marseille","lat":43.31162,"lon":5.38722,"is_reserved":false,"is_disabled":false,"rental_uris":{"android":"levelo://app?vid=d8233d8b-1a5f-4807-bf45-6a2149d5960a","ios":"levelo://app?vid=d8233d8b-1a5f-4807-bf45-6a2149d5960a"},"vehicle_type_id":"4","last_reported":1738786231,"current_range_meters":28000,"station_id":"ce4bgv12rcd13ifvqcp0","pricing_plan_id":"cebpf4jnsgd1na2vs0mg"},{"bike_id":"b87f95f4-86fe-47a7-9cc8-d43d290df340","system_id":"levelo_inurba_marseille","lat":43.32282,"lon":5.38277,"is_reserved":false,"is_disabled":false,"rental_uris":{"android":"levelo://app?vid=b87f95f4-86fe-47a7-9cc8-d43d290df340","ios":"levelo://app?vid=b87f95f4-86fe-47a7-9cc8-d43d290df340"},"vehicle_type_id":"4","last_reported":1738786231,"current_range_meters":38400,"station_id":"ce4bhr12rcd13ifvqhqg","pricing_plan_id":"cebpf4jnsgd1na2vs0mg"},{"bike_id":"d7d54da1-3dec-42c8-991b-c16bccc0ac6f","system_id":"levelo_inurba_marseille","lat":43.29277,"lon":5.36847,"is_reserved":false,"is_disabled":false,"rental_uris":{"android":"levelo://app?vid=d7d54da1-3dec-42c8-991b-c16bccc0ac6f","ios":"levelo://app?vid=d7d54da1-3dec-42c8-991b-c16bccc0ac6f"},"vehicle_type_id":"4","last_reported":1738786231,"current_range_meters":28000,"station_id":"ce4bhbp2rcd13ifvqesg","pricing_plan_id":"cebpf4jnsgd1na2vs0mg"},{"bike_id":"c27d8cef-128f-467e-8ca2-b33835376bb2","system_id":"levelo_inurba_marseille","lat":43.30644,"lon":5.40078,"is_reserved":false,"is_disabled":false,"rental_uris":{"android":"levelo://app?vid=c27d8cef-128f-467e-8ca2-b33835376bb2","ios":"levelo://app?vid=c27d8cef-128f-467e-8ca2-b33835376bb2"},"vehicle_type_id":"4","last_reported":1738786231,"current_range_meters":36800,"station_id":"ce4bh112rcd13ifvqda0","pricing_plan_id":"cebpf4jnsgd1na2vs0mg"},{"bike_id":"09387350-a897-4d0d-8d80-e7d6c2de2eab","system_id":"levelo_inurba_marseille","lat":43.29305,"lon":5.37453,"is_reserved":false,"is_disabled":false,"rental_uris":{"android":"levelo://app?vid=09387350-a897-4d0d-8d80-e7d6c2de2eab","ios":"levelo://app?vid=09387350-a897-4d0d-8d80-e7d6c2de2eab"},"vehicle_type_id":"4","last_reported":1738786231,"current_range_meters":35600,"station_id":"ce4bgi12rcd13ifvqb70","pricing_plan_id":"cebpf4jnsgd1na2vs0mg"},{"bike_id":"1f60af65-67e4-4506-92ce-b099d71368bc","system_id":"levelo_inurba_marseille","lat":43.27366,"lon":5.3625,"is_reserved":false,"is_disabled":false,"rental_uris":{"android":"levelo://app?vid=1f60af65-67e4-4506-92ce-b099d71368bc","ios":"levelo://app?vid=1f60af65-67e4-4506-92ce-b099d71368bc"},"vehicle_type_id":"4","last_reported":1738786231,"current_range_meters":38800,"station_id":"ce4bhbh2rcd13ifvqeo0","pricing_plan_id":"cebpf4jnsgd1na2vs0mg"},{"bike_id":"4f81abf1-d5fa-41cf-aabd-458a56d988c7","system_id":"levelo_inurba_marseille","lat":43.29028,"lon":5.38648,"is_reserved":false,"is_disabled":false,"rental_uris":{"android":"levelo://app?vid=4f81abf1-d5fa-41cf-aabd-458a56d988c7","ios":"levelo://app?vid=4f81abf1-d5fa-41cf-aabd-458a56d988c7"},"vehicle_type_id":"4","last_reported":1738786231,"current_range_meters":27600,"station_id":"ce4bh4p2rcd13ifvqe0g","pricing_plan_id":"cebpf4jnsgd1na2vs0mg"},{"bike_id":"24014241-5b95-4a31-94b3-518cf14b5577","system_id":"levelo_inurba_marseille","lat":43.30775,"lon":5.37667,"is_reserved":false,"is_disabled":true,"rental_uris":{"android":"levelo://app?vid=24014241-5b95-4a31-94b3-518cf14b5577","ios":"levelo://app?vid=24014241-5b95-4a31-94b3-518cf14b5577"},"vehicle_type_id":"4","last_reported":1738786231,"current_range_meters":28400,"station_id":"ce4bgv92rcd13ifvqcq0","pricing_plan_id":"cebpf4jnsgd1na2vs0mg"},{"bike_id":"a9d2cdd8-e8cc-40c9-87d7-d5a1d12197b1","system_id":"levelo_inurba_marseille","lat":43.27487,"lon":5.42462,"is_reserved":false,"is_disabled":false,"rental_uris":{"android":"levelo://app?vid=a9d2cdd8-e8cc-40c9-87d7-d5a1d12197b1","ios":"levelo://app?vid=a9d2cdd8-e8cc-40c9-87d7-d5a1d12197b1"},"vehicle_type_id":"4","last_reported":1738786231,"current_range_meters":38800,"station_id":"ce4bhn92rcd13ifvqgrg","pricing_plan_id":"cebpf4jnsgd1na2vs0mg"},{"bike_id":"053fe29b-8a6c-40a9-966e-365491a47db8","system_id":"levelo_inurba_marseille","lat":43.25826,"lon":5.39426,"is_reserved":false,"is_disabled":false,"rental_uris":{"android":"levelo://app?vid=053fe29b-8a6c-40a9-966e-365491a47db8","ios":"levelo://app?vid=053fe29b-8a6c-40a9-966e-365491a47db8"},"vehicle_type_id":"4","last_reported":1738786231,"current_range_meters":22800,"station_id":"ce4bhip2rcd13ifvqft0","pricing_plan_id":"cebpf4jnsgd1na2vs0mg"},{"bike_id":"35b0fbe6-22db-46fb-a54a-76af362a8729","system_id":"levelo_inurba_marseille","lat":43.2996,"lon":5.4135,"is_reserved":false,"is_disabled":false,"rental_uris":{"android":"levelo://app?vid=35b0fbe6-22db-46fb-a54a-76af362a8729","ios":"levelo://app?vid=35b0fbe6-22db-46fb-a54a-76af362a8729"},"vehicle_type_id":"4","last_reported":1738786231,"current_range_meters":36800,"station_id":"ce4bhp12rcd13ifvqh9g","pricing_plan_id":"cebpf4jnsgd1na2vs0mg"},{"bike_id":"88ce7e1b-d6f8-4620-beef-be982f304f3e","system_id":"levelo_inurba_marseille","lat":43.32117,"lon":5.36787,"is_reserved":false,"is_disabled":false,"rental_uris":{"android":"levelo://app?vid=88ce7e1b-d6f8-4620-beef-be982f304f3e","ios":"levelo://app?vid=88ce7e1b-d6f8-4620-beef-be982f304f3e"},"vehicle_type_id":"4","last_reported":1738786231,"current_range_meters":6800,"station_id":"ce4bhrh2rcd13ifvqhug","pricing_plan_id":"cebpf4jnsgd1na2vs0mg"},{"bike_id":"eabb9936-397f-4ce6-8690-89ca8b14d83e","system_id":"levelo_inurba_marseille","lat":43.2396,"lon":5.36632,"is_reserved":false,"is_disabled":false,"rental_uris":{"android":"levelo://app?vid=eabb9936-397f-4ce6-8690-89ca8b14d83e","ios":"levelo://app?vid=eabb9936-397f-4ce6-8690-89ca8b14d83e"},"vehicle_type_id":"4","last_reported":1738786231,"current_range_meters":38800,"station_id":"ce4bhi12rcd13ifvqfp0","pricing_plan_id":"cebpf4jnsgd1na2vs0mg"},{"bike_id":"3431b7d0-616f-4a22-8018-e98eaea2f335","system_id":"levelo_inurba_marseille","lat":43.29254,"lon":5.38448,"is_reserved":false,"is_disabled":false,"rental_uris":{"android":"levelo://app?vid=3431b7d0-616f-4a22-8018-e98eaea2f335","ios":"levelo://app?vid=3431b7d0-616f-4a22-8018-e98eaea2f335"},"vehicle_type_id":"4","last_reported":1738786231,"current_range_meters":29600,"station_id":"ce4bh692rcd13ifvqea0","pricing_plan_id":"cebpf4jnsgd1na2vs0mg"},{"bike_id":"708f8f9e-18a1-4802-893a-04d77b904ada","system_id":"levelo_inurba_marseille","lat":43.28674,"lon":5.36352,"is_reserved":false,"is_disabled":false,"rental_uris":{"android":"levelo://app?vid=708f8f9e-18a1-4802-893a-04d77b904ada","ios":"levelo://app?vid=708f8f9e-18a1-4802-893a-04d77b904ada"},"vehicle_type_id":"4","last_reported":1738786231,"current_range_meters":38800,"station_id":"ce4bhah2rcd13ifvqej0","pricing_plan_id":"cebpf4jnsgd1na2vs0mg"},{"bike_id":"2f9a6647-bfb0-4c5f-b2d5-6b23d0794b76","system_id":"levelo_inurba_marseille","lat":43.2558,"lon":5.38228,"is_reserved":false,"is_disabled":true,"rental_uris":{"android":"levelo://app?vid=2f9a6647-bfb0-4c5f-b2d5-6b23d0794b76","ios":"levelo://app?vid=2f9a6647-bfb0-4c5f-b2d5-6b23d0794b76"},"vehicle_type_id":"4","last_reported":1738786231,"current_range_meters":37600,"station_id":"ce4bhih2rcd13ifvqfs0","pricing_plan_id":"cebpf4jnsgd1na2vs0mg"},{"bike_id":"d25a4504-17d4-4308-88f8-6085b6b06f28","system_id":"levelo_inurba_marseille","lat":43.28942,"lon":5.36397,"is_reserved":false,"is_disabled":false,"rental_uris":{"android":"levelo://app?vid=d25a4504-17d4-4308-88f8-6085b6b06f28","ios":"levelo://app?vid=d25a4504-17d4-4308-88f8-6085b6b06f28"},"vehicle_type_id":"4","last_reported":1738786231,"current_range_meters":20000,"station_id":"ce4bhc92rcd13ifvqetg","pricing_plan_id":"cebpf4jnsgd1na2vs0mg"},{"bike_id":"8da43562-4f8d-4611-9168-8a0327349c39","system_id":"levelo_inurba_marseille","lat":43.28144,"lon":5.42633,"is_reserved":false,"is_disabled":false,"rental_uris":{"android":"levelo://app?vid=8da43562-4f8d-4611-9168-8a0327349c39","ios":"levelo://app?vid=8da43562-4f8d-4611-9168-8a0327349c39"},"vehicle_type_id":"4","last_reported":1738786231,"current_range_meters":8800,"station_id":"ce4bhnh2rcd13ifvqgug","pricing_plan_id":"cebpf4jnsgd1na2vs0mg"},{"bike_id":"786af5a6-7181-4746-8e7c-5055a97f6274","system_id":"levelo_inurba_marseille","lat":43.28146,"lon":5.42631,"is_reserved":false,"is_disabled":true,"rental_uris":{"android":"levelo://app?vid=786af5a6-7181-4746-8e7c-5055a97f6274","ios":"levelo://app?vid=786af5a6-7181-4746-8e7c-5055a97f6274"},"vehicle_type_id":"4","last_reported":1738786231,"current_range_meters":31200,"station_id":"ce4bhnh2rcd13ifvqgug","pricing_plan_id":"cebpf4jnsgd1na2vs0mg"},{"bike_id":"93fbdf65-f816-41db-aa80-fd0a58c14346","system_id":"levelo_inurba_marseille","lat":43.27449,"lon":5.39414,"is_reserved":false,"is_disabled":true,"rental_uris":{"android":"levelo://app?vid=93fbdf65-f816-41db-aa80-fd0a58c14346","ios":"levelo://app?vid=93fbdf65-f816-41db-aa80-fd0a58c14346"},"vehicle_type_id":"4","last_reported":1738786231,"current_range_meters":0,"station_id":"ce4bhdp2rcd13ifvqf20","pricing_plan_id":"cebpf4jnsgd1na2vs0mg"},{"bike_id":"6c42d1f1-91cc-4cc9-ac3f-91a876fece96","system_id":"levelo_inurba_marseille","lat":43.298928,"lon":5.397455,"is_reserved":false,"is_disabled":false,"rental_uris":{"android":"levelo://app?vid=6c42d1f1-91cc-4cc9-ac3f-91a876fece96","ios":"levelo://app?vid=6c42d1f1-91cc-4cc9-ac3f-91a876fece96"},"vehicle_type_id":"4","last_reported":1738786231,"current_range_meters":38000,"station_id":"ce4bh0h2rcd13ifvqd50","pricing_plan_id":"cebpf4jnsgd1na2vs0mg"},{"bike_id":"50b15991-9296-4df6-b1a6-725aba7e366c","system_id":"levelo_inurba_marseille","lat":43.25859,"lon":5.3991,"is_reserved":false,"is_disabled":false,"rental_uris":{"android":"levelo://app?vid=50b15991-9296-4df6-b1a6-725aba7e366c","ios":"levelo://app?vid=50b15991-9296-4df6-b1a6-725aba7e366c"},"vehicle_type_id":"4","last_reported":1738786231,"current_range_meters":38800,"station_id":"ce4bhl92rcd13ifvqghg","pricing_plan_id":"cebpf4jnsgd1na2vs0mg"},{"bike_id":"c983f7c8-ec63-47bb-ae85-4941d08b1507","system_id":"levelo_inurba_marseille","lat":43.29095,"lon":5.38146,"is_reserved":false,"is_disabled":false,"rental_uris":{"android":"levelo://app?vid=c983f7c8-ec63-47bb-ae85-4941d08b1507","ios":"levelo://app?vid=c983f7c8-ec63-47bb-ae85-4941d08b1507"},"vehicle_type_id":"4","last_reported":1738786231,"current_range_meters":25600,"station_id":"ce4bh512rcd13ifvqe2g","pricing_plan_id":"cebpf4jnsgd1na2vs0mg"},{"bike_id":"05ef3b5a-0b29-498a-a266-9c36afccd5db","system_id":"levelo_inurba_marseille","lat":43.27991,"lon":5.4002,"is_reserved":false,"is_disabled":false,"rental_uris":{"android":"levelo://app?vid=05ef3b5a-0b29-498a-a266-9c36afccd5db","ios":"levelo://app?vid=05ef3b5a-0b29-498a-a266-9c36afccd5db"},"vehicle_type_id":"4","last_reported":1738786231,"current_range_meters":7200,"station_id":"ce4bho92rcd13ifvqh4g","pricing_plan_id":"cebpf4jnsgd1na2vs0mg"},{"bike_id":"43dbcacd-347c-4beb-a600-5c3d96b4b244","system_id":"levelo_inurba_marseille","lat":43.23188,"lon":5.39983,"is_reserved":false,"is_disabled":false,"rental_uris":{"android":"levelo://app?vid=43dbcacd-347c-4beb-a600-5c3d96b4b244","ios":"levelo://app?vid=43dbcacd-347c-4beb-a600-5c3d96b4b244"},"vehicle_type_id":"4","last_reported":1738786231,"current_range_meters":39200,"station_id":"ce4bhn12rcd13ifvqgqg","pricing_plan_id":"cebpf4jnsgd1na2vs0mg"},{"bike_id":"f5fe99b2-e419-4e02-93e0-0d8550db63d7","system_id":"levelo_inurba_marseille","lat":43.28039,"lon":5.369467,"is_reserved":false,"is_disabled":false,"rental_uris":{"android":"levelo://app?vid=f5fe99b2-e419-4e02-93e0-0d8550db63d7","ios":"levelo://app?vid=f5fe99b2-e419-4e02-93e0-0d8550db63d7"},"vehicle_type_id":"4","last_reported":1738786231,"current_range_meters":38800,"station_id":"ce4bha12rcd13ifvqef0","pricing_plan_id":"cebpf4jnsgd1na2vs0mg"},{"bike_id":"9b7355dc-7165-40f0-8cd2-81f22484ab5d","system_id":"levelo_inurba_marseille","lat":43.23956,"lon":5.36649,"is_reserved":false,"is_disabled":false,"rental_uris":{"android":"levelo://app?vid=9b7355dc-7165-40f0-8cd2-81f22484ab5d","ios":"levelo://app?vid=9b7355dc-7165-40f0-8cd2-81f22484ab5d"},"vehicle_type_id":"4","last_reported":1738786231,"current_range_meters":35600,"station_id":"ce4bhi12rcd13ifvqfp0","pricing_plan_id":"cebpf4jnsgd1na2vs0mg"},{"bike_id":"54c388f1-da5e-41c0-a224-46f29db2acb3","system_id":"levelo_inurba_marseille","lat":43.28949,"lon":5.36408,"is_reserved":false,"is_disabled":false,"rental_uris":{"android":"levelo://app?vid=54c388f1-da5e-41c0-a224-46f29db2acb3","ios":"levelo://app?vid=54c388f1-da5e-41c0-a224-46f29db2acb3"},"vehicle_type_id":"4","last_reported":1738786231,"current_range_meters":38800,"station_id":"ce4bhc92rcd13ifvqetg","pricing_plan_id":"cebpf4jnsgd1na2vs0mg"},{"bike_id":"0ece7ca6-712d-478c-be0d-4a27dfba11a6","system_id":"levelo_inurba_marseille","lat":43.29549,"lon":5.42283,"is_reserved":false,"is_disabled":false,"rental_uris":{"android":"levelo://app?vid=0ece7ca6-712d-478c-be0d-4a27dfba11a6","ios":"levelo://app?vid=0ece7ca6-712d-478c-be0d-4a27dfba11a6"},"vehicle_type_id":"4","last_reported":1738786231,"current_range_meters":38800,"station_id":"ce4bhph2rcd13ifvqhdg","pricing_plan_id":"cebpf4jnsgd1na2vs0mg"},{"bike_id":"084698ab-de72-441f-8841-b15f46dae734","system_id":"levelo_inurba_marseille","lat":43.29096,"lon":5.3811,"is_reserved":false,"is_disabled":false,"rental_uris":{"android":"levelo://app?vid=084698ab-de72-441f-8841-b15f46dae734","ios":"levelo://app?vid=084698ab-de72-441f-8841-b15f46dae734"},"vehicle_type_id":"4","last_reported":1738786231,"current_range_meters":37600,"station_id":"ce4bh512rcd13ifvqe2g","pricing_plan_id":"cebpf4jnsgd1na2vs0mg"},{"bike_id":"931c3b97-cce1-4ebe-a291-6c50a6f2810e","system_id":"levelo_inurba_marseille","lat":43.31806,"lon":5.37428,"is_reserved":false,"is_disabled":false,"rental_uris":{"android":"levelo://app?vid=931c3b97-cce1-4ebe-a291-6c50a6f2810e","ios":"levelo://app?vid=931c3b97-cce1-4ebe-a291-6c50a6f2810e"},"vehicle_type_id":"4","last_reported":1738786231,"current_range_meters":5600,"station_id":"","pricing_plan_id":"cebpf4jnsgd1na2vs0mg"},{"bike_id":"b9452b32-8f5d-4c98-bc11-fee58cf523e3","system_id":"levelo_inurba_marseille","lat":43.29927,"lon":5.43641,"is_reserved":false,"is_disabled":false,"rental_uris":{"android":"levelo://app?vid=b9452b32-8f5d-4c98-bc11-fee58cf523e3","ios":"levelo://app?vid=b9452b32-8f5d-4c98-bc11-fee58cf523e3"},"vehicle_type_id":"4","last_reported":1738786231,"current_range_meters":23200,"station_id":"","pricing_plan_id":"cebpf4jnsgd1na2vs0mg"},{"bike_id":"d1d51ec2-e1ab-4b92-9a4b-f935b04ef436","system_id":"levelo_inurba_marseille","lat":43.24999,"lon":5.38927,"is_reserved":false,"is_disabled":false,"rental_uris":{"android":"levelo://app?vid=d1d51ec2-e1ab-4b92-9a4b-f935b04ef436","ios":"levelo://app?vid=d1d51ec2-e1ab-4b92-9a4b-f935b04ef436"},"vehicle_type_id":"4","last_reported":1738786231,"current_range_meters":23200,"station_id":"ce4bhgp2rcd13ifvqfd0","pricing_plan_id":"cebpf4jnsgd1na2vs0mg"},{"bike_id":"13b3b6a1-f920-47ec-ad77-f4e3fb2eb0d2","system_id":"levelo_inurba_marseille","lat":43.258258,"lon":5.394375,"is_reserved":false,"is_disabled":false,"rental_uris":{"android":"levelo://app?vid=13b3b6a1-f920-47ec-ad77-f4e3fb2eb0d2","ios":"levelo://app?vid=13b3b6a1-f920-47ec-ad77-f4e3fb2eb0d2"},"vehicle_type_id":"4","last_reported":1738786231,"current_range_meters":39200,"station_id":"ce4bhip2rcd13ifvqft0","pricing_plan_id":"cebpf4jnsgd1na2vs0mg"},{"bike_id":"685e20ea-a3dc-4c16-a388-1b9c34264923","system_id":"levelo_inurba_marseille","lat":43.27176,"lon":5.4099,"is_reserved":false,"is_disabled":false,"rental_uris":{"android":"levelo://app?vid=685e20ea-a3dc-4c16-a388-1b9c34264923","ios":"levelo://app?vid=685e20ea-a3dc-4c16-a388-1b9c34264923"},"vehicle_type_id":"4","last_reported":1738786231,"current_range_meters":34000,"station_id":"ce4bhl12rcd13ifvqgf0","pricing_plan_id":"cebpf4jnsgd1na2vs0mg"},{"bike_id":"242b2efc-1bca-43dd-8585-8df4a5bbbf5b","system_id":"levelo_inurba_marseille","lat":43.30302,"lon":5.39196,"is_reserved":false,"is_disabled":false,"rental_uris":{"android":"levelo://app?vid=242b2efc-1bca-43dd-8585-8df4a5bbbf5b","ios":"levelo://app?vid=242b2efc-1bca-43dd-8585-8df4a5bbbf5b"},"vehicle_type_id":"4","last_reported":1738786231,"current_range_meters":18800,"station_id":"ce4bgkh2rcd13ifvqbk0","pricing_plan_id":"cebpf4jnsgd1na2vs0mg"},{"bike_id":"910b1e33-531c-44b7-b584-1fde45af6212","system_id":"levelo_inurba_marseille","lat":43.2903,"lon":5.38658,"is_reserved":false,"is_disabled":false,"rental_uris":{"android":"levelo://app?vid=910b1e33-531c-44b7-b584-1fde45af6212","ios":"levelo://app?vid=910b1e33-531c-44b7-b584-1fde45af6212"},"vehicle_type_id":"4","last_reported":1738786231,"current_range_meters":38800,"station_id":"ce4bh4p2rcd13ifvqe0g","pricing_plan_id":"cebpf4jnsgd1na2vs0mg"},{"bike_id":"6100990f-c4b7-4419-ab12-3d9c2a9f7c81","system_id":"levelo_inurba_marseille","lat":43.2829,"lon":5.35075,"is_reserved":false,"is_disabled":false,"rental_uris":{"android":"levelo://app?vid=6100990f-c4b7-4419-ab12-3d9c2a9f7c81","ios":"levelo://app?vid=6100990f-c4b7-4419-ab12-3d9c2a9f7c81"},"vehicle_type_id":"4","last_reported":1738786231,"current_range_meters":36800,"station_id":"ce4bhbp2rcd13ifvqerg","pricing_plan_id":"cebpf4jnsgd1na2vs0mg"},{"bike_id":"48942296-1585-4679-ac47-d4a86af2d7a3","system_id":"levelo_inurba_marseille","lat":43.3171,"lon":5.43699,"is_reserved":false,"is_disabled":false,"rental_uris":{"android":"levelo://app?vid=48942296-1585-4679-ac47-d4a86af2d7a3","ios":"levelo://app?vid=48942296-1585-4679-ac47-d4a86af2d7a3"},"vehicle_type_id":"4","last_reported":1738786231,"current_range_meters":12000,"station_id":"ce4bhp92rcd13ifvqhcg","pricing_plan_id":"cebpf4jnsgd1na2vs0mg"},{"bike_id":"19c6453b-6738-4136-a9cc-0f3d1869758d","system_id":"levelo_inurba_marseille","lat":43.28711,"lon":5.39998,"is_reserved":false,"is_disabled":false,"rental_uris":{"android":"levelo://app?vid=19c6453b-6738-4136-a9cc-0f3d1869758d","ios":"levelo://app?vid=19c6453b-6738-4136-a9cc-0f3d1869758d"},"vehicle_type_id":"4","last_reported":1738786231,"current_range_meters":38800,"station_id":"ce4bho92rcd13ifvqh3g","pricing_plan_id":"cebpf4jnsgd1na2vs0mg"},{"bike_id":"10a7abef-56b0-408b-be24-81f0a8b06917","system_id":"levelo_inurba_marseille","lat":43.28849,"lon":5.39332,"is_reserved":false,"is_disabled":false,"rental_uris":{"android":"levelo://app?vid=10a7abef-56b0-408b-be24-81f0a8b06917","ios":"levelo://app?vid=10a7abef-56b0-408b-be24-81f0a8b06917"},"vehicle_type_id":"4","last_reported":1738786231,"current_range_meters":4000,"station_id":"ce4bh2p2rcd13ifvqdi0","pricing_plan_id":"cebpf4jnsgd1na2vs0mg"},{"bike_id":"2b81159b-9997-4b68-bd02-00893c72da6c","system_id":"levelo_inurba_marseille","lat":43.29537,"lon":5.39033,"is_reserved":false,"is_disabled":false,"rental_uris":{"android":"levelo://app?vid=2b81159b-9997-4b68-bd02-00893c72da6c","ios":"levelo://app?vid=2b81159b-9997-4b68-bd02-00893c72da6c"},"vehicle_type_id":"4","last_reported":1738786231,"current_range_meters":38400,"station_id":"ce4bh3p2rcd13ifvqdp0","pricing_plan_id":"cebpf4jnsgd1na2vs0mg"},{"bike_id":"9e7ed56e-6161-417b-903e-3c3d0dd4efa8","system_id":"levelo_inurba_marseille","lat":43.279,"lon":5.38003,"is_reserved":false,"is_disabled":false,"rental_uris":{"android":"levelo://app?vid=9e7ed56e-6161-417b-903e-3c3d0dd4efa8","ios":"levelo://app?vid=9e7ed56e-6161-417b-903e-3c3d0dd4efa8"},"vehicle_type_id":"4","last_reported":1738786231,"current_range_meters":38400,"station_id":"ce4bhf92rcd13ifvqf50","pricing_plan_id":"cebpf4jnsgd1na2vs0mg"},{"bike_id":"753baeb7-2e77-4b96-96f4-de8ace8429a8","system_id":"levelo_inurba_marseille","lat":43.24664,"lon":5.38166,"is_reserved":false,"is_disabled":false,"rental_uris":{"android":"levelo://app?vid=753baeb7-2e77-4b96-96f4-de8ace8429a8","ios":"levelo://app?vid=753baeb7-2e77-4b96-96f4-de8ace8429a8"},"vehicle_type_id":"4","last_reported":1738786231,"current_range_meters":38400,"station_id":"ce4bhih2rcd13ifvqfr0","pricing_plan_id":"cebpf4jnsgd1na2vs0mg"},{"bike_id":"996e7d18-949b-415c-b2eb-96663b1c0c3c","system_id":"levelo_inurba_marseille","lat":43.30791,"lon":5.38168,"is_reserved":false,"is_disabled":false,"rental_uris":{"android":"levelo://app?vid=996e7d18-949b-415c-b2eb-96663b1c0c3c","ios":"levelo://app?vid=996e7d18-949b-415c-b2eb-96663b1c0c3c"},"vehicle_type_id":"4","last_reported":1738786231,"current_range_meters":39200,"station_id":"ce4bgt12rcd13ifvqce0","pricing_plan_id":"cebpf4jnsgd1na2vs0mg"},{"bike_id":"6877bcdf-3bf8-4c3e-bbe3-dc26e21a2ace","system_id":"levelo_inurba_marseille","lat":43.30425,"lon":5.39756,"is_reserved":false,"is_disabled":false,"rental_uris":{"android":"levelo://app?vid=6877bcdf-3bf8-4c3e-bbe3-dc26e21a2ace","ios":"levelo://app?vid=6877bcdf-3bf8-4c3e-bbe3-dc26e21a2ace"},"vehicle_type_id":"4","last_reported":1738786231,"current_range_meters":38800,"station_id":"ce4bh092rcd13ifvqd20","pricing_plan_id":"cebpf4jnsgd1na2vs0mg"},{"bike_id":"48d0d6c4-1c89-4ca3-9b50-d9e0c6561c2c","system_id":"levelo_inurba_marseille","lat":43.3108,"lon":5.42435,"is_reserved":false,"is_disabled":false,"rental_uris":{"android":"levelo://app?vid=48d0d6c4-1c89-4ca3-9b50-d9e0c6561c2c","ios":"levelo://app?vid=48d0d6c4-1c89-4ca3-9b50-d9e0c6561c2c"},"vehicle_type_id":"4","last_reported":1738786231,"current_range_meters":20000,"station_id":"ce4bhp92rcd13ifvqhag","pricing_plan_id":"cebpf4jnsgd1na2vs0mg"},{"bike_id":"585fe3f6-a722-4f6f-b2a6-5f7617e3a74b","system_id":"levelo_inurba_marseille","lat":43.25123,"lon":5.40318,"is_reserved":false,"is_disabled":false,"rental_uris":{"android":"levelo://app?vid=585fe3f6-a722-4f6f-b2a6-5f7617e3a74b","ios":"levelo://app?vid=585fe3f6-a722-4f6f-b2a6-5f7617e3a74b"},"vehicle_type_id":"4","last_reported":1738786231,"current_range_meters":38400,"station_id":"ce4bhlh2rcd13ifvqgig","pricing_plan_id":"cebpf4jnsgd1na2vs0mg"},{"bike_id":"12edaa02-b089-4b81-877d-b64a2e62eb3b","system_id":"levelo_inurba_marseille","lat":43.29027,"lon":5.38633,"is_reserved":false,"is_disabled":false,"rental_uris":{"android":"levelo://app?vid=12edaa02-b089-4b81-877d-b64a2e62eb3b","ios":"levelo://app?vid=12edaa02-b089-4b81-877d-b64a2e62eb3b"},"vehicle_type_id":"4","last_reported":1738786231,"current_range_meters":39200,"station_id":"ce4bh4p2rcd13ifvqe0g","pricing_plan_id":"cebpf4jnsgd1na2vs0mg"},{"bike_id":"bc4186b3-1073-492b-ab95-0326a7b12d0e","system_id":"levelo_inurba_marseille","lat":43.28442,"lon":5.35004,"is_reserved":false,"is_disabled":false,"rental_uris":{"android":"levelo://app?vid=bc4186b3-1073-492b-ab95-0326a7b12d0e","ios":"levelo://app?vid=bc4186b3-1073-492b-ab95-0326a7b12d0e"},"vehicle_type_id":"4","last_reported":1738786231,"current_range_meters":35200,"station_id":"ce4bhbh2rcd13ifvqepg","pricing_plan_id":"cebpf4jnsgd1na2vs0mg"},{"bike_id":"70fbe035-321d-404d-abb5-90c57c24fee3","system_id":"levelo_inurba_marseille","lat":43.29911,"lon":5.38135,"is_reserved":false,"is_disabled":true,"rental_uris":{"android":"levelo://app?vid=70fbe035-321d-404d-abb5-90c57c24fee3","ios":"levelo://app?vid=70fbe035-321d-404d-abb5-90c57c24fee3"},"vehicle_type_id":"4","last_reported":1738786231,"current_range_meters":2800,"station_id":"ce4bgj12rcd13ifvqbc0","pricing_plan_id":"cebpf4jnsgd1na2vs0mg"},{"bike_id":"715f9245-91da-4a7e-a344-95d8ba7af07c","system_id":"levelo_inurba_marseille","lat":43.29053,"lon":5.38656,"is_reserved":false,"is_disabled":true,"rental_uris":{"android":"levelo://app?vid=715f9245-91da-4a7e-a344-95d8ba7af07c","ios":"levelo://app?vid=715f9245-91da-4a7e-a344-95d8ba7af07c"},"vehicle_type_id":"4","last_reported":1738786231,"current_range_meters":12400,"station_id":"ce4bh4p2rcd13ifvqe0g","pricing_plan_id":"cebpf4jnsgd1na2vs0mg"},{"bike_id":"ca548841-038a-498c-a964-8af9b79f0f47","system_id":"levelo_inurba_marseille","lat":43.28065,"lon":5.36938,"is_reserved":false,"is_disabled":false,"rental_uris":{"android":"levelo://app?vid=ca548841-038a-498c-a964-8af9b79f0f47","ios":"levelo://app?vid=ca548841-038a-498c-a964-8af9b79f0f47"},"vehicle_type_id":"4","last_reported":1738786231,"current_range_meters":38800,"station_id":"ce4bha12rcd13ifvqef0","pricing_plan_id":"cebpf4jnsgd1na2vs0mg"},{"bike_id":"13df6da4-3ad2-4868-8c51-20a03b0eca4f","system_id":"levelo_inurba_marseille","lat":43.31128,"lon":5.37781,"is_reserved":false,"is_disabled":false,"rental_uris":{"android":"levelo://app?vid=13df6da4-3ad2-4868-8c51-20a03b0eca4f","ios":"levelo://app?vid=13df6da4-3ad2-4868-8c51-20a03b0eca4f"},"vehicle_type_id":"4","last_reported":1738786231,"current_range_meters":18000,"station_id":"ce4bgt92rcd13ifvqcg0","pricing_plan_id":"cebpf4jnsgd1na2vs0mg"},{"bike_id":"71cafb1d-b3ba-4102-963a-2d1d7493ff96","system_id":"levelo_inurba_marseille","lat":43.24797,"lon":5.37459,"is_reserved":false,"is_disabled":false,"rental_uris":{"android":"levelo://app?vid=71cafb1d-b3ba-4102-963a-2d1d7493ff96","ios":"levelo://app?vid=71cafb1d-b3ba-4102-963a-2d1d7493ff96"},"vehicle_type_id":"4","last_reported":1738786231,"current_range_meters":29600,"station_id":"ce4bhgh2rcd13ifvqfb0","pricing_plan_id":"cebpf4jnsgd1na2vs0mg"},{"bike_id":"2e784e2a-8d14-4785-b12d-e2d03ec4d089","system_id":"levelo_inurba_marseille","lat":43.30609,"lon":5.3933,"is_reserved":false,"is_disabled":false,"rental_uris":{"android":"levelo://app?vid=2e784e2a-8d14-4785-b12d-e2d03ec4d089","ios":"levelo://app?vid=2e784e2a-8d14-4785-b12d-e2d03ec4d089"},"vehicle_type_id":"4","last_reported":1738786231,"current_range_meters":24000,"station_id":"ce4bh0p2rcd13ifvqd80","pricing_plan_id":"cebpf4jnsgd1na2vs0mg"},{"bike_id":"2b52254f-933d-4903-ac07-21eb27a1e798","system_id":"levelo_inurba_marseille","lat":43.27184,"lon":5.40995,"is_reserved":false,"is_disabled":false,"rental_uris":{"android":"levelo://app?vid=2b52254f-933d-4903-ac07-21eb27a1e798","ios":"levelo://app?vid=2b52254f-933d-4903-ac07-21eb27a1e798"},"vehicle_type_id":"4","last_reported":1738786231,"current_range_meters":38800,"station_id":"ce4bhl12rcd13ifvqgf0","pricing_plan_id":"cebpf4jnsgd1na2vs0mg"},{"bike_id":"519caea6-9b30-4975-a4ae-deba5fdb06f0","system_id":"levelo_inurba_marseille","lat":43.2897,"lon":5.37838,"is_reserved":false,"is_disabled":false,"rental_uris":{"android":"levelo://app?vid=519caea6-9b30-4975-a4ae-deba5fdb06f0","ios":"levelo://app?vid=519caea6-9b30-4975-a4ae-deba5fdb06f0"},"vehicle_type_id":"4","last_reported":1738786231,"current_range_meters":39200,"station_id":"ce4bh9p2rcd13ifvqed0","pricing_plan_id":"cebpf4jnsgd1na2vs0mg"},{"bike_id":"80bee027-a1d4-4117-a903-be506eed08ed","system_id":"levelo_inurba_marseille","lat":43.28105,"lon":5.37848,"is_reserved":false,"is_disabled":false,"rental_uris":{"android":"levelo://app?vid=80bee027-a1d4-4117-a903-be506eed08ed","ios":"levelo://app?vid=80bee027-a1d4-4117-a903-be506eed08ed"},"vehicle_type_id":"4","last_reported":1738786231,"current_range_meters":20000,"station_id":"ce4bha12rcd13ifvqee0","pricing_plan_id":"cebpf4jnsgd1na2vs0mg"},{"bike_id":"d45ddd4f-cf49-4011-9873-dbe059d0bbe3","system_id":"levelo_inurba_marseille","lat":43.30439,"lon":5.38884,"is_reserved":false,"is_disabled":false,"rental_uris":{"android":"levelo://app?vid=d45ddd4f-cf49-4011-9873-dbe059d0bbe3","ios":"levelo://app?vid=d45ddd4f-cf49-4011-9873-dbe059d0bbe3"},"vehicle_type_id":"4","last_reported":1738786231,"current_range_meters":9600,"station_id":"ce4bgk12rcd13ifvqbi0","pricing_plan_id":"cebpf4jnsgd1na2vs0mg"},{"bike_id":"52990ad3-a46b-4f6e-b6b0-37c9c50197a1","system_id":"levelo_inurba_marseille","lat":43.31762,"lon":5.39018,"is_reserved":false,"is_disabled":false,"rental_uris":{"android":"levelo://app?vid=52990ad3-a46b-4f6e-b6b0-37c9c50197a1","ios":"levelo://app?vid=52990ad3-a46b-4f6e-b6b0-37c9c50197a1"},"vehicle_type_id":"4","last_reported":1738786231,"current_range_meters":38800,"station_id":"ce4bhqp2rcd13ifvqhng","pricing_plan_id":"cebpf4jnsgd1na2vs0mg"},{"bike_id":"61c83f02-b8b4-497c-a822-a07e72cb75d7","system_id":"levelo_inurba_marseille","lat":43.23151,"lon":5.43714,"is_reserved":false,"is_disabled":true,"rental_uris":{"android":"levelo://app?vid=61c83f02-b8b4-497c-a822-a07e72cb75d7","ios":"levelo://app?vid=61c83f02-b8b4-497c-a822-a07e72cb75d7"},"vehicle_type_id":"4","last_reported":1738786231,"current_range_meters":0,"station_id":"ce4bhmp2rcd13ifvqgog","pricing_plan_id":"cebpf4jnsgd1na2vs0mg"},{"bike_id":"b0835b4d-5d4e-4b83-8d65-c34141a6bbbb","system_id":"levelo_inurba_marseille","lat":43.29033,"lon":5.35894,"is_reserved":false,"is_disabled":false,"rental_uris":{"android":"levelo://app?vid=b0835b4d-5d4e-4b83-8d65-c34141a6bbbb","ios":"levelo://app?vid=b0835b4d-5d4e-4b83-8d65-c34141a6bbbb"},"vehicle_type_id":"4","last_reported":1738786231,"current_range_meters":39200,"station_id":"ce4bha92rcd13ifvqeg0","pricing_plan_id":"cebpf4jnsgd1na2vs0mg"},{"bike_id":"3ed77e07-71e0-4007-b782-5eab67d5d43b","system_id":"levelo_inurba_marseille","lat":43.29016,"lon":5.38125,"is_reserved":false,"is_disabled":false,"rental_uris":{"android":"levelo://app?vid=3ed77e07-71e0-4007-b782-5eab67d5d43b","ios":"levelo://app?vid=3ed77e07-71e0-4007-b782-5eab67d5d43b"},"vehicle_type_id":"4","last_reported":1738786231,"current_range_meters":37600,"station_id":"ce4bh4p2rcd13ifvqe1g","pricing_plan_id":"cebpf4jnsgd1na2vs0mg"},{"bike_id":"bc3a20aa-daf6-4c5e-ac1c-17a251997803","system_id":"levelo_inurba_marseille","lat":43.24544,"lon":5.39526,"is_reserved":false,"is_disabled":false,"rental_uris":{"android":"levelo://app?vid=bc3a20aa-daf6-4c5e-ac1c-17a251997803","ios":"levelo://app?vid=bc3a20aa-daf6-4c5e-ac1c-17a251997803"},"vehicle_type_id":"4","last_reported":1738786231,"current_range_meters":11600,"station_id":"ce4bhlp2rcd13ifvqgjg","pricing_plan_id":"cebpf4jnsgd1na2vs0mg"},{"bike_id":"403724e3-d720-4605-b60a-eb50d0ff6cdc","system_id":"levelo_inurba_marseille","lat":43.30418,"lon":5.41289,"is_reserved":false,"is_disabled":false,"rental_uris":{"android":"levelo://app?vid=403724e3-d720-4605-b60a-eb50d0ff6cdc","ios":"levelo://app?vid=403724e3-d720-4605-b60a-eb50d0ff6cdc"},"vehicle_type_id":"4","last_reported":1738786231,"current_range_meters":38800,"station_id":"ce4bhop2rcd13ifvqh8g","pricing_plan_id":"cebpf4jnsgd1na2vs0mg"},{"bike_id":"3352bfc4-da51-4a27-a001-e7d44e7d9b1a","system_id":"levelo_inurba_marseille","lat":43.28598,"lon":5.382286,"is_reserved":false,"is_disabled":false,"rental_uris":{"android":"levelo://app?vid=3352bfc4-da51-4a27-a001-e7d44e7d9b1a","ios":"levelo://app?vid=3352bfc4-da51-4a27-a001-e7d44e7d9b1a"},"vehicle_type_id":"4","last_reported":1738786231,"current_range_meters":38400,"station_id":"ce4bh512rcd13ifvqe3g","pricing_plan_id":"cebpf4jnsgd1na2vs0mg"},{"bike_id":"03253d8c-4097-49f1-9a00-b8ccecf3b429","system_id":"levelo_inurba_marseille","lat":43.28674,"lon":5.36353,"is_reserved":false,"is_disabled":false,"rental_uris":{"android":"levelo://app?vid=03253d8c-4097-49f1-9a00-b8ccecf3b429","ios":"levelo://app?vid=03253d8c-4097-49f1-9a00-b8ccecf3b429"},"vehicle_type_id":"4","last_reported":1738786231,"current_range_meters":36800,"station_id":"ce4bhah2rcd13ifvqej0","pricing_plan_id":"cebpf4jnsgd1na2vs0mg"},{"bike_id":"0fc6bf8a-9be8-4d5e-90dd-d39109d88c88","system_id":"levelo_inurba_marseille","lat":43.29093,"lon":5.38169,"is_reserved":false,"is_disabled":false,"rental_uris":{"android":"levelo://app?vid=0fc6bf8a-9be8-4d5e-90dd-d39109d88c88","ios":"levelo://app?vid=0fc6bf8a-9be8-4d5e-90dd-d39109d88c88"},"vehicle_type_id":"4","last_reported":1738786231,"current_range_meters":2800,"station_id":"ce4bh512rcd13ifvqe2g","pricing_plan_id":"cebpf4jnsgd1na2vs0mg"},{"bike_id":"f43b8c84-0353-4e13-a527-2245aba3e91f","system_id":"levelo_inurba_marseille","lat":43.24548,"lon":5.39521,"is_reserved":false,"is_disabled":false,"rental_uris":{"android":"levelo://app?vid=f43b8c84-0353-4e13-a527-2245aba3e91f","ios":"levelo://app?vid=f43b8c84-0353-4e13-a527-2245aba3e91f"},"vehicle_type_id":"4","last_reported":1738786231,"current_range_meters":30800,"station_id":"ce4bhlp2rcd13ifvqgjg","pricing_plan_id":"cebpf4jnsgd1na2vs0mg"},{"bike_id":"8dcb5648-f815-40ee-a1ef-63cb7b60c563","system_id":"levelo_inurba_marseille","lat":43.31985,"lon":5.38174,"is_reserved":false,"is_disabled":false,"rental_uris":{"android":"levelo://app?vid=8dcb5648-f815-40ee-a1ef-63cb7b60c563","ios":"levelo://app?vid=8dcb5648-f815-40ee-a1ef-63cb7b60c563"},"vehicle_type_id":"4","last_reported":1738786231,"current_range_meters":31200,"station_id":"ce4bhr12rcd13ifvqhpg","pricing_plan_id":"cebpf4jnsgd1na2vs0mg"},{"bike_id":"40b19c94-a929-42a3-bbae-f2985b4b62a4","system_id":"levelo_inurba_marseille","lat":43.27913,"lon":5.38006,"is_reserved":false,"is_disabled":false,"rental_uris":{"android":"levelo://app?vid=40b19c94-a929-42a3-bbae-f2985b4b62a4","ios":"levelo://app?vid=40b19c94-a929-42a3-bbae-f2985b4b62a4"},"vehicle_type_id":"4","last_reported":1738786231,"current_range_meters":5600,"station_id":"ce4bhdp2rcd13ifvqf20","pricing_plan_id":"cebpf4jnsgd1na2vs0mg"},{"bike_id":"e4166247-c0cb-44bd-86de-c16fa3f40ccd","system_id":"levelo_inurba_marseille","lat":43.31075,"lon":5.38349,"is_reserved":false,"is_disabled":false,"rental_uris":{"android":"levelo://app?vid=e4166247-c0cb-44bd-86de-c16fa3f40ccd","ios":"levelo://app?vid=e4166247-c0cb-44bd-86de-c16fa3f40ccd"},"vehicle_type_id":"4","last_reported":1738786231,"current_range_meters":6800,"station_id":"ce4bgv92rcd13ifvqcr0","pricing_plan_id":"cebpf4jnsgd1na2vs0mg"},{"bike_id":"a9ee38d0-21e8-4d99-8e3f-cc643e32473e","system_id":"levelo_inurba_marseille","lat":43.27813,"lon":5.40714,"is_reserved":false,"is_disabled":false,"rental_uris":{"android":"levelo://app?vid=a9ee38d0-21e8-4d99-8e3f-cc643e32473e","ios":"levelo://app?vid=a9ee38d0-21e8-4d99-8e3f-cc643e32473e"},"vehicle_type_id":"4","last_reported":1738786231,"current_range_meters":37600,"station_id":"ce4bhnh2rcd13ifvqgtg","pricing_plan_id":"cebpf4jnsgd1na2vs0mg"},{"bike_id":"9c81c1b8-1b89-413e-855b-6a07871bc1e0","system_id":"levelo_inurba_marseille","lat":43.23959,"lon":5.36629,"is_reserved":false,"is_disabled":false,"rental_uris":{"android":"levelo://app?vid=9c81c1b8-1b89-413e-855b-6a07871bc1e0","ios":"levelo://app?vid=9c81c1b8-1b89-413e-855b-6a07871bc1e0"},"vehicle_type_id":"4","last_reported":1738786231,"current_range_meters":24400,"station_id":"ce4bhi12rcd13ifvqfp0","pricing_plan_id":"cebpf4jnsgd1na2vs0mg"},{"bike_id":"dd44b27e-5cdd-40ef-9581-50edd772f436","system_id":"levelo_inurba_marseille","lat":43.30871,"lon":5.39645,"is_reserved":false,"is_disabled":false,"rental_uris":{"android":"levelo://app?vid=dd44b27e-5cdd-40ef-9581-50edd772f436","ios":"levelo://app?vid=dd44b27e-5cdd-40ef-9581-50edd772f436"},"vehicle_type_id":"4","last_reported":1738786231,"current_range_meters":11600,"station_id":"ce4bh012rcd13ifvqcv0","pricing_plan_id":"cebpf4jnsgd1na2vs0mg"},{"bike_id":"66c91f0e-d404-4399-99c9-77276ceb134d","system_id":"levelo_inurba_marseille","lat":43.30536,"lon":5.36525,"is_reserved":false,"is_disabled":true,"rental_uris":{"android":"levelo://app?vid=66c91f0e-d404-4399-99c9-77276ceb134d","ios":"levelo://app?vid=66c91f0e-d404-4399-99c9-77276ceb134d"},"vehicle_type_id":"4","last_reported":1738786231,"current_range_meters":38000,"station_id":"ce4bgs12rcd13ifvqcag","pricing_plan_id":"cebpf4jnsgd1na2vs0mg"},{"bike_id":"3d1d38d7-e37e-41a9-9885-0f5e96cdb53e","system_id":"levelo_inurba_marseille","lat":43.284567,"lon":5.358902,"is_reserved":false,"is_disabled":false,"rental_uris":{"android":"levelo://app?vid=3d1d38d7-e37e-41a9-9885-0f5e96cdb53e","ios":"levelo://app?vid=3d1d38d7-e37e-41a9-9885-0f5e96cdb53e"},"vehicle_type_id":"4","last_reported":1738786231,"current_range_meters":16400,"station_id":"ce4bhah2rcd13ifvqei0","pricing_plan_id":"cebpf4jnsgd1na2vs0mg"},{"bike_id":"bab07d03-5352-4a1b-80e4-e1f9df8edacd","system_id":"levelo_inurba_marseille","lat":43.23191,"lon":5.35555,"is_reserved":false,"is_disabled":false,"rental_uris":{"android":"levelo://app?vid=bab07d03-5352-4a1b-80e4-e1f9df8edacd","ios":"levelo://app?vid=bab07d03-5352-4a1b-80e4-e1f9df8edacd"},"vehicle_type_id":"4","last_reported":1738786231,"current_range_meters":36800,"station_id":"ce4bhu92rcd13ifvqi70","pricing_plan_id":"cebpf4jnsgd1na2vs0mg"},{"bike_id":"568b8612-9017-4880-b7d7-921a6af61f24","system_id":"levelo_inurba_marseille","lat":43.26504,"lon":5.39543,"is_reserved":false,"is_disabled":false,"rental_uris":{"android":"levelo://app?vid=568b8612-9017-4880-b7d7-921a6af61f24","ios":"levelo://app?vid=568b8612-9017-4880-b7d7-921a6af61f24"},"vehicle_type_id":"4","last_reported":1738786231,"current_range_meters":32000,"station_id":"ce4bhi12rcd13ifvqfq0","pricing_plan_id":"cebpf4jnsgd1na2vs0mg"},{"bike_id":"537e744e-4567-433f-aaae-70e980deab7a","system_id":"levelo_inurba_marseille","lat":43.29426,"lon":5.38632,"is_reserved":false,"is_disabled":false,"rental_uris":{"android":"levelo://app?vid=537e744e-4567-433f-aaae-70e980deab7a","ios":"levelo://app?vid=537e744e-4567-433f-aaae-70e980deab7a"},"vehicle_type_id":"4","last_reported":1738786231,"current_range_meters":39200,"station_id":"ce4bh2h2rcd13ifvqdh0","pricing_plan_id":"cebpf4jnsgd1na2vs0mg"},{"bike_id":"8217aeec-eb5f-477e-ac1b-6345841b876f","system_id":"levelo_inurba_marseille","lat":43.30793,"lon":5.38149,"is_reserved":false,"is_disabled":false,"rental_uris":{"android":"levelo://app?vid=8217aeec-eb5f-477e-ac1b-6345841b876f","ios":"levelo://app?vid=8217aeec-eb5f-477e-ac1b-6345841b876f"},"vehicle_type_id":"4","last_reported":1738786231,"current_range_meters":19200,"station_id":"ce4bgt12rcd13ifvqce0","pricing_plan_id":"cebpf4jnsgd1na2vs0mg"},{"bike_id":"56915f38-ec53-48db-9554-671348a1f6cb","system_id":"levelo_inurba_marseille","lat":43.33026,"lon":5.39041,"is_reserved":false,"is_disabled":false,"rental_uris":{"android":"levelo://app?vid=56915f38-ec53-48db-9554-671348a1f6cb","ios":"levelo://app?vid=56915f38-ec53-48db-9554-671348a1f6cb"},"vehicle_type_id":"4","last_reported":1738786231,"current_range_meters":37600,"station_id":"ce4bhr92rcd13ifvqhrg","pricing_plan_id":"cebpf4jnsgd1na2vs0mg"},{"bike_id":"ddb48a2e-0e7a-4db9-bb08-d15c6b7ecf4a","system_id":"levelo_inurba_marseille","lat":43.27626,"lon":5.36122,"is_reserved":false,"is_disabled":false,"rental_uris":{"android":"levelo://app?vid=ddb48a2e-0e7a-4db9-bb08-d15c6b7ecf4a","ios":"levelo://app?vid=ddb48a2e-0e7a-4db9-bb08-d15c6b7ecf4a"},"vehicle_type_id":"4","last_reported":1738786231,"current_range_meters":38800,"station_id":"ce4bgj92rcd13ifvqbe0","pricing_plan_id":"cebpf4jnsgd1na2vs0mg"},{"bike_id":"039d6344-780f-4135-a3ba-fc6df29ecbb3","system_id":"levelo_inurba_marseille","lat":43.27374,"lon":5.36255,"is_reserved":false,"is_disabled":false,"rental_uris":{"android":"levelo://app?vid=039d6344-780f-4135-a3ba-fc6df29ecbb3","ios":"levelo://app?vid=039d6344-780f-4135-a3ba-fc6df29ecbb3"},"vehicle_type_id":"4","last_reported":1738786231,"current_range_meters":38400,"station_id":"ce4bhbh2rcd13ifvqeo0","pricing_plan_id":"cebpf4jnsgd1na2vs0mg"},{"bike_id":"e7d31327-323a-443c-bb67-39186722e63f","system_id":"levelo_inurba_marseille","lat":43.33759,"lon":5.3743,"is_reserved":false,"is_disabled":false,"rental_uris":{"android":"levelo://app?vid=e7d31327-323a-443c-bb67-39186722e63f","ios":"levelo://app?vid=e7d31327-323a-443c-bb67-39186722e63f"},"vehicle_type_id":"4","last_reported":1738786231,"current_range_meters":10000,"station_id":"","pricing_plan_id":"cebpf4jnsgd1na2vs0mg"},{"bike_id":"2572fdac-e7f3-4485-9667-c97086ae89fa","system_id":"levelo_inurba_marseille","lat":43.28733,"lon":5.36083,"is_reserved":false,"is_disabled":false,"rental_uris":{"android":"levelo://app?vid=2572fdac-e7f3-4485-9667-c97086ae89fa","ios":"levelo://app?vid=2572fdac-e7f3-4485-9667-c97086ae89fa"},"vehicle_type_id":"4","last_reported":1738786231,"current_range_meters":27600,"station_id":"cki0cbj6b192h4jlfktg","pricing_plan_id":"cebpf4jnsgd1na2vs0mg"},{"bike_id":"9f662178-8e13-4fbd-b72e-d4c1be152a5e","system_id":"levelo_inurba_marseille","lat":43.29256,"lon":5.38442,"is_reserved":false,"is_disabled":false,"rental_uris":{"android":"levelo://app?vid=9f662178-8e13-4fbd-b72e-d4c1be152a5e","ios":"levelo://app?vid=9f662178-8e13-4fbd-b72e-d4c1be152a5e"},"vehicle_type_id":"4","last_reported":1738786231,"current_range_meters":26000,"station_id":"ce4bh692rcd13ifvqea0","pricing_plan_id":"cebpf4jnsgd1na2vs0mg"},{"bike_id":"3cfb7099-62ec-4f80-a90a-a4428295d8b8","system_id":"levelo_inurba_marseille","lat":43.280968,"lon":5.396757,"is_reserved":false,"is_disabled":false,"rental_uris":{"android":"levelo://app?vid=3cfb7099-62ec-4f80-a90a-a4428295d8b8","ios":"levelo://app?vid=3cfb7099-62ec-4f80-a90a-a4428295d8b8"},"vehicle_type_id":"4","last_reported":1738786231,"current_range_meters":33600,"station_id":"ce4bho12rcd13ifvqh2g","pricing_plan_id":"cebpf4jnsgd1na2vs0mg"},{"bike_id":"f22c00d6-3566-4ae5-aa94-b50316485663","system_id":"levelo_inurba_marseille","lat":43.27965,"lon":5.41037,"is_reserved":false,"is_disabled":false,"rental_uris":{"android":"levelo://app?vid=f22c00d6-3566-4ae5-aa94-b50316485663","ios":"levelo://app?vid=f22c00d6-3566-4ae5-aa94-b50316485663"},"vehicle_type_id":"4","last_reported":1738786231,"current_range_meters":7200,"station_id":"ce4bhnp2rcd13ifvqh0g","pricing_plan_id":"cebpf4jnsgd1na2vs0mg"},{"bike_id":"6522239a-3688-4f94-bb02-adaf4a055ea5","system_id":"levelo_inurba_marseille","lat":43.23194,"lon":5.35551,"is_reserved":false,"is_disabled":false,"rental_uris":{"android":"levelo://app?vid=6522239a-3688-4f94-bb02-adaf4a055ea5","ios":"levelo://app?vid=6522239a-3688-4f94-bb02-adaf4a055ea5"},"vehicle_type_id":"4","last_reported":1738786231,"current_range_meters":7200,"station_id":"ce4bhu92rcd13ifvqi70","pricing_plan_id":"cebpf4jnsgd1na2vs0mg"},{"bike_id":"aee3719b-ff75-435e-aa1c-24b4bddf333e","system_id":"levelo_inurba_marseille","lat":43.24082,"lon":5.37755,"is_reserved":false,"is_disabled":false,"rental_uris":{"android":"levelo://app?vid=aee3719b-ff75-435e-aa1c-24b4bddf333e","ios":"levelo://app?vid=aee3719b-ff75-435e-aa1c-24b4bddf333e"},"vehicle_type_id":"4","last_reported":1738786231,"current_range_meters":24000,"station_id":"ce4bhnp2rcd13ifvqgvg","pricing_plan_id":"cebpf4jnsgd1na2vs0mg"},{"bike_id":"218c6780-4913-4816-a406-0f459333ae5d","system_id":"levelo_inurba_marseille","lat":43.28462,"lon":5.35882,"is_reserved":false,"is_disabled":false,"rental_uris":{"android":"levelo://app?vid=218c6780-4913-4816-a406-0f459333ae5d","ios":"levelo://app?vid=218c6780-4913-4816-a406-0f459333ae5d"},"vehicle_type_id":"4","last_reported":1738786231,"current_range_meters":30400,"station_id":"ce4bhah2rcd13ifvqei0","pricing_plan_id":"cebpf4jnsgd1na2vs0mg"},{"bike_id":"cb4d1324-8bec-42f8-bcf8-182052885667","system_id":"levelo_inurba_marseille","lat":43.30126,"lon":5.39844,"is_reserved":false,"is_disabled":false,"rental_uris":{"android":"levelo://app?vid=cb4d1324-8bec-42f8-bcf8-182052885667","ios":"levelo://app?vid=cb4d1324-8bec-42f8-bcf8-182052885667"},"vehicle_type_id":"4","last_reported":1738786231,"current_range_meters":16000,"station_id":"ce4bh0h2rcd13ifvqd40","pricing_plan_id":"cebpf4jnsgd1na2vs0mg"},{"bike_id":"61857cc0-1da3-4716-a1df-4b82d2ea552c","system_id":"levelo_inurba_marseille","lat":43.2511,"lon":5.40314,"is_reserved":false,"is_disabled":false,"rental_uris":{"android":"levelo://app?vid=61857cc0-1da3-4716-a1df-4b82d2ea552c","ios":"levelo://app?vid=61857cc0-1da3-4716-a1df-4b82d2ea552c"},"vehicle_type_id":"4","last_reported":1738786231,"current_range_meters":14000,"station_id":"ce4bhlh2rcd13ifvqgig","pricing_plan_id":"cebpf4jnsgd1na2vs0mg"},{"bike_id":"cd07e062-2af1-406e-bcb9-5f1ec4730937","system_id":"levelo_inurba_marseille","lat":43.23063,"lon":5.35491,"is_reserved":false,"is_disabled":false,"rental_uris":{"android":"levelo://app?vid=cd07e062-2af1-406e-bcb9-5f1ec4730937","ios":"levelo://app?vid=cd07e062-2af1-406e-bcb9-5f1ec4730937"},"vehicle_type_id":"4","last_reported":1738786231,"current_range_meters":38000,"station_id":"cpo3342slgdg3j2ifvpg","pricing_plan_id":"cebpf4jnsgd1na2vs0mg"},{"bike_id":"c3644d12-8427-4602-9945-9ef42c46feca","system_id":"levelo_inurba_marseille","lat":43.241709,"lon":5.363951,"is_reserved":false,"is_disabled":false,"rental_uris":{"android":"levelo://app?vid=c3644d12-8427-4602-9945-9ef42c46feca","ios":"levelo://app?vid=c3644d12-8427-4602-9945-9ef42c46feca"},"vehicle_type_id":"4","last_reported":1738786231,"current_range_meters":38000,"station_id":"cpo36qri1sfpv3e86is0","pricing_plan_id":"cebpf4jnsgd1na2vs0mg"},{"bike_id":"6b38d43d-337c-4149-9167-ccfdd61c33a4","system_id":"levelo_inurba_marseille","lat":43.29219,"lon":5.36077,"is_reserved":false,"is_disabled":false,"rental_uris":{"android":"levelo://app?vid=6b38d43d-337c-4149-9167-ccfdd61c33a4","ios":"levelo://app?vid=6b38d43d-337c-4149-9167-ccfdd61c33a4"},"vehicle_type_id":"4","last_reported":1738786231,"current_range_meters":35200,"station_id":"ce4bhbh2rcd13ifvqeqg","pricing_plan_id":"cebpf4jnsgd1na2vs0mg"},{"bike_id":"274186d6-fcd1-4040-98ea-21465f7f35af","system_id":"levelo_inurba_marseille","lat":43.25001,"lon":5.38922,"is_reserved":false,"is_disabled":false,"rental_uris":{"android":"levelo://app?vid=274186d6-fcd1-4040-98ea-21465f7f35af","ios":"levelo://app?vid=274186d6-fcd1-4040-98ea-21465f7f35af"},"vehicle_type_id":"4","last_reported":1738786231,"current_range_meters":38800,"station_id":"ce4bhgp2rcd13ifvqfd0","pricing_plan_id":"cebpf4jnsgd1na2vs0mg"},{"bike_id":"1e7bde43-ab8f-4755-b59a-acd0a53ae759","system_id":"levelo_inurba_marseille","lat":43.31716,"lon":5.42389,"is_reserved":false,"is_disabled":true,"rental_uris":{"android":"levelo://app?vid=1e7bde43-ab8f-4755-b59a-acd0a53ae759","ios":"levelo://app?vid=1e7bde43-ab8f-4755-b59a-acd0a53ae759"},"vehicle_type_id":"4","last_reported":1738786231,"current_range_meters":0,"station_id":"ce4bhp92rcd13ifvqhbg","pricing_plan_id":"cebpf4jnsgd1na2vs0mg"},{"bike_id":"59b73468-fd33-4932-88a3-798abaf357eb","system_id":"levelo_inurba_marseille","lat":43.33611,"lon":5.41033,"is_reserved":false,"is_disabled":false,"rental_uris":{"android":"levelo://app?vid=59b73468-fd33-4932-88a3-798abaf357eb","ios":"levelo://app?vid=59b73468-fd33-4932-88a3-798abaf357eb"},"vehicle_type_id":"4","last_reported":1738786231,"current_range_meters":23200,"station_id":"ce4bhqh2rcd13ifvqhmg","pricing_plan_id":"cebpf4jnsgd1na2vs0mg"},{"bike_id":"51d0991b-a36d-4070-ab20-02bb6d1d0ac7","system_id":"levelo_inurba_marseille","lat":43.313765,"lon":5.38493,"is_reserved":false,"is_disabled":false,"rental_uris":{"android":"levelo://app?vid=51d0991b-a36d-4070-ab20-02bb6d1d0ac7","ios":"levelo://app?vid=51d0991b-a36d-4070-ab20-02bb6d1d0ac7"},"vehicle_type_id":"4","last_reported":1738786231,"current_range_meters":36800,"station_id":"ce4bgt92rcd13ifvqcf0","pricing_plan_id":"cebpf4jnsgd1na2vs0mg"},{"bike_id":"bd944b22-bdc4-45a8-9a31-0c38734abd7e","system_id":"levelo_inurba_marseille","lat":43.289481,"lon":5.36396,"is_reserved":false,"is_disabled":false,"rental_uris":{"android":"levelo://app?vid=bd944b22-bdc4-45a8-9a31-0c38734abd7e","ios":"levelo://app?vid=bd944b22-bdc4-45a8-9a31-0c38734abd7e"},"vehicle_type_id":"4","last_reported":1738786231,"current_range_meters":4400,"station_id":"ce4bhc92rcd13ifvqetg","pricing_plan_id":"cebpf4jnsgd1na2vs0mg"},{"bike_id":"693aada9-e6ba-426f-9e3c-422116f71ca4","system_id":"levelo_inurba_marseille","lat":43.288477,"lon":5.358499,"is_reserved":false,"is_disabled":false,"rental_uris":{"android":"levelo://app?vid=693aada9-e6ba-426f-9e3c-422116f71ca4","ios":"levelo://app?vid=693aada9-e6ba-426f-9e3c-422116f71ca4"},"vehicle_type_id":"4","last_reported":1738786231,"current_range_meters":38800,"station_id":"ce4bhb12rcd13ifvqem0","pricing_plan_id":"cebpf4jnsgd1na2vs0mg"},{"bike_id":"78a4c83f-4d73-437d-9527-15d2cb2bd443","system_id":"levelo_inurba_marseille","lat":43.28168,"lon":5.42662,"is_reserved":false,"is_disabled":false,"rental_uris":{"android":"levelo://app?vid=78a4c83f-4d73-437d-9527-15d2cb2bd443","ios":"levelo://app?vid=78a4c83f-4d73-437d-9527-15d2cb2bd443"},"vehicle_type_id":"4","last_reported":1738786231,"current_range_meters":20400,"station_id":"ce4bhnh2rcd13ifvqgug","pricing_plan_id":"cebpf4jnsgd1na2vs0mg"},{"bike_id":"cb01388f-3a80-451e-a31a-3d3dab4be9c4","system_id":"levelo_inurba_marseille","lat":43.30657,"lon":5.40092,"is_reserved":false,"is_disabled":false,"rental_uris":{"android":"levelo://app?vid=cb01388f-3a80-451e-a31a-3d3dab4be9c4","ios":"levelo://app?vid=cb01388f-3a80-451e-a31a-3d3dab4be9c4"},"vehicle_type_id":"4","last_reported":1738786231,"current_range_meters":16400,"station_id":"ce4bh112rcd13ifvqda0","pricing_plan_id":"cebpf4jnsgd1na2vs0mg"},{"bike_id":"45a7daa2-2a2e-4454-90c3-1009aaecc5bd","system_id":"levelo_inurba_marseille","lat":43.23224,"lon":5.35569,"is_reserved":false,"is_disabled":false,"rental_uris":{"android":"levelo://app?vid=45a7daa2-2a2e-4454-90c3-1009aaecc5bd","ios":"levelo://app?vid=45a7daa2-2a2e-4454-90c3-1009aaecc5bd"},"vehicle_type_id":"4","last_reported":1738786231,"current_range_meters":39200,"station_id":"ce4bhu92rcd13ifvqi70","pricing_plan_id":"cebpf4jnsgd1na2vs0mg"},{"bike_id":"ee005bae-497c-4312-9b03-99403b18d5fb","system_id":"levelo_inurba_marseille","lat":43.26032,"lon":5.37557,"is_reserved":false,"is_disabled":false,"rental_uris":{"android":"levelo://app?vid=ee005bae-497c-4312-9b03-99403b18d5fb","ios":"levelo://app?vid=ee005bae-497c-4312-9b03-99403b18d5fb"},"vehicle_type_id":"4","last_reported":1738786231,"current_range_meters":14800,"station_id":"ce4bhgh2rcd13ifvqfa0","pricing_plan_id":"cebpf4jnsgd1na2vs0mg"},{"bike_id":"aece1634-918f-4f68-8bc7-9a7b7abafc1f","system_id":"levelo_inurba_marseille","lat":43.2814,"lon":5.42625,"is_reserved":false,"is_disabled":true,"rental_uris":{"android":"levelo://app?vid=aece1634-918f-4f68-8bc7-9a7b7abafc1f","ios":"levelo://app?vid=aece1634-918f-4f68-8bc7-9a7b7abafc1f"},"vehicle_type_id":"4","last_reported":1738786231,"current_range_meters":28800,"station_id":"ce4bhnh2rcd13ifvqgug","pricing_plan_id":"cebpf4jnsgd1na2vs0mg"},{"bike_id":"72e458a9-2a04-4d7d-a6ed-4033588f5b60","system_id":"levelo_inurba_marseille","lat":43.32358,"lon":5.38899,"is_reserved":false,"is_disabled":false,"rental_uris":{"android":"levelo://app?vid=72e458a9-2a04-4d7d-a6ed-4033588f5b60","ios":"levelo://app?vid=72e458a9-2a04-4d7d-a6ed-4033588f5b60"},"vehicle_type_id":"4","last_reported":1738786231,"current_range_meters":24400,"station_id":"ce4bhqp2rcd13ifvqhog","pricing_plan_id":"cebpf4jnsgd1na2vs0mg"},{"bike_id":"e4fbacd2-2c44-4b78-b9fc-d346dc2a77d1","system_id":"levelo_inurba_marseille","lat":43.32381,"lon":5.38873,"is_reserved":false,"is_disabled":false,"rental_uris":{"android":"levelo://app?vid=e4fbacd2-2c44-4b78-b9fc-d346dc2a77d1","ios":"levelo://app?vid=e4fbacd2-2c44-4b78-b9fc-d346dc2a77d1"},"vehicle_type_id":"4","last_reported":1738786231,"current_range_meters":36800,"station_id":"ce4bhqp2rcd13ifvqhog","pricing_plan_id":"cebpf4jnsgd1na2vs0mg"},{"bike_id":"3b1d5f28-8e2f-4cd2-84ee-32e60c8bc1d4","system_id":"levelo_inurba_marseille","lat":43.27943,"lon":5.38711,"is_reserved":false,"is_disabled":true,"rental_uris":{"android":"levelo://app?vid=3b1d5f28-8e2f-4cd2-84ee-32e60c8bc1d4","ios":"levelo://app?vid=3b1d5f28-8e2f-4cd2-84ee-32e60c8bc1d4"},"vehicle_type_id":"4","last_reported":1738786231,"current_range_meters":0,"station_id":"ce4bhg12rcd13ifvqf80","pricing_plan_id":"cebpf4jnsgd1na2vs0mg"},{"bike_id":"a3ed45c0-701d-4cbe-b249-37e7c0d79896","system_id":"levelo_inurba_marseille","lat":43.2816,"lon":5.42652,"is_reserved":false,"is_disabled":false,"rental_uris":{"android":"levelo://app?vid=a3ed45c0-701d-4cbe-b249-37e7c0d79896","ios":"levelo://app?vid=a3ed45c0-701d-4cbe-b249-37e7c0d79896"},"vehicle_type_id":"4","last_reported":1738786231,"current_range_meters":38800,"station_id":"ce4bhnh2rcd13ifvqgug","pricing_plan_id":"cebpf4jnsgd1na2vs0mg"},{"bike_id":"a17b902b-bafc-49d0-9389-2ce74253b3a1","system_id":"levelo_inurba_marseille","lat":43.27179,"lon":5.40999,"is_reserved":false,"is_disabled":true,"rental_uris":{"android":"levelo://app?vid=a17b902b-bafc-49d0-9389-2ce74253b3a1","ios":"levelo://app?vid=a17b902b-bafc-49d0-9389-2ce74253b3a1"},"vehicle_type_id":"4","last_reported":1738786231,"current_range_meters":39200,"station_id":"ce4bhl12rcd13ifvqgf0","pricing_plan_id":"cebpf4jnsgd1na2vs0mg"},{"bike_id":"82928581-7cae-4db3-9a68-a5b9ec34a9ee","system_id":"levelo_inurba_marseille","lat":43.31922,"lon":5.43364,"is_reserved":false,"is_disabled":true,"rental_uris":{"android":"levelo://app?vid=82928581-7cae-4db3-9a68-a5b9ec34a9ee","ios":"levelo://app?vid=82928581-7cae-4db3-9a68-a5b9ec34a9ee"},"vehicle_type_id":"4","last_reported":1738786231,"current_range_meters":0,"station_id":"","pricing_plan_id":"cebpf4jnsgd1na2vs0mg"},{"bike_id":"9d71d304-2002-4ef9-bd23-de48bc17ac77","system_id":"levelo_inurba_marseille","lat":43.24073,"lon":5.37688,"is_reserved":false,"is_disabled":false,"rental_uris":{"android":"levelo://app?vid=9d71d304-2002-4ef9-bd23-de48bc17ac77","ios":"levelo://app?vid=9d71d304-2002-4ef9-bd23-de48bc17ac77"},"vehicle_type_id":"4","last_reported":1738786231,"current_range_meters":38800,"station_id":"ce4bhnp2rcd13ifvqgvg","pricing_plan_id":"cebpf4jnsgd1na2vs0mg"},{"bike_id":"4c39175e-5a78-448c-983d-04e37d7e800c","system_id":"levelo_inurba_marseille","lat":43.26936,"lon":5.38916,"is_reserved":false,"is_disabled":false,"rental_uris":{"android":"levelo://app?vid=4c39175e-5a78-448c-983d-04e37d7e800c","ios":"levelo://app?vid=4c39175e-5a78-448c-983d-04e37d7e800c"},"vehicle_type_id":"4","last_reported":1738786231,"current_range_meters":10800,"station_id":"ce4bhhh2rcd13ifvqfl0","pricing_plan_id":"cebpf4jnsgd1na2vs0mg"},{"bike_id":"4a0f6893-fde6-49c6-a1ca-e86134e00597","system_id":"levelo_inurba_marseille","lat":43.28937,"lon":5.36624,"is_reserved":false,"is_disabled":false,"rental_uris":{"android":"levelo://app?vid=4a0f6893-fde6-49c6-a1ca-e86134e00597","ios":"levelo://app?vid=4a0f6893-fde6-49c6-a1ca-e86134e00597"},"vehicle_type_id":"4","last_reported":1738786231,"current_range_meters":38800,"station_id":"ce4bhap2rcd13ifvqek0","pricing_plan_id":"cebpf4jnsgd1na2vs0mg"},{"bike_id":"39e48cdd-1e81-47f1-8caa-7197be9aaab1","system_id":"levelo_inurba_marseille","lat":43.3176,"lon":5.39013,"is_reserved":false,"is_disabled":false,"rental_uris":{"android":"levelo://app?vid=39e48cdd-1e81-47f1-8caa-7197be9aaab1","ios":"levelo://app?vid=39e48cdd-1e81-47f1-8caa-7197be9aaab1"},"vehicle_type_id":"4","last_reported":1738786231,"current_range_meters":39200,"station_id":"ce4bhqp2rcd13ifvqhng","pricing_plan_id":"cebpf4jnsgd1na2vs0mg"},{"bike_id":"e7c1e588-17f4-4a84-9179-50c6166feadc","system_id":"levelo_inurba_marseille","lat":43.29412,"lon":5.3863,"is_reserved":false,"is_disabled":false,"rental_uris":{"android":"levelo://app?vid=e7c1e588-17f4-4a84-9179-50c6166feadc","ios":"levelo://app?vid=e7c1e588-17f4-4a84-9179-50c6166feadc"},"vehicle_type_id":"4","last_reported":1738786231,"current_range_meters":11600,"station_id":"ce4bh2h2rcd13ifvqdh0","pricing_plan_id":"cebpf4jnsgd1na2vs0mg"},{"bike_id":"93f89aed-45dc-4731-909b-005a8cc9c9bd","system_id":"levelo_inurba_marseille","lat":43.2861,"lon":5.37065,"is_reserved":false,"is_disabled":false,"rental_uris":{"android":"levelo://app?vid=93f89aed-45dc-4731-909b-005a8cc9c9bd","ios":"levelo://app?vid=93f89aed-45dc-4731-909b-005a8cc9c9bd"},"vehicle_type_id":"4","last_reported":1738786231,"current_range_meters":38800,"station_id":"ce4bht12rcd13ifvqi60","pricing_plan_id":"cebpf4jnsgd1na2vs0mg"},{"bike_id":"554e5e02-8015-4d2a-aeb7-01f85173ce07","system_id":"levelo_inurba_marseille","lat":43.29081,"lon":5.35894,"is_reserved":false,"is_disabled":false,"rental_uris":{"android":"levelo://app?vid=554e5e02-8015-4d2a-aeb7-01f85173ce07","ios":"levelo://app?vid=554e5e02-8015-4d2a-aeb7-01f85173ce07"},"vehicle_type_id":"4","last_reported":1738786231,"current_range_meters":39200,"station_id":"ce4bha92rcd13ifvqeg0","pricing_plan_id":"cebpf4jnsgd1na2vs0mg"},{"bike_id":"2118c82d-0143-415d-aaf1-22408e5c55b9","system_id":"levelo_inurba_marseille","lat":43.28482,"lon":5.39199,"is_reserved":false,"is_disabled":false,"rental_uris":{"android":"levelo://app?vid=2118c82d-0143-415d-aaf1-22408e5c55b9","ios":"levelo://app?vid=2118c82d-0143-415d-aaf1-22408e5c55b9"},"vehicle_type_id":"4","last_reported":1738786231,"current_range_meters":36800,"station_id":"ce4bhoh2rcd13ifvqh5g","pricing_plan_id":"cebpf4jnsgd1na2vs0mg"},{"bike_id":"0a1d80a5-8567-473e-862c-e2d2e710157a","system_id":"levelo_inurba_marseille","lat":43.28437,"lon":5.3497,"is_reserved":false,"is_disabled":false,"rental_uris":{"android":"levelo://app?vid=0a1d80a5-8567-473e-862c-e2d2e710157a","ios":"levelo://app?vid=0a1d80a5-8567-473e-862c-e2d2e710157a"},"vehicle_type_id":"4","last_reported":1738786231,"current_range_meters":32800,"station_id":"ce4bhbh2rcd13ifvqepg","pricing_plan_id":"cebpf4jnsgd1na2vs0mg"},{"bike_id":"e3bbe766-be98-48c1-aefd-d0283f0f2b97","system_id":"levelo_inurba_marseille","lat":43.2931,"lon":5.37171,"is_reserved":false,"is_disabled":false,"rental_uris":{"android":"levelo://app?vid=e3bbe766-be98-48c1-aefd-d0283f0f2b97","ios":"levelo://app?vid=e3bbe766-be98-48c1-aefd-d0283f0f2b97"},"vehicle_type_id":"4","last_reported":1738786231,"current_range_meters":34000,"station_id":"ce4bgh92rcd13ifvqb40","pricing_plan_id":"cebpf4jnsgd1na2vs0mg"},{"bike_id":"f8a4576c-8966-495c-b624-858315fd786c","system_id":"levelo_inurba_marseille","lat":43.29113,"lon":5.38148,"is_reserved":false,"is_disabled":false,"rental_uris":{"android":"levelo://app?vid=f8a4576c-8966-495c-b624-858315fd786c","ios":"levelo://app?vid=f8a4576c-8966-495c-b624-858315fd786c"},"vehicle_type_id":"4","last_reported":1738786231,"current_range_meters":21600,"station_id":"ce4bh512rcd13ifvqe2g","pricing_plan_id":"cebpf4jnsgd1na2vs0mg"},{"bike_id":"efc75f68-c0e7-4c38-a126-0f2ae1afe39d","system_id":"levelo_inurba_marseille","lat":43.27179,"lon":5.40894,"is_reserved":false,"is_disabled":false,"rental_uris":{"android":"levelo://app?vid=efc75f68-c0e7-4c38-a126-0f2ae1afe39d","ios":"levelo://app?vid=efc75f68-c0e7-4c38-a126-0f2ae1afe39d"},"vehicle_type_id":"4","last_reported":1738786231,"current_range_meters":39200,"station_id":"ce4bhl12rcd13ifvqgf0","pricing_plan_id":"cebpf4jnsgd1na2vs0mg"},{"bike_id":"c8867084-73b3-4ef6-939b-90719c3af5d4","system_id":"levelo_inurba_marseille","lat":43.241647,"lon":5.364113,"is_reserved":false,"is_disabled":true,"rental_uris":{"android":"levelo://app?vid=c8867084-73b3-4ef6-939b-90719c3af5d4","ios":"levelo://app?vid=c8867084-73b3-4ef6-939b-90719c3af5d4"},"vehicle_type_id":"4","last_reported":1738786231,"current_range_meters":4400,"station_id":"cpo36qri1sfpv3e86is0","pricing_plan_id":"cebpf4jnsgd1na2vs0mg"},{"bike_id":"3ce9be42-ab76-43a9-bf8b-31b97f0d14a1","system_id":"levelo_inurba_marseille","lat":43.28476,"lon":5.3589,"is_reserved":false,"is_disabled":false,"rental_uris":{"android":"levelo://app?vid=3ce9be42-ab76-43a9-bf8b-31b97f0d14a1","ios":"levelo://app?vid=3ce9be42-ab76-43a9-bf8b-31b97f0d14a1"},"vehicle_type_id":"4","last_reported":1738786231,"current_range_meters":28800,"station_id":"ce4bhah2rcd13ifvqei0","pricing_plan_id":"cebpf4jnsgd1na2vs0mg"},{"bike_id":"25d556ce-3f32-408f-bbd6-29b976ef448a","system_id":"levelo_inurba_marseille","lat":43.23193,"lon":5.39976,"is_reserved":false,"is_disabled":false,"rental_uris":{"android":"levelo://app?vid=25d556ce-3f32-408f-bbd6-29b976ef448a","ios":"levelo://app?vid=25d556ce-3f32-408f-bbd6-29b976ef448a"},"vehicle_type_id":"4","last_reported":1738786231,"current_range_meters":11200,"station_id":"ce4bhn12rcd13ifvqgqg","pricing_plan_id":"cebpf4jnsgd1na2vs0mg"},{"bike_id":"61448cdc-71a0-4a68-8574-d29e3ec30fef","system_id":"levelo_inurba_marseille","lat":43.3119,"lon":5.38712,"is_reserved":false,"is_disabled":false,"rental_uris":{"android":"levelo://app?vid=61448cdc-71a0-4a68-8574-d29e3ec30fef","ios":"levelo://app?vid=61448cdc-71a0-4a68-8574-d29e3ec30fef"},"vehicle_type_id":"4","last_reported":1738786231,"current_range_meters":39200,"station_id":"ce4bgv12rcd13ifvqcp0","pricing_plan_id":"cebpf4jnsgd1na2vs0mg"},{"bike_id":"edba70a9-b1f8-4bb5-bd02-f5669cf894f4","system_id":"levelo_inurba_marseille","lat":43.290234,"lon":5.386448,"is_reserved":false,"is_disabled":false,"rental_uris":{"android":"levelo://app?vid=edba70a9-b1f8-4bb5-bd02-f5669cf894f4","ios":"levelo://app?vid=edba70a9-b1f8-4bb5-bd02-f5669cf894f4"},"vehicle_type_id":"4","last_reported":1738786231,"current_range_meters":38800,"station_id":"ce4bh4p2rcd13ifvqe0g","pricing_plan_id":"cebpf4jnsgd1na2vs0mg"},{"bike_id":"97e3f16d-c680-499c-b7df-c4ab9d43861c","system_id":"levelo_inurba_marseille","lat":43.23191,"lon":5.39968,"is_reserved":false,"is_disabled":false,"rental_uris":{"android":"levelo://app?vid=97e3f16d-c680-499c-b7df-c4ab9d43861c","ios":"levelo://app?vid=97e3f16d-c680-499c-b7df-c4ab9d43861c"},"vehicle_type_id":"4","last_reported":1738786231,"current_range_meters":22400,"station_id":"ce4bhn12rcd13ifvqgqg","pricing_plan_id":"cebpf4jnsgd1na2vs0mg"},