{"last_updated":1744892378,"ttl":60,"version":"2.2","data":{"bikes":[{"bike_id":"ea8ba556-fd8f-4617-bbfe-466bb3964e42","system_id":"levelo_inurba_marseille","lat":43.28414,"lon":5.34978,"is_reserved":false,"is_disabled":false,"rental_uris":{"android":"levelo://app?vid=ea8ba556-fd8f-4617-bbfe-466bb3964e42","ios":"levelo://app?vid=ea8ba556-fd8f-4617-bbfe-466bb3964e42"},"vehicle_type_id":"4","last_reported":1744892378,"current_range_meters":2800,"station_id":"ce4bhbh2rcd13ifvqepg","pricing_plan_id":"cebpf4jnsgd1na2vs0mg"},{"bike_id":"4be423fc-b49d-4203-8abc-985b45dfd65e","system_id":"levelo_inurba_marseille","lat":43.32933,"lon":5.43359,"is_reserved":false,"is_disabled":false,"rental_uris":{"android":"levelo://app?vid=4be423fc-b49d-4203-8abc-985b45dfd65e","ios":"levelo://app?vid=4be423fc-b49d-4203-8abc-985b45dfd65e"},"vehicle_type_id":"4","last_reported":1744892378,"current_range_meters":2800,"station_id":"","pricing_plan_id":"cebpf4jnsgd1na2vs0mg"},{"bike_id":"e830f15f-1fc7-4598-869b-2baaf3289f9f","system_id":"levelo_inurba_marseille","lat":43.3252,"lon":5.41471,"is_reserved":false,"is_disabled":false,"rental_uris":{"android":"levelo://app?vid=e830f15f-1fc7-4598-869b-2baaf3289f9f","ios":"levelo://app?vid=e830f15f-1fc7-4598-869b-2baaf3289f9f"},"vehicle_type_id":"4","last_reported":1744892378,"current_range_meters":3200,"station_id":"ce4bhq12rcd13ifvqhhg","pricing_plan_id":"cebpf4jnsgd1na2vs0mg"},{"bike_id":"1d738a8a-7a7b-40f3-bf14-2d211845d2d2","system_id":"levelo_inurba_marseille","lat":43.28368,"lon":5.38638,"is_reserved":false,"is_disabled":false,"rental_uris":{"android":"levelo://app?vid=1d738a8a-7a7b-40f3-bf14-2d211845d2d2","ios":"levelo://app?vid=1d738a8a-7a7b-40f3-bf14-2d211845d2d2"},"vehicle_type_id":"4","last_reported":1744892378,"current_range_meters":3600,"station_id":"ce4bh492rcd13ifvqdvg","pricing_plan_id":"cebpf4jnsgd1na2vs0mg"},{"bike_id":"b11fa236-0873-4080-a061-fb355887c208","system_id":"levelo_inurba_marseille","lat":43.29614,"lon":5.372401,"is_reserved":false,"is_disabled":false,"rental_uris":{"android":"levelo://app?vid=b11fa236-0873-4080-a061-fb355887c208","ios":"levelo://app?vid=b11fa236-0873-4080-a061-fb355887c208"},"vehicle_type_id":"4","last_reported":1744892378,"current_range_meters":3600,"station_id":"ce4bh392rcd13ifvqdl0","pricing_plan_id":"cebpf4jnsgd1na2vs0mg"},{"bike_id":"446d6e21-4f63-44de-8629-dc8dd2918d8e","system_id":"levelo_inurba_marseille","lat":43.29968,"lon":5.38523,"is_reserved":false,"is_disabled":false,"rental_uris":{"android":"levelo://app?vid=446d6e21-4f63-44de-8629-dc8dd2918d8e","ios":"levelo://app?vid=446d6e21-4f63-44de-8629-dc8dd2918d8e"},"vehicle_type_id":"4","last_reported":1744892378,"current_range_meters":3600,"station_id":"ce4bgj92rcd13ifvqbd0","pricing_plan_id":"cebpf4jnsgd1na2vs0mg"},{"bike_id":"376f754b-7bba-4962-babe-b49b1468281c","system_id":"levelo_inurba_marseille","lat":43.30926,"lon":5.40162,"is_reserved":false,"is_disabled":true,"rental_uris":{"android":"levelo://app?vid=376f754b-7bba-4962-babe-b49b1468281c","ios":"levelo://app?vid=376f754b-7bba-4962-babe-b49b1468281c"},"vehicle_type_id":"4","last_reported":1744892378,"current_range_meters":3600,"station_id":"ce4bgvp2rcd13ifvqct0","pricing_plan_id":"cebpf4jnsgd1na2vs0mg"},{"bike_id":"3bc5ba5b-8d55-466c-b126-0301703e0963","system_id":"levelo_inurba_marseille","lat":43.31228,"lon":5.3685,"is_reserved":false,"is_disabled":false,"rental_uris":{"android":"levelo://app?vid=3bc5ba5b-8d55-466c-b126-0301703e0963","ios":"levelo://app?vid=3bc5ba5b-8d55-466c-b126-0301703e0963"},"vehicle_type_id":"4","last_reported":1744892378,"current_range_meters":4000,"station_id":"ce4bgl92rcd13ifvqbq0","pricing_plan_id":"cebpf4jnsgd1na2vs0mg"},{"bike_id":"834ec9e1-9d50-4bee-85ae-d1db335c55e5","system_id":"levelo_inurba_marseille","lat":43.31937,"lon":5.36737,"is_reserved":false,"is_disabled":false,"rental_uris":{"android":"levelo://app?vid=834ec9e1-9d50-4bee-85ae-d1db335c55e5","ios":"levelo://app?vid=834ec9e1-9d50-4bee-85ae-d1db335c55e5"},"vehicle_type_id":"4","last_reported":1744892378,"current_range_meters":4000,"station_id":"","pricing_plan_id":"cebpf4jnsgd1na2vs0mg"},{"bike_id":"27d65429-e235-4ad4-8e99-624219bf772a","system_id":"levelo_inurba_marseille","lat":43.30743,"lon":5.42437,"is_reserved":false,"is_disabled":false,"rental_uris":{"android":"levelo://app?vid=27d65429-e235-4ad4-8e99-624219bf772a","ios":"levelo://app?vid=27d65429-e235-4ad4-8e99-624219bf772a"},"vehicle_type_id":"4","last_reported":1744892378,"current_range_meters":4000,"station_id":"st_cvj6ca6bvosntc0bfgr0","pricing_plan_id":"cebpf4jnsgd1na2vs0mg"},{"bike_id":"5f20aa9e-b8a1-4e66-8fa4-8e236e751d32","system_id":"levelo_inurba_marseille","lat":43.28712,"lon":5.37399,"is_reserved":false,"is_disabled":false,"rental_uris":{"android":"levelo://app?vid=5f20aa9e-b8a1-4e66-8fa4-8e236e751d32","ios":"levelo://app?vid=5f20aa9e-b8a1-4e66-8fa4-8e236e751d32"},"vehicle_type_id":"4","last_reported":1744892378,"current_range_meters":4000,"station_id":"ce4bh3p2rcd13ifvqdq0","pricing_plan_id":"cebpf4jnsgd1na2vs0mg"},{"bike_id":"13265a65-0078-4658-a260-29784d76c6a7","system_id":"levelo_inurba_marseille","lat":43.30154,"lon":5.381,"is_reserved":false,"is_disabled":false,"rental_uris":{"android":"levelo://app?vid=13265a65-0078-4658-a260-29784d76c6a7","ios":"levelo://app?vid=13265a65-0078-4658-a260-29784d76c6a7"},"vehicle_type_id":"4","last_reported":1744892378,"current_range_meters":4800,"station_id":"ce4bgjp2rcd13ifvqbh0","pricing_plan_id":"cebpf4jnsgd1na2vs0mg"},{"bike_id":"081736b6-fc5c-4e94-8e6f-87323a3c4c8f","system_id":"levelo_inurba_marseille","lat":43.290998,"lon":5.375471,"is_reserved":false,"is_disabled":false,"rental_uris":{"android":"levelo://app?vid=081736b6-fc5c-4e94-8e6f-87323a3c4c8f","ios":"levelo://app?vid=081736b6-fc5c-4e94-8e6f-87323a3c4c8f"},"vehicle_type_id":"4","last_reported":1744892378,"current_range_meters":8000,"station_id":"ce4bh692rcd13ifvqe90","pricing_plan_id":"cebpf4jnsgd1na2vs0mg"},{"bike_id":"132168d4-7307-4779-88d2-bc9c78f14e33","system_id":"levelo_inurba_marseille","lat":43.2316,"lon":5.43718,"is_reserved":false,"is_disabled":false,"rental_uris":{"android":"levelo://app?vid=132168d4-7307-4779-88d2-bc9c78f14e33","ios":"levelo://app?vid=132168d4-7307-4779-88d2-bc9c78f14e33"},"vehicle_type_id":"4","last_reported":1744892378,"current_range_meters":6000,"station_id":"ce4bhmp2rcd13ifvqgog","pricing_plan_id":"cebpf4jnsgd1na2vs0mg"},{"bike_id":"b2264eb1-5e1f-4f92-929e-c66b4b54a200","system_id":"levelo_inurba_marseille","lat":43.28615,"lon":5.37054,"is_reserved":false,"is_disabled":false,"rental_uris":{"android":"levelo://app?vid=b2264eb1-5e1f-4f92-929e-c66b4b54a200","ios":"levelo://app?vid=b2264eb1-5e1f-4f92-929e-c66b4b54a200"},"vehicle_type_id":"4","last_reported":1744892378,"current_range_meters":6800,"station_id":"ce4bht12rcd13ifvqi60","pricing_plan_id":"cebpf4jnsgd1na2vs0mg"},{"bike_id":"b427c4c6-79cc-47ca-9fb9-6ba658c56c13","system_id":"levelo_inurba_marseille","lat":43.29805,"lon":5.38084,"is_reserved":false,"is_disabled":false,"rental_uris":{"android":"levelo://app?vid=b427c4c6-79cc-47ca-9fb9-6ba658c56c13","ios":"levelo://app?vid=b427c4c6-79cc-47ca-9fb9-6ba658c56c13"},"vehicle_type_id":"4","last_reported":1744892378,"current_range_meters":6800,"station_id":"ce4bgip2rcd13ifvqbb0","pricing_plan_id":"cebpf4jnsgd1na2vs0mg"},{"bike_id":"24223659-7e57-4a0b-a27e-833ef817663a","system_id":"levelo_inurba_marseille","lat":43.25583,"lon":5.38243,"is_reserved":false,"is_disabled":false,"rental_uris":{"android":"levelo://app?vid=24223659-7e57-4a0b-a27e-833ef817663a","ios":"levelo://app?vid=24223659-7e57-4a0b-a27e-833ef817663a"},"vehicle_type_id":"4","last_reported":1744892378,"current_range_meters":6800,"station_id":"ce4bhih2rcd13ifvqfs0","pricing_plan_id":"cebpf4jnsgd1na2vs0mg"},{"bike_id":"2df22311-bac1-4b8f-abff-11893969de63","system_id":"levelo_inurba_marseille","lat":43.31488,"lon":5.37312,"is_reserved":false,"is_disabled":false,"rental_uris":{"android":"levelo://app?vid=2df22311-bac1-4b8f-abff-11893969de63","ios":"levelo://app?vid=2df22311-bac1-4b8f-abff-11893969de63"},"vehicle_type_id":"4","last_reported":1744892378,"current_range_meters":6800,"station_id":"ce4bgt12rcd13ifvqcd0","pricing_plan_id":"cebpf4jnsgd1na2vs0mg"},{"bike_id":"2c8dff98-ffd9-49d6-b447-1a70ca89ccc5","system_id":"levelo_inurba_marseille","lat":43.28404,"lon":5.37535,"is_reserved":false,"is_disabled":false,"rental_uris":{"android":"levelo://app?vid=2c8dff98-ffd9-49d6-b447-1a70ca89ccc5","ios":"levelo://app?vid=2c8dff98-ffd9-49d6-b447-1a70ca89ccc5"},"vehicle_type_id":"4","last_reported":1744892378,"current_range_meters":13600,"station_id":"ce4bh412rcd13ifvqds0","pricing_plan_id":"cebpf4jnsgd1na2vs0mg"},{"bike_id":"2e4fbe9c-cd7a-4779-ad7f-26ec0f0cc6ce","system_id":"levelo_inurba_marseille","lat":43.2485,"lon":5.37483,"is_reserved":false,"is_disabled":false,"rental_uris":{"android":"levelo://app?vid=2e4fbe9c-cd7a-4779-ad7f-26ec0f0cc6ce","ios":"levelo://app?vid=2e4fbe9c-cd7a-4779-ad7f-26ec0f0cc6ce"},"vehicle_type_id":"4","last_reported":1744892378,"current_range_meters":7200,"station_id":"","pricing_plan_id":"cebpf4jnsgd1na2vs0mg"},{"bike_id":"3dae1604-5e9d-4119-a443-48053f1385b8","system_id":"levelo_inurba_marseille","lat":43.240753,"lon":5.377584,"is_reserved":false,"is_disabled":false,"rental_uris":{"android":"levelo://app?vid=3dae1604-5e9d-4119-a443-48053f1385b8","ios":"levelo://app?vid=3dae1604-5e9d-4119-a443-48053f1385b8"},"vehicle_type_id":"4","last_reported":1744892378,"current_range_meters":7200,"station_id":"ce4bhnp2rcd13ifvqgvg","pricing_plan_id":"cebpf4jnsgd1na2vs0mg"},{"bike_id":"82d59c32-11da-4cb7-ba20-c9908fae21d3","system_id":"levelo_inurba_marseille","lat":43.33026,"lon":5.39048,"is_reserved":false,"is_disabled":false,"rental_uris":{"android":"levelo://app?vid=82d59c32-11da-4cb7-ba20-c9908fae21d3","ios":"levelo://app?vid=82d59c32-11da-4cb7-ba20-c9908fae21d3"},"vehicle_type_id":"4","last_reported":1744892378,"current_range_meters":7200,"station_id":"ce4bhr92rcd13ifvqhrg","pricing_plan_id":"cebpf4jnsgd1na2vs0mg"},{"bike_id":"a42a5ce9-2cba-49d1-91c2-e82429329c19","system_id":"levelo_inurba_marseille","lat":43.2707,"lon":5.40248,"is_reserved":false,"is_disabled":false,"rental_uris":{"android":"levelo://app?vid=a42a5ce9-2cba-49d1-91c2-e82429329c19","ios":"levelo://app?vid=a42a5ce9-2cba-49d1-91c2-e82429329c19"},"vehicle_type_id":"4","last_reported":1744892378,"current_range_meters":8000,"station_id":"ce4bhk92rcd13ifvqgc0","pricing_plan_id":"cebpf4jnsgd1na2vs0mg"},{"bike_id":"95d763ff-c404-487d-978e-3b49b0f66859","system_id":"levelo_inurba_marseille","lat":43.29165,"lon":5.37165,"is_reserved":false,"is_disabled":false,"rental_uris":{"android":"levelo://app?vid=95d763ff-c404-487d-978e-3b49b0f66859","ios":"levelo://app?vid=95d763ff-c404-487d-978e-3b49b0f66859"},"vehicle_type_id":"4","last_reported":1744892378,"current_range_meters":8000,"station_id":"ce4bha92rcd13ifvqeh0","pricing_plan_id":"cebpf4jnsgd1na2vs0mg"},{"bike_id":"d2cfb0f6-72c5-4acb-8483-2216bc0f6c41","system_id":"levelo_inurba_marseille","lat":43.25719,"lon":5.4111,"is_reserved":false,"is_disabled":false,"rental_uris":{"android":"levelo://app?vid=d2cfb0f6-72c5-4acb-8483-2216bc0f6c41","ios":"levelo://app?vid=d2cfb0f6-72c5-4acb-8483-2216bc0f6c41"},"vehicle_type_id":"4","last_reported":1744892378,"current_range_meters":8000,"station_id":"ce4bhkp2rcd13ifvqgd0","pricing_plan_id":"cebpf4jnsgd1na2vs0mg"},{"bike_id":"751ec6b4-a903-4445-a13d-51a5efaa2210","system_id":"levelo_inurba_marseille","lat":43.29256,"lon":5.37615,"is_reserved":false,"is_disabled":false,"rental_uris":{"android":"levelo://app?vid=751ec6b4-a903-4445-a13d-51a5efaa2210","ios":"levelo://app?vid=751ec6b4-a903-4445-a13d-51a5efaa2210"},"vehicle_type_id":"4","last_reported":1744892378,"current_range_meters":8000,"station_id":"ce4bgi12rcd13ifvqb80","pricing_plan_id":"cebpf4jnsgd1na2vs0mg"},{"bike_id":"5f127ef8-5fb0-41c4-bd99-c57c9e9def56","system_id":"levelo_inurba_marseille","lat":43.29794,"lon":5.40393,"is_reserved":false,"is_disabled":false,"rental_uris":{"android":"levelo://app?vid=5f127ef8-5fb0-41c4-bd99-c57c9e9def56","ios":"levelo://app?vid=5f127ef8-5fb0-41c4-bd99-c57c9e9def56"},"vehicle_type_id":"4","last_reported":1744892378,"current_range_meters":8000,"station_id":"ce4bh112rcd13ifvqd90","pricing_plan_id":"cebpf4jnsgd1na2vs0mg"},{"bike_id":"8ffe4fb1-9fc9-4625-804e-ea886d48cb27","system_id":"levelo_inurba_marseille","lat":43.31415,"lon":5.36687,"is_reserved":false,"is_disabled":false,"rental_uris":{"android":"levelo://app?vid=8ffe4fb1-9fc9-4625-804e-ea886d48cb27","ios":"levelo://app?vid=8ffe4fb1-9fc9-4625-804e-ea886d48cb27"},"vehicle_type_id":"4","last_reported":1744892378,"current_range_meters":8400,"station_id":"","pricing_plan_id":"cebpf4jnsgd1na2vs0mg"},{"bike_id":"994695a9-98fd-4da6-9191-c96330e6cffb","system_id":"levelo_inurba_marseille","lat":43.21751,"lon":5.346,"is_reserved":false,"is_disabled":false,"rental_uris":{"android":"levelo://app?vid=994695a9-98fd-4da6-9191-c96330e6cffb","ios":"levelo://app?vid=994695a9-98fd-4da6-9191-c96330e6cffb"},"vehicle_type_id":"4","last_reported":1744892378,"current_range_meters":8400,"station_id":"st_cvj6r9ubvosntc0bgbag","pricing_plan_id":"cebpf4jnsgd1na2vs0mg"},{"bike_id":"178dad46-cb0d-4eb0-b656-2a8e4563fbcb","system_id":"levelo_inurba_marseille","lat":43.30162,"lon":5.38102,"is_reserved":false,"is_disabled":false,"rental_uris":{"android":"levelo://app?vid=178dad46-cb0d-4eb0-b656-2a8e4563fbcb","ios":"levelo://app?vid=178dad46-cb0d-4eb0-b656-2a8e4563fbcb"},"vehicle_type_id":"4","last_reported":1744892378,"current_range_meters":8400,"station_id":"ce4bgjp2rcd13ifvqbh0","pricing_plan_id":"cebpf4jnsgd1na2vs0mg"},{"bike_id":"01314e1a-3be6-4b37-9d9b-d8ea1070c152","system_id":"levelo_inurba_marseille","lat":43.28698,"lon":5.37402,"is_reserved":false,"is_disabled":false,"rental_uris":{"android":"levelo://app?vid=01314e1a-3be6-4b37-9d9b-d8ea1070c152","ios":"levelo://app?vid=01314e1a-3be6-4b37-9d9b-d8ea1070c152"},"vehicle_type_id":"4","last_reported":1744892378,"current_range_meters":8800,"station_id":"ce4bh3p2rcd13ifvqdq0","pricing_plan_id":"cebpf4jnsgd1na2vs0mg"},{"bike_id":"98a94d64-454b-44d9-8843-7a0852134d2d","system_id":"levelo_inurba_marseille","lat":43.2781,"lon":5.40721,"is_reserved":false,"is_disabled":false,"rental_uris":{"android":"levelo://app?vid=98a94d64-454b-44d9-8843-7a0852134d2d","ios":"levelo://app?vid=98a94d64-454b-44d9-8843-7a0852134d2d"},"vehicle_type_id":"4","last_reported":1744892378,"current_range_meters":8800,"station_id":"ce4bhnh2rcd13ifvqgtg","pricing_plan_id":"cebpf4jnsgd1na2vs0mg"},{"bike_id":"17d425c7-2ff7-47af-abf9-ee9063cee3be","system_id":"levelo_inurba_marseille","lat":43.33602,"lon":5.41031,"is_reserved":false,"is_disabled":false,"rental_uris":{"android":"levelo://app?vid=17d425c7-2ff7-47af-abf9-ee9063cee3be","ios":"levelo://app?vid=17d425c7-2ff7-47af-abf9-ee9063cee3be"},"vehicle_type_id":"4","last_reported":1744892378,"current_range_meters":8800,"station_id":"ce4bhqh2rcd13ifvqhmg","pricing_plan_id":"cebpf4jnsgd1na2vs0mg"},{"bike_id":"43c500b5-2d92-478f-a24d-8b463f921000","system_id":"levelo_inurba_marseille","lat":43.25117,"lon":5.40319,"is_reserved":false,"is_disabled":false,"rental_uris":{"android":"levelo://app?vid=43c500b5-2d92-478f-a24d-8b463f921000","ios":"levelo://app?vid=43c500b5-2d92-478f-a24d-8b463f921000"},"vehicle_type_id":"4","last_reported":1744892378,"current_range_meters":8800,"station_id":"ce4bhlh2rcd13ifvqgig","pricing_plan_id":"cebpf4jnsgd1na2vs0mg"},{"bike_id":"0ae24ac7-dbc2-483b-b18b-44adb15b0e49","system_id":"levelo_inurba_marseille","lat":43.28709,"lon":5.38701,"is_reserved":false,"is_disabled":false,"rental_uris":{"android":"levelo://app?vid=0ae24ac7-dbc2-483b-b18b-44adb15b0e49","ios":"levelo://app?vid=0ae24ac7-dbc2-483b-b18b-44adb15b0e49"},"vehicle_type_id":"4","last_reported":1744892378,"current_range_meters":8800,"station_id":"ce4bh492rcd13ifvqdug","pricing_plan_id":"cebpf4jnsgd1na2vs0mg"},{"bike_id":"a8647ab5-fe52-4a28-b15f-03debbb5b935","system_id":"levelo_inurba_marseille","lat":43.27212,"lon":5.39184,"is_reserved":false,"is_disabled":false,"rental_uris":{"android":"levelo://app?vid=a8647ab5-fe52-4a28-b15f-03debbb5b935","ios":"levelo://app?vid=a8647ab5-fe52-4a28-b15f-03debbb5b935"},"vehicle_type_id":"4","last_reported":1744892378,"current_range_meters":9200,"station_id":"ce4bhhp2rcd13ifvqfm0","pricing_plan_id":"cebpf4jnsgd1na2vs0mg"},{"bike_id":"038897a0-9f7f-4838-bae3-30d84bd43102","system_id":"levelo_inurba_marseille","lat":43.28834,"lon":5.38224,"is_reserved":false,"is_disabled":false,"rental_uris":{"android":"levelo://app?vid=038897a0-9f7f-4838-bae3-30d84bd43102","ios":"levelo://app?vid=038897a0-9f7f-4838-bae3-30d84bd43102"},"vehicle_type_id":"4","last_reported":1744892378,"current_range_meters":9600,"station_id":"ce4bh4p2rcd13ifvqe1g","pricing_plan_id":"cebpf4jnsgd1na2vs0mg"},{"bike_id":"af88db6c-6ed6-4cd1-bda5-d2603147fa04","system_id":"levelo_inurba_marseille","lat":43.33619,"lon":5.41023,"is_reserved":false,"is_disabled":false,"rental_uris":{"android":"levelo://app?vid=af88db6c-6ed6-4cd1-bda5-d2603147fa04","ios":"levelo://app?vid=af88db6c-6ed6-4cd1-bda5-d2603147fa04"},"vehicle_type_id":"4","last_reported":1744892378,"current_range_meters":9600,"station_id":"ce4bhqh2rcd13ifvqhmg","pricing_plan_id":"cebpf4jnsgd1na2vs0mg"},{"bike_id":"5df85a79-274c-4999-ab35-d1f225e8f5cd","system_id":"levelo_inurba_marseille","lat":43.31393,"lon":5.36705,"is_reserved":false,"is_disabled":false,"rental_uris":{"android":"levelo://app?vid=5df85a79-274c-4999-ab35-d1f225e8f5cd","ios":"levelo://app?vid=5df85a79-274c-4999-ab35-d1f225e8f5cd"},"vehicle_type_id":"4","last_reported":1744892378,"current_range_meters":9600,"station_id":"","pricing_plan_id":"cebpf4jnsgd1na2vs0mg"},{"bike_id":"96e57b32-e02f-41de-8e0c-268db5f3fff5","system_id":"levelo_inurba_marseille","lat":43.3047,"lon":5.37897,"is_reserved":false,"is_disabled":false,"rental_uris":{"android":"levelo://app?vid=96e57b32-e02f-41de-8e0c-268db5f3fff5","ios":"levelo://app?vid=96e57b32-e02f-41de-8e0c-268db5f3fff5"},"vehicle_type_id":"4","last_reported":1744892378,"current_range_meters":10000,"station_id":"ce4bgup2rcd13ifvqcn0","pricing_plan_id":"cebpf4jnsgd1na2vs0mg"},{"bike_id":"ca2e1c0e-b4f2-46ea-9bc6-4832bf223e90","system_id":"levelo_inurba_marseille","lat":43.25816,"lon":5.3946,"is_reserved":false,"is_disabled":false,"rental_uris":{"android":"levelo://app?vid=ca2e1c0e-b4f2-46ea-9bc6-4832bf223e90","ios":"levelo://app?vid=ca2e1c0e-b4f2-46ea-9bc6-4832bf223e90"},"vehicle_type_id":"4","last_reported":1744892378,"current_range_meters":10000,"station_id":"ce4bhip2rcd13ifvqft0","pricing_plan_id":"cebpf4jnsgd1na2vs0mg"},{"bike_id":"2b3136a1-5f3e-4481-9cc8-a9cb0c63e956","system_id":"levelo_inurba_marseille","lat":43.284668,"lon":5.384033,"is_reserved":false,"is_disabled":false,"rental_uris":{"android":"levelo://app?vid=2b3136a1-5f3e-4481-9cc8-a9cb0c63e956","ios":"levelo://app?vid=2b3136a1-5f3e-4481-9cc8-a9cb0c63e956"},"vehicle_type_id":"4","last_reported":1744892378,"current_range_meters":10000,"station_id":"ce4bhbh2rcd13ifvqeo0","pricing_plan_id":"cebpf4jnsgd1na2vs0mg"},{"bike_id":"2b69cbdb-4c1c-4992-be98-351e3cbd8032","system_id":"levelo_inurba_marseille","lat":43.29378,"lon":5.37852,"is_reserved":false,"is_disabled":false,"rental_uris":{"android":"levelo://app?vid=2b69cbdb-4c1c-4992-be98-351e3cbd8032","ios":"levelo://app?vid=2b69cbdb-4c1c-4992-be98-351e3cbd8032"},"vehicle_type_id":"4","last_reported":1744892378,"current_range_meters":10000,"station_id":"ce4bgjh2rcd13ifvqbf0","pricing_plan_id":"cebpf4jnsgd1na2vs0mg"},{"bike_id":"0a0b0a73-2b27-49fb-801a-3111dcebfbac","system_id":"levelo_inurba_marseille","lat":43.27488,"lon":5.42468,"is_reserved":false,"is_disabled":false,"rental_uris":{"android":"levelo://app?vid=0a0b0a73-2b27-49fb-801a-3111dcebfbac","ios":"levelo://app?vid=0a0b0a73-2b27-49fb-801a-3111dcebfbac"},"vehicle_type_id":"4","last_reported":1744892378,"current_range_meters":10000,"station_id":"ce4bhn92rcd13ifvqgrg","pricing_plan_id":"cebpf4jnsgd1na2vs0mg"},{"bike_id":"1bdba7a7-a82e-4252-906c-80db6beb180e","system_id":"levelo_inurba_marseille","lat":43.24891,"lon":5.39397,"is_reserved":false,"is_disabled":false,"rental_uris":{"android":"levelo://app?vid=1bdba7a7-a82e-4252-906c-80db6beb180e","ios":"levelo://app?vid=1bdba7a7-a82e-4252-906c-80db6beb180e"},"vehicle_type_id":"4","last_reported":1744892378,"current_range_meters":10800,"station_id":"","pricing_plan_id":"cebpf4jnsgd1na2vs0mg"},{"bike_id":"6a42fdd6-075d-4748-811a-29f5845c8920","system_id":"levelo_inurba_marseille","lat":43.21749,"lon":5.34607,"is_reserved":false,"is_disabled":false,"rental_uris":{"android":"levelo://app?vid=6a42fdd6-075d-4748-811a-29f5845c8920","ios":"levelo://app?vid=6a42fdd6-075d-4748-811a-29f5845c8920"},"vehicle_type_id":"4","last_reported":1744892378,"current_range_meters":10800,"station_id":"st_cvj6r9ubvosntc0bgbag","pricing_plan_id":"cebpf4jnsgd1na2vs0mg"},{"bike_id":"8b056cbc-3c6e-4121-a2f3-f7ecca5cc5f5","system_id":"levelo_inurba_marseille","lat":43.32039,"lon":5.41551,"is_reserved":false,"is_disabled":false,"rental_uris":{"android":"levelo://app?vid=8b056cbc-3c6e-4121-a2f3-f7ecca5cc5f5","ios":"levelo://app?vid=8b056cbc-3c6e-4121-a2f3-f7ecca5cc5f5"},"vehicle_type_id":"4","last_reported":1744892378,"current_range_meters":10800,"station_id":"ce4bhq92rcd13ifvqhkg","pricing_plan_id":"cebpf4jnsgd1na2vs0mg"},{"bike_id":"9f8e06d3-5872-4f4e-b571-578e00489c6c","system_id":"levelo_inurba_marseille","lat":43.262073,"lon":5.374477,"is_reserved":false,"is_disabled":false,"rental_uris":{"android":"levelo://app?vid=9f8e06d3-5872-4f4e-b571-578e00489c6c","ios":"levelo://app?vid=9f8e06d3-5872-4f4e-b571-578e00489c6c"},"vehicle_type_id":"4","last_reported":1744892378,"current_range_meters":10800,"station_id":"ce4bhgp2rcd13ifvqfc0","pricing_plan_id":"cebpf4jnsgd1na2vs0mg"},{"bike_id":"5a127f48-c8a9-427c-a19b-29b0c540925d","system_id":"levelo_inurba_marseille","lat":43.26496,"lon":5.39544,"is_reserved":false,"is_disabled":false,"rental_uris":{"android":"levelo://app?vid=5a127f48-c8a9-427c-a19b-29b0c540925d","ios":"levelo://app?vid=5a127f48-c8a9-427c-a19b-29b0c540925d"},"vehicle_type_id":"4","last_reported":1744892378,"current_range_meters":10800,"station_id":"ce4bhi12rcd13ifvqfq0","pricing_plan_id":"cebpf4jnsgd1na2vs0mg"},{"bike_id":"7e9b6b84-d9f4-4211-ae7c-b06acc4a380a","system_id":"levelo_inurba_marseille","lat":43.2842,"lon":5.34971,"is_reserved":false,"is_disabled":false,"rental_uris":{"android":"levelo://app?vid=7e9b6b84-d9f4-4211-ae7c-b06acc4a380a","ios":"levelo://app?vid=7e9b6b84-d9f4-4211-ae7c-b06acc4a380a"},"vehicle_type_id":"4","last_reported":1744892378,"current_range_meters":10800,"station_id":"ce4bhbh2rcd13ifvqepg","pricing_plan_id":"cebpf4jnsgd1na2vs0mg"},{"bike_id":"2772f21f-7d7b-4614-967d-1944e2fc3b0a","system_id":"levelo_inurba_marseille","lat":43.24657,"lon":5.3816,"is_reserved":false,"is_disabled":false,"rental_uris":{"android":"levelo://app?vid=2772f21f-7d7b-4614-967d-1944e2fc3b0a","ios":"levelo://app?vid=2772f21f-7d7b-4614-967d-1944e2fc3b0a"},"vehicle_type_id":"4","last_reported":1744892378,"current_range_meters":10800,"station_id":"ce4bhih2rcd13ifvqfr0","pricing_plan_id":"cebpf4jnsgd1na2vs0mg"},{"bike_id":"4f3dfbf4-d1ae-44db-8110-b28c7d24107a","system_id":"levelo_inurba_marseille","lat":43.2707,"lon":5.4027,"is_reserved":false,"is_disabled":false,"rental_uris":{"android":"levelo://app?vid=4f3dfbf4-d1ae-44db-8110-b28c7d24107a","ios":"levelo://app?vid=4f3dfbf4-d1ae-44db-8110-b28c7d24107a"},"vehicle_type_id":"4","last_reported":1744892378,"current_range_meters":11200,"station_id":"ce4bhk92rcd13ifvqgc0","pricing_plan_id":"cebpf4jnsgd1na2vs0mg"},{"bike_id":"fdcad643-353b-439c-ac2b-6147278216c4","system_id":"levelo_inurba_marseille","lat":43.21748,"lon":5.34606,"is_reserved":false,"is_disabled":false,"rental_uris":{"android":"levelo://app?vid=fdcad643-353b-439c-ac2b-6147278216c4","ios":"levelo://app?vid=fdcad643-353b-439c-ac2b-6147278216c4"},"vehicle_type_id":"4","last_reported":1744892378,"current_range_meters":11600,"station_id":"st_cvj6r9ubvosntc0bgbag","pricing_plan_id":"cebpf4jnsgd1na2vs0mg"},{"bike_id":"e0f4254c-a7e3-46bc-ae86-2749ab2a6efc","system_id":"levelo_inurba_marseille","lat":43.2929,"lon":5.37436,"is_reserved":false,"is_disabled":false,"rental_uris":{"android":"levelo://app?vid=e0f4254c-a7e3-46bc-ae86-2749ab2a6efc","ios":"levelo://app?vid=e0f4254c-a7e3-46bc-ae86-2749ab2a6efc"},"vehicle_type_id":"4","last_reported":1744892378,"current_range_meters":11600,"station_id":"ce4bgi12rcd13ifvqb70","pricing_plan_id":"cebpf4jnsgd1na2vs0mg"},{"bike_id":"386b66dd-54dd-4f23-9399-5feab1b083fa","system_id":"levelo_inurba_marseille","lat":43.30146,"lon":5.37412,"is_reserved":false,"is_disabled":false,"rental_uris":{"android":"levelo://app?vid=386b66dd-54dd-4f23-9399-5feab1b083fa","ios":"levelo://app?vid=386b66dd-54dd-4f23-9399-5feab1b083fa"},"vehicle_type_id":"4","last_reported":1744892378,"current_range_meters":11600,"station_id":"ce4bgs92rcd13ifvqcc0","pricing_plan_id":"cebpf4jnsgd1na2vs0mg"},{"bike_id":"7b9fdf89-142e-4a06-b2b6-2ab09f74a64b","system_id":"levelo_inurba_marseille","lat":43.29913,"lon":5.38159,"is_reserved":false,"is_disabled":false,"rental_uris":{"android":"levelo://app?vid=7b9fdf89-142e-4a06-b2b6-2ab09f74a64b","ios":"levelo://app?vid=7b9fdf89-142e-4a06-b2b6-2ab09f74a64b"},"vehicle_type_id":"4","last_reported":1744892378,"current_range_meters":12000,"station_id":"ce4bgj12rcd13ifvqbc0","pricing_plan_id":"cebpf4jnsgd1na2vs0mg"},{"bike_id":"6182d45b-191a-4249-88bd-5fad61239bca","system_id":"levelo_inurba_marseille","lat":43.21749,"lon":5.34608,"is_reserved":false,"is_disabled":false,"rental_uris":{"android":"levelo://app?vid=6182d45b-191a-4249-88bd-5fad61239bca","ios":"levelo://app?vid=6182d45b-191a-4249-88bd-5fad61239bca"},"vehicle_type_id":"4","last_reported":1744892378,"current_range_meters":12000,"station_id":"st_cvj6r9ubvosntc0bgbag","pricing_plan_id":"cebpf4jnsgd1na2vs0mg"},{"bike_id":"548f45f6-d91b-4110-956b-95786a047831","system_id":"levelo_inurba_marseille","lat":43.29925,"lon":5.37482,"is_reserved":false,"is_disabled":false,"rental_uris":{"android":"levelo://app?vid=548f45f6-d91b-4110-956b-95786a047831","ios":"levelo://app?vid=548f45f6-d91b-4110-956b-95786a047831"},"vehicle_type_id":"4","last_reported":1744892378,"current_range_meters":12000,"station_id":"ce4bgjh2rcd13ifvqbg0","pricing_plan_id":"cebpf4jnsgd1na2vs0mg"},{"bike_id":"b3368a4b-172f-436c-89f1-5b68b3612fbc","system_id":"levelo_inurba_marseille","lat":43.2956,"lon":5.42299,"is_reserved":false,"is_disabled":false,"rental_uris":{"android":"levelo://app?vid=b3368a4b-172f-436c-89f1-5b68b3612fbc","ios":"levelo://app?vid=b3368a4b-172f-436c-89f1-5b68b3612fbc"},"vehicle_type_id":"4","last_reported":1744892378,"current_range_meters":12400,"station_id":"ce4bhph2rcd13ifvqhdg","pricing_plan_id":"cebpf4jnsgd1na2vs0mg"},{"bike_id":"3066b941-afa8-495c-bbd0-4ed2beeee175","system_id":"levelo_inurba_marseille","lat":43.2756,"lon":5.38427,"is_reserved":false,"is_disabled":false,"rental_uris":{"android":"levelo://app?vid=3066b941-afa8-495c-bbd0-4ed2beeee175","ios":"levelo://app?vid=3066b941-afa8-495c-bbd0-4ed2beeee175"},"vehicle_type_id":"4","last_reported":1744892378,"current_range_meters":12400,"station_id":"ce4bhh92rcd13ifvqfi0","pricing_plan_id":"cebpf4jnsgd1na2vs0mg"},{"bike_id":"ff935f1c-246d-4e07-a399-40ad7e059de5","system_id":"levelo_inurba_marseille","lat":43.25491,"lon":5.37654,"is_reserved":false,"is_disabled":true,"rental_uris":{"android":"levelo://app?vid=ff935f1c-246d-4e07-a399-40ad7e059de5","ios":"levelo://app?vid=ff935f1c-246d-4e07-a399-40ad7e059de5"},"vehicle_type_id":"4","last_reported":1744892378,"current_range_meters":12400,"station_id":"ce4bhh12rcd13ifvqff0","pricing_plan_id":"cebpf4jnsgd1na2vs0mg"},{"bike_id":"0a0c6a13-5af0-4c67-8fd7-00ece1b42d1b","system_id":"levelo_inurba_marseille","lat":43.29429,"lon":5.38649,"is_reserved":false,"is_disabled":false,"rental_uris":{"android":"levelo://app?vid=0a0c6a13-5af0-4c67-8fd7-00ece1b42d1b","ios":"levelo://app?vid=0a0c6a13-5af0-4c67-8fd7-00ece1b42d1b"},"vehicle_type_id":"4","last_reported":1744892378,"current_range_meters":12800,"station_id":"ce4bh2h2rcd13ifvqdh0","pricing_plan_id":"cebpf4jnsgd1na2vs0mg"},{"bike_id":"60cd9fed-4d07-4f90-9296-29030bc525db","system_id":"levelo_inurba_marseille","lat":43.303221,"lon":5.368859,"is_reserved":false,"is_disabled":false,"rental_uris":{"android":"levelo://app?vid=60cd9fed-4d07-4f90-9296-29030bc525db","ios":"levelo://app?vid=60cd9fed-4d07-4f90-9296-29030bc525db"},"vehicle_type_id":"4","last_reported":1744892378,"current_range_meters":12000,"station_id":"ce4bgqh2rcd13ifvqc5g","pricing_plan_id":"cebpf4jnsgd1na2vs0mg"},{"bike_id":"6c5f35ca-93d0-4485-9a41-f59acc07c575","system_id":"levelo_inurba_marseille","lat":43.292024,"lon":5.393272,"is_reserved":false,"is_disabled":false,"rental_uris":{"android":"levelo://app?vid=6c5f35ca-93d0-4485-9a41-f59acc07c575","ios":"levelo://app?vid=6c5f35ca-93d0-4485-9a41-f59acc07c575"},"vehicle_type_id":"4","last_reported":1744892378,"current_range_meters":12800,"station_id":"ce4bh192rcd13ifvqdd0","pricing_plan_id":"cebpf4jnsgd1na2vs0mg"},{"bike_id":"9ae4de2b-65d6-4c8d-9fd9-eb2927f36e22","system_id":"levelo_inurba_marseille","lat":43.23352,"lon":5.36466,"is_reserved":false,"is_disabled":false,"rental_uris":{"android":"levelo://app?vid=9ae4de2b-65d6-4c8d-9fd9-eb2927f36e22","ios":"levelo://app?vid=9ae4de2b-65d6-4c8d-9fd9-eb2927f36e22"},"vehicle_type_id":"4","last_reported":1744892378,"current_range_meters":12800,"station_id":"","pricing_plan_id":"cebpf4jnsgd1na2vs0mg"},{"bike_id":"24390d96-82b4-4bc1-96a9-3605c6295c10","system_id":"levelo_inurba_marseille","lat":43.2917,"lon":5.37161,"is_reserved":false,"is_disabled":false,"rental_uris":{"android":"levelo://app?vid=24390d96-82b4-4bc1-96a9-3605c6295c10","ios":"levelo://app?vid=24390d96-82b4-4bc1-96a9-3605c6295c10"},"vehicle_type_id":"4","last_reported":1744892378,"current_range_meters":12800,"station_id":"ce4bha92rcd13ifvqeh0","pricing_plan_id":"cebpf4jnsgd1na2vs0mg"},{"bike_id":"fe552450-c0a0-482b-ad4d-745c7e3315b5","system_id":"levelo_inurba_marseille","lat":43.23963,"lon":5.36635,"is_reserved":false,"is_disabled":false,"rental_uris":{"android":"levelo://app?vid=fe552450-c0a0-482b-ad4d-745c7e3315b5","ios":"levelo://app?vid=fe552450-c0a0-482b-ad4d-745c7e3315b5"},"vehicle_type_id":"4","last_reported":1744892378,"current_range_meters":13600,"station_id":"ce4bhi12rcd13ifvqfp0","pricing_plan_id":"cebpf4jnsgd1na2vs0mg"},{"bike_id":"da0699e6-fffb-42fd-bda2-fa249cfedfd8","system_id":"levelo_inurba_marseille","lat":43.31483,"lon":5.37299,"is_reserved":false,"is_disabled":false,"rental_uris":{"android":"levelo://app?vid=da0699e6-fffb-42fd-bda2-fa249cfedfd8","ios":"levelo://app?vid=da0699e6-fffb-42fd-bda2-fa249cfedfd8"},"vehicle_type_id":"4","last_reported":1744892378,"current_range_meters":13600,"station_id":"ce4bgt12rcd13ifvqcd0","pricing_plan_id":"cebpf4jnsgd1na2vs0mg"},{"bike_id":"80e72edd-4692-47eb-a775-b9bb3d9dae2b","system_id":"levelo_inurba_marseille","lat":43.285301,"lon":5.383785,"is_reserved":false,"is_disabled":false,"rental_uris":{"android":"levelo://app?vid=80e72edd-4692-47eb-a775-b9bb3d9dae2b","ios":"levelo://app?vid=80e72edd-4692-47eb-a775-b9bb3d9dae2b"},"vehicle_type_id":"4","last_reported":1744892378,"current_range_meters":16400,"station_id":"ce4bh512rcd13ifvqe3g","pricing_plan_id":"cebpf4jnsgd1na2vs0mg"},{"bike_id":"0b7b9afc-b2db-43f5-aeb8-7a1248a5408e","system_id":"levelo_inurba_marseille","lat":43.31277,"lon":5.3776,"is_reserved":false,"is_disabled":false,"rental_uris":{"android":"levelo://app?vid=0b7b9afc-b2db-43f5-aeb8-7a1248a5408e","ios":"levelo://app?vid=0b7b9afc-b2db-43f5-aeb8-7a1248a5408e"},"vehicle_type_id":"4","last_reported":1744892378,"current_range_meters":13600,"station_id":"","pricing_plan_id":"cebpf4jnsgd1na2vs0mg"},{"bike_id":"f80aaec7-ece4-4dad-a0f7-446ed1bb721c","system_id":"levelo_inurba_marseille","lat":43.3044,"lon":5.389093,"is_reserved":false,"is_disabled":false,"rental_uris":{"android":"levelo://app?vid=f80aaec7-ece4-4dad-a0f7-446ed1bb721c","ios":"levelo://app?vid=f80aaec7-ece4-4dad-a0f7-446ed1bb721c"},"vehicle_type_id":"4","last_reported":1744892378,"current_range_meters":13600,"station_id":"ce4bgk12rcd13ifvqbi0","pricing_plan_id":"cebpf4jnsgd1na2vs0mg"},{"bike_id":"ae397877-2cd6-43f0-a34f-e431407279ae","system_id":"levelo_inurba_marseille","lat":43.28621,"lon":5.35107,"is_reserved":false,"is_disabled":false,"rental_uris":{"android":"levelo://app?vid=ae397877-2cd6-43f0-a34f-e431407279ae","ios":"levelo://app?vid=ae397877-2cd6-43f0-a34f-e431407279ae"},"vehicle_type_id":"4","last_reported":1744892378,"current_range_meters":13600,"station_id":"ce4bhch2rcd13ifvqeug","pricing_plan_id":"cebpf4jnsgd1na2vs0mg"},{"bike_id":"ec8c9ac7-1e95-4171-97f3-226ce1e3c951","system_id":"levelo_inurba_marseille","lat":43.32119,"lon":5.36771,"is_reserved":false,"is_disabled":false,"rental_uris":{"android":"levelo://app?vid=ec8c9ac7-1e95-4171-97f3-226ce1e3c951","ios":"levelo://app?vid=ec8c9ac7-1e95-4171-97f3-226ce1e3c951"},"vehicle_type_id":"4","last_reported":1744892378,"current_range_meters":14000,"station_id":"ce4bhrh2rcd13ifvqhug","pricing_plan_id":"cebpf4jnsgd1na2vs0mg"},{"bike_id":"a82838c8-f35a-4b97-a708-49352e3fd172","system_id":"levelo_inurba_marseille","lat":43.27055,"lon":5.40264,"is_reserved":false,"is_disabled":false,"rental_uris":{"android":"levelo://app?vid=a82838c8-f35a-4b97-a708-49352e3fd172","ios":"levelo://app?vid=a82838c8-f35a-4b97-a708-49352e3fd172"},"vehicle_type_id":"4","last_reported":1744892378,"current_range_meters":14000,"station_id":"ce4bhk92rcd13ifvqgc0","pricing_plan_id":"cebpf4jnsgd1na2vs0mg"},{"bike_id":"da8950e0-8d23-4f66-aaca-45d3a4fe8164","system_id":"levelo_inurba_marseille","lat":43.312439,"lon":5.36886,"is_reserved":false,"is_disabled":false,"rental_uris":{"android":"levelo://app?vid=da8950e0-8d23-4f66-aaca-45d3a4fe8164","ios":"levelo://app?vid=da8950e0-8d23-4f66-aaca-45d3a4fe8164"},"vehicle_type_id":"4","last_reported":1744892378,"current_range_meters":14400,"station_id":"ce4bgl92rcd13ifvqbq0","pricing_plan_id":"cebpf4jnsgd1na2vs0mg"},{"bike_id":"3186c1cd-f9ba-4404-9e4b-4f34382a81b2","system_id":"levelo_inurba_marseille","lat":43.26496,"lon":5.39545,"is_reserved":false,"is_disabled":false,"rental_uris":{"android":"levelo://app?vid=3186c1cd-f9ba-4404-9e4b-4f34382a81b2","ios":"levelo://app?vid=3186c1cd-f9ba-4404-9e4b-4f34382a81b2"},"vehicle_type_id":"4","last_reported":1744892378,"current_range_meters":14400,"station_id":"ce4bhi12rcd13ifvqfq0","pricing_plan_id":"cebpf4jnsgd1na2vs0mg"},{"bike_id":"5c44585f-b093-4c3d-aa8f-b0138e8313a6","system_id":"levelo_inurba_marseille","lat":43.298398,"lon":5.362757,"is_reserved":false,"is_disabled":false,"rental_uris":{"android":"levelo://app?vid=5c44585f-b093-4c3d-aa8f-b0138e8313a6","ios":"levelo://app?vid=5c44585f-b093-4c3d-aa8f-b0138e8313a6"},"vehicle_type_id":"4","last_reported":1744892378,"current_range_meters":14400,"station_id":"ce4bgpp2rcd13ifvqc3g","pricing_plan_id":"cebpf4jnsgd1na2vs0mg"},{"bike_id":"e4ecfc8f-e4d8-4135-9523-3b596a93806f","system_id":"levelo_inurba_marseille","lat":43.30883,"lon":5.39618,"is_reserved":false,"is_disabled":false,"rental_uris":{"android":"levelo://app?vid=e4ecfc8f-e4d8-4135-9523-3b596a93806f","ios":"levelo://app?vid=e4ecfc8f-e4d8-4135-9523-3b596a93806f"},"vehicle_type_id":"4","last_reported":1744892378,"current_range_meters":14400,"station_id":"ce4bh012rcd13ifvqcv0","pricing_plan_id":"cebpf4jnsgd1na2vs0mg"},{"bike_id":"6b167838-79e8-4b8d-95e8-60926f312d86","system_id":"levelo_inurba_marseille","lat":43.29206,"lon":5.37129,"is_reserved":false,"is_disabled":false,"rental_uris":{"android":"levelo://app?vid=6b167838-79e8-4b8d-95e8-60926f312d86","ios":"levelo://app?vid=6b167838-79e8-4b8d-95e8-60926f312d86"},"vehicle_type_id":"4","last_reported":1744892378,"current_range_meters":14800,"station_id":"ce4bha92rcd13ifvqeh0","pricing_plan_id":"cebpf4jnsgd1na2vs0mg"},{"bike_id":"173d39b4-7a97-4693-9385-db8bda0fe199","system_id":"levelo_inurba_marseille","lat":43.21759,"lon":5.34599,"is_reserved":false,"is_disabled":false,"rental_uris":{"android":"levelo://app?vid=173d39b4-7a97-4693-9385-db8bda0fe199","ios":"levelo://app?vid=173d39b4-7a97-4693-9385-db8bda0fe199"},"vehicle_type_id":"4","last_reported":1744892378,"current_range_meters":14800,"station_id":"st_cvj6r9ubvosntc0bgbag","pricing_plan_id":"cebpf4jnsgd1na2vs0mg"},{"bike_id":"dc88ca14-385b-47d2-8f34-ba0ff66a2869","system_id":"levelo_inurba_marseille","lat":43.30919,"lon":5.37927,"is_reserved":false,"is_disabled":false,"rental_uris":{"android":"levelo://app?vid=dc88ca14-385b-47d2-8f34-ba0ff66a2869","ios":"levelo://app?vid=dc88ca14-385b-47d2-8f34-ba0ff66a2869"},"vehicle_type_id":"4","last_reported":1744892378,"current_range_meters":14800,"station_id":"","pricing_plan_id":"cebpf4jnsgd1na2vs0mg"},{"bike_id":"9690ce0c-2b16-4e77-8667-cd440ef274c8","system_id":"levelo_inurba_marseille","lat":43.32556,"lon":5.41437,"is_reserved":false,"is_disabled":false,"rental_uris":{"android":"levelo://app?vid=9690ce0c-2b16-4e77-8667-cd440ef274c8","ios":"levelo://app?vid=9690ce0c-2b16-4e77-8667-cd440ef274c8"},"vehicle_type_id":"4","last_reported":1744892378,"current_range_meters":14800,"station_id":"ce4bhq12rcd13ifvqhhg","pricing_plan_id":"cebpf4jnsgd1na2vs0mg"},{"bike_id":"826a96a7-f3c4-4546-8927-07babefd37fc","system_id":"levelo_inurba_marseille","lat":43.30271,"lon":5.37692,"is_reserved":false,"is_disabled":false,"rental_uris":{"android":"levelo://app?vid=826a96a7-f3c4-4546-8927-07babefd37fc","ios":"levelo://app?vid=826a96a7-f3c4-4546-8927-07babefd37fc"},"vehicle_type_id":"4","last_reported":1744892378,"current_range_meters":15200,"station_id":"ce4bguh2rcd13ifvqcj0","pricing_plan_id":"cebpf4jnsgd1na2vs0mg"},{"bike_id":"3af48173-ba90-4f90-a09a-afe24b29a50c","system_id":"levelo_inurba_marseille","lat":43.24187,"lon":5.39722,"is_reserved":false,"is_disabled":false,"rental_uris":{"android":"levelo://app?vid=3af48173-ba90-4f90-a09a-afe24b29a50c","ios":"levelo://app?vid=3af48173-ba90-4f90-a09a-afe24b29a50c"},"vehicle_type_id":"4","last_reported":1744892378,"current_range_meters":15200,"station_id":"ce4bhn12rcd13ifvqgpg","pricing_plan_id":"cebpf4jnsgd1na2vs0mg"},{"bike_id":"0291b7a7-5f86-48ec-8437-eba04e7bafe8","system_id":"levelo_inurba_marseille","lat":43.32347,"lon":5.36748,"is_reserved":false,"is_disabled":false,"rental_uris":{"android":"levelo://app?vid=0291b7a7-5f86-48ec-8437-eba04e7bafe8","ios":"levelo://app?vid=0291b7a7-5f86-48ec-8437-eba04e7bafe8"},"vehicle_type_id":"4","last_reported":1744892378,"current_range_meters":15200,"station_id":"ce4bhsh2rcd13ifvqi2g","pricing_plan_id":"cebpf4jnsgd1na2vs0mg"},{"bike_id":"1057b2f7-8ab3-461f-97c7-f1b4af0468fc","system_id":"levelo_inurba_marseille","lat":43.28477,"lon":5.38412,"is_reserved":false,"is_disabled":false,"rental_uris":{"android":"levelo://app?vid=1057b2f7-8ab3-461f-97c7-f1b4af0468fc","ios":"levelo://app?vid=1057b2f7-8ab3-461f-97c7-f1b4af0468fc"},"vehicle_type_id":"4","last_reported":1744892378,"current_range_meters":15200,"station_id":"ce4bh512rcd13ifvqe3g","pricing_plan_id":"cebpf4jnsgd1na2vs0mg"},{"bike_id":"2875e21a-bd3c-47bb-bcaa-bc8500e48e73","system_id":"levelo_inurba_marseille","lat":43.29163,"lon":5.37162,"is_reserved":false,"is_disabled":false,"rental_uris":{"android":"levelo://app?vid=2875e21a-bd3c-47bb-bcaa-bc8500e48e73","ios":"levelo://app?vid=2875e21a-bd3c-47bb-bcaa-bc8500e48e73"},"vehicle_type_id":"4","last_reported":1744892378,"current_range_meters":16000,"station_id":"ce4bha92rcd13ifvqeh0","pricing_plan_id":"cebpf4jnsgd1na2vs0mg"},{"bike_id":"41fb0398-f2fe-4abb-ae37-a38f47615ea9","system_id":"levelo_inurba_marseille","lat":43.32353,"lon":5.36761,"is_reserved":false,"is_disabled":false,"rental_uris":{"android":"levelo://app?vid=41fb0398-f2fe-4abb-ae37-a38f47615ea9","ios":"levelo://app?vid=41fb0398-f2fe-4abb-ae37-a38f47615ea9"},"vehicle_type_id":"4","last_reported":1744892378,"current_range_meters":16000,"station_id":"ce4bhsh2rcd13ifvqi2g","pricing_plan_id":"cebpf4jnsgd1na2vs0mg"},{"bike_id":"e14c265e-eca3-4791-a3e7-f534121ae166","system_id":"levelo_inurba_marseille","lat":43.22936,"lon":5.35387,"is_reserved":false,"is_disabled":false,"rental_uris":{"android":"levelo://app?vid=e14c265e-eca3-4791-a3e7-f534121ae166","ios":"levelo://app?vid=e14c265e-eca3-4791-a3e7-f534121ae166"},"vehicle_type_id":"4","last_reported":1744892378,"current_range_meters":16000,"station_id":"cpo3532slgdg3j2ikp40","pricing_plan_id":"cebpf4jnsgd1na2vs0mg"},{"bike_id":"cc7ac33d-b61e-49f5-ad83-554a3d040679","system_id":"levelo_inurba_marseille","lat":43.304717,"lon":5.379149,"is_reserved":false,"is_disabled":false,"rental_uris":{"android":"levelo://app?vid=cc7ac33d-b61e-49f5-ad83-554a3d040679","ios":"levelo://app?vid=cc7ac33d-b61e-49f5-ad83-554a3d040679"},"vehicle_type_id":"4","last_reported":1744892378,"current_range_meters":16000,"station_id":"ce4bgup2rcd13ifvqcn0","pricing_plan_id":"cebpf4jnsgd1na2vs0mg"},{"bike_id":"ae662ec2-7567-4427-b695-b2d8708abc23","system_id":"levelo_inurba_marseille","lat":43.30631,"lon":5.40086,"is_reserved":false,"is_disabled":false,"rental_uris":{"android":"levelo://app?vid=ae662ec2-7567-4427-b695-b2d8708abc23","ios":"levelo://app?vid=ae662ec2-7567-4427-b695-b2d8708abc23"},"vehicle_type_id":"4","last_reported":1744892378,"current_range_meters":16400,"station_id":"ce4bh112rcd13ifvqda0","pricing_plan_id":"cebpf4jnsgd1na2vs0mg"},{"bike_id":"d750596a-6ac6-4755-84cc-45acd4464f3d","system_id":"levelo_inurba_marseille","lat":43.24406,"lon":5.37067,"is_reserved":false,"is_disabled":false,"rental_uris":{"android":"levelo://app?vid=d750596a-6ac6-4755-84cc-45acd4464f3d","ios":"levelo://app?vid=d750596a-6ac6-4755-84cc-45acd4464f3d"},"vehicle_type_id":"4","last_reported":1744892378,"current_range_meters":16400,"station_id":"ce4bhhh2rcd13ifvqfk0","pricing_plan_id":"cebpf4jnsgd1na2vs0mg"},{"bike_id":"d7de7a1e-4ab1-4451-a87e-c02cf20e99ff","system_id":"levelo_inurba_marseille","lat":43.29621,"lon":5.37167,"is_reserved":false,"is_disabled":false,"rental_uris":{"android":"levelo://app?vid=d7de7a1e-4ab1-4451-a87e-c02cf20e99ff","ios":"levelo://app?vid=d7de7a1e-4ab1-4451-a87e-c02cf20e99ff"},"vehicle_type_id":"4","last_reported":1744892378,"current_range_meters":16400,"station_id":"ce4bgnh2rcd13ifvqc0g","pricing_plan_id":"cebpf4jnsgd1na2vs0mg"},{"bike_id":"12429791-5fba-4f1b-a8b3-d53d5b99ed30","system_id":"levelo_inurba_marseille","lat":43.28405,"lon":5.34997,"is_reserved":false,"is_disabled":false,"rental_uris":{"android":"levelo://app?vid=12429791-5fba-4f1b-a8b3-d53d5b99ed30","ios":"levelo://app?vid=12429791-5fba-4f1b-a8b3-d53d5b99ed30"},"vehicle_type_id":"4","last_reported":1744892378,"current_range_meters":16400,"station_id":"ce4bhbh2rcd13ifvqepg","pricing_plan_id":"cebpf4jnsgd1na2vs0mg"},{"bike_id":"198d56b1-6828-4ecf-8436-afa38da95316","system_id":"levelo_inurba_marseille","lat":43.31231,"lon":5.36866,"is_reserved":false,"is_disabled":false,"rental_uris":{"android":"levelo://app?vid=198d56b1-6828-4ecf-8436-afa38da95316","ios":"levelo://app?vid=198d56b1-6828-4ecf-8436-afa38da95316"},"vehicle_type_id":"4","last_reported":1744892378,"current_range_meters":16400,"station_id":"ce4bgl92rcd13ifvqbq0","pricing_plan_id":"cebpf4jnsgd1na2vs0mg"},{"bike_id":"9e69ad1d-a1ba-44e6-9c74-504b88d8fcda","system_id":"levelo_inurba_marseille","lat":43.27373,"lon":5.36267,"is_reserved":false,"is_disabled":false,"rental_uris":{"android":"levelo://app?vid=9e69ad1d-a1ba-44e6-9c74-504b88d8fcda","ios":"levelo://app?vid=9e69ad1d-a1ba-44e6-9c74-504b88d8fcda"},"vehicle_type_id":"4","last_reported":1744892378,"current_range_meters":16800,"station_id":"ce4bhbh2rcd13ifvqeo0","pricing_plan_id":"cebpf4jnsgd1na2vs0mg"},{"bike_id":"d30814a8-606a-4558-9f6f-4dfc9183bbe2","system_id":"levelo_inurba_marseille","lat":43.29677,"lon":5.37299,"is_reserved":false,"is_disabled":false,"rental_uris":{"android":"levelo://app?vid=d30814a8-606a-4558-9f6f-4dfc9183bbe2","ios":"levelo://app?vid=d30814a8-606a-4558-9f6f-4dfc9183bbe2"},"vehicle_type_id":"4","last_reported":1744892378,"current_range_meters":17200,"station_id":"ce4bgk12rcd13ifvqbj0","pricing_plan_id":"cebpf4jnsgd1na2vs0mg"},{"bike_id":"a6abf2e4-011a-4292-8018-b780ce80cdf7","system_id":"levelo_inurba_marseille","lat":43.31531,"lon":5.38018,"is_reserved":false,"is_disabled":false,"rental_uris":{"android":"levelo://app?vid=a6abf2e4-011a-4292-8018-b780ce80cdf7","ios":"levelo://app?vid=a6abf2e4-011a-4292-8018-b780ce80cdf7"},"vehicle_type_id":"4","last_reported":1744892378,"current_range_meters":17200,"station_id":"ce4bhsp2rcd13ifvqi50","pricing_plan_id":"cebpf4jnsgd1na2vs0mg"},{"bike_id":"502eb57f-58c1-46b5-bbab-f82b11336169","system_id":"levelo_inurba_marseille","lat":43.30533,"lon":5.36528,"is_reserved":false,"is_disabled":false,"rental_uris":{"android":"levelo://app?vid=502eb57f-58c1-46b5-bbab-f82b11336169","ios":"levelo://app?vid=502eb57f-58c1-46b5-bbab-f82b11336169"},"vehicle_type_id":"4","last_reported":1744892378,"current_range_meters":17200,"station_id":"ce4bgs12rcd13ifvqcag","pricing_plan_id":"cebpf4jnsgd1na2vs0mg"},{"bike_id":"05889502-1960-4626-b647-6be7781e2329","system_id":"levelo_inurba_marseille","lat":43.28627,"lon":5.35109,"is_reserved":false,"is_disabled":false,"rental_uris":{"android":"levelo://app?vid=05889502-1960-4626-b647-6be7781e2329","ios":"levelo://app?vid=05889502-1960-4626-b647-6be7781e2329"},"vehicle_type_id":"4","last_reported":1744892378,"current_range_meters":17200,"station_id":"ce4bhch2rcd13ifvqeug","pricing_plan_id":"cebpf4jnsgd1na2vs0mg"},{"bike_id":"c5170b3f-5826-4239-afd9-a452f9f0cd21","system_id":"levelo_inurba_marseille","lat":43.29429,"lon":5.38643,"is_reserved":false,"is_disabled":false,"rental_uris":{"android":"levelo://app?vid=c5170b3f-5826-4239-afd9-a452f9f0cd21","ios":"levelo://app?vid=c5170b3f-5826-4239-afd9-a452f9f0cd21"},"vehicle_type_id":"4","last_reported":1744892378,"current_range_meters":17200,"station_id":"ce4bh2h2rcd13ifvqdh0","pricing_plan_id":"cebpf4jnsgd1na2vs0mg"},{"bike_id":"c7e55eeb-008f-40d6-91b1-d4095000def9","system_id":"levelo_inurba_marseille","lat":43.3032,"lon":5.40453,"is_reserved":false,"is_disabled":false,"rental_uris":{"android":"levelo://app?vid=c7e55eeb-008f-40d6-91b1-d4095000def9","ios":"levelo://app?vid=c7e55eeb-008f-40d6-91b1-d4095000def9"},"vehicle_type_id":"4","last_reported":1744892378,"current_range_meters":17200,"station_id":"ce4bh012rcd13ifvqd10","pricing_plan_id":"cebpf4jnsgd1na2vs0mg"},{"bike_id":"88cf4a9f-cedb-45d1-a7e2-5d3017808f37","system_id":"levelo_inurba_marseille","lat":43.297149,"lon":5.37706,"is_reserved":false,"is_disabled":false,"rental_uris":{"android":"levelo://app?vid=88cf4a9f-cedb-45d1-a7e2-5d3017808f37","ios":"levelo://app?vid=88cf4a9f-cedb-45d1-a7e2-5d3017808f37"},"vehicle_type_id":"4","last_reported":1744892378,"current_range_meters":17200,"station_id":"ce4bgkh2rcd13ifvqbl0","pricing_plan_id":"cebpf4jnsgd1na2vs0mg"},{"bike_id":"a77bdd15-388e-4dfa-ae84-9a1f1930181f","system_id":"levelo_inurba_marseille","lat":43.29253,"lon":5.37618,"is_reserved":false,"is_disabled":false,"rental_uris":{"android":"levelo://app?vid=a77bdd15-388e-4dfa-ae84-9a1f1930181f","ios":"levelo://app?vid=a77bdd15-388e-4dfa-ae84-9a1f1930181f"},"vehicle_type_id":"4","last_reported":1744892378,"current_range_meters":17200,"station_id":"ce4bgi12rcd13ifvqb80","pricing_plan_id":"cebpf4jnsgd1na2vs0mg"},{"bike_id":"bbb1c662-cc65-4c72-8489-de78d2f0f12f","system_id":"levelo_inurba_marseille","lat":43.23075,"lon":5.35507,"is_reserved":false,"is_disabled":false,"rental_uris":{"android":"levelo://app?vid=bbb1c662-cc65-4c72-8489-de78d2f0f12f","ios":"levelo://app?vid=bbb1c662-cc65-4c72-8489-de78d2f0f12f"},"vehicle_type_id":"4","last_reported":1744892378,"current_range_meters":17600,"station_id":"cpo3342slgdg3j2ifvpg","pricing_plan_id":"cebpf4jnsgd1na2vs0mg"},{"bike_id":"970f877b-c46d-4720-8cdf-57556975230d","system_id":"levelo_inurba_marseille","lat":43.26497,"lon":5.39551,"is_reserved":false,"is_disabled":false,"rental_uris":{"android":"levelo://app?vid=970f877b-c46d-4720-8cdf-57556975230d","ios":"levelo://app?vid=970f877b-c46d-4720-8cdf-57556975230d"},"vehicle_type_id":"4","last_reported":1744892378,"current_range_meters":17600,"station_id":"ce4bhi12rcd13ifvqfq0","pricing_plan_id":"cebpf4jnsgd1na2vs0mg"},{"bike_id":"a17920db-4b7e-474c-ab57-3b97ec496a14","system_id":"levelo_inurba_marseille","lat":43.24188,"lon":5.39732,"is_reserved":false,"is_disabled":false,"rental_uris":{"android":"levelo://app?vid=a17920db-4b7e-474c-ab57-3b97ec496a14","ios":"levelo://app?vid=a17920db-4b7e-474c-ab57-3b97ec496a14"},"vehicle_type_id":"4","last_reported":1744892378,"current_range_meters":17600,"station_id":"ce4bhn12rcd13ifvqgpg","pricing_plan_id":"cebpf4jnsgd1na2vs0mg"},{"bike_id":"c8d2cae5-9f44-4540-850a-4b78859642b8","system_id":"levelo_inurba_marseille","lat":43.290158,"lon":5.381305,"is_reserved":false,"is_disabled":false,"rental_uris":{"android":"levelo://app?vid=c8d2cae5-9f44-4540-850a-4b78859642b8","ios":"levelo://app?vid=c8d2cae5-9f44-4540-850a-4b78859642b8"},"vehicle_type_id":"4","last_reported":1744892378,"current_range_meters":17600,"station_id":"ce4bh4p2rcd13ifvqe1g","pricing_plan_id":"cebpf4jnsgd1na2vs0mg"},{"bike_id":"1ce2e4b6-92ac-4019-987f-f7e2d80b4e6b","system_id":"levelo_inurba_marseille","lat":43.27504,"lon":5.42463,"is_reserved":false,"is_disabled":false,"rental_uris":{"android":"levelo://app?vid=1ce2e4b6-92ac-4019-987f-f7e2d80b4e6b","ios":"levelo://app?vid=1ce2e4b6-92ac-4019-987f-f7e2d80b4e6b"},"vehicle_type_id":"4","last_reported":1744892378,"current_range_meters":17600,"station_id":"ce4bhn92rcd13ifvqgrg","pricing_plan_id":"cebpf4jnsgd1na2vs0mg"},{"bike_id":"f67e0ee7-2727-437a-80ac-5e9a506dda11","system_id":"levelo_inurba_marseille","lat":43.296946,"lon":5.366152,"is_reserved":false,"is_disabled":false,"rental_uris":{"android":"levelo://app?vid=f67e0ee7-2727-437a-80ac-5e9a506dda11","ios":"levelo://app?vid=f67e0ee7-2727-437a-80ac-5e9a506dda11"},"vehicle_type_id":"4","last_reported":1744892378,"current_range_meters":17600,"station_id":"ce4bh392rcd13ifvqdm0","pricing_plan_id":"cebpf4jnsgd1na2vs0mg"},{"bike_id":"a0ddb0a5-f7f0-4281-aa27-9e82747cc573","system_id":"levelo_inurba_marseille","lat":43.33754,"lon":5.37491,"is_reserved":false,"is_disabled":false,"rental_uris":{"android":"levelo://app?vid=a0ddb0a5-f7f0-4281-aa27-9e82747cc573","ios":"levelo://app?vid=a0ddb0a5-f7f0-4281-aa27-9e82747cc573"},"vehicle_type_id":"4","last_reported":1744892378,"current_range_meters":17600,"station_id":"","pricing_plan_id":"cebpf4jnsgd1na2vs0mg"},{"bike_id":"7ed91d22-3d5b-4254-83bf-64eb2a7d5481","system_id":"levelo_inurba_marseille","lat":43.22502,"lon":5.34794,"is_reserved":false,"is_disabled":false,"rental_uris":{"android":"levelo://app?vid=7ed91d22-3d5b-4254-83bf-64eb2a7d5481","ios":"levelo://app?vid=7ed91d22-3d5b-4254-83bf-64eb2a7d5481"},"vehicle_type_id":"4","last_reported":1744892378,"current_range_meters":18000,"station_id":"","pricing_plan_id":"cebpf4jnsgd1na2vs0mg"},{"bike_id":"4db06d98-ef3f-4322-bb1a-56487e040895","system_id":"levelo_inurba_marseille","lat":43.24178,"lon":5.39732,"is_reserved":false,"is_disabled":false,"rental_uris":{"android":"levelo://app?vid=4db06d98-ef3f-4322-bb1a-56487e040895","ios":"levelo://app?vid=4db06d98-ef3f-4322-bb1a-56487e040895"},"vehicle_type_id":"4","last_reported":1744892378,"current_range_meters":18000,"station_id":"ce4bhn12rcd13ifvqgpg","pricing_plan_id":"cebpf4jnsgd1na2vs0mg"},{"bike_id":"07dd959b-4a23-4936-ae4e-223e976c6b69","system_id":"levelo_inurba_marseille","lat":43.321045,"lon":5.367679,"is_reserved":false,"is_disabled":false,"rental_uris":{"android":"levelo://app?vid=07dd959b-4a23-4936-ae4e-223e976c6b69","ios":"levelo://app?vid=07dd959b-4a23-4936-ae4e-223e976c6b69"},"vehicle_type_id":"4","last_reported":1744892378,"current_range_meters":18000,"station_id":"ce4bgv12rcd13ifvqcp0","pricing_plan_id":"cebpf4jnsgd1na2vs0mg"},{"bike_id":"a0e16827-b1c0-4a30-93da-405fd5466412","system_id":"levelo_inurba_marseille","lat":43.231803,"lon":5.399905,"is_reserved":false,"is_disabled":false,"rental_uris":{"android":"levelo://app?vid=a0e16827-b1c0-4a30-93da-405fd5466412","ios":"levelo://app?vid=a0e16827-b1c0-4a30-93da-405fd5466412"},"vehicle_type_id":"4","last_reported":1744892378,"current_range_meters":18000,"station_id":"ce4bhjp2rcd13ifvqg90","pricing_plan_id":"cebpf4jnsgd1na2vs0mg"},{"bike_id":"5376db3a-f912-4a95-826f-4197746248f5","system_id":"levelo_inurba_marseille","lat":43.30367,"lon":5.42481,"is_reserved":false,"is_disabled":false,"rental_uris":{"android":"levelo://app?vid=5376db3a-f912-4a95-826f-4197746248f5","ios":"levelo://app?vid=5376db3a-f912-4a95-826f-4197746248f5"},"vehicle_type_id":"4","last_reported":1744892378,"current_range_meters":18000,"station_id":"ce4bhoh2rcd13ifvqh6g","pricing_plan_id":"cebpf4jnsgd1na2vs0mg"},{"bike_id":"03c9e03c-67c6-453d-8b38-cbed9721f95d","system_id":"levelo_inurba_marseille","lat":43.28616,"lon":5.35103,"is_reserved":false,"is_disabled":false,"rental_uris":{"android":"levelo://app?vid=03c9e03c-67c6-453d-8b38-cbed9721f95d","ios":"levelo://app?vid=03c9e03c-67c6-453d-8b38-cbed9721f95d"},"vehicle_type_id":"4","last_reported":1744892378,"current_range_meters":18800,"station_id":"ce4bhch2rcd13ifvqeug","pricing_plan_id":"cebpf4jnsgd1na2vs0mg"},{"bike_id":"2052dc63-8ee1-4b61-9715-d5f11bb2c19a","system_id":"levelo_inurba_marseille","lat":43.26489,"lon":5.39565,"is_reserved":false,"is_disabled":false,"rental_uris":{"android":"levelo://app?vid=2052dc63-8ee1-4b61-9715-d5f11bb2c19a","ios":"levelo://app?vid=2052dc63-8ee1-4b61-9715-d5f11bb2c19a"},"vehicle_type_id":"4","last_reported":1744892378,"current_range_meters":18800,"station_id":"ce4bhi12rcd13ifvqfq0","pricing_plan_id":"cebpf4jnsgd1na2vs0mg"},{"bike_id":"4cdeb94d-6b8c-4d5b-a59f-49def5ff14db","system_id":"levelo_inurba_marseille","lat":43.27494,"lon":5.4246,"is_reserved":false,"is_disabled":false,"rental_uris":{"android":"levelo://app?vid=4cdeb94d-6b8c-4d5b-a59f-49def5ff14db","ios":"levelo://app?vid=4cdeb94d-6b8c-4d5b-a59f-49def5ff14db"},"vehicle_type_id":"4","last_reported":1744892378,"current_range_meters":18800,"station_id":"ce4bhn92rcd13ifvqgrg","pricing_plan_id":"cebpf4jnsgd1na2vs0mg"},{"bike_id":"bb74353b-d6ea-486a-9d02-c5f9afba6107","system_id":"levelo_inurba_marseille","lat":43.23163,"lon":5.43704,"is_reserved":false,"is_disabled":false,"rental_uris":{"android":"levelo://app?vid=bb74353b-d6ea-486a-9d02-c5f9afba6107","ios":"levelo://app?vid=bb74353b-d6ea-486a-9d02-c5f9afba6107"},"vehicle_type_id":"4","last_reported":1744892378,"current_range_meters":18800,"station_id":"ce4bhmp2rcd13ifvqgog","pricing_plan_id":"cebpf4jnsgd1na2vs0mg"},{"bike_id":"ef6e9c6f-8f69-4fcf-9727-b556a001e5bc","system_id":"levelo_inurba_marseille","lat":43.29555,"lon":5.42268,"is_reserved":false,"is_disabled":false,"rental_uris":{"android":"levelo://app?vid=ef6e9c6f-8f69-4fcf-9727-b556a001e5bc","ios":"levelo://app?vid=ef6e9c6f-8f69-4fcf-9727-b556a001e5bc"},"vehicle_type_id":"4","last_reported":1744892378,"current_range_meters":18800,"station_id":"ce4bhph2rcd13ifvqhdg","pricing_plan_id":"cebpf4jnsgd1na2vs0mg"},{"bike_id":"7eb8853e-3665-40f5-8308-1299f0674652","system_id":"levelo_inurba_marseille","lat":43.30377,"lon":5.42493,"is_reserved":false,"is_disabled":false,"rental_uris":{"android":"levelo://app?vid=7eb8853e-3665-40f5-8308-1299f0674652","ios":"levelo://app?vid=7eb8853e-3665-40f5-8308-1299f0674652"},"vehicle_type_id":"4","last_reported":1744892378,"current_range_meters":18800,"station_id":"ce4bhoh2rcd13ifvqh6g","pricing_plan_id":"cebpf4jnsgd1na2vs0mg"},{"bike_id":"fdf102c3-d7b9-4c4a-84da-0254278b1adc","system_id":"levelo_inurba_marseille","lat":43.30154,"lon":5.37428,"is_reserved":false,"is_disabled":false,"rental_uris":{"android":"levelo://app?vid=fdf102c3-d7b9-4c4a-84da-0254278b1adc","ios":"levelo://app?vid=fdf102c3-d7b9-4c4a-84da-0254278b1adc"},"vehicle_type_id":"4","last_reported":1744892378,"current_range_meters":18800,"station_id":"ce4bgs92rcd13ifvqcc0","pricing_plan_id":"cebpf4jnsgd1na2vs0mg"},{"bike_id":"de198bd0-7983-4053-9e2a-81263acf03d1","system_id":"levelo_inurba_marseille","lat":43.30417,"lon":5.39763,"is_reserved":false,"is_disabled":false,"rental_uris":{"android":"levelo://app?vid=de198bd0-7983-4053-9e2a-81263acf03d1","ios":"levelo://app?vid=de198bd0-7983-4053-9e2a-81263acf03d1"},"vehicle_type_id":"4","last_reported":1744892378,"current_range_meters":19200,"station_id":"ce4bh092rcd13ifvqd20","pricing_plan_id":"cebpf4jnsgd1na2vs0mg"},{"bike_id":"6b263e6b-aafb-45b2-8f6c-e9526fac004d","system_id":"levelo_inurba_marseille","lat":43.25833,"lon":5.39404,"is_reserved":false,"is_disabled":false,"rental_uris":{"android":"levelo://app?vid=6b263e6b-aafb-45b2-8f6c-e9526fac004d","ios":"levelo://app?vid=6b263e6b-aafb-45b2-8f6c-e9526fac004d"},"vehicle_type_id":"4","last_reported":1744892378,"current_range_meters":19200,"station_id":"ce4bhip2rcd13ifvqft0","pricing_plan_id":"cebpf4jnsgd1na2vs0mg"},{"bike_id":"f4da4309-733a-4d6d-b001-c15449133da7","system_id":"levelo_inurba_marseille","lat":43.28496,"lon":5.38576,"is_reserved":false,"is_disabled":false,"rental_uris":{"android":"levelo://app?vid=f4da4309-733a-4d6d-b001-c15449133da7","ios":"levelo://app?vid=f4da4309-733a-4d6d-b001-c15449133da7"},"vehicle_type_id":"4","last_reported":1744892378,"current_range_meters":19200,"station_id":"ce4bh8p2rcd13ifvqeb0","pricing_plan_id":"cebpf4jnsgd1na2vs0mg"},{"bike_id":"c19aa956-7c31-4e91-ab3e-60a5aa3a62c0","system_id":"levelo_inurba_marseille","lat":43.29082,"lon":5.37169,"is_reserved":false,"is_disabled":false,"rental_uris":{"android":"levelo://app?vid=c19aa956-7c31-4e91-ab3e-60a5aa3a62c0","ios":"levelo://app?vid=c19aa956-7c31-4e91-ab3e-60a5aa3a62c0"},"vehicle_type_id":"4","last_reported":1744892378,"current_range_meters":19600,"station_id":"ce4bh5p2rcd13ifvqe4g","pricing_plan_id":"cebpf4jnsgd1na2vs0mg"},{"bike_id":"8105409d-e5da-4233-9e00-0e43b0f47dfa","system_id":"levelo_inurba_marseille","lat":43.3237,"lon":5.38891,"is_reserved":false,"is_disabled":false,"rental_uris":{"android":"levelo://app?vid=8105409d-e5da-4233-9e00-0e43b0f47dfa","ios":"levelo://app?vid=8105409d-e5da-4233-9e00-0e43b0f47dfa"},"vehicle_type_id":"4","last_reported":1744892378,"current_range_meters":19200,"station_id":"ce4bhqp2rcd13ifvqhog","pricing_plan_id":"cebpf4jnsgd1na2vs0mg"},{"bike_id":"332d50ef-0349-465a-a3f8-a14d47a27c91","system_id":"levelo_inurba_marseille","lat":43.30532,"lon":5.36548,"is_reserved":false,"is_disabled":false,"rental_uris":{"android":"levelo://app?vid=332d50ef-0349-465a-a3f8-a14d47a27c91","ios":"levelo://app?vid=332d50ef-0349-465a-a3f8-a14d47a27c91"},"vehicle_type_id":"4","last_reported":1744892378,"current_range_meters":19200,"station_id":"ce4bgs12rcd13ifvqcag","pricing_plan_id":"cebpf4jnsgd1na2vs0mg"},{"bike_id":"33efbe4e-e642-4271-be29-4926b421ca5b","system_id":"levelo_inurba_marseille","lat":43.241672,"lon":5.363959,"is_reserved":false,"is_disabled":false,"rental_uris":{"android":"levelo://app?vid=33efbe4e-e642-4271-be29-4926b421ca5b","ios":"levelo://app?vid=33efbe4e-e642-4271-be29-4926b421ca5b"},"vehicle_type_id":"4","last_reported":1744892378,"current_range_meters":19200,"station_id":"cpo36qri1sfpv3e86is0","pricing_plan_id":"cebpf4jnsgd1na2vs0mg"},{"bike_id":"e6ab72e7-cca4-49e8-bfb9-781f042a37b3","system_id":"levelo_inurba_marseille","lat":43.30469,"lon":5.3791,"is_reserved":false,"is_disabled":false,"rental_uris":{"android":"levelo://app?vid=e6ab72e7-cca4-49e8-bfb9-781f042a37b3","ios":"levelo://app?vid=e6ab72e7-cca4-49e8-bfb9-781f042a37b3"},"vehicle_type_id":"4","last_reported":1744892378,"current_range_meters":19200,"station_id":"ce4bgup2rcd13ifvqcn0","pricing_plan_id":"cebpf4jnsgd1na2vs0mg"},{"bike_id":"934a8fc0-98f8-4aaf-a145-d485dee937c7","system_id":"levelo_inurba_marseille","lat":43.32365,"lon":5.36737,"is_reserved":false,"is_disabled":false,"rental_uris":{"android":"levelo://app?vid=934a8fc0-98f8-4aaf-a145-d485dee937c7","ios":"levelo://app?vid=934a8fc0-98f8-4aaf-a145-d485dee937c7"},"vehicle_type_id":"4","last_reported":1744892378,"current_range_meters":19200,"station_id":"ce4bhsh2rcd13ifvqi2g","pricing_plan_id":"cebpf4jnsgd1na2vs0mg"},{"bike_id":"8c8c5814-ec21-4be8-8ef8-5ec79d9dcccc","system_id":"levelo_inurba_marseille","lat":43.29722,"lon":5.36611,"is_reserved":false,"is_disabled":false,"rental_uris":{"android":"levelo://app?vid=8c8c5814-ec21-4be8-8ef8-5ec79d9dcccc","ios":"levelo://app?vid=8c8c5814-ec21-4be8-8ef8-5ec79d9dcccc"},"vehicle_type_id":"4","last_reported":1744892378,"current_range_meters":19600,"station_id":"ce4bgn12rcd13ifvqbt0","pricing_plan_id":"cebpf4jnsgd1na2vs0mg"},{"bike_id":"68342d9f-f0b6-47e7-b690-b27078e67a77","system_id":"levelo_inurba_marseille","lat":43.24172,"lon":5.36381,"is_reserved":false,"is_disabled":false,"rental_uris":{"android":"levelo://app?vid=68342d9f-f0b6-47e7-b690-b27078e67a77","ios":"levelo://app?vid=68342d9f-f0b6-47e7-b690-b27078e67a77"},"vehicle_type_id":"4","last_reported":1744892378,"current_range_meters":19600,"station_id":"cpo36qri1sfpv3e86is0","pricing_plan_id":"cebpf4jnsgd1na2vs0mg"},{"bike_id":"c89aa5f1-38a7-4b5f-b010-e69d9e57f80e","system_id":"levelo_inurba_marseille","lat":43.317458,"lon":5.390039,"is_reserved":false,"is_disabled":false,"rental_uris":{"android":"levelo://app?vid=c89aa5f1-38a7-4b5f-b010-e69d9e57f80e","ios":"levelo://app?vid=c89aa5f1-38a7-4b5f-b010-e69d9e57f80e"},"vehicle_type_id":"4","last_reported":1744892378,"current_range_meters":19600,"station_id":"ce4bhqp2rcd13ifvqhng","pricing_plan_id":"cebpf4jnsgd1na2vs0mg"},{"bike_id":"f08c3efd-c24b-49c5-963c-8b6537807095","system_id":"levelo_inurba_marseille","lat":43.31482,"lon":5.3728,"is_reserved":false,"is_disabled":false,"rental_uris":{"android":"levelo://app?vid=f08c3efd-c24b-49c5-963c-8b6537807095","ios":"levelo://app?vid=f08c3efd-c24b-49c5-963c-8b6537807095"},"vehicle_type_id":"4","last_reported":1744892378,"current_range_meters":19600,"station_id":"ce4bgt12rcd13ifvqcd0","pricing_plan_id":"cebpf4jnsgd1na2vs0mg"},{"bike_id":"789c3822-56ca-4769-bcd4-8845bdea2fda","system_id":"levelo_inurba_marseille","lat":43.24169,"lon":5.36398,"is_reserved":false,"is_disabled":false,"rental_uris":{"android":"levelo://app?vid=789c3822-56ca-4769-bcd4-8845bdea2fda","ios":"levelo://app?vid=789c3822-56ca-4769-bcd4-8845bdea2fda"},"vehicle_type_id":"4","last_reported":1744892378,"current_range_meters":19600,"station_id":"cpo36qri1sfpv3e86is0","pricing_plan_id":"cebpf4jnsgd1na2vs0mg"},{"bike_id":"baecf04b-7089-4e93-9766-36898fc68960","system_id":"levelo_inurba_marseille","lat":43.29855,"lon":5.36294,"is_reserved":false,"is_disabled":false,"rental_uris":{"android":"levelo://app?vid=baecf04b-7089-4e93-9766-36898fc68960","ios":"levelo://app?vid=baecf04b-7089-4e93-9766-36898fc68960"},"vehicle_type_id":"4","last_reported":1744892378,"current_range_meters":19600,"station_id":"ce4bgpp2rcd13ifvqc3g","pricing_plan_id":"cebpf4jnsgd1na2vs0mg"},{"bike_id":"9bb7361c-307f-49cb-ac99-d77623f20e19","system_id":"levelo_inurba_marseille","lat":43.32481,"lon":5.36566,"is_reserved":false,"is_disabled":false,"rental_uris":{"android":"levelo://app?vid=9bb7361c-307f-49cb-ac99-d77623f20e19","ios":"levelo://app?vid=9bb7361c-307f-49cb-ac99-d77623f20e19"},"vehicle_type_id":"4","last_reported":1744892378,"current_range_meters":19600,"station_id":"ce4bhs12rcd13ifvqhvg","pricing_plan_id":"cebpf4jnsgd1na2vs0mg"},{"bike_id":"cca0c336-36c9-4275-9c3f-c16f77e3485c","system_id":"levelo_inurba_marseille","lat":43.29179,"lon":5.37189,"is_reserved":false,"is_disabled":false,"rental_uris":{"android":"levelo://app?vid=cca0c336-36c9-4275-9c3f-c16f77e3485c","ios":"levelo://app?vid=cca0c336-36c9-4275-9c3f-c16f77e3485c"},"vehicle_type_id":"4","last_reported":1744892378,"current_range_meters":19600,"station_id":"ce4bha92rcd13ifvqeh0","pricing_plan_id":"cebpf4jnsgd1na2vs0mg"},{"bike_id":"52fc3290-ece3-439d-ab76-664d6dfcfb26","system_id":"levelo_inurba_marseille","lat":43.29569,"lon":5.3996,"is_reserved":false,"is_disabled":false,"rental_uris":{"android":"levelo://app?vid=52fc3290-ece3-439d-ab76-664d6dfcfb26","ios":"levelo://app?vid=52fc3290-ece3-439d-ab76-664d6dfcfb26"},"vehicle_type_id":"4","last_reported":1744892378,"current_range_meters":19600,"station_id":"ce4bh312rcd13ifvqdj0","pricing_plan_id":"cebpf4jnsgd1na2vs0mg"},{"bike_id":"3a147e56-abf0-4e2f-8d8b-a1e07c12c433","system_id":"levelo_inurba_marseille","lat":43.296094,"lon":5.380977,"is_reserved":false,"is_disabled":false,"rental_uris":{"android":"levelo://app?vid=3a147e56-abf0-4e2f-8d8b-a1e07c12c433","ios":"levelo://app?vid=3a147e56-abf0-4e2f-8d8b-a1e07c12c433"},"vehicle_type_id":"4","last_reported":1744892378,"current_range_meters":19600,"station_id":"ce4bgl12rcd13ifvqbo0","pricing_plan_id":"cebpf4jnsgd1na2vs0mg"},{"bike_id":"23d15469-2966-44f5-9501-f0f436ef1b80","system_id":"levelo_inurba_marseille","lat":43.29529,"lon":5.37537,"is_reserved":false,"is_disabled":false,"rental_uris":{"android":"levelo://app?vid=23d15469-2966-44f5-9501-f0f436ef1b80","ios":"levelo://app?vid=23d15469-2966-44f5-9501-f0f436ef1b80"},"vehicle_type_id":"4","last_reported":1744892378,"current_range_meters":20000,"station_id":"ce4bgkp2rcd13ifvqbmg","pricing_plan_id":"cebpf4jnsgd1na2vs0mg"},{"bike_id":"0c5209c2-b46a-4f02-999c-d9104eeb002b","system_id":"levelo_inurba_marseille","lat":43.29878,"lon":5.39736,"is_reserved":false,"is_disabled":false,"rental_uris":{"android":"levelo://app?vid=0c5209c2-b46a-4f02-999c-d9104eeb002b","ios":"levelo://app?vid=0c5209c2-b46a-4f02-999c-d9104eeb002b"},"vehicle_type_id":"4","last_reported":1744892378,"current_range_meters":20000,"station_id":"ce4bh0h2rcd13ifvqd50","pricing_plan_id":"cebpf4jnsgd1na2vs0mg"},{"bike_id":"f9d3fbe6-73e5-424e-af02-f446d5b07152","system_id":"levelo_inurba_marseille","lat":43.2175,"lon":5.34611,"is_reserved":false,"is_disabled":false,"rental_uris":{"android":"levelo://app?vid=f9d3fbe6-73e5-424e-af02-f446d5b07152","ios":"levelo://app?vid=f9d3fbe6-73e5-424e-af02-f446d5b07152"},"vehicle_type_id":"4","last_reported":1744892378,"current_range_meters":20000,"station_id":"st_cvj6r9ubvosntc0bgbag","pricing_plan_id":"cebpf4jnsgd1na2vs0mg"},{"bike_id":"3d478ed8-ed25-416a-87f2-402df3b77c0b","system_id":"levelo_inurba_marseille","lat":43.241681,"lon":5.397368,"is_reserved":false,"is_disabled":false,"rental_uris":{"android":"levelo://app?vid=3d478ed8-ed25-416a-87f2-402df3b77c0b","ios":"levelo://app?vid=3d478ed8-ed25-416a-87f2-402df3b77c0b"},"vehicle_type_id":"4","last_reported":1744892378,"current_range_meters":20000,"station_id":"ce4bhn12rcd13ifvqgpg","pricing_plan_id":"cebpf4jnsgd1na2vs0mg"},{"bike_id":"30d83665-dd72-4da8-9473-63d27bf279bb","system_id":"levelo_inurba_marseille","lat":43.29875,"lon":5.3975,"is_reserved":false,"is_disabled":false,"rental_uris":{"android":"levelo://app?vid=30d83665-dd72-4da8-9473-63d27bf279bb","ios":"levelo://app?vid=30d83665-dd72-4da8-9473-63d27bf279bb"},"vehicle_type_id":"4","last_reported":1744892378,"current_range_meters":20400,"station_id":"ce4bh0h2rcd13ifvqd50","pricing_plan_id":"cebpf4jnsgd1na2vs0mg"},{"bike_id":"11aba779-b9a1-49cb-90d3-0669feeb74c9","system_id":"levelo_inurba_marseille","lat":43.212054,"lon":5.350645,"is_reserved":false,"is_disabled":false,"rental_uris":{"android":"levelo://app?vid=11aba779-b9a1-49cb-90d3-0669feeb74c9","ios":"levelo://app?vid=11aba779-b9a1-49cb-90d3-0669feeb74c9"},"vehicle_type_id":"4","last_reported":1744892378,"current_range_meters":20400,"station_id":"st_cvj6sg6p6f1abm77japg","pricing_plan_id":"cebpf4jnsgd1na2vs0mg"},{"bike_id":"e3188c68-2cdc-4f22-af61-506a31b7e371","system_id":"levelo_inurba_marseille","lat":43.29544,"lon":5.39033,"is_reserved":false,"is_disabled":false,"rental_uris":{"android":"levelo://app?vid=e3188c68-2cdc-4f22-af61-506a31b7e371","ios":"levelo://app?vid=e3188c68-2cdc-4f22-af61-506a31b7e371"},"vehicle_type_id":"4","last_reported":1744892378,"current_range_meters":20400,"station_id":"ce4bh3p2rcd13ifvqdp0","pricing_plan_id":"cebpf4jnsgd1na2vs0mg"},{"bike_id":"e9794896-ee2a-4839-a3fe-b233d5042408","system_id":"levelo_inurba_marseille","lat":43.29636,"lon":5.37738,"is_reserved":false,"is_disabled":false,"rental_uris":{"android":"levelo://app?vid=e9794896-ee2a-4839-a3fe-b233d5042408","ios":"levelo://app?vid=e9794896-ee2a-4839-a3fe-b233d5042408"},"vehicle_type_id":"4","last_reported":1744892378,"current_range_meters":20400,"station_id":"ce4bgi92rcd13ifvqb90","pricing_plan_id":"cebpf4jnsgd1na2vs0mg"},{"bike_id":"f333f110-959a-46ad-821a-d1feadf162d8","system_id":"levelo_inurba_marseille","lat":43.30551,"lon":5.36708,"is_reserved":false,"is_disabled":false,"rental_uris":{"android":"levelo://app?vid=f333f110-959a-46ad-821a-d1feadf162d8","ios":"levelo://app?vid=f333f110-959a-46ad-821a-d1feadf162d8"},"vehicle_type_id":"4","last_reported":1744892378,"current_range_meters":20400,"station_id":"ce4bgrp2rcd13ifvqc9g","pricing_plan_id":"cebpf4jnsgd1na2vs0mg"},{"bike_id":"ecd9b5fe-4b17-4d30-a270-9ff21e0a9ad2","system_id":"levelo_inurba_marseille","lat":43.2417,"lon":5.36412,"is_reserved":false,"is_disabled":false,"rental_uris":{"android":"levelo://app?vid=ecd9b5fe-4b17-4d30-a270-9ff21e0a9ad2","ios":"levelo://app?vid=ecd9b5fe-4b17-4d30-a270-9ff21e0a9ad2"},"vehicle_type_id":"4","last_reported":1744892378,"current_range_meters":20400,"station_id":"cpo36qri1sfpv3e86is0","pricing_plan_id":"cebpf4jnsgd1na2vs0mg"},{"bike_id":"c305c827-8b59-4e6c-91de-4d8a3fcbcac2","system_id":"levelo_inurba_marseille","lat":43.24175,"lon":5.36428,"is_reserved":false,"is_disabled":false,"rental_uris":{"android":"levelo://app?vid=c305c827-8b59-4e6c-91de-4d8a3fcbcac2","ios":"levelo://app?vid=c305c827-8b59-4e6c-91de-4d8a3fcbcac2"},"vehicle_type_id":"4","last_reported":1744892378,"current_range_meters":20400,"station_id":"cpo36qri1sfpv3e86is0","pricing_plan_id":"cebpf4jnsgd1na2vs0mg"},{"bike_id":"07374245-a218-412b-8bc7-84981f2991b8","system_id":"levelo_inurba_marseille","lat":43.286987,"lon":5.385282,"is_reserved":false,"is_disabled":false,"rental_uris":{"android":"levelo://app?vid=07374245-a218-412b-8bc7-84981f2991b8","ios":"levelo://app?vid=07374245-a218-412b-8bc7-84981f2991b8"},"vehicle_type_id":"4","last_reported":1744892378,"current_range_meters":20400,"station_id":"ce4bh612rcd13ifvqe6g","pricing_plan_id":"cebpf4jnsgd1na2vs0mg"},{"bike_id":"efb996b3-bed7-4ae8-93ff-d4d1352bc8f1","system_id":"levelo_inurba_marseille","lat":43.3028,"lon":5.37673,"is_reserved":false,"is_disabled":false,"rental_uris":{"android":"levelo://app?vid=efb996b3-bed7-4ae8-93ff-d4d1352bc8f1","ios":"levelo://app?vid=efb996b3-bed7-4ae8-93ff-d4d1352bc8f1"},"vehicle_type_id":"4","last_reported":1744892378,"current_range_meters":20800,"station_id":"ce4bguh2rcd13ifvqcj0","pricing_plan_id":"cebpf4jnsgd1na2vs0mg"},{"bike_id":"04b27430-aed8-4dd3-a229-380dfbad9203","system_id":"levelo_inurba_marseille","lat":43.3055,"lon":5.36745,"is_reserved":false,"is_disabled":false,"rental_uris":{"android":"levelo://app?vid=04b27430-aed8-4dd3-a229-380dfbad9203","ios":"levelo://app?vid=04b27430-aed8-4dd3-a229-380dfbad9203"},"vehicle_type_id":"4","last_reported":1744892378,"current_range_meters":20800,"station_id":"ce4bgrp2rcd13ifvqc9g","pricing_plan_id":"cebpf4jnsgd1na2vs0mg"},{"bike_id":"d39e5537-c00a-4bf8-9f22-53966b448679","system_id":"levelo_inurba_marseille","lat":43.29556,"lon":5.42287,"is_reserved":false,"is_disabled":false,"rental_uris":{"android":"levelo://app?vid=d39e5537-c00a-4bf8-9f22-53966b448679","ios":"levelo://app?vid=d39e5537-c00a-4bf8-9f22-53966b448679"},"vehicle_type_id":"4","last_reported":1744892378,"current_range_meters":20800,"station_id":"ce4bhph2rcd13ifvqhdg","pricing_plan_id":"cebpf4jnsgd1na2vs0mg"},{"bike_id":"05f9b99d-7805-460c-b863-06baeb2f9dc2","system_id":"levelo_inurba_marseille","lat":43.301624,"lon":5.380917,"is_reserved":false,"is_disabled":false,"rental_uris":{"android":"levelo://app?vid=05f9b99d-7805-460c-b863-06baeb2f9dc2","ios":"levelo://app?vid=05f9b99d-7805-460c-b863-06baeb2f9dc2"},"vehicle_type_id":"4","last_reported":1744892378,"current_range_meters":20800,"station_id":"ce4bgjp2rcd13ifvqbh0","pricing_plan_id":"cebpf4jnsgd1na2vs0mg"},{"bike_id":"767ac8e2-0e80-4549-a954-7d5c8496a13a","system_id":"levelo_inurba_marseille","lat":43.30531,"lon":5.36558,"is_reserved":false,"is_disabled":false,"rental_uris":{"android":"levelo://app?vid=767ac8e2-0e80-4549-a954-7d5c8496a13a","ios":"levelo://app?vid=767ac8e2-0e80-4549-a954-7d5c8496a13a"},"vehicle_type_id":"4","last_reported":1744892378,"current_range_meters":20800,"station_id":"ce4bgs12rcd13ifvqcag","pricing_plan_id":"cebpf4jnsgd1na2vs0mg"},{"bike_id":"63062b70-0dd4-4841-a0ad-b8888678a06e","system_id":"levelo_inurba_marseille","lat":43.304157,"lon":5.412805,"is_reserved":false,"is_disabled":false,"rental_uris":{"android":"levelo://app?vid=63062b70-0dd4-4841-a0ad-b8888678a06e","ios":"levelo://app?vid=63062b70-0dd4-4841-a0ad-b8888678a06e"},"vehicle_type_id":"4","last_reported":1744892378,"current_range_meters":20800,"station_id":"ce4bhop2rcd13ifvqh8g","pricing_plan_id":"cebpf4jnsgd1na2vs0mg"},{"bike_id":"977d679e-22d8-46ef-a462-a943eec2fbd8","system_id":"levelo_inurba_marseille","lat":43.29511,"lon":5.37514,"is_reserved":false,"is_disabled":false,"rental_uris":{"android":"levelo://app?vid=977d679e-22d8-46ef-a462-a943eec2fbd8","ios":"levelo://app?vid=977d679e-22d8-46ef-a462-a943eec2fbd8"},"vehicle_type_id":"4","last_reported":1744892378,"current_range_meters":20800,"station_id":"ce4bgkp2rcd13ifvqbmg","pricing_plan_id":"cebpf4jnsgd1na2vs0mg"},{"bike_id":"ae1111c6-a6eb-49f4-b3d4-8325287d85e1","system_id":"levelo_inurba_marseille","lat":43.245474,"lon":5.395254,"is_reserved":false,"is_disabled":false,"rental_uris":{"android":"levelo://app?vid=ae1111c6-a6eb-49f4-b3d4-8325287d85e1","ios":"levelo://app?vid=ae1111c6-a6eb-49f4-b3d4-8325287d85e1"},"vehicle_type_id":"4","last_reported":1744892378,"current_range_meters":20800,"station_id":"ce4bhlp2rcd13ifvqgjg","pricing_plan_id":"cebpf4jnsgd1na2vs0mg"},{"bike_id":"e4d3a7be-4116-4c95-ab58-e5bbfafcec60","system_id":"levelo_inurba_marseille","lat":43.30424,"lon":5.39759,"is_reserved":false,"is_disabled":false,"rental_uris":{"android":"levelo://app?vid=e4d3a7be-4116-4c95-ab58-e5bbfafcec60","ios":"levelo://app?vid=e4d3a7be-4116-4c95-ab58-e5bbfafcec60"},"vehicle_type_id":"4","last_reported":1744892378,"current_range_meters":20800,"station_id":"ce4bh092rcd13ifvqd20","pricing_plan_id":"cebpf4jnsgd1na2vs0mg"},{"bike_id":"47cacefd-121f-4969-b48b-22062363a0a4","system_id":"levelo_inurba_marseille","lat":43.29898,"lon":5.37187,"is_reserved":false,"is_disabled":false,"rental_uris":{"android":"levelo://app?vid=47cacefd-121f-4969-b48b-22062363a0a4","ios":"levelo://app?vid=47cacefd-121f-4969-b48b-22062363a0a4"},"vehicle_type_id":"4","last_reported":1744892378,"current_range_meters":20800,"station_id":"ce4bgr92rcd13ifvqc7g","pricing_plan_id":"cebpf4jnsgd1na2vs0mg"},{"bike_id":"cc937bc8-27c1-44e9-a469-8b24e9cfd941","system_id":"levelo_inurba_marseille","lat":43.29873,"lon":5.36278,"is_reserved":false,"is_disabled":false,"rental_uris":{"android":"levelo://app?vid=cc937bc8-27c1-44e9-a469-8b24e9cfd941","ios":"levelo://app?vid=cc937bc8-27c1-44e9-a469-8b24e9cfd941"},"vehicle_type_id":"4","last_reported":1744892378,"current_range_meters":21600,"station_id":"ce4bgpp2rcd13ifvqc3g","pricing_plan_id":"cebpf4jnsgd1na2vs0mg"},{"bike_id":"27988409-a047-4e9e-904f-77a07afb9f8e","system_id":"levelo_inurba_marseille","lat":43.29797,"lon":5.38081,"is_reserved":false,"is_disabled":false,"rental_uris":{"android":"levelo://app?vid=27988409-a047-4e9e-904f-77a07afb9f8e","ios":"levelo://app?vid=27988409-a047-4e9e-904f-77a07afb9f8e"},"vehicle_type_id":"4","last_reported":1744892378,"current_range_meters":21600,"station_id":"ce4bgip2rcd13ifvqbb0","pricing_plan_id":"cebpf4jnsgd1na2vs0mg"},{"bike_id":"3d5f8787-32d4-4460-9763-ab33bb8d149d","system_id":"levelo_inurba_marseille","lat":43.25001,"lon":5.3893,"is_reserved":false,"is_disabled":false,"rental_uris":{"android":"levelo://app?vid=3d5f8787-32d4-4460-9763-ab33bb8d149d","ios":"levelo://app?vid=3d5f8787-32d4-4460-9763-ab33bb8d149d"},"vehicle_type_id":"4","last_reported":1744892378,"current_range_meters":21600,"station_id":"ce4bhgp2rcd13ifvqfd0","pricing_plan_id":"cebpf4jnsgd1na2vs0mg"},{"bike_id":"33bf5d63-424c-48d6-a0cb-a0565488ee3e","system_id":"levelo_inurba_marseille","lat":43.24164,"lon":5.39724,"is_reserved":false,"is_disabled":false,"rental_uris":{"android":"levelo://app?vid=33bf5d63-424c-48d6-a0cb-a0565488ee3e","ios":"levelo://app?vid=33bf5d63-424c-48d6-a0cb-a0565488ee3e"},"vehicle_type_id":"4","last_reported":1744892378,"current_range_meters":21600,"station_id":"ce4bhn12rcd13ifvqgpg","pricing_plan_id":"cebpf4jnsgd1na2vs0mg"},{"bike_id":"a98846e9-8bfc-47f7-8530-12eb548f5820","system_id":"levelo_inurba_marseille","lat":43.28988,"lon":5.37827,"is_reserved":false,"is_disabled":false,"rental_uris":{"android":"levelo://app?vid=a98846e9-8bfc-47f7-8530-12eb548f5820","ios":"levelo://app?vid=a98846e9-8bfc-47f7-8530-12eb548f5820"},"vehicle_type_id":"4","last_reported":1744892378,"current_range_meters":21600,"station_id":"ce4bh9p2rcd13ifvqed0","pricing_plan_id":"cebpf4jnsgd1na2vs0mg"},{"bike_id":"8d3324b1-8e23-4d35-a786-4e77df5b40d5","system_id":"levelo_inurba_marseille","lat":43.26783,"lon":5.39422,"is_reserved":false,"is_disabled":false,"rental_uris":{"android":"levelo://app?vid=8d3324b1-8e23-4d35-a786-4e77df5b40d5","ios":"levelo://app?vid=8d3324b1-8e23-4d35-a786-4e77df5b40d5"},"vehicle_type_id":"4","last_reported":1744892378,"current_range_meters":22000,"station_id":"ce4bhh12rcd13ifvqfg0","pricing_plan_id":"cebpf4jnsgd1na2vs0mg"},{"bike_id":"350ccb26-3cac-4196-af3f-cacdc50bb338","system_id":"levelo_inurba_marseille","lat":43.30529,"lon":5.36527,"is_reserved":false,"is_disabled":false,"rental_uris":{"android":"levelo://app?vid=350ccb26-3cac-4196-af3f-cacdc50bb338","ios":"levelo://app?vid=350ccb26-3cac-4196-af3f-cacdc50bb338"},"vehicle_type_id":"4","last_reported":1744892378,"current_range_meters":22000,"station_id":"ce4bgs12rcd13ifvqcag","pricing_plan_id":"cebpf4jnsgd1na2vs0mg"},{"bike_id":"e63417fa-0aef-405c-91a2-4aaa811bdfe9","system_id":"levelo_inurba_marseille","lat":43.29038,"lon":5.39966,"is_reserved":false,"is_disabled":false,"rental_uris":{"android":"levelo://app?vid=e63417fa-0aef-405c-91a2-4aaa811bdfe9","ios":"levelo://app?vid=e63417fa-0aef-405c-91a2-4aaa811bdfe9"},"vehicle_type_id":"4","last_reported":1744892378,"current_range_meters":22000,"station_id":"ce4bh392rcd13ifvqdm0","pricing_plan_id":"cebpf4jnsgd1na2vs0mg"},{"bike_id":"8c38ddee-f92a-45c0-a14f-c7d3f9d53639","system_id":"levelo_inurba_marseille","lat":43.26785,"lon":5.39418,"is_reserved":false,"is_disabled":false,"rental_uris":{"android":"levelo://app?vid=8c38ddee-f92a-45c0-a14f-c7d3f9d53639","ios":"levelo://app?vid=8c38ddee-f92a-45c0-a14f-c7d3f9d53639"},"vehicle_type_id":"4","last_reported":1744892378,"current_range_meters":22000,"station_id":"ce4bhh12rcd13ifvqfg0","pricing_plan_id":"cebpf4jnsgd1na2vs0mg"},{"bike_id":"0e4e98ae-bd1e-43d8-adcc-de215d7e9b95","system_id":"levelo_inurba_marseille","lat":43.29374,"lon":5.37866,"is_reserved":false,"is_disabled":false,"rental_uris":{"android":"levelo://app?vid=0e4e98ae-bd1e-43d8-adcc-de215d7e9b95","ios":"levelo://app?vid=0e4e98ae-bd1e-43d8-adcc-de215d7e9b95"},"vehicle_type_id":"4","last_reported":1744892378,"current_range_meters":22000,"station_id":"ce4bgjh2rcd13ifvqbf0","pricing_plan_id":"cebpf4jnsgd1na2vs0mg"},{"bike_id":"41e1c63c-81c1-4e81-bb18-de81ab9e4a7d","system_id":"levelo_inurba_marseille","lat":43.30787,"lon":5.37645,"is_reserved":false,"is_disabled":false,"rental_uris":{"android":"levelo://app?vid=41e1c63c-81c1-4e81-bb18-de81ab9e4a7d","ios":"levelo://app?vid=41e1c63c-81c1-4e81-bb18-de81ab9e4a7d"},"vehicle_type_id":"4","last_reported":1744892378,"current_range_meters":22000,"station_id":"ce4bgv92rcd13ifvqcq0","pricing_plan_id":"cebpf4jnsgd1na2vs0mg"},{"bike_id":"f1d513e7-93f2-472b-b840-4c42490aad95","system_id":"levelo_inurba_marseille","lat":43.24166,"lon":5.36401,"is_reserved":false,"is_disabled":false,"rental_uris":{"android":"levelo://app?vid=f1d513e7-93f2-472b-b840-4c42490aad95","ios":"levelo://app?vid=f1d513e7-93f2-472b-b840-4c42490aad95"},"vehicle_type_id":"4","last_reported":1744892378,"current_range_meters":22000,"station_id":"cpo36qri1sfpv3e86is0","pricing_plan_id":"cebpf4jnsgd1na2vs0mg"},{"bike_id":"3a47ee2e-3cbf-40c8-aa2b-3818f921edde","system_id":"levelo_inurba_marseille","lat":43.29815,"lon":5.3826,"is_reserved":false,"is_disabled":false,"rental_uris":{"android":"levelo://app?vid=3a47ee2e-3cbf-40c8-aa2b-3818f921edde","ios":"levelo://app?vid=3a47ee2e-3cbf-40c8-aa2b-3818f921edde"},"vehicle_type_id":"4","last_reported":1744892378,"current_range_meters":22800,"station_id":"ce4bgip2rcd13ifvqbb0","pricing_plan_id":"cebpf4jnsgd1na2vs0mg"},{"bike_id":"da66c106-3b87-43f3-a595-76717d6f2d8d","system_id":"levelo_inurba_marseille","lat":43.28037,"lon":5.36951,"is_reserved":false,"is_disabled":false,"rental_uris":{"android":"levelo://app?vid=da66c106-3b87-43f3-a595-76717d6f2d8d","ios":"levelo://app?vid=da66c106-3b87-43f3-a595-76717d6f2d8d"},"vehicle_type_id":"4","last_reported":1744892378,"current_range_meters":22000,"station_id":"ce4bha12rcd13ifvqef0","pricing_plan_id":"cebpf4jnsgd1na2vs0mg"},{"bike_id":"5e6be620-a3d0-49c3-9ff0-b85332cde817","system_id":"levelo_inurba_marseille","lat":43.23193,"lon":5.35616,"is_reserved":false,"is_disabled":false,"rental_uris":{"android":"levelo://app?vid=5e6be620-a3d0-49c3-9ff0-b85332cde817","ios":"levelo://app?vid=5e6be620-a3d0-49c3-9ff0-b85332cde817"},"vehicle_type_id":"4","last_reported":1744892378,"current_range_meters":22000,"station_id":"ce4bhu92rcd13ifvqi70","pricing_plan_id":"cebpf4jnsgd1na2vs0mg"},{"bike_id":"80bac1fe-218c-4068-937c-4aa733df023f","system_id":"levelo_inurba_marseille","lat":43.28612,"lon":5.37068,"is_reserved":false,"is_disabled":false,"rental_uris":{"android":"levelo://app?vid=80bac1fe-218c-4068-937c-4aa733df023f","ios":"levelo://app?vid=80bac1fe-218c-4068-937c-4aa733df023f"},"vehicle_type_id":"4","last_reported":1744892378,"current_range_meters":22000,"station_id":"ce4bht12rcd13ifvqi60","pricing_plan_id":"cebpf4jnsgd1na2vs0mg"},{"bike_id":"90c69fbb-7b7a-410e-b334-36d1d2eb1640","system_id":"levelo_inurba_marseille","lat":43.311676,"lon":5.387226,"is_reserved":false,"is_disabled":false,"rental_uris":{"android":"levelo://app?vid=90c69fbb-7b7a-410e-b334-36d1d2eb1640","ios":"levelo://app?vid=90c69fbb-7b7a-410e-b334-36d1d2eb1640"},"vehicle_type_id":"4","last_reported":1744892378,"current_range_meters":22400,"station_id":"ce4bh412rcd13ifvqdr0","pricing_plan_id":"cebpf4jnsgd1na2vs0mg"},{"bike_id":"873bcab6-b973-48ed-b129-34762c209441","system_id":"levelo_inurba_marseille","lat":43.3149,"lon":5.37295,"is_reserved":false,"is_disabled":false,"rental_uris":{"android":"levelo://app?vid=873bcab6-b973-48ed-b129-34762c209441","ios":"levelo://app?vid=873bcab6-b973-48ed-b129-34762c209441"},"vehicle_type_id":"4","last_reported":1744892378,"current_range_meters":22400,"station_id":"ce4bgt12rcd13ifvqcd0","pricing_plan_id":"cebpf4jnsgd1na2vs0mg"},{"bike_id":"99c0a1b7-1431-47a2-9a71-a10497a08f10","system_id":"levelo_inurba_marseille","lat":43.29043,"lon":5.37574,"is_reserved":false,"is_disabled":false,"rental_uris":{"android":"levelo://app?vid=99c0a1b7-1431-47a2-9a71-a10497a08f10","ios":"levelo://app?vid=99c0a1b7-1431-47a2-9a71-a10497a08f10"},"vehicle_type_id":"4","last_reported":1744892378,"current_range_meters":22400,"station_id":"ce4bh692rcd13ifvqe90","pricing_plan_id":"cebpf4jnsgd1na2vs0mg"},{"bike_id":"56882ef9-a6d4-408d-adac-a41b1e58d41a","system_id":"levelo_inurba_marseille","lat":43.29846,"lon":5.36294,"is_reserved":false,"is_disabled":false,"rental_uris":{"android":"levelo://app?vid=56882ef9-a6d4-408d-adac-a41b1e58d41a","ios":"levelo://app?vid=56882ef9-a6d4-408d-adac-a41b1e58d41a"},"vehicle_type_id":"4","last_reported":1744892378,"current_range_meters":22400,"station_id":"ce4bgpp2rcd13ifvqc3g","pricing_plan_id":"cebpf4jnsgd1na2vs0mg"},{"bike_id":"5edff29b-8597-4123-8eac-13badbdfa345","system_id":"levelo_inurba_marseille","lat":43.29297,"lon":5.37426,"is_reserved":false,"is_disabled":false,"rental_uris":{"android":"levelo://app?vid=5edff29b-8597-4123-8eac-13badbdfa345","ios":"levelo://app?vid=5edff29b-8597-4123-8eac-13badbdfa345"},"vehicle_type_id":"4","last_reported":1744892378,"current_range_meters":22400,"station_id":"ce4bgi12rcd13ifvqb70","pricing_plan_id":"cebpf4jnsgd1na2vs0mg"},{"bike_id":"9eb6738d-486c-4d0a-88f4-70b8d81983d1","system_id":"levelo_inurba_marseille","lat":43.21751,"lon":5.3462,"is_reserved":false,"is_disabled":false,"rental_uris":{"android":"levelo://app?vid=9eb6738d-486c-4d0a-88f4-70b8d81983d1","ios":"levelo://app?vid=9eb6738d-486c-4d0a-88f4-70b8d81983d1"},"vehicle_type_id":"4","last_reported":1744892378,"current_range_meters":22400,"station_id":"st_cvj6r9ubvosntc0bgbag","pricing_plan_id":"cebpf4jnsgd1na2vs0mg"},{"bike_id":"d4fed459-1a16-49d1-a46c-cd8044b4601a","system_id":"levelo_inurba_marseille","lat":43.29615,"lon":5.37737,"is_reserved":false,"is_disabled":false,"rental_uris":{"android":"levelo://app?vid=d4fed459-1a16-49d1-a46c-cd8044b4601a","ios":"levelo://app?vid=d4fed459-1a16-49d1-a46c-cd8044b4601a"},"vehicle_type_id":"4","last_reported":1744892378,"current_range_meters":22800,"station_id":"ce4bgi92rcd13ifvqb90","pricing_plan_id":"cebpf4jnsgd1na2vs0mg"},{"bike_id":"91aa591a-3e56-4092-a295-ecb6aebe69eb","system_id":"levelo_inurba_marseille","lat":43.22505,"lon":5.34787,"is_reserved":false,"is_disabled":false,"rental_uris":{"android":"levelo://app?vid=91aa591a-3e56-4092-a295-ecb6aebe69eb","ios":"levelo://app?vid=91aa591a-3e56-4092-a295-ecb6aebe69eb"},"vehicle_type_id":"4","last_reported":1744892378,"current_range_meters":22800,"station_id":"st_cvj5dfep6f1abm77gieg","pricing_plan_id":"cebpf4jnsgd1na2vs0mg"},{"bike_id":"aea2afb6-112e-4c3a-968a-5eb5aa77e9be","system_id":"levelo_inurba_marseille","lat":43.21192,"lon":5.3508,"is_reserved":false,"is_disabled":false,"rental_uris":{"android":"levelo://app?vid=aea2afb6-112e-4c3a-968a-5eb5aa77e9be","ios":"levelo://app?vid=aea2afb6-112e-4c3a-968a-5eb5aa77e9be"},"vehicle_type_id":"4","last_reported":1744892378,"current_range_meters":22800,"station_id":"st_cvj6sg6p6f1abm77japg","pricing_plan_id":"cebpf4jnsgd1na2vs0mg"},{"bike_id":"09ed2f99-3de5-46d0-a2e0-ed554d61393f","system_id":"levelo_inurba_marseille","lat":43.31003,"lon":5.38483,"is_reserved":false,"is_disabled":false,"rental_uris":{"android":"levelo://app?vid=09ed2f99-3de5-46d0-a2e0-ed554d61393f","ios":"levelo://app?vid=09ed2f99-3de5-46d0-a2e0-ed554d61393f"},"vehicle_type_id":"4","last_reported":1744892378,"current_range_meters":22800,"station_id":"","pricing_plan_id":"cebpf4jnsgd1na2vs0mg"},{"bike_id":"64106069-7623-4cd3-bc18-b0663a3587ef","system_id":"levelo_inurba_marseille","lat":43.29031,"lon":5.3865,"is_reserved":false,"is_disabled":false,"rental_uris":{"android":"levelo://app?vid=64106069-7623-4cd3-bc18-b0663a3587ef","ios":"levelo://app?vid=64106069-7623-4cd3-bc18-b0663a3587ef"},"vehicle_type_id":"4","last_reported":1744892378,"current_range_meters":22800,"station_id":"ce4bh4p2rcd13ifvqe0g","pricing_plan_id":"cebpf4jnsgd1na2vs0mg"},{"bike_id":"d05b7cc4-f88b-4d02-ae6c-c344f22c0e5c","system_id":"levelo_inurba_marseille","lat":43.297665,"lon":5.36549,"is_reserved":false,"is_disabled":false,"rental_uris":{"android":"levelo://app?vid=d05b7cc4-f88b-4d02-ae6c-c344f22c0e5c","ios":"levelo://app?vid=d05b7cc4-f88b-4d02-ae6c-c344f22c0e5c"},"vehicle_type_id":"4","last_reported":1744892378,"current_range_meters":23200,"station_id":"","pricing_plan_id":"cebpf4jnsgd1na2vs0mg"},{"bike_id":"dd9bc5a1-4c5d-48ef-a366-e087f9649940","system_id":"levelo_inurba_marseille","lat":43.3124,"lon":5.36842,"is_reserved":false,"is_disabled":false,"rental_uris":{"android":"levelo://app?vid=dd9bc5a1-4c5d-48ef-a366-e087f9649940","ios":"levelo://app?vid=dd9bc5a1-4c5d-48ef-a366-e087f9649940"},"vehicle_type_id":"4","last_reported":1744892378,"current_range_meters":23200,"station_id":"ce4bgl92rcd13ifvqbq0","pricing_plan_id":"cebpf4jnsgd1na2vs0mg"},{"bike_id":"169cfa47-f08f-4b2d-acdf-f6e87b6776f1","system_id":"levelo_inurba_marseille","lat":43.3123,"lon":5.36851,"is_reserved":false,"is_disabled":false,"rental_uris":{"android":"levelo://app?vid=169cfa47-f08f-4b2d-acdf-f6e87b6776f1","ios":"levelo://app?vid=169cfa47-f08f-4b2d-acdf-f6e87b6776f1"},"vehicle_type_id":"4","last_reported":1744892378,"current_range_meters":23200,"station_id":"ce4bgl92rcd13ifvqbq0","pricing_plan_id":"cebpf4jnsgd1na2vs0mg"},{"bike_id":"04b0cb39-9229-4c02-890e-562e273ff746","system_id":"levelo_inurba_marseille","lat":43.29797,"lon":5.38118,"is_reserved":false,"is_disabled":false,"rental_uris":{"android":"levelo://app?vid=04b0cb39-9229-4c02-890e-562e273ff746","ios":"levelo://app?vid=04b0cb39-9229-4c02-890e-562e273ff746"},"vehicle_type_id":"4","last_reported":1744892378,"current_range_meters":23200,"station_id":"ce4bgip2rcd13ifvqbb0","pricing_plan_id":"cebpf4jnsgd1na2vs0mg"},{"bike_id":"db2488d1-77a1-4eb3-9b9b-b51975bfb43c","system_id":"levelo_inurba_marseille","lat":43.301429,"lon":5.374258,"is_reserved":false,"is_disabled":false,"rental_uris":{"android":"levelo://app?vid=db2488d1-77a1-4eb3-9b9b-b51975bfb43c","ios":"levelo://app?vid=db2488d1-77a1-4eb3-9b9b-b51975bfb43c"},"vehicle_type_id":"4","last_reported":1744892378,"current_range_meters":23200,"station_id":"ce4bgs92rcd13ifvqcc0","pricing_plan_id":"cebpf4jnsgd1na2vs0mg"},{"bike_id":"b412b3e8-9c22-4520-a111-85129702ff20","system_id":"levelo_inurba_marseille","lat":43.23191,"lon":5.39998,"is_reserved":false,"is_disabled":false,"rental_uris":{"android":"levelo://app?vid=b412b3e8-9c22-4520-a111-85129702ff20","ios":"levelo://app?vid=b412b3e8-9c22-4520-a111-85129702ff20"},"vehicle_type_id":"4","last_reported":1744892378,"current_range_meters":23200,"station_id":"ce4bhn12rcd13ifvqgqg","pricing_plan_id":"cebpf4jnsgd1na2vs0mg"},{"bike_id":"ff0779f2-be75-4a21-8e31-ac2806dec49a","system_id":"levelo_inurba_marseille","lat":43.31121,"lon":5.37767,"is_reserved":false,"is_disabled":false,"rental_uris":{"android":"levelo://app?vid=ff0779f2-be75-4a21-8e31-ac2806dec49a","ios":"levelo://app?vid=ff0779f2-be75-4a21-8e31-ac2806dec49a"},"vehicle_type_id":"4","last_reported":1744892378,"current_range_meters":23200,"station_id":"ce4bgt92rcd13ifvqcg0","pricing_plan_id":"cebpf4jnsgd1na2vs0mg"},{"bike_id":"8ea2237f-83ea-4547-994f-b4e446b2b67b","system_id":"levelo_inurba_marseille","lat":43.29852,"lon":5.36294,"is_reserved":false,"is_disabled":false,"rental_uris":{"android":"levelo://app?vid=8ea2237f-83ea-4547-994f-b4e446b2b67b","ios":"levelo://app?vid=8ea2237f-83ea-4547-994f-b4e446b2b67b"},"vehicle_type_id":"4","last_reported":1744892378,"current_range_meters":23200,"station_id":"ce4bgpp2rcd13ifvqc3g","pricing_plan_id":"cebpf4jnsgd1na2vs0mg"},{"bike_id":"e0c7ce99-5722-4de0-bbb5-77895df4a4f6","system_id":"levelo_inurba_marseille","lat":43.31117,"lon":5.37774,"is_reserved":false,"is_disabled":false,"rental_uris":{"android":"levelo://app?vid=e0c7ce99-5722-4de0-bbb5-77895df4a4f6","ios":"levelo://app?vid=e0c7ce99-5722-4de0-bbb5-77895df4a4f6"},"vehicle_type_id":"4","last_reported":1744892378,"current_range_meters":23200,"station_id":"ce4bgt92rcd13ifvqcg0","pricing_plan_id":"cebpf4jnsgd1na2vs0mg"},{"bike_id":"0592902f-7f13-4712-8ca3-1e4aaf8ee35a","system_id":"levelo_inurba_marseille","lat":43.30087,"lon":5.3908,"is_reserved":false,"is_disabled":false,"rental_uris":{"android":"levelo://app?vid=0592902f-7f13-4712-8ca3-1e4aaf8ee35a","ios":"levelo://app?vid=0592902f-7f13-4712-8ca3-1e4aaf8ee35a"},"vehicle_type_id":"4","last_reported":1744892378,"current_range_meters":24000,"station_id":"ce4bh192rcd13ifvqdb0","pricing_plan_id":"cebpf4jnsgd1na2vs0mg"},{"bike_id":"7d1b0b4b-e95b-4533-8309-734860489786","system_id":"levelo_inurba_marseille","lat":43.275012,"lon":5.411371,"is_reserved":false,"is_disabled":false,"rental_uris":{"android":"levelo://app?vid=7d1b0b4b-e95b-4533-8309-734860489786","ios":"levelo://app?vid=7d1b0b4b-e95b-4533-8309-734860489786"},"vehicle_type_id":"4","last_reported":1744892378,"current_range_meters":24000,"station_id":"","pricing_plan_id":"cebpf4jnsgd1na2vs0mg"},{"bike_id":"6b480f18-bbd9-4909-9cc0-7307b2d37f6a","system_id":"levelo_inurba_marseille","lat":43.27824,"lon":5.3921,"is_reserved":false,"is_disabled":false,"rental_uris":{"android":"levelo://app?vid=6b480f18-bbd9-4909-9cc0-7307b2d37f6a","ios":"levelo://app?vid=6b480f18-bbd9-4909-9cc0-7307b2d37f6a"},"vehicle_type_id":"4","last_reported":1744892378,"current_range_meters":24000,"station_id":"ce4bhjp2rcd13ifvqga0","pricing_plan_id":"cebpf4jnsgd1na2vs0mg"},{"bike_id":"4f172882-e66e-4d6c-944a-b9671eae4dda","system_id":"levelo_inurba_marseille","lat":43.24182,"lon":5.39725,"is_reserved":false,"is_disabled":false,"rental_uris":{"android":"levelo://app?vid=4f172882-e66e-4d6c-944a-b9671eae4dda","ios":"levelo://app?vid=4f172882-e66e-4d6c-944a-b9671eae4dda"},"vehicle_type_id":"4","last_reported":1744892378,"current_range_meters":24000,"station_id":"ce4bhn12rcd13ifvqgpg","pricing_plan_id":"cebpf4jnsgd1na2vs0mg"},{"bike_id":"24213b37-b766-4d9c-a174-f6bf34920497","system_id":"levelo_inurba_marseille","lat":43.28469,"lon":5.384178,"is_reserved":false,"is_disabled":false,"rental_uris":{"android":"levelo://app?vid=24213b37-b766-4d9c-a174-f6bf34920497","ios":"levelo://app?vid=24213b37-b766-4d9c-a174-f6bf34920497"},"vehicle_type_id":"4","last_reported":1744892378,"current_range_meters":24000,"station_id":"ce4bh512rcd13ifvqe3g","pricing_plan_id":"cebpf4jnsgd1na2vs0mg"},{"bike_id":"7e9fbd33-cfb6-44a6-96fc-1f60d0c215f7","system_id":"levelo_inurba_marseille","lat":43.323579,"lon":5.367486,"is_reserved":false,"is_disabled":false,"rental_uris":{"android":"levelo://app?vid=7e9fbd33-cfb6-44a6-96fc-1f60d0c215f7","ios":"levelo://app?vid=7e9fbd33-cfb6-44a6-96fc-1f60d0c215f7"},"vehicle_type_id":"4","last_reported":1744892378,"current_range_meters":24000,"station_id":"ce4bhsh2rcd13ifvqi2g","pricing_plan_id":"cebpf4jnsgd1na2vs0mg"},{"bike_id":"d463df27-020c-45c2-827b-47663c8f26f7","system_id":"levelo_inurba_marseille","lat":43.2466,"lon":5.38901,"is_reserved":false,"is_disabled":false,"rental_uris":{"android":"levelo://app?vid=d463df27-020c-45c2-827b-47663c8f26f7","ios":"levelo://app?vid=d463df27-020c-45c2-827b-47663c8f26f7"},"vehicle_type_id":"4","last_reported":1744892378,"current_range_meters":24000,"station_id":"ce4bhg12rcd13ifvqf60","pricing_plan_id":"cebpf4jnsgd1na2vs0mg"},{"bike_id":"19d3e60f-673f-4ed2-a8c8-890c42135f26","system_id":"levelo_inurba_marseille","lat":43.29577,"lon":5.37509,"is_reserved":false,"is_disabled":false,"rental_uris":{"android":"levelo://app?vid=19d3e60f-673f-4ed2-a8c8-890c42135f26","ios":"levelo://app?vid=19d3e60f-673f-4ed2-a8c8-890c42135f26"},"vehicle_type_id":"4","last_reported":1744892378,"current_range_meters":24000,"station_id":"ce4bgh92rcd13ifvqb50","pricing_plan_id":"cebpf4jnsgd1na2vs0mg"},{"bike_id":"aad06c3e-b981-4c88-87c2-21b5a38add65","system_id":"levelo_inurba_marseille","lat":43.30556,"lon":5.36553,"is_reserved":false,"is_disabled":false,"rental_uris":{"android":"levelo://app?vid=aad06c3e-b981-4c88-87c2-21b5a38add65","ios":"levelo://app?vid=aad06c3e-b981-4c88-87c2-21b5a38add65"},"vehicle_type_id":"4","last_reported":1744892378,"current_range_meters":24000,"station_id":"ce4bgs12rcd13ifvqcag","pricing_plan_id":"cebpf4jnsgd1na2vs0mg"},{"bike_id":"9316f7b0-cc57-4157-8622-e32c53f898b4","system_id":"levelo_inurba_marseille","lat":43.282684,"lon":5.350743,"is_reserved":false,"is_disabled":false,"rental_uris":{"android":"levelo://app?vid=9316f7b0-cc57-4157-8622-e32c53f898b4","ios":"levelo://app?vid=9316f7b0-cc57-4157-8622-e32c53f898b4"},"vehicle_type_id":"4","last_reported":1744892378,"current_range_meters":24400,"station_id":"ce4bhbp2rcd13ifvqerg","pricing_plan_id":"cebpf4jnsgd1na2vs0mg"},{"bike_id":"379dee3f-34cd-468c-aca0-cf546e557097","system_id":"levelo_inurba_marseille","lat":43.26568,"lon":5.38999,"is_reserved":false,"is_disabled":false,"rental_uris":{"android":"levelo://app?vid=379dee3f-34cd-468c-aca0-cf546e557097","ios":"levelo://app?vid=379dee3f-34cd-468c-aca0-cf546e557097"},"vehicle_type_id":"4","last_reported":1744892378,"current_range_meters":24400,"station_id":"ce4bhe12rcd13ifvqf30","pricing_plan_id":"cebpf4jnsgd1na2vs0mg"},{"bike_id":"17de6571-3c1c-4621-995b-d445cb9c6f14","system_id":"levelo_inurba_marseille","lat":43.211991,"lon":5.350772,"is_reserved":false,"is_disabled":false,"rental_uris":{"android":"levelo://app?vid=17de6571-3c1c-4621-995b-d445cb9c6f14","ios":"levelo://app?vid=17de6571-3c1c-4621-995b-d445cb9c6f14"},"vehicle_type_id":"4","last_reported":1744892378,"current_range_meters":24400,"station_id":"st_cvj6sg6p6f1abm77japg","pricing_plan_id":"cebpf4jnsgd1na2vs0mg"},{"bike_id":"bee30ca5-9897-4679-86bc-5dd6ad5300b6","system_id":"levelo_inurba_marseille","lat":43.30952,"lon":5.40167,"is_reserved":false,"is_disabled":true,"rental_uris":{"android":"levelo://app?vid=bee30ca5-9897-4679-86bc-5dd6ad5300b6","ios":"levelo://app?vid=bee30ca5-9897-4679-86bc-5dd6ad5300b6"},"vehicle_type_id":"4","last_reported":1744892378,"current_range_meters":24400,"station_id":"ce4bgvp2rcd13ifvqct0","pricing_plan_id":"cebpf4jnsgd1na2vs0mg"},{"bike_id":"3c37d3ec-c1f3-47c3-9356-b25b0d14152b","system_id":"levelo_inurba_marseille","lat":43.28613,"lon":5.37059,"is_reserved":false,"is_disabled":false,"rental_uris":{"android":"levelo://app?vid=3c37d3ec-c1f3-47c3-9356-b25b0d14152b","ios":"levelo://app?vid=3c37d3ec-c1f3-47c3-9356-b25b0d14152b"},"vehicle_type_id":"4","last_reported":1744892378,"current_range_meters":24400,"station_id":"ce4bht12rcd13ifvqi60","pricing_plan_id":"cebpf4jnsgd1na2vs0mg"},{"bike_id":"7a597853-937c-4204-b8b9-87d3c6b4e8ef","system_id":"levelo_inurba_marseille","lat":43.24169,"lon":5.36431,"is_reserved":false,"is_disabled":false,"rental_uris":{"android":"levelo://app?vid=7a597853-937c-4204-b8b9-87d3c6b4e8ef","ios":"levelo://app?vid=7a597853-937c-4204-b8b9-87d3c6b4e8ef"},"vehicle_type_id":"4","last_reported":1744892378,"current_range_meters":24400,"station_id":"cpo36qri1sfpv3e86is0","pricing_plan_id":"cebpf4jnsgd1na2vs0mg"},{"bike_id":"33203d26-945b-4a55-92a5-97548cc35c7f","system_id":"levelo_inurba_marseille","lat":43.301492,"lon":5.380816,"is_reserved":false,"is_disabled":false,"rental_uris":{"android":"levelo://app?vid=33203d26-945b-4a55-92a5-97548cc35c7f","ios":"levelo://app?vid=33203d26-945b-4a55-92a5-97548cc35c7f"},"vehicle_type_id":"4","last_reported":1744892378,"current_range_meters":24400,"station_id":"ce4bgjp2rcd13ifvqbh0","pricing_plan_id":"cebpf4jnsgd1na2vs0mg"},{"bike_id":"72c46274-2626-4063-811d-18541797c204","system_id":"levelo_inurba_marseille","lat":43.27834,"lon":5.3921,"is_reserved":false,"is_disabled":false,"rental_uris":{"android":"levelo://app?vid=72c46274-2626-4063-811d-18541797c204","ios":"levelo://app?vid=72c46274-2626-4063-811d-18541797c204"},"vehicle_type_id":"4","last_reported":1744892378,"current_range_meters":24400,"station_id":"ce4bhjp2rcd13ifvqga0","pricing_plan_id":"cebpf4jnsgd1na2vs0mg"},{"bike_id":"cc57b88c-ecb4-4caf-96f3-2be5e8ab0e99","system_id":"levelo_inurba_marseille","lat":43.30545,"lon":5.36531,"is_reserved":false,"is_disabled":false,"rental_uris":{"android":"levelo://app?vid=cc57b88c-ecb4-4caf-96f3-2be5e8ab0e99","ios":"levelo://app?vid=cc57b88c-ecb4-4caf-96f3-2be5e8ab0e99"},"vehicle_type_id":"4","last_reported":1744892378,"current_range_meters":24400,"station_id":"ce4bgs12rcd13ifvqcag","pricing_plan_id":"cebpf4jnsgd1na2vs0mg"},{"bike_id":"a3cb3541-e34e-4e91-96bd-3d2be11ba3ea","system_id":"levelo_inurba_marseille","lat":43.30469,"lon":5.37896,"is_reserved":false,"is_disabled":false,"rental_uris":{"android":"levelo://app?vid=a3cb3541-e34e-4e91-96bd-3d2be11ba3ea","ios":"levelo://app?vid=a3cb3541-e34e-4e91-96bd-3d2be11ba3ea"},"vehicle_type_id":"4","last_reported":1744892378,"current_range_meters":24400,"station_id":"ce4bgup2rcd13ifvqcn0","pricing_plan_id":"cebpf4jnsgd1na2vs0mg"},