{"last_updated":1683954379,"ttl":30,"version":"2.2","data":{"bikes":[{"bike_id":"7cc72136-2914-4258-88d1-7b67816020a7","system_id":"levelo_inurba_marseille","lat":43.313391,"lon":5.36706,"is_reserved":false,"is_disabled":false,"rental_uris":{"android":"levelo://app?vid=7cc72136-2914-4258-88d1-7b67816020a7","ios":"levelo://app?vid=7cc72136-2914-4258-88d1-7b67816020a7"},"vehicle_type_id":"4","last_reported":1683954380,"current_range_meters":30800,"station_id":"ce4bgr92rcd13ifvqc6g","pricing_plan_id":"free"},{"bike_id":"587d7e94-da37-4de2-80e1-426004de5738","system_id":"levelo_inurba_marseille","lat":43.313391,"lon":5.36706,"is_reserved":false,"is_disabled":false,"rental_uris":{"android":"levelo://app?vid=587d7e94-da37-4de2-80e1-426004de5738","ios":"levelo://app?vid=587d7e94-da37-4de2-80e1-426004de5738"},"vehicle_type_id":"4","last_reported":1683954380,"current_range_meters":31600,"station_id":"ce4bgr92rcd13ifvqc6g","pricing_plan_id":"free"},{"bike_id":"6b7c3507-e295-43af-a5ca-a2173ed82b2f","system_id":"levelo_inurba_marseille","lat":43.312239,"lon":5.368562,"is_reserved":false,"is_disabled":false,"rental_uris":{"android":"levelo://app?vid=6b7c3507-e295-43af-a5ca-a2173ed82b2f","ios":"levelo://app?vid=6b7c3507-e295-43af-a5ca-a2173ed82b2f"},"vehicle_type_id":"4","last_reported":1683954380,"current_range_meters":27200,"station_id":"ce4bgl92rcd13ifvqbq0","pricing_plan_id":"free"},{"bike_id":"74b03030-f764-44f2-a651-9c6e9c253c21","system_id":"levelo_inurba_marseille","lat":43.312239,"lon":5.368562,"is_reserved":false,"is_disabled":false,"rental_uris":{"android":"levelo://app?vid=74b03030-f764-44f2-a651-9c6e9c253c21","ios":"levelo://app?vid=74b03030-f764-44f2-a651-9c6e9c253c21"},"vehicle_type_id":"4","last_reported":1683954380,"current_range_meters":28800,"station_id":"ce4bgl92rcd13ifvqbq0","pricing_plan_id":"free"},{"bike_id":"5eee351a-9d6c-405e-a08f-a75d9552dc94","system_id":"levelo_inurba_marseille","lat":43.312239,"lon":5.368562,"is_reserved":false,"is_disabled":false,"rental_uris":{"android":"levelo://app?vid=5eee351a-9d6c-405e-a08f-a75d9552dc94","ios":"levelo://app?vid=5eee351a-9d6c-405e-a08f-a75d9552dc94"},"vehicle_type_id":"4","last_reported":1683954380,"current_range_meters":26000,"station_id":"ce4bgl92rcd13ifvqbq0","pricing_plan_id":"free"},{"bike_id":"7dec533e-2e53-48cf-b763-0250f0d304ba","system_id":"levelo_inurba_marseille","lat":43.312239,"lon":5.368562,"is_reserved":false,"is_disabled":false,"rental_uris":{"android":"levelo://app?vid=7dec533e-2e53-48cf-b763-0250f0d304ba","ios":"levelo://app?vid=7dec533e-2e53-48cf-b763-0250f0d304ba"},"vehicle_type_id":"4","last_reported":1683954380,"current_range_meters":13600,"station_id":"ce4bgl92rcd13ifvqbq0","pricing_plan_id":"free"},{"bike_id":"caf62a47-260f-4ea6-957c-2cd2b8faadb8","system_id":"levelo_inurba_marseille","lat":43.312239,"lon":5.368562,"is_reserved":false,"is_disabled":false,"rental_uris":{"android":"levelo://app?vid=caf62a47-260f-4ea6-957c-2cd2b8faadb8","ios":"levelo://app?vid=caf62a47-260f-4ea6-957c-2cd2b8faadb8"},"vehicle_type_id":"4","last_reported":1683954380,"current_range_meters":31600,"station_id":"ce4bgl92rcd13ifvqbq0","pricing_plan_id":"free"},{"bike_id":"e4753374-7940-431a-84bc-e36fc2322c0b","system_id":"levelo_inurba_marseille","lat":43.312239,"lon":5.368562,"is_reserved":false,"is_disabled":false,"rental_uris":{"android":"levelo://app?vid=e4753374-7940-431a-84bc-e36fc2322c0b","ios":"levelo://app?vid=e4753374-7940-431a-84bc-e36fc2322c0b"},"vehicle_type_id":"4","last_reported":1683954380,"current_range_meters":30000,"station_id":"ce4bgl92rcd13ifvqbq0","pricing_plan_id":"free"},{"bike_id":"0cc04db6-179b-4286-9ee3-8e56a1b0e69f","system_id":"levelo_inurba_marseille","lat":43.309076,"lon":5.368465,"is_reserved":false,"is_disabled":false,"rental_uris":{"android":"levelo://app?vid=0cc04db6-179b-4286-9ee3-8e56a1b0e69f","ios":"levelo://app?vid=0cc04db6-179b-4286-9ee3-8e56a1b0e69f"},"vehicle_type_id":"4","last_reported":1683954380,"current_range_meters":20400,"station_id":"ce4bgn92rcd13ifvqbvg","pricing_plan_id":"free"},{"bike_id":"bb32fc1d-f279-4cbc-89e7-1481eca91c2c","system_id":"levelo_inurba_marseille","lat":43.314811,"lon":5.373103,"is_reserved":false,"is_disabled":false,"rental_uris":{"android":"levelo://app?vid=bb32fc1d-f279-4cbc-89e7-1481eca91c2c","ios":"levelo://app?vid=bb32fc1d-f279-4cbc-89e7-1481eca91c2c"},"vehicle_type_id":"4","last_reported":1683954380,"current_range_meters":31600,"station_id":"ce4bgt12rcd13ifvqcd0","pricing_plan_id":"free"},{"bike_id":"23a5928b-efc8-4079-96db-b2cf36516d93","system_id":"levelo_inurba_marseille","lat":43.314811,"lon":5.373103,"is_reserved":false,"is_disabled":false,"rental_uris":{"android":"levelo://app?vid=23a5928b-efc8-4079-96db-b2cf36516d93","ios":"levelo://app?vid=23a5928b-efc8-4079-96db-b2cf36516d93"},"vehicle_type_id":"4","last_reported":1683954380,"current_range_meters":31600,"station_id":"ce4bgt12rcd13ifvqcd0","pricing_plan_id":"free"},{"bike_id":"0462be3e-ca15-40d5-8925-0b4e7367a8a0","system_id":"levelo_inurba_marseille","lat":43.314811,"lon":5.373103,"is_reserved":false,"is_disabled":false,"rental_uris":{"android":"levelo://app?vid=0462be3e-ca15-40d5-8925-0b4e7367a8a0","ios":"levelo://app?vid=0462be3e-ca15-40d5-8925-0b4e7367a8a0"},"vehicle_type_id":"4","last_reported":1683954380,"current_range_meters":22800,"station_id":"ce4bgt12rcd13ifvqcd0","pricing_plan_id":"free"},{"bike_id":"8ca62d06-aaef-4fe4-8a79-f8e1c3e6e068","system_id":"levelo_inurba_marseille","lat":43.314811,"lon":5.373104,"is_reserved":false,"is_disabled":false,"rental_uris":{"android":"levelo://app?vid=8ca62d06-aaef-4fe4-8a79-f8e1c3e6e068","ios":"levelo://app?vid=8ca62d06-aaef-4fe4-8a79-f8e1c3e6e068"},"vehicle_type_id":"4","last_reported":1683954380,"current_range_meters":31200,"station_id":"ce4bgt12rcd13ifvqcd0","pricing_plan_id":"free"},{"bike_id":"8048eea1-a21f-447e-ac45-82c78ea043e7","system_id":"levelo_inurba_marseille","lat":43.308614,"lon":5.372098,"is_reserved":false,"is_disabled":false,"rental_uris":{"android":"levelo://app?vid=8048eea1-a21f-447e-ac45-82c78ea043e7","ios":"levelo://app?vid=8048eea1-a21f-447e-ac45-82c78ea043e7"},"vehicle_type_id":"4","last_reported":1683954380,"current_range_meters":21600,"station_id":"ce4bguh2rcd13ifvqckg","pricing_plan_id":"free"},{"bike_id":"c62c9ca2-ae81-49ed-80b7-19de36aedda8","system_id":"levelo_inurba_marseille","lat":43.308614,"lon":5.372098,"is_reserved":false,"is_disabled":false,"rental_uris":{"android":"levelo://app?vid=c62c9ca2-ae81-49ed-80b7-19de36aedda8","ios":"levelo://app?vid=c62c9ca2-ae81-49ed-80b7-19de36aedda8"},"vehicle_type_id":"4","last_reported":1683954380,"current_range_meters":1200,"station_id":"ce4bguh2rcd13ifvqckg","pricing_plan_id":"free"},{"bike_id":"9fba2d74-e12d-467e-bb49-3618cc52e11c","system_id":"levelo_inurba_marseille","lat":43.308614,"lon":5.372098,"is_reserved":false,"is_disabled":false,"rental_uris":{"android":"levelo://app?vid=9fba2d74-e12d-467e-bb49-3618cc52e11c","ios":"levelo://app?vid=9fba2d74-e12d-467e-bb49-3618cc52e11c"},"vehicle_type_id":"4","last_reported":1683954380,"current_range_meters":7200,"station_id":"ce4bguh2rcd13ifvqckg","pricing_plan_id":"free"},{"bike_id":"511d2a5e-2a61-4bbc-88f9-c1a7797768bf","system_id":"levelo_inurba_marseille","lat":43.3088,"lon":5.37197,"is_reserved":false,"is_disabled":false,"rental_uris":{"android":"levelo://app?vid=511d2a5e-2a61-4bbc-88f9-c1a7797768bf","ios":"levelo://app?vid=511d2a5e-2a61-4bbc-88f9-c1a7797768bf"},"vehicle_type_id":"4","last_reported":1683954380,"current_range_meters":31200,"station_id":"ce4bguh2rcd13ifvqckg","pricing_plan_id":"free"},{"bike_id":"e719c882-3281-4031-85fe-6e5791a0dc68","system_id":"levelo_inurba_marseille","lat":43.30882,"lon":5.37202,"is_reserved":false,"is_disabled":false,"rental_uris":{"android":"levelo://app?vid=e719c882-3281-4031-85fe-6e5791a0dc68","ios":"levelo://app?vid=e719c882-3281-4031-85fe-6e5791a0dc68"},"vehicle_type_id":"4","last_reported":1683954380,"current_range_meters":0,"station_id":"ce4bguh2rcd13ifvqckg","pricing_plan_id":"free"},{"bike_id":"76e7d113-76c7-4a5a-be94-760e4daa1f61","system_id":"levelo_inurba_marseille","lat":43.308614,"lon":5.372098,"is_reserved":false,"is_disabled":false,"rental_uris":{"android":"levelo://app?vid=76e7d113-76c7-4a5a-be94-760e4daa1f61","ios":"levelo://app?vid=76e7d113-76c7-4a5a-be94-760e4daa1f61"},"vehicle_type_id":"4","last_reported":1683954380,"current_range_meters":26400,"station_id":"ce4bguh2rcd13ifvqckg","pricing_plan_id":"free"},{"bike_id":"712d80da-4d8c-4f0b-845a-1ba448167734","system_id":"levelo_inurba_marseille","lat":43.308614,"lon":5.372098,"is_reserved":false,"is_disabled":false,"rental_uris":{"android":"levelo://app?vid=712d80da-4d8c-4f0b-845a-1ba448167734","ios":"levelo://app?vid=712d80da-4d8c-4f0b-845a-1ba448167734"},"vehicle_type_id":"4","last_reported":1683954380,"current_range_meters":17600,"station_id":"ce4bguh2rcd13ifvqckg","pricing_plan_id":"free"},{"bike_id":"5759ed38-a7c3-4776-ad5b-cfeaa09b7df1","system_id":"levelo_inurba_marseille","lat":43.305989,"lon":5.37225,"is_reserved":false,"is_disabled":false,"rental_uris":{"android":"levelo://app?vid=5759ed38-a7c3-4776-ad5b-cfeaa09b7df1","ios":"levelo://app?vid=5759ed38-a7c3-4776-ad5b-cfeaa09b7df1"},"vehicle_type_id":"4","last_reported":1683954380,"current_range_meters":31600,"station_id":"ce4bgqh2rcd13ifvqc4g","pricing_plan_id":"free"},{"bike_id":"f0efbac9-c44e-43a0-b949-c5984588d242","system_id":"levelo_inurba_marseille","lat":43.305989,"lon":5.37225,"is_reserved":false,"is_disabled":false,"rental_uris":{"android":"levelo://app?vid=f0efbac9-c44e-43a0-b949-c5984588d242","ios":"levelo://app?vid=f0efbac9-c44e-43a0-b949-c5984588d242"},"vehicle_type_id":"4","last_reported":1683954380,"current_range_meters":25600,"station_id":"ce4bgqh2rcd13ifvqc4g","pricing_plan_id":"free"},{"bike_id":"151d50bc-3aee-48d5-9527-783274464e00","system_id":"levelo_inurba_marseille","lat":43.31176,"lon":5.37759,"is_reserved":false,"is_disabled":false,"rental_uris":{"android":"levelo://app?vid=151d50bc-3aee-48d5-9527-783274464e00","ios":"levelo://app?vid=151d50bc-3aee-48d5-9527-783274464e00"},"vehicle_type_id":"4","last_reported":1683954380,"current_range_meters":14400,"station_id":"","pricing_plan_id":"free"},{"bike_id":"f8ee7ff3-b0d2-4a78-a900-68376d65fea8","system_id":"levelo_inurba_marseille","lat":43.305989,"lon":5.37225,"is_reserved":false,"is_disabled":false,"rental_uris":{"android":"levelo://app?vid=f8ee7ff3-b0d2-4a78-a900-68376d65fea8","ios":"levelo://app?vid=f8ee7ff3-b0d2-4a78-a900-68376d65fea8"},"vehicle_type_id":"4","last_reported":1683954380,"current_range_meters":23600,"station_id":"ce4bgqh2rcd13ifvqc4g","pricing_plan_id":"free"},{"bike_id":"dcb777f5-c93d-46e6-8967-aef776ce9b3b","system_id":"levelo_inurba_marseille","lat":43.31112,"lon":5.37774,"is_reserved":false,"is_disabled":false,"rental_uris":{"android":"levelo://app?vid=dcb777f5-c93d-46e6-8967-aef776ce9b3b","ios":"levelo://app?vid=dcb777f5-c93d-46e6-8967-aef776ce9b3b"},"vehicle_type_id":"4","last_reported":1683954380,"current_range_meters":7200,"station_id":"ce4bgt92rcd13ifvqcg0","pricing_plan_id":"free"},{"bike_id":"30751950-d1dd-48b7-a194-28aeee355b9e","system_id":"levelo_inurba_marseille","lat":43.31112,"lon":5.3778,"is_reserved":false,"is_disabled":false,"rental_uris":{"android":"levelo://app?vid=30751950-d1dd-48b7-a194-28aeee355b9e","ios":"levelo://app?vid=30751950-d1dd-48b7-a194-28aeee355b9e"},"vehicle_type_id":"4","last_reported":1683954380,"current_range_meters":31200,"station_id":"ce4bgt92rcd13ifvqcg0","pricing_plan_id":"free"},{"bike_id":"1d14e080-079e-4fdc-8713-b66b9757bcdf","system_id":"levelo_inurba_marseille","lat":43.317075,"lon":5.377367,"is_reserved":false,"is_disabled":false,"rental_uris":{"android":"levelo://app?vid=1d14e080-079e-4fdc-8713-b66b9757bcdf","ios":"levelo://app?vid=1d14e080-079e-4fdc-8713-b66b9757bcdf"},"vehicle_type_id":"4","last_reported":1683954380,"current_range_meters":30400,"station_id":"ce4bgth2rcd13ifvqch0","pricing_plan_id":"free"},{"bike_id":"09b7fd57-61d9-419a-a4e8-674a7a827b6a","system_id":"levelo_inurba_marseille","lat":43.303046,"lon":5.368981,"is_reserved":false,"is_disabled":false,"rental_uris":{"android":"levelo://app?vid=09b7fd57-61d9-419a-a4e8-674a7a827b6a","ios":"levelo://app?vid=09b7fd57-61d9-419a-a4e8-674a7a827b6a"},"vehicle_type_id":"4","last_reported":1683954380,"current_range_meters":1200,"station_id":"ce4bgqh2rcd13ifvqc5g","pricing_plan_id":"free"},{"bike_id":"1fe5678a-8233-41af-b4ad-981b9c577067","system_id":"levelo_inurba_marseille","lat":43.315289,"lon":5.380349,"is_reserved":false,"is_disabled":false,"rental_uris":{"android":"levelo://app?vid=1fe5678a-8233-41af-b4ad-981b9c577067","ios":"levelo://app?vid=1fe5678a-8233-41af-b4ad-981b9c577067"},"vehicle_type_id":"4","last_reported":1683954380,"current_range_meters":29200,"station_id":"ce4bhsp2rcd13ifvqi50","pricing_plan_id":"free"},{"bike_id":"d1f7da52-f8f0-4ddf-abb3-24dd9a46784d","system_id":"levelo_inurba_marseille","lat":43.315289,"lon":5.380349,"is_reserved":false,"is_disabled":false,"rental_uris":{"android":"levelo://app?vid=d1f7da52-f8f0-4ddf-abb3-24dd9a46784d","ios":"levelo://app?vid=d1f7da52-f8f0-4ddf-abb3-24dd9a46784d"},"vehicle_type_id":"4","last_reported":1683954380,"current_range_meters":30800,"station_id":"ce4bhsp2rcd13ifvqi50","pricing_plan_id":"free"},{"bike_id":"7cd36b5b-615d-4ca8-b40b-53db2d40326b","system_id":"levelo_inurba_marseille","lat":43.315293,"lon":5.380349,"is_reserved":false,"is_disabled":false,"rental_uris":{"android":"levelo://app?vid=7cd36b5b-615d-4ca8-b40b-53db2d40326b","ios":"levelo://app?vid=7cd36b5b-615d-4ca8-b40b-53db2d40326b"},"vehicle_type_id":"4","last_reported":1683954380,"current_range_meters":28000,"station_id":"ce4bhsp2rcd13ifvqi50","pricing_plan_id":"free"},{"bike_id":"0b6a217f-8dd3-4ba7-90db-3a9931b2e4d0","system_id":"levelo_inurba_marseille","lat":43.308012,"lon":5.381511,"is_reserved":false,"is_disabled":false,"rental_uris":{"android":"levelo://app?vid=0b6a217f-8dd3-4ba7-90db-3a9931b2e4d0","ios":"levelo://app?vid=0b6a217f-8dd3-4ba7-90db-3a9931b2e4d0"},"vehicle_type_id":"4","last_reported":1683954380,"current_range_meters":16000,"station_id":"ce4bgt12rcd13ifvqce0","pricing_plan_id":"free"},{"bike_id":"6a2180d3-9128-4bd0-b50c-2d0f0d1e6098","system_id":"levelo_inurba_marseille","lat":43.30623,"lon":5.38014,"is_reserved":false,"is_disabled":false,"rental_uris":{"android":"levelo://app?vid=6a2180d3-9128-4bd0-b50c-2d0f0d1e6098","ios":"levelo://app?vid=6a2180d3-9128-4bd0-b50c-2d0f0d1e6098"},"vehicle_type_id":"4","last_reported":1683954380,"current_range_meters":14000,"station_id":"","pricing_plan_id":"free"},{"bike_id":"21e46545-d0bf-449c-99a8-0262d6d1aaa9","system_id":"levelo_inurba_marseille","lat":43.308012,"lon":5.381511,"is_reserved":false,"is_disabled":false,"rental_uris":{"android":"levelo://app?vid=21e46545-d0bf-449c-99a8-0262d6d1aaa9","ios":"levelo://app?vid=21e46545-d0bf-449c-99a8-0262d6d1aaa9"},"vehicle_type_id":"4","last_reported":1683954380,"current_range_meters":3200,"station_id":"ce4bgt12rcd13ifvqce0","pricing_plan_id":"free"},{"bike_id":"f38d260f-9ad6-40c7-9832-c1dadebe180c","system_id":"levelo_inurba_marseille","lat":43.308012,"lon":5.381511,"is_reserved":false,"is_disabled":false,"rental_uris":{"android":"levelo://app?vid=f38d260f-9ad6-40c7-9832-c1dadebe180c","ios":"levelo://app?vid=f38d260f-9ad6-40c7-9832-c1dadebe180c"},"vehicle_type_id":"4","last_reported":1683954380,"current_range_meters":0,"station_id":"ce4bgt12rcd13ifvqce0","pricing_plan_id":"free"},{"bike_id":"4d07815b-babd-4a31-840a-7d3d7821ae9a","system_id":"levelo_inurba_marseille","lat":43.308012,"lon":5.381511,"is_reserved":false,"is_disabled":false,"rental_uris":{"android":"levelo://app?vid=4d07815b-babd-4a31-840a-7d3d7821ae9a","ios":"levelo://app?vid=4d07815b-babd-4a31-840a-7d3d7821ae9a"},"vehicle_type_id":"4","last_reported":1683954380,"current_range_meters":31200,"station_id":"ce4bgt12rcd13ifvqce0","pricing_plan_id":"free"},{"bike_id":"d99457f2-5198-41f9-9c5d-9c6b84e590b6","system_id":"levelo_inurba_marseille","lat":43.308012,"lon":5.381511,"is_reserved":false,"is_disabled":false,"rental_uris":{"android":"levelo://app?vid=d99457f2-5198-41f9-9c5d-9c6b84e590b6","ios":"levelo://app?vid=d99457f2-5198-41f9-9c5d-9c6b84e590b6"},"vehicle_type_id":"4","last_reported":1683954380,"current_range_meters":5600,"station_id":"ce4bgt12rcd13ifvqce0","pricing_plan_id":"free"},{"bike_id":"997dc477-794d-4a5a-b09f-12d545877bc9","system_id":"levelo_inurba_marseille","lat":43.308012,"lon":5.381511,"is_reserved":false,"is_disabled":false,"rental_uris":{"android":"levelo://app?vid=997dc477-794d-4a5a-b09f-12d545877bc9","ios":"levelo://app?vid=997dc477-794d-4a5a-b09f-12d545877bc9"},"vehicle_type_id":"4","last_reported":1683954380,"current_range_meters":20400,"station_id":"ce4bgt12rcd13ifvqce0","pricing_plan_id":"free"},{"bike_id":"7e261393-262d-49cc-8cb2-f0fe6733e131","system_id":"levelo_inurba_marseille","lat":43.308012,"lon":5.381511,"is_reserved":false,"is_disabled":false,"rental_uris":{"android":"levelo://app?vid=7e261393-262d-49cc-8cb2-f0fe6733e131","ios":"levelo://app?vid=7e261393-262d-49cc-8cb2-f0fe6733e131"},"vehicle_type_id":"4","last_reported":1683954380,"current_range_meters":16400,"station_id":"ce4bgt12rcd13ifvqce0","pricing_plan_id":"free"},{"bike_id":"f372d349-3e90-45f5-a171-8686a9db365e","system_id":"levelo_inurba_marseille","lat":43.308012,"lon":5.381511,"is_reserved":false,"is_disabled":false,"rental_uris":{"android":"levelo://app?vid=f372d349-3e90-45f5-a171-8686a9db365e","ios":"levelo://app?vid=f372d349-3e90-45f5-a171-8686a9db365e"},"vehicle_type_id":"4","last_reported":1683954380,"current_range_meters":18000,"station_id":"ce4bgt12rcd13ifvqce0","pricing_plan_id":"free"},{"bike_id":"040dfb08-a573-4fdf-9f80-22ea830b5ebe","system_id":"levelo_inurba_marseille","lat":43.3046,"lon":5.37904,"is_reserved":false,"is_disabled":false,"rental_uris":{"android":"levelo://app?vid=040dfb08-a573-4fdf-9f80-22ea830b5ebe","ios":"levelo://app?vid=040dfb08-a573-4fdf-9f80-22ea830b5ebe"},"vehicle_type_id":"4","last_reported":1683954380,"current_range_meters":28800,"station_id":"ce4bgup2rcd13ifvqcn0","pricing_plan_id":"free"},{"bike_id":"5f5e7486-2140-4e8d-9afa-f0c197b97c26","system_id":"levelo_inurba_marseille","lat":43.304606,"lon":5.379026,"is_reserved":false,"is_disabled":false,"rental_uris":{"android":"levelo://app?vid=5f5e7486-2140-4e8d-9afa-f0c197b97c26","ios":"levelo://app?vid=5f5e7486-2140-4e8d-9afa-f0c197b97c26"},"vehicle_type_id":"4","last_reported":1683954380,"current_range_meters":16800,"station_id":"ce4bgup2rcd13ifvqcn0","pricing_plan_id":"free"},{"bike_id":"c980a709-f30e-41b2-b392-a60cca74bc8c","system_id":"levelo_inurba_marseille","lat":43.304606,"lon":5.379026,"is_reserved":false,"is_disabled":false,"rental_uris":{"android":"levelo://app?vid=c980a709-f30e-41b2-b392-a60cca74bc8c","ios":"levelo://app?vid=c980a709-f30e-41b2-b392-a60cca74bc8c"},"vehicle_type_id":"4","last_reported":1683954380,"current_range_meters":24800,"station_id":"ce4bgup2rcd13ifvqcn0","pricing_plan_id":"free"},{"bike_id":"8b47ea53-5d97-44ee-9714-7e51bb264dac","system_id":"levelo_inurba_marseille","lat":43.304606,"lon":5.379026,"is_reserved":false,"is_disabled":false,"rental_uris":{"android":"levelo://app?vid=8b47ea53-5d97-44ee-9714-7e51bb264dac","ios":"levelo://app?vid=8b47ea53-5d97-44ee-9714-7e51bb264dac"},"vehicle_type_id":"4","last_reported":1683954380,"current_range_meters":26800,"station_id":"ce4bgup2rcd13ifvqcn0","pricing_plan_id":"free"},{"bike_id":"003d582e-7e5f-4a87-a622-32e3086b14b0","system_id":"levelo_inurba_marseille","lat":43.304606,"lon":5.379026,"is_reserved":false,"is_disabled":false,"rental_uris":{"android":"levelo://app?vid=003d582e-7e5f-4a87-a622-32e3086b14b0","ios":"levelo://app?vid=003d582e-7e5f-4a87-a622-32e3086b14b0"},"vehicle_type_id":"4","last_reported":1683954380,"current_range_meters":30400,"station_id":"ce4bgup2rcd13ifvqcn0","pricing_plan_id":"free"},{"bike_id":"9facac3a-0df4-47bb-a534-11f740a9545a","system_id":"levelo_inurba_marseille","lat":43.304606,"lon":5.379026,"is_reserved":false,"is_disabled":false,"rental_uris":{"android":"levelo://app?vid=9facac3a-0df4-47bb-a534-11f740a9545a","ios":"levelo://app?vid=9facac3a-0df4-47bb-a534-11f740a9545a"},"vehicle_type_id":"4","last_reported":1683954380,"current_range_meters":30000,"station_id":"ce4bgup2rcd13ifvqcn0","pricing_plan_id":"free"},{"bike_id":"855d1619-04b0-40fe-84c8-ba142ccc5162","system_id":"levelo_inurba_marseille","lat":43.304606,"lon":5.379026,"is_reserved":false,"is_disabled":false,"rental_uris":{"android":"levelo://app?vid=855d1619-04b0-40fe-84c8-ba142ccc5162","ios":"levelo://app?vid=855d1619-04b0-40fe-84c8-ba142ccc5162"},"vehicle_type_id":"4","last_reported":1683954380,"current_range_meters":3200,"station_id":"ce4bgup2rcd13ifvqcn0","pricing_plan_id":"free"},{"bike_id":"f1d07013-60d0-4f4c-a09b-d83bac791477","system_id":"levelo_inurba_marseille","lat":43.30139,"lon":5.37416,"is_reserved":false,"is_disabled":false,"rental_uris":{"android":"levelo://app?vid=f1d07013-60d0-4f4c-a09b-d83bac791477","ios":"levelo://app?vid=f1d07013-60d0-4f4c-a09b-d83bac791477"},"vehicle_type_id":"4","last_reported":1683954380,"current_range_meters":8800,"station_id":"ce4bgs92rcd13ifvqcc0","pricing_plan_id":"free"},{"bike_id":"09b041e6-6074-4df7-a048-f6981c376cfd","system_id":"levelo_inurba_marseille","lat":43.31363,"lon":5.38517,"is_reserved":false,"is_disabled":false,"rental_uris":{"android":"levelo://app?vid=09b041e6-6074-4df7-a048-f6981c376cfd","ios":"levelo://app?vid=09b041e6-6074-4df7-a048-f6981c376cfd"},"vehicle_type_id":"4","last_reported":1683954380,"current_range_meters":18800,"station_id":"","pricing_plan_id":"free"},{"bike_id":"33196c34-fb09-431c-b0dd-9fad3b882a47","system_id":"levelo_inurba_marseille","lat":43.299891,"lon":5.374218,"is_reserved":false,"is_disabled":false,"rental_uris":{"android":"levelo://app?vid=33196c34-fb09-431c-b0dd-9fad3b882a47","ios":"levelo://app?vid=33196c34-fb09-431c-b0dd-9fad3b882a47"},"vehicle_type_id":"4","last_reported":1683954380,"current_range_meters":31600,"station_id":"","pricing_plan_id":"free"},{"bike_id":"da0edc7c-10af-49f5-bdf5-39fb44daf18d","system_id":"levelo_inurba_marseille","lat":43.305364,"lon":5.384119,"is_reserved":false,"is_disabled":false,"rental_uris":{"android":"levelo://app?vid=da0edc7c-10af-49f5-bdf5-39fb44daf18d","ios":"levelo://app?vid=da0edc7c-10af-49f5-bdf5-39fb44daf18d"},"vehicle_type_id":"4","last_reported":1683954380,"current_range_meters":18000,"station_id":"ce4bgg92rcd13ifvqb30","pricing_plan_id":"free"},{"bike_id":"9a64bc52-f3e6-4ae3-a19b-23a40b6b88fa","system_id":"levelo_inurba_marseille","lat":43.298433,"lon":5.362774,"is_reserved":false,"is_disabled":false,"rental_uris":{"android":"levelo://app?vid=9a64bc52-f3e6-4ae3-a19b-23a40b6b88fa","ios":"levelo://app?vid=9a64bc52-f3e6-4ae3-a19b-23a40b6b88fa"},"vehicle_type_id":"4","last_reported":1683954380,"current_range_meters":32000,"station_id":"ce4bgpp2rcd13ifvqc3g","pricing_plan_id":"free"},{"bike_id":"c2ce925b-a150-4ed6-adc8-297cb3ac82a2","system_id":"levelo_inurba_marseille","lat":43.298433,"lon":5.362774,"is_reserved":false,"is_disabled":false,"rental_uris":{"android":"levelo://app?vid=c2ce925b-a150-4ed6-adc8-297cb3ac82a2","ios":"levelo://app?vid=c2ce925b-a150-4ed6-adc8-297cb3ac82a2"},"vehicle_type_id":"4","last_reported":1683954380,"current_range_meters":6400,"station_id":"ce4bgpp2rcd13ifvqc3g","pricing_plan_id":"free"},{"bike_id":"391f8dd7-0f3a-4146-8736-d720741cd62b","system_id":"levelo_inurba_marseille","lat":43.305364,"lon":5.384119,"is_reserved":false,"is_disabled":false,"rental_uris":{"android":"levelo://app?vid=391f8dd7-0f3a-4146-8736-d720741cd62b","ios":"levelo://app?vid=391f8dd7-0f3a-4146-8736-d720741cd62b"},"vehicle_type_id":"4","last_reported":1683954380,"current_range_meters":21200,"station_id":"ce4bgg92rcd13ifvqb30","pricing_plan_id":"free"},{"bike_id":"ecec7bb5-f8c4-498b-8c3e-4405379a852c","system_id":"levelo_inurba_marseille","lat":43.305364,"lon":5.384119,"is_reserved":false,"is_disabled":false,"rental_uris":{"android":"levelo://app?vid=ecec7bb5-f8c4-498b-8c3e-4405379a852c","ios":"levelo://app?vid=ecec7bb5-f8c4-498b-8c3e-4405379a852c"},"vehicle_type_id":"4","last_reported":1683954380,"current_range_meters":27600,"station_id":"ce4bgg92rcd13ifvqb30","pricing_plan_id":"free"},{"bike_id":"612aec48-3a2c-4b02-b048-4c25d76ac3d1","system_id":"levelo_inurba_marseille","lat":43.305364,"lon":5.384119,"is_reserved":false,"is_disabled":false,"rental_uris":{"android":"levelo://app?vid=612aec48-3a2c-4b02-b048-4c25d76ac3d1","ios":"levelo://app?vid=612aec48-3a2c-4b02-b048-4c25d76ac3d1"},"vehicle_type_id":"4","last_reported":1683954380,"current_range_meters":22400,"station_id":"ce4bgg92rcd13ifvqb30","pricing_plan_id":"free"},{"bike_id":"46ebc0c7-8936-4da6-b3ff-eea8528fadd2","system_id":"levelo_inurba_marseille","lat":43.299243,"lon":5.374807,"is_reserved":false,"is_disabled":false,"rental_uris":{"android":"levelo://app?vid=46ebc0c7-8936-4da6-b3ff-eea8528fadd2","ios":"levelo://app?vid=46ebc0c7-8936-4da6-b3ff-eea8528fadd2"},"vehicle_type_id":"4","last_reported":1683954380,"current_range_meters":11200,"station_id":"ce4bgjh2rcd13ifvqbg0","pricing_plan_id":"free"},{"bike_id":"2f96f4b7-d3f1-4b87-b98f-caf50ba6d13d","system_id":"levelo_inurba_marseille","lat":43.32766,"lon":5.36699,"is_reserved":false,"is_disabled":false,"rental_uris":{"android":"levelo://app?vid=2f96f4b7-d3f1-4b87-b98f-caf50ba6d13d","ios":"levelo://app?vid=2f96f4b7-d3f1-4b87-b98f-caf50ba6d13d"},"vehicle_type_id":"4","last_reported":1683954380,"current_range_meters":13600,"station_id":"","pricing_plan_id":"free"},{"bike_id":"7ed691a6-14f9-40fa-8c8b-aa8a2f0c7ff6","system_id":"levelo_inurba_marseille","lat":43.297774,"lon":5.370875,"is_reserved":false,"is_disabled":false,"rental_uris":{"android":"levelo://app?vid=7ed691a6-14f9-40fa-8c8b-aa8a2f0c7ff6","ios":"levelo://app?vid=7ed691a6-14f9-40fa-8c8b-aa8a2f0c7ff6"},"vehicle_type_id":"4","last_reported":1683954380,"current_range_meters":30400,"station_id":"ce4bgop2rcd13ifvqc1g","pricing_plan_id":"free"},{"bike_id":"7a070e52-967e-4cda-a050-dbf621e582d9","system_id":"levelo_inurba_marseille","lat":43.297774,"lon":5.370875,"is_reserved":false,"is_disabled":false,"rental_uris":{"android":"levelo://app?vid=7a070e52-967e-4cda-a050-dbf621e582d9","ios":"levelo://app?vid=7a070e52-967e-4cda-a050-dbf621e582d9"},"vehicle_type_id":"4","last_reported":1683954380,"current_range_meters":27200,"station_id":"ce4bgop2rcd13ifvqc1g","pricing_plan_id":"free"},{"bike_id":"35c64b45-67cb-4db8-8dde-84eb3cae14a9","system_id":"levelo_inurba_marseille","lat":43.328371,"lon":5.366912,"is_reserved":false,"is_disabled":false,"rental_uris":{"android":"levelo://app?vid=35c64b45-67cb-4db8-8dde-84eb3cae14a9","ios":"levelo://app?vid=35c64b45-67cb-4db8-8dde-84eb3cae14a9"},"vehicle_type_id":"4","last_reported":1683954380,"current_range_meters":30400,"station_id":"ce4bhs92rcd13ifvqi0g","pricing_plan_id":"free"},{"bike_id":"86719306-0ddc-4576-a656-570a4d550f46","system_id":"levelo_inurba_marseille","lat":43.328371,"lon":5.366912,"is_reserved":false,"is_disabled":false,"rental_uris":{"android":"levelo://app?vid=86719306-0ddc-4576-a656-570a4d550f46","ios":"levelo://app?vid=86719306-0ddc-4576-a656-570a4d550f46"},"vehicle_type_id":"4","last_reported":1683954380,"current_range_meters":30400,"station_id":"ce4bhs92rcd13ifvqi0g","pricing_plan_id":"free"},{"bike_id":"2f534b25-3d76-4ad4-bcb9-91101064834c","system_id":"levelo_inurba_marseille","lat":43.328371,"lon":5.366912,"is_reserved":false,"is_disabled":false,"rental_uris":{"android":"levelo://app?vid=2f534b25-3d76-4ad4-bcb9-91101064834c","ios":"levelo://app?vid=2f534b25-3d76-4ad4-bcb9-91101064834c"},"vehicle_type_id":"4","last_reported":1683954380,"current_range_meters":19200,"station_id":"ce4bhs92rcd13ifvqi0g","pricing_plan_id":"free"},{"bike_id":"2ede4aa6-cb68-4708-8adb-810b72dccf8e","system_id":"levelo_inurba_marseille","lat":43.328371,"lon":5.366912,"is_reserved":false,"is_disabled":false,"rental_uris":{"android":"levelo://app?vid=2ede4aa6-cb68-4708-8adb-810b72dccf8e","ios":"levelo://app?vid=2ede4aa6-cb68-4708-8adb-810b72dccf8e"},"vehicle_type_id":"4","last_reported":1683954380,"current_range_meters":6400,"station_id":"ce4bhs92rcd13ifvqi0g","pricing_plan_id":"free"},{"bike_id":"05dd3660-fb8d-4649-b95f-77a48f876534","system_id":"levelo_inurba_marseille","lat":43.32829,"lon":5.3668,"is_reserved":false,"is_disabled":false,"rental_uris":{"android":"levelo://app?vid=05dd3660-fb8d-4649-b95f-77a48f876534","ios":"levelo://app?vid=05dd3660-fb8d-4649-b95f-77a48f876534"},"vehicle_type_id":"4","last_reported":1683954380,"current_range_meters":4000,"station_id":"ce4bhs92rcd13ifvqi0g","pricing_plan_id":"free"},{"bike_id":"0a5c6e50-cd6f-4800-a0e5-993347926bc8","system_id":"levelo_inurba_marseille","lat":43.328371,"lon":5.366912,"is_reserved":false,"is_disabled":false,"rental_uris":{"android":"levelo://app?vid=0a5c6e50-cd6f-4800-a0e5-993347926bc8","ios":"levelo://app?vid=0a5c6e50-cd6f-4800-a0e5-993347926bc8"},"vehicle_type_id":"4","last_reported":1683954380,"current_range_meters":13600,"station_id":"ce4bhs92rcd13ifvqi0g","pricing_plan_id":"free"},{"bike_id":"d2fd4a69-1781-4d10-b230-5796d7806c38","system_id":"levelo_inurba_marseille","lat":43.328371,"lon":5.366912,"is_reserved":false,"is_disabled":false,"rental_uris":{"android":"levelo://app?vid=d2fd4a69-1781-4d10-b230-5796d7806c38","ios":"levelo://app?vid=d2fd4a69-1781-4d10-b230-5796d7806c38"},"vehicle_type_id":"4","last_reported":1683954380,"current_range_meters":3600,"station_id":"ce4bhs92rcd13ifvqi0g","pricing_plan_id":"free"},{"bike_id":"173c35b5-642e-4cd5-9a42-cf3fc117f00c","system_id":"levelo_inurba_marseille","lat":43.328371,"lon":5.366912,"is_reserved":false,"is_disabled":false,"rental_uris":{"android":"levelo://app?vid=173c35b5-642e-4cd5-9a42-cf3fc117f00c","ios":"levelo://app?vid=173c35b5-642e-4cd5-9a42-cf3fc117f00c"},"vehicle_type_id":"4","last_reported":1683954380,"current_range_meters":19600,"station_id":"ce4bhs92rcd13ifvqi0g","pricing_plan_id":"free"},{"bike_id":"053fa0fe-d0b8-4b77-9e9a-95a5b916daf2","system_id":"levelo_inurba_marseille","lat":43.328371,"lon":5.366912,"is_reserved":false,"is_disabled":false,"rental_uris":{"android":"levelo://app?vid=053fa0fe-d0b8-4b77-9e9a-95a5b916daf2","ios":"levelo://app?vid=053fa0fe-d0b8-4b77-9e9a-95a5b916daf2"},"vehicle_type_id":"4","last_reported":1683954380,"current_range_meters":1600,"station_id":"ce4bhs92rcd13ifvqi0g","pricing_plan_id":"free"},{"bike_id":"8ea15e6b-0302-4f6b-a369-2130aebae5f9","system_id":"levelo_inurba_marseille","lat":43.328371,"lon":5.366912,"is_reserved":false,"is_disabled":false,"rental_uris":{"android":"levelo://app?vid=8ea15e6b-0302-4f6b-a369-2130aebae5f9","ios":"levelo://app?vid=8ea15e6b-0302-4f6b-a369-2130aebae5f9"},"vehicle_type_id":"4","last_reported":1683954380,"current_range_meters":14000,"station_id":"ce4bhs92rcd13ifvqi0g","pricing_plan_id":"free"},{"bike_id":"4e8d495f-48a2-4a59-a0a4-e2a0bd5ad11a","system_id":"levelo_inurba_marseille","lat":43.328371,"lon":5.366912,"is_reserved":false,"is_disabled":false,"rental_uris":{"android":"levelo://app?vid=4e8d495f-48a2-4a59-a0a4-e2a0bd5ad11a","ios":"levelo://app?vid=4e8d495f-48a2-4a59-a0a4-e2a0bd5ad11a"},"vehicle_type_id":"4","last_reported":1683954380,"current_range_meters":0,"station_id":"ce4bhs92rcd13ifvqi0g","pricing_plan_id":"free"},{"bike_id":"9bdf1b4a-e839-4cdb-9e4b-1f1e923c6575","system_id":"levelo_inurba_marseille","lat":43.29702,"lon":5.36614,"is_reserved":false,"is_disabled":false,"rental_uris":{"android":"levelo://app?vid=9bdf1b4a-e839-4cdb-9e4b-1f1e923c6575","ios":"levelo://app?vid=9bdf1b4a-e839-4cdb-9e4b-1f1e923c6575"},"vehicle_type_id":"4","last_reported":1683954380,"current_range_meters":18000,"station_id":"","pricing_plan_id":"free"},{"bike_id":"6448c133-4cd4-412c-ab72-14f60d954e8f","system_id":"levelo_inurba_marseille","lat":43.31527,"lon":5.38926,"is_reserved":false,"is_disabled":false,"rental_uris":{"android":"levelo://app?vid=6448c133-4cd4-412c-ab72-14f60d954e8f","ios":"levelo://app?vid=6448c133-4cd4-412c-ab72-14f60d954e8f"},"vehicle_type_id":"4","last_reported":1683954380,"current_range_meters":27600,"station_id":"","pricing_plan_id":"free"},{"bike_id":"1d8dbf18-ecd7-408d-b51f-766d494357a7","system_id":"levelo_inurba_marseille","lat":43.296131,"lon":5.370791,"is_reserved":false,"is_disabled":false,"rental_uris":{"android":"levelo://app?vid=1d8dbf18-ecd7-408d-b51f-766d494357a7","ios":"levelo://app?vid=1d8dbf18-ecd7-408d-b51f-766d494357a7"},"vehicle_type_id":"4","last_reported":1683954380,"current_range_meters":29600,"station_id":"ce4bgnh2rcd13ifvqc0g","pricing_plan_id":"free"},{"bike_id":"0b091b32-3511-4762-b919-e62a707bd66c","system_id":"levelo_inurba_marseille","lat":43.29573,"lon":5.367355,"is_reserved":false,"is_disabled":false,"rental_uris":{"android":"levelo://app?vid=0b091b32-3511-4762-b919-e62a707bd66c","ios":"levelo://app?vid=0b091b32-3511-4762-b919-e62a707bd66c"},"vehicle_type_id":"4","last_reported":1683954380,"current_range_meters":30400,"station_id":"ce4bgph2rcd13ifvqc2g","pricing_plan_id":"free"},{"bike_id":"e3fa34f3-6526-452a-899d-6c9611376f1d","system_id":"levelo_inurba_marseille","lat":43.296935,"lon":5.376544,"is_reserved":false,"is_disabled":false,"rental_uris":{"android":"levelo://app?vid=e3fa34f3-6526-452a-899d-6c9611376f1d","ios":"levelo://app?vid=e3fa34f3-6526-452a-899d-6c9611376f1d"},"vehicle_type_id":"4","last_reported":1683954380,"current_range_meters":24800,"station_id":"ce4bgkh2rcd13ifvqbl0","pricing_plan_id":"free"},{"bike_id":"e62a4019-15e5-4aa8-ac87-39c5d1aaa8ba","system_id":"levelo_inurba_marseille","lat":43.30003,"lon":5.38281,"is_reserved":false,"is_disabled":false,"rental_uris":{"android":"levelo://app?vid=e62a4019-15e5-4aa8-ac87-39c5d1aaa8ba","ios":"levelo://app?vid=e62a4019-15e5-4aa8-ac87-39c5d1aaa8ba"},"vehicle_type_id":"4","last_reported":1683954380,"current_range_meters":1200,"station_id":"","pricing_plan_id":"free"},{"bike_id":"b95b00f8-9be8-4e28-a8ed-b7fe17f2d8fc","system_id":"levelo_inurba_marseille","lat":43.299028,"lon":5.381509,"is_reserved":false,"is_disabled":false,"rental_uris":{"android":"levelo://app?vid=b95b00f8-9be8-4e28-a8ed-b7fe17f2d8fc","ios":"levelo://app?vid=b95b00f8-9be8-4e28-a8ed-b7fe17f2d8fc"},"vehicle_type_id":"4","last_reported":1683954380,"current_range_meters":23200,"station_id":"ce4bgj12rcd13ifvqbc0","pricing_plan_id":"free"},{"bike_id":"b7ca5313-f967-474e-ab7d-3b69f48175c5","system_id":"levelo_inurba_marseille","lat":43.299028,"lon":5.381509,"is_reserved":false,"is_disabled":false,"rental_uris":{"android":"levelo://app?vid=b7ca5313-f967-474e-ab7d-3b69f48175c5","ios":"levelo://app?vid=b7ca5313-f967-474e-ab7d-3b69f48175c5"},"vehicle_type_id":"4","last_reported":1683954380,"current_range_meters":22800,"station_id":"ce4bgj12rcd13ifvqbc0","pricing_plan_id":"free"},{"bike_id":"4575b7ac-e9a8-4cc0-a77a-7d893f503fcb","system_id":"levelo_inurba_marseille","lat":43.29706,"lon":5.377,"is_reserved":false,"is_disabled":false,"rental_uris":{"android":"levelo://app?vid=4575b7ac-e9a8-4cc0-a77a-7d893f503fcb","ios":"levelo://app?vid=4575b7ac-e9a8-4cc0-a77a-7d893f503fcb"},"vehicle_type_id":"4","last_reported":1683954380,"current_range_meters":29600,"station_id":"","pricing_plan_id":"free"},{"bike_id":"79cf5a5e-a640-4bc0-b1ba-8405427bd649","system_id":"levelo_inurba_marseille","lat":43.299028,"lon":5.381509,"is_reserved":false,"is_disabled":false,"rental_uris":{"android":"levelo://app?vid=79cf5a5e-a640-4bc0-b1ba-8405427bd649","ios":"levelo://app?vid=79cf5a5e-a640-4bc0-b1ba-8405427bd649"},"vehicle_type_id":"4","last_reported":1683954380,"current_range_meters":28000,"station_id":"ce4bgj12rcd13ifvqbc0","pricing_plan_id":"free"},{"bike_id":"1b8e8455-d974-44bb-9a4e-7e7867c76231","system_id":"levelo_inurba_marseille","lat":43.31752,"lon":5.39023,"is_reserved":false,"is_disabled":false,"rental_uris":{"android":"levelo://app?vid=1b8e8455-d974-44bb-9a4e-7e7867c76231","ios":"levelo://app?vid=1b8e8455-d974-44bb-9a4e-7e7867c76231"},"vehicle_type_id":"4","last_reported":1683954380,"current_range_meters":18800,"station_id":"ce4bhqp2rcd13ifvqhng","pricing_plan_id":"free"},{"bike_id":"0650e49a-015b-44f1-924c-a1a866ca9995","system_id":"levelo_inurba_marseille","lat":43.3175,"lon":5.39024,"is_reserved":false,"is_disabled":false,"rental_uris":{"android":"levelo://app?vid=0650e49a-015b-44f1-924c-a1a866ca9995","ios":"levelo://app?vid=0650e49a-015b-44f1-924c-a1a866ca9995"},"vehicle_type_id":"4","last_reported":1683954380,"current_range_meters":31200,"station_id":"ce4bhqp2rcd13ifvqhng","pricing_plan_id":"free"},{"bike_id":"7e101d88-7926-4513-a08a-b2a6fdb92c65","system_id":"levelo_inurba_marseille","lat":43.31757,"lon":5.39022,"is_reserved":false,"is_disabled":false,"rental_uris":{"android":"levelo://app?vid=7e101d88-7926-4513-a08a-b2a6fdb92c65","ios":"levelo://app?vid=7e101d88-7926-4513-a08a-b2a6fdb92c65"},"vehicle_type_id":"4","last_reported":1683954380,"current_range_meters":30800,"station_id":"ce4bhqp2rcd13ifvqhng","pricing_plan_id":"free"},{"bike_id":"eb214527-8203-4410-a520-f2f2d1c67bb7","system_id":"levelo_inurba_marseille","lat":43.317557,"lon":5.390173,"is_reserved":false,"is_disabled":false,"rental_uris":{"android":"levelo://app?vid=eb214527-8203-4410-a520-f2f2d1c67bb7","ios":"levelo://app?vid=eb214527-8203-4410-a520-f2f2d1c67bb7"},"vehicle_type_id":"4","last_reported":1683954380,"current_range_meters":13600,"station_id":"ce4bhqp2rcd13ifvqhng","pricing_plan_id":"free"},{"bike_id":"ebb64d41-4b06-49bb-a55c-b83574a6111f","system_id":"levelo_inurba_marseille","lat":43.31752,"lon":5.39025,"is_reserved":false,"is_disabled":false,"rental_uris":{"android":"levelo://app?vid=ebb64d41-4b06-49bb-a55c-b83574a6111f","ios":"levelo://app?vid=ebb64d41-4b06-49bb-a55c-b83574a6111f"},"vehicle_type_id":"4","last_reported":1683954380,"current_range_meters":5600,"station_id":"ce4bhqp2rcd13ifvqhng","pricing_plan_id":"free"},{"bike_id":"80b60f6f-28ee-4635-a30c-377c46bb9c86","system_id":"levelo_inurba_marseille","lat":43.317557,"lon":5.390173,"is_reserved":false,"is_disabled":false,"rental_uris":{"android":"levelo://app?vid=80b60f6f-28ee-4635-a30c-377c46bb9c86","ios":"levelo://app?vid=80b60f6f-28ee-4635-a30c-377c46bb9c86"},"vehicle_type_id":"4","last_reported":1683954380,"current_range_meters":18400,"station_id":"ce4bhqp2rcd13ifvqhng","pricing_plan_id":"free"},{"bike_id":"8d249c4e-5841-43df-a8c1-1ee71a14ff90","system_id":"levelo_inurba_marseille","lat":43.31749,"lon":5.3903,"is_reserved":false,"is_disabled":false,"rental_uris":{"android":"levelo://app?vid=8d249c4e-5841-43df-a8c1-1ee71a14ff90","ios":"levelo://app?vid=8d249c4e-5841-43df-a8c1-1ee71a14ff90"},"vehicle_type_id":"4","last_reported":1683954380,"current_range_meters":30400,"station_id":"ce4bhqp2rcd13ifvqhng","pricing_plan_id":"free"},{"bike_id":"01208a13-824a-4a94-be8d-2a48a5b6b683","system_id":"levelo_inurba_marseille","lat":43.31751,"lon":5.39031,"is_reserved":false,"is_disabled":false,"rental_uris":{"android":"levelo://app?vid=01208a13-824a-4a94-be8d-2a48a5b6b683","ios":"levelo://app?vid=01208a13-824a-4a94-be8d-2a48a5b6b683"},"vehicle_type_id":"4","last_reported":1683954380,"current_range_meters":10400,"station_id":"ce4bhqp2rcd13ifvqhng","pricing_plan_id":"free"},{"bike_id":"91ebddb6-932b-4169-a2bb-bfd47fe89bbd","system_id":"levelo_inurba_marseille","lat":43.31746,"lon":5.39034,"is_reserved":false,"is_disabled":false,"rental_uris":{"android":"levelo://app?vid=91ebddb6-932b-4169-a2bb-bfd47fe89bbd","ios":"levelo://app?vid=91ebddb6-932b-4169-a2bb-bfd47fe89bbd"},"vehicle_type_id":"4","last_reported":1683954380,"current_range_meters":23200,"station_id":"ce4bhqp2rcd13ifvqhng","pricing_plan_id":"free"},{"bike_id":"cc648482-bfc0-4d88-bc5b-3e771f49f350","system_id":"levelo_inurba_marseille","lat":43.298037,"lon":5.381066,"is_reserved":false,"is_disabled":false,"rental_uris":{"android":"levelo://app?vid=cc648482-bfc0-4d88-bc5b-3e771f49f350","ios":"levelo://app?vid=cc648482-bfc0-4d88-bc5b-3e771f49f350"},"vehicle_type_id":"4","last_reported":1683954380,"current_range_meters":31600,"station_id":"ce4bgip2rcd13ifvqbb0","pricing_plan_id":"free"},{"bike_id":"7e0c7a5c-0c07-4d93-bbed-dfc49dd25cc0","system_id":"levelo_inurba_marseille","lat":43.295748,"lon":5.37522,"is_reserved":false,"is_disabled":false,"rental_uris":{"android":"levelo://app?vid=7e0c7a5c-0c07-4d93-bbed-dfc49dd25cc0","ios":"levelo://app?vid=7e0c7a5c-0c07-4d93-bbed-dfc49dd25cc0"},"vehicle_type_id":"4","last_reported":1683954380,"current_range_meters":30400,"station_id":"ce4bgh92rcd13ifvqb50","pricing_plan_id":"free"},{"bike_id":"47e584a5-c992-41de-8e3f-4f97b61aca00","system_id":"levelo_inurba_marseille","lat":43.295748,"lon":5.37522,"is_reserved":false,"is_disabled":false,"rental_uris":{"android":"levelo://app?vid=47e584a5-c992-41de-8e3f-4f97b61aca00","ios":"levelo://app?vid=47e584a5-c992-41de-8e3f-4f97b61aca00"},"vehicle_type_id":"4","last_reported":1683954380,"current_range_meters":29200,"station_id":"ce4bgh92rcd13ifvqb50","pricing_plan_id":"free"},{"bike_id":"b520c5ef-0d55-46bc-afe3-45747ae0199e","system_id":"levelo_inurba_marseille","lat":43.29785,"lon":5.38118,"is_reserved":false,"is_disabled":false,"rental_uris":{"android":"levelo://app?vid=b520c5ef-0d55-46bc-afe3-45747ae0199e","ios":"levelo://app?vid=b520c5ef-0d55-46bc-afe3-45747ae0199e"},"vehicle_type_id":"4","last_reported":1683954380,"current_range_meters":31200,"station_id":"ce4bgip2rcd13ifvqbb0","pricing_plan_id":"free"},{"bike_id":"0779af64-00f5-46ad-8401-22dd5c02f6aa","system_id":"levelo_inurba_marseille","lat":43.2978,"lon":5.38112,"is_reserved":false,"is_disabled":false,"rental_uris":{"android":"levelo://app?vid=0779af64-00f5-46ad-8401-22dd5c02f6aa","ios":"levelo://app?vid=0779af64-00f5-46ad-8401-22dd5c02f6aa"},"vehicle_type_id":"4","last_reported":1683954380,"current_range_meters":21600,"station_id":"ce4bgip2rcd13ifvqbb0","pricing_plan_id":"free"},{"bike_id":"afdbe2ea-a5ab-4b0b-94f7-ca102e4de36b","system_id":"levelo_inurba_marseille","lat":43.30432,"lon":5.38905,"is_reserved":false,"is_disabled":false,"rental_uris":{"android":"levelo://app?vid=afdbe2ea-a5ab-4b0b-94f7-ca102e4de36b","ios":"levelo://app?vid=afdbe2ea-a5ab-4b0b-94f7-ca102e4de36b"},"vehicle_type_id":"4","last_reported":1683954380,"current_range_meters":0,"station_id":"ce4bgk12rcd13ifvqbi0","pricing_plan_id":"free"},{"bike_id":"7e24f40e-a19e-4c95-ac30-a468f9bf6ff1","system_id":"levelo_inurba_marseille","lat":43.29781,"lon":5.38124,"is_reserved":false,"is_disabled":false,"rental_uris":{"android":"levelo://app?vid=7e24f40e-a19e-4c95-ac30-a468f9bf6ff1","ios":"levelo://app?vid=7e24f40e-a19e-4c95-ac30-a468f9bf6ff1"},"vehicle_type_id":"4","last_reported":1683954380,"current_range_meters":31200,"station_id":"ce4bgip2rcd13ifvqbb0","pricing_plan_id":"free"},{"bike_id":"dfe99f53-cb6f-41e9-ad71-605fb4e4dc5c","system_id":"levelo_inurba_marseille","lat":43.299724,"lon":5.384848,"is_reserved":false,"is_disabled":false,"rental_uris":{"android":"levelo://app?vid=dfe99f53-cb6f-41e9-ad71-605fb4e4dc5c","ios":"levelo://app?vid=dfe99f53-cb6f-41e9-ad71-605fb4e4dc5c"},"vehicle_type_id":"4","last_reported":1683954380,"current_range_meters":31600,"station_id":"ce4bgj92rcd13ifvqbd0","pricing_plan_id":"free"},{"bike_id":"d966235b-e4f7-45a9-9cd3-4844581bc9dc","system_id":"levelo_inurba_marseille","lat":43.29973,"lon":5.38489,"is_reserved":false,"is_disabled":false,"rental_uris":{"android":"levelo://app?vid=d966235b-e4f7-45a9-9cd3-4844581bc9dc","ios":"levelo://app?vid=d966235b-e4f7-45a9-9cd3-4844581bc9dc"},"vehicle_type_id":"4","last_reported":1683954380,"current_range_meters":0,"station_id":"ce4bgj92rcd13ifvqbd0","pricing_plan_id":"free"},{"bike_id":"f1c11bf8-70ef-4286-932e-6e369312ed0e","system_id":"levelo_inurba_marseille","lat":43.299724,"lon":5.384848,"is_reserved":false,"is_disabled":false,"rental_uris":{"android":"levelo://app?vid=f1c11bf8-70ef-4286-932e-6e369312ed0e","ios":"levelo://app?vid=f1c11bf8-70ef-4286-932e-6e369312ed0e"},"vehicle_type_id":"4","last_reported":1683954380,"current_range_meters":28000,"station_id":"ce4bgj92rcd13ifvqbd0","pricing_plan_id":"free"},{"bike_id":"e58f389f-323e-4f9b-bcdc-1f9e400512d9","system_id":"levelo_inurba_marseille","lat":43.29963,"lon":5.38499,"is_reserved":false,"is_disabled":false,"rental_uris":{"android":"levelo://app?vid=e58f389f-323e-4f9b-bcdc-1f9e400512d9","ios":"levelo://app?vid=e58f389f-323e-4f9b-bcdc-1f9e400512d9"},"vehicle_type_id":"4","last_reported":1683954380,"current_range_meters":20800,"station_id":"ce4bgj92rcd13ifvqbd0","pricing_plan_id":"free"},{"bike_id":"a68ed49a-be91-44be-bb58-35f00ab2ce8b","system_id":"levelo_inurba_marseille","lat":43.295279,"lon":5.375048,"is_reserved":false,"is_disabled":false,"rental_uris":{"android":"levelo://app?vid=a68ed49a-be91-44be-bb58-35f00ab2ce8b","ios":"levelo://app?vid=a68ed49a-be91-44be-bb58-35f00ab2ce8b"},"vehicle_type_id":"4","last_reported":1683954380,"current_range_meters":31600,"station_id":"ce4bgkp2rcd13ifvqbmg","pricing_plan_id":"free"},{"bike_id":"8c67d0b8-dd68-4d7a-a255-6dadf4e99843","system_id":"levelo_inurba_marseille","lat":43.2951,"lon":5.37598,"is_reserved":false,"is_disabled":false,"rental_uris":{"android":"levelo://app?vid=8c67d0b8-dd68-4d7a-a255-6dadf4e99843","ios":"levelo://app?vid=8c67d0b8-dd68-4d7a-a255-6dadf4e99843"},"vehicle_type_id":"4","last_reported":1683954380,"current_range_meters":0,"station_id":"","pricing_plan_id":"free"},{"bike_id":"98d43089-ff1e-40ee-a123-f18e174ce1c4","system_id":"levelo_inurba_marseille","lat":43.31446,"lon":5.39275,"is_reserved":false,"is_disabled":false,"rental_uris":{"android":"levelo://app?vid=98d43089-ff1e-40ee-a123-f18e174ce1c4","ios":"levelo://app?vid=98d43089-ff1e-40ee-a123-f18e174ce1c4"},"vehicle_type_id":"4","last_reported":1683954380,"current_range_meters":5200,"station_id":"","pricing_plan_id":"free"},{"bike_id":"6f6b02ce-a50b-443a-a31d-aed834771e7b","system_id":"levelo_inurba_marseille","lat":43.31436,"lon":5.39296,"is_reserved":false,"is_disabled":false,"rental_uris":{"android":"levelo://app?vid=6f6b02ce-a50b-443a-a31d-aed834771e7b","ios":"levelo://app?vid=6f6b02ce-a50b-443a-a31d-aed834771e7b"},"vehicle_type_id":"4","last_reported":1683954380,"current_range_meters":7600,"station_id":"","pricing_plan_id":"free"},{"bike_id":"780360de-0f4f-47d4-bb90-6595e73179d7","system_id":"levelo_inurba_marseille","lat":43.29832,"lon":5.38527,"is_reserved":false,"is_disabled":false,"rental_uris":{"android":"levelo://app?vid=780360de-0f4f-47d4-bb90-6595e73179d7","ios":"levelo://app?vid=780360de-0f4f-47d4-bb90-6595e73179d7"},"vehicle_type_id":"4","last_reported":1683954380,"current_range_meters":0,"station_id":"","pricing_plan_id":"free"},{"bike_id":"ee9df043-635c-474d-b4bd-8e9da09abc4f","system_id":"levelo_inurba_marseille","lat":43.292749,"lon":5.368398,"is_reserved":false,"is_disabled":false,"rental_uris":{"android":"levelo://app?vid=ee9df043-635c-474d-b4bd-8e9da09abc4f","ios":"levelo://app?vid=ee9df043-635c-474d-b4bd-8e9da09abc4f"},"vehicle_type_id":"4","last_reported":1683954380,"current_range_meters":24000,"station_id":"ce4bhbp2rcd13ifvqesg","pricing_plan_id":"free"},{"bike_id":"df7647b1-99a9-4742-b9f2-9d2bc408c020","system_id":"levelo_inurba_marseille","lat":43.29468,"lon":5.37877,"is_reserved":false,"is_disabled":false,"rental_uris":{"android":"levelo://app?vid=df7647b1-99a9-4742-b9f2-9d2bc408c020","ios":"levelo://app?vid=df7647b1-99a9-4742-b9f2-9d2bc408c020"},"vehicle_type_id":"4","last_reported":1683954380,"current_range_meters":26400,"station_id":"","pricing_plan_id":"free"},{"bike_id":"88593624-c250-4a46-8a73-077423d799d6","system_id":"levelo_inurba_marseille","lat":43.29302,"lon":5.37189,"is_reserved":false,"is_disabled":false,"rental_uris":{"android":"levelo://app?vid=88593624-c250-4a46-8a73-077423d799d6","ios":"levelo://app?vid=88593624-c250-4a46-8a73-077423d799d6"},"vehicle_type_id":"4","last_reported":1683954380,"current_range_meters":3600,"station_id":"","pricing_plan_id":"free"},{"bike_id":"d870f162-0dbc-4ab7-b171-215fb7e27879","system_id":"levelo_inurba_marseille","lat":43.292749,"lon":5.368402,"is_reserved":false,"is_disabled":false,"rental_uris":{"android":"levelo://app?vid=d870f162-0dbc-4ab7-b171-215fb7e27879","ios":"levelo://app?vid=d870f162-0dbc-4ab7-b171-215fb7e27879"},"vehicle_type_id":"4","last_reported":1683954380,"current_range_meters":29600,"station_id":"ce4bhbp2rcd13ifvqesg","pricing_plan_id":"free"},{"bike_id":"55be50f6-4d3a-4350-bcb9-9a053bb7dc9a","system_id":"levelo_inurba_marseille","lat":43.305994,"lon":5.393687,"is_reserved":false,"is_disabled":false,"rental_uris":{"android":"levelo://app?vid=55be50f6-4d3a-4350-bcb9-9a053bb7dc9a","ios":"levelo://app?vid=55be50f6-4d3a-4350-bcb9-9a053bb7dc9a"},"vehicle_type_id":"4","last_reported":1683954380,"current_range_meters":20800,"station_id":"ce4bh0p2rcd13ifvqd80","pricing_plan_id":"free"},{"bike_id":"90c5d5a4-9ce6-4509-a4fd-66949c69405f","system_id":"levelo_inurba_marseille","lat":43.305994,"lon":5.393687,"is_reserved":false,"is_disabled":false,"rental_uris":{"android":"levelo://app?vid=90c5d5a4-9ce6-4509-a4fd-66949c69405f","ios":"levelo://app?vid=90c5d5a4-9ce6-4509-a4fd-66949c69405f"},"vehicle_type_id":"4","last_reported":1683954380,"current_range_meters":30400,"station_id":"ce4bh0p2rcd13ifvqd80","pricing_plan_id":"free"},{"bike_id":"fa6c3f47-d0d7-4161-a001-9330bdf69277","system_id":"levelo_inurba_marseille","lat":43.305994,"lon":5.393687,"is_reserved":false,"is_disabled":false,"rental_uris":{"android":"levelo://app?vid=fa6c3f47-d0d7-4161-a001-9330bdf69277","ios":"levelo://app?vid=fa6c3f47-d0d7-4161-a001-9330bdf69277"},"vehicle_type_id":"4","last_reported":1683954380,"current_range_meters":30400,"station_id":"ce4bh0p2rcd13ifvqd80","pricing_plan_id":"free"},{"bike_id":"807e64e0-1982-4fc5-9a0d-480fa6ace821","system_id":"levelo_inurba_marseille","lat":43.300852,"lon":5.390859,"is_reserved":false,"is_disabled":false,"rental_uris":{"android":"levelo://app?vid=807e64e0-1982-4fc5-9a0d-480fa6ace821","ios":"levelo://app?vid=807e64e0-1982-4fc5-9a0d-480fa6ace821"},"vehicle_type_id":"4","last_reported":1683954380,"current_range_meters":0,"station_id":"ce4bh192rcd13ifvqdb0","pricing_plan_id":"free"},{"bike_id":"a7e149d1-bc10-44fd-9da6-89cf820a647b","system_id":"levelo_inurba_marseille","lat":43.30085,"lon":5.390856,"is_reserved":false,"is_disabled":false,"rental_uris":{"android":"levelo://app?vid=a7e149d1-bc10-44fd-9da6-89cf820a647b","ios":"levelo://app?vid=a7e149d1-bc10-44fd-9da6-89cf820a647b"},"vehicle_type_id":"4","last_reported":1683954380,"current_range_meters":27600,"station_id":"ce4bh192rcd13ifvqdb0","pricing_plan_id":"free"},{"bike_id":"c1c17b3b-fe52-49a1-a8d9-69067d3b56f1","system_id":"levelo_inurba_marseille","lat":43.292663,"lon":5.376389,"is_reserved":false,"is_disabled":false,"rental_uris":{"android":"levelo://app?vid=c1c17b3b-fe52-49a1-a8d9-69067d3b56f1","ios":"levelo://app?vid=c1c17b3b-fe52-49a1-a8d9-69067d3b56f1"},"vehicle_type_id":"4","last_reported":1683954380,"current_range_meters":6000,"station_id":"ce4bgi12rcd13ifvqb80","pricing_plan_id":"free"},{"bike_id":"6a9e77da-3871-4ea8-8b35-930bd4333a9a","system_id":"levelo_inurba_marseille","lat":43.292663,"lon":5.376389,"is_reserved":false,"is_disabled":false,"rental_uris":{"android":"levelo://app?vid=6a9e77da-3871-4ea8-8b35-930bd4333a9a","ios":"levelo://app?vid=6a9e77da-3871-4ea8-8b35-930bd4333a9a"},"vehicle_type_id":"4","last_reported":1683954380,"current_range_meters":4800,"station_id":"ce4bgi12rcd13ifvqb80","pricing_plan_id":"free"},{"bike_id":"0bbb37bf-7d4e-4900-9190-22e7fc2aba37","system_id":"levelo_inurba_marseille","lat":43.309038,"lon":5.396546,"is_reserved":false,"is_disabled":false,"rental_uris":{"android":"levelo://app?vid=0bbb37bf-7d4e-4900-9190-22e7fc2aba37","ios":"levelo://app?vid=0bbb37bf-7d4e-4900-9190-22e7fc2aba37"},"vehicle_type_id":"4","last_reported":1683954380,"current_range_meters":10000,"station_id":"ce4bh012rcd13ifvqcv0","pricing_plan_id":"free"},{"bike_id":"09f9f13c-b260-4bf3-b060-fb742ab550de","system_id":"levelo_inurba_marseille","lat":43.309038,"lon":5.396546,"is_reserved":false,"is_disabled":false,"rental_uris":{"android":"levelo://app?vid=09f9f13c-b260-4bf3-b060-fb742ab550de","ios":"levelo://app?vid=09f9f13c-b260-4bf3-b060-fb742ab550de"},"vehicle_type_id":"4","last_reported":1683954380,"current_range_meters":9200,"station_id":"ce4bh012rcd13ifvqcv0","pricing_plan_id":"free"},{"bike_id":"54558b69-c4ac-4523-b52f-5d2188aa05a7","system_id":"levelo_inurba_marseille","lat":43.313291,"lon":5.396838,"is_reserved":false,"is_disabled":false,"rental_uris":{"android":"levelo://app?vid=54558b69-c4ac-4523-b52f-5d2188aa05a7","ios":"levelo://app?vid=54558b69-c4ac-4523-b52f-5d2188aa05a7"},"vehicle_type_id":"4","last_reported":1683954380,"current_range_meters":12400,"station_id":"ce4bgvp2rcd13ifvqcu0","pricing_plan_id":"free"},{"bike_id":"1fc2ebab-8602-40c6-ad3d-33e08383f9df","system_id":"levelo_inurba_marseille","lat":43.309038,"lon":5.396546,"is_reserved":false,"is_disabled":false,"rental_uris":{"android":"levelo://app?vid=1fc2ebab-8602-40c6-ad3d-33e08383f9df","ios":"levelo://app?vid=1fc2ebab-8602-40c6-ad3d-33e08383f9df"},"vehicle_type_id":"4","last_reported":1683954380,"current_range_meters":14400,"station_id":"ce4bh012rcd13ifvqcv0","pricing_plan_id":"free"},{"bike_id":"1f08c3cb-ba17-4d1b-9c29-da16e9aaf7c4","system_id":"levelo_inurba_marseille","lat":43.309038,"lon":5.396546,"is_reserved":false,"is_disabled":false,"rental_uris":{"android":"levelo://app?vid=1f08c3cb-ba17-4d1b-9c29-da16e9aaf7c4","ios":"levelo://app?vid=1f08c3cb-ba17-4d1b-9c29-da16e9aaf7c4"},"vehicle_type_id":"4","last_reported":1683954380,"current_range_meters":15600,"station_id":"ce4bh012rcd13ifvqcv0","pricing_plan_id":"free"},{"bike_id":"eddbf360-b344-4aa6-ae3b-7ce9c881ea10","system_id":"levelo_inurba_marseille","lat":43.309038,"lon":5.396546,"is_reserved":false,"is_disabled":false,"rental_uris":{"android":"levelo://app?vid=eddbf360-b344-4aa6-ae3b-7ce9c881ea10","ios":"levelo://app?vid=eddbf360-b344-4aa6-ae3b-7ce9c881ea10"},"vehicle_type_id":"4","last_reported":1683954380,"current_range_meters":15200,"station_id":"ce4bh012rcd13ifvqcv0","pricing_plan_id":"free"},{"bike_id":"43ea94fb-f0bc-48af-bd2d-c866d6def370","system_id":"levelo_inurba_marseille","lat":43.29193,"lon":5.358,"is_reserved":false,"is_disabled":false,"rental_uris":{"android":"levelo://app?vid=43ea94fb-f0bc-48af-bd2d-c866d6def370","ios":"levelo://app?vid=43ea94fb-f0bc-48af-bd2d-c866d6def370"},"vehicle_type_id":"4","last_reported":1683954380,"current_range_meters":22000,"station_id":"ce4bhb12rcd13ifvqel0","pricing_plan_id":"free"},{"bike_id":"ce2db649-a755-4348-ad01-fa2d7208c8f5","system_id":"levelo_inurba_marseille","lat":43.309038,"lon":5.396546,"is_reserved":false,"is_disabled":false,"rental_uris":{"android":"levelo://app?vid=ce2db649-a755-4348-ad01-fa2d7208c8f5","ios":"levelo://app?vid=ce2db649-a755-4348-ad01-fa2d7208c8f5"},"vehicle_type_id":"4","last_reported":1683954380,"current_range_meters":23600,"station_id":"ce4bh012rcd13ifvqcv0","pricing_plan_id":"free"},{"bike_id":"94cfdd85-7708-4d18-8858-9edd985a492a","system_id":"levelo_inurba_marseille","lat":43.309038,"lon":5.396546,"is_reserved":false,"is_disabled":false,"rental_uris":{"android":"levelo://app?vid=94cfdd85-7708-4d18-8858-9edd985a492a","ios":"levelo://app?vid=94cfdd85-7708-4d18-8858-9edd985a492a"},"vehicle_type_id":"4","last_reported":1683954380,"current_range_meters":31200,"station_id":"ce4bh012rcd13ifvqcv0","pricing_plan_id":"free"},{"bike_id":"24c62268-52e4-43c5-a578-1a2673aa3ec8","system_id":"levelo_inurba_marseille","lat":43.309038,"lon":5.396546,"is_reserved":false,"is_disabled":false,"rental_uris":{"android":"levelo://app?vid=24c62268-52e4-43c5-a578-1a2673aa3ec8","ios":"levelo://app?vid=24c62268-52e4-43c5-a578-1a2673aa3ec8"},"vehicle_type_id":"4","last_reported":1683954380,"current_range_meters":12000,"station_id":"ce4bh012rcd13ifvqcv0","pricing_plan_id":"free"},{"bike_id":"560ea34e-feb5-4660-9bff-cf551c95db90","system_id":"levelo_inurba_marseille","lat":43.309038,"lon":5.396546,"is_reserved":false,"is_disabled":false,"rental_uris":{"android":"levelo://app?vid=560ea34e-feb5-4660-9bff-cf551c95db90","ios":"levelo://app?vid=560ea34e-feb5-4660-9bff-cf551c95db90"},"vehicle_type_id":"4","last_reported":1683954380,"current_range_meters":17200,"station_id":"ce4bh012rcd13ifvqcv0","pricing_plan_id":"free"},{"bike_id":"53227ca6-0425-4d55-aa20-ae2d700371fc","system_id":"levelo_inurba_marseille","lat":43.309038,"lon":5.396546,"is_reserved":false,"is_disabled":false,"rental_uris":{"android":"levelo://app?vid=53227ca6-0425-4d55-aa20-ae2d700371fc","ios":"levelo://app?vid=53227ca6-0425-4d55-aa20-ae2d700371fc"},"vehicle_type_id":"4","last_reported":1683954380,"current_range_meters":18400,"station_id":"ce4bh012rcd13ifvqcv0","pricing_plan_id":"free"},{"bike_id":"d558ad10-29e7-4da3-9ee1-d9b891a8f7cd","system_id":"levelo_inurba_marseille","lat":43.313291,"lon":5.396838,"is_reserved":false,"is_disabled":false,"rental_uris":{"android":"levelo://app?vid=d558ad10-29e7-4da3-9ee1-d9b891a8f7cd","ios":"levelo://app?vid=d558ad10-29e7-4da3-9ee1-d9b891a8f7cd"},"vehicle_type_id":"4","last_reported":1683954380,"current_range_meters":10400,"station_id":"ce4bgvp2rcd13ifvqcu0","pricing_plan_id":"free"},{"bike_id":"0e82fd84-418d-454b-8e14-8643e766a0fd","system_id":"levelo_inurba_marseille","lat":43.309038,"lon":5.396546,"is_reserved":false,"is_disabled":false,"rental_uris":{"android":"levelo://app?vid=0e82fd84-418d-454b-8e14-8643e766a0fd","ios":"levelo://app?vid=0e82fd84-418d-454b-8e14-8643e766a0fd"},"vehicle_type_id":"4","last_reported":1683954380,"current_range_meters":20400,"station_id":"ce4bh012rcd13ifvqcv0","pricing_plan_id":"free"},{"bike_id":"b1dbe5d2-9911-4db5-b317-0332f405d3d1","system_id":"levelo_inurba_marseille","lat":43.29189,"lon":5.35797,"is_reserved":false,"is_disabled":false,"rental_uris":{"android":"levelo://app?vid=b1dbe5d2-9911-4db5-b317-0332f405d3d1","ios":"levelo://app?vid=b1dbe5d2-9911-4db5-b317-0332f405d3d1"},"vehicle_type_id":"4","last_reported":1683954380,"current_range_meters":7200,"station_id":"ce4bhb12rcd13ifvqel0","pricing_plan_id":"free"},{"bike_id":"a7ebd004-1e3c-4880-b2ba-b7d2ecce3f80","system_id":"levelo_inurba_marseille","lat":43.31325,"lon":5.39697,"is_reserved":false,"is_disabled":false,"rental_uris":{"android":"levelo://app?vid=a7ebd004-1e3c-4880-b2ba-b7d2ecce3f80","ios":"levelo://app?vid=a7ebd004-1e3c-4880-b2ba-b7d2ecce3f80"},"vehicle_type_id":"4","last_reported":1683954380,"current_range_meters":2000,"station_id":"ce4bgvp2rcd13ifvqcu0","pricing_plan_id":"free"},{"bike_id":"0d17488f-4cc0-4c1b-a45d-b7eabcae8585","system_id":"levelo_inurba_marseille","lat":43.29182,"lon":5.35814,"is_reserved":false,"is_disabled":false,"rental_uris":{"android":"levelo://app?vid=0d17488f-4cc0-4c1b-a45d-b7eabcae8585","ios":"levelo://app?vid=0d17488f-4cc0-4c1b-a45d-b7eabcae8585"},"vehicle_type_id":"4","last_reported":1683954380,"current_range_meters":5600,"station_id":"","pricing_plan_id":"free"},{"bike_id":"9e44de62-a7d8-4edf-8023-596538001931","system_id":"levelo_inurba_marseille","lat":43.31323,"lon":5.397,"is_reserved":false,"is_disabled":false,"rental_uris":{"android":"levelo://app?vid=9e44de62-a7d8-4edf-8023-596538001931","ios":"levelo://app?vid=9e44de62-a7d8-4edf-8023-596538001931"},"vehicle_type_id":"4","last_reported":1683954380,"current_range_meters":2000,"station_id":"ce4bgvp2rcd13ifvqcu0","pricing_plan_id":"free"},{"bike_id":"ebe7a3c3-9add-4be2-9d92-63b05eb0fafe","system_id":"levelo_inurba_marseille","lat":43.309038,"lon":5.396546,"is_reserved":false,"is_disabled":false,"rental_uris":{"android":"levelo://app?vid=ebe7a3c3-9add-4be2-9d92-63b05eb0fafe","ios":"levelo://app?vid=ebe7a3c3-9add-4be2-9d92-63b05eb0fafe"},"vehicle_type_id":"4","last_reported":1683954380,"current_range_meters":5200,"station_id":"ce4bh012rcd13ifvqcv0","pricing_plan_id":"free"},{"bike_id":"1519c9f4-eb8f-4a72-90ae-dcb41abc43c7","system_id":"levelo_inurba_marseille","lat":43.313291,"lon":5.396838,"is_reserved":false,"is_disabled":false,"rental_uris":{"android":"levelo://app?vid=1519c9f4-eb8f-4a72-90ae-dcb41abc43c7","ios":"levelo://app?vid=1519c9f4-eb8f-4a72-90ae-dcb41abc43c7"},"vehicle_type_id":"4","last_reported":1683954380,"current_range_meters":0,"station_id":"ce4bgvp2rcd13ifvqcu0","pricing_plan_id":"free"},{"bike_id":"d65b6377-dab5-45e5-a522-b3d11451061f","system_id":"levelo_inurba_marseille","lat":43.29531,"lon":5.38545,"is_reserved":false,"is_disabled":false,"rental_uris":{"android":"levelo://app?vid=d65b6377-dab5-45e5-a522-b3d11451061f","ios":"levelo://app?vid=d65b6377-dab5-45e5-a522-b3d11451061f"},"vehicle_type_id":"4","last_reported":1683954380,"current_range_meters":0,"station_id":"ce4bgih2rcd13ifvqba0","pricing_plan_id":"free"},{"bike_id":"9e407051-9c0b-40fc-bdef-6d710c7134dd","system_id":"levelo_inurba_marseille","lat":43.302008,"lon":5.394694,"is_reserved":false,"is_disabled":false,"rental_uris":{"android":"levelo://app?vid=9e407051-9c0b-40fc-bdef-6d710c7134dd","ios":"levelo://app?vid=9e407051-9c0b-40fc-bdef-6d710c7134dd"},"vehicle_type_id":"4","last_reported":1683954380,"current_range_meters":30400,"station_id":"ce4bh0p2rcd13ifvqd70","pricing_plan_id":"free"},{"bike_id":"28637bd6-8dbc-47e8-9b76-4f5f79c950b2","system_id":"levelo_inurba_marseille","lat":43.302008,"lon":5.394694,"is_reserved":false,"is_disabled":false,"rental_uris":{"android":"levelo://app?vid=28637bd6-8dbc-47e8-9b76-4f5f79c950b2","ios":"levelo://app?vid=28637bd6-8dbc-47e8-9b76-4f5f79c950b2"},"vehicle_type_id":"4","last_reported":1683954380,"current_range_meters":31600,"station_id":"ce4bh0p2rcd13ifvqd70","pricing_plan_id":"free"},{"bike_id":"4cc07a8e-1da3-4356-8751-f1f628ad9061","system_id":"levelo_inurba_marseille","lat":43.302008,"lon":5.394694,"is_reserved":false,"is_disabled":false,"rental_uris":{"android":"levelo://app?vid=4cc07a8e-1da3-4356-8751-f1f628ad9061","ios":"levelo://app?vid=4cc07a8e-1da3-4356-8751-f1f628ad9061"},"vehicle_type_id":"4","last_reported":1683954380,"current_range_meters":31600,"station_id":"ce4bh0p2rcd13ifvqd70","pricing_plan_id":"free"},{"bike_id":"4751a8d1-aa0d-47d5-94dd-01d6a01b4e2d","system_id":"levelo_inurba_marseille","lat":43.302008,"lon":5.394694,"is_reserved":false,"is_disabled":false,"rental_uris":{"android":"levelo://app?vid=4751a8d1-aa0d-47d5-94dd-01d6a01b4e2d","ios":"levelo://app?vid=4751a8d1-aa0d-47d5-94dd-01d6a01b4e2d"},"vehicle_type_id":"4","last_reported":1683954380,"current_range_meters":20400,"station_id":"ce4bh0p2rcd13ifvqd70","pricing_plan_id":"free"},{"bike_id":"93ed8362-af88-44da-af5f-28c7528e77c0","system_id":"levelo_inurba_marseille","lat":43.290631,"lon":5.359244,"is_reserved":false,"is_disabled":false,"rental_uris":{"android":"levelo://app?vid=93ed8362-af88-44da-af5f-28c7528e77c0","ios":"levelo://app?vid=93ed8362-af88-44da-af5f-28c7528e77c0"},"vehicle_type_id":"4","last_reported":1683954380,"current_range_meters":30000,"station_id":"ce4bha92rcd13ifvqeg0","pricing_plan_id":"free"},{"bike_id":"31ca6e9d-78e3-4d8b-bef9-24cf2edf02e7","system_id":"levelo_inurba_marseille","lat":43.290327,"lon":5.375711,"is_reserved":false,"is_disabled":false,"rental_uris":{"android":"levelo://app?vid=31ca6e9d-78e3-4d8b-bef9-24cf2edf02e7","ios":"levelo://app?vid=31ca6e9d-78e3-4d8b-bef9-24cf2edf02e7"},"vehicle_type_id":"4","last_reported":1683954380,"current_range_meters":8400,"station_id":"ce4bh692rcd13ifvqe90","pricing_plan_id":"free"},{"bike_id":"3dd0b3bc-f06e-40f4-be2b-e6dfd7420021","system_id":"levelo_inurba_marseille","lat":43.28941,"lon":5.36635,"is_reserved":false,"is_disabled":false,"rental_uris":{"android":"levelo://app?vid=3dd0b3bc-f06e-40f4-be2b-e6dfd7420021","ios":"levelo://app?vid=3dd0b3bc-f06e-40f4-be2b-e6dfd7420021"},"vehicle_type_id":"4","last_reported":1683954380,"current_range_meters":31200,"station_id":"ce4bhap2rcd13ifvqek0","pricing_plan_id":"free"},{"bike_id":"9f129774-36e1-42f1-8229-a7c2be11d89e","system_id":"levelo_inurba_marseille","lat":43.30482,"lon":5.39709,"is_reserved":false,"is_disabled":false,"rental_uris":{"android":"levelo://app?vid=9f129774-36e1-42f1-8229-a7c2be11d89e","ios":"levelo://app?vid=9f129774-36e1-42f1-8229-a7c2be11d89e"},"vehicle_type_id":"4","last_reported":1683954380,"current_range_meters":21200,"station_id":"","pricing_plan_id":"free"},{"bike_id":"bedee10e-5dfc-450e-8b51-ca83bf1109a6","system_id":"levelo_inurba_marseille","lat":43.30483,"lon":5.39713,"is_reserved":false,"is_disabled":false,"rental_uris":{"android":"levelo://app?vid=bedee10e-5dfc-450e-8b51-ca83bf1109a6","ios":"levelo://app?vid=bedee10e-5dfc-450e-8b51-ca83bf1109a6"},"vehicle_type_id":"4","last_reported":1683954380,"current_range_meters":4400,"station_id":"","pricing_plan_id":"free"},{"bike_id":"1ad3ff3d-95ef-43e5-8c1c-7004284d07e6","system_id":"levelo_inurba_marseille","lat":43.28938,"lon":5.36644,"is_reserved":false,"is_disabled":false,"rental_uris":{"android":"levelo://app?vid=1ad3ff3d-95ef-43e5-8c1c-7004284d07e6","ios":"levelo://app?vid=1ad3ff3d-95ef-43e5-8c1c-7004284d07e6"},"vehicle_type_id":"4","last_reported":1683954380,"current_range_meters":17600,"station_id":"ce4bhap2rcd13ifvqek0","pricing_plan_id":"free"},{"bike_id":"d1e26f83-36d5-4390-bcad-2ce49be85a32","system_id":"levelo_inurba_marseille","lat":43.28937,"lon":5.36637,"is_reserved":false,"is_disabled":false,"rental_uris":{"android":"levelo://app?vid=d1e26f83-36d5-4390-bcad-2ce49be85a32","ios":"levelo://app?vid=d1e26f83-36d5-4390-bcad-2ce49be85a32"},"vehicle_type_id":"4","last_reported":1683954380,"current_range_meters":28800,"station_id":"ce4bhap2rcd13ifvqek0","pricing_plan_id":"free"},{"bike_id":"f6c188ff-05a2-4446-86d5-f5f746dcb954","system_id":"levelo_inurba_marseille","lat":43.28937,"lon":5.36632,"is_reserved":false,"is_disabled":false,"rental_uris":{"android":"levelo://app?vid=f6c188ff-05a2-4446-86d5-f5f746dcb954","ios":"levelo://app?vid=f6c188ff-05a2-4446-86d5-f5f746dcb954"},"vehicle_type_id":"4","last_reported":1683954380,"current_range_meters":26000,"station_id":"ce4bhap2rcd13ifvqek0","pricing_plan_id":"free"},{"bike_id":"74143c33-6eb8-4cef-bea3-c1c98ef59721","system_id":"levelo_inurba_marseille","lat":43.28936,"lon":5.36638,"is_reserved":false,"is_disabled":false,"rental_uris":{"android":"levelo://app?vid=74143c33-6eb8-4cef-bea3-c1c98ef59721","ios":"levelo://app?vid=74143c33-6eb8-4cef-bea3-c1c98ef59721"},"vehicle_type_id":"4","last_reported":1683954380,"current_range_meters":21200,"station_id":"ce4bhap2rcd13ifvqek0","pricing_plan_id":"free"},{"bike_id":"3a751574-2c55-4cb4-b48d-f43e7e2dfb83","system_id":"levelo_inurba_marseille","lat":43.289184,"lon":5.366408,"is_reserved":false,"is_disabled":false,"rental_uris":{"android":"levelo://app?vid=3a751574-2c55-4cb4-b48d-f43e7e2dfb83","ios":"levelo://app?vid=3a751574-2c55-4cb4-b48d-f43e7e2dfb83"},"vehicle_type_id":"4","last_reported":1683954380,"current_range_meters":15200,"station_id":"ce4bhap2rcd13ifvqek0","pricing_plan_id":"free"},{"bike_id":"1db72b7c-061e-49bc-a38c-4293b52ce6aa","system_id":"levelo_inurba_marseille","lat":43.289184,"lon":5.366408,"is_reserved":false,"is_disabled":false,"rental_uris":{"android":"levelo://app?vid=1db72b7c-061e-49bc-a38c-4293b52ce6aa","ios":"levelo://app?vid=1db72b7c-061e-49bc-a38c-4293b52ce6aa"},"vehicle_type_id":"4","last_reported":1683954380,"current_range_meters":24800,"station_id":"ce4bhap2rcd13ifvqek0","pricing_plan_id":"free"},{"bike_id":"c91410ec-2afb-4195-ba1e-128fb207a1e8","system_id":"levelo_inurba_marseille","lat":43.289184,"lon":5.366408,"is_reserved":false,"is_disabled":false,"rental_uris":{"android":"levelo://app?vid=c91410ec-2afb-4195-ba1e-128fb207a1e8","ios":"levelo://app?vid=c91410ec-2afb-4195-ba1e-128fb207a1e8"},"vehicle_type_id":"4","last_reported":1683954380,"current_range_meters":29200,"station_id":"ce4bhap2rcd13ifvqek0","pricing_plan_id":"free"},{"bike_id":"2568732e-33dd-414a-96a2-05ac2e039bec","system_id":"levelo_inurba_marseille","lat":43.28932,"lon":5.36636,"is_reserved":false,"is_disabled":false,"rental_uris":{"android":"levelo://app?vid=2568732e-33dd-414a-96a2-05ac2e039bec","ios":"levelo://app?vid=2568732e-33dd-414a-96a2-05ac2e039bec"},"vehicle_type_id":"4","last_reported":1683954380,"current_range_meters":28800,"station_id":"ce4bhap2rcd13ifvqek0","pricing_plan_id":"free"},{"bike_id":"05b7eebc-cb2a-4b19-b944-079b21ca91c1","system_id":"levelo_inurba_marseille","lat":43.289184,"lon":5.366408,"is_reserved":false,"is_disabled":false,"rental_uris":{"android":"levelo://app?vid=05b7eebc-cb2a-4b19-b944-079b21ca91c1","ios":"levelo://app?vid=05b7eebc-cb2a-4b19-b944-079b21ca91c1"},"vehicle_type_id":"4","last_reported":1683954380,"current_range_meters":31200,"station_id":"ce4bhap2rcd13ifvqek0","pricing_plan_id":"free"},{"bike_id":"9d22aa05-9386-4e54-ba29-93ba515876d0","system_id":"levelo_inurba_marseille","lat":43.28931,"lon":5.36637,"is_reserved":false,"is_disabled":false,"rental_uris":{"android":"levelo://app?vid=9d22aa05-9386-4e54-ba29-93ba515876d0","ios":"levelo://app?vid=9d22aa05-9386-4e54-ba29-93ba515876d0"},"vehicle_type_id":"4","last_reported":1683954380,"current_range_meters":0,"station_id":"ce4bhap2rcd13ifvqek0","pricing_plan_id":"free"},{"bike_id":"57d985d9-4d22-4f67-a5c7-777a805a3e6b","system_id":"levelo_inurba_marseille","lat":43.289468,"lon":5.363719,"is_reserved":false,"is_disabled":false,"rental_uris":{"android":"levelo://app?vid=57d985d9-4d22-4f67-a5c7-777a805a3e6b","ios":"levelo://app?vid=57d985d9-4d22-4f67-a5c7-777a805a3e6b"},"vehicle_type_id":"4","last_reported":1683954380,"current_range_meters":22000,"station_id":"ce4bhc92rcd13ifvqetg","pricing_plan_id":"free"},{"bike_id":"6f2daaf5-e681-4b56-870e-341f26850771","system_id":"levelo_inurba_marseille","lat":43.289184,"lon":5.366408,"is_reserved":false,"is_disabled":false,"rental_uris":{"android":"levelo://app?vid=6f2daaf5-e681-4b56-870e-341f26850771","ios":"levelo://app?vid=6f2daaf5-e681-4b56-870e-341f26850771"},"vehicle_type_id":"4","last_reported":1683954380,"current_range_meters":30400,"station_id":"ce4bhap2rcd13ifvqek0","pricing_plan_id":"free"},{"bike_id":"3cacd10a-194d-4ff1-b6ed-416a601252e4","system_id":"levelo_inurba_marseille","lat":43.289184,"lon":5.366408,"is_reserved":false,"is_disabled":false,"rental_uris":{"android":"levelo://app?vid=3cacd10a-194d-4ff1-b6ed-416a601252e4","ios":"levelo://app?vid=3cacd10a-194d-4ff1-b6ed-416a601252e4"},"vehicle_type_id":"4","last_reported":1683954380,"current_range_meters":32000,"station_id":"ce4bhap2rcd13ifvqek0","pricing_plan_id":"free"},{"bike_id":"10a1106d-dcdc-4f65-812f-064798fa3892","system_id":"levelo_inurba_marseille","lat":43.289468,"lon":5.363719,"is_reserved":false,"is_disabled":false,"rental_uris":{"android":"levelo://app?vid=10a1106d-dcdc-4f65-812f-064798fa3892","ios":"levelo://app?vid=10a1106d-dcdc-4f65-812f-064798fa3892"},"vehicle_type_id":"4","last_reported":1683954380,"current_range_meters":28400,"station_id":"ce4bhc92rcd13ifvqetg","pricing_plan_id":"free"},{"bike_id":"0f21ed00-5fe3-492d-b845-cbabd5c58595","system_id":"levelo_inurba_marseille","lat":43.289468,"lon":5.363719,"is_reserved":false,"is_disabled":false,"rental_uris":{"android":"levelo://app?vid=0f21ed00-5fe3-492d-b845-cbabd5c58595","ios":"levelo://app?vid=0f21ed00-5fe3-492d-b845-cbabd5c58595"},"vehicle_type_id":"4","last_reported":1683954380,"current_range_meters":30400,"station_id":"ce4bhc92rcd13ifvqetg","pricing_plan_id":"free"},{"bike_id":"4bd08121-01c0-44b3-b00a-2ecfcb89cc44","system_id":"levelo_inurba_marseille","lat":43.33034,"lon":5.38919,"is_reserved":false,"is_disabled":false,"rental_uris":{"android":"levelo://app?vid=4bd08121-01c0-44b3-b00a-2ecfcb89cc44","ios":"levelo://app?vid=4bd08121-01c0-44b3-b00a-2ecfcb89cc44"},"vehicle_type_id":"4","last_reported":1683954380,"current_range_meters":31200,"station_id":"ce4bhr92rcd13ifvqhrg","pricing_plan_id":"free"},{"bike_id":"7dfb63d7-3cea-4571-aa06-76c88bd9f321","system_id":"levelo_inurba_marseille","lat":43.33039,"lon":5.3892,"is_reserved":false,"is_disabled":false,"rental_uris":{"android":"levelo://app?vid=7dfb63d7-3cea-4571-aa06-76c88bd9f321","ios":"levelo://app?vid=7dfb63d7-3cea-4571-aa06-76c88bd9f321"},"vehicle_type_id":"4","last_reported":1683954380,"current_range_meters":29600,"station_id":"ce4bhr92rcd13ifvqhrg","pricing_plan_id":"free"},{"bike_id":"882462cf-8249-4a28-9b3a-6c2a4c051853","system_id":"levelo_inurba_marseille","lat":43.33041,"lon":5.38918,"is_reserved":false,"is_disabled":false,"rental_uris":{"android":"levelo://app?vid=882462cf-8249-4a28-9b3a-6c2a4c051853","ios":"levelo://app?vid=882462cf-8249-4a28-9b3a-6c2a4c051853"},"vehicle_type_id":"4","last_reported":1683954380,"current_range_meters":31200,"station_id":"ce4bhr92rcd13ifvqhrg","pricing_plan_id":"free"},{"bike_id":"e6dac1d3-9317-4c33-b598-a69a1fb195a3","system_id":"levelo_inurba_marseille","lat":43.3304,"lon":5.3892,"is_reserved":false,"is_disabled":false,"rental_uris":{"android":"levelo://app?vid=e6dac1d3-9317-4c33-b598-a69a1fb195a3","ios":"levelo://app?vid=e6dac1d3-9317-4c33-b598-a69a1fb195a3"},"vehicle_type_id":"4","last_reported":1683954380,"current_range_meters":31200,"station_id":"ce4bhr92rcd13ifvqhrg","pricing_plan_id":"free"},{"bike_id":"251c73e6-6b31-4b39-9b4e-4125efc9dde4","system_id":"levelo_inurba_marseille","lat":43.330386,"lon":5.389223,"is_reserved":false,"is_disabled":false,"rental_uris":{"android":"levelo://app?vid=251c73e6-6b31-4b39-9b4e-4125efc9dde4","ios":"levelo://app?vid=251c73e6-6b31-4b39-9b4e-4125efc9dde4"},"vehicle_type_id":"4","last_reported":1683954380,"current_range_meters":31200,"station_id":"ce4bhr92rcd13ifvqhrg","pricing_plan_id":"free"},{"bike_id":"99d11ff8-cd4f-4243-907c-822c17bc769b","system_id":"levelo_inurba_marseille","lat":43.33043,"lon":5.38917,"is_reserved":false,"is_disabled":false,"rental_uris":{"android":"levelo://app?vid=99d11ff8-cd4f-4243-907c-822c17bc769b","ios":"levelo://app?vid=99d11ff8-cd4f-4243-907c-822c17bc769b"},"vehicle_type_id":"4","last_reported":1683954380,"current_range_meters":22000,"station_id":"ce4bhr92rcd13ifvqhrg","pricing_plan_id":"free"},{"bike_id":"b8d0a2d7-4443-405c-9e1e-71d351b2ac12","system_id":"levelo_inurba_marseille","lat":43.33039,"lon":5.38923,"is_reserved":false,"is_disabled":false,"rental_uris":{"android":"levelo://app?vid=b8d0a2d7-4443-405c-9e1e-71d351b2ac12","ios":"levelo://app?vid=b8d0a2d7-4443-405c-9e1e-71d351b2ac12"},"vehicle_type_id":"4","last_reported":1683954380,"current_range_meters":23200,"station_id":"ce4bhr92rcd13ifvqhrg","pricing_plan_id":"free"},{"bike_id":"754ef565-0150-4f0d-8c0d-a8a5d6927613","system_id":"levelo_inurba_marseille","lat":43.3304,"lon":5.38923,"is_reserved":false,"is_disabled":false,"rental_uris":{"android":"levelo://app?vid=754ef565-0150-4f0d-8c0d-a8a5d6927613","ios":"levelo://app?vid=754ef565-0150-4f0d-8c0d-a8a5d6927613"},"vehicle_type_id":"4","last_reported":1683954380,"current_range_meters":20400,"station_id":"ce4bhr92rcd13ifvqhrg","pricing_plan_id":"free"},{"bike_id":"d9c65fb5-b538-43a6-8b06-cce8ee9f5b2a","system_id":"levelo_inurba_marseille","lat":43.3304,"lon":5.38924,"is_reserved":false,"is_disabled":false,"rental_uris":{"android":"levelo://app?vid=d9c65fb5-b538-43a6-8b06-cce8ee9f5b2a","ios":"levelo://app?vid=d9c65fb5-b538-43a6-8b06-cce8ee9f5b2a"},"vehicle_type_id":"4","last_reported":1683954380,"current_range_meters":30800,"station_id":"ce4bhr92rcd13ifvqhrg","pricing_plan_id":"free"},{"bike_id":"5d1b3483-9ed8-4a5a-a091-5e7a294519b2","system_id":"levelo_inurba_marseille","lat":43.290104,"lon":5.356111,"is_reserved":false,"is_disabled":false,"rental_uris":{"android":"levelo://app?vid=5d1b3483-9ed8-4a5a-a091-5e7a294519b2","ios":"levelo://app?vid=5d1b3483-9ed8-4a5a-a091-5e7a294519b2"},"vehicle_type_id":"4","last_reported":1683954380,"current_range_meters":16800,"station_id":"ce4bhb92rcd13ifvqen0","pricing_plan_id":"free"},{"bike_id":"7acd5cc0-0437-4831-beeb-33c425da9dc9","system_id":"levelo_inurba_marseille","lat":43.28856,"lon":5.358371,"is_reserved":false,"is_disabled":false,"rental_uris":{"android":"levelo://app?vid=7acd5cc0-0437-4831-beeb-33c425da9dc9","ios":"levelo://app?vid=7acd5cc0-0437-4831-beeb-33c425da9dc9"},"vehicle_type_id":"4","last_reported":1683954380,"current_range_meters":30800,"station_id":"ce4bhb12rcd13ifvqem0","pricing_plan_id":"free"},{"bike_id":"f99c4a06-ba5a-4742-ab61-1e61f4fb774b","system_id":"levelo_inurba_marseille","lat":43.28856,"lon":5.358371,"is_reserved":false,"is_disabled":false,"rental_uris":{"android":"levelo://app?vid=f99c4a06-ba5a-4742-ab61-1e61f4fb774b","ios":"levelo://app?vid=f99c4a06-ba5a-4742-ab61-1e61f4fb774b"},"vehicle_type_id":"4","last_reported":1683954380,"current_range_meters":30800,"station_id":"ce4bhb12rcd13ifvqem0","pricing_plan_id":"free"},{"bike_id":"a2d8ae18-2c78-4a73-9e47-dc3caa42da4e","system_id":"levelo_inurba_marseille","lat":43.28856,"lon":5.358371,"is_reserved":false,"is_disabled":false,"rental_uris":{"android":"levelo://app?vid=a2d8ae18-2c78-4a73-9e47-dc3caa42da4e","ios":"levelo://app?vid=a2d8ae18-2c78-4a73-9e47-dc3caa42da4e"},"vehicle_type_id":"4","last_reported":1683954380,"current_range_meters":31200,"station_id":"ce4bhb12rcd13ifvqem0","pricing_plan_id":"free"},{"bike_id":"24317b23-d7ec-468d-af0f-1f6fb65d0270","system_id":"levelo_inurba_marseille","lat":43.28856,"lon":5.358371,"is_reserved":false,"is_disabled":false,"rental_uris":{"android":"levelo://app?vid=24317b23-d7ec-468d-af0f-1f6fb65d0270","ios":"levelo://app?vid=24317b23-d7ec-468d-af0f-1f6fb65d0270"},"vehicle_type_id":"4","last_reported":1683954380,"current_range_meters":29200,"station_id":"ce4bhb12rcd13ifvqem0","pricing_plan_id":"free"},{"bike_id":"97ca297c-8cf8-4bea-9b9e-5054b8a498d2","system_id":"levelo_inurba_marseille","lat":43.28856,"lon":5.358371,"is_reserved":false,"is_disabled":false,"rental_uris":{"android":"levelo://app?vid=97ca297c-8cf8-4bea-9b9e-5054b8a498d2","ios":"levelo://app?vid=97ca297c-8cf8-4bea-9b9e-5054b8a498d2"},"vehicle_type_id":"4","last_reported":1683954380,"current_range_meters":31600,"station_id":"ce4bhb12rcd13ifvqem0","pricing_plan_id":"free"},{"bike_id":"50b5244a-06b4-4d47-b990-bc579a5aeee8","system_id":"levelo_inurba_marseille","lat":43.33744,"lon":5.37478,"is_reserved":false,"is_disabled":false,"rental_uris":{"android":"levelo://app?vid=50b5244a-06b4-4d47-b990-bc579a5aeee8","ios":"levelo://app?vid=50b5244a-06b4-4d47-b990-bc579a5aeee8"},"vehicle_type_id":"4","last_reported":1683954380,"current_range_meters":30000,"station_id":"","pricing_plan_id":"free"},{"bike_id":"c2f47a43-1a25-412e-bad2-1279deeebbba","system_id":"levelo_inurba_marseille","lat":43.30642,"lon":5.401031,"is_reserved":false,"is_disabled":false,"rental_uris":{"android":"levelo://app?vid=c2f47a43-1a25-412e-bad2-1279deeebbba","ios":"levelo://app?vid=c2f47a43-1a25-412e-bad2-1279deeebbba"},"vehicle_type_id":"4","last_reported":1683954380,"current_range_meters":26000,"station_id":"ce4bh112rcd13ifvqda0","pricing_plan_id":"free"},{"bike_id":"64c62719-fb1a-42d2-bc39-a910b9837715","system_id":"levelo_inurba_marseille","lat":43.30642,"lon":5.401031,"is_reserved":false,"is_disabled":false,"rental_uris":{"android":"levelo://app?vid=64c62719-fb1a-42d2-bc39-a910b9837715","ios":"levelo://app?vid=64c62719-fb1a-42d2-bc39-a910b9837715"},"vehicle_type_id":"4","last_reported":1683954380,"current_range_meters":31600,"station_id":"ce4bh112rcd13ifvqda0","pricing_plan_id":"free"},{"bike_id":"92cd6143-29ea-47eb-af37-64baad7d96a6","system_id":"levelo_inurba_marseille","lat":43.30642,"lon":5.401031,"is_reserved":false,"is_disabled":false,"rental_uris":{"android":"levelo://app?vid=92cd6143-29ea-47eb-af37-64baad7d96a6","ios":"levelo://app?vid=92cd6143-29ea-47eb-af37-64baad7d96a6"},"vehicle_type_id":"4","last_reported":1683954380,"current_range_meters":12800,"station_id":"ce4bh112rcd13ifvqda0","pricing_plan_id":"free"},{"bike_id":"e6c9d3cd-2360-43e7-a0ea-c6cb7b1853ef","system_id":"levelo_inurba_marseille","lat":43.30642,"lon":5.401031,"is_reserved":false,"is_disabled":false,"rental_uris":{"android":"levelo://app?vid=e6c9d3cd-2360-43e7-a0ea-c6cb7b1853ef","ios":"levelo://app?vid=e6c9d3cd-2360-43e7-a0ea-c6cb7b1853ef"},"vehicle_type_id":"4","last_reported":1683954380,"current_range_meters":31600,"station_id":"ce4bh112rcd13ifvqda0","pricing_plan_id":"free"},{"bike_id":"e9c2c288-9384-47da-addb-79bcbd1e0132","system_id":"levelo_inurba_marseille","lat":43.30642,"lon":5.401031,"is_reserved":false,"is_disabled":false,"rental_uris":{"android":"levelo://app?vid=e9c2c288-9384-47da-addb-79bcbd1e0132","ios":"levelo://app?vid=e9c2c288-9384-47da-addb-79bcbd1e0132"},"vehicle_type_id":"4","last_reported":1683954380,"current_range_meters":14400,"station_id":"ce4bh112rcd13ifvqda0","pricing_plan_id":"free"},{"bike_id":"37685213-2695-489e-b585-63b4423b1758","system_id":"levelo_inurba_marseille","lat":43.30642,"lon":5.401031,"is_reserved":false,"is_disabled":false,"rental_uris":{"android":"levelo://app?vid=37685213-2695-489e-b585-63b4423b1758","ios":"levelo://app?vid=37685213-2695-489e-b585-63b4423b1758"},"vehicle_type_id":"4","last_reported":1683954380,"current_range_meters":21600,"station_id":"ce4bh112rcd13ifvqda0","pricing_plan_id":"free"},{"bike_id":"0c2d2bb7-5401-4d5a-8a06-22375ff5ed7f","system_id":"levelo_inurba_marseille","lat":43.30642,"lon":5.401031,"is_reserved":false,"is_disabled":false,"rental_uris":{"android":"levelo://app?vid=0c2d2bb7-5401-4d5a-8a06-22375ff5ed7f","ios":"levelo://app?vid=0c2d2bb7-5401-4d5a-8a06-22375ff5ed7f"},"vehicle_type_id":"4","last_reported":1683954380,"current_range_meters":22400,"station_id":"ce4bh112rcd13ifvqda0","pricing_plan_id":"free"},{"bike_id":"164d2ae3-c9c6-4eb7-8b99-e2bc4e84f0e6","system_id":"levelo_inurba_marseille","lat":43.33759,"lon":5.37445,"is_reserved":false,"is_disabled":false,"rental_uris":{"android":"levelo://app?vid=164d2ae3-c9c6-4eb7-8b99-e2bc4e84f0e6","ios":"levelo://app?vid=164d2ae3-c9c6-4eb7-8b99-e2bc4e84f0e6"},"vehicle_type_id":"4","last_reported":1683954380,"current_range_meters":11600,"station_id":"ce4rr2p2rcd13i802rgg","pricing_plan_id":"free"},{"bike_id":"dcf0a8c7-0856-4697-b5f4-085b6e499fa5","system_id":"levelo_inurba_marseille","lat":43.30642,"lon":5.401031,"is_reserved":false,"is_disabled":false,"rental_uris":{"android":"levelo://app?vid=dcf0a8c7-0856-4697-b5f4-085b6e499fa5","ios":"levelo://app?vid=dcf0a8c7-0856-4697-b5f4-085b6e499fa5"},"vehicle_type_id":"4","last_reported":1683954380,"current_range_meters":1600,"station_id":"ce4bh112rcd13ifvqda0","pricing_plan_id":"free"},{"bike_id":"58c75385-e42e-4a55-9764-48cdd5e34239","system_id":"levelo_inurba_marseille","lat":43.30642,"lon":5.401031,"is_reserved":false,"is_disabled":false,"rental_uris":{"android":"levelo://app?vid=58c75385-e42e-4a55-9764-48cdd5e34239","ios":"levelo://app?vid=58c75385-e42e-4a55-9764-48cdd5e34239"},"vehicle_type_id":"4","last_reported":1683954380,"current_range_meters":16400,"station_id":"ce4bh112rcd13ifvqda0","pricing_plan_id":"free"},{"bike_id":"7050c15b-a483-4d0c-a11b-097fc7e96ca2","system_id":"levelo_inurba_marseille","lat":43.33763,"lon":5.37441,"is_reserved":false,"is_disabled":false,"rental_uris":{"android":"levelo://app?vid=7050c15b-a483-4d0c-a11b-097fc7e96ca2","ios":"levelo://app?vid=7050c15b-a483-4d0c-a11b-097fc7e96ca2"},"vehicle_type_id":"4","last_reported":1683954380,"current_range_meters":2000,"station_id":"","pricing_plan_id":"free"},{"bike_id":"9fbc3d55-1138-42b2-a376-4bc021291936","system_id":"levelo_inurba_marseille","lat":43.30642,"lon":5.401031,"is_reserved":false,"is_disabled":false,"rental_uris":{"android":"levelo://app?vid=9fbc3d55-1138-42b2-a376-4bc021291936","ios":"levelo://app?vid=9fbc3d55-1138-42b2-a376-4bc021291936"},"vehicle_type_id":"4","last_reported":1683954380,"current_range_meters":31600,"station_id":"ce4bh112rcd13ifvqda0","pricing_plan_id":"free"},{"bike_id":"61231e31-1dc5-4e62-9c0e-94062e78d852","system_id":"levelo_inurba_marseille","lat":43.30642,"lon":5.401031,"is_reserved":false,"is_disabled":false,"rental_uris":{"android":"levelo://app?vid=61231e31-1dc5-4e62-9c0e-94062e78d852","ios":"levelo://app?vid=61231e31-1dc5-4e62-9c0e-94062e78d852"},"vehicle_type_id":"4","last_reported":1683954380,"current_range_meters":3200,"station_id":"ce4bh112rcd13ifvqda0","pricing_plan_id":"free"},{"bike_id":"4b812778-e94f-4f21-9be0-8d700e3bfbb2","system_id":"levelo_inurba_marseille","lat":43.301117,"lon":5.398795,"is_reserved":false,"is_disabled":false,"rental_uris":{"android":"levelo://app?vid=4b812778-e94f-4f21-9be0-8d700e3bfbb2","ios":"levelo://app?vid=4b812778-e94f-4f21-9be0-8d700e3bfbb2"},"vehicle_type_id":"4","last_reported":1683954380,"current_range_meters":27200,"station_id":"ce4bh0h2rcd13ifvqd40","pricing_plan_id":"free"},{"bike_id":"8bc305ae-216a-4d6d-81a3-9c194a97b1f5","system_id":"levelo_inurba_marseille","lat":43.301117,"lon":5.398795,"is_reserved":false,"is_disabled":false,"rental_uris":{"android":"levelo://app?vid=8bc305ae-216a-4d6d-81a3-9c194a97b1f5","ios":"levelo://app?vid=8bc305ae-216a-4d6d-81a3-9c194a97b1f5"},"vehicle_type_id":"4","last_reported":1683954380,"current_range_meters":31600,"station_id":"ce4bh0h2rcd13ifvqd40","pricing_plan_id":"free"},{"bike_id":"5f4c3671-8a26-40d3-9be7-c4cc2a8622d7","system_id":"levelo_inurba_marseille","lat":43.301117,"lon":5.398795,"is_reserved":false,"is_disabled":false,"rental_uris":{"android":"levelo://app?vid=5f4c3671-8a26-40d3-9be7-c4cc2a8622d7","ios":"levelo://app?vid=5f4c3671-8a26-40d3-9be7-c4cc2a8622d7"},"vehicle_type_id":"4","last_reported":1683954380,"current_range_meters":23200,"station_id":"ce4bh0h2rcd13ifvqd40","pricing_plan_id":"free"},{"bike_id":"1efab4e9-42c8-4a38-a166-647c42ab35ab","system_id":"levelo_inurba_marseille","lat":43.301117,"lon":5.398795,"is_reserved":false,"is_disabled":false,"rental_uris":{"android":"levelo://app?vid=1efab4e9-42c8-4a38-a166-647c42ab35ab","ios":"levelo://app?vid=1efab4e9-42c8-4a38-a166-647c42ab35ab"},"vehicle_type_id":"4","last_reported":1683954380,"current_range_meters":18000,"station_id":"ce4bh0h2rcd13ifvqd40","pricing_plan_id":"free"},{"bike_id":"9e9e22f2-e301-4d56-96df-2bff1df0a5e3","system_id":"levelo_inurba_marseille","lat":43.301117,"lon":5.398795,"is_reserved":false,"is_disabled":false,"rental_uris":{"android":"levelo://app?vid=9e9e22f2-e301-4d56-96df-2bff1df0a5e3","ios":"levelo://app?vid=9e9e22f2-e301-4d56-96df-2bff1df0a5e3"},"vehicle_type_id":"4","last_reported":1683954380,"current_range_meters":27600,"station_id":"ce4bh0h2rcd13ifvqd40","pricing_plan_id":"free"},{"bike_id":"cde86d52-673d-4e33-ba7e-c92b8339f92d","system_id":"levelo_inurba_marseille","lat":43.301117,"lon":5.398795,"is_reserved":false,"is_disabled":false,"rental_uris":{"android":"levelo://app?vid=cde86d52-673d-4e33-ba7e-c92b8339f92d","ios":"levelo://app?vid=cde86d52-673d-4e33-ba7e-c92b8339f92d"},"vehicle_type_id":"4","last_reported":1683954380,"current_range_meters":26400,"station_id":"ce4bh0h2rcd13ifvqd40","pricing_plan_id":"free"},{"bike_id":"3270acdd-556e-4246-b11b-748ba1d64719","system_id":"levelo_inurba_marseille","lat":43.301117,"lon":5.398795,"is_reserved":false,"is_disabled":false,"rental_uris":{"android":"levelo://app?vid=3270acdd-556e-4246-b11b-748ba1d64719","ios":"levelo://app?vid=3270acdd-556e-4246-b11b-748ba1d64719"},"vehicle_type_id":"4","last_reported":1683954380,"current_range_meters":32000,"station_id":"ce4bh0h2rcd13ifvqd40","pricing_plan_id":"free"},{"bike_id":"f1a1c85c-209d-480e-9dc8-4c07450f7de1","system_id":"levelo_inurba_marseille","lat":43.301117,"lon":5.398795,"is_reserved":false,"is_disabled":false,"rental_uris":{"android":"levelo://app?vid=f1a1c85c-209d-480e-9dc8-4c07450f7de1","ios":"levelo://app?vid=f1a1c85c-209d-480e-9dc8-4c07450f7de1"},"vehicle_type_id":"4","last_reported":1683954380,"current_range_meters":18400,"station_id":"ce4bh0h2rcd13ifvqd40","pricing_plan_id":"free"},{"bike_id":"208fe7e5-8005-421f-ab2a-609510e2c210","system_id":"levelo_inurba_marseille","lat":43.30642,"lon":5.401031,"is_reserved":false,"is_disabled":false,"rental_uris":{"android":"levelo://app?vid=208fe7e5-8005-421f-ab2a-609510e2c210","ios":"levelo://app?vid=208fe7e5-8005-421f-ab2a-609510e2c210"},"vehicle_type_id":"4","last_reported":1683954380,"current_range_meters":12400,"station_id":"ce4bh112rcd13ifvqda0","pricing_plan_id":"free"},{"bike_id":"d5e8455f-f565-4ec3-9b74-ebc53e3154e5","system_id":"levelo_inurba_marseille","lat":43.298681,"lon":5.397225,"is_reserved":false,"is_disabled":false,"rental_uris":{"android":"levelo://app?vid=d5e8455f-f565-4ec3-9b74-ebc53e3154e5","ios":"levelo://app?vid=d5e8455f-f565-4ec3-9b74-ebc53e3154e5"},"vehicle_type_id":"4","last_reported":1683954380,"current_range_meters":30000,"station_id":"ce4bh0h2rcd13ifvqd50","pricing_plan_id":"free"},{"bike_id":"597d531c-89d8-4004-8ce7-612a553a5e38","system_id":"levelo_inurba_marseille","lat":43.286593,"lon":5.363346,"is_reserved":false,"is_disabled":false,"rental_uris":{"android":"levelo://app?vid=597d531c-89d8-4004-8ce7-612a553a5e38","ios":"levelo://app?vid=597d531c-89d8-4004-8ce7-612a553a5e38"},"vehicle_type_id":"4","last_reported":1683954380,"current_range_meters":30000,"station_id":"ce4bhah2rcd13ifvqej0","pricing_plan_id":"free"},{"bike_id":"f0a9c211-7fe7-44e0-9cf4-8df9763f7ece","system_id":"levelo_inurba_marseille","lat":43.298681,"lon":5.397225,"is_reserved":false,"is_disabled":false,"rental_uris":{"android":"levelo://app?vid=f0a9c211-7fe7-44e0-9cf4-8df9763f7ece","ios":"levelo://app?vid=f0a9c211-7fe7-44e0-9cf4-8df9763f7ece"},"vehicle_type_id":"4","last_reported":1683954380,"current_range_meters":29200,"station_id":"ce4bh0h2rcd13ifvqd50","pricing_plan_id":"free"},{"bike_id":"ac2dec49-25f3-4715-b3d5-be556a5cacc4","system_id":"levelo_inurba_marseille","lat":43.298681,"lon":5.397225,"is_reserved":false,"is_disabled":false,"rental_uris":{"android":"levelo://app?vid=ac2dec49-25f3-4715-b3d5-be556a5cacc4","ios":"levelo://app?vid=ac2dec49-25f3-4715-b3d5-be556a5cacc4"},"vehicle_type_id":"4","last_reported":1683954380,"current_range_meters":31200,"station_id":"ce4bh0h2rcd13ifvqd50","pricing_plan_id":"free"},{"bike_id":"cf66a268-3e7d-4c31-9c75-bf0669ff4c60","system_id":"levelo_inurba_marseille","lat":43.298681,"lon":5.397225,"is_reserved":false,"is_disabled":false,"rental_uris":{"android":"levelo://app?vid=cf66a268-3e7d-4c31-9c75-bf0669ff4c60","ios":"levelo://app?vid=cf66a268-3e7d-4c31-9c75-bf0669ff4c60"},"vehicle_type_id":"4","last_reported":1683954380,"current_range_meters":29600,"station_id":"ce4bh0h2rcd13ifvqd50","pricing_plan_id":"free"},{"bike_id":"82702313-9d36-40e5-a17f-8d8fc6b16290","system_id":"levelo_inurba_marseille","lat":43.298681,"lon":5.397225,"is_reserved":false,"is_disabled":false,"rental_uris":{"android":"levelo://app?vid=82702313-9d36-40e5-a17f-8d8fc6b16290","ios":"levelo://app?vid=82702313-9d36-40e5-a17f-8d8fc6b16290"},"vehicle_type_id":"4","last_reported":1683954380,"current_range_meters":30400,"station_id":"ce4bh0h2rcd13ifvqd50","pricing_plan_id":"free"},{"bike_id":"3f28ad14-1123-45ce-a65b-ee25d5acc8be","system_id":"levelo_inurba_marseille","lat":43.298681,"lon":5.397225,"is_reserved":false,"is_disabled":false,"rental_uris":{"android":"levelo://app?vid=3f28ad14-1123-45ce-a65b-ee25d5acc8be","ios":"levelo://app?vid=3f28ad14-1123-45ce-a65b-ee25d5acc8be"},"vehicle_type_id":"4","last_reported":1683954380,"current_range_meters":30000,"station_id":"ce4bh0h2rcd13ifvqd50","pricing_plan_id":"free"},{"bike_id":"3e52a627-76fe-4310-b8d8-77141f88a3c2","system_id":"levelo_inurba_marseille","lat":43.286591,"lon":5.363346,"is_reserved":false,"is_disabled":false,"rental_uris":{"android":"levelo://app?vid=3e52a627-76fe-4310-b8d8-77141f88a3c2","ios":"levelo://app?vid=3e52a627-76fe-4310-b8d8-77141f88a3c2"},"vehicle_type_id":"4","last_reported":1683954380,"current_range_meters":31600,"station_id":"ce4bhah2rcd13ifvqej0","pricing_plan_id":"free"},{"bike_id":"40d1af8d-0635-4bd8-93fd-96f09f110e1c","system_id":"levelo_inurba_marseille","lat":43.286591,"lon":5.363346,"is_reserved":false,"is_disabled":false,"rental_uris":{"android":"levelo://app?vid=40d1af8d-0635-4bd8-93fd-96f09f110e1c","ios":"levelo://app?vid=40d1af8d-0635-4bd8-93fd-96f09f110e1c"},"vehicle_type_id":"4","last_reported":1683954380,"current_range_meters":31200,"station_id":"ce4bhah2rcd13ifvqej0","pricing_plan_id":"free"},{"bike_id":"eac308ef-a173-4d80-b6b5-502efc82aabd","system_id":"levelo_inurba_marseille","lat":43.298681,"lon":5.397225,"is_reserved":false,"is_disabled":false,"rental_uris":{"android":"levelo://app?vid=eac308ef-a173-4d80-b6b5-502efc82aabd","ios":"levelo://app?vid=eac308ef-a173-4d80-b6b5-502efc82aabd"},"vehicle_type_id":"4","last_reported":1683954380,"current_range_meters":28000,"station_id":"ce4bh0h2rcd13ifvqd50","pricing_plan_id":"free"},{"bike_id":"55643b25-e6c1-4269-9ea5-913d982e1fc1","system_id":"levelo_inurba_marseille","lat":43.286593,"lon":5.363346,"is_reserved":false,"is_disabled":false,"rental_uris":{"android":"levelo://app?vid=55643b25-e6c1-4269-9ea5-913d982e1fc1","ios":"levelo://app?vid=55643b25-e6c1-4269-9ea5-913d982e1fc1"},"vehicle_type_id":"4","last_reported":1683954380,"current_range_meters":30400,"station_id":"ce4bhah2rcd13ifvqej0","pricing_plan_id":"free"},{"bike_id":"73a6c017-fce9-40f4-a115-10f67526b06f","system_id":"levelo_inurba_marseille","lat":43.286593,"lon":5.363346,"is_reserved":false,"is_disabled":false,"rental_uris":{"android":"levelo://app?vid=73a6c017-fce9-40f4-a115-10f67526b06f","ios":"levelo://app?vid=73a6c017-fce9-40f4-a115-10f67526b06f"},"vehicle_type_id":"4","last_reported":1683954380,"current_range_meters":30400,"station_id":"ce4bhah2rcd13ifvqej0","pricing_plan_id":"free"},{"bike_id":"1fd8dc62-d899-44d4-9a43-26677c9c5aad","system_id":"levelo_inurba_marseille","lat":43.295194,"lon":5.39397,"is_reserved":false,"is_disabled":false,"rental_uris":{"android":"levelo://app?vid=1fd8dc62-d899-44d4-9a43-26677c9c5aad","ios":"levelo://app?vid=1fd8dc62-d899-44d4-9a43-26677c9c5aad"},"vehicle_type_id":"4","last_reported":1683954380,"current_range_meters":15600,"station_id":"ce4bh292rcd13ifvqdf0","pricing_plan_id":"free"},{"bike_id":"5aa1dfda-a1b1-4f60-90f5-8e5c6c24ec75","system_id":"levelo_inurba_marseille","lat":43.295194,"lon":5.39397,"is_reserved":false,"is_disabled":false,"rental_uris":{"android":"levelo://app?vid=5aa1dfda-a1b1-4f60-90f5-8e5c6c24ec75","ios":"levelo://app?vid=5aa1dfda-a1b1-4f60-90f5-8e5c6c24ec75"},"vehicle_type_id":"4","last_reported":1683954380,"current_range_meters":17600,"station_id":"ce4bh292rcd13ifvqdf0","pricing_plan_id":"free"},{"bike_id":"d87d5834-e3d8-4d3e-865d-fe9ab96adc36","system_id":"levelo_inurba_marseille","lat":43.302759,"lon":5.400793,"is_reserved":false,"is_disabled":false,"rental_uris":{"android":"levelo://app?vid=d87d5834-e3d8-4d3e-865d-fe9ab96adc36","ios":"levelo://app?vid=d87d5834-e3d8-4d3e-865d-fe9ab96adc36"},"vehicle_type_id":"4","last_reported":1683954380,"current_range_meters":31600,"station_id":"ce4bgvh2rcd13ifvqcs0","pricing_plan_id":"free"},{"bike_id":"5a58c497-1f90-4615-a85a-0d5b1ec0b08e","system_id":"levelo_inurba_marseille","lat":43.290336,"lon":5.386425,"is_reserved":false,"is_disabled":false,"rental_uris":{"android":"levelo://app?vid=5a58c497-1f90-4615-a85a-0d5b1ec0b08e","ios":"levelo://app?vid=5a58c497-1f90-4615-a85a-0d5b1ec0b08e"},"vehicle_type_id":"4","last_reported":1683954380,"current_range_meters":25200,"station_id":"ce4bh4p2rcd13ifvqe0g","pricing_plan_id":"free"},{"bike_id":"25862674-9661-42c7-883d-3dd8fe5b132a","system_id":"levelo_inurba_marseille","lat":43.302759,"lon":5.400793,"is_reserved":false,"is_disabled":false,"rental_uris":{"android":"levelo://app?vid=25862674-9661-42c7-883d-3dd8fe5b132a","ios":"levelo://app?vid=25862674-9661-42c7-883d-3dd8fe5b132a"},"vehicle_type_id":"4","last_reported":1683954380,"current_range_meters":21200,"station_id":"ce4bgvh2rcd13ifvqcs0","pricing_plan_id":"free"},{"bike_id":"4e5b5664-b4d2-4105-853f-c66cc68bf66d","system_id":"levelo_inurba_marseille","lat":43.302759,"lon":5.400793,"is_reserved":false,"is_disabled":false,"rental_uris":{"android":"levelo://app?vid=4e5b5664-b4d2-4105-853f-c66cc68bf66d","ios":"levelo://app?vid=4e5b5664-b4d2-4105-853f-c66cc68bf66d"},"vehicle_type_id":"4","last_reported":1683954380,"current_range_meters":17600,"station_id":"ce4bgvh2rcd13ifvqcs0","pricing_plan_id":"free"},{"bike_id":"c8cc8e1f-4d03-4d9d-af31-a2affa0c02e6","system_id":"levelo_inurba_marseille","lat":43.302759,"lon":5.400793,"is_reserved":false,"is_disabled":false,"rental_uris":{"android":"levelo://app?vid=c8cc8e1f-4d03-4d9d-af31-a2affa0c02e6","ios":"levelo://app?vid=c8cc8e1f-4d03-4d9d-af31-a2affa0c02e6"},"vehicle_type_id":"4","last_reported":1683954380,"current_range_meters":31600,"station_id":"ce4bgvh2rcd13ifvqcs0","pricing_plan_id":"free"},{"bike_id":"d9e0821c-e2dd-4e7a-abe7-d40d1f86b5a0","system_id":"levelo_inurba_marseille","lat":43.302759,"lon":5.400793,"is_reserved":false,"is_disabled":false,"rental_uris":{"android":"levelo://app?vid=d9e0821c-e2dd-4e7a-abe7-d40d1f86b5a0","ios":"levelo://app?vid=d9e0821c-e2dd-4e7a-abe7-d40d1f86b5a0"},"vehicle_type_id":"4","last_reported":1683954380,"current_range_meters":14000,"station_id":"ce4bgvh2rcd13ifvqcs0","pricing_plan_id":"free"},{"bike_id":"fadf8d75-db1f-4143-8a60-feb1d36da3db","system_id":"levelo_inurba_marseille","lat":43.302759,"lon":5.400793,"is_reserved":false,"is_disabled":false,"rental_uris":{"android":"levelo://app?vid=fadf8d75-db1f-4143-8a60-feb1d36da3db","ios":"levelo://app?vid=fadf8d75-db1f-4143-8a60-feb1d36da3db"},"vehicle_type_id":"4","last_reported":1683954380,"current_range_meters":400,"station_id":"ce4bgvh2rcd13ifvqcs0","pricing_plan_id":"free"},{"bike_id":"dcaf555e-6bd6-422d-b910-29a059a5efcd","system_id":"levelo_inurba_marseille","lat":43.302759,"lon":5.400793,"is_reserved":false,"is_disabled":false,"rental_uris":{"android":"levelo://app?vid=dcaf555e-6bd6-422d-b910-29a059a5efcd","ios":"levelo://app?vid=dcaf555e-6bd6-422d-b910-29a059a5efcd"},"vehicle_type_id":"4","last_reported":1683954380,"current_range_meters":7200,"station_id":"ce4bgvh2rcd13ifvqcs0","pricing_plan_id":"free"},{"bike_id":"e5b2995f-c846-4343-bf16-74b2b7376351","system_id":"levelo_inurba_marseille","lat":43.302759,"lon":5.400793,"is_reserved":false,"is_disabled":false,"rental_uris":{"android":"levelo://app?vid=e5b2995f-c846-4343-bf16-74b2b7376351","ios":"levelo://app?vid=e5b2995f-c846-4343-bf16-74b2b7376351"},"vehicle_type_id":"4","last_reported":1683954380,"current_range_meters":0,"station_id":"ce4bgvh2rcd13ifvqcs0","pricing_plan_id":"free"},{"bike_id":"6a80ca46-f2fc-45dd-a83e-39e46948f48f","system_id":"levelo_inurba_marseille","lat":43.302759,"lon":5.400793,"is_reserved":false,"is_disabled":false,"rental_uris":{"android":"levelo://app?vid=6a80ca46-f2fc-45dd-a83e-39e46948f48f","ios":"levelo://app?vid=6a80ca46-f2fc-45dd-a83e-39e46948f48f"},"vehicle_type_id":"4","last_reported":1683954380,"current_range_meters":4800,"station_id":"ce4bgvh2rcd13ifvqcs0","pricing_plan_id":"free"},{"bike_id":"8e852bb4-d6f4-4a26-8ab5-35c6194331cf","system_id":"levelo_inurba_marseille","lat":43.302759,"lon":5.400793,"is_reserved":false,"is_disabled":false,"rental_uris":{"android":"levelo://app?vid=8e852bb4-d6f4-4a26-8ab5-35c6194331cf","ios":"levelo://app?vid=8e852bb4-d6f4-4a26-8ab5-35c6194331cf"},"vehicle_type_id":"4","last_reported":1683954380,"current_range_meters":31600,"station_id":"ce4bgvh2rcd13ifvqcs0","pricing_plan_id":"free"},{"bike_id":"a1ece2b2-5a9a-447d-be78-32a223d3f638","system_id":"levelo_inurba_marseille","lat":43.302759,"lon":5.400793,"is_reserved":false,"is_disabled":false,"rental_uris":{"android":"levelo://app?vid=a1ece2b2-5a9a-447d-be78-32a223d3f638","ios":"levelo://app?vid=a1ece2b2-5a9a-447d-be78-32a223d3f638"},"vehicle_type_id":"4","last_reported":1683954380,"current_range_meters":32000,"station_id":"ce4bgvh2rcd13ifvqcs0","pricing_plan_id":"free"},{"bike_id":"d728d7b1-50c3-4279-9a71-814cd1a5adbf","system_id":"levelo_inurba_marseille","lat":43.302759,"lon":5.400793,"is_reserved":false,"is_disabled":false,"rental_uris":{"android":"levelo://app?vid=d728d7b1-50c3-4279-9a71-814cd1a5adbf","ios":"levelo://app?vid=d728d7b1-50c3-4279-9a71-814cd1a5adbf"},"vehicle_type_id":"4","last_reported":1683954380,"current_range_meters":30800,"station_id":"ce4bgvh2rcd13ifvqcs0","pricing_plan_id":"free"},