{"last_updated":1727766550,"ttl":60,"version":"2.2","data":{"bikes":[{"bike_id":"4c95d22f-e255-4c9f-aa3f-fb637b59bdd4","system_id":"levelo_inurba_marseille","lat":43.30462,"lon":5.37897,"is_reserved":false,"is_disabled":false,"rental_uris":{"android":"levelo://app?vid=4c95d22f-e255-4c9f-aa3f-fb637b59bdd4","ios":"levelo://app?vid=4c95d22f-e255-4c9f-aa3f-fb637b59bdd4"},"vehicle_type_id":"4","last_reported":1727766550,"current_range_meters":15200,"station_id":"ce4bgup2rcd13ifvqcn0","pricing_plan_id":"cebpf4jnsgd1na2vs0mg"},{"bike_id":"7697aaf4-2c3a-4942-9eaa-66a3c2608d19","system_id":"levelo_inurba_marseille","lat":43.29194,"lon":5.35805,"is_reserved":false,"is_disabled":false,"rental_uris":{"android":"levelo://app?vid=7697aaf4-2c3a-4942-9eaa-66a3c2608d19","ios":"levelo://app?vid=7697aaf4-2c3a-4942-9eaa-66a3c2608d19"},"vehicle_type_id":"4","last_reported":1727766550,"current_range_meters":7200,"station_id":"ce4bhb12rcd13ifvqel0","pricing_plan_id":"cebpf4jnsgd1na2vs0mg"},{"bike_id":"652c3740-0d7e-4603-8aeb-601924142787","system_id":"levelo_inurba_marseille","lat":43.282627,"lon":5.384142,"is_reserved":false,"is_disabled":false,"rental_uris":{"android":"levelo://app?vid=652c3740-0d7e-4603-8aeb-601924142787","ios":"levelo://app?vid=652c3740-0d7e-4603-8aeb-601924142787"},"vehicle_type_id":"4","last_reported":1727766550,"current_range_meters":31200,"station_id":"","pricing_plan_id":"cebpf4jnsgd1na2vs0mg"},{"bike_id":"45278508-ffed-42b8-b0fa-7766eabb2075","system_id":"levelo_inurba_marseille","lat":43.34136,"lon":5.40904,"is_reserved":false,"is_disabled":false,"rental_uris":{"android":"levelo://app?vid=45278508-ffed-42b8-b0fa-7766eabb2075","ios":"levelo://app?vid=45278508-ffed-42b8-b0fa-7766eabb2075"},"vehicle_type_id":"4","last_reported":1727766550,"current_range_meters":36000,"station_id":"ce4bhqh2rcd13ifvqhlg","pricing_plan_id":"cebpf4jnsgd1na2vs0mg"},{"bike_id":"a6fa0cf1-ec47-4817-9795-cad14a92d455","system_id":"levelo_inurba_marseille","lat":43.2808,"lon":5.39659,"is_reserved":false,"is_disabled":false,"rental_uris":{"android":"levelo://app?vid=a6fa0cf1-ec47-4817-9795-cad14a92d455","ios":"levelo://app?vid=a6fa0cf1-ec47-4817-9795-cad14a92d455"},"vehicle_type_id":"4","last_reported":1727766550,"current_range_meters":24000,"station_id":"ce4bho12rcd13ifvqh2g","pricing_plan_id":"cebpf4jnsgd1na2vs0mg"},{"bike_id":"513c5bd8-bf1f-4410-a827-c1858341840c","system_id":"levelo_inurba_marseille","lat":43.24386,"lon":5.37055,"is_reserved":false,"is_disabled":false,"rental_uris":{"android":"levelo://app?vid=513c5bd8-bf1f-4410-a827-c1858341840c","ios":"levelo://app?vid=513c5bd8-bf1f-4410-a827-c1858341840c"},"vehicle_type_id":"4","last_reported":1727766550,"current_range_meters":28400,"station_id":"ce4bhhh2rcd13ifvqfk0","pricing_plan_id":"cebpf4jnsgd1na2vs0mg"},{"bike_id":"f7ab1ff5-e3c9-48ef-bb52-3f7e8d2513a3","system_id":"levelo_inurba_marseille","lat":43.30553,"lon":5.36697,"is_reserved":false,"is_disabled":false,"rental_uris":{"android":"levelo://app?vid=f7ab1ff5-e3c9-48ef-bb52-3f7e8d2513a3","ios":"levelo://app?vid=f7ab1ff5-e3c9-48ef-bb52-3f7e8d2513a3"},"vehicle_type_id":"4","last_reported":1727766550,"current_range_meters":6800,"station_id":"ce4bgrp2rcd13ifvqc9g","pricing_plan_id":"cebpf4jnsgd1na2vs0mg"},{"bike_id":"281c3323-c4be-496f-8508-197acd04d04c","system_id":"levelo_inurba_marseille","lat":43.317,"lon":5.40473,"is_reserved":false,"is_disabled":false,"rental_uris":{"android":"levelo://app?vid=281c3323-c4be-496f-8508-197acd04d04c","ios":"levelo://app?vid=281c3323-c4be-496f-8508-197acd04d04c"},"vehicle_type_id":"4","last_reported":1727766550,"current_range_meters":22000,"station_id":"ce4bh012rcd13ifvqd00","pricing_plan_id":"cebpf4jnsgd1na2vs0mg"},{"bike_id":"0d31a271-58df-4c2e-a39b-bf4de9c34014","system_id":"levelo_inurba_marseille","lat":43.2417,"lon":5.36405,"is_reserved":false,"is_disabled":false,"rental_uris":{"android":"levelo://app?vid=0d31a271-58df-4c2e-a39b-bf4de9c34014","ios":"levelo://app?vid=0d31a271-58df-4c2e-a39b-bf4de9c34014"},"vehicle_type_id":"4","last_reported":1727766550,"current_range_meters":16400,"station_id":"cpo36qri1sfpv3e86is0","pricing_plan_id":"cebpf4jnsgd1na2vs0mg"},{"bike_id":"25f9f23c-4b19-46a6-97e3-06a702f41dc9","system_id":"levelo_inurba_marseille","lat":43.30471,"lon":5.379,"is_reserved":false,"is_disabled":false,"rental_uris":{"android":"levelo://app?vid=25f9f23c-4b19-46a6-97e3-06a702f41dc9","ios":"levelo://app?vid=25f9f23c-4b19-46a6-97e3-06a702f41dc9"},"vehicle_type_id":"4","last_reported":1727766550,"current_range_meters":26800,"station_id":"ce4bgup2rcd13ifvqcn0","pricing_plan_id":"cebpf4jnsgd1na2vs0mg"},{"bike_id":"27e22fd8-b976-4b3d-94ef-b910dbc7fdf8","system_id":"levelo_inurba_marseille","lat":43.272367,"lon":5.390675,"is_reserved":false,"is_disabled":false,"rental_uris":{"android":"levelo://app?vid=27e22fd8-b976-4b3d-94ef-b910dbc7fdf8","ios":"levelo://app?vid=27e22fd8-b976-4b3d-94ef-b910dbc7fdf8"},"vehicle_type_id":"4","last_reported":1727766550,"current_range_meters":32400,"station_id":"","pricing_plan_id":"cebpf4jnsgd1na2vs0mg"},{"bike_id":"0c0c737a-fe80-4a3f-b809-17ef2cb4eec7","system_id":"levelo_inurba_marseille","lat":43.31498,"lon":5.37299,"is_reserved":false,"is_disabled":false,"rental_uris":{"android":"levelo://app?vid=0c0c737a-fe80-4a3f-b809-17ef2cb4eec7","ios":"levelo://app?vid=0c0c737a-fe80-4a3f-b809-17ef2cb4eec7"},"vehicle_type_id":"4","last_reported":1727766550,"current_range_meters":36400,"station_id":"ce4bgt12rcd13ifvqcd0","pricing_plan_id":"cebpf4jnsgd1na2vs0mg"},{"bike_id":"6fc0ad42-2767-4eea-bbe6-f50e92ac93e4","system_id":"levelo_inurba_marseille","lat":43.29965,"lon":5.41322,"is_reserved":false,"is_disabled":false,"rental_uris":{"android":"levelo://app?vid=6fc0ad42-2767-4eea-bbe6-f50e92ac93e4","ios":"levelo://app?vid=6fc0ad42-2767-4eea-bbe6-f50e92ac93e4"},"vehicle_type_id":"4","last_reported":1727766550,"current_range_meters":38800,"station_id":"ce4bhp12rcd13ifvqh9g","pricing_plan_id":"cebpf4jnsgd1na2vs0mg"},{"bike_id":"2da5f1b3-c2a9-4899-ba79-a0ea0fb8b9dd","system_id":"levelo_inurba_marseille","lat":43.2408,"lon":5.37751,"is_reserved":false,"is_disabled":false,"rental_uris":{"android":"levelo://app?vid=2da5f1b3-c2a9-4899-ba79-a0ea0fb8b9dd","ios":"levelo://app?vid=2da5f1b3-c2a9-4899-ba79-a0ea0fb8b9dd"},"vehicle_type_id":"4","last_reported":1727766550,"current_range_meters":8000,"station_id":"ce4bhnp2rcd13ifvqgvg","pricing_plan_id":"cebpf4jnsgd1na2vs0mg"},{"bike_id":"5fc7f6b1-9a5d-442e-a59a-c5c71593d4b5","system_id":"levelo_inurba_marseille","lat":43.31011,"lon":5.37014,"is_reserved":false,"is_disabled":false,"rental_uris":{"android":"levelo://app?vid=5fc7f6b1-9a5d-442e-a59a-c5c71593d4b5","ios":"levelo://app?vid=5fc7f6b1-9a5d-442e-a59a-c5c71593d4b5"},"vehicle_type_id":"4","last_reported":1727766550,"current_range_meters":30400,"station_id":"","pricing_plan_id":"cebpf4jnsgd1na2vs0mg"},{"bike_id":"64ee29d5-dc36-4eca-b595-d58999ae65c1","system_id":"levelo_inurba_marseille","lat":43.31353,"lon":5.36717,"is_reserved":false,"is_disabled":false,"rental_uris":{"android":"levelo://app?vid=64ee29d5-dc36-4eca-b595-d58999ae65c1","ios":"levelo://app?vid=64ee29d5-dc36-4eca-b595-d58999ae65c1"},"vehicle_type_id":"4","last_reported":1727766550,"current_range_meters":36800,"station_id":"ce4bgr92rcd13ifvqc6g","pricing_plan_id":"cebpf4jnsgd1na2vs0mg"},{"bike_id":"9e03787a-2278-4bc0-9f90-d1b5cb4d5e8e","system_id":"levelo_inurba_marseille","lat":43.29882,"lon":5.37238,"is_reserved":false,"is_disabled":false,"rental_uris":{"android":"levelo://app?vid=9e03787a-2278-4bc0-9f90-d1b5cb4d5e8e","ios":"levelo://app?vid=9e03787a-2278-4bc0-9f90-d1b5cb4d5e8e"},"vehicle_type_id":"4","last_reported":1727766550,"current_range_meters":35200,"station_id":"ce4bgs12rcd13ifvqcag","pricing_plan_id":"cebpf4jnsgd1na2vs0mg"},{"bike_id":"a7c6e37b-63b1-4d51-b926-bcd9ab15fdf3","system_id":"levelo_inurba_marseille","lat":43.26785,"lon":5.39409,"is_reserved":false,"is_disabled":false,"rental_uris":{"android":"levelo://app?vid=a7c6e37b-63b1-4d51-b926-bcd9ab15fdf3","ios":"levelo://app?vid=a7c6e37b-63b1-4d51-b926-bcd9ab15fdf3"},"vehicle_type_id":"4","last_reported":1727766550,"current_range_meters":23200,"station_id":"ce4bhh12rcd13ifvqfg0","pricing_plan_id":"cebpf4jnsgd1na2vs0mg"},{"bike_id":"74dcd09d-9212-4b44-9964-c7ba6bc4fdfc","system_id":"levelo_inurba_marseille","lat":43.25943,"lon":5.40905,"is_reserved":false,"is_disabled":false,"rental_uris":{"android":"levelo://app?vid=74dcd09d-9212-4b44-9964-c7ba6bc4fdfc","ios":"levelo://app?vid=74dcd09d-9212-4b44-9964-c7ba6bc4fdfc"},"vehicle_type_id":"4","last_reported":1727766550,"current_range_meters":30800,"station_id":"ce4bhm92rcd13ifvqglg","pricing_plan_id":"cebpf4jnsgd1na2vs0mg"},{"bike_id":"068b2f9a-ba2d-481e-a87a-d34831ca26cb","system_id":"levelo_inurba_marseille","lat":43.30152,"lon":5.38077,"is_reserved":false,"is_disabled":false,"rental_uris":{"android":"levelo://app?vid=068b2f9a-ba2d-481e-a87a-d34831ca26cb","ios":"levelo://app?vid=068b2f9a-ba2d-481e-a87a-d34831ca26cb"},"vehicle_type_id":"4","last_reported":1727766550,"current_range_meters":24800,"station_id":"ce4bgjp2rcd13ifvqbh0","pricing_plan_id":"cebpf4jnsgd1na2vs0mg"},{"bike_id":"ef93b4d1-dc28-4d1d-9926-fd8b17aefb4c","system_id":"levelo_inurba_marseille","lat":43.30471,"lon":5.37911,"is_reserved":false,"is_disabled":false,"rental_uris":{"android":"levelo://app?vid=ef93b4d1-dc28-4d1d-9926-fd8b17aefb4c","ios":"levelo://app?vid=ef93b4d1-dc28-4d1d-9926-fd8b17aefb4c"},"vehicle_type_id":"4","last_reported":1727766550,"current_range_meters":38800,"station_id":"ce4bgup2rcd13ifvqcn0","pricing_plan_id":"cebpf4jnsgd1na2vs0mg"},{"bike_id":"0c02fcde-2e7f-44cc-97f3-a3fb7f90bf3f","system_id":"levelo_inurba_marseille","lat":43.30953,"lon":5.39026,"is_reserved":false,"is_disabled":false,"rental_uris":{"android":"levelo://app?vid=0c02fcde-2e7f-44cc-97f3-a3fb7f90bf3f","ios":"levelo://app?vid=0c02fcde-2e7f-44cc-97f3-a3fb7f90bf3f"},"vehicle_type_id":"4","last_reported":1727766550,"current_range_meters":4000,"station_id":"ce4bgup2rcd13ifvqco0","pricing_plan_id":"cebpf4jnsgd1na2vs0mg"},{"bike_id":"0a4c7289-b198-4b56-8a29-4f6b7719598b","system_id":"levelo_inurba_marseille","lat":43.27495,"lon":5.4245,"is_reserved":false,"is_disabled":false,"rental_uris":{"android":"levelo://app?vid=0a4c7289-b198-4b56-8a29-4f6b7719598b","ios":"levelo://app?vid=0a4c7289-b198-4b56-8a29-4f6b7719598b"},"vehicle_type_id":"4","last_reported":1727766550,"current_range_meters":24400,"station_id":"ce4bhn92rcd13ifvqgrg","pricing_plan_id":"cebpf4jnsgd1na2vs0mg"},{"bike_id":"3f5205da-c6a9-4034-acd8-b9e43a5c01dd","system_id":"levelo_inurba_marseille","lat":43.30475,"lon":5.37907,"is_reserved":false,"is_disabled":false,"rental_uris":{"android":"levelo://app?vid=3f5205da-c6a9-4034-acd8-b9e43a5c01dd","ios":"levelo://app?vid=3f5205da-c6a9-4034-acd8-b9e43a5c01dd"},"vehicle_type_id":"4","last_reported":1727766550,"current_range_meters":28400,"station_id":"ce4bgup2rcd13ifvqcn0","pricing_plan_id":"cebpf4jnsgd1na2vs0mg"},{"bike_id":"fa854877-8b5f-4b6b-a2c1-c8c6354a6bec","system_id":"levelo_inurba_marseille","lat":43.28935,"lon":5.36645,"is_reserved":false,"is_disabled":false,"rental_uris":{"android":"levelo://app?vid=fa854877-8b5f-4b6b-a2c1-c8c6354a6bec","ios":"levelo://app?vid=fa854877-8b5f-4b6b-a2c1-c8c6354a6bec"},"vehicle_type_id":"4","last_reported":1727766550,"current_range_meters":28400,"station_id":"ce4bhap2rcd13ifvqek0","pricing_plan_id":"cebpf4jnsgd1na2vs0mg"},{"bike_id":"6ab918ad-6b0d-4d12-b15c-67a2cccf6160","system_id":"levelo_inurba_marseille","lat":43.25938,"lon":5.40917,"is_reserved":false,"is_disabled":false,"rental_uris":{"android":"levelo://app?vid=6ab918ad-6b0d-4d12-b15c-67a2cccf6160","ios":"levelo://app?vid=6ab918ad-6b0d-4d12-b15c-67a2cccf6160"},"vehicle_type_id":"4","last_reported":1727766550,"current_range_meters":8000,"station_id":"ce4bhm92rcd13ifvqglg","pricing_plan_id":"cebpf4jnsgd1na2vs0mg"},{"bike_id":"3a2a10a5-6b1f-4bb7-9e95-436e732a6364","system_id":"levelo_inurba_marseille","lat":43.31883,"lon":5.40734,"is_reserved":false,"is_disabled":false,"rental_uris":{"android":"levelo://app?vid=3a2a10a5-6b1f-4bb7-9e95-436e732a6364","ios":"levelo://app?vid=3a2a10a5-6b1f-4bb7-9e95-436e732a6364"},"vehicle_type_id":"4","last_reported":1727766550,"current_range_meters":38800,"station_id":"ce4bhq12rcd13ifvqhig","pricing_plan_id":"cebpf4jnsgd1na2vs0mg"},{"bike_id":"fd1f1da8-a05c-4911-9180-f63a78a935e4","system_id":"levelo_inurba_marseille","lat":43.304382,"lon":5.388997,"is_reserved":false,"is_disabled":false,"rental_uris":{"android":"levelo://app?vid=fd1f1da8-a05c-4911-9180-f63a78a935e4","ios":"levelo://app?vid=fd1f1da8-a05c-4911-9180-f63a78a935e4"},"vehicle_type_id":"4","last_reported":1727766550,"current_range_meters":18800,"station_id":"ce4bgk12rcd13ifvqbi0","pricing_plan_id":"cebpf4jnsgd1na2vs0mg"},{"bike_id":"d49ec419-83f0-47b2-8f1f-c58c3704a30c","system_id":"levelo_inurba_marseille","lat":43.30534,"lon":5.36569,"is_reserved":false,"is_disabled":false,"rental_uris":{"android":"levelo://app?vid=d49ec419-83f0-47b2-8f1f-c58c3704a30c","ios":"levelo://app?vid=d49ec419-83f0-47b2-8f1f-c58c3704a30c"},"vehicle_type_id":"4","last_reported":1727766550,"current_range_meters":32400,"station_id":"ce4bgs12rcd13ifvqcag","pricing_plan_id":"cebpf4jnsgd1na2vs0mg"},{"bike_id":"7078a88a-c6ad-4e42-a03d-585647e9b75d","system_id":"levelo_inurba_marseille","lat":43.27487,"lon":5.42454,"is_reserved":false,"is_disabled":false,"rental_uris":{"android":"levelo://app?vid=7078a88a-c6ad-4e42-a03d-585647e9b75d","ios":"levelo://app?vid=7078a88a-c6ad-4e42-a03d-585647e9b75d"},"vehicle_type_id":"4","last_reported":1727766550,"current_range_meters":38800,"station_id":"ce4bhn92rcd13ifvqgrg","pricing_plan_id":"cebpf4jnsgd1na2vs0mg"},{"bike_id":"8b502fc4-6ea4-40e6-be32-3cbc353a5967","system_id":"levelo_inurba_marseille","lat":43.26684,"lon":5.3827,"is_reserved":false,"is_disabled":false,"rental_uris":{"android":"levelo://app?vid=8b502fc4-6ea4-40e6-be32-3cbc353a5967","ios":"levelo://app?vid=8b502fc4-6ea4-40e6-be32-3cbc353a5967"},"vehicle_type_id":"4","last_reported":1727766550,"current_range_meters":12800,"station_id":"ce4bhg92rcd13ifvqf90","pricing_plan_id":"cebpf4jnsgd1na2vs0mg"},{"bike_id":"1207ea17-bf06-4729-be5b-59d9a874cfcc","system_id":"levelo_inurba_marseille","lat":43.2439,"lon":5.37054,"is_reserved":false,"is_disabled":false,"rental_uris":{"android":"levelo://app?vid=1207ea17-bf06-4729-be5b-59d9a874cfcc","ios":"levelo://app?vid=1207ea17-bf06-4729-be5b-59d9a874cfcc"},"vehicle_type_id":"4","last_reported":1727766550,"current_range_meters":38800,"station_id":"ce4bhhh2rcd13ifvqfk0","pricing_plan_id":"cebpf4jnsgd1na2vs0mg"},{"bike_id":"9726eca4-be76-42e5-a9ea-2512c2e75295","system_id":"levelo_inurba_marseille","lat":43.283611,"lon":5.386368,"is_reserved":false,"is_disabled":false,"rental_uris":{"android":"levelo://app?vid=9726eca4-be76-42e5-a9ea-2512c2e75295","ios":"levelo://app?vid=9726eca4-be76-42e5-a9ea-2512c2e75295"},"vehicle_type_id":"4","last_reported":1727766550,"current_range_meters":22400,"station_id":"ce4bh492rcd13ifvqdvg","pricing_plan_id":"cebpf4jnsgd1na2vs0mg"},{"bike_id":"8b6093db-3634-446a-b668-55835c0dbcfb","system_id":"levelo_inurba_marseille","lat":43.25943,"lon":5.40899,"is_reserved":false,"is_disabled":false,"rental_uris":{"android":"levelo://app?vid=8b6093db-3634-446a-b668-55835c0dbcfb","ios":"levelo://app?vid=8b6093db-3634-446a-b668-55835c0dbcfb"},"vehicle_type_id":"4","last_reported":1727766550,"current_range_meters":8400,"station_id":"ce4bhm92rcd13ifvqglg","pricing_plan_id":"cebpf4jnsgd1na2vs0mg"},{"bike_id":"272171b1-58a1-4da7-8dad-ca6c7556be4a","system_id":"levelo_inurba_marseille","lat":43.29274,"lon":5.40111,"is_reserved":false,"is_disabled":false,"rental_uris":{"android":"levelo://app?vid=272171b1-58a1-4da7-8dad-ca6c7556be4a","ios":"levelo://app?vid=272171b1-58a1-4da7-8dad-ca6c7556be4a"},"vehicle_type_id":"4","last_reported":1727766550,"current_range_meters":36800,"station_id":"ce4bh312rcd13ifvqdk0","pricing_plan_id":"cebpf4jnsgd1na2vs0mg"},{"bike_id":"cebd3eee-4d43-48d2-bc20-08ae08a02893","system_id":"levelo_inurba_marseille","lat":43.33599,"lon":5.41025,"is_reserved":false,"is_disabled":false,"rental_uris":{"android":"levelo://app?vid=cebd3eee-4d43-48d2-bc20-08ae08a02893","ios":"levelo://app?vid=cebd3eee-4d43-48d2-bc20-08ae08a02893"},"vehicle_type_id":"4","last_reported":1727766550,"current_range_meters":9200,"station_id":"ce4bhqh2rcd13ifvqhmg","pricing_plan_id":"cebpf4jnsgd1na2vs0mg"},{"bike_id":"bdd561a9-978c-4c45-8115-60ced473fff2","system_id":"levelo_inurba_marseille","lat":43.28272,"lon":5.35063,"is_reserved":false,"is_disabled":false,"rental_uris":{"android":"levelo://app?vid=bdd561a9-978c-4c45-8115-60ced473fff2","ios":"levelo://app?vid=bdd561a9-978c-4c45-8115-60ced473fff2"},"vehicle_type_id":"4","last_reported":1727766550,"current_range_meters":6800,"station_id":"ce4bgrp2rcd13ifvqc9g","pricing_plan_id":"cebpf4jnsgd1na2vs0mg"},{"bike_id":"331bf754-18c5-49b3-a53c-f5ee9aaecd7b","system_id":"levelo_inurba_marseille","lat":43.31488,"lon":5.37292,"is_reserved":false,"is_disabled":false,"rental_uris":{"android":"levelo://app?vid=331bf754-18c5-49b3-a53c-f5ee9aaecd7b","ios":"levelo://app?vid=331bf754-18c5-49b3-a53c-f5ee9aaecd7b"},"vehicle_type_id":"4","last_reported":1727766550,"current_range_meters":36800,"station_id":"ce4bgt12rcd13ifvqcd0","pricing_plan_id":"cebpf4jnsgd1na2vs0mg"},{"bike_id":"5c3cfa4a-be88-419e-85e1-323de203fcdb","system_id":"levelo_inurba_marseille","lat":43.26949,"lon":5.38635,"is_reserved":false,"is_disabled":false,"rental_uris":{"android":"levelo://app?vid=5c3cfa4a-be88-419e-85e1-323de203fcdb","ios":"levelo://app?vid=5c3cfa4a-be88-419e-85e1-323de203fcdb"},"vehicle_type_id":"4","last_reported":1727766550,"current_range_meters":39200,"station_id":"ce4bhh92rcd13ifvqfh0","pricing_plan_id":"cebpf4jnsgd1na2vs0mg"},{"bike_id":"b38eb673-a2ae-4be1-a5ad-f720afc5b521","system_id":"levelo_inurba_marseille","lat":43.284607,"lon":5.392013,"is_reserved":false,"is_disabled":false,"rental_uris":{"android":"levelo://app?vid=b38eb673-a2ae-4be1-a5ad-f720afc5b521","ios":"levelo://app?vid=b38eb673-a2ae-4be1-a5ad-f720afc5b521"},"vehicle_type_id":"4","last_reported":1727766550,"current_range_meters":36800,"station_id":"ce4bgg92rcd13ifvqb30","pricing_plan_id":"cebpf4jnsgd1na2vs0mg"},{"bike_id":"e33b5774-bead-4005-8787-a219fad5a46e","system_id":"levelo_inurba_marseille","lat":43.22932,"lon":5.3538,"is_reserved":false,"is_disabled":false,"rental_uris":{"android":"levelo://app?vid=e33b5774-bead-4005-8787-a219fad5a46e","ios":"levelo://app?vid=e33b5774-bead-4005-8787-a219fad5a46e"},"vehicle_type_id":"4","last_reported":1727766550,"current_range_meters":37600,"station_id":"cpo3532slgdg3j2ikp40","pricing_plan_id":"cebpf4jnsgd1na2vs0mg"},{"bike_id":"ee4c39f0-bb30-48bd-be92-5e42c02027fc","system_id":"levelo_inurba_marseille","lat":43.26688,"lon":5.38269,"is_reserved":false,"is_disabled":false,"rental_uris":{"android":"levelo://app?vid=ee4c39f0-bb30-48bd-be92-5e42c02027fc","ios":"levelo://app?vid=ee4c39f0-bb30-48bd-be92-5e42c02027fc"},"vehicle_type_id":"4","last_reported":1727766550,"current_range_meters":3600,"station_id":"ce4bhg92rcd13ifvqf90","pricing_plan_id":"cebpf4jnsgd1na2vs0mg"},{"bike_id":"f91dac60-0c01-4b1c-b7ef-20cc3235c9da","system_id":"levelo_inurba_marseille","lat":43.25723,"lon":5.41112,"is_reserved":false,"is_disabled":false,"rental_uris":{"android":"levelo://app?vid=f91dac60-0c01-4b1c-b7ef-20cc3235c9da","ios":"levelo://app?vid=f91dac60-0c01-4b1c-b7ef-20cc3235c9da"},"vehicle_type_id":"4","last_reported":1727766550,"current_range_meters":28800,"station_id":"ce4bhkp2rcd13ifvqgd0","pricing_plan_id":"cebpf4jnsgd1na2vs0mg"},{"bike_id":"4ca8fc43-7223-4a26-9506-42cde5d42328","system_id":"levelo_inurba_marseille","lat":43.30462,"lon":5.37896,"is_reserved":false,"is_disabled":false,"rental_uris":{"android":"levelo://app?vid=4ca8fc43-7223-4a26-9506-42cde5d42328","ios":"levelo://app?vid=4ca8fc43-7223-4a26-9506-42cde5d42328"},"vehicle_type_id":"4","last_reported":1727766550,"current_range_meters":4000,"station_id":"ce4bgup2rcd13ifvqcn0","pricing_plan_id":"cebpf4jnsgd1na2vs0mg"},{"bike_id":"1dcdcf5f-3bcb-4a0d-b1b8-2ae7e82479ef","system_id":"levelo_inurba_marseille","lat":43.23159,"lon":5.437,"is_reserved":false,"is_disabled":false,"rental_uris":{"android":"levelo://app?vid=1dcdcf5f-3bcb-4a0d-b1b8-2ae7e82479ef","ios":"levelo://app?vid=1dcdcf5f-3bcb-4a0d-b1b8-2ae7e82479ef"},"vehicle_type_id":"4","last_reported":1727766550,"current_range_meters":19200,"station_id":"ce4bhmp2rcd13ifvqgog","pricing_plan_id":"cebpf4jnsgd1na2vs0mg"},{"bike_id":"61655881-16c9-4131-ab8d-8f63c999894c","system_id":"levelo_inurba_marseille","lat":43.30556,"lon":5.36523,"is_reserved":false,"is_disabled":false,"rental_uris":{"android":"levelo://app?vid=61655881-16c9-4131-ab8d-8f63c999894c","ios":"levelo://app?vid=61655881-16c9-4131-ab8d-8f63c999894c"},"vehicle_type_id":"4","last_reported":1727766550,"current_range_meters":39200,"station_id":"ce4bgs12rcd13ifvqcag","pricing_plan_id":"cebpf4jnsgd1na2vs0mg"},{"bike_id":"328a75fc-4fa3-49a2-a9a4-7442cdca4a6e","system_id":"levelo_inurba_marseille","lat":43.304724,"lon":5.379082,"is_reserved":false,"is_disabled":false,"rental_uris":{"android":"levelo://app?vid=328a75fc-4fa3-49a2-a9a4-7442cdca4a6e","ios":"levelo://app?vid=328a75fc-4fa3-49a2-a9a4-7442cdca4a6e"},"vehicle_type_id":"4","last_reported":1727766550,"current_range_meters":24400,"station_id":"ce4bgup2rcd13ifvqcn0","pricing_plan_id":"cebpf4jnsgd1na2vs0mg"},{"bike_id":"a1e449c9-30e5-460e-ba67-82a7d6db830f","system_id":"levelo_inurba_marseille","lat":43.2418,"lon":5.3973,"is_reserved":false,"is_disabled":false,"rental_uris":{"android":"levelo://app?vid=a1e449c9-30e5-460e-ba67-82a7d6db830f","ios":"levelo://app?vid=a1e449c9-30e5-460e-ba67-82a7d6db830f"},"vehicle_type_id":"4","last_reported":1727766550,"current_range_meters":29600,"station_id":"ce4bhn12rcd13ifvqgpg","pricing_plan_id":"cebpf4jnsgd1na2vs0mg"},{"bike_id":"be30166f-ceee-4e17-bed4-145fa4d704d0","system_id":"levelo_inurba_marseille","lat":43.3096,"lon":5.39036,"is_reserved":false,"is_disabled":false,"rental_uris":{"android":"levelo://app?vid=be30166f-ceee-4e17-bed4-145fa4d704d0","ios":"levelo://app?vid=be30166f-ceee-4e17-bed4-145fa4d704d0"},"vehicle_type_id":"4","last_reported":1727766550,"current_range_meters":24800,"station_id":"ce4bgup2rcd13ifvqco0","pricing_plan_id":"cebpf4jnsgd1na2vs0mg"},{"bike_id":"768cff63-f148-4f7e-b243-0c1a8cf24b93","system_id":"levelo_inurba_marseille","lat":43.29324,"lon":5.38878,"is_reserved":false,"is_disabled":false,"rental_uris":{"android":"levelo://app?vid=768cff63-f148-4f7e-b243-0c1a8cf24b93","ios":"levelo://app?vid=768cff63-f148-4f7e-b243-0c1a8cf24b93"},"vehicle_type_id":"4","last_reported":1727766550,"current_range_meters":36400,"station_id":"ce4bh392rcd13ifvqdl0","pricing_plan_id":"cebpf4jnsgd1na2vs0mg"},{"bike_id":"7fb5d065-2ef8-4492-8b6f-c63a16373982","system_id":"levelo_inurba_marseille","lat":43.30532,"lon":5.3654,"is_reserved":false,"is_disabled":false,"rental_uris":{"android":"levelo://app?vid=7fb5d065-2ef8-4492-8b6f-c63a16373982","ios":"levelo://app?vid=7fb5d065-2ef8-4492-8b6f-c63a16373982"},"vehicle_type_id":"4","last_reported":1727766550,"current_range_meters":39200,"station_id":"ce4bgs12rcd13ifvqcag","pricing_plan_id":"cebpf4jnsgd1na2vs0mg"},{"bike_id":"d8285c63-02a2-491c-9bc0-32f3484f5dab","system_id":"levelo_inurba_marseille","lat":43.28727,"lon":5.36097,"is_reserved":false,"is_disabled":false,"rental_uris":{"android":"levelo://app?vid=d8285c63-02a2-491c-9bc0-32f3484f5dab","ios":"levelo://app?vid=d8285c63-02a2-491c-9bc0-32f3484f5dab"},"vehicle_type_id":"4","last_reported":1727766550,"current_range_meters":36400,"station_id":"cki0cbj6b192h4jlfktg","pricing_plan_id":"cebpf4jnsgd1na2vs0mg"},{"bike_id":"e17d2d3d-fbf7-414a-bb9b-f7b19bbb1986","system_id":"levelo_inurba_marseille","lat":43.27497,"lon":5.42448,"is_reserved":false,"is_disabled":false,"rental_uris":{"android":"levelo://app?vid=e17d2d3d-fbf7-414a-bb9b-f7b19bbb1986","ios":"levelo://app?vid=e17d2d3d-fbf7-414a-bb9b-f7b19bbb1986"},"vehicle_type_id":"4","last_reported":1727766550,"current_range_meters":33200,"station_id":"ce4bhn92rcd13ifvqgrg","pricing_plan_id":"cebpf4jnsgd1na2vs0mg"},{"bike_id":"07788736-eb50-4db6-a2cc-abf82ff5d71c","system_id":"levelo_inurba_marseille","lat":43.26782,"lon":5.39408,"is_reserved":false,"is_disabled":false,"rental_uris":{"android":"levelo://app?vid=07788736-eb50-4db6-a2cc-abf82ff5d71c","ios":"levelo://app?vid=07788736-eb50-4db6-a2cc-abf82ff5d71c"},"vehicle_type_id":"4","last_reported":1727766550,"current_range_meters":26800,"station_id":"ce4bhh12rcd13ifvqfg0","pricing_plan_id":"cebpf4jnsgd1na2vs0mg"},{"bike_id":"f8f20fa6-f1d5-43f8-9c31-1ab159b24e4b","system_id":"levelo_inurba_marseille","lat":43.30966,"lon":5.3704,"is_reserved":false,"is_disabled":false,"rental_uris":{"android":"levelo://app?vid=f8f20fa6-f1d5-43f8-9c31-1ab159b24e4b","ios":"levelo://app?vid=f8f20fa6-f1d5-43f8-9c31-1ab159b24e4b"},"vehicle_type_id":"4","last_reported":1727766550,"current_range_meters":8000,"station_id":"","pricing_plan_id":"cebpf4jnsgd1na2vs0mg"},{"bike_id":"e5cd0a82-42c2-493c-a761-be55fa0815dd","system_id":"levelo_inurba_marseille","lat":43.26579,"lon":5.39012,"is_reserved":false,"is_disabled":false,"rental_uris":{"android":"levelo://app?vid=e5cd0a82-42c2-493c-a761-be55fa0815dd","ios":"levelo://app?vid=e5cd0a82-42c2-493c-a761-be55fa0815dd"},"vehicle_type_id":"4","last_reported":1727766550,"current_range_meters":34800,"station_id":"ce4bhe12rcd13ifvqf30","pricing_plan_id":"cebpf4jnsgd1na2vs0mg"},{"bike_id":"5fc93a89-0253-4e0f-905f-a5855f039bf0","system_id":"levelo_inurba_marseille","lat":43.27496,"lon":5.42449,"is_reserved":false,"is_disabled":false,"rental_uris":{"android":"levelo://app?vid=5fc93a89-0253-4e0f-905f-a5855f039bf0","ios":"levelo://app?vid=5fc93a89-0253-4e0f-905f-a5855f039bf0"},"vehicle_type_id":"4","last_reported":1727766550,"current_range_meters":30800,"station_id":"ce4bhn92rcd13ifvqgrg","pricing_plan_id":"cebpf4jnsgd1na2vs0mg"},{"bike_id":"853cf96b-ee3e-43d5-80c0-0d2eb2a61897","system_id":"levelo_inurba_marseille","lat":43.24074,"lon":5.37758,"is_reserved":false,"is_disabled":false,"rental_uris":{"android":"levelo://app?vid=853cf96b-ee3e-43d5-80c0-0d2eb2a61897","ios":"levelo://app?vid=853cf96b-ee3e-43d5-80c0-0d2eb2a61897"},"vehicle_type_id":"4","last_reported":1727766550,"current_range_meters":27600,"station_id":"ce4bhnp2rcd13ifvqgvg","pricing_plan_id":"cebpf4jnsgd1na2vs0mg"},{"bike_id":"87737568-8ce8-4c84-8e96-2159eb0626f2","system_id":"levelo_inurba_marseille","lat":43.30147,"lon":5.38085,"is_reserved":false,"is_disabled":false,"rental_uris":{"android":"levelo://app?vid=87737568-8ce8-4c84-8e96-2159eb0626f2","ios":"levelo://app?vid=87737568-8ce8-4c84-8e96-2159eb0626f2"},"vehicle_type_id":"4","last_reported":1727766550,"current_range_meters":36000,"station_id":"ce4bgjp2rcd13ifvqbh0","pricing_plan_id":"cebpf4jnsgd1na2vs0mg"},{"bike_id":"baed5e1e-d0e2-467f-8894-dc5c0c525beb","system_id":"levelo_inurba_marseille","lat":43.279354,"lon":5.392483,"is_reserved":false,"is_disabled":false,"rental_uris":{"android":"levelo://app?vid=baed5e1e-d0e2-467f-8894-dc5c0c525beb","ios":"levelo://app?vid=baed5e1e-d0e2-467f-8894-dc5c0c525beb"},"vehicle_type_id":"4","last_reported":1727766550,"current_range_meters":24400,"station_id":"ce4bhjp2rcd13ifvqga0","pricing_plan_id":"cebpf4jnsgd1na2vs0mg"},{"bike_id":"5d34d44a-5657-4046-9997-746fa7323ea5","system_id":"levelo_inurba_marseille","lat":43.32549,"lon":5.41414,"is_reserved":false,"is_disabled":false,"rental_uris":{"android":"levelo://app?vid=5d34d44a-5657-4046-9997-746fa7323ea5","ios":"levelo://app?vid=5d34d44a-5657-4046-9997-746fa7323ea5"},"vehicle_type_id":"4","last_reported":1727766550,"current_range_meters":37600,"station_id":"ce4bhq12rcd13ifvqhhg","pricing_plan_id":"cebpf4jnsgd1na2vs0mg"},{"bike_id":"ca5ae2be-2a47-4994-8010-7ccd8bf83efe","system_id":"levelo_inurba_marseille","lat":43.24078,"lon":5.37752,"is_reserved":false,"is_disabled":false,"rental_uris":{"android":"levelo://app?vid=ca5ae2be-2a47-4994-8010-7ccd8bf83efe","ios":"levelo://app?vid=ca5ae2be-2a47-4994-8010-7ccd8bf83efe"},"vehicle_type_id":"4","last_reported":1727766550,"current_range_meters":4400,"station_id":"ce4bhnp2rcd13ifvqgvg","pricing_plan_id":"cebpf4jnsgd1na2vs0mg"},{"bike_id":"7f22fe26-60be-4e80-bc02-56eb1bf11ce6","system_id":"levelo_inurba_marseille","lat":43.25106,"lon":5.40328,"is_reserved":false,"is_disabled":false,"rental_uris":{"android":"levelo://app?vid=7f22fe26-60be-4e80-bc02-56eb1bf11ce6","ios":"levelo://app?vid=7f22fe26-60be-4e80-bc02-56eb1bf11ce6"},"vehicle_type_id":"4","last_reported":1727766550,"current_range_meters":38800,"station_id":"ce4bhlh2rcd13ifvqgig","pricing_plan_id":"cebpf4jnsgd1na2vs0mg"},{"bike_id":"a85ce21b-5ed7-46cd-a8e6-5ed48ca6beaf","system_id":"levelo_inurba_marseille","lat":43.26783,"lon":5.39422,"is_reserved":false,"is_disabled":false,"rental_uris":{"android":"levelo://app?vid=a85ce21b-5ed7-46cd-a8e6-5ed48ca6beaf","ios":"levelo://app?vid=a85ce21b-5ed7-46cd-a8e6-5ed48ca6beaf"},"vehicle_type_id":"4","last_reported":1727766550,"current_range_meters":38000,"station_id":"ce4bhh12rcd13ifvqfg0","pricing_plan_id":"cebpf4jnsgd1na2vs0mg"},{"bike_id":"63f10e86-8660-4331-a40e-1476b016bc7b","system_id":"levelo_inurba_marseille","lat":43.23424,"lon":5.35935,"is_reserved":false,"is_disabled":false,"rental_uris":{"android":"levelo://app?vid=63f10e86-8660-4331-a40e-1476b016bc7b","ios":"levelo://app?vid=63f10e86-8660-4331-a40e-1476b016bc7b"},"vehicle_type_id":"4","last_reported":1727766550,"current_range_meters":32000,"station_id":"","pricing_plan_id":"cebpf4jnsgd1na2vs0mg"},{"bike_id":"b1f09baf-efb6-4048-8222-4ed4e16cbf39","system_id":"levelo_inurba_marseille","lat":43.23153,"lon":5.43706,"is_reserved":false,"is_disabled":false,"rental_uris":{"android":"levelo://app?vid=b1f09baf-efb6-4048-8222-4ed4e16cbf39","ios":"levelo://app?vid=b1f09baf-efb6-4048-8222-4ed4e16cbf39"},"vehicle_type_id":"4","last_reported":1727766550,"current_range_meters":10000,"station_id":"ce4bhmp2rcd13ifvqgog","pricing_plan_id":"cebpf4jnsgd1na2vs0mg"},{"bike_id":"b7087556-b0d0-4f22-8a63-a19f5e53adb4","system_id":"levelo_inurba_marseille","lat":43.30146,"lon":5.38077,"is_reserved":false,"is_disabled":false,"rental_uris":{"android":"levelo://app?vid=b7087556-b0d0-4f22-8a63-a19f5e53adb4","ios":"levelo://app?vid=b7087556-b0d0-4f22-8a63-a19f5e53adb4"},"vehicle_type_id":"4","last_reported":1727766550,"current_range_meters":4000,"station_id":"ce4bgjp2rcd13ifvqbh0","pricing_plan_id":"cebpf4jnsgd1na2vs0mg"},{"bike_id":"cb95f142-2b63-4177-89ba-b388c4ddd7ce","system_id":"levelo_inurba_marseille","lat":43.28349,"lon":5.3811,"is_reserved":false,"is_disabled":false,"rental_uris":{"android":"levelo://app?vid=cb95f142-2b63-4177-89ba-b388c4ddd7ce","ios":"levelo://app?vid=cb95f142-2b63-4177-89ba-b388c4ddd7ce"},"vehicle_type_id":"4","last_reported":1727766550,"current_range_meters":33600,"station_id":"ce4bh412rcd13ifvqdr0","pricing_plan_id":"cebpf4jnsgd1na2vs0mg"},{"bike_id":"d0babadb-8879-488e-92f8-d76769a9b0e4","system_id":"levelo_inurba_marseille","lat":43.30546,"lon":5.36564,"is_reserved":false,"is_disabled":false,"rental_uris":{"android":"levelo://app?vid=d0babadb-8879-488e-92f8-d76769a9b0e4","ios":"levelo://app?vid=d0babadb-8879-488e-92f8-d76769a9b0e4"},"vehicle_type_id":"4","last_reported":1727766550,"current_range_meters":35600,"station_id":"ce4bgs12rcd13ifvqcag","pricing_plan_id":"cebpf4jnsgd1na2vs0mg"},{"bike_id":"0768601a-63fc-48b6-af0b-e3c24f752213","system_id":"levelo_inurba_marseille","lat":43.33708,"lon":5.3917,"is_reserved":false,"is_disabled":false,"rental_uris":{"android":"levelo://app?vid=0768601a-63fc-48b6-af0b-e3c24f752213","ios":"levelo://app?vid=0768601a-63fc-48b6-af0b-e3c24f752213"},"vehicle_type_id":"4","last_reported":1727766550,"current_range_meters":8400,"station_id":"","pricing_plan_id":"cebpf4jnsgd1na2vs0mg"},{"bike_id":"338c802c-f8cb-430f-a8d1-f33bdd0ead8a","system_id":"levelo_inurba_marseille","lat":43.24392,"lon":5.3706,"is_reserved":false,"is_disabled":false,"rental_uris":{"android":"levelo://app?vid=338c802c-f8cb-430f-a8d1-f33bdd0ead8a","ios":"levelo://app?vid=338c802c-f8cb-430f-a8d1-f33bdd0ead8a"},"vehicle_type_id":"4","last_reported":1727766550,"current_range_meters":38400,"station_id":"ce4bhhh2rcd13ifvqfk0","pricing_plan_id":"cebpf4jnsgd1na2vs0mg"},{"bike_id":"cf740515-5e56-4b38-b555-e264deda868f","system_id":"levelo_inurba_marseille","lat":43.30947,"lon":5.39025,"is_reserved":false,"is_disabled":false,"rental_uris":{"android":"levelo://app?vid=cf740515-5e56-4b38-b555-e264deda868f","ios":"levelo://app?vid=cf740515-5e56-4b38-b555-e264deda868f"},"vehicle_type_id":"4","last_reported":1727766550,"current_range_meters":32000,"station_id":"ce4bgup2rcd13ifvqco0","pricing_plan_id":"cebpf4jnsgd1na2vs0mg"},{"bike_id":"3bbff9ba-8067-48bf-bb10-bd518c35e81d","system_id":"levelo_inurba_marseille","lat":43.30154,"lon":5.38082,"is_reserved":false,"is_disabled":false,"rental_uris":{"android":"levelo://app?vid=3bbff9ba-8067-48bf-bb10-bd518c35e81d","ios":"levelo://app?vid=3bbff9ba-8067-48bf-bb10-bd518c35e81d"},"vehicle_type_id":"4","last_reported":1727766550,"current_range_meters":37600,"station_id":"ce4bgjp2rcd13ifvqbh0","pricing_plan_id":"cebpf4jnsgd1na2vs0mg"},{"bike_id":"1e37e45a-ffba-4ff3-bbd3-5a2788cc89b2","system_id":"levelo_inurba_marseille","lat":43.33604,"lon":5.41019,"is_reserved":false,"is_disabled":false,"rental_uris":{"android":"levelo://app?vid=1e37e45a-ffba-4ff3-bbd3-5a2788cc89b2","ios":"levelo://app?vid=1e37e45a-ffba-4ff3-bbd3-5a2788cc89b2"},"vehicle_type_id":"4","last_reported":1727766550,"current_range_meters":39200,"station_id":"ce4bhqh2rcd13ifvqhmg","pricing_plan_id":"cebpf4jnsgd1na2vs0mg"},{"bike_id":"96cbd409-dc0b-46c5-957e-3bb895eba7ac","system_id":"levelo_inurba_marseille","lat":43.30882,"lon":5.39668,"is_reserved":false,"is_disabled":false,"rental_uris":{"android":"levelo://app?vid=96cbd409-dc0b-46c5-957e-3bb895eba7ac","ios":"levelo://app?vid=96cbd409-dc0b-46c5-957e-3bb895eba7ac"},"vehicle_type_id":"4","last_reported":1727766550,"current_range_meters":33600,"station_id":"","pricing_plan_id":"cebpf4jnsgd1na2vs0mg"},{"bike_id":"4f7d1635-9c7c-4564-98f8-f043fd5253d5","system_id":"levelo_inurba_marseille","lat":43.31354,"lon":5.36715,"is_reserved":false,"is_disabled":false,"rental_uris":{"android":"levelo://app?vid=4f7d1635-9c7c-4564-98f8-f043fd5253d5","ios":"levelo://app?vid=4f7d1635-9c7c-4564-98f8-f043fd5253d5"},"vehicle_type_id":"4","last_reported":1727766550,"current_range_meters":19600,"station_id":"ce4bgr92rcd13ifvqc6g","pricing_plan_id":"cebpf4jnsgd1na2vs0mg"},{"bike_id":"c3efae4e-1fa8-4c63-9762-e375703c1cb6","system_id":"levelo_inurba_marseille","lat":43.30278,"lon":5.37702,"is_reserved":false,"is_disabled":false,"rental_uris":{"android":"levelo://app?vid=c3efae4e-1fa8-4c63-9762-e375703c1cb6","ios":"levelo://app?vid=c3efae4e-1fa8-4c63-9762-e375703c1cb6"},"vehicle_type_id":"4","last_reported":1727766550,"current_range_meters":20800,"station_id":"ce4bguh2rcd13ifvqcj0","pricing_plan_id":"cebpf4jnsgd1na2vs0mg"},{"bike_id":"ed1e61ff-733b-4008-8f68-ba80c0feef2f","system_id":"levelo_inurba_marseille","lat":43.26953,"lon":5.3864,"is_reserved":false,"is_disabled":false,"rental_uris":{"android":"levelo://app?vid=ed1e61ff-733b-4008-8f68-ba80c0feef2f","ios":"levelo://app?vid=ed1e61ff-733b-4008-8f68-ba80c0feef2f"},"vehicle_type_id":"4","last_reported":1727766550,"current_range_meters":27200,"station_id":"ce4bhh92rcd13ifvqfh0","pricing_plan_id":"cebpf4jnsgd1na2vs0mg"},{"bike_id":"d0f65785-8fdf-4cf1-a675-729295860d7a","system_id":"levelo_inurba_marseille","lat":43.25943,"lon":5.40893,"is_reserved":false,"is_disabled":false,"rental_uris":{"android":"levelo://app?vid=d0f65785-8fdf-4cf1-a675-729295860d7a","ios":"levelo://app?vid=d0f65785-8fdf-4cf1-a675-729295860d7a"},"vehicle_type_id":"4","last_reported":1727766550,"current_range_meters":30800,"station_id":"ce4bhm92rcd13ifvqglg","pricing_plan_id":"cebpf4jnsgd1na2vs0mg"},{"bike_id":"456ed098-8bb1-4745-bf06-480607717776","system_id":"levelo_inurba_marseille","lat":43.30145,"lon":5.37419,"is_reserved":false,"is_disabled":false,"rental_uris":{"android":"levelo://app?vid=456ed098-8bb1-4745-bf06-480607717776","ios":"levelo://app?vid=456ed098-8bb1-4745-bf06-480607717776"},"vehicle_type_id":"4","last_reported":1727766550,"current_range_meters":28000,"station_id":"ce4bgs92rcd13ifvqcc0","pricing_plan_id":"cebpf4jnsgd1na2vs0mg"},{"bike_id":"6257f765-3366-488d-adca-ec066b14e10c","system_id":"levelo_inurba_marseille","lat":43.31754,"lon":5.39019,"is_reserved":false,"is_disabled":false,"rental_uris":{"android":"levelo://app?vid=6257f765-3366-488d-adca-ec066b14e10c","ios":"levelo://app?vid=6257f765-3366-488d-adca-ec066b14e10c"},"vehicle_type_id":"4","last_reported":1727766550,"current_range_meters":38800,"station_id":"ce4bhqp2rcd13ifvqhng","pricing_plan_id":"cebpf4jnsgd1na2vs0mg"},{"bike_id":"b07279f0-0817-4a51-ba92-c54a03d00832","system_id":"levelo_inurba_marseille","lat":43.26501,"lon":5.39517,"is_reserved":false,"is_disabled":false,"rental_uris":{"android":"levelo://app?vid=b07279f0-0817-4a51-ba92-c54a03d00832","ios":"levelo://app?vid=b07279f0-0817-4a51-ba92-c54a03d00832"},"vehicle_type_id":"4","last_reported":1727766550,"current_range_meters":38000,"station_id":"ce4bhi12rcd13ifvqfq0","pricing_plan_id":"cebpf4jnsgd1na2vs0mg"},{"bike_id":"f80badfa-d821-4f98-87e0-e78848079464","system_id":"levelo_inurba_marseille","lat":43.28432,"lon":5.34987,"is_reserved":false,"is_disabled":false,"rental_uris":{"android":"levelo://app?vid=f80badfa-d821-4f98-87e0-e78848079464","ios":"levelo://app?vid=f80badfa-d821-4f98-87e0-e78848079464"},"vehicle_type_id":"4","last_reported":1727766550,"current_range_meters":30800,"station_id":"ce4bhbh2rcd13ifvqepg","pricing_plan_id":"cebpf4jnsgd1na2vs0mg"},{"bike_id":"21e6f808-c2c2-476b-be77-714688c2a1f6","system_id":"levelo_inurba_marseille","lat":43.295309,"lon":5.385497,"is_reserved":false,"is_disabled":false,"rental_uris":{"android":"levelo://app?vid=21e6f808-c2c2-476b-be77-714688c2a1f6","ios":"levelo://app?vid=21e6f808-c2c2-476b-be77-714688c2a1f6"},"vehicle_type_id":"4","last_reported":1727766550,"current_range_meters":9200,"station_id":"ce4bh012rcd13ifvqcv0","pricing_plan_id":"cebpf4jnsgd1na2vs0mg"},{"bike_id":"ab44ec9b-1ffa-40f1-8e0e-e6544f83a920","system_id":"levelo_inurba_marseille","lat":43.29226,"lon":5.3607,"is_reserved":false,"is_disabled":false,"rental_uris":{"android":"levelo://app?vid=ab44ec9b-1ffa-40f1-8e0e-e6544f83a920","ios":"levelo://app?vid=ab44ec9b-1ffa-40f1-8e0e-e6544f83a920"},"vehicle_type_id":"4","last_reported":1727766550,"current_range_meters":37600,"station_id":"ce4bhbh2rcd13ifvqeqg","pricing_plan_id":"cebpf4jnsgd1na2vs0mg"},{"bike_id":"59dea60b-0868-493c-8d4e-1efd870d8b0c","system_id":"levelo_inurba_marseille","lat":43.3154,"lon":5.38032,"is_reserved":false,"is_disabled":false,"rental_uris":{"android":"levelo://app?vid=59dea60b-0868-493c-8d4e-1efd870d8b0c","ios":"levelo://app?vid=59dea60b-0868-493c-8d4e-1efd870d8b0c"},"vehicle_type_id":"4","last_reported":1727766550,"current_range_meters":6400,"station_id":"ce4bhsp2rcd13ifvqi50","pricing_plan_id":"cebpf4jnsgd1na2vs0mg"},{"bike_id":"6810347e-438f-4289-8ab8-7fb274f04548","system_id":"levelo_inurba_marseille","lat":43.30462,"lon":5.37903,"is_reserved":false,"is_disabled":false,"rental_uris":{"android":"levelo://app?vid=6810347e-438f-4289-8ab8-7fb274f04548","ios":"levelo://app?vid=6810347e-438f-4289-8ab8-7fb274f04548"},"vehicle_type_id":"4","last_reported":1727766550,"current_range_meters":36800,"station_id":"ce4bgup2rcd13ifvqcn0","pricing_plan_id":"cebpf4jnsgd1na2vs0mg"},{"bike_id":"ff8a0fc5-afb9-4720-9c25-f4924c4579cd","system_id":"levelo_inurba_marseille","lat":43.24082,"lon":5.37749,"is_reserved":false,"is_disabled":false,"rental_uris":{"android":"levelo://app?vid=ff8a0fc5-afb9-4720-9c25-f4924c4579cd","ios":"levelo://app?vid=ff8a0fc5-afb9-4720-9c25-f4924c4579cd"},"vehicle_type_id":"4","last_reported":1727766550,"current_range_meters":33600,"station_id":"ce4bhnp2rcd13ifvqgvg","pricing_plan_id":"cebpf4jnsgd1na2vs0mg"},{"bike_id":"5d220f3e-7476-41f2-ac05-780114b00dd2","system_id":"levelo_inurba_marseille","lat":43.30468,"lon":5.37905,"is_reserved":false,"is_disabled":false,"rental_uris":{"android":"levelo://app?vid=5d220f3e-7476-41f2-ac05-780114b00dd2","ios":"levelo://app?vid=5d220f3e-7476-41f2-ac05-780114b00dd2"},"vehicle_type_id":"4","last_reported":1727766550,"current_range_meters":39200,"station_id":"ce4bgup2rcd13ifvqcn0","pricing_plan_id":"cebpf4jnsgd1na2vs0mg"},{"bike_id":"4af8e5e6-446d-4ca3-9d6d-638704809d68","system_id":"levelo_inurba_marseille","lat":43.29077,"lon":5.37187,"is_reserved":false,"is_disabled":false,"rental_uris":{"android":"levelo://app?vid=4af8e5e6-446d-4ca3-9d6d-638704809d68","ios":"levelo://app?vid=4af8e5e6-446d-4ca3-9d6d-638704809d68"},"vehicle_type_id":"4","last_reported":1727766550,"current_range_meters":36400,"station_id":"ce4bh5p2rcd13ifvqe4g","pricing_plan_id":"cebpf4jnsgd1na2vs0mg"},{"bike_id":"695c6edc-9d98-4011-8dff-68578c4ede8a","system_id":"levelo_inurba_marseille","lat":43.23154,"lon":5.43712,"is_reserved":false,"is_disabled":false,"rental_uris":{"android":"levelo://app?vid=695c6edc-9d98-4011-8dff-68578c4ede8a","ios":"levelo://app?vid=695c6edc-9d98-4011-8dff-68578c4ede8a"},"vehicle_type_id":"4","last_reported":1727766550,"current_range_meters":20800,"station_id":"ce4bhmp2rcd13ifvqgog","pricing_plan_id":"cebpf4jnsgd1na2vs0mg"},{"bike_id":"dd126ad6-3005-4e97-ba0b-180dc274239b","system_id":"levelo_inurba_marseille","lat":43.28439,"lon":5.39188,"is_reserved":false,"is_disabled":false,"rental_uris":{"android":"levelo://app?vid=dd126ad6-3005-4e97-ba0b-180dc274239b","ios":"levelo://app?vid=dd126ad6-3005-4e97-ba0b-180dc274239b"},"vehicle_type_id":"4","last_reported":1727766550,"current_range_meters":38800,"station_id":"ce4bhoh2rcd13ifvqh5g","pricing_plan_id":"cebpf4jnsgd1na2vs0mg"},{"bike_id":"b5cee419-0bf1-43b6-a625-0f8592325c45","system_id":"levelo_inurba_marseille","lat":43.302681,"lon":5.377162,"is_reserved":false,"is_disabled":false,"rental_uris":{"android":"levelo://app?vid=b5cee419-0bf1-43b6-a625-0f8592325c45","ios":"levelo://app?vid=b5cee419-0bf1-43b6-a625-0f8592325c45"},"vehicle_type_id":"4","last_reported":1727766550,"current_range_meters":34800,"station_id":"ce4bguh2rcd13ifvqcj0","pricing_plan_id":"cebpf4jnsgd1na2vs0mg"},{"bike_id":"f8f518e3-bd48-40f5-801a-4ead88758ee2","system_id":"levelo_inurba_marseille","lat":43.32109,"lon":5.36777,"is_reserved":false,"is_disabled":false,"rental_uris":{"android":"levelo://app?vid=f8f518e3-bd48-40f5-801a-4ead88758ee2","ios":"levelo://app?vid=f8f518e3-bd48-40f5-801a-4ead88758ee2"},"vehicle_type_id":"4","last_reported":1727766550,"current_range_meters":16800,"station_id":"ce4bhrh2rcd13ifvqhug","pricing_plan_id":"cebpf4jnsgd1na2vs0mg"},{"bike_id":"ee6c2aa8-feaf-41aa-9106-42404ebc437e","system_id":"levelo_inurba_marseille","lat":43.28158,"lon":5.42638,"is_reserved":false,"is_disabled":false,"rental_uris":{"android":"levelo://app?vid=ee6c2aa8-feaf-41aa-9106-42404ebc437e","ios":"levelo://app?vid=ee6c2aa8-feaf-41aa-9106-42404ebc437e"},"vehicle_type_id":"4","last_reported":1727766550,"current_range_meters":14400,"station_id":"ce4bhnh2rcd13ifvqgug","pricing_plan_id":"cebpf4jnsgd1na2vs0mg"},{"bike_id":"99fc8182-8535-4a97-a465-b996b660b037","system_id":"levelo_inurba_marseille","lat":43.30549,"lon":5.36695,"is_reserved":false,"is_disabled":false,"rental_uris":{"android":"levelo://app?vid=99fc8182-8535-4a97-a465-b996b660b037","ios":"levelo://app?vid=99fc8182-8535-4a97-a465-b996b660b037"},"vehicle_type_id":"4","last_reported":1727766550,"current_range_meters":25200,"station_id":"ce4bgrp2rcd13ifvqc9g","pricing_plan_id":"cebpf4jnsgd1na2vs0mg"},{"bike_id":"bd908910-f989-4788-a9b2-a14c625fc930","system_id":"levelo_inurba_marseille","lat":43.29715,"lon":5.37694,"is_reserved":false,"is_disabled":false,"rental_uris":{"android":"levelo://app?vid=bd908910-f989-4788-a9b2-a14c625fc930","ios":"levelo://app?vid=bd908910-f989-4788-a9b2-a14c625fc930"},"vehicle_type_id":"4","last_reported":1727766550,"current_range_meters":38400,"station_id":"ce4bgkh2rcd13ifvqbl0","pricing_plan_id":"cebpf4jnsgd1na2vs0mg"},{"bike_id":"10f5e0ed-ca69-4d92-ac51-4ffe321dd32f","system_id":"levelo_inurba_marseille","lat":43.30907,"lon":5.36858,"is_reserved":false,"is_disabled":false,"rental_uris":{"android":"levelo://app?vid=10f5e0ed-ca69-4d92-ac51-4ffe321dd32f","ios":"levelo://app?vid=10f5e0ed-ca69-4d92-ac51-4ffe321dd32f"},"vehicle_type_id":"4","last_reported":1727766550,"current_range_meters":24400,"station_id":"ce4bgn92rcd13ifvqbvg","pricing_plan_id":"cebpf4jnsgd1na2vs0mg"},{"bike_id":"adf4b064-6fac-4d46-8429-397eedc9aaf8","system_id":"levelo_inurba_marseille","lat":43.29166,"lon":5.3717,"is_reserved":false,"is_disabled":false,"rental_uris":{"android":"levelo://app?vid=adf4b064-6fac-4d46-8429-397eedc9aaf8","ios":"levelo://app?vid=adf4b064-6fac-4d46-8429-397eedc9aaf8"},"vehicle_type_id":"4","last_reported":1727766550,"current_range_meters":20400,"station_id":"ce4bha92rcd13ifvqeh0","pricing_plan_id":"cebpf4jnsgd1na2vs0mg"},{"bike_id":"db3f1ec8-40b3-446e-8cd6-2753d42f3d68","system_id":"levelo_inurba_marseille","lat":43.29714,"lon":5.37763,"is_reserved":false,"is_disabled":false,"rental_uris":{"android":"levelo://app?vid=db3f1ec8-40b3-446e-8cd6-2753d42f3d68","ios":"levelo://app?vid=db3f1ec8-40b3-446e-8cd6-2753d42f3d68"},"vehicle_type_id":"4","last_reported":1727766550,"current_range_meters":36400,"station_id":"ce4bgkh2rcd13ifvqbl0","pricing_plan_id":"cebpf4jnsgd1na2vs0mg"},{"bike_id":"191bb302-df07-4a32-a035-312f8e9cb2ae","system_id":"levelo_inurba_marseille","lat":43.26932,"lon":5.38927,"is_reserved":false,"is_disabled":false,"rental_uris":{"android":"levelo://app?vid=191bb302-df07-4a32-a035-312f8e9cb2ae","ios":"levelo://app?vid=191bb302-df07-4a32-a035-312f8e9cb2ae"},"vehicle_type_id":"4","last_reported":1727766550,"current_range_meters":28000,"station_id":"ce4bhhh2rcd13ifvqfl0","pricing_plan_id":"cebpf4jnsgd1na2vs0mg"},{"bike_id":"ff3321d0-5940-42b8-9fd8-ad85ac490d4e","system_id":"levelo_inurba_marseille","lat":43.26556,"lon":5.37281,"is_reserved":false,"is_disabled":false,"rental_uris":{"android":"levelo://app?vid=ff3321d0-5940-42b8-9fd8-ad85ac490d4e","ios":"levelo://app?vid=ff3321d0-5940-42b8-9fd8-ad85ac490d4e"},"vehicle_type_id":"4","last_reported":1727766550,"current_range_meters":8400,"station_id":"ce4bhg12rcd13ifvqf70","pricing_plan_id":"cebpf4jnsgd1na2vs0mg"},{"bike_id":"d9aa2af3-d6e7-45ae-9671-de00650f6fc2","system_id":"levelo_inurba_marseille","lat":43.25,"lon":5.38925,"is_reserved":false,"is_disabled":false,"rental_uris":{"android":"levelo://app?vid=d9aa2af3-d6e7-45ae-9671-de00650f6fc2","ios":"levelo://app?vid=d9aa2af3-d6e7-45ae-9671-de00650f6fc2"},"vehicle_type_id":"4","last_reported":1727766550,"current_range_meters":36400,"station_id":"ce4bhgp2rcd13ifvqfd0","pricing_plan_id":"cebpf4jnsgd1na2vs0mg"},{"bike_id":"8348ce12-ff0e-49a0-833d-0e92ac879452","system_id":"levelo_inurba_marseille","lat":43.30797,"lon":5.43527,"is_reserved":false,"is_disabled":false,"rental_uris":{"android":"levelo://app?vid=8348ce12-ff0e-49a0-833d-0e92ac879452","ios":"levelo://app?vid=8348ce12-ff0e-49a0-833d-0e92ac879452"},"vehicle_type_id":"4","last_reported":1727766550,"current_range_meters":38000,"station_id":"ce4bhph2rcd13ifvqheg","pricing_plan_id":"cebpf4jnsgd1na2vs0mg"},{"bike_id":"43802571-63be-483d-a1a7-47c461361f9c","system_id":"levelo_inurba_marseille","lat":43.28938,"lon":5.3664,"is_reserved":false,"is_disabled":false,"rental_uris":{"android":"levelo://app?vid=43802571-63be-483d-a1a7-47c461361f9c","ios":"levelo://app?vid=43802571-63be-483d-a1a7-47c461361f9c"},"vehicle_type_id":"4","last_reported":1727766550,"current_range_meters":16800,"station_id":"ce4bhap2rcd13ifvqek0","pricing_plan_id":"cebpf4jnsgd1na2vs0mg"},{"bike_id":"e6089f1e-de3b-4f07-9c9a-f45c6ba10db0","system_id":"levelo_inurba_marseille","lat":43.30067,"lon":5.40339,"is_reserved":false,"is_disabled":false,"rental_uris":{"android":"levelo://app?vid=e6089f1e-de3b-4f07-9c9a-f45c6ba10db0","ios":"levelo://app?vid=e6089f1e-de3b-4f07-9c9a-f45c6ba10db0"},"vehicle_type_id":"4","last_reported":1727766550,"current_range_meters":3200,"station_id":"","pricing_plan_id":"cebpf4jnsgd1na2vs0mg"},{"bike_id":"eebea755-b49e-42ec-a242-9888e8747fb5","system_id":"levelo_inurba_marseille","lat":43.30914,"lon":5.36843,"is_reserved":false,"is_disabled":false,"rental_uris":{"android":"levelo://app?vid=eebea755-b49e-42ec-a242-9888e8747fb5","ios":"levelo://app?vid=eebea755-b49e-42ec-a242-9888e8747fb5"},"vehicle_type_id":"4","last_reported":1727766550,"current_range_meters":32400,"station_id":"ce4bgn92rcd13ifvqbvg","pricing_plan_id":"cebpf4jnsgd1na2vs0mg"},{"bike_id":"b56341ad-990f-4558-9d85-f56e73f4bac7","system_id":"levelo_inurba_marseille","lat":43.30998,"lon":5.37037,"is_reserved":false,"is_disabled":false,"rental_uris":{"android":"levelo://app?vid=b56341ad-990f-4558-9d85-f56e73f4bac7","ios":"levelo://app?vid=b56341ad-990f-4558-9d85-f56e73f4bac7"},"vehicle_type_id":"4","last_reported":1727766550,"current_range_meters":38800,"station_id":"","pricing_plan_id":"cebpf4jnsgd1na2vs0mg"},{"bike_id":"8766606e-fbea-4190-a140-a202c1cc3b74","system_id":"levelo_inurba_marseille","lat":43.26683,"lon":5.38261,"is_reserved":false,"is_disabled":false,"rental_uris":{"android":"levelo://app?vid=8766606e-fbea-4190-a140-a202c1cc3b74","ios":"levelo://app?vid=8766606e-fbea-4190-a140-a202c1cc3b74"},"vehicle_type_id":"4","last_reported":1727766550,"current_range_meters":32000,"station_id":"ce4bhg92rcd13ifvqf90","pricing_plan_id":"cebpf4jnsgd1na2vs0mg"},{"bike_id":"4d7ae5db-9f57-431a-9c31-a8f3c924d520","system_id":"levelo_inurba_marseille","lat":43.304714,"lon":5.379106,"is_reserved":false,"is_disabled":false,"rental_uris":{"android":"levelo://app?vid=4d7ae5db-9f57-431a-9c31-a8f3c924d520","ios":"levelo://app?vid=4d7ae5db-9f57-431a-9c31-a8f3c924d520"},"vehicle_type_id":"4","last_reported":1727766550,"current_range_meters":16400,"station_id":"ce4bgup2rcd13ifvqcn0","pricing_plan_id":"cebpf4jnsgd1na2vs0mg"},{"bike_id":"e2973350-a192-4ad7-997e-932573a214dd","system_id":"levelo_inurba_marseille","lat":43.23149,"lon":5.4372,"is_reserved":false,"is_disabled":false,"rental_uris":{"android":"levelo://app?vid=e2973350-a192-4ad7-997e-932573a214dd","ios":"levelo://app?vid=e2973350-a192-4ad7-997e-932573a214dd"},"vehicle_type_id":"4","last_reported":1727766550,"current_range_meters":26800,"station_id":"ce4bhmp2rcd13ifvqgog","pricing_plan_id":"cebpf4jnsgd1na2vs0mg"},{"bike_id":"ac42fb59-2101-49eb-be3a-4c371efbbea3","system_id":"levelo_inurba_marseille","lat":43.30907,"lon":5.36832,"is_reserved":false,"is_disabled":false,"rental_uris":{"android":"levelo://app?vid=ac42fb59-2101-49eb-be3a-4c371efbbea3","ios":"levelo://app?vid=ac42fb59-2101-49eb-be3a-4c371efbbea3"},"vehicle_type_id":"4","last_reported":1727766550,"current_range_meters":17600,"station_id":"ce4bgn92rcd13ifvqbvg","pricing_plan_id":"cebpf4jnsgd1na2vs0mg"},{"bike_id":"dd9933ae-8f37-4c99-9b24-80e76b5bc45a","system_id":"levelo_inurba_marseille","lat":43.29574,"lon":5.37521,"is_reserved":false,"is_disabled":false,"rental_uris":{"android":"levelo://app?vid=dd9933ae-8f37-4c99-9b24-80e76b5bc45a","ios":"levelo://app?vid=dd9933ae-8f37-4c99-9b24-80e76b5bc45a"},"vehicle_type_id":"4","last_reported":1727766550,"current_range_meters":27200,"station_id":"ce4bgh92rcd13ifvqb50","pricing_plan_id":"cebpf4jnsgd1na2vs0mg"},{"bike_id":"d995d233-d2fe-4db9-b69b-baa1337469bf","system_id":"levelo_inurba_marseille","lat":43.26718,"lon":5.40137,"is_reserved":false,"is_disabled":false,"rental_uris":{"android":"levelo://app?vid=d995d233-d2fe-4db9-b69b-baa1337469bf","ios":"levelo://app?vid=d995d233-d2fe-4db9-b69b-baa1337469bf"},"vehicle_type_id":"4","last_reported":1727766550,"current_range_meters":14400,"station_id":"ce4bhm92rcd13ifvqglg","pricing_plan_id":"cebpf4jnsgd1na2vs0mg"},{"bike_id":"1ba7b6fd-e265-4d06-8e20-b26ba84ee730","system_id":"levelo_inurba_marseille","lat":43.23157,"lon":5.4371,"is_reserved":false,"is_disabled":false,"rental_uris":{"android":"levelo://app?vid=1ba7b6fd-e265-4d06-8e20-b26ba84ee730","ios":"levelo://app?vid=1ba7b6fd-e265-4d06-8e20-b26ba84ee730"},"vehicle_type_id":"4","last_reported":1727766550,"current_range_meters":23200,"station_id":"ce4bhmp2rcd13ifvqgog","pricing_plan_id":"cebpf4jnsgd1na2vs0mg"},{"bike_id":"dd7787d1-957c-4990-9c8a-fe91ad017aef","system_id":"levelo_inurba_marseille","lat":43.26953,"lon":5.38637,"is_reserved":false,"is_disabled":false,"rental_uris":{"android":"levelo://app?vid=dd7787d1-957c-4990-9c8a-fe91ad017aef","ios":"levelo://app?vid=dd7787d1-957c-4990-9c8a-fe91ad017aef"},"vehicle_type_id":"4","last_reported":1727766550,"current_range_meters":36800,"station_id":"ce4bhh92rcd13ifvqfh0","pricing_plan_id":"cebpf4jnsgd1na2vs0mg"},{"bike_id":"cecfd5d5-1681-43a8-ad9b-52dfd6a88e80","system_id":"levelo_inurba_marseille","lat":43.2834,"lon":5.38119,"is_reserved":false,"is_disabled":false,"rental_uris":{"android":"levelo://app?vid=cecfd5d5-1681-43a8-ad9b-52dfd6a88e80","ios":"levelo://app?vid=cecfd5d5-1681-43a8-ad9b-52dfd6a88e80"},"vehicle_type_id":"4","last_reported":1727766550,"current_range_meters":28800,"station_id":"ce4bh412rcd13ifvqdr0","pricing_plan_id":"cebpf4jnsgd1na2vs0mg"},{"bike_id":"6bf77a03-256b-4984-8670-43e95fd35b33","system_id":"levelo_inurba_marseille","lat":43.29979,"lon":5.38489,"is_reserved":false,"is_disabled":false,"rental_uris":{"android":"levelo://app?vid=6bf77a03-256b-4984-8670-43e95fd35b33","ios":"levelo://app?vid=6bf77a03-256b-4984-8670-43e95fd35b33"},"vehicle_type_id":"4","last_reported":1727766550,"current_range_meters":8800,"station_id":"ce4bgj92rcd13ifvqbd0","pricing_plan_id":"cebpf4jnsgd1na2vs0mg"},{"bike_id":"2407ba8d-8f00-43b2-a8dc-4f6ac924826a","system_id":"levelo_inurba_marseille","lat":43.30301,"lon":5.36894,"is_reserved":false,"is_disabled":false,"rental_uris":{"android":"levelo://app?vid=2407ba8d-8f00-43b2-a8dc-4f6ac924826a","ios":"levelo://app?vid=2407ba8d-8f00-43b2-a8dc-4f6ac924826a"},"vehicle_type_id":"4","last_reported":1727766550,"current_range_meters":30000,"station_id":"ce4bgqh2rcd13ifvqc5g","pricing_plan_id":"cebpf4jnsgd1na2vs0mg"},{"bike_id":"fcad1394-88f4-4f6d-962a-33c383ee7e38","system_id":"levelo_inurba_marseille","lat":43.30466,"lon":5.37902,"is_reserved":false,"is_disabled":false,"rental_uris":{"android":"levelo://app?vid=fcad1394-88f4-4f6d-962a-33c383ee7e38","ios":"levelo://app?vid=fcad1394-88f4-4f6d-962a-33c383ee7e38"},"vehicle_type_id":"4","last_reported":1727766550,"current_range_meters":31200,"station_id":"ce4bgup2rcd13ifvqcn0","pricing_plan_id":"cebpf4jnsgd1na2vs0mg"},{"bike_id":"b652f429-09b8-4697-9c1b-3b9adc3c55d8","system_id":"levelo_inurba_marseille","lat":43.26871,"lon":5.39135,"is_reserved":false,"is_disabled":false,"rental_uris":{"android":"levelo://app?vid=b652f429-09b8-4697-9c1b-3b9adc3c55d8","ios":"levelo://app?vid=b652f429-09b8-4697-9c1b-3b9adc3c55d8"},"vehicle_type_id":"4","last_reported":1727766550,"current_range_meters":8800,"station_id":"","pricing_plan_id":"cebpf4jnsgd1na2vs0mg"},{"bike_id":"47f1c0ba-602b-4386-9133-d00a7611575a","system_id":"levelo_inurba_marseille","lat":43.27496,"lon":5.42451,"is_reserved":false,"is_disabled":false,"rental_uris":{"android":"levelo://app?vid=47f1c0ba-602b-4386-9133-d00a7611575a","ios":"levelo://app?vid=47f1c0ba-602b-4386-9133-d00a7611575a"},"vehicle_type_id":"4","last_reported":1727766550,"current_range_meters":15200,"station_id":"ce4bhn92rcd13ifvqgrg","pricing_plan_id":"cebpf4jnsgd1na2vs0mg"},{"bike_id":"0e07e31f-9ab4-401a-a1ee-ccfb17a90612","system_id":"levelo_inurba_marseille","lat":43.316801,"lon":5.404682,"is_reserved":false,"is_disabled":false,"rental_uris":{"android":"levelo://app?vid=0e07e31f-9ab4-401a-a1ee-ccfb17a90612","ios":"levelo://app?vid=0e07e31f-9ab4-401a-a1ee-ccfb17a90612"},"vehicle_type_id":"4","last_reported":1727766550,"current_range_meters":38400,"station_id":"ce4bh092rcd13ifvqd30","pricing_plan_id":"cebpf4jnsgd1na2vs0mg"},{"bike_id":"63948fa4-ae6d-4866-abff-02440e87cd47","system_id":"levelo_inurba_marseille","lat":43.24389,"lon":5.37057,"is_reserved":false,"is_disabled":false,"rental_uris":{"android":"levelo://app?vid=63948fa4-ae6d-4866-abff-02440e87cd47","ios":"levelo://app?vid=63948fa4-ae6d-4866-abff-02440e87cd47"},"vehicle_type_id":"4","last_reported":1727766550,"current_range_meters":36800,"station_id":"ce4bhhh2rcd13ifvqfk0","pricing_plan_id":"cebpf4jnsgd1na2vs0mg"},{"bike_id":"786fac57-4b3b-44df-9f37-db347f577860","system_id":"levelo_inurba_marseille","lat":43.26782,"lon":5.39422,"is_reserved":false,"is_disabled":false,"rental_uris":{"android":"levelo://app?vid=786fac57-4b3b-44df-9f37-db347f577860","ios":"levelo://app?vid=786fac57-4b3b-44df-9f37-db347f577860"},"vehicle_type_id":"4","last_reported":1727766550,"current_range_meters":38000,"station_id":"ce4bhh12rcd13ifvqfg0","pricing_plan_id":"cebpf4jnsgd1na2vs0mg"},{"bike_id":"51f4fac6-bb27-494c-8244-2a08814bd0f5","system_id":"levelo_inurba_marseille","lat":43.336,"lon":5.4103,"is_reserved":false,"is_disabled":false,"rental_uris":{"android":"levelo://app?vid=51f4fac6-bb27-494c-8244-2a08814bd0f5","ios":"levelo://app?vid=51f4fac6-bb27-494c-8244-2a08814bd0f5"},"vehicle_type_id":"4","last_reported":1727766550,"current_range_meters":20800,"station_id":"ce4bhqh2rcd13ifvqhmg","pricing_plan_id":"cebpf4jnsgd1na2vs0mg"},{"bike_id":"0d20297a-9907-45ed-b183-139f5aef58db","system_id":"levelo_inurba_marseille","lat":43.27493,"lon":5.42451,"is_reserved":false,"is_disabled":false,"rental_uris":{"android":"levelo://app?vid=0d20297a-9907-45ed-b183-139f5aef58db","ios":"levelo://app?vid=0d20297a-9907-45ed-b183-139f5aef58db"},"vehicle_type_id":"4","last_reported":1727766550,"current_range_meters":9200,"station_id":"ce4bhn92rcd13ifvqgrg","pricing_plan_id":"cebpf4jnsgd1na2vs0mg"},{"bike_id":"7a8b241f-57ad-4336-b3e1-9209d3fac587","system_id":"levelo_inurba_marseille","lat":43.31352,"lon":5.36695,"is_reserved":false,"is_disabled":false,"rental_uris":{"android":"levelo://app?vid=7a8b241f-57ad-4336-b3e1-9209d3fac587","ios":"levelo://app?vid=7a8b241f-57ad-4336-b3e1-9209d3fac587"},"vehicle_type_id":"4","last_reported":1727766550,"current_range_meters":22000,"station_id":"ce4bgr92rcd13ifvqc6g","pricing_plan_id":"cebpf4jnsgd1na2vs0mg"},{"bike_id":"3c00d5e8-30de-4e38-a1ce-787e3e4c272f","system_id":"levelo_inurba_marseille","lat":43.29273,"lon":5.36849,"is_reserved":false,"is_disabled":false,"rental_uris":{"android":"levelo://app?vid=3c00d5e8-30de-4e38-a1ce-787e3e4c272f","ios":"levelo://app?vid=3c00d5e8-30de-4e38-a1ce-787e3e4c272f"},"vehicle_type_id":"4","last_reported":1727766550,"current_range_meters":21600,"station_id":"ce4bhbp2rcd13ifvqesg","pricing_plan_id":"cebpf4jnsgd1na2vs0mg"},{"bike_id":"c68752ac-cd24-4d62-b01d-3b238d6d51d4","system_id":"levelo_inurba_marseille","lat":43.34147,"lon":5.40899,"is_reserved":false,"is_disabled":false,"rental_uris":{"android":"levelo://app?vid=c68752ac-cd24-4d62-b01d-3b238d6d51d4","ios":"levelo://app?vid=c68752ac-cd24-4d62-b01d-3b238d6d51d4"},"vehicle_type_id":"4","last_reported":1727766550,"current_range_meters":38800,"station_id":"ce4bhqh2rcd13ifvqhlg","pricing_plan_id":"cebpf4jnsgd1na2vs0mg"},{"bike_id":"cc6bdd04-a8da-4193-9fbc-70813cd88369","system_id":"levelo_inurba_marseille","lat":43.30949,"lon":5.39029,"is_reserved":false,"is_disabled":false,"rental_uris":{"android":"levelo://app?vid=cc6bdd04-a8da-4193-9fbc-70813cd88369","ios":"levelo://app?vid=cc6bdd04-a8da-4193-9fbc-70813cd88369"},"vehicle_type_id":"4","last_reported":1727766550,"current_range_meters":24800,"station_id":"ce4bgup2rcd13ifvqco0","pricing_plan_id":"cebpf4jnsgd1na2vs0mg"},{"bike_id":"f4fde843-2f29-42b2-949f-d27b2db44e3c","system_id":"levelo_inurba_marseille","lat":43.29526,"lon":5.39043,"is_reserved":false,"is_disabled":false,"rental_uris":{"android":"levelo://app?vid=f4fde843-2f29-42b2-949f-d27b2db44e3c","ios":"levelo://app?vid=f4fde843-2f29-42b2-949f-d27b2db44e3c"},"vehicle_type_id":"4","last_reported":1727766550,"current_range_meters":8000,"station_id":"ce4bh3p2rcd13ifvqdp0","pricing_plan_id":"cebpf4jnsgd1na2vs0mg"},{"bike_id":"9535a422-21bd-4d3b-82ec-0ddd79cceaee","system_id":"levelo_inurba_marseille","lat":43.2448,"lon":5.37253,"is_reserved":false,"is_disabled":false,"rental_uris":{"android":"levelo://app?vid=9535a422-21bd-4d3b-82ec-0ddd79cceaee","ios":"levelo://app?vid=9535a422-21bd-4d3b-82ec-0ddd79cceaee"},"vehicle_type_id":"4","last_reported":1727766550,"current_range_meters":10000,"station_id":"","pricing_plan_id":"cebpf4jnsgd1na2vs0mg"},{"bike_id":"9b157023-570a-400f-bf84-92b851e2bda2","system_id":"levelo_inurba_marseille","lat":43.24073,"lon":5.37763,"is_reserved":false,"is_disabled":false,"rental_uris":{"android":"levelo://app?vid=9b157023-570a-400f-bf84-92b851e2bda2","ios":"levelo://app?vid=9b157023-570a-400f-bf84-92b851e2bda2"},"vehicle_type_id":"4","last_reported":1727766550,"current_range_meters":24000,"station_id":"ce4bhnp2rcd13ifvqgvg","pricing_plan_id":"cebpf4jnsgd1na2vs0mg"},{"bike_id":"8cc0c10a-91bd-4e86-9eea-ce339e8604ab","system_id":"levelo_inurba_marseille","lat":43.28935,"lon":5.36372,"is_reserved":false,"is_disabled":false,"rental_uris":{"android":"levelo://app?vid=8cc0c10a-91bd-4e86-9eea-ce339e8604ab","ios":"levelo://app?vid=8cc0c10a-91bd-4e86-9eea-ce339e8604ab"},"vehicle_type_id":"4","last_reported":1727766550,"current_range_meters":16000,"station_id":"ce4bhc92rcd13ifvqetg","pricing_plan_id":"cebpf4jnsgd1na2vs0mg"},{"bike_id":"3613adf8-0cb6-404e-ace3-b08280369255","system_id":"levelo_inurba_marseille","lat":43.26556,"lon":5.37285,"is_reserved":false,"is_disabled":false,"rental_uris":{"android":"levelo://app?vid=3613adf8-0cb6-404e-ace3-b08280369255","ios":"levelo://app?vid=3613adf8-0cb6-404e-ace3-b08280369255"},"vehicle_type_id":"4","last_reported":1727766550,"current_range_meters":30400,"station_id":"ce4bhg12rcd13ifvqf70","pricing_plan_id":"cebpf4jnsgd1na2vs0mg"},{"bike_id":"23f1410c-5dcb-4009-824c-c46594442f67","system_id":"levelo_inurba_marseille","lat":43.30157,"lon":5.38076,"is_reserved":false,"is_disabled":false,"rental_uris":{"android":"levelo://app?vid=23f1410c-5dcb-4009-824c-c46594442f67","ios":"levelo://app?vid=23f1410c-5dcb-4009-824c-c46594442f67"},"vehicle_type_id":"4","last_reported":1727766550,"current_range_meters":26000,"station_id":"ce4bgjp2rcd13ifvqbh0","pricing_plan_id":"cebpf4jnsgd1na2vs0mg"},{"bike_id":"ca982a33-bcc1-41d9-8388-8671af91acb9","system_id":"levelo_inurba_marseille","lat":43.2407,"lon":5.37757,"is_reserved":false,"is_disabled":false,"rental_uris":{"android":"levelo://app?vid=ca982a33-bcc1-41d9-8388-8671af91acb9","ios":"levelo://app?vid=ca982a33-bcc1-41d9-8388-8671af91acb9"},"vehicle_type_id":"4","last_reported":1727766550,"current_range_meters":38400,"station_id":"ce4bhnp2rcd13ifvqgvg","pricing_plan_id":"cebpf4jnsgd1na2vs0mg"},{"bike_id":"45f1b3e9-e9a7-4e2b-842f-e655a32ba1bb","system_id":"levelo_inurba_marseille","lat":43.31491,"lon":5.37314,"is_reserved":false,"is_disabled":false,"rental_uris":{"android":"levelo://app?vid=45f1b3e9-e9a7-4e2b-842f-e655a32ba1bb","ios":"levelo://app?vid=45f1b3e9-e9a7-4e2b-842f-e655a32ba1bb"},"vehicle_type_id":"4","last_reported":1727766550,"current_range_meters":28800,"station_id":"ce4bgt12rcd13ifvqcd0","pricing_plan_id":"cebpf4jnsgd1na2vs0mg"},{"bike_id":"95d7d714-f0c8-4cba-985d-ce48bd46da54","system_id":"levelo_inurba_marseille","lat":43.28934,"lon":5.38409,"is_reserved":false,"is_disabled":false,"rental_uris":{"android":"levelo://app?vid=95d7d714-f0c8-4cba-985d-ce48bd46da54","ios":"levelo://app?vid=95d7d714-f0c8-4cba-985d-ce48bd46da54"},"vehicle_type_id":"4","last_reported":1727766550,"current_range_meters":3200,"station_id":"ce4bh612rcd13ifvqe6g","pricing_plan_id":"cebpf4jnsgd1na2vs0mg"},{"bike_id":"9ffad66a-1303-4159-93ec-b077cb1d0c58","system_id":"levelo_inurba_marseille","lat":43.30146,"lon":5.38074,"is_reserved":false,"is_disabled":false,"rental_uris":{"android":"levelo://app?vid=9ffad66a-1303-4159-93ec-b077cb1d0c58","ios":"levelo://app?vid=9ffad66a-1303-4159-93ec-b077cb1d0c58"},"vehicle_type_id":"4","last_reported":1727766550,"current_range_meters":25600,"station_id":"ce4bgjp2rcd13ifvqbh0","pricing_plan_id":"cebpf4jnsgd1na2vs0mg"},{"bike_id":"dabfe253-ada0-4b46-9627-252980763d91","system_id":"levelo_inurba_marseille","lat":43.2795,"lon":5.41039,"is_reserved":false,"is_disabled":false,"rental_uris":{"android":"levelo://app?vid=dabfe253-ada0-4b46-9627-252980763d91","ios":"levelo://app?vid=dabfe253-ada0-4b46-9627-252980763d91"},"vehicle_type_id":"4","last_reported":1727766550,"current_range_meters":22400,"station_id":"ce4bhnp2rcd13ifvqh0g","pricing_plan_id":"cebpf4jnsgd1na2vs0mg"},{"bike_id":"40a159ae-098b-405e-94d9-02ac0c192c08","system_id":"levelo_inurba_marseille","lat":43.27316,"lon":5.39083,"is_reserved":false,"is_disabled":false,"rental_uris":{"android":"levelo://app?vid=40a159ae-098b-405e-94d9-02ac0c192c08","ios":"levelo://app?vid=40a159ae-098b-405e-94d9-02ac0c192c08"},"vehicle_type_id":"4","last_reported":1727766550,"current_range_meters":36800,"station_id":"ce4bhgp2rcd13ifvqfe0","pricing_plan_id":"cebpf4jnsgd1na2vs0mg"},{"bike_id":"1df5bfd6-7db0-4bad-b5df-69c0680eac72","system_id":"levelo_inurba_marseille","lat":43.30597,"lon":5.39358,"is_reserved":false,"is_disabled":false,"rental_uris":{"android":"levelo://app?vid=1df5bfd6-7db0-4bad-b5df-69c0680eac72","ios":"levelo://app?vid=1df5bfd6-7db0-4bad-b5df-69c0680eac72"},"vehicle_type_id":"4","last_reported":1727766550,"current_range_meters":24400,"station_id":"ce4bh0p2rcd13ifvqd80","pricing_plan_id":"cebpf4jnsgd1na2vs0mg"},{"bike_id":"e6c88988-c5ee-496f-bf87-a1d9852b71db","system_id":"levelo_inurba_marseille","lat":43.30917,"lon":5.36847,"is_reserved":false,"is_disabled":false,"rental_uris":{"android":"levelo://app?vid=e6c88988-c5ee-496f-bf87-a1d9852b71db","ios":"levelo://app?vid=e6c88988-c5ee-496f-bf87-a1d9852b71db"},"vehicle_type_id":"4","last_reported":1727766550,"current_range_meters":24400,"station_id":"ce4bgn92rcd13ifvqbvg","pricing_plan_id":"cebpf4jnsgd1na2vs0mg"},{"bike_id":"b65e26fd-4436-42b6-869d-ffed6ad30e88","system_id":"levelo_inurba_marseille","lat":43.32362,"lon":5.38878,"is_reserved":false,"is_disabled":false,"rental_uris":{"android":"levelo://app?vid=b65e26fd-4436-42b6-869d-ffed6ad30e88","ios":"levelo://app?vid=b65e26fd-4436-42b6-869d-ffed6ad30e88"},"vehicle_type_id":"4","last_reported":1727766550,"current_range_meters":16000,"station_id":"ce4bhqp2rcd13ifvqhog","pricing_plan_id":"cebpf4jnsgd1na2vs0mg"},{"bike_id":"f9621a78-5b31-49c6-980b-7f62c880e23f","system_id":"levelo_inurba_marseille","lat":43.33746,"lon":5.37444,"is_reserved":false,"is_disabled":false,"rental_uris":{"android":"levelo://app?vid=f9621a78-5b31-49c6-980b-7f62c880e23f","ios":"levelo://app?vid=f9621a78-5b31-49c6-980b-7f62c880e23f"},"vehicle_type_id":"4","last_reported":1727766550,"current_range_meters":19600,"station_id":"","pricing_plan_id":"cebpf4jnsgd1na2vs0mg"},{"bike_id":"506d315a-cb0b-4972-8707-a70294c21313","system_id":"levelo_inurba_marseille","lat":43.29073,"lon":5.37176,"is_reserved":false,"is_disabled":false,"rental_uris":{"android":"levelo://app?vid=506d315a-cb0b-4972-8707-a70294c21313","ios":"levelo://app?vid=506d315a-cb0b-4972-8707-a70294c21313"},"vehicle_type_id":"4","last_reported":1727766550,"current_range_meters":10000,"station_id":"ce4bh5p2rcd13ifvqe4g","pricing_plan_id":"cebpf4jnsgd1na2vs0mg"},{"bike_id":"bb0db29b-307e-4e3c-9fb8-089947d27aae","system_id":"levelo_inurba_marseille","lat":43.3054,"lon":5.3654,"is_reserved":false,"is_disabled":false,"rental_uris":{"android":"levelo://app?vid=bb0db29b-307e-4e3c-9fb8-089947d27aae","ios":"levelo://app?vid=bb0db29b-307e-4e3c-9fb8-089947d27aae"},"vehicle_type_id":"4","last_reported":1727766550,"current_range_meters":35600,"station_id":"ce4bgs12rcd13ifvqcag","pricing_plan_id":"cebpf4jnsgd1na2vs0mg"},{"bike_id":"06eceae8-fe09-4a39-b277-3a09f6c2a186","system_id":"levelo_inurba_marseille","lat":43.26063,"lon":5.39396,"is_reserved":false,"is_disabled":false,"rental_uris":{"android":"levelo://app?vid=06eceae8-fe09-4a39-b277-3a09f6c2a186","ios":"levelo://app?vid=06eceae8-fe09-4a39-b277-3a09f6c2a186"},"vehicle_type_id":"4","last_reported":1727766550,"current_range_meters":36800,"station_id":"ce4bhh92rcd13ifvqfj0","pricing_plan_id":"cebpf4jnsgd1na2vs0mg"},{"bike_id":"ba83e128-9396-4ff5-a14b-f47b70296f60","system_id":"levelo_inurba_marseille","lat":43.28349,"lon":5.38106,"is_reserved":false,"is_disabled":false,"rental_uris":{"android":"levelo://app?vid=ba83e128-9396-4ff5-a14b-f47b70296f60","ios":"levelo://app?vid=ba83e128-9396-4ff5-a14b-f47b70296f60"},"vehicle_type_id":"4","last_reported":1727766550,"current_range_meters":38400,"station_id":"ce4bh412rcd13ifvqdr0","pricing_plan_id":"cebpf4jnsgd1na2vs0mg"},{"bike_id":"a248b654-bd34-480a-a07d-a25ad1cea206","system_id":"levelo_inurba_marseille","lat":43.25936,"lon":5.40897,"is_reserved":false,"is_disabled":false,"rental_uris":{"android":"levelo://app?vid=a248b654-bd34-480a-a07d-a25ad1cea206","ios":"levelo://app?vid=a248b654-bd34-480a-a07d-a25ad1cea206"},"vehicle_type_id":"4","last_reported":1727766550,"current_range_meters":7200,"station_id":"ce4bhm92rcd13ifvqglg","pricing_plan_id":"cebpf4jnsgd1na2vs0mg"},{"bike_id":"c206b872-33a8-42b3-8572-8b7c8f6ff4d8","system_id":"levelo_inurba_marseille","lat":43.2958,"lon":5.375246,"is_reserved":false,"is_disabled":false,"rental_uris":{"android":"levelo://app?vid=c206b872-33a8-42b3-8572-8b7c8f6ff4d8","ios":"levelo://app?vid=c206b872-33a8-42b3-8572-8b7c8f6ff4d8"},"vehicle_type_id":"4","last_reported":1727766550,"current_range_meters":36800,"station_id":"ce4bgh92rcd13ifvqb50","pricing_plan_id":"cebpf4jnsgd1na2vs0mg"},{"bike_id":"bbfa1072-43cd-4cc7-bf78-556e11e70d56","system_id":"levelo_inurba_marseille","lat":43.26776,"lon":5.3942,"is_reserved":false,"is_disabled":false,"rental_uris":{"android":"levelo://app?vid=bbfa1072-43cd-4cc7-bf78-556e11e70d56","ios":"levelo://app?vid=bbfa1072-43cd-4cc7-bf78-556e11e70d56"},"vehicle_type_id":"4","last_reported":1727766550,"current_range_meters":38400,"station_id":"ce4bhh12rcd13ifvqfg0","pricing_plan_id":"cebpf4jnsgd1na2vs0mg"},{"bike_id":"2ae518ed-a511-4607-b96a-760b6b3f2b7b","system_id":"levelo_inurba_marseille","lat":43.28157,"lon":5.4264,"is_reserved":false,"is_disabled":false,"rental_uris":{"android":"levelo://app?vid=2ae518ed-a511-4607-b96a-760b6b3f2b7b","ios":"levelo://app?vid=2ae518ed-a511-4607-b96a-760b6b3f2b7b"},"vehicle_type_id":"4","last_reported":1727766550,"current_range_meters":13600,"station_id":"ce4bhnh2rcd13ifvqgug","pricing_plan_id":"cebpf4jnsgd1na2vs0mg"},{"bike_id":"421f4cc1-3de2-48db-bf7e-3e1a13b092b5","system_id":"levelo_inurba_marseille","lat":43.26575,"lon":5.39014,"is_reserved":false,"is_disabled":false,"rental_uris":{"android":"levelo://app?vid=421f4cc1-3de2-48db-bf7e-3e1a13b092b5","ios":"levelo://app?vid=421f4cc1-3de2-48db-bf7e-3e1a13b092b5"},"vehicle_type_id":"4","last_reported":1727766550,"current_range_meters":29600,"station_id":"ce4bhe12rcd13ifvqf30","pricing_plan_id":"cebpf4jnsgd1na2vs0mg"},{"bike_id":"38b3fbba-7aa5-4fad-94a6-00f40ec984c3","system_id":"levelo_inurba_marseille","lat":43.30912,"lon":5.36845,"is_reserved":false,"is_disabled":false,"rental_uris":{"android":"levelo://app?vid=38b3fbba-7aa5-4fad-94a6-00f40ec984c3","ios":"levelo://app?vid=38b3fbba-7aa5-4fad-94a6-00f40ec984c3"},"vehicle_type_id":"4","last_reported":1727766550,"current_range_meters":36800,"station_id":"ce4bgn92rcd13ifvqbvg","pricing_plan_id":"cebpf4jnsgd1na2vs0mg"},{"bike_id":"778f76c6-7e80-4bc9-becd-bdbab61a5d78","system_id":"levelo_inurba_marseille","lat":43.26957,"lon":5.3864,"is_reserved":false,"is_disabled":false,"rental_uris":{"android":"levelo://app?vid=778f76c6-7e80-4bc9-becd-bdbab61a5d78","ios":"levelo://app?vid=778f76c6-7e80-4bc9-becd-bdbab61a5d78"},"vehicle_type_id":"4","last_reported":1727766550,"current_range_meters":27200,"station_id":"ce4bhh92rcd13ifvqfh0","pricing_plan_id":"cebpf4jnsgd1na2vs0mg"},{"bike_id":"1455c359-4044-473b-96a3-a0abee8cb49a","system_id":"levelo_inurba_marseille","lat":43.31036,"lon":5.37042,"is_reserved":false,"is_disabled":false,"rental_uris":{"android":"levelo://app?vid=1455c359-4044-473b-96a3-a0abee8cb49a","ios":"levelo://app?vid=1455c359-4044-473b-96a3-a0abee8cb49a"},"vehicle_type_id":"4","last_reported":1727766550,"current_range_meters":22800,"station_id":"","pricing_plan_id":"cebpf4jnsgd1na2vs0mg"},{"bike_id":"bdefd477-f598-4f46-970d-403f7a25e425","system_id":"levelo_inurba_marseille","lat":43.30467,"lon":5.37914,"is_reserved":false,"is_disabled":false,"rental_uris":{"android":"levelo://app?vid=bdefd477-f598-4f46-970d-403f7a25e425","ios":"levelo://app?vid=bdefd477-f598-4f46-970d-403f7a25e425"},"vehicle_type_id":"4","last_reported":1727766550,"current_range_meters":30800,"station_id":"ce4bgup2rcd13ifvqcn0","pricing_plan_id":"cebpf4jnsgd1na2vs0mg"},{"bike_id":"69103f01-1d57-4c2f-844a-e110ceb2d473","system_id":"levelo_inurba_marseille","lat":43.31157,"lon":5.36988,"is_reserved":false,"is_disabled":false,"rental_uris":{"android":"levelo://app?vid=69103f01-1d57-4c2f-844a-e110ceb2d473","ios":"levelo://app?vid=69103f01-1d57-4c2f-844a-e110ceb2d473"},"vehicle_type_id":"4","last_reported":1727766550,"current_range_meters":32000,"station_id":"","pricing_plan_id":"cebpf4jnsgd1na2vs0mg"},{"bike_id":"c10b955e-d816-4c19-b03c-5098252291ba","system_id":"levelo_inurba_marseille","lat":43.24073,"lon":5.37764,"is_reserved":false,"is_disabled":false,"rental_uris":{"android":"levelo://app?vid=c10b955e-d816-4c19-b03c-5098252291ba","ios":"levelo://app?vid=c10b955e-d816-4c19-b03c-5098252291ba"},"vehicle_type_id":"4","last_reported":1727766550,"current_range_meters":36800,"station_id":"ce4bhnp2rcd13ifvqgvg","pricing_plan_id":"cebpf4jnsgd1na2vs0mg"},{"bike_id":"df3246d2-826f-45f2-868b-0d23ff1782d9","system_id":"levelo_inurba_marseille","lat":43.32538,"lon":5.41443,"is_reserved":false,"is_disabled":false,"rental_uris":{"android":"levelo://app?vid=df3246d2-826f-45f2-868b-0d23ff1782d9","ios":"levelo://app?vid=df3246d2-826f-45f2-868b-0d23ff1782d9"},"vehicle_type_id":"4","last_reported":1727766550,"current_range_meters":36800,"station_id":"ce4bhq12rcd13ifvqhhg","pricing_plan_id":"cebpf4jnsgd1na2vs0mg"},{"bike_id":"646b4c85-8c7e-4715-856c-f450496d3f81","system_id":"levelo_inurba_marseille","lat":43.25933,"lon":5.40908,"is_reserved":false,"is_disabled":false,"rental_uris":{"android":"levelo://app?vid=646b4c85-8c7e-4715-856c-f450496d3f81","ios":"levelo://app?vid=646b4c85-8c7e-4715-856c-f450496d3f81"},"vehicle_type_id":"4","last_reported":1727766550,"current_range_meters":28000,"station_id":"ce4bhm92rcd13ifvqglg","pricing_plan_id":"cebpf4jnsgd1na2vs0mg"},{"bike_id":"d7ce7a5c-b08f-49b4-8b23-521e5b122803","system_id":"levelo_inurba_marseille","lat":43.23152,"lon":5.43705,"is_reserved":false,"is_disabled":false,"rental_uris":{"android":"levelo://app?vid=d7ce7a5c-b08f-49b4-8b23-521e5b122803","ios":"levelo://app?vid=d7ce7a5c-b08f-49b4-8b23-521e5b122803"},"vehicle_type_id":"4","last_reported":1727766550,"current_range_meters":18000,"station_id":"ce4bhmp2rcd13ifvqgog","pricing_plan_id":"cebpf4jnsgd1na2vs0mg"},{"bike_id":"0286604c-ebcd-4b76-ab34-035b2515523e","system_id":"levelo_inurba_marseille","lat":43.3046,"lon":5.37895,"is_reserved":false,"is_disabled":false,"rental_uris":{"android":"levelo://app?vid=0286604c-ebcd-4b76-ab34-035b2515523e","ios":"levelo://app?vid=0286604c-ebcd-4b76-ab34-035b2515523e"},"vehicle_type_id":"4","last_reported":1727766550,"current_range_meters":34800,"station_id":"ce4bgup2rcd13ifvqcn0","pricing_plan_id":"cebpf4jnsgd1na2vs0mg"},{"bike_id":"8c953216-c4cc-430e-9f25-efd8b4dbb69e","system_id":"levelo_inurba_marseille","lat":43.24075,"lon":5.37761,"is_reserved":false,"is_disabled":false,"rental_uris":{"android":"levelo://app?vid=8c953216-c4cc-430e-9f25-efd8b4dbb69e","ios":"levelo://app?vid=8c953216-c4cc-430e-9f25-efd8b4dbb69e"},"vehicle_type_id":"4","last_reported":1727766550,"current_range_meters":27600,"station_id":"ce4bhnp2rcd13ifvqgvg","pricing_plan_id":"cebpf4jnsgd1na2vs0mg"},{"bike_id":"b6710b5a-6594-4cb4-8c26-27d53140def4","system_id":"levelo_inurba_marseille","lat":43.26949,"lon":5.4025,"is_reserved":false,"is_disabled":false,"rental_uris":{"android":"levelo://app?vid=b6710b5a-6594-4cb4-8c26-27d53140def4","ios":"levelo://app?vid=b6710b5a-6594-4cb4-8c26-27d53140def4"},"vehicle_type_id":"4","last_reported":1727766550,"current_range_meters":15200,"station_id":"cjm6bp8fraef2m0cb0m0","pricing_plan_id":"cebpf4jnsgd1na2vs0mg"},{"bike_id":"995b6506-7e48-4efc-8aec-fb0cbbe92231","system_id":"levelo_inurba_marseille","lat":43.28443,"lon":5.37829,"is_reserved":false,"is_disabled":false,"rental_uris":{"android":"levelo://app?vid=995b6506-7e48-4efc-8aec-fb0cbbe92231","ios":"levelo://app?vid=995b6506-7e48-4efc-8aec-fb0cbbe92231"},"vehicle_type_id":"4","last_reported":1727766550,"current_range_meters":8400,"station_id":"","pricing_plan_id":"cebpf4jnsgd1na2vs0mg"},{"bike_id":"5772a581-fd0b-4cc8-9938-59974787590a","system_id":"levelo_inurba_marseille","lat":43.29802,"lon":5.38089,"is_reserved":false,"is_disabled":false,"rental_uris":{"android":"levelo://app?vid=5772a581-fd0b-4cc8-9938-59974787590a","ios":"levelo://app?vid=5772a581-fd0b-4cc8-9938-59974787590a"},"vehicle_type_id":"4","last_reported":1727766550,"current_range_meters":38000,"station_id":"","pricing_plan_id":"cebpf4jnsgd1na2vs0mg"},{"bike_id":"c88420e8-6815-43b2-bda3-fd26e492ada2","system_id":"levelo_inurba_marseille","lat":43.28273,"lon":5.35056,"is_reserved":false,"is_disabled":false,"rental_uris":{"android":"levelo://app?vid=c88420e8-6815-43b2-bda3-fd26e492ada2","ios":"levelo://app?vid=c88420e8-6815-43b2-bda3-fd26e492ada2"},"vehicle_type_id":"4","last_reported":1727766550,"current_range_meters":26800,"station_id":"ce4bhbp2rcd13ifvqerg","pricing_plan_id":"cebpf4jnsgd1na2vs0mg"},{"bike_id":"3beadf9d-cc57-4cfa-b23e-ac53aab533e0","system_id":"levelo_inurba_marseille","lat":43.30273,"lon":5.37704,"is_reserved":false,"is_disabled":false,"rental_uris":{"android":"levelo://app?vid=3beadf9d-cc57-4cfa-b23e-ac53aab533e0","ios":"levelo://app?vid=3beadf9d-cc57-4cfa-b23e-ac53aab533e0"},"vehicle_type_id":"4","last_reported":1727766550,"current_range_meters":38000,"station_id":"ce4bguh2rcd13ifvqcj0","pricing_plan_id":"cebpf4jnsgd1na2vs0mg"},{"bike_id":"c61eade8-0698-4e9c-af11-80d5f72fd902","system_id":"levelo_inurba_marseille","lat":43.27215,"lon":5.39169,"is_reserved":false,"is_disabled":false,"rental_uris":{"android":"levelo://app?vid=c61eade8-0698-4e9c-af11-80d5f72fd902","ios":"levelo://app?vid=c61eade8-0698-4e9c-af11-80d5f72fd902"},"vehicle_type_id":"4","last_reported":1727766550,"current_range_meters":11600,"station_id":"","pricing_plan_id":"cebpf4jnsgd1na2vs0mg"},{"bike_id":"6c4a97ef-ed56-4d85-98d9-463a709b63f3","system_id":"levelo_inurba_marseille","lat":43.24194,"lon":5.40554,"is_reserved":false,"is_disabled":false,"rental_uris":{"android":"levelo://app?vid=6c4a97ef-ed56-4d85-98d9-463a709b63f3","ios":"levelo://app?vid=6c4a97ef-ed56-4d85-98d9-463a709b63f3"},"vehicle_type_id":"4","last_reported":1727766550,"current_range_meters":19600,"station_id":"","pricing_plan_id":"cebpf4jnsgd1na2vs0mg"},{"bike_id":"ab80b424-bfc5-4709-9b95-a2bee6a56f64","system_id":"levelo_inurba_marseille","lat":43.3229,"lon":5.3827,"is_reserved":false,"is_disabled":false,"rental_uris":{"android":"levelo://app?vid=ab80b424-bfc5-4709-9b95-a2bee6a56f64","ios":"levelo://app?vid=ab80b424-bfc5-4709-9b95-a2bee6a56f64"},"vehicle_type_id":"4","last_reported":1727766550,"current_range_meters":39200,"station_id":"ce4bhr12rcd13ifvqhqg","pricing_plan_id":"cebpf4jnsgd1na2vs0mg"},{"bike_id":"2bfd4452-d854-4ea1-8b71-db38f940202a","system_id":"levelo_inurba_marseille","lat":43.30538,"lon":5.36711,"is_reserved":false,"is_disabled":false,"rental_uris":{"android":"levelo://app?vid=2bfd4452-d854-4ea1-8b71-db38f940202a","ios":"levelo://app?vid=2bfd4452-d854-4ea1-8b71-db38f940202a"},"vehicle_type_id":"4","last_reported":1727766550,"current_range_meters":36000,"station_id":"ce4bgrp2rcd13ifvqc9g","pricing_plan_id":"cebpf4jnsgd1na2vs0mg"},{"bike_id":"56009a37-3059-400a-9a4a-171c9065458d","system_id":"levelo_inurba_marseille","lat":43.29041,"lon":5.39961,"is_reserved":false,"is_disabled":false,"rental_uris":{"android":"levelo://app?vid=56009a37-3059-400a-9a4a-171c9065458d","ios":"levelo://app?vid=56009a37-3059-400a-9a4a-171c9065458d"},"vehicle_type_id":"4","last_reported":1727766550,"current_range_meters":34800,"station_id":"ce4bh392rcd13ifvqdm0","pricing_plan_id":"cebpf4jnsgd1na2vs0mg"},{"bike_id":"157abced-53dc-49f0-8be0-a1a494696491","system_id":"levelo_inurba_marseille","lat":43.25938,"lon":5.40903,"is_reserved":false,"is_disabled":false,"rental_uris":{"android":"levelo://app?vid=157abced-53dc-49f0-8be0-a1a494696491","ios":"levelo://app?vid=157abced-53dc-49f0-8be0-a1a494696491"},"vehicle_type_id":"4","last_reported":1727766550,"current_range_meters":32800,"station_id":"ce4bhm92rcd13ifvqglg","pricing_plan_id":"cebpf4jnsgd1na2vs0mg"},{"bike_id":"dd05cf58-177b-4d66-8ca2-fe7872404e55","system_id":"levelo_inurba_marseille","lat":43.23154,"lon":5.4371,"is_reserved":false,"is_disabled":false,"rental_uris":{"android":"levelo://app?vid=dd05cf58-177b-4d66-8ca2-fe7872404e55","ios":"levelo://app?vid=dd05cf58-177b-4d66-8ca2-fe7872404e55"},"vehicle_type_id":"4","last_reported":1727766550,"current_range_meters":33200,"station_id":"ce4bhmp2rcd13ifvqgog","pricing_plan_id":"cebpf4jnsgd1na2vs0mg"},{"bike_id":"8bc9d069-e21e-466b-87c2-8dfa6d23d3cc","system_id":"levelo_inurba_marseille","lat":43.30474,"lon":5.37901,"is_reserved":false,"is_disabled":false,"rental_uris":{"android":"levelo://app?vid=8bc9d069-e21e-466b-87c2-8dfa6d23d3cc","ios":"levelo://app?vid=8bc9d069-e21e-466b-87c2-8dfa6d23d3cc"},"vehicle_type_id":"4","last_reported":1727766550,"current_range_meters":38000,"station_id":"ce4bgup2rcd13ifvqcn0","pricing_plan_id":"cebpf4jnsgd1na2vs0mg"},{"bike_id":"798c4278-1622-4c86-8893-fc54c9358653","system_id":"levelo_inurba_marseille","lat":43.2509,"lon":5.39508,"is_reserved":false,"is_disabled":false,"rental_uris":{"android":"levelo://app?vid=798c4278-1622-4c86-8893-fc54c9358653","ios":"levelo://app?vid=798c4278-1622-4c86-8893-fc54c9358653"},"vehicle_type_id":"4","last_reported":1727766550,"current_range_meters":30400,"station_id":"ce4bhm12rcd13ifvqgkg","pricing_plan_id":"cebpf4jnsgd1na2vs0mg"},{"bike_id":"5a9f13c9-9e95-48e9-ab85-4e426f691561","system_id":"levelo_inurba_marseille","lat":43.26684,"lon":5.38271,"is_reserved":false,"is_disabled":false,"rental_uris":{"android":"levelo://app?vid=5a9f13c9-9e95-48e9-ab85-4e426f691561","ios":"levelo://app?vid=5a9f13c9-9e95-48e9-ab85-4e426f691561"},"vehicle_type_id":"4","last_reported":1727766550,"current_range_meters":32000,"station_id":"ce4bhg92rcd13ifvqf90","pricing_plan_id":"cebpf4jnsgd1na2vs0mg"},{"bike_id":"f493192b-13c6-47a1-9573-739dd32e633f","system_id":"levelo_inurba_marseille","lat":43.337444,"lon":5.374475,"is_reserved":false,"is_disabled":false,"rental_uris":{"android":"levelo://app?vid=f493192b-13c6-47a1-9573-739dd32e633f","ios":"levelo://app?vid=f493192b-13c6-47a1-9573-739dd32e633f"},"vehicle_type_id":"4","last_reported":1727766550,"current_range_meters":18000,"station_id":"","pricing_plan_id":"cebpf4jnsgd1na2vs0mg"},{"bike_id":"b231954d-f7b6-4b84-825d-eadedc44dc59","system_id":"levelo_inurba_marseille","lat":43.26584,"lon":5.39024,"is_reserved":false,"is_disabled":false,"rental_uris":{"android":"levelo://app?vid=b231954d-f7b6-4b84-825d-eadedc44dc59","ios":"levelo://app?vid=b231954d-f7b6-4b84-825d-eadedc44dc59"},"vehicle_type_id":"4","last_reported":1727766550,"current_range_meters":18000,"station_id":"ce4bhe12rcd13ifvqf30","pricing_plan_id":"cebpf4jnsgd1na2vs0mg"},{"bike_id":"9d1d3c92-cfa3-46c4-a687-f6d65be16f82","system_id":"levelo_inurba_marseille","lat":43.325423,"lon":5.414281,"is_reserved":false,"is_disabled":false,"rental_uris":{"android":"levelo://app?vid=9d1d3c92-cfa3-46c4-a687-f6d65be16f82","ios":"levelo://app?vid=9d1d3c92-cfa3-46c4-a687-f6d65be16f82"},"vehicle_type_id":"4","last_reported":1727766550,"current_range_meters":24400,"station_id":"ce4bhq12rcd13ifvqhhg","pricing_plan_id":"cebpf4jnsgd1na2vs0mg"},{"bike_id":"ce6166ea-c4ad-4ecf-8cb6-35a2f13ea8fd","system_id":"levelo_inurba_marseille","lat":43.23956,"lon":5.36632,"is_reserved":false,"is_disabled":false,"rental_uris":{"android":"levelo://app?vid=ce6166ea-c4ad-4ecf-8cb6-35a2f13ea8fd","ios":"levelo://app?vid=ce6166ea-c4ad-4ecf-8cb6-35a2f13ea8fd"},"vehicle_type_id":"4","last_reported":1727766550,"current_range_meters":18000,"station_id":"ce4bhi12rcd13ifvqfp0","pricing_plan_id":"cebpf4jnsgd1na2vs0mg"},{"bike_id":"682e8091-68ea-4fce-b1bd-5ad117660139","system_id":"levelo_inurba_marseille","lat":43.2827,"lon":5.35065,"is_reserved":false,"is_disabled":false,"rental_uris":{"android":"levelo://app?vid=682e8091-68ea-4fce-b1bd-5ad117660139","ios":"levelo://app?vid=682e8091-68ea-4fce-b1bd-5ad117660139"},"vehicle_type_id":"4","last_reported":1727766550,"current_range_meters":26800,"station_id":"ce4bhbp2rcd13ifvqerg","pricing_plan_id":"cebpf4jnsgd1na2vs0mg"},{"bike_id":"b1d24671-07cf-4217-874f-d33bb3918dec","system_id":"levelo_inurba_marseille","lat":43.25936,"lon":5.40912,"is_reserved":false,"is_disabled":false,"rental_uris":{"android":"levelo://app?vid=b1d24671-07cf-4217-874f-d33bb3918dec","ios":"levelo://app?vid=b1d24671-07cf-4217-874f-d33bb3918dec"},"vehicle_type_id":"4","last_reported":1727766550,"current_range_meters":20000,"station_id":"ce4bhm92rcd13ifvqglg","pricing_plan_id":"cebpf4jnsgd1na2vs0mg"},{"bike_id":"2805f4c3-81fa-431e-94ba-e5d48719baf6","system_id":"levelo_inurba_marseille","lat":43.313506,"lon":5.367054,"is_reserved":false,"is_disabled":false,"rental_uris":{"android":"levelo://app?vid=2805f4c3-81fa-431e-94ba-e5d48719baf6","ios":"levelo://app?vid=2805f4c3-81fa-431e-94ba-e5d48719baf6"},"vehicle_type_id":"4","last_reported":1727766550,"current_range_meters":29600,"station_id":"ce4bgr92rcd13ifvqc6g","pricing_plan_id":"cebpf4jnsgd1na2vs0mg"},{"bike_id":"b7580aa5-d4a6-429a-b040-19d10531679c","system_id":"levelo_inurba_marseille","lat":43.29598,"lon":5.38105,"is_reserved":false,"is_disabled":false,"rental_uris":{"android":"levelo://app?vid=b7580aa5-d4a6-429a-b040-19d10531679c","ios":"levelo://app?vid=b7580aa5-d4a6-429a-b040-19d10531679c"},"vehicle_type_id":"4","last_reported":1727766550,"current_range_meters":37600,"station_id":"ce4bgl12rcd13ifvqbo0","pricing_plan_id":"cebpf4jnsgd1na2vs0mg"},{"bike_id":"2ac81d19-f486-4c17-8c0b-c55da6440434","system_id":"levelo_inurba_marseille","lat":43.27061,"lon":5.40265,"is_reserved":false,"is_disabled":false,"rental_uris":{"android":"levelo://app?vid=2ac81d19-f486-4c17-8c0b-c55da6440434","ios":"levelo://app?vid=2ac81d19-f486-4c17-8c0b-c55da6440434"},"vehicle_type_id":"4","last_reported":1727766550,"current_range_meters":33200,"station_id":"ce4bhk92rcd13ifvqgc0","pricing_plan_id":"cebpf4jnsgd1na2vs0mg"},{"bike_id":"7123b58c-bb77-48f8-8d0e-0d06f320fbef","system_id":"levelo_inurba_marseille","lat":43.31335,"lon":5.36712,"is_reserved":false,"is_disabled":false,"rental_uris":{"android":"levelo://app?vid=7123b58c-bb77-48f8-8d0e-0d06f320fbef","ios":"levelo://app?vid=7123b58c-bb77-48f8-8d0e-0d06f320fbef"},"vehicle_type_id":"4","last_reported":1727766550,"current_range_meters":34800,"station_id":"ce4bgr92rcd13ifvqc6g","pricing_plan_id":"cebpf4jnsgd1na2vs0mg"},{"bike_id":"73ca4be2-25fb-4792-a9e0-fc651276be85","system_id":"levelo_inurba_marseille","lat":43.29076,"lon":5.37168,"is_reserved":false,"is_disabled":false,"rental_uris":{"android":"levelo://app?vid=73ca4be2-25fb-4792-a9e0-fc651276be85","ios":"levelo://app?vid=73ca4be2-25fb-4792-a9e0-fc651276be85"},"vehicle_type_id":"4","last_reported":1727766550,"current_range_meters":28000,"station_id":"ce4bh5p2rcd13ifvqe4g","pricing_plan_id":"cebpf4jnsgd1na2vs0mg"},{"bike_id":"5fdb59ea-177a-40ae-bdac-1d76255af3ca","system_id":"levelo_inurba_marseille","lat":43.30978,"lon":5.37046,"is_reserved":false,"is_disabled":false,"rental_uris":{"android":"levelo://app?vid=5fdb59ea-177a-40ae-bdac-1d76255af3ca","ios":"levelo://app?vid=5fdb59ea-177a-40ae-bdac-1d76255af3ca"},"vehicle_type_id":"4","last_reported":1727766550,"current_range_meters":30000,"station_id":"","pricing_plan_id":"cebpf4jnsgd1na2vs0mg"},{"bike_id":"e3f658f2-4155-4818-b7f2-817ddb02bc45","system_id":"levelo_inurba_marseille","lat":43.30462,"lon":5.379,"is_reserved":false,"is_disabled":false,"rental_uris":{"android":"levelo://app?vid=e3f658f2-4155-4818-b7f2-817ddb02bc45","ios":"levelo://app?vid=e3f658f2-4155-4818-b7f2-817ddb02bc45"},"vehicle_type_id":"4","last_reported":1727766550,"current_range_meters":8800,"station_id":"ce4bgup2rcd13ifvqcn0","pricing_plan_id":"cebpf4jnsgd1na2vs0mg"},{"bike_id":"eef0ff24-2e3f-471a-8736-b680248f123f","system_id":"levelo_inurba_marseille","lat":43.31708,"lon":5.37759,"is_reserved":false,"is_disabled":false,"rental_uris":{"android":"levelo://app?vid=eef0ff24-2e3f-471a-8736-b680248f123f","ios":"levelo://app?vid=eef0ff24-2e3f-471a-8736-b680248f123f"},"vehicle_type_id":"4","last_reported":1727766550,"current_range_meters":38000,"station_id":"ce4bgth2rcd13ifvqch0","pricing_plan_id":"cebpf4jnsgd1na2vs0mg"},{"bike_id":"abe28c0f-95e2-4dbe-b648-80d454a0ea19","system_id":"levelo_inurba_marseille","lat":43.29563,"lon":5.42285,"is_reserved":false,"is_disabled":false,"rental_uris":{"android":"levelo://app?vid=abe28c0f-95e2-4dbe-b648-80d454a0ea19","ios":"levelo://app?vid=abe28c0f-95e2-4dbe-b648-80d454a0ea19"},"vehicle_type_id":"4","last_reported":1727766550,"current_range_meters":36800,"station_id":"ce4bhph2rcd13ifvqhdg","pricing_plan_id":"cebpf4jnsgd1na2vs0mg"},{"bike_id":"4cb4739d-c39c-44ec-9104-a05dd304b44e","system_id":"levelo_inurba_marseille","lat":43.29698,"lon":5.37705,"is_reserved":false,"is_disabled":false,"rental_uris":{"android":"levelo://app?vid=4cb4739d-c39c-44ec-9104-a05dd304b44e","ios":"levelo://app?vid=4cb4739d-c39c-44ec-9104-a05dd304b44e"},"vehicle_type_id":"4","last_reported":1727766550,"current_range_meters":19200,"station_id":"ce4bgkh2rcd13ifvqbl0","pricing_plan_id":"cebpf4jnsgd1na2vs0mg"},{"bike_id":"fd975a2d-db0c-49e5-9c92-4b118eaa575e","system_id":"levelo_inurba_marseille","lat":43.27994,"lon":5.40022,"is_reserved":false,"is_disabled":false,"rental_uris":{"android":"levelo://app?vid=fd975a2d-db0c-49e5-9c92-4b118eaa575e","ios":"levelo://app?vid=fd975a2d-db0c-49e5-9c92-4b118eaa575e"},"vehicle_type_id":"4","last_reported":1727766550,"current_range_meters":35600,"station_id":"ce4bho92rcd13ifvqh4g","pricing_plan_id":"cebpf4jnsgd1na2vs0mg"},{"bike_id":"4df7c062-ba79-48c0-a4bf-1bf2ae913511","system_id":"levelo_inurba_marseille","lat":43.30467,"lon":5.37895,"is_reserved":false,"is_disabled":false,"rental_uris":{"android":"levelo://app?vid=4df7c062-ba79-48c0-a4bf-1bf2ae913511","ios":"levelo://app?vid=4df7c062-ba79-48c0-a4bf-1bf2ae913511"},"vehicle_type_id":"4","last_reported":1727766550,"current_range_meters":5600,"station_id":"ce4bgup2rcd13ifvqcn0","pricing_plan_id":"cebpf4jnsgd1na2vs0mg"},{"bike_id":"f5de992b-d621-474d-8491-27a9dcd63918","system_id":"levelo_inurba_marseille","lat":43.30462,"lon":5.37896,"is_reserved":false,"is_disabled":false,"rental_uris":{"android":"levelo://app?vid=f5de992b-d621-474d-8491-27a9dcd63918","ios":"levelo://app?vid=f5de992b-d621-474d-8491-27a9dcd63918"},"vehicle_type_id":"4","last_reported":1727766550,"current_range_meters":27200,"station_id":"ce4bgup2rcd13ifvqcn0","pricing_plan_id":"cebpf4jnsgd1na2vs0mg"},{"bike_id":"9711c5af-ceda-4c50-b517-1e16cc14a4c7","system_id":"levelo_inurba_marseille","lat":43.23151,"lon":5.43719,"is_reserved":false,"is_disabled":false,"rental_uris":{"android":"levelo://app?vid=9711c5af-ceda-4c50-b517-1e16cc14a4c7","ios":"levelo://app?vid=9711c5af-ceda-4c50-b517-1e16cc14a4c7"},"vehicle_type_id":"4","last_reported":1727766550,"current_range_meters":12800,"station_id":"ce4bhmp2rcd13ifvqgog","pricing_plan_id":"cebpf4jnsgd1na2vs0mg"},{"bike_id":"c140181c-295c-48d3-9d2f-f9a7624dcd1d","system_id":"levelo_inurba_marseille","lat":43.30913,"lon":5.3685,"is_reserved":false,"is_disabled":false,"rental_uris":{"android":"levelo://app?vid=c140181c-295c-48d3-9d2f-f9a7624dcd1d","ios":"levelo://app?vid=c140181c-295c-48d3-9d2f-f9a7624dcd1d"},"vehicle_type_id":"4","last_reported":1727766550,"current_range_meters":38800,"station_id":"ce4bgn92rcd13ifvqbvg","pricing_plan_id":"cebpf4jnsgd1na2vs0mg"},{"bike_id":"92ad446d-04d8-421c-b7e9-81b41ea68153","system_id":"levelo_inurba_marseille","lat":43.29576,"lon":5.39971,"is_reserved":false,"is_disabled":false,"rental_uris":{"android":"levelo://app?vid=92ad446d-04d8-421c-b7e9-81b41ea68153","ios":"levelo://app?vid=92ad446d-04d8-421c-b7e9-81b41ea68153"},"vehicle_type_id":"4","last_reported":1727766550,"current_range_meters":32000,"station_id":"ce4bh312rcd13ifvqdj0","pricing_plan_id":"cebpf4jnsgd1na2vs0mg"},{"bike_id":"aa122f98-8b5e-4a7d-bbd7-05f7603260ae","system_id":"levelo_inurba_marseille","lat":43.27486,"lon":5.42459,"is_reserved":false,"is_disabled":false,"rental_uris":{"android":"levelo://app?vid=aa122f98-8b5e-4a7d-bbd7-05f7603260ae","ios":"levelo://app?vid=aa122f98-8b5e-4a7d-bbd7-05f7603260ae"},"vehicle_type_id":"4","last_reported":1727766550,"current_range_meters":38800,"station_id":"ce4bhn92rcd13ifvqgrg","pricing_plan_id":"cebpf4jnsgd1na2vs0mg"},{"bike_id":"77a42bf1-5185-47ee-966f-30c7afcd7b5b","system_id":"levelo_inurba_marseille","lat":43.28271,"lon":5.35069,"is_reserved":false,"is_disabled":false,"rental_uris":{"android":"levelo://app?vid=77a42bf1-5185-47ee-966f-30c7afcd7b5b","ios":"levelo://app?vid=77a42bf1-5185-47ee-966f-30c7afcd7b5b"},"vehicle_type_id":"4","last_reported":1727766550,"current_range_meters":30000,"station_id":"ce4bhbp2rcd13ifvqerg","pricing_plan_id":"cebpf4jnsgd1na2vs0mg"},{"bike_id":"a8b2b094-8e78-44e1-816c-9eff62369494","system_id":"levelo_inurba_marseille","lat":43.23158,"lon":5.43701,"is_reserved":false,"is_disabled":false,"rental_uris":{"android":"levelo://app?vid=a8b2b094-8e78-44e1-816c-9eff62369494","ios":"levelo://app?vid=a8b2b094-8e78-44e1-816c-9eff62369494"},"vehicle_type_id":"4","last_reported":1727766550,"current_range_meters":9600,"station_id":"ce4bhmp2rcd13ifvqgog","pricing_plan_id":"cebpf4jnsgd1na2vs0mg"},{"bike_id":"4bec25e9-11af-4712-bbb7-aae993c3453e","system_id":"levelo_inurba_marseille","lat":43.27177,"lon":5.40993,"is_reserved":false,"is_disabled":false,"rental_uris":{"android":"levelo://app?vid=4bec25e9-11af-4712-bbb7-aae993c3453e","ios":"levelo://app?vid=4bec25e9-11af-4712-bbb7-aae993c3453e"},"vehicle_type_id":"4","last_reported":1727766550,"current_range_meters":38000,"station_id":"ce4bhl12rcd13ifvqgf0","pricing_plan_id":"cebpf4jnsgd1na2vs0mg"},{"bike_id":"c08b6880-558c-40be-8e4f-164cda7f1a69","system_id":"levelo_inurba_marseille","lat":43.31356,"lon":5.36732,"is_reserved":false,"is_disabled":false,"rental_uris":{"android":"levelo://app?vid=c08b6880-558c-40be-8e4f-164cda7f1a69","ios":"levelo://app?vid=c08b6880-558c-40be-8e4f-164cda7f1a69"},"vehicle_type_id":"4","last_reported":1727766550,"current_range_meters":38400,"station_id":"ce4bgr92rcd13ifvqc6g","pricing_plan_id":"cebpf4jnsgd1na2vs0mg"},{"bike_id":"4eb6991c-cff8-4125-b49d-d132319ff7b9","system_id":"levelo_inurba_marseille","lat":43.293329,"lon":5.371649,"is_reserved":false,"is_disabled":false,"rental_uris":{"android":"levelo://app?vid=4eb6991c-cff8-4125-b49d-d132319ff7b9","ios":"levelo://app?vid=4eb6991c-cff8-4125-b49d-d132319ff7b9"},"vehicle_type_id":"4","last_reported":1727766550,"current_range_meters":24800,"station_id":"ce4bgh92rcd13ifvqb40","pricing_plan_id":"cebpf4jnsgd1na2vs0mg"},{"bike_id":"4cd58096-ca90-49b0-bbfb-c74fe85253bf","system_id":"levelo_inurba_marseille","lat":43.26958,"lon":5.38631,"is_reserved":false,"is_disabled":false,"rental_uris":{"android":"levelo://app?vid=4cd58096-ca90-49b0-bbfb-c74fe85253bf","ios":"levelo://app?vid=4cd58096-ca90-49b0-bbfb-c74fe85253bf"},"vehicle_type_id":"4","last_reported":1727766550,"current_range_meters":33200,"station_id":"ce4bhh92rcd13ifvqfh0","pricing_plan_id":"cebpf4jnsgd1na2vs0mg"},{"bike_id":"6606e382-907f-42bd-91a3-91aad530c891","system_id":"levelo_inurba_marseille","lat":43.28939,"lon":5.36379,"is_reserved":false,"is_disabled":false,"rental_uris":{"android":"levelo://app?vid=6606e382-907f-42bd-91a3-91aad530c891","ios":"levelo://app?vid=6606e382-907f-42bd-91a3-91aad530c891"},"vehicle_type_id":"4","last_reported":1727766550,"current_range_meters":13600,"station_id":"ce4bhc92rcd13ifvqetg","pricing_plan_id":"cebpf4jnsgd1na2vs0mg"},{"bike_id":"9c8ec900-0c10-4872-bd04-47276c3c8ed6","system_id":"levelo_inurba_marseille","lat":43.30547,"lon":5.36704,"is_reserved":false,"is_disabled":false,"rental_uris":{"android":"levelo://app?vid=9c8ec900-0c10-4872-bd04-47276c3c8ed6","ios":"levelo://app?vid=9c8ec900-0c10-4872-bd04-47276c3c8ed6"},"vehicle_type_id":"4","last_reported":1727766550,"current_range_meters":36400,"station_id":"ce4bgrp2rcd13ifvqc9g","pricing_plan_id":"cebpf4jnsgd1na2vs0mg"},{"bike_id":"32abfb8d-b496-47c1-95bb-782582415fe8","system_id":"levelo_inurba_marseille","lat":43.30311,"lon":5.3689,"is_reserved":false,"is_disabled":false,"rental_uris":{"android":"levelo://app?vid=32abfb8d-b496-47c1-95bb-782582415fe8","ios":"levelo://app?vid=32abfb8d-b496-47c1-95bb-782582415fe8"},"vehicle_type_id":"4","last_reported":1727766550,"current_range_meters":24400,"station_id":"ce4bgqh2rcd13ifvqc5g","pricing_plan_id":"cebpf4jnsgd1na2vs0mg"},{"bike_id":"1bad49f4-e608-4750-969b-cf1811aa3085","system_id":"levelo_inurba_marseille","lat":43.337444,"lon":5.374475,"is_reserved":false,"is_disabled":false,"rental_uris":{"android":"levelo://app?vid=1bad49f4-e608-4750-969b-cf1811aa3085","ios":"levelo://app?vid=1bad49f4-e608-4750-969b-cf1811aa3085"},"vehicle_type_id":"4","last_reported":1727766550,"current_range_meters":32800,"station_id":"","pricing_plan_id":"cebpf4jnsgd1na2vs0mg"},{"bike_id":"0cd2142c-5562-430f-861b-4e7329de9689","system_id":"levelo_inurba_marseille","lat":43.32289,"lon":5.38262,"is_reserved":false,"is_disabled":false,"rental_uris":{"android":"levelo://app?vid=0cd2142c-5562-430f-861b-4e7329de9689","ios":"levelo://app?vid=0cd2142c-5562-430f-861b-4e7329de9689"},"vehicle_type_id":"4","last_reported":1727766550,"current_range_meters":12000,"station_id":"ce4bhr12rcd13ifvqhqg","pricing_plan_id":"cebpf4jnsgd1na2vs0mg"},{"bike_id":"455a6c92-47fa-4687-87df-47325b21ee25","system_id":"levelo_inurba_marseille","lat":43.304674,"lon":5.379062,"is_reserved":false,"is_disabled":false,"rental_uris":{"android":"levelo://app?vid=455a6c92-47fa-4687-87df-47325b21ee25","ios":"levelo://app?vid=455a6c92-47fa-4687-87df-47325b21ee25"},"vehicle_type_id":"4","last_reported":1727766550,"current_range_meters":37600,"station_id":"ce4bgup2rcd13ifvqcn0","pricing_plan_id":"cebpf4jnsgd1na2vs0mg"},{"bike_id":"535bd3fc-9ed6-4d8a-b132-b0714a281f53","system_id":"levelo_inurba_marseille","lat":43.32288,"lon":5.38276,"is_reserved":false,"is_disabled":false,"rental_uris":{"android":"levelo://app?vid=535bd3fc-9ed6-4d8a-b132-b0714a281f53","ios":"levelo://app?vid=535bd3fc-9ed6-4d8a-b132-b0714a281f53"},"vehicle_type_id":"4","last_reported":1727766550,"current_range_meters":38800,"station_id":"ce4bhr12rcd13ifvqhqg","pricing_plan_id":"cebpf4jnsgd1na2vs0mg"},{"bike_id":"0975825c-9f20-46cb-9562-816ced7a7f94","system_id":"levelo_inurba_marseille","lat":43.2835,"lon":5.38113,"is_reserved":false,"is_disabled":false,"rental_uris":{"android":"levelo://app?vid=0975825c-9f20-46cb-9562-816ced7a7f94","ios":"levelo://app?vid=0975825c-9f20-46cb-9562-816ced7a7f94"},"vehicle_type_id":"4","last_reported":1727766550,"current_range_meters":36000,"station_id":"ce4bh412rcd13ifvqdr0","pricing_plan_id":"cebpf4jnsgd1na2vs0mg"},{"bike_id":"371c9cb0-3063-42f4-a9a5-6e3d5f20b865","system_id":"levelo_inurba_marseille","lat":43.31227,"lon":5.36899,"is_reserved":false,"is_disabled":false,"rental_uris":{"android":"levelo://app?vid=371c9cb0-3063-42f4-a9a5-6e3d5f20b865","ios":"levelo://app?vid=371c9cb0-3063-42f4-a9a5-6e3d5f20b865"},