{"last_updated":1736014305,"ttl":60,"version":"2.2","data":{"bikes":[{"bike_id":"219f96e8-866d-4e75-93ee-a765bb19a72c","system_id":"levelo_inurba_marseille","lat":43.31685,"lon":5.40476,"is_reserved":false,"is_disabled":false,"rental_uris":{"android":"levelo://app?vid=219f96e8-866d-4e75-93ee-a765bb19a72c","ios":"levelo://app?vid=219f96e8-866d-4e75-93ee-a765bb19a72c"},"vehicle_type_id":"4","last_reported":1736014305,"current_range_meters":3200,"station_id":"ce4bh012rcd13ifvqd00","pricing_plan_id":"cebpf4jnsgd1na2vs0mg"},{"bike_id":"b0373c5e-66a9-45a5-85a9-c1f62adb650e","system_id":"levelo_inurba_marseille","lat":43.29614,"lon":5.37727,"is_reserved":false,"is_disabled":false,"rental_uris":{"android":"levelo://app?vid=b0373c5e-66a9-45a5-85a9-c1f62adb650e","ios":"levelo://app?vid=b0373c5e-66a9-45a5-85a9-c1f62adb650e"},"vehicle_type_id":"4","last_reported":1736014305,"current_range_meters":9600,"station_id":"ce4bgi92rcd13ifvqb90","pricing_plan_id":"cebpf4jnsgd1na2vs0mg"},{"bike_id":"4517f105-c6cd-42b4-a2b8-453f0a872c81","system_id":"levelo_inurba_marseille","lat":43.24679,"lon":5.38165,"is_reserved":false,"is_disabled":false,"rental_uris":{"android":"levelo://app?vid=4517f105-c6cd-42b4-a2b8-453f0a872c81","ios":"levelo://app?vid=4517f105-c6cd-42b4-a2b8-453f0a872c81"},"vehicle_type_id":"4","last_reported":1736014305,"current_range_meters":24000,"station_id":"ce4bhih2rcd13ifvqfr0","pricing_plan_id":"cebpf4jnsgd1na2vs0mg"},{"bike_id":"f6e2be4b-fa77-4b38-bd45-618bcfa7f100","system_id":"levelo_inurba_marseille","lat":43.30322,"lon":5.36904,"is_reserved":false,"is_disabled":false,"rental_uris":{"android":"levelo://app?vid=f6e2be4b-fa77-4b38-bd45-618bcfa7f100","ios":"levelo://app?vid=f6e2be4b-fa77-4b38-bd45-618bcfa7f100"},"vehicle_type_id":"4","last_reported":1736014305,"current_range_meters":38800,"station_id":"ce4bgqh2rcd13ifvqc5g","pricing_plan_id":"cebpf4jnsgd1na2vs0mg"},{"bike_id":"25bc056f-6168-4a4c-8539-4f5b06414dad","system_id":"levelo_inurba_marseille","lat":43.26784,"lon":5.39428,"is_reserved":false,"is_disabled":false,"rental_uris":{"android":"levelo://app?vid=25bc056f-6168-4a4c-8539-4f5b06414dad","ios":"levelo://app?vid=25bc056f-6168-4a4c-8539-4f5b06414dad"},"vehicle_type_id":"4","last_reported":1736014305,"current_range_meters":26800,"station_id":"ce4bhh12rcd13ifvqfg0","pricing_plan_id":"cebpf4jnsgd1na2vs0mg"},{"bike_id":"d4d926a5-e9c7-49fd-93fb-7af1b15bb902","system_id":"levelo_inurba_marseille","lat":43.32514,"lon":5.36588,"is_reserved":false,"is_disabled":false,"rental_uris":{"android":"levelo://app?vid=d4d926a5-e9c7-49fd-93fb-7af1b15bb902","ios":"levelo://app?vid=d4d926a5-e9c7-49fd-93fb-7af1b15bb902"},"vehicle_type_id":"4","last_reported":1736014305,"current_range_meters":38800,"station_id":"ce4bhs12rcd13ifvqhvg","pricing_plan_id":"cebpf4jnsgd1na2vs0mg"},{"bike_id":"bc0d6048-27c0-4ff9-97d0-92485c13da66","system_id":"levelo_inurba_marseille","lat":43.30323,"lon":5.36903,"is_reserved":false,"is_disabled":false,"rental_uris":{"android":"levelo://app?vid=bc0d6048-27c0-4ff9-97d0-92485c13da66","ios":"levelo://app?vid=bc0d6048-27c0-4ff9-97d0-92485c13da66"},"vehicle_type_id":"4","last_reported":1736014305,"current_range_meters":34800,"station_id":"ce4bgqh2rcd13ifvqc5g","pricing_plan_id":"cebpf4jnsgd1na2vs0mg"},{"bike_id":"91037f15-fe17-4186-85a2-9e0438c13c3d","system_id":"levelo_inurba_marseille","lat":43.27219,"lon":5.39255,"is_reserved":false,"is_disabled":false,"rental_uris":{"android":"levelo://app?vid=91037f15-fe17-4186-85a2-9e0438c13c3d","ios":"levelo://app?vid=91037f15-fe17-4186-85a2-9e0438c13c3d"},"vehicle_type_id":"4","last_reported":1736014305,"current_range_meters":6000,"station_id":"ce4bhhp2rcd13ifvqfm0","pricing_plan_id":"cebpf4jnsgd1na2vs0mg"},{"bike_id":"ac060c07-7cec-4494-9467-409aca079f0f","system_id":"levelo_inurba_marseille","lat":43.28405,"lon":5.3752,"is_reserved":false,"is_disabled":false,"rental_uris":{"android":"levelo://app?vid=ac060c07-7cec-4494-9467-409aca079f0f","ios":"levelo://app?vid=ac060c07-7cec-4494-9467-409aca079f0f"},"vehicle_type_id":"4","last_reported":1736014305,"current_range_meters":37600,"station_id":"ce4bh412rcd13ifvqds0","pricing_plan_id":"cebpf4jnsgd1na2vs0mg"},{"bike_id":"98063e86-2e1a-460a-8ef5-ff11faf4c9e1","system_id":"levelo_inurba_marseille","lat":43.29796,"lon":5.37119,"is_reserved":false,"is_disabled":false,"rental_uris":{"android":"levelo://app?vid=98063e86-2e1a-460a-8ef5-ff11faf4c9e1","ios":"levelo://app?vid=98063e86-2e1a-460a-8ef5-ff11faf4c9e1"},"vehicle_type_id":"4","last_reported":1736014305,"current_range_meters":24800,"station_id":"ce4bgop2rcd13ifvqc1g","pricing_plan_id":"cebpf4jnsgd1na2vs0mg"},{"bike_id":"36d0910b-d540-4d75-b065-f044cb5b6555","system_id":"levelo_inurba_marseille","lat":43.29595,"lon":5.36738,"is_reserved":false,"is_disabled":false,"rental_uris":{"android":"levelo://app?vid=36d0910b-d540-4d75-b065-f044cb5b6555","ios":"levelo://app?vid=36d0910b-d540-4d75-b065-f044cb5b6555"},"vehicle_type_id":"4","last_reported":1736014305,"current_range_meters":39200,"station_id":"ce4bgph2rcd13ifvqc2g","pricing_plan_id":"cebpf4jnsgd1na2vs0mg"},{"bike_id":"bcf0bc77-feb4-4e25-93da-4721812265a5","system_id":"levelo_inurba_marseille","lat":43.29844,"lon":5.36277,"is_reserved":false,"is_disabled":false,"rental_uris":{"android":"levelo://app?vid=bcf0bc77-feb4-4e25-93da-4721812265a5","ios":"levelo://app?vid=bcf0bc77-feb4-4e25-93da-4721812265a5"},"vehicle_type_id":"4","last_reported":1736014305,"current_range_meters":26000,"station_id":"ce4bgpp2rcd13ifvqc3g","pricing_plan_id":"cebpf4jnsgd1na2vs0mg"},{"bike_id":"3219318c-a8dd-450c-b767-094b10a2e823","system_id":"levelo_inurba_marseille","lat":43.29417,"lon":5.38628,"is_reserved":false,"is_disabled":false,"rental_uris":{"android":"levelo://app?vid=3219318c-a8dd-450c-b767-094b10a2e823","ios":"levelo://app?vid=3219318c-a8dd-450c-b767-094b10a2e823"},"vehicle_type_id":"4","last_reported":1736014305,"current_range_meters":36400,"station_id":"ce4bh2h2rcd13ifvqdh0","pricing_plan_id":"cebpf4jnsgd1na2vs0mg"},{"bike_id":"3fc8cd76-0c13-4302-a6c8-7bfcce5b1923","system_id":"levelo_inurba_marseille","lat":43.29573,"lon":5.37516,"is_reserved":false,"is_disabled":false,"rental_uris":{"android":"levelo://app?vid=3fc8cd76-0c13-4302-a6c8-7bfcce5b1923","ios":"levelo://app?vid=3fc8cd76-0c13-4302-a6c8-7bfcce5b1923"},"vehicle_type_id":"4","last_reported":1736014305,"current_range_meters":25600,"station_id":"ce4bgh92rcd13ifvqb50","pricing_plan_id":"cebpf4jnsgd1na2vs0mg"},{"bike_id":"63e6bb50-ce1f-4541-be03-12125c98f18d","system_id":"levelo_inurba_marseille","lat":43.28412,"lon":5.37507,"is_reserved":false,"is_disabled":false,"rental_uris":{"android":"levelo://app?vid=63e6bb50-ce1f-4541-be03-12125c98f18d","ios":"levelo://app?vid=63e6bb50-ce1f-4541-be03-12125c98f18d"},"vehicle_type_id":"4","last_reported":1736014305,"current_range_meters":14000,"station_id":"ce4bh412rcd13ifvqds0","pricing_plan_id":"cebpf4jnsgd1na2vs0mg"},{"bike_id":"486a95e9-b6ef-49bc-a6fb-9e89b48e6bc4","system_id":"levelo_inurba_marseille","lat":43.29811,"lon":5.38097,"is_reserved":false,"is_disabled":false,"rental_uris":{"android":"levelo://app?vid=486a95e9-b6ef-49bc-a6fb-9e89b48e6bc4","ios":"levelo://app?vid=486a95e9-b6ef-49bc-a6fb-9e89b48e6bc4"},"vehicle_type_id":"4","last_reported":1736014305,"current_range_meters":10800,"station_id":"ce4bgip2rcd13ifvqbb0","pricing_plan_id":"cebpf4jnsgd1na2vs0mg"},{"bike_id":"76d392c8-6dd4-4fbf-b626-27c2990c047b","system_id":"levelo_inurba_marseille","lat":43.28162,"lon":5.42799,"is_reserved":false,"is_disabled":false,"rental_uris":{"android":"levelo://app?vid=76d392c8-6dd4-4fbf-b626-27c2990c047b","ios":"levelo://app?vid=76d392c8-6dd4-4fbf-b626-27c2990c047b"},"vehicle_type_id":"4","last_reported":1736014305,"current_range_meters":10000,"station_id":"","pricing_plan_id":"cebpf4jnsgd1na2vs0mg"},{"bike_id":"f18f8327-b78e-417b-a113-93735f200515","system_id":"levelo_inurba_marseille","lat":43.29029,"lon":5.38617,"is_reserved":false,"is_disabled":false,"rental_uris":{"android":"levelo://app?vid=f18f8327-b78e-417b-a113-93735f200515","ios":"levelo://app?vid=f18f8327-b78e-417b-a113-93735f200515"},"vehicle_type_id":"4","last_reported":1736014305,"current_range_meters":38800,"station_id":"ce4bh4p2rcd13ifvqe0g","pricing_plan_id":"cebpf4jnsgd1na2vs0mg"},{"bike_id":"8d3c0f78-e962-4e13-b73d-d1069bc6cb91","system_id":"levelo_inurba_marseille","lat":43.27324,"lon":5.39112,"is_reserved":false,"is_disabled":true,"rental_uris":{"android":"levelo://app?vid=8d3c0f78-e962-4e13-b73d-d1069bc6cb91","ios":"levelo://app?vid=8d3c0f78-e962-4e13-b73d-d1069bc6cb91"},"vehicle_type_id":"4","last_reported":1736014305,"current_range_meters":0,"station_id":"ce4bhgp2rcd13ifvqfe0","pricing_plan_id":"cebpf4jnsgd1na2vs0mg"},{"bike_id":"593d8424-f565-422e-8480-e0f50e2c043e","system_id":"levelo_inurba_marseille","lat":43.27959,"lon":5.38698,"is_reserved":false,"is_disabled":true,"rental_uris":{"android":"levelo://app?vid=593d8424-f565-422e-8480-e0f50e2c043e","ios":"levelo://app?vid=593d8424-f565-422e-8480-e0f50e2c043e"},"vehicle_type_id":"4","last_reported":1736014305,"current_range_meters":36800,"station_id":"ce4bhg12rcd13ifvqf80","pricing_plan_id":"cebpf4jnsgd1na2vs0mg"},{"bike_id":"a944f865-f260-4d6e-8bfb-34b22d4c0ecd","system_id":"levelo_inurba_marseille","lat":43.302,"lon":5.36623,"is_reserved":false,"is_disabled":true,"rental_uris":{"android":"levelo://app?vid=a944f865-f260-4d6e-8bfb-34b22d4c0ecd","ios":"levelo://app?vid=a944f865-f260-4d6e-8bfb-34b22d4c0ecd"},"vehicle_type_id":"4","last_reported":1736014305,"current_range_meters":31200,"station_id":"ce4bgrh2rcd13ifvqc8g","pricing_plan_id":"cebpf4jnsgd1na2vs0mg"},{"bike_id":"8cdc1ef2-0806-4959-9c23-8b6d5fa7df18","system_id":"levelo_inurba_marseille","lat":43.3266,"lon":5.40995,"is_reserved":false,"is_disabled":false,"rental_uris":{"android":"levelo://app?vid=8cdc1ef2-0806-4959-9c23-8b6d5fa7df18","ios":"levelo://app?vid=8cdc1ef2-0806-4959-9c23-8b6d5fa7df18"},"vehicle_type_id":"4","last_reported":1736014305,"current_range_meters":33200,"station_id":"ce4bhpp2rcd13ifvqhgg","pricing_plan_id":"cebpf4jnsgd1na2vs0mg"},{"bike_id":"30a10a13-1957-4626-a756-bae2ae49f216","system_id":"levelo_inurba_marseille","lat":43.32491,"lon":5.36574,"is_reserved":false,"is_disabled":false,"rental_uris":{"android":"levelo://app?vid=30a10a13-1957-4626-a756-bae2ae49f216","ios":"levelo://app?vid=30a10a13-1957-4626-a756-bae2ae49f216"},"vehicle_type_id":"4","last_reported":1736014305,"current_range_meters":6800,"station_id":"ce4bhs12rcd13ifvqhvg","pricing_plan_id":"cebpf4jnsgd1na2vs0mg"},{"bike_id":"8cdb9c06-2f32-4bc6-bfa5-f7a2e0f65441","system_id":"levelo_inurba_marseille","lat":43.24647,"lon":5.38893,"is_reserved":false,"is_disabled":false,"rental_uris":{"android":"levelo://app?vid=8cdb9c06-2f32-4bc6-bfa5-f7a2e0f65441","ios":"levelo://app?vid=8cdb9c06-2f32-4bc6-bfa5-f7a2e0f65441"},"vehicle_type_id":"4","last_reported":1736014305,"current_range_meters":24800,"station_id":"ce4bhg12rcd13ifvqf60","pricing_plan_id":"cebpf4jnsgd1na2vs0mg"},{"bike_id":"18ba85af-690b-49a0-a337-75eaced2ff37","system_id":"levelo_inurba_marseille","lat":43.30931,"lon":5.40149,"is_reserved":false,"is_disabled":false,"rental_uris":{"android":"levelo://app?vid=18ba85af-690b-49a0-a337-75eaced2ff37","ios":"levelo://app?vid=18ba85af-690b-49a0-a337-75eaced2ff37"},"vehicle_type_id":"4","last_reported":1736014305,"current_range_meters":23200,"station_id":"ce4bgvp2rcd13ifvqct0","pricing_plan_id":"cebpf4jnsgd1na2vs0mg"},{"bike_id":"6ca05324-2f49-454c-90a2-2077bda09bd2","system_id":"levelo_inurba_marseille","lat":43.29002,"lon":5.35614,"is_reserved":false,"is_disabled":false,"rental_uris":{"android":"levelo://app?vid=6ca05324-2f49-454c-90a2-2077bda09bd2","ios":"levelo://app?vid=6ca05324-2f49-454c-90a2-2077bda09bd2"},"vehicle_type_id":"4","last_reported":1736014305,"current_range_meters":28800,"station_id":"ce4bhb92rcd13ifvqen0","pricing_plan_id":"cebpf4jnsgd1na2vs0mg"},{"bike_id":"8126917c-9356-43cd-82cd-4b9608708e19","system_id":"levelo_inurba_marseille","lat":43.27673,"lon":5.38883,"is_reserved":false,"is_disabled":false,"rental_uris":{"android":"levelo://app?vid=8126917c-9356-43cd-82cd-4b9608708e19","ios":"levelo://app?vid=8126917c-9356-43cd-82cd-4b9608708e19"},"vehicle_type_id":"4","last_reported":1736014305,"current_range_meters":36800,"station_id":"ce4bhi12rcd13ifvqfo0","pricing_plan_id":"cebpf4jnsgd1na2vs0mg"},{"bike_id":"11bab6b1-8f19-4376-9cab-a89cad5be186","system_id":"levelo_inurba_marseille","lat":43.3247,"lon":5.36595,"is_reserved":false,"is_disabled":false,"rental_uris":{"android":"levelo://app?vid=11bab6b1-8f19-4376-9cab-a89cad5be186","ios":"levelo://app?vid=11bab6b1-8f19-4376-9cab-a89cad5be186"},"vehicle_type_id":"4","last_reported":1736014305,"current_range_meters":37600,"station_id":"ce4bhs12rcd13ifvqhvg","pricing_plan_id":"cebpf4jnsgd1na2vs0mg"},{"bike_id":"9bd04c4d-bba3-44a3-88b7-e0bf363fe6b8","system_id":"levelo_inurba_marseille","lat":43.24672,"lon":5.38146,"is_reserved":false,"is_disabled":false,"rental_uris":{"android":"levelo://app?vid=9bd04c4d-bba3-44a3-88b7-e0bf363fe6b8","ios":"levelo://app?vid=9bd04c4d-bba3-44a3-88b7-e0bf363fe6b8"},"vehicle_type_id":"4","last_reported":1736014305,"current_range_meters":36400,"station_id":"ce4bhih2rcd13ifvqfr0","pricing_plan_id":"cebpf4jnsgd1na2vs0mg"},{"bike_id":"00eb0bdd-ec0e-4d94-9b19-e4ec76035131","system_id":"levelo_inurba_marseille","lat":43.28697,"lon":5.3739,"is_reserved":false,"is_disabled":true,"rental_uris":{"android":"levelo://app?vid=00eb0bdd-ec0e-4d94-9b19-e4ec76035131","ios":"levelo://app?vid=00eb0bdd-ec0e-4d94-9b19-e4ec76035131"},"vehicle_type_id":"4","last_reported":1736014305,"current_range_meters":400,"station_id":"ce4bh3p2rcd13ifvqdq0","pricing_plan_id":"cebpf4jnsgd1na2vs0mg"},{"bike_id":"3ab397ad-af93-42fa-8f60-d785cdeee133","system_id":"levelo_inurba_marseille","lat":43.28347,"lon":5.38115,"is_reserved":false,"is_disabled":false,"rental_uris":{"android":"levelo://app?vid=3ab397ad-af93-42fa-8f60-d785cdeee133","ios":"levelo://app?vid=3ab397ad-af93-42fa-8f60-d785cdeee133"},"vehicle_type_id":"4","last_reported":1736014305,"current_range_meters":23200,"station_id":"ce4bh412rcd13ifvqdr0","pricing_plan_id":"cebpf4jnsgd1na2vs0mg"},{"bike_id":"4608dad6-0378-4f07-a39f-dd205981ef2d","system_id":"levelo_inurba_marseille","lat":43.27213,"lon":5.39194,"is_reserved":false,"is_disabled":false,"rental_uris":{"android":"levelo://app?vid=4608dad6-0378-4f07-a39f-dd205981ef2d","ios":"levelo://app?vid=4608dad6-0378-4f07-a39f-dd205981ef2d"},"vehicle_type_id":"4","last_reported":1736014305,"current_range_meters":38800,"station_id":"ce4bhhp2rcd13ifvqfm0","pricing_plan_id":"cebpf4jnsgd1na2vs0mg"},{"bike_id":"02198883-bde0-48b0-801e-7744ed946672","system_id":"levelo_inurba_marseille","lat":43.29779,"lon":5.37102,"is_reserved":false,"is_disabled":false,"rental_uris":{"android":"levelo://app?vid=02198883-bde0-48b0-801e-7744ed946672","ios":"levelo://app?vid=02198883-bde0-48b0-801e-7744ed946672"},"vehicle_type_id":"4","last_reported":1736014305,"current_range_meters":34000,"station_id":"ce4bgop2rcd13ifvqc1g","pricing_plan_id":"cebpf4jnsgd1na2vs0mg"},{"bike_id":"4e047346-270c-4103-b66c-92ae97dc78af","system_id":"levelo_inurba_marseille","lat":43.26946,"lon":5.40255,"is_reserved":false,"is_disabled":false,"rental_uris":{"android":"levelo://app?vid=4e047346-270c-4103-b66c-92ae97dc78af","ios":"levelo://app?vid=4e047346-270c-4103-b66c-92ae97dc78af"},"vehicle_type_id":"4","last_reported":1736014305,"current_range_meters":24400,"station_id":"cjm6bp8fraef2m0cb0m0","pricing_plan_id":"cebpf4jnsgd1na2vs0mg"},{"bike_id":"ad036647-e9f4-4246-953d-37ee6601db50","system_id":"levelo_inurba_marseille","lat":43.24679,"lon":5.38154,"is_reserved":false,"is_disabled":false,"rental_uris":{"android":"levelo://app?vid=ad036647-e9f4-4246-953d-37ee6601db50","ios":"levelo://app?vid=ad036647-e9f4-4246-953d-37ee6601db50"},"vehicle_type_id":"4","last_reported":1736014305,"current_range_meters":29600,"station_id":"ce4bhih2rcd13ifvqfr0","pricing_plan_id":"cebpf4jnsgd1na2vs0mg"},{"bike_id":"2372027e-26b4-4506-b5db-b5b606d80ca9","system_id":"levelo_inurba_marseille","lat":43.28483,"lon":5.38411,"is_reserved":false,"is_disabled":false,"rental_uris":{"android":"levelo://app?vid=2372027e-26b4-4506-b5db-b5b606d80ca9","ios":"levelo://app?vid=2372027e-26b4-4506-b5db-b5b606d80ca9"},"vehicle_type_id":"4","last_reported":1736014305,"current_range_meters":37600,"station_id":"ce4bh512rcd13ifvqe3g","pricing_plan_id":"cebpf4jnsgd1na2vs0mg"},{"bike_id":"e23a8edf-e2ad-466c-9528-bd5f04fbfc74","system_id":"levelo_inurba_marseille","lat":43.33009,"lon":5.39039,"is_reserved":false,"is_disabled":false,"rental_uris":{"android":"levelo://app?vid=e23a8edf-e2ad-466c-9528-bd5f04fbfc74","ios":"levelo://app?vid=e23a8edf-e2ad-466c-9528-bd5f04fbfc74"},"vehicle_type_id":"4","last_reported":1736014305,"current_range_meters":38000,"station_id":"ce4bhr92rcd13ifvqhrg","pricing_plan_id":"cebpf4jnsgd1na2vs0mg"},{"bike_id":"7f287551-82f1-424d-bf88-03580401d4f1","system_id":"levelo_inurba_marseille","lat":43.24075,"lon":5.37766,"is_reserved":false,"is_disabled":false,"rental_uris":{"android":"levelo://app?vid=7f287551-82f1-424d-bf88-03580401d4f1","ios":"levelo://app?vid=7f287551-82f1-424d-bf88-03580401d4f1"},"vehicle_type_id":"4","last_reported":1736014305,"current_range_meters":38800,"station_id":"ce4bhnp2rcd13ifvqgvg","pricing_plan_id":"cebpf4jnsgd1na2vs0mg"},{"bike_id":"1b7d2371-0eba-4a43-8133-800073020b26","system_id":"levelo_inurba_marseille","lat":43.31526,"lon":5.38031,"is_reserved":false,"is_disabled":false,"rental_uris":{"android":"levelo://app?vid=1b7d2371-0eba-4a43-8133-800073020b26","ios":"levelo://app?vid=1b7d2371-0eba-4a43-8133-800073020b26"},"vehicle_type_id":"4","last_reported":1736014305,"current_range_meters":34000,"station_id":"ce4bhsp2rcd13ifvqi50","pricing_plan_id":"cebpf4jnsgd1na2vs0mg"},{"bike_id":"95643f4f-96a8-4b40-bda1-88ccc002e640","system_id":"levelo_inurba_marseille","lat":43.29888,"lon":5.38906,"is_reserved":false,"is_disabled":false,"rental_uris":{"android":"levelo://app?vid=95643f4f-96a8-4b40-bda1-88ccc002e640","ios":"levelo://app?vid=95643f4f-96a8-4b40-bda1-88ccc002e640"},"vehicle_type_id":"4","last_reported":1736014305,"current_range_meters":31200,"station_id":"ce4bh392rcd13ifvqdl0","pricing_plan_id":"cebpf4jnsgd1na2vs0mg"},{"bike_id":"ebe90276-36a6-4eb4-a8f4-06cc7bbbb13d","system_id":"levelo_inurba_marseille","lat":43.29805,"lon":5.38112,"is_reserved":false,"is_disabled":false,"rental_uris":{"android":"levelo://app?vid=ebe90276-36a6-4eb4-a8f4-06cc7bbbb13d","ios":"levelo://app?vid=ebe90276-36a6-4eb4-a8f4-06cc7bbbb13d"},"vehicle_type_id":"4","last_reported":1736014305,"current_range_meters":19200,"station_id":"ce4bgip2rcd13ifvqbb0","pricing_plan_id":"cebpf4jnsgd1na2vs0mg"},{"bike_id":"38aeeb7d-9e3e-4912-9ccb-4e9e675f7be8","system_id":"levelo_inurba_marseille","lat":43.27936,"lon":5.38738,"is_reserved":false,"is_disabled":true,"rental_uris":{"android":"levelo://app?vid=38aeeb7d-9e3e-4912-9ccb-4e9e675f7be8","ios":"levelo://app?vid=38aeeb7d-9e3e-4912-9ccb-4e9e675f7be8"},"vehicle_type_id":"4","last_reported":1736014305,"current_range_meters":1600,"station_id":"ce4bhg12rcd13ifvqf80","pricing_plan_id":"cebpf4jnsgd1na2vs0mg"},{"bike_id":"bea4d6a5-1369-4eb0-8222-2bdf6b18f986","system_id":"levelo_inurba_marseille","lat":43.26684,"lon":5.38273,"is_reserved":false,"is_disabled":false,"rental_uris":{"android":"levelo://app?vid=bea4d6a5-1369-4eb0-8222-2bdf6b18f986","ios":"levelo://app?vid=bea4d6a5-1369-4eb0-8222-2bdf6b18f986"},"vehicle_type_id":"4","last_reported":1736014305,"current_range_meters":38800,"station_id":"ce4bhg92rcd13ifvqf90","pricing_plan_id":"cebpf4jnsgd1na2vs0mg"},{"bike_id":"95b4ed6c-9114-44e6-99d9-3f23b39fc01c","system_id":"levelo_inurba_marseille","lat":43.29009,"lon":5.38646,"is_reserved":false,"is_disabled":false,"rental_uris":{"android":"levelo://app?vid=95b4ed6c-9114-44e6-99d9-3f23b39fc01c","ios":"levelo://app?vid=95b4ed6c-9114-44e6-99d9-3f23b39fc01c"},"vehicle_type_id":"4","last_reported":1736014305,"current_range_meters":8400,"station_id":"ce4bh4p2rcd13ifvqe0g","pricing_plan_id":"cebpf4jnsgd1na2vs0mg"},{"bike_id":"7a93cbc7-44e1-48e2-8af0-5d5d14fb64df","system_id":"levelo_inurba_marseille","lat":43.30165,"lon":5.38793,"is_reserved":false,"is_disabled":false,"rental_uris":{"android":"levelo://app?vid=7a93cbc7-44e1-48e2-8af0-5d5d14fb64df","ios":"levelo://app?vid=7a93cbc7-44e1-48e2-8af0-5d5d14fb64df"},"vehicle_type_id":"4","last_reported":1736014305,"current_range_meters":35200,"station_id":"ce4bhoh2rcd13ifvqh6g","pricing_plan_id":"cebpf4jnsgd1na2vs0mg"},{"bike_id":"e96822d1-b63e-44cb-bd86-0f52601185c2","system_id":"levelo_inurba_marseille","lat":43.29595,"lon":5.36724,"is_reserved":false,"is_disabled":false,"rental_uris":{"android":"levelo://app?vid=e96822d1-b63e-44cb-bd86-0f52601185c2","ios":"levelo://app?vid=e96822d1-b63e-44cb-bd86-0f52601185c2"},"vehicle_type_id":"4","last_reported":1736014305,"current_range_meters":38400,"station_id":"ce4bgph2rcd13ifvqc2g","pricing_plan_id":"cebpf4jnsgd1na2vs0mg"},{"bike_id":"e701aeeb-d4e0-4470-aad9-be342ce267f0","system_id":"levelo_inurba_marseille","lat":43.32293,"lon":5.38266,"is_reserved":false,"is_disabled":false,"rental_uris":{"android":"levelo://app?vid=e701aeeb-d4e0-4470-aad9-be342ce267f0","ios":"levelo://app?vid=e701aeeb-d4e0-4470-aad9-be342ce267f0"},"vehicle_type_id":"4","last_reported":1736014305,"current_range_meters":36000,"station_id":"ce4bhr12rcd13ifvqhqg","pricing_plan_id":"cebpf4jnsgd1na2vs0mg"},{"bike_id":"ea7050ff-7aa9-43ba-b203-b876f0962480","system_id":"levelo_inurba_marseille","lat":43.279977,"lon":5.400143,"is_reserved":false,"is_disabled":true,"rental_uris":{"android":"levelo://app?vid=ea7050ff-7aa9-43ba-b203-b876f0962480","ios":"levelo://app?vid=ea7050ff-7aa9-43ba-b203-b876f0962480"},"vehicle_type_id":"4","last_reported":1736014305,"current_range_meters":0,"station_id":"ce4bho92rcd13ifvqh4g","pricing_plan_id":"cebpf4jnsgd1na2vs0mg"},{"bike_id":"427908c3-8f62-4301-a09c-c64c860847d9","system_id":"levelo_inurba_marseille","lat":43.29316,"lon":5.37152,"is_reserved":false,"is_disabled":false,"rental_uris":{"android":"levelo://app?vid=427908c3-8f62-4301-a09c-c64c860847d9","ios":"levelo://app?vid=427908c3-8f62-4301-a09c-c64c860847d9"},"vehicle_type_id":"4","last_reported":1736014305,"current_range_meters":30800,"station_id":"ce4bgh92rcd13ifvqb40","pricing_plan_id":"cebpf4jnsgd1na2vs0mg"},{"bike_id":"8bf5141e-3146-496b-828c-aa16db841e56","system_id":"levelo_inurba_marseille","lat":43.32541,"lon":5.41403,"is_reserved":false,"is_disabled":false,"rental_uris":{"android":"levelo://app?vid=8bf5141e-3146-496b-828c-aa16db841e56","ios":"levelo://app?vid=8bf5141e-3146-496b-828c-aa16db841e56"},"vehicle_type_id":"4","last_reported":1736014305,"current_range_meters":19200,"station_id":"ce4bhq12rcd13ifvqhhg","pricing_plan_id":"cebpf4jnsgd1na2vs0mg"},{"bike_id":"2332862a-3884-4317-af82-ee9793e9b62c","system_id":"levelo_inurba_marseille","lat":43.24077,"lon":5.37728,"is_reserved":false,"is_disabled":false,"rental_uris":{"android":"levelo://app?vid=2332862a-3884-4317-af82-ee9793e9b62c","ios":"levelo://app?vid=2332862a-3884-4317-af82-ee9793e9b62c"},"vehicle_type_id":"4","last_reported":1736014305,"current_range_meters":16000,"station_id":"ce4bhnp2rcd13ifvqgvg","pricing_plan_id":"cebpf4jnsgd1na2vs0mg"},{"bike_id":"3fed1827-13aa-4afe-a0f9-8be0a428d811","system_id":"levelo_inurba_marseille","lat":43.32348,"lon":5.38898,"is_reserved":false,"is_disabled":false,"rental_uris":{"android":"levelo://app?vid=3fed1827-13aa-4afe-a0f9-8be0a428d811","ios":"levelo://app?vid=3fed1827-13aa-4afe-a0f9-8be0a428d811"},"vehicle_type_id":"4","last_reported":1736014305,"current_range_meters":16400,"station_id":"ce4bhqp2rcd13ifvqhog","pricing_plan_id":"cebpf4jnsgd1na2vs0mg"},{"bike_id":"f54279b6-3c21-4343-b158-c2033df5fd1d","system_id":"levelo_inurba_marseille","lat":43.24805,"lon":5.37446,"is_reserved":false,"is_disabled":false,"rental_uris":{"android":"levelo://app?vid=f54279b6-3c21-4343-b158-c2033df5fd1d","ios":"levelo://app?vid=f54279b6-3c21-4343-b158-c2033df5fd1d"},"vehicle_type_id":"4","last_reported":1736014305,"current_range_meters":8800,"station_id":"ce4bhgh2rcd13ifvqfb0","pricing_plan_id":"cebpf4jnsgd1na2vs0mg"},{"bike_id":"065e15fa-7fcf-47e7-bf49-de94cdc8d7c4","system_id":"levelo_inurba_marseille","lat":43.28418,"lon":5.37521,"is_reserved":false,"is_disabled":false,"rental_uris":{"android":"levelo://app?vid=065e15fa-7fcf-47e7-bf49-de94cdc8d7c4","ios":"levelo://app?vid=065e15fa-7fcf-47e7-bf49-de94cdc8d7c4"},"vehicle_type_id":"4","last_reported":1736014305,"current_range_meters":12000,"station_id":"ce4bh412rcd13ifvqds0","pricing_plan_id":"cebpf4jnsgd1na2vs0mg"},{"bike_id":"988e5514-5dae-459d-a3c0-310e7eb2e911","system_id":"levelo_inurba_marseille","lat":43.26493,"lon":5.39542,"is_reserved":false,"is_disabled":false,"rental_uris":{"android":"levelo://app?vid=988e5514-5dae-459d-a3c0-310e7eb2e911","ios":"levelo://app?vid=988e5514-5dae-459d-a3c0-310e7eb2e911"},"vehicle_type_id":"4","last_reported":1736014305,"current_range_meters":35200,"station_id":"ce4bhi12rcd13ifvqfq0","pricing_plan_id":"cebpf4jnsgd1na2vs0mg"},{"bike_id":"10273644-49d6-480a-be99-3817ab283893","system_id":"levelo_inurba_marseille","lat":43.29052,"lon":5.35908,"is_reserved":false,"is_disabled":false,"rental_uris":{"android":"levelo://app?vid=10273644-49d6-480a-be99-3817ab283893","ios":"levelo://app?vid=10273644-49d6-480a-be99-3817ab283893"},"vehicle_type_id":"4","last_reported":1736014305,"current_range_meters":16400,"station_id":"ce4bha92rcd13ifvqeg0","pricing_plan_id":"cebpf4jnsgd1na2vs0mg"},{"bike_id":"4a9ae638-3a1c-4c74-88bc-52947c053a13","system_id":"levelo_inurba_marseille","lat":43.265483,"lon":5.394585,"is_reserved":false,"is_disabled":false,"rental_uris":{"android":"levelo://app?vid=4a9ae638-3a1c-4c74-88bc-52947c053a13","ios":"levelo://app?vid=4a9ae638-3a1c-4c74-88bc-52947c053a13"},"vehicle_type_id":"4","last_reported":1736014305,"current_range_meters":8800,"station_id":"","pricing_plan_id":"cebpf4jnsgd1na2vs0mg"},{"bike_id":"c8529c5f-726c-44b9-8f81-1b72db6f4e53","system_id":"levelo_inurba_marseille","lat":43.32333,"lon":5.38847,"is_reserved":false,"is_disabled":false,"rental_uris":{"android":"levelo://app?vid=c8529c5f-726c-44b9-8f81-1b72db6f4e53","ios":"levelo://app?vid=c8529c5f-726c-44b9-8f81-1b72db6f4e53"},"vehicle_type_id":"4","last_reported":1736014305,"current_range_meters":22800,"station_id":"ce4bhqp2rcd13ifvqhog","pricing_plan_id":"cebpf4jnsgd1na2vs0mg"},{"bike_id":"9a483109-5bce-4e89-a527-a3ced035742c","system_id":"levelo_inurba_marseille","lat":43.2692,"lon":5.38626,"is_reserved":false,"is_disabled":false,"rental_uris":{"android":"levelo://app?vid=9a483109-5bce-4e89-a527-a3ced035742c","ios":"levelo://app?vid=9a483109-5bce-4e89-a527-a3ced035742c"},"vehicle_type_id":"4","last_reported":1736014305,"current_range_meters":16000,"station_id":"ce4bhh92rcd13ifvqfh0","pricing_plan_id":"cebpf4jnsgd1na2vs0mg"},{"bike_id":"2a34ee1e-28ab-4490-ae4e-217725bcac11","system_id":"levelo_inurba_marseille","lat":43.29783,"lon":5.39321,"is_reserved":false,"is_disabled":false,"rental_uris":{"android":"levelo://app?vid=2a34ee1e-28ab-4490-ae4e-217725bcac11","ios":"levelo://app?vid=2a34ee1e-28ab-4490-ae4e-217725bcac11"},"vehicle_type_id":"4","last_reported":1736014305,"current_range_meters":39200,"station_id":"chh1huq6cuj3fo74tm60","pricing_plan_id":"cebpf4jnsgd1na2vs0mg"},{"bike_id":"f4300c28-af3e-407a-b00f-975f89e7fa58","system_id":"levelo_inurba_marseille","lat":43.29173,"lon":5.37158,"is_reserved":false,"is_disabled":false,"rental_uris":{"android":"levelo://app?vid=f4300c28-af3e-407a-b00f-975f89e7fa58","ios":"levelo://app?vid=f4300c28-af3e-407a-b00f-975f89e7fa58"},"vehicle_type_id":"4","last_reported":1736014305,"current_range_meters":38800,"station_id":"ce4bha92rcd13ifvqeh0","pricing_plan_id":"cebpf4jnsgd1na2vs0mg"},{"bike_id":"4433999a-941d-4e04-bc07-0cdadf5a7f47","system_id":"levelo_inurba_marseille","lat":43.30412,"lon":5.41294,"is_reserved":false,"is_disabled":false,"rental_uris":{"android":"levelo://app?vid=4433999a-941d-4e04-bc07-0cdadf5a7f47","ios":"levelo://app?vid=4433999a-941d-4e04-bc07-0cdadf5a7f47"},"vehicle_type_id":"4","last_reported":1736014305,"current_range_meters":38800,"station_id":"ce4bhop2rcd13ifvqh8g","pricing_plan_id":"cebpf4jnsgd1na2vs0mg"},{"bike_id":"7f1ce4ed-0cd0-4d23-b89e-099e0df8c108","system_id":"levelo_inurba_marseille","lat":43.25648,"lon":5.4107,"is_reserved":false,"is_disabled":false,"rental_uris":{"android":"levelo://app?vid=7f1ce4ed-0cd0-4d23-b89e-099e0df8c108","ios":"levelo://app?vid=7f1ce4ed-0cd0-4d23-b89e-099e0df8c108"},"vehicle_type_id":"4","last_reported":1736014305,"current_range_meters":38800,"station_id":"","pricing_plan_id":"cebpf4jnsgd1na2vs0mg"},{"bike_id":"ead5a222-6ab0-4b29-8dc7-5663cba42c26","system_id":"levelo_inurba_marseille","lat":43.28852,"lon":5.39313,"is_reserved":false,"is_disabled":false,"rental_uris":{"android":"levelo://app?vid=ead5a222-6ab0-4b29-8dc7-5663cba42c26","ios":"levelo://app?vid=ead5a222-6ab0-4b29-8dc7-5663cba42c26"},"vehicle_type_id":"4","last_reported":1736014305,"current_range_meters":29600,"station_id":"ce4bh2p2rcd13ifvqdi0","pricing_plan_id":"cebpf4jnsgd1na2vs0mg"},{"bike_id":"969c8a84-cf60-4395-8c81-a1d2e7dc81af","system_id":"levelo_inurba_marseille","lat":43.25865,"lon":5.39913,"is_reserved":false,"is_disabled":false,"rental_uris":{"android":"levelo://app?vid=969c8a84-cf60-4395-8c81-a1d2e7dc81af","ios":"levelo://app?vid=969c8a84-cf60-4395-8c81-a1d2e7dc81af"},"vehicle_type_id":"4","last_reported":1736014305,"current_range_meters":19600,"station_id":"ce4bhl92rcd13ifvqghg","pricing_plan_id":"cebpf4jnsgd1na2vs0mg"},{"bike_id":"23a482e8-5497-43a1-a2d0-a2a8b472d4ec","system_id":"levelo_inurba_marseille","lat":43.29305,"lon":5.37461,"is_reserved":false,"is_disabled":false,"rental_uris":{"android":"levelo://app?vid=23a482e8-5497-43a1-a2d0-a2a8b472d4ec","ios":"levelo://app?vid=23a482e8-5497-43a1-a2d0-a2a8b472d4ec"},"vehicle_type_id":"4","last_reported":1736014305,"current_range_meters":34800,"station_id":"ce4bgi12rcd13ifvqb70","pricing_plan_id":"cebpf4jnsgd1na2vs0mg"},{"bike_id":"9d2065c5-e801-47c6-a32c-5834d37e9dab","system_id":"levelo_inurba_marseille","lat":43.32369,"lon":5.38887,"is_reserved":false,"is_disabled":false,"rental_uris":{"android":"levelo://app?vid=9d2065c5-e801-47c6-a32c-5834d37e9dab","ios":"levelo://app?vid=9d2065c5-e801-47c6-a32c-5834d37e9dab"},"vehicle_type_id":"4","last_reported":1736014305,"current_range_meters":38000,"station_id":"ce4bhqp2rcd13ifvqhog","pricing_plan_id":"cebpf4jnsgd1na2vs0mg"},{"bike_id":"8452ac70-b36f-4236-9954-dfaf1a87fa71","system_id":"levelo_inurba_marseille","lat":43.26807,"lon":5.40258,"is_reserved":false,"is_disabled":false,"rental_uris":{"android":"levelo://app?vid=8452ac70-b36f-4236-9954-dfaf1a87fa71","ios":"levelo://app?vid=8452ac70-b36f-4236-9954-dfaf1a87fa71"},"vehicle_type_id":"4","last_reported":1736014305,"current_range_meters":38800,"station_id":"ce501612rcd8frsf0b60","pricing_plan_id":"cebpf4jnsgd1na2vs0mg"},{"bike_id":"458cdb3a-d8a5-41c2-b556-a79078785430","system_id":"levelo_inurba_marseille","lat":43.31087,"lon":5.38355,"is_reserved":false,"is_disabled":false,"rental_uris":{"android":"levelo://app?vid=458cdb3a-d8a5-41c2-b556-a79078785430","ios":"levelo://app?vid=458cdb3a-d8a5-41c2-b556-a79078785430"},"vehicle_type_id":"4","last_reported":1736014305,"current_range_meters":38800,"station_id":"ce4bgv92rcd13ifvqcr0","pricing_plan_id":"cebpf4jnsgd1na2vs0mg"},{"bike_id":"f3d41f41-839d-41a5-aa6d-f2ba87ff18f0","system_id":"levelo_inurba_marseille","lat":43.24064,"lon":5.37722,"is_reserved":false,"is_disabled":true,"rental_uris":{"android":"levelo://app?vid=f3d41f41-839d-41a5-aa6d-f2ba87ff18f0","ios":"levelo://app?vid=f3d41f41-839d-41a5-aa6d-f2ba87ff18f0"},"vehicle_type_id":"4","last_reported":1736014305,"current_range_meters":0,"station_id":"ce4bhnp2rcd13ifvqgvg","pricing_plan_id":"cebpf4jnsgd1na2vs0mg"},{"bike_id":"6d14468d-d4fe-4fb2-b1d6-ebb52c384fb6","system_id":"levelo_inurba_marseille","lat":43.319931,"lon":5.381571,"is_reserved":false,"is_disabled":false,"rental_uris":{"android":"levelo://app?vid=6d14468d-d4fe-4fb2-b1d6-ebb52c384fb6","ios":"levelo://app?vid=6d14468d-d4fe-4fb2-b1d6-ebb52c384fb6"},"vehicle_type_id":"4","last_reported":1736014305,"current_range_meters":38800,"station_id":"ce4bhr12rcd13ifvqhpg","pricing_plan_id":"cebpf4jnsgd1na2vs0mg"},{"bike_id":"9f326815-9d5b-4c57-b098-1465cece3aff","system_id":"levelo_inurba_marseille","lat":43.28088,"lon":5.44165,"is_reserved":false,"is_disabled":false,"rental_uris":{"android":"levelo://app?vid=9f326815-9d5b-4c57-b098-1465cece3aff","ios":"levelo://app?vid=9f326815-9d5b-4c57-b098-1465cece3aff"},"vehicle_type_id":"4","last_reported":1736014305,"current_range_meters":14800,"station_id":"","pricing_plan_id":"cebpf4jnsgd1na2vs0mg"},{"bike_id":"2f857458-45ae-4306-9ffb-5d94252d59a5","system_id":"levelo_inurba_marseille","lat":43.24618,"lon":5.38859,"is_reserved":false,"is_disabled":false,"rental_uris":{"android":"levelo://app?vid=2f857458-45ae-4306-9ffb-5d94252d59a5","ios":"levelo://app?vid=2f857458-45ae-4306-9ffb-5d94252d59a5"},"vehicle_type_id":"4","last_reported":1736014305,"current_range_meters":38000,"station_id":"ce4bhg12rcd13ifvqf60","pricing_plan_id":"cebpf4jnsgd1na2vs0mg"},{"bike_id":"7b78d5e2-5142-402d-a4f8-0f3037a6c533","system_id":"levelo_inurba_marseille","lat":43.26947,"lon":5.3862,"is_reserved":false,"is_disabled":true,"rental_uris":{"android":"levelo://app?vid=7b78d5e2-5142-402d-a4f8-0f3037a6c533","ios":"levelo://app?vid=7b78d5e2-5142-402d-a4f8-0f3037a6c533"},"vehicle_type_id":"4","last_reported":1736014305,"current_range_meters":11200,"station_id":"ce4bhh92rcd13ifvqfh0","pricing_plan_id":"cebpf4jnsgd1na2vs0mg"},{"bike_id":"a5427f41-9e99-4a1d-b40f-d6b3a65dcb1e","system_id":"levelo_inurba_marseille","lat":43.29212,"lon":5.39332,"is_reserved":false,"is_disabled":false,"rental_uris":{"android":"levelo://app?vid=a5427f41-9e99-4a1d-b40f-d6b3a65dcb1e","ios":"levelo://app?vid=a5427f41-9e99-4a1d-b40f-d6b3a65dcb1e"},"vehicle_type_id":"4","last_reported":1736014305,"current_range_meters":30800,"station_id":"ce4bh192rcd13ifvqdd0","pricing_plan_id":"cebpf4jnsgd1na2vs0mg"},{"bike_id":"00b0c897-4e8f-453d-8e9d-6135317dff3d","system_id":"levelo_inurba_marseille","lat":43.29556,"lon":5.42257,"is_reserved":false,"is_disabled":false,"rental_uris":{"android":"levelo://app?vid=00b0c897-4e8f-453d-8e9d-6135317dff3d","ios":"levelo://app?vid=00b0c897-4e8f-453d-8e9d-6135317dff3d"},"vehicle_type_id":"4","last_reported":1736014305,"current_range_meters":37600,"station_id":"ce4bhph2rcd13ifvqhdg","pricing_plan_id":"cebpf4jnsgd1na2vs0mg"},{"bike_id":"d0d21930-fe1d-478b-8251-bcf89564599d","system_id":"levelo_inurba_marseille","lat":43.29557,"lon":5.42281,"is_reserved":false,"is_disabled":false,"rental_uris":{"android":"levelo://app?vid=d0d21930-fe1d-478b-8251-bcf89564599d","ios":"levelo://app?vid=d0d21930-fe1d-478b-8251-bcf89564599d"},"vehicle_type_id":"4","last_reported":1736014305,"current_range_meters":28800,"station_id":"ce4bhph2rcd13ifvqhdg","pricing_plan_id":"cebpf4jnsgd1na2vs0mg"},{"bike_id":"0bd56123-f8b9-4d53-b166-447025313db1","system_id":"levelo_inurba_marseille","lat":43.25588,"lon":5.38217,"is_reserved":false,"is_disabled":false,"rental_uris":{"android":"levelo://app?vid=0bd56123-f8b9-4d53-b166-447025313db1","ios":"levelo://app?vid=0bd56123-f8b9-4d53-b166-447025313db1"},"vehicle_type_id":"4","last_reported":1736014305,"current_range_meters":24000,"station_id":"ce4bhih2rcd13ifvqfs0","pricing_plan_id":"cebpf4jnsgd1na2vs0mg"},{"bike_id":"63e123e7-8b9c-464d-9ea2-39e1e143aa63","system_id":"levelo_inurba_marseille","lat":43.29037,"lon":5.38659,"is_reserved":false,"is_disabled":false,"rental_uris":{"android":"levelo://app?vid=63e123e7-8b9c-464d-9ea2-39e1e143aa63","ios":"levelo://app?vid=63e123e7-8b9c-464d-9ea2-39e1e143aa63"},"vehicle_type_id":"4","last_reported":1736014305,"current_range_meters":24400,"station_id":"ce4bh4p2rcd13ifvqe0g","pricing_plan_id":"cebpf4jnsgd1na2vs0mg"},{"bike_id":"ca097f70-8976-4699-b173-05723d0647b2","system_id":"levelo_inurba_marseille","lat":43.28157,"lon":5.42641,"is_reserved":false,"is_disabled":false,"rental_uris":{"android":"levelo://app?vid=ca097f70-8976-4699-b173-05723d0647b2","ios":"levelo://app?vid=ca097f70-8976-4699-b173-05723d0647b2"},"vehicle_type_id":"4","last_reported":1736014305,"current_range_meters":16000,"station_id":"ce4bhnh2rcd13ifvqgug","pricing_plan_id":"cebpf4jnsgd1na2vs0mg"},{"bike_id":"5f241db6-90b2-4911-9d6c-35b884ad7258","system_id":"levelo_inurba_marseille","lat":43.29546,"lon":5.38549,"is_reserved":false,"is_disabled":false,"rental_uris":{"android":"levelo://app?vid=5f241db6-90b2-4911-9d6c-35b884ad7258","ios":"levelo://app?vid=5f241db6-90b2-4911-9d6c-35b884ad7258"},"vehicle_type_id":"4","last_reported":1736014305,"current_range_meters":22800,"station_id":"ce4bgih2rcd13ifvqba0","pricing_plan_id":"cebpf4jnsgd1na2vs0mg"},{"bike_id":"967c82fc-bf20-4655-937c-308cc9141f68","system_id":"levelo_inurba_marseille","lat":43.28712,"lon":5.37916,"is_reserved":false,"is_disabled":false,"rental_uris":{"android":"levelo://app?vid=967c82fc-bf20-4655-937c-308cc9141f68","ios":"levelo://app?vid=967c82fc-bf20-4655-937c-308cc9141f68"},"vehicle_type_id":"4","last_reported":1736014305,"current_range_meters":34000,"station_id":"ce4bh9p2rcd13ifvqec0","pricing_plan_id":"cebpf4jnsgd1na2vs0mg"},{"bike_id":"7608dee2-0665-4595-b2ce-c35f1a0a632d","system_id":"levelo_inurba_marseille","lat":43.29576,"lon":5.37511,"is_reserved":false,"is_disabled":false,"rental_uris":{"android":"levelo://app?vid=7608dee2-0665-4595-b2ce-c35f1a0a632d","ios":"levelo://app?vid=7608dee2-0665-4595-b2ce-c35f1a0a632d"},"vehicle_type_id":"4","last_reported":1736014305,"current_range_meters":20400,"station_id":"ce4bgh92rcd13ifvqb50","pricing_plan_id":"cebpf4jnsgd1na2vs0mg"},{"bike_id":"7df8c69e-c289-49ec-81f3-cb98eff027f4","system_id":"levelo_inurba_marseille","lat":43.29525,"lon":5.37488,"is_reserved":false,"is_disabled":false,"rental_uris":{"android":"levelo://app?vid=7df8c69e-c289-49ec-81f3-cb98eff027f4","ios":"levelo://app?vid=7df8c69e-c289-49ec-81f3-cb98eff027f4"},"vehicle_type_id":"4","last_reported":1736014305,"current_range_meters":24000,"station_id":"ce4bgkp2rcd13ifvqbmg","pricing_plan_id":"cebpf4jnsgd1na2vs0mg"},{"bike_id":"f01ef33a-dc2d-45c3-a75c-7a57df6a930d","system_id":"levelo_inurba_marseille","lat":43.26217,"lon":5.37446,"is_reserved":false,"is_disabled":false,"rental_uris":{"android":"levelo://app?vid=f01ef33a-dc2d-45c3-a75c-7a57df6a930d","ios":"levelo://app?vid=f01ef33a-dc2d-45c3-a75c-7a57df6a930d"},"vehicle_type_id":"4","last_reported":1736014305,"current_range_meters":10800,"station_id":"ce4bhgp2rcd13ifvqfc0","pricing_plan_id":"cebpf4jnsgd1na2vs0mg"},{"bike_id":"67310104-2c30-4e8f-a59a-16e937832da5","system_id":"levelo_inurba_marseille","lat":43.26806,"lon":5.39431,"is_reserved":false,"is_disabled":false,"rental_uris":{"android":"levelo://app?vid=67310104-2c30-4e8f-a59a-16e937832da5","ios":"levelo://app?vid=67310104-2c30-4e8f-a59a-16e937832da5"},"vehicle_type_id":"4","last_reported":1736014305,"current_range_meters":25200,"station_id":"ce4bhh12rcd13ifvqfg0","pricing_plan_id":"cebpf4jnsgd1na2vs0mg"},{"bike_id":"4b270d4c-61fb-4561-80b8-6ff5c7629d20","system_id":"levelo_inurba_marseille","lat":43.28152,"lon":5.42645,"is_reserved":false,"is_disabled":false,"rental_uris":{"android":"levelo://app?vid=4b270d4c-61fb-4561-80b8-6ff5c7629d20","ios":"levelo://app?vid=4b270d4c-61fb-4561-80b8-6ff5c7629d20"},"vehicle_type_id":"4","last_reported":1736014305,"current_range_meters":30000,"station_id":"ce4bhnh2rcd13ifvqgug","pricing_plan_id":"cebpf4jnsgd1na2vs0mg"},{"bike_id":"410e0913-b7a4-409c-8f4d-77594538652c","system_id":"levelo_inurba_marseille","lat":43.31327,"lon":5.39695,"is_reserved":false,"is_disabled":false,"rental_uris":{"android":"levelo://app?vid=410e0913-b7a4-409c-8f4d-77594538652c","ios":"levelo://app?vid=410e0913-b7a4-409c-8f4d-77594538652c"},"vehicle_type_id":"4","last_reported":1736014305,"current_range_meters":6800,"station_id":"ce4bgvp2rcd13ifvqcu0","pricing_plan_id":"cebpf4jnsgd1na2vs0mg"},{"bike_id":"a6f828f1-5f97-4da7-bf33-7d48a155db3e","system_id":"levelo_inurba_marseille","lat":43.2783,"lon":5.392,"is_reserved":false,"is_disabled":false,"rental_uris":{"android":"levelo://app?vid=a6f828f1-5f97-4da7-bf33-7d48a155db3e","ios":"levelo://app?vid=a6f828f1-5f97-4da7-bf33-7d48a155db3e"},"vehicle_type_id":"4","last_reported":1736014305,"current_range_meters":26000,"station_id":"ce4bhjp2rcd13ifvqga0","pricing_plan_id":"cebpf4jnsgd1na2vs0mg"},{"bike_id":"7eb2fbc1-d3cd-42ff-814a-e8008ec73cdf","system_id":"levelo_inurba_marseille","lat":43.29517,"lon":5.37507,"is_reserved":false,"is_disabled":true,"rental_uris":{"android":"levelo://app?vid=7eb2fbc1-d3cd-42ff-814a-e8008ec73cdf","ios":"levelo://app?vid=7eb2fbc1-d3cd-42ff-814a-e8008ec73cdf"},"vehicle_type_id":"4","last_reported":1736014305,"current_range_meters":0,"station_id":"ce4bgkp2rcd13ifvqbmg","pricing_plan_id":"cebpf4jnsgd1na2vs0mg"},{"bike_id":"a522c7f8-85db-4294-bcdd-44c45cbf4d5e","system_id":"levelo_inurba_marseille","lat":43.23177,"lon":5.39965,"is_reserved":false,"is_disabled":false,"rental_uris":{"android":"levelo://app?vid=a522c7f8-85db-4294-bcdd-44c45cbf4d5e","ios":"levelo://app?vid=a522c7f8-85db-4294-bcdd-44c45cbf4d5e"},"vehicle_type_id":"4","last_reported":1736014305,"current_range_meters":38800,"station_id":"ce4bhn12rcd13ifvqgqg","pricing_plan_id":"cebpf4jnsgd1na2vs0mg"},{"bike_id":"2bb365b9-b0ab-4842-8b8c-e8de6374870a","system_id":"levelo_inurba_marseille","lat":43.246523,"lon":5.388983,"is_reserved":false,"is_disabled":false,"rental_uris":{"android":"levelo://app?vid=2bb365b9-b0ab-4842-8b8c-e8de6374870a","ios":"levelo://app?vid=2bb365b9-b0ab-4842-8b8c-e8de6374870a"},"vehicle_type_id":"4","last_reported":1736014305,"current_range_meters":12000,"station_id":"ce4bhg12rcd13ifvqf60","pricing_plan_id":"cebpf4jnsgd1na2vs0mg"},{"bike_id":"97956e00-925d-4ccb-908e-3af47b772702","system_id":"levelo_inurba_marseille","lat":43.2992,"lon":5.37467,"is_reserved":false,"is_disabled":false,"rental_uris":{"android":"levelo://app?vid=97956e00-925d-4ccb-908e-3af47b772702","ios":"levelo://app?vid=97956e00-925d-4ccb-908e-3af47b772702"},"vehicle_type_id":"4","last_reported":1736014305,"current_range_meters":30800,"station_id":"ce4bgjh2rcd13ifvqbg0","pricing_plan_id":"cebpf4jnsgd1na2vs0mg"},{"bike_id":"e5f8844c-bba9-4bc5-88cc-1530a501cd5e","system_id":"levelo_inurba_marseille","lat":43.31176,"lon":5.38711,"is_reserved":false,"is_disabled":false,"rental_uris":{"android":"levelo://app?vid=e5f8844c-bba9-4bc5-88cc-1530a501cd5e","ios":"levelo://app?vid=e5f8844c-bba9-4bc5-88cc-1530a501cd5e"},"vehicle_type_id":"4","last_reported":1736014305,"current_range_meters":39200,"station_id":"ce4bgv12rcd13ifvqcp0","pricing_plan_id":"cebpf4jnsgd1na2vs0mg"},{"bike_id":"34e4255c-9fbc-4de9-a3d7-5e22e73f9618","system_id":"levelo_inurba_marseille","lat":43.3111,"lon":5.37771,"is_reserved":false,"is_disabled":false,"rental_uris":{"android":"levelo://app?vid=34e4255c-9fbc-4de9-a3d7-5e22e73f9618","ios":"levelo://app?vid=34e4255c-9fbc-4de9-a3d7-5e22e73f9618"},"vehicle_type_id":"4","last_reported":1736014305,"current_range_meters":11600,"station_id":"ce4bgt92rcd13ifvqcg0","pricing_plan_id":"cebpf4jnsgd1na2vs0mg"},{"bike_id":"6c0950ff-ad32-4545-a3b0-d009b8de7beb","system_id":"levelo_inurba_marseille","lat":43.26524,"lon":5.39535,"is_reserved":false,"is_disabled":false,"rental_uris":{"android":"levelo://app?vid=6c0950ff-ad32-4545-a3b0-d009b8de7beb","ios":"levelo://app?vid=6c0950ff-ad32-4545-a3b0-d009b8de7beb"},"vehicle_type_id":"4","last_reported":1736014305,"current_range_meters":38800,"station_id":"ce4bhi12rcd13ifvqfq0","pricing_plan_id":"cebpf4jnsgd1na2vs0mg"},{"bike_id":"641d8acc-50b2-4173-ab23-c70f2a11d28e","system_id":"levelo_inurba_marseille","lat":43.28174,"lon":5.42651,"is_reserved":false,"is_disabled":true,"rental_uris":{"android":"levelo://app?vid=641d8acc-50b2-4173-ab23-c70f2a11d28e","ios":"levelo://app?vid=641d8acc-50b2-4173-ab23-c70f2a11d28e"},"vehicle_type_id":"4","last_reported":1736014305,"current_range_meters":36400,"station_id":"ce4bhnh2rcd13ifvqgug","pricing_plan_id":"cebpf4jnsgd1na2vs0mg"},{"bike_id":"dd47ece4-9948-42c0-abda-95cbb612c218","system_id":"levelo_inurba_marseille","lat":43.30885,"lon":5.39636,"is_reserved":false,"is_disabled":false,"rental_uris":{"android":"levelo://app?vid=dd47ece4-9948-42c0-abda-95cbb612c218","ios":"levelo://app?vid=dd47ece4-9948-42c0-abda-95cbb612c218"},"vehicle_type_id":"4","last_reported":1736014305,"current_range_meters":39200,"station_id":"ce4bh012rcd13ifvqcv0","pricing_plan_id":"cebpf4jnsgd1na2vs0mg"},{"bike_id":"15e503f5-1d52-42d6-a98f-33a61fd8b554","system_id":"levelo_inurba_marseille","lat":43.28455,"lon":5.35897,"is_reserved":false,"is_disabled":true,"rental_uris":{"android":"levelo://app?vid=15e503f5-1d52-42d6-a98f-33a61fd8b554","ios":"levelo://app?vid=15e503f5-1d52-42d6-a98f-33a61fd8b554"},"vehicle_type_id":"4","last_reported":1736014305,"current_range_meters":29600,"station_id":"ce4bhah2rcd13ifvqei0","pricing_plan_id":"cebpf4jnsgd1na2vs0mg"},{"bike_id":"3f029f98-4958-4086-9eb0-d28f72bd0643","system_id":"levelo_inurba_marseille","lat":43.32113,"lon":5.3677,"is_reserved":false,"is_disabled":false,"rental_uris":{"android":"levelo://app?vid=3f029f98-4958-4086-9eb0-d28f72bd0643","ios":"levelo://app?vid=3f029f98-4958-4086-9eb0-d28f72bd0643"},"vehicle_type_id":"4","last_reported":1736014305,"current_range_meters":38800,"station_id":"ce4bhrh2rcd13ifvqhug","pricing_plan_id":"cebpf4jnsgd1na2vs0mg"},{"bike_id":"976319d0-0dd9-4671-8856-6b603e830f8f","system_id":"levelo_inurba_marseille","lat":43.29272,"lon":5.36841,"is_reserved":false,"is_disabled":false,"rental_uris":{"android":"levelo://app?vid=976319d0-0dd9-4671-8856-6b603e830f8f","ios":"levelo://app?vid=976319d0-0dd9-4671-8856-6b603e830f8f"},"vehicle_type_id":"4","last_reported":1736014305,"current_range_meters":12000,"station_id":"ce4bhbp2rcd13ifvqesg","pricing_plan_id":"cebpf4jnsgd1na2vs0mg"},{"bike_id":"939d444f-90af-4242-b314-80106977b85f","system_id":"levelo_inurba_marseille","lat":43.28159,"lon":5.42632,"is_reserved":false,"is_disabled":false,"rental_uris":{"android":"levelo://app?vid=939d444f-90af-4242-b314-80106977b85f","ios":"levelo://app?vid=939d444f-90af-4242-b314-80106977b85f"},"vehicle_type_id":"4","last_reported":1736014305,"current_range_meters":36000,"station_id":"ce4bhnh2rcd13ifvqgug","pricing_plan_id":"cebpf4jnsgd1na2vs0mg"},{"bike_id":"bd609247-c05b-4bfd-8224-3974e4956916","system_id":"levelo_inurba_marseille","lat":43.309,"lon":5.36853,"is_reserved":false,"is_disabled":true,"rental_uris":{"android":"levelo://app?vid=bd609247-c05b-4bfd-8224-3974e4956916","ios":"levelo://app?vid=bd609247-c05b-4bfd-8224-3974e4956916"},"vehicle_type_id":"4","last_reported":1736014305,"current_range_meters":36000,"station_id":"ce4bgn92rcd13ifvqbvg","pricing_plan_id":"cebpf4jnsgd1na2vs0mg"},{"bike_id":"54f6c29e-1f89-491c-9684-ffafebbba118","system_id":"levelo_inurba_marseille","lat":43.29006,"lon":5.35601,"is_reserved":false,"is_disabled":false,"rental_uris":{"android":"levelo://app?vid=54f6c29e-1f89-491c-9684-ffafebbba118","ios":"levelo://app?vid=54f6c29e-1f89-491c-9684-ffafebbba118"},"vehicle_type_id":"4","last_reported":1736014305,"current_range_meters":38400,"station_id":"ce4bhb92rcd13ifvqen0","pricing_plan_id":"cebpf4jnsgd1na2vs0mg"},{"bike_id":"39c07b57-5acb-4f0f-9fba-1d11f8a5afbd","system_id":"levelo_inurba_marseille","lat":43.30356,"lon":5.41867,"is_reserved":false,"is_disabled":false,"rental_uris":{"android":"levelo://app?vid=39c07b57-5acb-4f0f-9fba-1d11f8a5afbd","ios":"levelo://app?vid=39c07b57-5acb-4f0f-9fba-1d11f8a5afbd"},"vehicle_type_id":"4","last_reported":1736014305,"current_range_meters":28000,"station_id":"ce4bhop2rcd13ifvqh7g","pricing_plan_id":"cebpf4jnsgd1na2vs0mg"},{"bike_id":"b50c1e04-9c20-4daa-ad06-7d854e9beedd","system_id":"levelo_inurba_marseille","lat":43.26205,"lon":5.37442,"is_reserved":false,"is_disabled":false,"rental_uris":{"android":"levelo://app?vid=b50c1e04-9c20-4daa-ad06-7d854e9beedd","ios":"levelo://app?vid=b50c1e04-9c20-4daa-ad06-7d854e9beedd"},"vehicle_type_id":"4","last_reported":1736014305,"current_range_meters":32400,"station_id":"ce4bhgp2rcd13ifvqfc0","pricing_plan_id":"cebpf4jnsgd1na2vs0mg"},{"bike_id":"93c37606-3256-4595-90b2-e5610598461c","system_id":"levelo_inurba_marseille","lat":43.29606,"lon":5.38101,"is_reserved":false,"is_disabled":false,"rental_uris":{"android":"levelo://app?vid=93c37606-3256-4595-90b2-e5610598461c","ios":"levelo://app?vid=93c37606-3256-4595-90b2-e5610598461c"},"vehicle_type_id":"4","last_reported":1736014305,"current_range_meters":31200,"station_id":"ce4bgl12rcd13ifvqbo0","pricing_plan_id":"cebpf4jnsgd1na2vs0mg"},{"bike_id":"8d4566f5-07fe-47f4-85a6-9546b8b4eddd","system_id":"levelo_inurba_marseille","lat":43.25113,"lon":5.40319,"is_reserved":false,"is_disabled":false,"rental_uris":{"android":"levelo://app?vid=8d4566f5-07fe-47f4-85a6-9546b8b4eddd","ios":"levelo://app?vid=8d4566f5-07fe-47f4-85a6-9546b8b4eddd"},"vehicle_type_id":"4","last_reported":1736014305,"current_range_meters":10000,"station_id":"ce4bhlh2rcd13ifvqgig","pricing_plan_id":"cebpf4jnsgd1na2vs0mg"},{"bike_id":"3fbcc12d-7cf7-41eb-a3b6-64c9268b731a","system_id":"levelo_inurba_marseille","lat":43.29608,"lon":5.37714,"is_reserved":false,"is_disabled":false,"rental_uris":{"android":"levelo://app?vid=3fbcc12d-7cf7-41eb-a3b6-64c9268b731a","ios":"levelo://app?vid=3fbcc12d-7cf7-41eb-a3b6-64c9268b731a"},"vehicle_type_id":"4","last_reported":1736014305,"current_range_meters":30400,"station_id":"ce4bgi92rcd13ifvqb90","pricing_plan_id":"cebpf4jnsgd1na2vs0mg"},{"bike_id":"37674824-1b6f-4a97-b262-9eae4332dd3e","system_id":"levelo_inurba_marseille","lat":43.26929,"lon":5.38924,"is_reserved":false,"is_disabled":false,"rental_uris":{"android":"levelo://app?vid=37674824-1b6f-4a97-b262-9eae4332dd3e","ios":"levelo://app?vid=37674824-1b6f-4a97-b262-9eae4332dd3e"},"vehicle_type_id":"4","last_reported":1736014305,"current_range_meters":38800,"station_id":"ce4bhhh2rcd13ifvqfl0","pricing_plan_id":"cebpf4jnsgd1na2vs0mg"},{"bike_id":"5a54700b-0a1a-485d-8900-cc71b27414b7","system_id":"levelo_inurba_marseille","lat":43.28343,"lon":5.38107,"is_reserved":false,"is_disabled":false,"rental_uris":{"android":"levelo://app?vid=5a54700b-0a1a-485d-8900-cc71b27414b7","ios":"levelo://app?vid=5a54700b-0a1a-485d-8900-cc71b27414b7"},"vehicle_type_id":"4","last_reported":1736014305,"current_range_meters":37600,"station_id":"ce4bh412rcd13ifvqdr0","pricing_plan_id":"cebpf4jnsgd1na2vs0mg"},{"bike_id":"ce18173f-6920-4780-a0a3-073e71ebb3bd","system_id":"levelo_inurba_marseille","lat":43.2846,"lon":5.35879,"is_reserved":false,"is_disabled":false,"rental_uris":{"android":"levelo://app?vid=ce18173f-6920-4780-a0a3-073e71ebb3bd","ios":"levelo://app?vid=ce18173f-6920-4780-a0a3-073e71ebb3bd"},"vehicle_type_id":"4","last_reported":1736014305,"current_range_meters":35200,"station_id":"ce4bhah2rcd13ifvqei0","pricing_plan_id":"cebpf4jnsgd1na2vs0mg"},{"bike_id":"983a939f-0c90-4b41-8e07-1ba37a328643","system_id":"levelo_inurba_marseille","lat":43.24172,"lon":5.36403,"is_reserved":false,"is_disabled":false,"rental_uris":{"android":"levelo://app?vid=983a939f-0c90-4b41-8e07-1ba37a328643","ios":"levelo://app?vid=983a939f-0c90-4b41-8e07-1ba37a328643"},"vehicle_type_id":"4","last_reported":1736014305,"current_range_meters":24400,"station_id":"cpo36qri1sfpv3e86is0","pricing_plan_id":"cebpf4jnsgd1na2vs0mg"},{"bike_id":"cfd72c2f-528a-4e71-a74c-356dcb547453","system_id":"levelo_inurba_marseille","lat":43.2408,"lon":5.37741,"is_reserved":false,"is_disabled":false,"rental_uris":{"android":"levelo://app?vid=cfd72c2f-528a-4e71-a74c-356dcb547453","ios":"levelo://app?vid=cfd72c2f-528a-4e71-a74c-356dcb547453"},"vehicle_type_id":"4","last_reported":1736014305,"current_range_meters":9600,"station_id":"ce4bhnp2rcd13ifvqgvg","pricing_plan_id":"cebpf4jnsgd1na2vs0mg"},{"bike_id":"2744d3d7-1c79-4955-8dfb-cd899dddfff5","system_id":"levelo_inurba_marseille","lat":43.28437,"lon":5.39201,"is_reserved":false,"is_disabled":false,"rental_uris":{"android":"levelo://app?vid=2744d3d7-1c79-4955-8dfb-cd899dddfff5","ios":"levelo://app?vid=2744d3d7-1c79-4955-8dfb-cd899dddfff5"},"vehicle_type_id":"4","last_reported":1736014305,"current_range_meters":25200,"station_id":"ce4bhoh2rcd13ifvqh5g","pricing_plan_id":"cebpf4jnsgd1na2vs0mg"},{"bike_id":"1f95228b-2707-4808-8d35-1365263ec69f","system_id":"levelo_inurba_marseille","lat":43.29931,"lon":5.36503,"is_reserved":false,"is_disabled":false,"rental_uris":{"android":"levelo://app?vid=1f95228b-2707-4808-8d35-1365263ec69f","ios":"levelo://app?vid=1f95228b-2707-4808-8d35-1365263ec69f"},"vehicle_type_id":"4","last_reported":1736014305,"current_range_meters":25200,"station_id":"ce4bgm92rcd13ifvqbr0","pricing_plan_id":"cebpf4jnsgd1na2vs0mg"},{"bike_id":"32fac1ac-160b-43ec-a560-a05ca5d5e872","system_id":"levelo_inurba_marseille","lat":43.31888,"lon":5.40715,"is_reserved":false,"is_disabled":false,"rental_uris":{"android":"levelo://app?vid=32fac1ac-160b-43ec-a560-a05ca5d5e872","ios":"levelo://app?vid=32fac1ac-160b-43ec-a560-a05ca5d5e872"},"vehicle_type_id":"4","last_reported":1736014305,"current_range_meters":38800,"station_id":"ce4bhq12rcd13ifvqhig","pricing_plan_id":"cebpf4jnsgd1na2vs0mg"},{"bike_id":"09a9cb86-d81c-4618-82f7-eabb09c6ac81","system_id":"levelo_inurba_marseille","lat":43.29953,"lon":5.37143,"is_reserved":false,"is_disabled":false,"rental_uris":{"android":"levelo://app?vid=09a9cb86-d81c-4618-82f7-eabb09c6ac81","ios":"levelo://app?vid=09a9cb86-d81c-4618-82f7-eabb09c6ac81"},"vehicle_type_id":"4","last_reported":1736014305,"current_range_meters":38800,"station_id":"ce4bgr92rcd13ifvqc7g","pricing_plan_id":"cebpf4jnsgd1na2vs0mg"},{"bike_id":"c820bd62-18cb-4bc2-b5bb-e4d0b7276320","system_id":"levelo_inurba_marseille","lat":43.301427,"lon":5.374089,"is_reserved":false,"is_disabled":false,"rental_uris":{"android":"levelo://app?vid=c820bd62-18cb-4bc2-b5bb-e4d0b7276320","ios":"levelo://app?vid=c820bd62-18cb-4bc2-b5bb-e4d0b7276320"},"vehicle_type_id":"4","last_reported":1736014305,"current_range_meters":35600,"station_id":"ce4bgs92rcd13ifvqcc0","pricing_plan_id":"cebpf4jnsgd1na2vs0mg"},{"bike_id":"65ac3048-33e1-41aa-81f5-a58ffe909868","system_id":"levelo_inurba_marseille","lat":43.28004,"lon":5.40012,"is_reserved":false,"is_disabled":false,"rental_uris":{"android":"levelo://app?vid=65ac3048-33e1-41aa-81f5-a58ffe909868","ios":"levelo://app?vid=65ac3048-33e1-41aa-81f5-a58ffe909868"},"vehicle_type_id":"4","last_reported":1736014305,"current_range_meters":38800,"station_id":"ce4bho92rcd13ifvqh4g","pricing_plan_id":"cebpf4jnsgd1na2vs0mg"},{"bike_id":"a5857756-0478-41f2-bfa4-405eeda359bc","system_id":"levelo_inurba_marseille","lat":43.266838,"lon":5.382608,"is_reserved":false,"is_disabled":false,"rental_uris":{"android":"levelo://app?vid=a5857756-0478-41f2-bfa4-405eeda359bc","ios":"levelo://app?vid=a5857756-0478-41f2-bfa4-405eeda359bc"},"vehicle_type_id":"4","last_reported":1736014305,"current_range_meters":38800,"station_id":"ce4bhg92rcd13ifvqf90","pricing_plan_id":"cebpf4jnsgd1na2vs0mg"},{"bike_id":"9e3933c5-f145-4227-841e-244ec335f181","system_id":"levelo_inurba_marseille","lat":43.29807,"lon":5.40404,"is_reserved":false,"is_disabled":false,"rental_uris":{"android":"levelo://app?vid=9e3933c5-f145-4227-841e-244ec335f181","ios":"levelo://app?vid=9e3933c5-f145-4227-841e-244ec335f181"},"vehicle_type_id":"4","last_reported":1736014305,"current_range_meters":38000,"station_id":"ce4bh112rcd13ifvqd90","pricing_plan_id":"cebpf4jnsgd1na2vs0mg"},{"bike_id":"7fed99a3-1579-4595-b236-1f1786391d89","system_id":"levelo_inurba_marseille","lat":43.29976,"lon":5.3718,"is_reserved":false,"is_disabled":false,"rental_uris":{"android":"levelo://app?vid=7fed99a3-1579-4595-b236-1f1786391d89","ios":"levelo://app?vid=7fed99a3-1579-4595-b236-1f1786391d89"},"vehicle_type_id":"4","last_reported":1736014305,"current_range_meters":30800,"station_id":"ce4bgr92rcd13ifvqc7g","pricing_plan_id":"cebpf4jnsgd1na2vs0mg"},{"bike_id":"d996998a-6c5a-454f-96b0-2a8096a46cb2","system_id":"levelo_inurba_marseille","lat":43.29579,"lon":5.36749,"is_reserved":false,"is_disabled":false,"rental_uris":{"android":"levelo://app?vid=d996998a-6c5a-454f-96b0-2a8096a46cb2","ios":"levelo://app?vid=d996998a-6c5a-454f-96b0-2a8096a46cb2"},"vehicle_type_id":"4","last_reported":1736014305,"current_range_meters":36400,"station_id":"ce4bgph2rcd13ifvqc2g","pricing_plan_id":"cebpf4jnsgd1na2vs0mg"},{"bike_id":"bc6cfafe-b05e-4e7a-8aa0-7b2c2bce2d0d","system_id":"levelo_inurba_marseille","lat":43.25726,"lon":5.41108,"is_reserved":false,"is_disabled":true,"rental_uris":{"android":"levelo://app?vid=bc6cfafe-b05e-4e7a-8aa0-7b2c2bce2d0d","ios":"levelo://app?vid=bc6cfafe-b05e-4e7a-8aa0-7b2c2bce2d0d"},"vehicle_type_id":"4","last_reported":1736014305,"current_range_meters":0,"station_id":"ce4bhkp2rcd13ifvqgd0","pricing_plan_id":"cebpf4jnsgd1na2vs0mg"},{"bike_id":"60933a7a-3180-47b4-8262-df7ac4196761","system_id":"levelo_inurba_marseille","lat":43.26793,"lon":5.39404,"is_reserved":false,"is_disabled":false,"rental_uris":{"android":"levelo://app?vid=60933a7a-3180-47b4-8262-df7ac4196761","ios":"levelo://app?vid=60933a7a-3180-47b4-8262-df7ac4196761"},"vehicle_type_id":"4","last_reported":1736014305,"current_range_meters":29600,"station_id":"ce4bhh12rcd13ifvqfg0","pricing_plan_id":"cebpf4jnsgd1na2vs0mg"},{"bike_id":"d8b76d84-2dfc-400f-9630-9e7b0787e9cc","system_id":"levelo_inurba_marseille","lat":43.27505,"lon":5.4244,"is_reserved":false,"is_disabled":true,"rental_uris":{"android":"levelo://app?vid=d8b76d84-2dfc-400f-9630-9e7b0787e9cc","ios":"levelo://app?vid=d8b76d84-2dfc-400f-9630-9e7b0787e9cc"},"vehicle_type_id":"4","last_reported":1736014305,"current_range_meters":8400,"station_id":"ce4bhn92rcd13ifvqgrg","pricing_plan_id":"cebpf4jnsgd1na2vs0mg"},{"bike_id":"b050518e-f0dc-4b7f-b808-38d6056be38a","system_id":"levelo_inurba_marseille","lat":43.28041,"lon":5.36953,"is_reserved":false,"is_disabled":false,"rental_uris":{"android":"levelo://app?vid=b050518e-f0dc-4b7f-b808-38d6056be38a","ios":"levelo://app?vid=b050518e-f0dc-4b7f-b808-38d6056be38a"},"vehicle_type_id":"4","last_reported":1736014305,"current_range_meters":37600,"station_id":"ce4bha12rcd13ifvqef0","pricing_plan_id":"cebpf4jnsgd1na2vs0mg"},{"bike_id":"eaecfcca-aa89-4e9a-8d17-c5be1539665b","system_id":"levelo_inurba_marseille","lat":43.28266,"lon":5.35058,"is_reserved":false,"is_disabled":true,"rental_uris":{"android":"levelo://app?vid=eaecfcca-aa89-4e9a-8d17-c5be1539665b","ios":"levelo://app?vid=eaecfcca-aa89-4e9a-8d17-c5be1539665b"},"vehicle_type_id":"4","last_reported":1736014305,"current_range_meters":6400,"station_id":"ce4bhbp2rcd13ifvqerg","pricing_plan_id":"cebpf4jnsgd1na2vs0mg"},{"bike_id":"896797d5-e48c-435a-a4ff-c7d0b4682116","system_id":"levelo_inurba_marseille","lat":43.27834,"lon":5.40685,"is_reserved":false,"is_disabled":false,"rental_uris":{"android":"levelo://app?vid=896797d5-e48c-435a-a4ff-c7d0b4682116","ios":"levelo://app?vid=896797d5-e48c-435a-a4ff-c7d0b4682116"},"vehicle_type_id":"4","last_reported":1736014305,"current_range_meters":26800,"station_id":"ce4bhnh2rcd13ifvqgtg","pricing_plan_id":"cebpf4jnsgd1na2vs0mg"},{"bike_id":"86013074-2387-4bc1-b5b1-a7e20b573fd1","system_id":"levelo_inurba_marseille","lat":43.29781,"lon":5.39367,"is_reserved":false,"is_disabled":false,"rental_uris":{"android":"levelo://app?vid=86013074-2387-4bc1-b5b1-a7e20b573fd1","ios":"levelo://app?vid=86013074-2387-4bc1-b5b1-a7e20b573fd1"},"vehicle_type_id":"4","last_reported":1736014305,"current_range_meters":39200,"station_id":"chh1huq6cuj3fo74tm60","pricing_plan_id":"cebpf4jnsgd1na2vs0mg"},{"bike_id":"0d707ffc-f707-4ef1-b382-12ca6e4a0156","system_id":"levelo_inurba_marseille","lat":43.26787,"lon":5.3942,"is_reserved":false,"is_disabled":false,"rental_uris":{"android":"levelo://app?vid=0d707ffc-f707-4ef1-b382-12ca6e4a0156","ios":"levelo://app?vid=0d707ffc-f707-4ef1-b382-12ca6e4a0156"},"vehicle_type_id":"4","last_reported":1736014305,"current_range_meters":36400,"station_id":"ce4bhh12rcd13ifvqfg0","pricing_plan_id":"cebpf4jnsgd1na2vs0mg"},{"bike_id":"a37d7708-7233-4135-a31c-20c9d1bb3b2a","system_id":"levelo_inurba_marseille","lat":43.2998,"lon":5.38492,"is_reserved":false,"is_disabled":false,"rental_uris":{"android":"levelo://app?vid=a37d7708-7233-4135-a31c-20c9d1bb3b2a","ios":"levelo://app?vid=a37d7708-7233-4135-a31c-20c9d1bb3b2a"},"vehicle_type_id":"4","last_reported":1736014305,"current_range_meters":36800,"station_id":"ce4bgj92rcd13ifvqbd0","pricing_plan_id":"cebpf4jnsgd1na2vs0mg"},{"bike_id":"7b7b303a-a0b7-4a31-b23c-f8fd5396854f","system_id":"levelo_inurba_marseille","lat":43.27692,"lon":5.38906,"is_reserved":false,"is_disabled":false,"rental_uris":{"android":"levelo://app?vid=7b7b303a-a0b7-4a31-b23c-f8fd5396854f","ios":"levelo://app?vid=7b7b303a-a0b7-4a31-b23c-f8fd5396854f"},"vehicle_type_id":"4","last_reported":1736014305,"current_range_meters":36000,"station_id":"ce4bhi12rcd13ifvqfo0","pricing_plan_id":"cebpf4jnsgd1na2vs0mg"},{"bike_id":"1c570c5f-984d-47c1-8678-d8eb297c870a","system_id":"levelo_inurba_marseille","lat":43.30133,"lon":5.38781,"is_reserved":false,"is_disabled":false,"rental_uris":{"android":"levelo://app?vid=1c570c5f-984d-47c1-8678-d8eb297c870a","ios":"levelo://app?vid=1c570c5f-984d-47c1-8678-d8eb297c870a"},"vehicle_type_id":"4","last_reported":1736014305,"current_range_meters":11600,"station_id":"ce4bghh2rcd13ifvqb60","pricing_plan_id":"cebpf4jnsgd1na2vs0mg"},{"bike_id":"c8837628-876c-4818-bf1b-c5fec14c987f","system_id":"levelo_inurba_marseille","lat":43.2791,"lon":5.39567,"is_reserved":false,"is_disabled":false,"rental_uris":{"android":"levelo://app?vid=c8837628-876c-4818-bf1b-c5fec14c987f","ios":"levelo://app?vid=c8837628-876c-4818-bf1b-c5fec14c987f"},"vehicle_type_id":"4","last_reported":1736014305,"current_range_meters":15200,"station_id":"ce4bhf92rcd13ifvqf40","pricing_plan_id":"cebpf4jnsgd1na2vs0mg"},{"bike_id":"5e12b1e9-3414-4512-9178-c92357c60ae0","system_id":"levelo_inurba_marseille","lat":43.26036,"lon":5.37555,"is_reserved":false,"is_disabled":false,"rental_uris":{"android":"levelo://app?vid=5e12b1e9-3414-4512-9178-c92357c60ae0","ios":"levelo://app?vid=5e12b1e9-3414-4512-9178-c92357c60ae0"},"vehicle_type_id":"4","last_reported":1736014305,"current_range_meters":38800,"station_id":"ce4bhgh2rcd13ifvqfa0","pricing_plan_id":"cebpf4jnsgd1na2vs0mg"},{"bike_id":"182069f5-9311-441d-b62a-092147390eed","system_id":"levelo_inurba_marseille","lat":43.23195,"lon":5.39982,"is_reserved":false,"is_disabled":false,"rental_uris":{"android":"levelo://app?vid=182069f5-9311-441d-b62a-092147390eed","ios":"levelo://app?vid=182069f5-9311-441d-b62a-092147390eed"},"vehicle_type_id":"4","last_reported":1736014305,"current_range_meters":39200,"station_id":"ce4bhn12rcd13ifvqgqg","pricing_plan_id":"cebpf4jnsgd1na2vs0mg"},{"bike_id":"5d0325b4-bbc6-4de3-bcc4-af792ab62121","system_id":"levelo_inurba_marseille","lat":43.27505,"lon":5.42452,"is_reserved":false,"is_disabled":false,"rental_uris":{"android":"levelo://app?vid=5d0325b4-bbc6-4de3-bcc4-af792ab62121","ios":"levelo://app?vid=5d0325b4-bbc6-4de3-bcc4-af792ab62121"},"vehicle_type_id":"4","last_reported":1736014305,"current_range_meters":16400,"station_id":"ce4bhn92rcd13ifvqgrg","pricing_plan_id":"cebpf4jnsgd1na2vs0mg"},{"bike_id":"d24da0c3-9eb9-4c00-bd50-8fd81e807147","system_id":"levelo_inurba_marseille","lat":43.26189,"lon":5.3748,"is_reserved":false,"is_disabled":false,"rental_uris":{"android":"levelo://app?vid=d24da0c3-9eb9-4c00-bd50-8fd81e807147","ios":"levelo://app?vid=d24da0c3-9eb9-4c00-bd50-8fd81e807147"},"vehicle_type_id":"4","last_reported":1736014305,"current_range_meters":36000,"station_id":"ce4bhgp2rcd13ifvqfc0","pricing_plan_id":"cebpf4jnsgd1na2vs0mg"},{"bike_id":"b3675ee3-ecbf-4b35-aa11-6ad9d3c21926","system_id":"levelo_inurba_marseille","lat":43.29195,"lon":5.39341,"is_reserved":false,"is_disabled":false,"rental_uris":{"android":"levelo://app?vid=b3675ee3-ecbf-4b35-aa11-6ad9d3c21926","ios":"levelo://app?vid=b3675ee3-ecbf-4b35-aa11-6ad9d3c21926"},"vehicle_type_id":"4","last_reported":1736014305,"current_range_meters":9600,"station_id":"ce4bh192rcd13ifvqdd0","pricing_plan_id":"cebpf4jnsgd1na2vs0mg"},{"bike_id":"270f72ca-6ff0-4006-b955-8701cfe72efd","system_id":"levelo_inurba_marseille","lat":43.2925,"lon":5.40085,"is_reserved":false,"is_disabled":true,"rental_uris":{"android":"levelo://app?vid=270f72ca-6ff0-4006-b955-8701cfe72efd","ios":"levelo://app?vid=270f72ca-6ff0-4006-b955-8701cfe72efd"},"vehicle_type_id":"4","last_reported":1736014305,"current_range_meters":6000,"station_id":"ce4bh312rcd13ifvqdk0","pricing_plan_id":"cebpf4jnsgd1na2vs0mg"},{"bike_id":"9a9e6ccb-45cc-4488-84ab-948e9f302b4f","system_id":"levelo_inurba_marseille","lat":43.28702,"lon":5.37387,"is_reserved":false,"is_disabled":false,"rental_uris":{"android":"levelo://app?vid=9a9e6ccb-45cc-4488-84ab-948e9f302b4f","ios":"levelo://app?vid=9a9e6ccb-45cc-4488-84ab-948e9f302b4f"},"vehicle_type_id":"4","last_reported":1736014305,"current_range_meters":9600,"station_id":"ce4bh3p2rcd13ifvqdq0","pricing_plan_id":"cebpf4jnsgd1na2vs0mg"},{"bike_id":"49581eaa-2636-4468-8f78-6e7f0ced75e4","system_id":"levelo_inurba_marseille","lat":43.29304,"lon":5.37474,"is_reserved":false,"is_disabled":false,"rental_uris":{"android":"levelo://app?vid=49581eaa-2636-4468-8f78-6e7f0ced75e4","ios":"levelo://app?vid=49581eaa-2636-4468-8f78-6e7f0ced75e4"},"vehicle_type_id":"4","last_reported":1736014305,"current_range_meters":30000,"station_id":"ce4bgi12rcd13ifvqb70","pricing_plan_id":"cebpf4jnsgd1na2vs0mg"},{"bike_id":"b5de95e0-8f34-41aa-a5fc-c4e76e03a994","system_id":"levelo_inurba_marseille","lat":43.28091,"lon":5.39666,"is_reserved":false,"is_disabled":true,"rental_uris":{"android":"levelo://app?vid=b5de95e0-8f34-41aa-a5fc-c4e76e03a994","ios":"levelo://app?vid=b5de95e0-8f34-41aa-a5fc-c4e76e03a994"},"vehicle_type_id":"4","last_reported":1736014305,"current_range_meters":35600,"station_id":"ce4bho12rcd13ifvqh2g","pricing_plan_id":"cebpf4jnsgd1na2vs0mg"},{"bike_id":"aa33a53e-f806-43a8-ad7e-8e2bd9644426","system_id":"levelo_inurba_marseille","lat":43.32362,"lon":5.40605,"is_reserved":false,"is_disabled":true,"rental_uris":{"android":"levelo://app?vid=aa33a53e-f806-43a8-ad7e-8e2bd9644426","ios":"levelo://app?vid=aa33a53e-f806-43a8-ad7e-8e2bd9644426"},"vehicle_type_id":"4","last_reported":1736014305,"current_range_meters":0,"station_id":"ce4bhq92rcd13ifvqhjg","pricing_plan_id":"cebpf4jnsgd1na2vs0mg"},{"bike_id":"b9dc4ae5-8ee5-4a0e-8a96-a2e835ae7769","system_id":"levelo_inurba_marseille","lat":43.243905,"lon":5.37054,"is_reserved":false,"is_disabled":false,"rental_uris":{"android":"levelo://app?vid=b9dc4ae5-8ee5-4a0e-8a96-a2e835ae7769","ios":"levelo://app?vid=b9dc4ae5-8ee5-4a0e-8a96-a2e835ae7769"},"vehicle_type_id":"4","last_reported":1736014305,"current_range_meters":16400,"station_id":"ce4bhhh2rcd13ifvqfk0","pricing_plan_id":"cebpf4jnsgd1na2vs0mg"},{"bike_id":"35ddf779-bddb-4024-9cb1-784a6a0e3d95","system_id":"levelo_inurba_marseille","lat":43.28926,"lon":5.3839,"is_reserved":false,"is_disabled":false,"rental_uris":{"android":"levelo://app?vid=35ddf779-bddb-4024-9cb1-784a6a0e3d95","ios":"levelo://app?vid=35ddf779-bddb-4024-9cb1-784a6a0e3d95"},"vehicle_type_id":"4","last_reported":1736014305,"current_range_meters":18800,"station_id":"ce4bh612rcd13ifvqe6g","pricing_plan_id":"cebpf4jnsgd1na2vs0mg"},{"bike_id":"5c0ad7ca-7704-4867-b9a4-b593e7796de9","system_id":"levelo_inurba_marseille","lat":43.26208,"lon":5.37443,"is_reserved":false,"is_disabled":false,"rental_uris":{"android":"levelo://app?vid=5c0ad7ca-7704-4867-b9a4-b593e7796de9","ios":"levelo://app?vid=5c0ad7ca-7704-4867-b9a4-b593e7796de9"},"vehicle_type_id":"4","last_reported":1736014305,"current_range_meters":35200,"station_id":"ce4bhgp2rcd13ifvqfc0","pricing_plan_id":"cebpf4jnsgd1na2vs0mg"},{"bike_id":"0b9e00db-c635-48b8-8cb0-7cb4bde04e03","system_id":"levelo_inurba_marseille","lat":43.2942,"lon":5.38622,"is_reserved":false,"is_disabled":false,"rental_uris":{"android":"levelo://app?vid=0b9e00db-c635-48b8-8cb0-7cb4bde04e03","ios":"levelo://app?vid=0b9e00db-c635-48b8-8cb0-7cb4bde04e03"},"vehicle_type_id":"4","last_reported":1736014305,"current_range_meters":16800,"station_id":"ce4bh2h2rcd13ifvqdh0","pricing_plan_id":"cebpf4jnsgd1na2vs0mg"},{"bike_id":"68a66945-15a2-4d81-bbef-66319ae7a96e","system_id":"levelo_inurba_marseille","lat":43.29796,"lon":5.38118,"is_reserved":false,"is_disabled":false,"rental_uris":{"android":"levelo://app?vid=68a66945-15a2-4d81-bbef-66319ae7a96e","ios":"levelo://app?vid=68a66945-15a2-4d81-bbef-66319ae7a96e"},"vehicle_type_id":"4","last_reported":1736014305,"current_range_meters":34000,"station_id":"ce4bgip2rcd13ifvqbb0","pricing_plan_id":"cebpf4jnsgd1na2vs0mg"},{"bike_id":"82f7f1c0-6410-4bfe-84de-60ddf9fcc08e","system_id":"levelo_inurba_marseille","lat":43.29826,"lon":5.38165,"is_reserved":false,"is_disabled":false,"rental_uris":{"android":"levelo://app?vid=82f7f1c0-6410-4bfe-84de-60ddf9fcc08e","ios":"levelo://app?vid=82f7f1c0-6410-4bfe-84de-60ddf9fcc08e"},"vehicle_type_id":"4","last_reported":1736014305,"current_range_meters":28400,"station_id":"","pricing_plan_id":"cebpf4jnsgd1na2vs0mg"},{"bike_id":"45744d07-eb73-453c-b6ee-d9a256b9901b","system_id":"levelo_inurba_marseille","lat":43.30977,"lon":5.39029,"is_reserved":false,"is_disabled":true,"rental_uris":{"android":"levelo://app?vid=45744d07-eb73-453c-b6ee-d9a256b9901b","ios":"levelo://app?vid=45744d07-eb73-453c-b6ee-d9a256b9901b"},"vehicle_type_id":"4","last_reported":1736014305,"current_range_meters":17600,"station_id":"ce4bgup2rcd13ifvqco0","pricing_plan_id":"cebpf4jnsgd1na2vs0mg"},{"bike_id":"336b1a63-3ea7-4e1c-8fe5-6b13ba610617","system_id":"levelo_inurba_marseille","lat":43.28608,"lon":5.37062,"is_reserved":false,"is_disabled":false,"rental_uris":{"android":"levelo://app?vid=336b1a63-3ea7-4e1c-8fe5-6b13ba610617","ios":"levelo://app?vid=336b1a63-3ea7-4e1c-8fe5-6b13ba610617"},"vehicle_type_id":"4","last_reported":1736014305,"current_range_meters":33600,"station_id":"ce4bht12rcd13ifvqi60","pricing_plan_id":"cebpf4jnsgd1na2vs0mg"},{"bike_id":"57931e07-fad0-4483-87b0-19eb3fa0f506","system_id":"levelo_inurba_marseille","lat":43.29913,"lon":5.37468,"is_reserved":false,"is_disabled":false,"rental_uris":{"android":"levelo://app?vid=57931e07-fad0-4483-87b0-19eb3fa0f506","ios":"levelo://app?vid=57931e07-fad0-4483-87b0-19eb3fa0f506"},"vehicle_type_id":"4","last_reported":1736014305,"current_range_meters":35200,"station_id":"ce4bgjh2rcd13ifvqbg0","pricing_plan_id":"cebpf4jnsgd1na2vs0mg"},{"bike_id":"e14fc727-e110-4847-a3c5-e82ea6a6fcb8","system_id":"levelo_inurba_marseille","lat":43.28988,"lon":5.39643,"is_reserved":false,"is_disabled":true,"rental_uris":{"android":"levelo://app?vid=e14fc727-e110-4847-a3c5-e82ea6a6fcb8","ios":"levelo://app?vid=e14fc727-e110-4847-a3c5-e82ea6a6fcb8"},"vehicle_type_id":"4","last_reported":1736014305,"current_range_meters":38800,"station_id":"","pricing_plan_id":"cebpf4jnsgd1na2vs0mg"},{"bike_id":"5aa10f0c-aa8d-40fb-a2a3-c962ce55191c","system_id":"levelo_inurba_marseille","lat":43.29799,"lon":5.38153,"is_reserved":false,"is_disabled":false,"rental_uris":{"android":"levelo://app?vid=5aa10f0c-aa8d-40fb-a2a3-c962ce55191c","ios":"levelo://app?vid=5aa10f0c-aa8d-40fb-a2a3-c962ce55191c"},"vehicle_type_id":"4","last_reported":1736014305,"current_range_meters":38800,"station_id":"ce4bgip2rcd13ifvqbb0","pricing_plan_id":"cebpf4jnsgd1na2vs0mg"},{"bike_id":"b6743d2f-2ba1-49a8-b794-760bb57edb10","system_id":"levelo_inurba_marseille","lat":43.26195,"lon":5.37452,"is_reserved":false,"is_disabled":false,"rental_uris":{"android":"levelo://app?vid=b6743d2f-2ba1-49a8-b794-760bb57edb10","ios":"levelo://app?vid=b6743d2f-2ba1-49a8-b794-760bb57edb10"},"vehicle_type_id":"4","last_reported":1736014305,"current_range_meters":38800,"station_id":"ce4bhgp2rcd13ifvqfc0","pricing_plan_id":"cebpf4jnsgd1na2vs0mg"},{"bike_id":"223a4990-4e05-4395-8830-aea2c89ecd7a","system_id":"levelo_inurba_marseille","lat":43.29031,"lon":5.38656,"is_reserved":false,"is_disabled":true,"rental_uris":{"android":"levelo://app?vid=223a4990-4e05-4395-8830-aea2c89ecd7a","ios":"levelo://app?vid=223a4990-4e05-4395-8830-aea2c89ecd7a"},"vehicle_type_id":"4","last_reported":1736014305,"current_range_meters":32400,"station_id":"ce4bh4p2rcd13ifvqe0g","pricing_plan_id":"cebpf4jnsgd1na2vs0mg"},{"bike_id":"1a5fff32-ce7c-4bce-b86e-8507d81f5361","system_id":"levelo_inurba_marseille","lat":43.24809,"lon":5.37447,"is_reserved":false,"is_disabled":false,"rental_uris":{"android":"levelo://app?vid=1a5fff32-ce7c-4bce-b86e-8507d81f5361","ios":"levelo://app?vid=1a5fff32-ce7c-4bce-b86e-8507d81f5361"},"vehicle_type_id":"4","last_reported":1736014305,"current_range_meters":18000,"station_id":"ce4bhgh2rcd13ifvqfb0","pricing_plan_id":"cebpf4jnsgd1na2vs0mg"},{"bike_id":"47482a76-601c-4d8d-9a9c-6565b981ebaf","system_id":"levelo_inurba_marseille","lat":43.296406,"lon":5.37044,"is_reserved":false,"is_disabled":false,"rental_uris":{"android":"levelo://app?vid=47482a76-601c-4d8d-9a9c-6565b981ebaf","ios":"levelo://app?vid=47482a76-601c-4d8d-9a9c-6565b981ebaf"},"vehicle_type_id":"4","last_reported":1736014305,"current_range_meters":24400,"station_id":"ce4bgpp2rcd13ifvqc3g","pricing_plan_id":"cebpf4jnsgd1na2vs0mg"},{"bike_id":"69168f28-9086-4da0-81d6-b57efbc78953","system_id":"levelo_inurba_marseille","lat":43.23179,"lon":5.39991,"is_reserved":false,"is_disabled":false,"rental_uris":{"android":"levelo://app?vid=69168f28-9086-4da0-81d6-b57efbc78953","ios":"levelo://app?vid=69168f28-9086-4da0-81d6-b57efbc78953"},"vehicle_type_id":"4","last_reported":1736014305,"current_range_meters":27200,"station_id":"ce4bhn12rcd13ifvqgqg","pricing_plan_id":"cebpf4jnsgd1na2vs0mg"},{"bike_id":"bbf998ea-d252-4590-8711-16d78ff4b07c","system_id":"levelo_inurba_marseille","lat":43.2464,"lon":5.3889,"is_reserved":false,"is_disabled":false,"rental_uris":{"android":"levelo://app?vid=bbf998ea-d252-4590-8711-16d78ff4b07c","ios":"levelo://app?vid=bbf998ea-d252-4590-8711-16d78ff4b07c"},"vehicle_type_id":"4","last_reported":1736014305,"current_range_meters":37600,"station_id":"ce4bhg12rcd13ifvqf60","pricing_plan_id":"cebpf4jnsgd1na2vs0mg"},{"bike_id":"8a4eb83d-ccac-4c56-adc4-38b6be0f613d","system_id":"levelo_inurba_marseille","lat":43.24393,"lon":5.37047,"is_reserved":false,"is_disabled":false,"rental_uris":{"android":"levelo://app?vid=8a4eb83d-ccac-4c56-adc4-38b6be0f613d","ios":"levelo://app?vid=8a4eb83d-ccac-4c56-adc4-38b6be0f613d"},"vehicle_type_id":"4","last_reported":1736014305,"current_range_meters":31200,"station_id":"ce4bhhh2rcd13ifvqfk0","pricing_plan_id":"cebpf4jnsgd1na2vs0mg"},{"bike_id":"af68d2e6-d7e3-4eb8-9cf5-37ac1985b5a3","system_id":"levelo_inurba_marseille","lat":43.23066,"lon":5.35496,"is_reserved":false,"is_disabled":false,"rental_uris":{"android":"levelo://app?vid=af68d2e6-d7e3-4eb8-9cf5-37ac1985b5a3","ios":"levelo://app?vid=af68d2e6-d7e3-4eb8-9cf5-37ac1985b5a3"},"vehicle_type_id":"4","last_reported":1736014305,"current_range_meters":22000,"station_id":"cpo3342slgdg3j2ifvpg","pricing_plan_id":"cebpf4jnsgd1na2vs0mg"},{"bike_id":"c76f010e-8b23-4840-a7a5-a9a5d3648fa3","system_id":"levelo_inurba_marseille","lat":43.30887,"lon":5.37187,"is_reserved":false,"is_disabled":true,"rental_uris":{"android":"levelo://app?vid=c76f010e-8b23-4840-a7a5-a9a5d3648fa3","ios":"levelo://app?vid=c76f010e-8b23-4840-a7a5-a9a5d3648fa3"},"vehicle_type_id":"4","last_reported":1736014305,"current_range_meters":7200,"station_id":"ce4bguh2rcd13ifvqckg","pricing_plan_id":"cebpf4jnsgd1na2vs0mg"},{"bike_id":"6f21fba1-6f8e-47c4-a476-286cca5f9cc6","system_id":"levelo_inurba_marseille","lat":43.28272,"lon":5.3507,"is_reserved":false,"is_disabled":true,"rental_uris":{"android":"levelo://app?vid=6f21fba1-6f8e-47c4-a476-286cca5f9cc6","ios":"levelo://app?vid=6f21fba1-6f8e-47c4-a476-286cca5f9cc6"},"vehicle_type_id":"4","last_reported":1736014305,"current_range_meters":1600,"station_id":"ce4bhbp2rcd13ifvqerg","pricing_plan_id":"cebpf4jnsgd1na2vs0mg"},{"bike_id":"21f0e3c2-495a-43ca-b213-21dd4a411241","system_id":"levelo_inurba_marseille","lat":43.2844,"lon":5.39205,"is_reserved":false,"is_disabled":false,"rental_uris":{"android":"levelo://app?vid=21f0e3c2-495a-43ca-b213-21dd4a411241","ios":"levelo://app?vid=21f0e3c2-495a-43ca-b213-21dd4a411241"},"vehicle_type_id":"4","last_reported":1736014305,"current_range_meters":38000,"station_id":"ce4bhoh2rcd13ifvqh5g","pricing_plan_id":"cebpf4jnsgd1na2vs0mg"},{"bike_id":"ca9933dd-30e8-49d3-9b90-9060fb59c453","system_id":"levelo_inurba_marseille","lat":43.29566,"lon":5.37507,"is_reserved":false,"is_disabled":false,"rental_uris":{"android":"levelo://app?vid=ca9933dd-30e8-49d3-9b90-9060fb59c453","ios":"levelo://app?vid=ca9933dd-30e8-49d3-9b90-9060fb59c453"},"vehicle_type_id":"4","last_reported":1736014305,"current_range_meters":32400,"station_id":"ce4bgh92rcd13ifvqb50","pricing_plan_id":"cebpf4jnsgd1na2vs0mg"},{"bike_id":"8a2871f5-9447-484d-9926-098aa750c257","system_id":"levelo_inurba_marseille","lat":43.28411,"lon":5.37527,"is_reserved":false,"is_disabled":false,"rental_uris":{"android":"levelo://app?vid=8a2871f5-9447-484d-9926-098aa750c257","ios":"levelo://app?vid=8a2871f5-9447-484d-9926-098aa750c257"},"vehicle_type_id":"4","last_reported":1736014305,"current_range_meters":19200,"station_id":"ce4bh412rcd13ifvqds0","pricing_plan_id":"cebpf4jnsgd1na2vs0mg"},{"bike_id":"1cc2c131-0d9b-40a7-b56a-fc80d429f186","system_id":"levelo_inurba_marseille","lat":43.29971,"lon":5.37187,"is_reserved":false,"is_disabled":false,"rental_uris":{"android":"levelo://app?vid=1cc2c131-0d9b-40a7-b56a-fc80d429f186","ios":"levelo://app?vid=1cc2c131-0d9b-40a7-b56a-fc80d429f186"},"vehicle_type_id":"4","last_reported":1736014305,"current_range_meters":38800,"station_id":"ce4bgr92rcd13ifvqc7g","pricing_plan_id":"cebpf4jnsgd1na2vs0mg"},{"bike_id":"d30b1091-2e5d-4e8f-bcf0-ff60bbd34c3b","system_id":"levelo_inurba_marseille","lat":43.26502,"lon":5.39529,"is_reserved":false,"is_disabled":false,"rental_uris":{"android":"levelo://app?vid=d30b1091-2e5d-4e8f-bcf0-ff60bbd34c3b","ios":"levelo://app?vid=d30b1091-2e5d-4e8f-bcf0-ff60bbd34c3b"},"vehicle_type_id":"4","last_reported":1736014305,"current_range_meters":24800,"station_id":"ce4bhi12rcd13ifvqfq0","pricing_plan_id":"cebpf4jnsgd1na2vs0mg"},{"bike_id":"e6464149-b68b-48d7-9417-ac28b0f59970","system_id":"levelo_inurba_marseille","lat":43.3015,"lon":5.3739,"is_reserved":false,"is_disabled":false,"rental_uris":{"android":"levelo://app?vid=e6464149-b68b-48d7-9417-ac28b0f59970","ios":"levelo://app?vid=e6464149-b68b-48d7-9417-ac28b0f59970"},"vehicle_type_id":"4","last_reported":1736014305,"current_range_meters":17200,"station_id":"ce4bgs92rcd13ifvqcc0","pricing_plan_id":"cebpf4jnsgd1na2vs0mg"},{"bike_id":"ab50a04c-6d7f-40cc-8d9b-c908c2890f4f","system_id":"levelo_inurba_marseille","lat":43.29937,"lon":5.37463,"is_reserved":false,"is_disabled":false,"rental_uris":{"android":"levelo://app?vid=ab50a04c-6d7f-40cc-8d9b-c908c2890f4f","ios":"levelo://app?vid=ab50a04c-6d7f-40cc-8d9b-c908c2890f4f"},"vehicle_type_id":"4","last_reported":1736014305,"current_range_meters":27600,"station_id":"ce4bgjh2rcd13ifvqbg0","pricing_plan_id":"cebpf4jnsgd1na2vs0mg"},{"bike_id":"622010f3-f2d4-4d1d-9c35-a93082d38040","system_id":"levelo_inurba_marseille","lat":43.295786,"lon":5.375074,"is_reserved":false,"is_disabled":false,"rental_uris":{"android":"levelo://app?vid=622010f3-f2d4-4d1d-9c35-a93082d38040","ios":"levelo://app?vid=622010f3-f2d4-4d1d-9c35-a93082d38040"},"vehicle_type_id":"4","last_reported":1736014305,"current_range_meters":38800,"station_id":"ce4bgh92rcd13ifvqb50","pricing_plan_id":"cebpf4jnsgd1na2vs0mg"},{"bike_id":"85cba0a3-d6ec-4723-83bf-95316674cece","system_id":"levelo_inurba_marseille","lat":43.27552,"lon":5.3841,"is_reserved":false,"is_disabled":true,"rental_uris":{"android":"levelo://app?vid=85cba0a3-d6ec-4723-83bf-95316674cece","ios":"levelo://app?vid=85cba0a3-d6ec-4723-83bf-95316674cece"},"vehicle_type_id":"4","last_reported":1736014305,"current_range_meters":6000,"station_id":"ce4bhh92rcd13ifvqfi0","pricing_plan_id":"cebpf4jnsgd1na2vs0mg"},{"bike_id":"d5355d3d-6620-4d8e-801e-d620f116c682","system_id":"levelo_inurba_marseille","lat":43.23066,"lon":5.35488,"is_reserved":false,"is_disabled":false,"rental_uris":{"android":"levelo://app?vid=d5355d3d-6620-4d8e-801e-d620f116c682","ios":"levelo://app?vid=d5355d3d-6620-4d8e-801e-d620f116c682"},"vehicle_type_id":"4","last_reported":1736014305,"current_range_meters":18000,"station_id":"cpo3342slgdg3j2ifvpg","pricing_plan_id":"cebpf4jnsgd1na2vs0mg"},{"bike_id":"ad35291b-d7c6-4ad4-b02c-5969e2327226","system_id":"levelo_inurba_marseille","lat":43.23076,"lon":5.35491,"is_reserved":false,"is_disabled":false,"rental_uris":{"android":"levelo://app?vid=ad35291b-d7c6-4ad4-b02c-5969e2327226","ios":"levelo://app?vid=ad35291b-d7c6-4ad4-b02c-5969e2327226"},"vehicle_type_id":"4","last_reported":1736014305,"current_range_meters":22400,"station_id":"cpo3342slgdg3j2ifvpg","pricing_plan_id":"cebpf4jnsgd1na2vs0mg"},{"bike_id":"266d97a0-8b6a-4815-8e1e-a29e516886ab","system_id":"levelo_inurba_marseille","lat":43.323611,"lon":5.367594,"is_reserved":false,"is_disabled":false,"rental_uris":{"android":"levelo://app?vid=266d97a0-8b6a-4815-8e1e-a29e516886ab","ios":"levelo://app?vid=266d97a0-8b6a-4815-8e1e-a29e516886ab"},"vehicle_type_id":"4","last_reported":1736014305,"current_range_meters":36400,"station_id":"ce4bhsh2rcd13ifvqi2g","pricing_plan_id":"cebpf4jnsgd1na2vs0mg"},{"bike_id":"a7224998-3cd1-44ad-8892-e18e0ad97675","system_id":"levelo_inurba_marseille","lat":43.24667,"lon":5.38152,"is_reserved":false,"is_disabled":false,"rental_uris":{"android":"levelo://app?vid=a7224998-3cd1-44ad-8892-e18e0ad97675","ios":"levelo://app?vid=a7224998-3cd1-44ad-8892-e18e0ad97675"},"vehicle_type_id":"4","last_reported":1736014305,"current_range_meters":39200,"station_id":"ce4bhih2rcd13ifvqfr0","pricing_plan_id":"cebpf4jnsgd1na2vs0mg"},{"bike_id":"648c17cc-1ec7-414b-a0b7-3aee3dfd376d","system_id":"levelo_inurba_marseille","lat":43.30138,"lon":5.38782,"is_reserved":false,"is_disabled":false,"rental_uris":{"android":"levelo://app?vid=648c17cc-1ec7-414b-a0b7-3aee3dfd376d","ios":"levelo://app?vid=648c17cc-1ec7-414b-a0b7-3aee3dfd376d"},"vehicle_type_id":"4","last_reported":1736014305,"current_range_meters":16400,"station_id":"ce4bhoh2rcd13ifvqh6g","pricing_plan_id":"cebpf4jnsgd1na2vs0mg"},{"bike_id":"379af85d-277e-4e2e-abdb-654a08bac7c6","system_id":"levelo_inurba_marseille","lat":43.26222,"lon":5.37441,"is_reserved":false,"is_disabled":false,"rental_uris":{"android":"levelo://app?vid=379af85d-277e-4e2e-abdb-654a08bac7c6","ios":"levelo://app?vid=379af85d-277e-4e2e-abdb-654a08bac7c6"},"vehicle_type_id":"4","last_reported":1736014305,"current_range_meters":11600,"station_id":"ce4bhgp2rcd13ifvqfc0","pricing_plan_id":"cebpf4jnsgd1na2vs0mg"},{"bike_id":"667bdda4-efdb-4d80-a24d-c77e378d50fd","system_id":"levelo_inurba_marseille","lat":43.29578,"lon":5.37513,"is_reserved":false,"is_disabled":false,"rental_uris":{"android":"levelo://app?vid=667bdda4-efdb-4d80-a24d-c77e378d50fd","ios":"levelo://app?vid=667bdda4-efdb-4d80-a24d-c77e378d50fd"},"vehicle_type_id":"4","last_reported":1736014305,"current_range_meters":22000,"station_id":"ce4bgh92rcd13ifvqb50","pricing_plan_id":"cebpf4jnsgd1na2vs0mg"},{"bike_id":"c5d20e4a-fe1b-4624-a558-6c904cbf43ea","system_id":"levelo_inurba_marseille","lat":43.29306,"lon":5.37455,"is_reserved":false,"is_disabled":false,"rental_uris":{"android":"levelo://app?vid=c5d20e4a-fe1b-4624-a558-6c904cbf43ea","ios":"levelo://app?vid=c5d20e4a-fe1b-4624-a558-6c904cbf43ea"},"vehicle_type_id":"4","last_reported":1736014305,"current_range_meters":36800,"station_id":"ce4bgi12rcd13ifvqb70","pricing_plan_id":"cebpf4jnsgd1na2vs0mg"},{"bike_id":"ebd980d5-1c46-4437-8d53-e77aaca60142","system_id":"levelo_inurba_marseille","lat":43.27833,"lon":5.4069,"is_reserved":false,"is_disabled":false,"rental_uris":{"android":"levelo://app?vid=ebd980d5-1c46-4437-8d53-e77aaca60142","ios":"levelo://app?vid=ebd980d5-1c46-4437-8d53-e77aaca60142"},"vehicle_type_id":"4","last_reported":1736014305,"current_range_meters":2800,"station_id":"ce4bhnh2rcd13ifvqgtg","pricing_plan_id":"cebpf4jnsgd1na2vs0mg"},{"bike_id":"f3de9f01-0329-4e8f-9301-885f78d99f9b","system_id":"levelo_inurba_marseille","lat":43.28013,"lon":5.39996,"is_reserved":false,"is_disabled":true,"rental_uris":{"android":"levelo://app?vid=f3de9f01-0329-4e8f-9301-885f78d99f9b","ios":"levelo://app?vid=f3de9f01-0329-4e8f-9301-885f78d99f9b"},"vehicle_type_id":"4","last_reported":1736014305,"current_range_meters":28000,"station_id":"ce4bho92rcd13ifvqh4g","pricing_plan_id":"cebpf4jnsgd1na2vs0mg"},{"bike_id":"c419512d-089a-4e3a-8724-1b15f68ece37","system_id":"levelo_inurba_marseille","lat":43.298,"lon":5.37109,"is_reserved":false,"is_disabled":false,"rental_uris":{"android":"levelo://app?vid=c419512d-089a-4e3a-8724-1b15f68ece37","ios":"levelo://app?vid=c419512d-089a-4e3a-8724-1b15f68ece37"},"vehicle_type_id":"4","last_reported":1736014305,"current_range_meters":38800,"station_id":"ce4bgop2rcd13ifvqc1g","pricing_plan_id":"cebpf4jnsgd1na2vs0mg"},{"bike_id":"d014f699-d84d-436b-b3bf-8c059d18ea89","system_id":"levelo_inurba_marseille","lat":43.22919,"lon":5.35389,"is_reserved":false,"is_disabled":false,"rental_uris":{"android":"levelo://app?vid=d014f699-d84d-436b-b3bf-8c059d18ea89","ios":"levelo://app?vid=d014f699-d84d-436b-b3bf-8c059d18ea89"},"vehicle_type_id":"4","last_reported":1736014305,"current_range_meters":20800,"station_id":"cpo3532slgdg3j2ikp40","pricing_plan_id":"cebpf4jnsgd1na2vs0mg"},{"bike_id":"a9016b37-14a6-4cab-a6f3-712ecaed0079","system_id":"levelo_inurba_marseille","lat":43.29612,"lon":5.38101,"is_reserved":false,"is_disabled":false,"rental_uris":{"android":"levelo://app?vid=a9016b37-14a6-4cab-a6f3-712ecaed0079","ios":"levelo://app?vid=a9016b37-14a6-4cab-a6f3-712ecaed0079"},"vehicle_type_id":"4","last_reported":1736014305,"current_range_meters":39200,"station_id":"ce4bgl12rcd13ifvqbo0","pricing_plan_id":"cebpf4jnsgd1na2vs0mg"},{"bike_id":"19466711-5f5d-4ff4-b5a4-fe3cc59f2a19","system_id":"levelo_inurba_marseille","lat":43.30206,"lon":5.36598,"is_reserved":false,"is_disabled":false,"rental_uris":{"android":"levelo://app?vid=19466711-5f5d-4ff4-b5a4-fe3cc59f2a19","ios":"levelo://app?vid=19466711-5f5d-4ff4-b5a4-fe3cc59f2a19"},"vehicle_type_id":"4","last_reported":1736014305,"current_range_meters":35200,"station_id":"ce4bgrh2rcd13ifvqc8g","pricing_plan_id":"cebpf4jnsgd1na2vs0mg"},{"bike_id":"c420422e-e5ff-46aa-9ade-56c25e82f06d","system_id":"levelo_inurba_marseille","lat":43.23234,"lon":5.35529,"is_reserved":false,"is_disabled":false,"rental_uris":{"android":"levelo://app?vid=c420422e-e5ff-46aa-9ade-56c25e82f06d","ios":"levelo://app?vid=c420422e-e5ff-46aa-9ade-56c25e82f06d"},"vehicle_type_id":"4","last_reported":1736014305,"current_range_meters":38800,"station_id":"ce4bhu92rcd13ifvqi70","pricing_plan_id":"cebpf4jnsgd1na2vs0mg"},{"bike_id":"ef72cdb4-465d-4178-b952-49906f159c48","system_id":"levelo_inurba_marseille","lat":43.28141,"lon":5.42639,"is_reserved":false,"is_disabled":false,"rental_uris":{"android":"levelo://app?vid=ef72cdb4-465d-4178-b952-49906f159c48","ios":"levelo://app?vid=ef72cdb4-465d-4178-b952-49906f159c48"},"vehicle_type_id":"4","last_reported":1736014305,"current_range_meters":15200,"station_id":"ce4bhnh2rcd13ifvqgug","pricing_plan_id":"cebpf4jnsgd1na2vs0mg"},{"bike_id":"f70a713e-a517-421c-b6d4-5dc3b3efbdf3","system_id":"levelo_inurba_marseille","lat":43.2955,"lon":5.37512,"is_reserved":false,"is_disabled":false,"rental_uris":{"android":"levelo://app?vid=f70a713e-a517-421c-b6d4-5dc3b3efbdf3","ios":"levelo://app?vid=f70a713e-a517-421c-b6d4-5dc3b3efbdf3"},"vehicle_type_id":"4","last_reported":1736014305,"current_range_meters":39200,"station_id":"ce4bgkp2rcd13ifvqbmg","pricing_plan_id":"cebpf4jnsgd1na2vs0mg"},{"bike_id":"7ba21745-807d-492b-bdc8-411935c3b614","system_id":"levelo_inurba_marseille","lat":43.30163,"lon":5.38796,"is_reserved":false,"is_disabled":false,"rental_uris":{"android":"levelo://app?vid=7ba21745-807d-492b-bdc8-411935c3b614","ios":"levelo://app?vid=7ba21745-807d-492b-bdc8-411935c3b614"},"vehicle_type_id":"4","last_reported":1736014305,"current_range_meters":30400,"station_id":"ce4bghh2rcd13ifvqb60","pricing_plan_id":"cebpf4jnsgd1na2vs0mg"},{"bike_id":"a2fd8310-05b2-4353-a822-b449cc0178c4","system_id":"levelo_inurba_marseille","lat":43.25503,"lon":5.37635,"is_reserved":false,"is_disabled":false,"rental_uris":{"android":"levelo://app?vid=a2fd8310-05b2-4353-a822-b449cc0178c4","ios":"levelo://app?vid=a2fd8310-05b2-4353-a822-b449cc0178c4"},"vehicle_type_id":"4","last_reported":1736014305,"current_range_meters":6800,"station_id":"ce4bhh12rcd13ifvqff0","pricing_plan_id":"cebpf4jnsgd1na2vs0mg"},{"bike_id":"23b88c67-147d-4715-b653-7e774453b9dd","system_id":"levelo_inurba_marseille","lat":43.30131,"lon":5.37429,"is_reserved":false,"is_disabled":false,"rental_uris":{"android":"levelo://app?vid=23b88c67-147d-4715-b653-7e774453b9dd","ios":"levelo://app?vid=23b88c67-147d-4715-b653-7e774453b9dd"},"vehicle_type_id":"4","last_reported":1736014305,"current_range_meters":39200,"station_id":"ce4bgs92rcd13ifvqcc0","pricing_plan_id":"cebpf4jnsgd1na2vs0mg"},{"bike_id":"7bbed7be-28f4-4cc7-81bb-977c0d79552f","system_id":"levelo_inurba_marseille","lat":43.23063,"lon":5.35488,"is_reserved":false,"is_disabled":false,"rental_uris":{"android":"levelo://app?vid=7bbed7be-28f4-4cc7-81bb-977c0d79552f","ios":"levelo://app?vid=7bbed7be-28f4-4cc7-81bb-977c0d79552f"},"vehicle_type_id":"4","last_reported":1736014305,"current_range_meters":17200,"station_id":"cpo3342slgdg3j2ifvpg","pricing_plan_id":"cebpf4jnsgd1na2vs0mg"},{"bike_id":"5394b4d1-bed4-4110-b74b-a331b85b9f76","system_id":"levelo_inurba_marseille","lat":43.299731,"lon":5.371758,"is_reserved":false,"is_disabled":false,"rental_uris":{"android":"levelo://app?vid=5394b4d1-bed4-4110-b74b-a331b85b9f76","ios":"levelo://app?vid=5394b4d1-bed4-4110-b74b-a331b85b9f76"},"vehicle_type_id":"4","last_reported":1736014305,"current_range_meters":22800,"station_id":"","pricing_plan_id":"cebpf4jnsgd1na2vs0mg"},{"bike_id":"78e5852e-eb6c-4077-a653-d1c1899f54bd","system_id":"levelo_inurba_marseille","lat":43.27976,"lon":5.38753,"is_reserved":false,"is_disabled":false,"rental_uris":{"android":"levelo://app?vid=78e5852e-eb6c-4077-a653-d1c1899f54bd","ios":"levelo://app?vid=78e5852e-eb6c-4077-a653-d1c1899f54bd"},"vehicle_type_id":"4","last_reported":1736014305,"current_range_meters":38800,"station_id":"ce4bhg12rcd13ifvqf80","pricing_plan_id":"cebpf4jnsgd1na2vs0mg"},{"bike_id":"e9c200db-965f-4b2c-bd5a-0dc123dcc0e0","system_id":"levelo_inurba_marseille","lat":43.24691,"lon":5.38145,"is_reserved":false,"is_disabled":false,"rental_uris":{"android":"levelo://app?vid=e9c200db-965f-4b2c-bd5a-0dc123dcc0e0","ios":"levelo://app?vid=e9c200db-965f-4b2c-bd5a-0dc123dcc0e0"},"vehicle_type_id":"4","last_reported":1736014305,"current_range_meters":22800,"station_id":"ce4bhih2rcd13ifvqfr0","pricing_plan_id":"cebpf4jnsgd1na2vs0mg"},{"bike_id":"5ea07baf-8b55-4918-96d4-83c4dc57f246","system_id":"levelo_inurba_marseille","lat":43.30925,"lon":5.40143,"is_reserved":false,"is_disabled":false,"rental_uris":{"android":"levelo://app?vid=5ea07baf-8b55-4918-96d4-83c4dc57f246","ios":"levelo://app?vid=5ea07baf-8b55-4918-96d4-83c4dc57f246"},"vehicle_type_id":"4","last_reported":1736014305,"current_range_meters":3200,"station_id":"ce4bgvp2rcd13ifvqct0","pricing_plan_id":"cebpf4jnsgd1na2vs0mg"},{"bike_id":"a3bd46a8-3d75-4b81-a184-8df21a0486f0","system_id":"levelo_inurba_marseille","lat":43.31273,"lon":5.40182,"is_reserved":false,"is_disabled":false,"rental_uris":{"android":"levelo://app?vid=a3bd46a8-3d75-4b81-a184-8df21a0486f0","ios":"levelo://app?vid=a3bd46a8-3d75-4b81-a184-8df21a0486f0"},"vehicle_type_id":"4","last_reported":1736014305,"current_range_meters":20400,"station_id":"ce4bh092rcd13ifvqd30","pricing_plan_id":"cebpf4jnsgd1na2vs0mg"},{"bike_id":"f1d87bf5-3985-43c2-9fde-b818f1e41c2b","system_id":"levelo_inurba_marseille","lat":43.2604,"lon":5.37544,"is_reserved":false,"is_disabled":false,"rental_uris":{"android":"levelo://app?vid=f1d87bf5-3985-43c2-9fde-b818f1e41c2b","ios":"levelo://app?vid=f1d87bf5-3985-43c2-9fde-b818f1e41c2b"},"vehicle_type_id":"4","last_reported":1736014305,"current_range_meters":38800,"station_id":"ce4bhgh2rcd13ifvqfa0","pricing_plan_id":"cebpf4jnsgd1na2vs0mg"},{"bike_id":"a077c277-23f2-421b-85db-e0146ebd60dc","system_id":"levelo_inurba_marseille","lat":43.29297,"lon":5.37472,"is_reserved":false,"is_disabled":false,"rental_uris":{"android":"levelo://app?vid=a077c277-23f2-421b-85db-e0146ebd60dc","ios":"levelo://app?vid=a077c277-23f2-421b-85db-e0146ebd60dc"},"vehicle_type_id":"4","last_reported":1736014305,"current_range_meters":34000,"station_id":"ce4bgi12rcd13ifvqb70","pricing_plan_id":"cebpf4jnsgd1na2vs0mg"},{"bike_id":"42acd9e1-1d27-497e-8cf1-9282af48a108","system_id":"levelo_inurba_marseille","lat":43.259245,"lon":5.408695,"is_reserved":false,"is_disabled":false,"rental_uris":{"android":"levelo://app?vid=42acd9e1-1d27-497e-8cf1-9282af48a108","ios":"levelo://app?vid=42acd9e1-1d27-497e-8cf1-9282af48a108"},"vehicle_type_id":"4","last_reported":1736014305,"current_range_meters":6000,"station_id":"ce4bhm92rcd13ifvqglg","pricing_plan_id":"cebpf4jnsgd1na2vs0mg"},{"bike_id":"4a9c2567-1080-45bb-b02d-360fa06da28a","system_id":"levelo_inurba_marseille","lat":43.28953,"lon":5.36628,"is_reserved":false,"is_disabled":true,"rental_uris":{"android":"levelo://app?vid=4a9c2567-1080-45bb-b02d-360fa06da28a","ios":"levelo://app?vid=4a9c2567-1080-45bb-b02d-360fa06da28a"},"vehicle_type_id":"4","last_reported":1736014305,"current_range_meters":2000,"station_id":"ce4bhap2rcd13ifvqek0","pricing_plan_id":"cebpf4jnsgd1na2vs0mg"},{"bike_id":"ce7b7f8e-6127-4823-8943-56c7dea6091a","system_id":"levelo_inurba_marseille","lat":43.29849,"lon":5.36296,"is_reserved":false,"is_disabled":false,"rental_uris":{"android":"levelo://app?vid=ce7b7f8e-6127-4823-8943-56c7dea6091a","ios":"levelo://app?vid=ce7b7f8e-6127-4823-8943-56c7dea6091a"},"vehicle_type_id":"4","last_reported":1736014305,"current_range_meters":20000,"station_id":"ce4bgpp2rcd13ifvqc3g","pricing_plan_id":"cebpf4jnsgd1na2vs0mg"},{"bike_id":"3ad4b63d-3050-40c2-8de7-90d7069746cd","system_id":"levelo_inurba_marseille","lat":43.28616,"lon":5.35093,"is_reserved":false,"is_disabled":false,"rental_uris":{"android":"levelo://app?vid=3ad4b63d-3050-40c2-8de7-90d7069746cd","ios":"levelo://app?vid=3ad4b63d-3050-40c2-8de7-90d7069746cd"},"vehicle_type_id":"4","last_reported":1736014305,"current_range_meters":32400,"station_id":"ce4bhch2rcd13ifvqeug","pricing_plan_id":"cebpf4jnsgd1na2vs0mg"},{"bike_id":"0da846be-cff0-45fd-927a-35db178c95b2","system_id":"levelo_inurba_marseille","lat":43.32057,"lon":5.41569,"is_reserved":false,"is_disabled":false,"rental_uris":{"android":"levelo://app?vid=0da846be-cff0-45fd-927a-35db178c95b2","ios":"levelo://app?vid=0da846be-cff0-45fd-927a-35db178c95b2"},"vehicle_type_id":"4","last_reported":1736014305,"current_range_meters":35200,"station_id":"ce4bhq92rcd13ifvqhkg","pricing_plan_id":"cebpf4jnsgd1na2vs0mg"},{"bike_id":"9b28f469-b706-4139-b170-048fdcc5c7bc","system_id":"levelo_inurba_marseille","lat":43.29502,"lon":5.37769,"is_reserved":false,"is_disabled":false,"rental_uris":{"android":"levelo://app?vid=9b28f469-b706-4139-b170-048fdcc5c7bc","ios":"levelo://app?vid=9b28f469-b706-4139-b170-048fdcc5c7bc"},"vehicle_type_id":"4","last_reported":1736014305,"current_range_meters":10800,"station_id":"","pricing_plan_id":"cebpf4jnsgd1na2vs0mg"},{"bike_id":"e42263b6-42a9-4805-8472-1e43a7facac9","system_id":"levelo_inurba_marseille","lat":43.29292,"lon":5.37446,"is_reserved":false,"is_disabled":false,"rental_uris":{"android":"levelo://app?vid=e42263b6-42a9-4805-8472-1e43a7facac9","ios":"levelo://app?vid=e42263b6-42a9-4805-8472-1e43a7facac9"},"vehicle_type_id":"4","last_reported":1736014305,"current_range_meters":24400,"station_id":"ce4bgi12rcd13ifvqb70","pricing_plan_id":"cebpf4jnsgd1na2vs0mg"},{"bike_id":"49c493eb-c9d6-49ea-b92b-a41a96143f3b","system_id":"levelo_inurba_marseille","lat":43.29561,"lon":5.37519,"is_reserved":false,"is_disabled":false,"rental_uris":{"android":"levelo://app?vid=49c493eb-c9d6-49ea-b92b-a41a96143f3b","ios":"levelo://app?vid=49c493eb-c9d6-49ea-b92b-a41a96143f3b"},"vehicle_type_id":"4","last_reported":1736014305,"current_range_meters":37600,"station_id":"ce4bgh92rcd13ifvqb50","pricing_plan_id":"cebpf4jnsgd1na2vs0mg"},{"bike_id":"43fbd222-40bf-4dc7-92cc-e58450d3158f","system_id":"levelo_inurba_marseille","lat":43.28868,"lon":5.37227,"is_reserved":false,"is_disabled":false,"rental_uris":{"android":"levelo://app?vid=43fbd222-40bf-4dc7-92cc-e58450d3158f","ios":"levelo://app?vid=43fbd222-40bf-4dc7-92cc-e58450d3158f"},"vehicle_type_id":"4","last_reported":1736014305,"current_range_meters":19200,"station_id":"","pricing_plan_id":"cebpf4jnsgd1na2vs0mg"},{"bike_id":"ca578319-6d04-48db-a829-6894b8c6a311","system_id":"levelo_inurba_marseille","lat":43.24073,"lon":5.37748,"is_reserved":false,"is_disabled":false,"rental_uris":{"android":"levelo://app?vid=ca578319-6d04-48db-a829-6894b8c6a311","ios":"levelo://app?vid=ca578319-6d04-48db-a829-6894b8c6a311"},"vehicle_type_id":"4","last_reported":1736014305,"current_range_meters":18800,"station_id":"ce4bhnp2rcd13ifvqgvg","pricing_plan_id":"cebpf4jnsgd1na2vs0mg"},{"bike_id":"2e5bdd05-f1b8-4371-a9ba-5b8d0a12fb48","system_id":"levelo_inurba_marseille","lat":43.2872,"lon":5.3609,"is_reserved":false,"is_disabled":false,"rental_uris":{"android":"levelo://app?vid=2e5bdd05-f1b8-4371-a9ba-5b8d0a12fb48","ios":"levelo://app?vid=2e5bdd05-f1b8-4371-a9ba-5b8d0a12fb48"},"vehicle_type_id":"4","last_reported":1736014305,"current_range_meters":19600,"station_id":"cki0cbj6b192h4jlfktg","pricing_plan_id":"cebpf4jnsgd1na2vs0mg"},{"bike_id":"4c1c8084-57e3-460b-8d0f-b1db32e7e33e","system_id":"levelo_inurba_marseille","lat":43.26144,"lon":5.39995,"is_reserved":false,"is_disabled":false,"rental_uris":{"android":"levelo://app?vid=4c1c8084-57e3-460b-8d0f-b1db32e7e33e","ios":"levelo://app?vid=4c1c8084-57e3-460b-8d0f-b1db32e7e33e"},"vehicle_type_id":"4","last_reported":1736014305,"current_range_meters":38800,"station_id":"ce4bhi12rcd13ifvqfq0","pricing_plan_id":"cebpf4jnsgd1na2vs0mg"},{"bike_id":"f0be5562-2fd4-4b72-8dd8-0a6f6015d351","system_id":"levelo_inurba_marseille","lat":43.26908,"lon":5.3949,"is_reserved":false,"is_disabled":false,"rental_uris":{"android":"levelo://app?vid=f0be5562-2fd4-4b72-8dd8-0a6f6015d351","ios":"levelo://app?vid=f0be5562-2fd4-4b72-8dd8-0a6f6015d351"},"vehicle_type_id":"4","last_reported":1736014305,"current_range_meters":24800,"station_id":"","pricing_plan_id":"cebpf4jnsgd1na2vs0mg"},{"bike_id":"67044131-5c45-480f-ad42-39eb4b84489b","system_id":"levelo_inurba_marseille","lat":43.26949,"lon":5.38632,"is_reserved":false,"is_disabled":false,"rental_uris":{"android":"levelo://app?vid=67044131-5c45-480f-ad42-39eb4b84489b","ios":"levelo://app?vid=67044131-5c45-480f-ad42-39eb4b84489b"},"vehicle_type_id":"4","last_reported":1736014305,"current_range_meters":35600,"station_id":"ce4bhh92rcd13ifvqfh0","pricing_plan_id":"cebpf4jnsgd1na2vs0mg"},{"bike_id":"a957d210-ec51-4e37-9735-75519df1fcb6","system_id":"levelo_inurba_marseille","lat":43.2318,"lon":5.39997,"is_reserved":false,"is_disabled":false,"rental_uris":{"android":"levelo://app?vid=a957d210-ec51-4e37-9735-75519df1fcb6","ios":"levelo://app?vid=a957d210-ec51-4e37-9735-75519df1fcb6"},"vehicle_type_id":"4","last_reported":1736014305,"current_range_meters":23200,"station_id":"ce4bhn12rcd13ifvqgqg","pricing_plan_id":"cebpf4jnsgd1na2vs0mg"},