{"last_updated":1733228353,"ttl":60,"version":"2.2","data":{"bikes":[{"bike_id":"c6fcab72-3b24-4c75-b975-ad816d9a147b","system_id":"levelo_inurba_marseille","lat":43.24074,"lon":5.37764,"is_reserved":false,"is_disabled":true,"rental_uris":{"android":"levelo://app?vid=c6fcab72-3b24-4c75-b975-ad816d9a147b","ios":"levelo://app?vid=c6fcab72-3b24-4c75-b975-ad816d9a147b"},"vehicle_type_id":"4","last_reported":1733228353,"current_range_meters":0,"station_id":"ce4bhnp2rcd13ifvqgvg","pricing_plan_id":"cebpf4jnsgd1na2vs0mg"},{"bike_id":"b48a809e-fe37-403b-b17a-e96ea1292160","system_id":"levelo_inurba_marseille","lat":43.28854,"lon":5.35856,"is_reserved":false,"is_disabled":false,"rental_uris":{"android":"levelo://app?vid=b48a809e-fe37-403b-b17a-e96ea1292160","ios":"levelo://app?vid=b48a809e-fe37-403b-b17a-e96ea1292160"},"vehicle_type_id":"4","last_reported":1733228353,"current_range_meters":37600,"station_id":"ce4bhb12rcd13ifvqem0","pricing_plan_id":"cebpf4jnsgd1na2vs0mg"},{"bike_id":"df479c2c-35ac-44ad-b9d6-81c89ed769ce","system_id":"levelo_inurba_marseille","lat":43.29693,"lon":5.37071,"is_reserved":false,"is_disabled":true,"rental_uris":{"android":"levelo://app?vid=df479c2c-35ac-44ad-b9d6-81c89ed769ce","ios":"levelo://app?vid=df479c2c-35ac-44ad-b9d6-81c89ed769ce"},"vehicle_type_id":"4","last_reported":1733228353,"current_range_meters":0,"station_id":"","pricing_plan_id":"cebpf4jnsgd1na2vs0mg"},{"bike_id":"8e029eaf-e104-4c5d-858d-6cd39de73d09","system_id":"levelo_inurba_marseille","lat":43.24165,"lon":5.36386,"is_reserved":false,"is_disabled":false,"rental_uris":{"android":"levelo://app?vid=8e029eaf-e104-4c5d-858d-6cd39de73d09","ios":"levelo://app?vid=8e029eaf-e104-4c5d-858d-6cd39de73d09"},"vehicle_type_id":"4","last_reported":1733228353,"current_range_meters":14800,"station_id":"cpo36qri1sfpv3e86is0","pricing_plan_id":"cebpf4jnsgd1na2vs0mg"},{"bike_id":"bd8cd1c7-abef-42cd-bb74-c23362a9f370","system_id":"levelo_inurba_marseille","lat":43.2942,"lon":5.38626,"is_reserved":false,"is_disabled":true,"rental_uris":{"android":"levelo://app?vid=bd8cd1c7-abef-42cd-bb74-c23362a9f370","ios":"levelo://app?vid=bd8cd1c7-abef-42cd-bb74-c23362a9f370"},"vehicle_type_id":"4","last_reported":1733228353,"current_range_meters":16800,"station_id":"ce4bh2h2rcd13ifvqdh0","pricing_plan_id":"cebpf4jnsgd1na2vs0mg"},{"bike_id":"fd85f247-bc9f-4512-8957-89e7641ccdee","system_id":"levelo_inurba_marseille","lat":43.32476,"lon":5.36575,"is_reserved":false,"is_disabled":false,"rental_uris":{"android":"levelo://app?vid=fd85f247-bc9f-4512-8957-89e7641ccdee","ios":"levelo://app?vid=fd85f247-bc9f-4512-8957-89e7641ccdee"},"vehicle_type_id":"4","last_reported":1733228353,"current_range_meters":38800,"station_id":"ce4bhs12rcd13ifvqhvg","pricing_plan_id":"cebpf4jnsgd1na2vs0mg"},{"bike_id":"12652c73-7b25-4805-92ca-4c9bb1159096","system_id":"levelo_inurba_marseille","lat":43.27603,"lon":5.36088,"is_reserved":false,"is_disabled":true,"rental_uris":{"android":"levelo://app?vid=12652c73-7b25-4805-92ca-4c9bb1159096","ios":"levelo://app?vid=12652c73-7b25-4805-92ca-4c9bb1159096"},"vehicle_type_id":"4","last_reported":1733228353,"current_range_meters":38000,"station_id":"ce4bgj92rcd13ifvqbe0","pricing_plan_id":"cebpf4jnsgd1na2vs0mg"},{"bike_id":"4c49a6ec-87f1-469b-b46c-51fa3d37c9d3","system_id":"levelo_inurba_marseille","lat":43.316,"lon":5.38135,"is_reserved":false,"is_disabled":false,"rental_uris":{"android":"levelo://app?vid=4c49a6ec-87f1-469b-b46c-51fa3d37c9d3","ios":"levelo://app?vid=4c49a6ec-87f1-469b-b46c-51fa3d37c9d3"},"vehicle_type_id":"4","last_reported":1733228353,"current_range_meters":38800,"station_id":"","pricing_plan_id":"cebpf4jnsgd1na2vs0mg"},{"bike_id":"338b6eaf-00be-4fa5-95a1-9553bf00159d","system_id":"levelo_inurba_marseille","lat":43.29792,"lon":5.38109,"is_reserved":false,"is_disabled":false,"rental_uris":{"android":"levelo://app?vid=338b6eaf-00be-4fa5-95a1-9553bf00159d","ios":"levelo://app?vid=338b6eaf-00be-4fa5-95a1-9553bf00159d"},"vehicle_type_id":"4","last_reported":1733228353,"current_range_meters":10000,"station_id":"ce4bgip2rcd13ifvqbb0","pricing_plan_id":"cebpf4jnsgd1na2vs0mg"},{"bike_id":"95100176-7ead-4230-932c-4b0bbddddb86","system_id":"levelo_inurba_marseille","lat":43.32482,"lon":5.36575,"is_reserved":false,"is_disabled":false,"rental_uris":{"android":"levelo://app?vid=95100176-7ead-4230-932c-4b0bbddddb86","ios":"levelo://app?vid=95100176-7ead-4230-932c-4b0bbddddb86"},"vehicle_type_id":"4","last_reported":1733228353,"current_range_meters":38400,"station_id":"ce4bhs12rcd13ifvqhvg","pricing_plan_id":"cebpf4jnsgd1na2vs0mg"},{"bike_id":"02f5618e-66bf-4911-a327-d72d361f58c9","system_id":"levelo_inurba_marseille","lat":43.30181,"lon":5.36606,"is_reserved":false,"is_disabled":false,"rental_uris":{"android":"levelo://app?vid=02f5618e-66bf-4911-a327-d72d361f58c9","ios":"levelo://app?vid=02f5618e-66bf-4911-a327-d72d361f58c9"},"vehicle_type_id":"4","last_reported":1733228353,"current_range_meters":39200,"station_id":"ce4bgrh2rcd13ifvqc8g","pricing_plan_id":"cebpf4jnsgd1na2vs0mg"},{"bike_id":"33eb3599-d302-4f00-8197-c28b70e90977","system_id":"levelo_inurba_marseille","lat":43.27065,"lon":5.40246,"is_reserved":false,"is_disabled":false,"rental_uris":{"android":"levelo://app?vid=33eb3599-d302-4f00-8197-c28b70e90977","ios":"levelo://app?vid=33eb3599-d302-4f00-8197-c28b70e90977"},"vehicle_type_id":"4","last_reported":1733228353,"current_range_meters":10800,"station_id":"ce4bhk92rcd13ifvqgc0","pricing_plan_id":"cebpf4jnsgd1na2vs0mg"},{"bike_id":"8bd642b2-0279-44c7-9ee2-fc3b57332c83","system_id":"levelo_inurba_marseille","lat":43.27455,"lon":5.40073,"is_reserved":false,"is_disabled":true,"rental_uris":{"android":"levelo://app?vid=8bd642b2-0279-44c7-9ee2-fc3b57332c83","ios":"levelo://app?vid=8bd642b2-0279-44c7-9ee2-fc3b57332c83"},"vehicle_type_id":"4","last_reported":1733228353,"current_range_meters":0,"station_id":"","pricing_plan_id":"cebpf4jnsgd1na2vs0mg"},{"bike_id":"93eadc3c-509f-4352-99bc-beeb0d60c4d8","system_id":"levelo_inurba_marseille","lat":43.30257,"lon":5.40083,"is_reserved":false,"is_disabled":false,"rental_uris":{"android":"levelo://app?vid=93eadc3c-509f-4352-99bc-beeb0d60c4d8","ios":"levelo://app?vid=93eadc3c-509f-4352-99bc-beeb0d60c4d8"},"vehicle_type_id":"4","last_reported":1733228353,"current_range_meters":23200,"station_id":"ce4bgvh2rcd13ifvqcs0","pricing_plan_id":"cebpf4jnsgd1na2vs0mg"},{"bike_id":"4f9073a7-ab56-4fa1-b498-d6b1d849ea7e","system_id":"levelo_inurba_marseille","lat":43.26494,"lon":5.39542,"is_reserved":false,"is_disabled":false,"rental_uris":{"android":"levelo://app?vid=4f9073a7-ab56-4fa1-b498-d6b1d849ea7e","ios":"levelo://app?vid=4f9073a7-ab56-4fa1-b498-d6b1d849ea7e"},"vehicle_type_id":"4","last_reported":1733228353,"current_range_meters":30400,"station_id":"ce4bhi12rcd13ifvqfq0","pricing_plan_id":"cebpf4jnsgd1na2vs0mg"},{"bike_id":"5f45d9f3-32bc-41fe-bcd6-957d52df7360","system_id":"levelo_inurba_marseille","lat":43.2928,"lon":5.36846,"is_reserved":false,"is_disabled":false,"rental_uris":{"android":"levelo://app?vid=5f45d9f3-32bc-41fe-bcd6-957d52df7360","ios":"levelo://app?vid=5f45d9f3-32bc-41fe-bcd6-957d52df7360"},"vehicle_type_id":"4","last_reported":1733228353,"current_range_meters":20800,"station_id":"ce4bhbp2rcd13ifvqesg","pricing_plan_id":"cebpf4jnsgd1na2vs0mg"},{"bike_id":"c0bec7ea-31af-49de-8a97-a7d6bf5d8bb8","system_id":"levelo_inurba_marseille","lat":43.29051,"lon":5.35906,"is_reserved":false,"is_disabled":true,"rental_uris":{"android":"levelo://app?vid=c0bec7ea-31af-49de-8a97-a7d6bf5d8bb8","ios":"levelo://app?vid=c0bec7ea-31af-49de-8a97-a7d6bf5d8bb8"},"vehicle_type_id":"4","last_reported":1733228353,"current_range_meters":38800,"station_id":"ce4bha92rcd13ifvqeg0","pricing_plan_id":"cebpf4jnsgd1na2vs0mg"},{"bike_id":"fa3524da-71ed-46ce-b300-45869c6f1ea2","system_id":"levelo_inurba_marseille","lat":43.29981,"lon":5.38484,"is_reserved":false,"is_disabled":false,"rental_uris":{"android":"levelo://app?vid=fa3524da-71ed-46ce-b300-45869c6f1ea2","ios":"levelo://app?vid=fa3524da-71ed-46ce-b300-45869c6f1ea2"},"vehicle_type_id":"4","last_reported":1733228353,"current_range_meters":26000,"station_id":"ce4bgj92rcd13ifvqbd0","pricing_plan_id":"cebpf4jnsgd1na2vs0mg"},{"bike_id":"742ca14f-c914-4aff-847b-6e73cc69df5e","system_id":"levelo_inurba_marseille","lat":43.29266,"lon":5.38428,"is_reserved":false,"is_disabled":false,"rental_uris":{"android":"levelo://app?vid=742ca14f-c914-4aff-847b-6e73cc69df5e","ios":"levelo://app?vid=742ca14f-c914-4aff-847b-6e73cc69df5e"},"vehicle_type_id":"4","last_reported":1733228353,"current_range_meters":37600,"station_id":"ce4bh692rcd13ifvqea0","pricing_plan_id":"cebpf4jnsgd1na2vs0mg"},{"bike_id":"f3f1d082-8588-409f-aefa-2fbee2f51fbc","system_id":"levelo_inurba_marseille","lat":43.290039,"lon":5.356162,"is_reserved":false,"is_disabled":false,"rental_uris":{"android":"levelo://app?vid=f3f1d082-8588-409f-aefa-2fbee2f51fbc","ios":"levelo://app?vid=f3f1d082-8588-409f-aefa-2fbee2f51fbc"},"vehicle_type_id":"4","last_reported":1733228353,"current_range_meters":28400,"station_id":"ce4bhb92rcd13ifvqen0","pricing_plan_id":"cebpf4jnsgd1na2vs0mg"},{"bike_id":"68417c34-343c-40a1-b9fe-2291edb2e6ca","system_id":"levelo_inurba_marseille","lat":43.28723,"lon":5.36078,"is_reserved":false,"is_disabled":false,"rental_uris":{"android":"levelo://app?vid=68417c34-343c-40a1-b9fe-2291edb2e6ca","ios":"levelo://app?vid=68417c34-343c-40a1-b9fe-2291edb2e6ca"},"vehicle_type_id":"4","last_reported":1733228353,"current_range_meters":15200,"station_id":"cki0cbj6b192h4jlfktg","pricing_plan_id":"cebpf4jnsgd1na2vs0mg"},{"bike_id":"b3f478ac-3b05-4edf-bdbf-76399090f8e9","system_id":"levelo_inurba_marseille","lat":43.29994,"lon":5.37639,"is_reserved":false,"is_disabled":true,"rental_uris":{"android":"levelo://app?vid=b3f478ac-3b05-4edf-bdbf-76399090f8e9","ios":"levelo://app?vid=b3f478ac-3b05-4edf-bdbf-76399090f8e9"},"vehicle_type_id":"4","last_reported":1733228353,"current_range_meters":0,"station_id":"","pricing_plan_id":"cebpf4jnsgd1na2vs0mg"},{"bike_id":"c3587c28-5435-41c6-a9b7-aa468e6b19aa","system_id":"levelo_inurba_marseille","lat":43.29746,"lon":5.37916,"is_reserved":false,"is_disabled":true,"rental_uris":{"android":"levelo://app?vid=c3587c28-5435-41c6-a9b7-aa468e6b19aa","ios":"levelo://app?vid=c3587c28-5435-41c6-a9b7-aa468e6b19aa"},"vehicle_type_id":"4","last_reported":1733228353,"current_range_meters":0,"station_id":"","pricing_plan_id":"cebpf4jnsgd1na2vs0mg"},{"bike_id":"3c6db93c-486c-4bb6-961b-26a72415f6f3","system_id":"levelo_inurba_marseille","lat":43.24802,"lon":5.37455,"is_reserved":false,"is_disabled":false,"rental_uris":{"android":"levelo://app?vid=3c6db93c-486c-4bb6-961b-26a72415f6f3","ios":"levelo://app?vid=3c6db93c-486c-4bb6-961b-26a72415f6f3"},"vehicle_type_id":"4","last_reported":1733228353,"current_range_meters":17600,"station_id":"ce4bhgh2rcd13ifvqfb0","pricing_plan_id":"cebpf4jnsgd1na2vs0mg"},{"bike_id":"e8d9fcd3-6c4c-4c2e-a87e-41c5e4dfa6d0","system_id":"levelo_inurba_marseille","lat":43.25438,"lon":5.38158,"is_reserved":false,"is_disabled":true,"rental_uris":{"android":"levelo://app?vid=e8d9fcd3-6c4c-4c2e-a87e-41c5e4dfa6d0","ios":"levelo://app?vid=e8d9fcd3-6c4c-4c2e-a87e-41c5e4dfa6d0"},"vehicle_type_id":"4","last_reported":1733228353,"current_range_meters":0,"station_id":"","pricing_plan_id":"cebpf4jnsgd1na2vs0mg"},{"bike_id":"e7c2b082-ef91-42b1-9ef0-9e4329cee9cb","system_id":"levelo_inurba_marseille","lat":43.29892,"lon":5.40331,"is_reserved":false,"is_disabled":true,"rental_uris":{"android":"levelo://app?vid=e7c2b082-ef91-42b1-9ef0-9e4329cee9cb","ios":"levelo://app?vid=e7c2b082-ef91-42b1-9ef0-9e4329cee9cb"},"vehicle_type_id":"4","last_reported":1733228353,"current_range_meters":0,"station_id":"","pricing_plan_id":"cebpf4jnsgd1na2vs0mg"},{"bike_id":"4673f8d8-8295-437d-8f1d-a884bed9d1e4","system_id":"levelo_inurba_marseille","lat":43.23149,"lon":5.43727,"is_reserved":false,"is_disabled":false,"rental_uris":{"android":"levelo://app?vid=4673f8d8-8295-437d-8f1d-a884bed9d1e4","ios":"levelo://app?vid=4673f8d8-8295-437d-8f1d-a884bed9d1e4"},"vehicle_type_id":"4","last_reported":1733228353,"current_range_meters":38800,"station_id":"ce4bhmp2rcd13ifvqgog","pricing_plan_id":"cebpf4jnsgd1na2vs0mg"},{"bike_id":"e5af8f06-b11d-4a9c-a17e-c358f51ba456","system_id":"levelo_inurba_marseille","lat":43.24808,"lon":5.37461,"is_reserved":false,"is_disabled":false,"rental_uris":{"android":"levelo://app?vid=e5af8f06-b11d-4a9c-a17e-c358f51ba456","ios":"levelo://app?vid=e5af8f06-b11d-4a9c-a17e-c358f51ba456"},"vehicle_type_id":"4","last_reported":1733228353,"current_range_meters":3600,"station_id":"ce4bhgh2rcd13ifvqfb0","pricing_plan_id":"cebpf4jnsgd1na2vs0mg"},{"bike_id":"525e387d-f53d-4c13-8e33-a48ec09c1aef","system_id":"levelo_inurba_marseille","lat":43.30553,"lon":5.36536,"is_reserved":false,"is_disabled":true,"rental_uris":{"android":"levelo://app?vid=525e387d-f53d-4c13-8e33-a48ec09c1aef","ios":"levelo://app?vid=525e387d-f53d-4c13-8e33-a48ec09c1aef"},"vehicle_type_id":"4","last_reported":1733228353,"current_range_meters":27600,"station_id":"ce4bgs12rcd13ifvqcag","pricing_plan_id":"cebpf4jnsgd1na2vs0mg"},{"bike_id":"c8434105-f78e-4aab-af16-9f7de171fa08","system_id":"levelo_inurba_marseille","lat":43.32476,"lon":5.36568,"is_reserved":false,"is_disabled":false,"rental_uris":{"android":"levelo://app?vid=c8434105-f78e-4aab-af16-9f7de171fa08","ios":"levelo://app?vid=c8434105-f78e-4aab-af16-9f7de171fa08"},"vehicle_type_id":"4","last_reported":1733228353,"current_range_meters":35200,"station_id":"ce4bhs12rcd13ifvqhvg","pricing_plan_id":"cebpf4jnsgd1na2vs0mg"},{"bike_id":"96693db7-b597-448a-8bfe-613a90735916","system_id":"levelo_inurba_marseille","lat":43.27997,"lon":5.40013,"is_reserved":false,"is_disabled":false,"rental_uris":{"android":"levelo://app?vid=96693db7-b597-448a-8bfe-613a90735916","ios":"levelo://app?vid=96693db7-b597-448a-8bfe-613a90735916"},"vehicle_type_id":"4","last_reported":1733228353,"current_range_meters":38800,"station_id":"ce4bho92rcd13ifvqh4g","pricing_plan_id":"cebpf4jnsgd1na2vs0mg"},{"bike_id":"23fa4387-5ba0-4096-ac82-73d808191e53","system_id":"levelo_inurba_marseille","lat":43.26497,"lon":5.39544,"is_reserved":false,"is_disabled":false,"rental_uris":{"android":"levelo://app?vid=23fa4387-5ba0-4096-ac82-73d808191e53","ios":"levelo://app?vid=23fa4387-5ba0-4096-ac82-73d808191e53"},"vehicle_type_id":"4","last_reported":1733228353,"current_range_meters":38800,"station_id":"ce4bhi12rcd13ifvqfq0","pricing_plan_id":"cebpf4jnsgd1na2vs0mg"},{"bike_id":"0b798673-ff8e-423f-856a-97747250caf0","system_id":"levelo_inurba_marseille","lat":43.30948,"lon":5.39037,"is_reserved":false,"is_disabled":false,"rental_uris":{"android":"levelo://app?vid=0b798673-ff8e-423f-856a-97747250caf0","ios":"levelo://app?vid=0b798673-ff8e-423f-856a-97747250caf0"},"vehicle_type_id":"4","last_reported":1733228353,"current_range_meters":37600,"station_id":"ce4bgup2rcd13ifvqco0","pricing_plan_id":"cebpf4jnsgd1na2vs0mg"},{"bike_id":"b21a50a5-9893-4fa7-8ed6-c4eae039d91d","system_id":"levelo_inurba_marseille","lat":43.28484,"lon":5.38422,"is_reserved":false,"is_disabled":false,"rental_uris":{"android":"levelo://app?vid=b21a50a5-9893-4fa7-8ed6-c4eae039d91d","ios":"levelo://app?vid=b21a50a5-9893-4fa7-8ed6-c4eae039d91d"},"vehicle_type_id":"4","last_reported":1733228353,"current_range_meters":5600,"station_id":"ce4bh512rcd13ifvqe3g","pricing_plan_id":"cebpf4jnsgd1na2vs0mg"},{"bike_id":"460edbbc-7a55-43f3-bf55-b9fec7ea3a39","system_id":"levelo_inurba_marseille","lat":43.31322,"lon":5.36647,"is_reserved":false,"is_disabled":false,"rental_uris":{"android":"levelo://app?vid=460edbbc-7a55-43f3-bf55-b9fec7ea3a39","ios":"levelo://app?vid=460edbbc-7a55-43f3-bf55-b9fec7ea3a39"},"vehicle_type_id":"4","last_reported":1733228353,"current_range_meters":7200,"station_id":"","pricing_plan_id":"cebpf4jnsgd1na2vs0mg"},{"bike_id":"16bea42d-3248-41fd-8b51-39fb3d7ec2c4","system_id":"levelo_inurba_marseille","lat":43.26477,"lon":5.38525,"is_reserved":false,"is_disabled":true,"rental_uris":{"android":"levelo://app?vid=16bea42d-3248-41fd-8b51-39fb3d7ec2c4","ios":"levelo://app?vid=16bea42d-3248-41fd-8b51-39fb3d7ec2c4"},"vehicle_type_id":"4","last_reported":1733228353,"current_range_meters":0,"station_id":"","pricing_plan_id":"cebpf4jnsgd1na2vs0mg"},{"bike_id":"28a52322-5992-406c-a66b-6c88162f623a","system_id":"levelo_inurba_marseille","lat":43.23189,"lon":5.39983,"is_reserved":false,"is_disabled":false,"rental_uris":{"android":"levelo://app?vid=28a52322-5992-406c-a66b-6c88162f623a","ios":"levelo://app?vid=28a52322-5992-406c-a66b-6c88162f623a"},"vehicle_type_id":"4","last_reported":1733228353,"current_range_meters":39200,"station_id":"ce4bhn12rcd13ifvqgqg","pricing_plan_id":"cebpf4jnsgd1na2vs0mg"},{"bike_id":"0d8c561a-eb03-45cf-9e9c-e4fc4ffd7840","system_id":"levelo_inurba_marseille","lat":43.24807,"lon":5.37456,"is_reserved":false,"is_disabled":false,"rental_uris":{"android":"levelo://app?vid=0d8c561a-eb03-45cf-9e9c-e4fc4ffd7840","ios":"levelo://app?vid=0d8c561a-eb03-45cf-9e9c-e4fc4ffd7840"},"vehicle_type_id":"4","last_reported":1733228353,"current_range_meters":36400,"station_id":"ce4bhgh2rcd13ifvqfb0","pricing_plan_id":"cebpf4jnsgd1na2vs0mg"},{"bike_id":"2b54ddc5-0583-4fc9-accb-0a4c7f0b096a","system_id":"levelo_inurba_marseille","lat":43.26678,"lon":5.38265,"is_reserved":false,"is_disabled":false,"rental_uris":{"android":"levelo://app?vid=2b54ddc5-0583-4fc9-accb-0a4c7f0b096a","ios":"levelo://app?vid=2b54ddc5-0583-4fc9-accb-0a4c7f0b096a"},"vehicle_type_id":"4","last_reported":1733228353,"current_range_meters":26000,"station_id":"ce4bhg92rcd13ifvqf90","pricing_plan_id":"cebpf4jnsgd1na2vs0mg"},{"bike_id":"eaa73896-04a8-4ef6-a4c7-4d4e56920b82","system_id":"levelo_inurba_marseille","lat":43.29305,"lon":5.37441,"is_reserved":false,"is_disabled":true,"rental_uris":{"android":"levelo://app?vid=eaa73896-04a8-4ef6-a4c7-4d4e56920b82","ios":"levelo://app?vid=eaa73896-04a8-4ef6-a4c7-4d4e56920b82"},"vehicle_type_id":"4","last_reported":1733228353,"current_range_meters":0,"station_id":"ce4bgi12rcd13ifvqb70","pricing_plan_id":"cebpf4jnsgd1na2vs0mg"},{"bike_id":"f343a832-b6b0-4a03-b073-92a5c4223d7e","system_id":"levelo_inurba_marseille","lat":43.31359,"lon":5.3672,"is_reserved":false,"is_disabled":false,"rental_uris":{"android":"levelo://app?vid=f343a832-b6b0-4a03-b073-92a5c4223d7e","ios":"levelo://app?vid=f343a832-b6b0-4a03-b073-92a5c4223d7e"},"vehicle_type_id":"4","last_reported":1733228353,"current_range_meters":32000,"station_id":"ce4bgr92rcd13ifvqc6g","pricing_plan_id":"cebpf4jnsgd1na2vs0mg"},{"bike_id":"f9cccef6-7ebb-4799-9c5a-3478253cae05","system_id":"levelo_inurba_marseille","lat":43.31685,"lon":5.40477,"is_reserved":false,"is_disabled":false,"rental_uris":{"android":"levelo://app?vid=f9cccef6-7ebb-4799-9c5a-3478253cae05","ios":"levelo://app?vid=f9cccef6-7ebb-4799-9c5a-3478253cae05"},"vehicle_type_id":"4","last_reported":1733228353,"current_range_meters":22400,"station_id":"ce4bh012rcd13ifvqd00","pricing_plan_id":"cebpf4jnsgd1na2vs0mg"},{"bike_id":"4f5ba0c5-477f-44a6-987a-eda3b6ae8ac0","system_id":"levelo_inurba_marseille","lat":43.31485,"lon":5.37312,"is_reserved":false,"is_disabled":false,"rental_uris":{"android":"levelo://app?vid=4f5ba0c5-477f-44a6-987a-eda3b6ae8ac0","ios":"levelo://app?vid=4f5ba0c5-477f-44a6-987a-eda3b6ae8ac0"},"vehicle_type_id":"4","last_reported":1733228353,"current_range_meters":10800,"station_id":"ce4bgt12rcd13ifvqcd0","pricing_plan_id":"cebpf4jnsgd1na2vs0mg"},{"bike_id":"5a6f4c46-bc48-45c1-b254-8ffa8cdcb701","system_id":"levelo_inurba_marseille","lat":43.28464,"lon":5.35895,"is_reserved":false,"is_disabled":false,"rental_uris":{"android":"levelo://app?vid=5a6f4c46-bc48-45c1-b254-8ffa8cdcb701","ios":"levelo://app?vid=5a6f4c46-bc48-45c1-b254-8ffa8cdcb701"},"vehicle_type_id":"4","last_reported":1733228353,"current_range_meters":6400,"station_id":"ce4bhah2rcd13ifvqei0","pricing_plan_id":"cebpf4jnsgd1na2vs0mg"},{"bike_id":"48c5c139-842c-4c87-8775-a666894d4305","system_id":"levelo_inurba_marseille","lat":43.29933,"lon":5.36553,"is_reserved":false,"is_disabled":false,"rental_uris":{"android":"levelo://app?vid=48c5c139-842c-4c87-8775-a666894d4305","ios":"levelo://app?vid=48c5c139-842c-4c87-8775-a666894d4305"},"vehicle_type_id":"4","last_reported":1733228353,"current_range_meters":20400,"station_id":"ce4bgm92rcd13ifvqbr0","pricing_plan_id":"cebpf4jnsgd1na2vs0mg"},{"bike_id":"13dfe381-fb81-4f23-ab67-d3e6ef9f740c","system_id":"levelo_inurba_marseille","lat":43.32539,"lon":5.41438,"is_reserved":false,"is_disabled":false,"rental_uris":{"android":"levelo://app?vid=13dfe381-fb81-4f23-ab67-d3e6ef9f740c","ios":"levelo://app?vid=13dfe381-fb81-4f23-ab67-d3e6ef9f740c"},"vehicle_type_id":"4","last_reported":1733228353,"current_range_meters":25200,"station_id":"ce4bhq12rcd13ifvqhhg","pricing_plan_id":"cebpf4jnsgd1na2vs0mg"},{"bike_id":"2cf1a8c1-7c85-46c8-bd91-bc4f65ab3085","system_id":"levelo_inurba_marseille","lat":43.29364,"lon":5.37846,"is_reserved":false,"is_disabled":false,"rental_uris":{"android":"levelo://app?vid=2cf1a8c1-7c85-46c8-bd91-bc4f65ab3085","ios":"levelo://app?vid=2cf1a8c1-7c85-46c8-bd91-bc4f65ab3085"},"vehicle_type_id":"4","last_reported":1733228353,"current_range_meters":12400,"station_id":"ce4bgjh2rcd13ifvqbf0","pricing_plan_id":"cebpf4jnsgd1na2vs0mg"},{"bike_id":"0f2f655e-7d04-479a-99e2-ffe602d6d7e0","system_id":"levelo_inurba_marseille","lat":43.28716,"lon":5.37947,"is_reserved":false,"is_disabled":false,"rental_uris":{"android":"levelo://app?vid=0f2f655e-7d04-479a-99e2-ffe602d6d7e0","ios":"levelo://app?vid=0f2f655e-7d04-479a-99e2-ffe602d6d7e0"},"vehicle_type_id":"4","last_reported":1733228353,"current_range_meters":36000,"station_id":"ce4bh9p2rcd13ifvqec0","pricing_plan_id":"cebpf4jnsgd1na2vs0mg"},{"bike_id":"7932e894-60e4-4259-ad2b-e25a6bbb7ae7","system_id":"levelo_inurba_marseille","lat":43.28416,"lon":5.37521,"is_reserved":false,"is_disabled":true,"rental_uris":{"android":"levelo://app?vid=7932e894-60e4-4259-ad2b-e25a6bbb7ae7","ios":"levelo://app?vid=7932e894-60e4-4259-ad2b-e25a6bbb7ae7"},"vehicle_type_id":"4","last_reported":1733228353,"current_range_meters":24400,"station_id":"ce4bh412rcd13ifvqds0","pricing_plan_id":"cebpf4jnsgd1na2vs0mg"},{"bike_id":"c7c5aa05-7ea3-4cae-915d-d1079d658642","system_id":"levelo_inurba_marseille","lat":43.27963,"lon":5.38749,"is_reserved":false,"is_disabled":false,"rental_uris":{"android":"levelo://app?vid=c7c5aa05-7ea3-4cae-915d-d1079d658642","ios":"levelo://app?vid=c7c5aa05-7ea3-4cae-915d-d1079d658642"},"vehicle_type_id":"4","last_reported":1733228353,"current_range_meters":10000,"station_id":"ce4bhg12rcd13ifvqf80","pricing_plan_id":"cebpf4jnsgd1na2vs0mg"},{"bike_id":"f4ffb03a-ccc8-44c2-8e42-9eea35a61a49","system_id":"levelo_inurba_marseille","lat":43.29521,"lon":5.39039,"is_reserved":false,"is_disabled":true,"rental_uris":{"android":"levelo://app?vid=f4ffb03a-ccc8-44c2-8e42-9eea35a61a49","ios":"levelo://app?vid=f4ffb03a-ccc8-44c2-8e42-9eea35a61a49"},"vehicle_type_id":"4","last_reported":1733228353,"current_range_meters":38000,"station_id":"ce4bh3p2rcd13ifvqdp0","pricing_plan_id":"cebpf4jnsgd1na2vs0mg"},{"bike_id":"763a15e5-5c0c-4db3-84a6-87cc9fff8ea4","system_id":"levelo_inurba_marseille","lat":43.27987,"lon":5.44227,"is_reserved":false,"is_disabled":false,"rental_uris":{"android":"levelo://app?vid=763a15e5-5c0c-4db3-84a6-87cc9fff8ea4","ios":"levelo://app?vid=763a15e5-5c0c-4db3-84a6-87cc9fff8ea4"},"vehicle_type_id":"4","last_reported":1733228353,"current_range_meters":17600,"station_id":"","pricing_plan_id":"cebpf4jnsgd1na2vs0mg"},{"bike_id":"20597529-c5b4-4b06-8e49-bd0c0851632d","system_id":"levelo_inurba_marseille","lat":43.30959,"lon":5.39029,"is_reserved":false,"is_disabled":false,"rental_uris":{"android":"levelo://app?vid=20597529-c5b4-4b06-8e49-bd0c0851632d","ios":"levelo://app?vid=20597529-c5b4-4b06-8e49-bd0c0851632d"},"vehicle_type_id":"4","last_reported":1733228353,"current_range_meters":38800,"station_id":"ce4bgup2rcd13ifvqco0","pricing_plan_id":"cebpf4jnsgd1na2vs0mg"},{"bike_id":"b6c38e26-812c-4c74-9fbf-b2ff80e0a354","system_id":"levelo_inurba_marseille","lat":43.28704,"lon":5.37934,"is_reserved":false,"is_disabled":false,"rental_uris":{"android":"levelo://app?vid=b6c38e26-812c-4c74-9fbf-b2ff80e0a354","ios":"levelo://app?vid=b6c38e26-812c-4c74-9fbf-b2ff80e0a354"},"vehicle_type_id":"4","last_reported":1733228353,"current_range_meters":2800,"station_id":"ce4bh9p2rcd13ifvqec0","pricing_plan_id":"cebpf4jnsgd1na2vs0mg"},{"bike_id":"90c1965f-3375-4b66-9a38-3f2b5e631bb2","system_id":"levelo_inurba_marseille","lat":43.26936,"lon":5.4025,"is_reserved":false,"is_disabled":false,"rental_uris":{"android":"levelo://app?vid=90c1965f-3375-4b66-9a38-3f2b5e631bb2","ios":"levelo://app?vid=90c1965f-3375-4b66-9a38-3f2b5e631bb2"},"vehicle_type_id":"4","last_reported":1733228353,"current_range_meters":38800,"station_id":"cjm6bp8fraef2m0cb0m0","pricing_plan_id":"cebpf4jnsgd1na2vs0mg"},{"bike_id":"f1727aa8-b606-45ea-88c3-4321b6d0eaa4","system_id":"levelo_inurba_marseille","lat":43.3133,"lon":5.39688,"is_reserved":false,"is_disabled":false,"rental_uris":{"android":"levelo://app?vid=f1727aa8-b606-45ea-88c3-4321b6d0eaa4","ios":"levelo://app?vid=f1727aa8-b606-45ea-88c3-4321b6d0eaa4"},"vehicle_type_id":"4","last_reported":1733228353,"current_range_meters":30800,"station_id":"ce4bgvp2rcd13ifvqcu0","pricing_plan_id":"cebpf4jnsgd1na2vs0mg"},{"bike_id":"45ff3798-a743-4ffc-962c-fbce8ce4e073","system_id":"levelo_inurba_marseille","lat":43.23152,"lon":5.43713,"is_reserved":false,"is_disabled":false,"rental_uris":{"android":"levelo://app?vid=45ff3798-a743-4ffc-962c-fbce8ce4e073","ios":"levelo://app?vid=45ff3798-a743-4ffc-962c-fbce8ce4e073"},"vehicle_type_id":"4","last_reported":1733228353,"current_range_meters":12000,"station_id":"ce4bhmp2rcd13ifvqgog","pricing_plan_id":"cebpf4jnsgd1na2vs0mg"},{"bike_id":"b6bf0fc6-e8dd-4244-b189-4fd4fe6327fb","system_id":"levelo_inurba_marseille","lat":43.3055,"lon":5.3653,"is_reserved":false,"is_disabled":false,"rental_uris":{"android":"levelo://app?vid=b6bf0fc6-e8dd-4244-b189-4fd4fe6327fb","ios":"levelo://app?vid=b6bf0fc6-e8dd-4244-b189-4fd4fe6327fb"},"vehicle_type_id":"4","last_reported":1733228353,"current_range_meters":38800,"station_id":"ce4bgs12rcd13ifvqcag","pricing_plan_id":"cebpf4jnsgd1na2vs0mg"},{"bike_id":"41e94082-9363-460b-8923-b4c8fd5b2a80","system_id":"levelo_inurba_marseille","lat":43.29969,"lon":5.3849,"is_reserved":false,"is_disabled":false,"rental_uris":{"android":"levelo://app?vid=41e94082-9363-460b-8923-b4c8fd5b2a80","ios":"levelo://app?vid=41e94082-9363-460b-8923-b4c8fd5b2a80"},"vehicle_type_id":"4","last_reported":1733228353,"current_range_meters":38800,"station_id":"ce4bgj92rcd13ifvqbd0","pricing_plan_id":"cebpf4jnsgd1na2vs0mg"},{"bike_id":"e9f2fb5b-759c-48dd-b07f-b081014234a3","system_id":"levelo_inurba_marseille","lat":43.31492,"lon":5.37325,"is_reserved":false,"is_disabled":false,"rental_uris":{"android":"levelo://app?vid=e9f2fb5b-759c-48dd-b07f-b081014234a3","ios":"levelo://app?vid=e9f2fb5b-759c-48dd-b07f-b081014234a3"},"vehicle_type_id":"4","last_reported":1733228353,"current_range_meters":8400,"station_id":"ce4bgt12rcd13ifvqcd0","pricing_plan_id":"cebpf4jnsgd1na2vs0mg"},{"bike_id":"cdfe6590-4984-4014-86c8-6dd70747c27a","system_id":"levelo_inurba_marseille","lat":43.29737,"lon":5.37434,"is_reserved":false,"is_disabled":true,"rental_uris":{"android":"levelo://app?vid=cdfe6590-4984-4014-86c8-6dd70747c27a","ios":"levelo://app?vid=cdfe6590-4984-4014-86c8-6dd70747c27a"},"vehicle_type_id":"4","last_reported":1733228353,"current_range_meters":0,"station_id":"","pricing_plan_id":"cebpf4jnsgd1na2vs0mg"},{"bike_id":"37ec9453-9f61-4d8c-8eff-06cb599e5eb1","system_id":"levelo_inurba_marseille","lat":43.29798,"lon":5.38089,"is_reserved":false,"is_disabled":true,"rental_uris":{"android":"levelo://app?vid=37ec9453-9f61-4d8c-8eff-06cb599e5eb1","ios":"levelo://app?vid=37ec9453-9f61-4d8c-8eff-06cb599e5eb1"},"vehicle_type_id":"4","last_reported":1733228353,"current_range_meters":2000,"station_id":"ce4bgip2rcd13ifvqbb0","pricing_plan_id":"cebpf4jnsgd1na2vs0mg"},{"bike_id":"36142e23-8ff6-4096-ad19-b039c8156b69","system_id":"levelo_inurba_marseille","lat":43.28654,"lon":5.36359,"is_reserved":false,"is_disabled":true,"rental_uris":{"android":"levelo://app?vid=36142e23-8ff6-4096-ad19-b039c8156b69","ios":"levelo://app?vid=36142e23-8ff6-4096-ad19-b039c8156b69"},"vehicle_type_id":"4","last_reported":1733228353,"current_range_meters":31200,"station_id":"ce4bhah2rcd13ifvqej0","pricing_plan_id":"cebpf4jnsgd1na2vs0mg"},{"bike_id":"4f1a437d-eec4-42aa-9337-47d7de8b470e","system_id":"levelo_inurba_marseille","lat":43.26954,"lon":5.38636,"is_reserved":false,"is_disabled":false,"rental_uris":{"android":"levelo://app?vid=4f1a437d-eec4-42aa-9337-47d7de8b470e","ios":"levelo://app?vid=4f1a437d-eec4-42aa-9337-47d7de8b470e"},"vehicle_type_id":"4","last_reported":1733228353,"current_range_meters":10000,"station_id":"ce4bhh92rcd13ifvqfh0","pricing_plan_id":"cebpf4jnsgd1na2vs0mg"},{"bike_id":"b9206c6a-6573-4c96-8047-f380a4395cc7","system_id":"levelo_inurba_marseille","lat":43.29027,"lon":5.38146,"is_reserved":false,"is_disabled":true,"rental_uris":{"android":"levelo://app?vid=b9206c6a-6573-4c96-8047-f380a4395cc7","ios":"levelo://app?vid=b9206c6a-6573-4c96-8047-f380a4395cc7"},"vehicle_type_id":"4","last_reported":1733228353,"current_range_meters":1600,"station_id":"ce4bh4p2rcd13ifvqe1g","pricing_plan_id":"cebpf4jnsgd1na2vs0mg"},{"bike_id":"4c3fb316-febe-4764-b0a1-d58fd67e3e9a","system_id":"levelo_inurba_marseille","lat":43.281884,"lon":5.38293,"is_reserved":false,"is_disabled":true,"rental_uris":{"android":"levelo://app?vid=4c3fb316-febe-4764-b0a1-d58fd67e3e9a","ios":"levelo://app?vid=4c3fb316-febe-4764-b0a1-d58fd67e3e9a"},"vehicle_type_id":"4","last_reported":1733228353,"current_range_meters":26800,"station_id":"","pricing_plan_id":"cebpf4jnsgd1na2vs0mg"},{"bike_id":"987a5ab4-d60c-480c-94b6-7cab38975402","system_id":"levelo_inurba_marseille","lat":43.29748,"lon":5.37971,"is_reserved":false,"is_disabled":true,"rental_uris":{"android":"levelo://app?vid=987a5ab4-d60c-480c-94b6-7cab38975402","ios":"levelo://app?vid=987a5ab4-d60c-480c-94b6-7cab38975402"},"vehicle_type_id":"4","last_reported":1733228353,"current_range_meters":0,"station_id":"","pricing_plan_id":"cebpf4jnsgd1na2vs0mg"},{"bike_id":"6877f033-d09d-44d8-8868-c02f5054dd5f","system_id":"levelo_inurba_marseille","lat":43.31495,"lon":5.37259,"is_reserved":false,"is_disabled":false,"rental_uris":{"android":"levelo://app?vid=6877f033-d09d-44d8-8868-c02f5054dd5f","ios":"levelo://app?vid=6877f033-d09d-44d8-8868-c02f5054dd5f"},"vehicle_type_id":"4","last_reported":1733228353,"current_range_meters":11600,"station_id":"ce4bgt12rcd13ifvqcd0","pricing_plan_id":"cebpf4jnsgd1na2vs0mg"},{"bike_id":"2c4596ad-0ad9-4016-b92b-0093349de2b4","system_id":"levelo_inurba_marseille","lat":43.30726,"lon":5.38243,"is_reserved":false,"is_disabled":true,"rental_uris":{"android":"levelo://app?vid=2c4596ad-0ad9-4016-b92b-0093349de2b4","ios":"levelo://app?vid=2c4596ad-0ad9-4016-b92b-0093349de2b4"},"vehicle_type_id":"4","last_reported":1733228353,"current_range_meters":0,"station_id":"","pricing_plan_id":"cebpf4jnsgd1na2vs0mg"},{"bike_id":"7d983c55-9658-4810-b4fd-d68e94d0e0d8","system_id":"levelo_inurba_marseille","lat":43.30533,"lon":5.36547,"is_reserved":false,"is_disabled":false,"rental_uris":{"android":"levelo://app?vid=7d983c55-9658-4810-b4fd-d68e94d0e0d8","ios":"levelo://app?vid=7d983c55-9658-4810-b4fd-d68e94d0e0d8"},"vehicle_type_id":"4","last_reported":1733228353,"current_range_meters":39200,"station_id":"ce4bgs12rcd13ifvqcag","pricing_plan_id":"cebpf4jnsgd1na2vs0mg"},{"bike_id":"1f28300c-d8be-4d08-b5ea-d3aadf1e301d","system_id":"levelo_inurba_marseille","lat":43.26244,"lon":5.42134,"is_reserved":false,"is_disabled":false,"rental_uris":{"android":"levelo://app?vid=1f28300c-d8be-4d08-b5ea-d3aadf1e301d","ios":"levelo://app?vid=1f28300c-d8be-4d08-b5ea-d3aadf1e301d"},"vehicle_type_id":"4","last_reported":1733228353,"current_range_meters":18800,"station_id":"","pricing_plan_id":"cebpf4jnsgd1na2vs0mg"},{"bike_id":"b7ab8c01-033f-4395-8276-23c850ad3d02","system_id":"levelo_inurba_marseille","lat":43.30324,"lon":5.36597,"is_reserved":false,"is_disabled":true,"rental_uris":{"android":"levelo://app?vid=b7ab8c01-033f-4395-8276-23c850ad3d02","ios":"levelo://app?vid=b7ab8c01-033f-4395-8276-23c850ad3d02"},"vehicle_type_id":"4","last_reported":1733228353,"current_range_meters":0,"station_id":"","pricing_plan_id":"cebpf4jnsgd1na2vs0mg"},{"bike_id":"220c2743-4242-48c7-a10f-ebaed8d875f7","system_id":"levelo_inurba_marseille","lat":43.31363,"lon":5.38483,"is_reserved":false,"is_disabled":false,"rental_uris":{"android":"levelo://app?vid=220c2743-4242-48c7-a10f-ebaed8d875f7","ios":"levelo://app?vid=220c2743-4242-48c7-a10f-ebaed8d875f7"},"vehicle_type_id":"4","last_reported":1733228353,"current_range_meters":28800,"station_id":"ce4bgt92rcd13ifvqcf0","pricing_plan_id":"cebpf4jnsgd1na2vs0mg"},{"bike_id":"c6e6729e-5027-422b-b134-990c8bb67ebc","system_id":"levelo_inurba_marseille","lat":43.28035,"lon":5.36946,"is_reserved":false,"is_disabled":true,"rental_uris":{"android":"levelo://app?vid=c6e6729e-5027-422b-b134-990c8bb67ebc","ios":"levelo://app?vid=c6e6729e-5027-422b-b134-990c8bb67ebc"},"vehicle_type_id":"4","last_reported":1733228353,"current_range_meters":0,"station_id":"ce4bha12rcd13ifvqef0","pricing_plan_id":"cebpf4jnsgd1na2vs0mg"},{"bike_id":"6e1f3ab1-384e-476c-9225-5af22ec49660","system_id":"levelo_inurba_marseille","lat":43.26569,"lon":5.39009,"is_reserved":false,"is_disabled":false,"rental_uris":{"android":"levelo://app?vid=6e1f3ab1-384e-476c-9225-5af22ec49660","ios":"levelo://app?vid=6e1f3ab1-384e-476c-9225-5af22ec49660"},"vehicle_type_id":"4","last_reported":1733228353,"current_range_meters":33200,"station_id":"ce4bhe12rcd13ifvqf30","pricing_plan_id":"cebpf4jnsgd1na2vs0mg"},{"bike_id":"7a8ee5d9-4808-4769-a02b-2b45186e80b5","system_id":"levelo_inurba_marseille","lat":43.337444,"lon":5.374475,"is_reserved":false,"is_disabled":true,"rental_uris":{"android":"levelo://app?vid=7a8ee5d9-4808-4769-a02b-2b45186e80b5","ios":"levelo://app?vid=7a8ee5d9-4808-4769-a02b-2b45186e80b5"},"vehicle_type_id":"4","last_reported":1733228353,"current_range_meters":0,"station_id":"","pricing_plan_id":"cebpf4jnsgd1na2vs0mg"},{"bike_id":"d35b3f1e-45ea-4b6e-b859-ab4f26d5e5e7","system_id":"levelo_inurba_marseille","lat":43.27979,"lon":5.38747,"is_reserved":false,"is_disabled":false,"rental_uris":{"android":"levelo://app?vid=d35b3f1e-45ea-4b6e-b859-ab4f26d5e5e7","ios":"levelo://app?vid=d35b3f1e-45ea-4b6e-b859-ab4f26d5e5e7"},"vehicle_type_id":"4","last_reported":1733228353,"current_range_meters":37600,"station_id":"ce4bhg12rcd13ifvqf80","pricing_plan_id":"cebpf4jnsgd1na2vs0mg"},{"bike_id":"4c5e62c3-e493-4ec2-b73f-a09c17ce8d04","system_id":"levelo_inurba_marseille","lat":43.26063,"lon":5.39398,"is_reserved":false,"is_disabled":false,"rental_uris":{"android":"levelo://app?vid=4c5e62c3-e493-4ec2-b73f-a09c17ce8d04","ios":"levelo://app?vid=4c5e62c3-e493-4ec2-b73f-a09c17ce8d04"},"vehicle_type_id":"4","last_reported":1733228353,"current_range_meters":12000,"station_id":"ce4bhh92rcd13ifvqfj0","pricing_plan_id":"cebpf4jnsgd1na2vs0mg"},{"bike_id":"6cc6805f-c0ca-4585-bdf1-b5a0339762b0","system_id":"levelo_inurba_marseille","lat":43.29014,"lon":5.42809,"is_reserved":false,"is_disabled":false,"rental_uris":{"android":"levelo://app?vid=6cc6805f-c0ca-4585-bdf1-b5a0339762b0","ios":"levelo://app?vid=6cc6805f-c0ca-4585-bdf1-b5a0339762b0"},"vehicle_type_id":"4","last_reported":1733228353,"current_range_meters":4000,"station_id":"","pricing_plan_id":"cebpf4jnsgd1na2vs0mg"},{"bike_id":"c6d2d058-a090-4868-9f73-ad563ef21967","system_id":"levelo_inurba_marseille","lat":43.29792,"lon":5.3809,"is_reserved":false,"is_disabled":false,"rental_uris":{"android":"levelo://app?vid=c6d2d058-a090-4868-9f73-ad563ef21967","ios":"levelo://app?vid=c6d2d058-a090-4868-9f73-ad563ef21967"},"vehicle_type_id":"4","last_reported":1733228353,"current_range_meters":13600,"station_id":"ce4bgip2rcd13ifvqbb0","pricing_plan_id":"cebpf4jnsgd1na2vs0mg"},{"bike_id":"8d1c8b92-79bb-4181-b0d2-5e94db1a14d0","system_id":"levelo_inurba_marseille","lat":43.300028,"lon":5.382642,"is_reserved":false,"is_disabled":true,"rental_uris":{"android":"levelo://app?vid=8d1c8b92-79bb-4181-b0d2-5e94db1a14d0","ios":"levelo://app?vid=8d1c8b92-79bb-4181-b0d2-5e94db1a14d0"},"vehicle_type_id":"4","last_reported":1733228353,"current_range_meters":0,"station_id":"","pricing_plan_id":"cebpf4jnsgd1na2vs0mg"},{"bike_id":"b393e343-ccc2-4e09-a3d5-b33fb6d87dbf","system_id":"levelo_inurba_marseille","lat":43.30137,"lon":5.3879,"is_reserved":false,"is_disabled":true,"rental_uris":{"android":"levelo://app?vid=b393e343-ccc2-4e09-a3d5-b33fb6d87dbf","ios":"levelo://app?vid=b393e343-ccc2-4e09-a3d5-b33fb6d87dbf"},"vehicle_type_id":"4","last_reported":1733228353,"current_range_meters":28800,"station_id":"ce4bghh2rcd13ifvqb60","pricing_plan_id":"cebpf4jnsgd1na2vs0mg"},{"bike_id":"61b753f9-2a49-48d4-a475-17194fb3a557","system_id":"levelo_inurba_marseille","lat":43.30599,"lon":5.39353,"is_reserved":false,"is_disabled":false,"rental_uris":{"android":"levelo://app?vid=61b753f9-2a49-48d4-a475-17194fb3a557","ios":"levelo://app?vid=61b753f9-2a49-48d4-a475-17194fb3a557"},"vehicle_type_id":"4","last_reported":1733228353,"current_range_meters":32800,"station_id":"ce4bh0p2rcd13ifvqd80","pricing_plan_id":"cebpf4jnsgd1na2vs0mg"},{"bike_id":"805c01bc-d4d3-404c-8cbd-20255ab25f6b","system_id":"levelo_inurba_marseille","lat":43.31709,"lon":5.43711,"is_reserved":false,"is_disabled":false,"rental_uris":{"android":"levelo://app?vid=805c01bc-d4d3-404c-8cbd-20255ab25f6b","ios":"levelo://app?vid=805c01bc-d4d3-404c-8cbd-20255ab25f6b"},"vehicle_type_id":"4","last_reported":1733228353,"current_range_meters":36000,"station_id":"ce4bhp92rcd13ifvqhcg","pricing_plan_id":"cebpf4jnsgd1na2vs0mg"},{"bike_id":"d692109b-ad98-49bc-9d0b-2573b84dfc5e","system_id":"levelo_inurba_marseille","lat":43.23155,"lon":5.43726,"is_reserved":false,"is_disabled":false,"rental_uris":{"android":"levelo://app?vid=d692109b-ad98-49bc-9d0b-2573b84dfc5e","ios":"levelo://app?vid=d692109b-ad98-49bc-9d0b-2573b84dfc5e"},"vehicle_type_id":"4","last_reported":1733228353,"current_range_meters":8800,"station_id":"ce4bhmp2rcd13ifvqgog","pricing_plan_id":"cebpf4jnsgd1na2vs0mg"},{"bike_id":"6a95206e-9f5f-4245-893c-d82a7d37354f","system_id":"levelo_inurba_marseille","lat":43.30443,"lon":5.38892,"is_reserved":false,"is_disabled":false,"rental_uris":{"android":"levelo://app?vid=6a95206e-9f5f-4245-893c-d82a7d37354f","ios":"levelo://app?vid=6a95206e-9f5f-4245-893c-d82a7d37354f"},"vehicle_type_id":"4","last_reported":1733228353,"current_range_meters":19200,"station_id":"ce4bgk12rcd13ifvqbi0","pricing_plan_id":"cebpf4jnsgd1na2vs0mg"},{"bike_id":"d12e07bc-303e-4665-a4bc-2ae6e909e195","system_id":"levelo_inurba_marseille","lat":43.3082,"lon":5.4002,"is_reserved":false,"is_disabled":false,"rental_uris":{"android":"levelo://app?vid=d12e07bc-303e-4665-a4bc-2ae6e909e195","ios":"levelo://app?vid=d12e07bc-303e-4665-a4bc-2ae6e909e195"},"vehicle_type_id":"4","last_reported":1733228353,"current_range_meters":36800,"station_id":"","pricing_plan_id":"cebpf4jnsgd1na2vs0mg"},{"bike_id":"3ef40d5d-ae60-4919-a60f-c93a84da1612","system_id":"levelo_inurba_marseille","lat":43.30187,"lon":5.36613,"is_reserved":false,"is_disabled":false,"rental_uris":{"android":"levelo://app?vid=3ef40d5d-ae60-4919-a60f-c93a84da1612","ios":"levelo://app?vid=3ef40d5d-ae60-4919-a60f-c93a84da1612"},"vehicle_type_id":"4","last_reported":1733228353,"current_range_meters":38800,"station_id":"ce4bgrh2rcd13ifvqc8g","pricing_plan_id":"cebpf4jnsgd1na2vs0mg"},{"bike_id":"8c6ae27f-3733-439a-943c-f088570574ea","system_id":"levelo_inurba_marseille","lat":43.24803,"lon":5.37454,"is_reserved":false,"is_disabled":false,"rental_uris":{"android":"levelo://app?vid=8c6ae27f-3733-439a-943c-f088570574ea","ios":"levelo://app?vid=8c6ae27f-3733-439a-943c-f088570574ea"},"vehicle_type_id":"4","last_reported":1733228353,"current_range_meters":38800,"station_id":"ce4bhgh2rcd13ifvqfb0","pricing_plan_id":"cebpf4jnsgd1na2vs0mg"},{"bike_id":"8933ae40-7d11-4f85-bbf4-6a6429e9e816","system_id":"levelo_inurba_marseille","lat":43.31759,"lon":5.38763,"is_reserved":false,"is_disabled":false,"rental_uris":{"android":"levelo://app?vid=8933ae40-7d11-4f85-bbf4-6a6429e9e816","ios":"levelo://app?vid=8933ae40-7d11-4f85-bbf4-6a6429e9e816"},"vehicle_type_id":"4","last_reported":1733228353,"current_range_meters":6400,"station_id":"","pricing_plan_id":"cebpf4jnsgd1na2vs0mg"},{"bike_id":"01ac64e6-1f1f-4196-a4f5-2ab0b372a75f","system_id":"levelo_inurba_marseille","lat":43.286984,"lon":5.379334,"is_reserved":false,"is_disabled":true,"rental_uris":{"android":"levelo://app?vid=01ac64e6-1f1f-4196-a4f5-2ab0b372a75f","ios":"levelo://app?vid=01ac64e6-1f1f-4196-a4f5-2ab0b372a75f"},"vehicle_type_id":"4","last_reported":1733228353,"current_range_meters":38800,"station_id":"ce4bh9p2rcd13ifvqec0","pricing_plan_id":"cebpf4jnsgd1na2vs0mg"},{"bike_id":"64b321cb-c55c-40ab-9985-479d45091f3f","system_id":"levelo_inurba_marseille","lat":43.31706,"lon":5.40469,"is_reserved":false,"is_disabled":false,"rental_uris":{"android":"levelo://app?vid=64b321cb-c55c-40ab-9985-479d45091f3f","ios":"levelo://app?vid=64b321cb-c55c-40ab-9985-479d45091f3f"},"vehicle_type_id":"4","last_reported":1733228353,"current_range_meters":36800,"station_id":"ce4bh012rcd13ifvqd00","pricing_plan_id":"cebpf4jnsgd1na2vs0mg"},{"bike_id":"b167b777-0aaa-4131-8437-9f9f5cffc5b8","system_id":"levelo_inurba_marseille","lat":43.2844,"lon":5.39209,"is_reserved":false,"is_disabled":false,"rental_uris":{"android":"levelo://app?vid=b167b777-0aaa-4131-8437-9f9f5cffc5b8","ios":"levelo://app?vid=b167b777-0aaa-4131-8437-9f9f5cffc5b8"},"vehicle_type_id":"4","last_reported":1733228353,"current_range_meters":6000,"station_id":"ce4bhoh2rcd13ifvqh5g","pricing_plan_id":"cebpf4jnsgd1na2vs0mg"},{"bike_id":"4f8c6457-7b21-40cc-8da9-83dbe00b2111","system_id":"levelo_inurba_marseille","lat":43.2795,"lon":5.41052,"is_reserved":false,"is_disabled":true,"rental_uris":{"android":"levelo://app?vid=4f8c6457-7b21-40cc-8da9-83dbe00b2111","ios":"levelo://app?vid=4f8c6457-7b21-40cc-8da9-83dbe00b2111"},"vehicle_type_id":"4","last_reported":1733228353,"current_range_meters":36800,"station_id":"ce4bhnp2rcd13ifvqh0g","pricing_plan_id":"cebpf4jnsgd1na2vs0mg"},{"bike_id":"9e61057c-4c30-4525-a4c3-f6aaf764c910","system_id":"levelo_inurba_marseille","lat":43.27201,"lon":5.39192,"is_reserved":false,"is_disabled":false,"rental_uris":{"android":"levelo://app?vid=9e61057c-4c30-4525-a4c3-f6aaf764c910","ios":"levelo://app?vid=9e61057c-4c30-4525-a4c3-f6aaf764c910"},"vehicle_type_id":"4","last_reported":1733228353,"current_range_meters":19200,"station_id":"ce4bhhp2rcd13ifvqfm0","pricing_plan_id":"cebpf4jnsgd1na2vs0mg"},{"bike_id":"9f4deee7-7f31-4c2e-82c6-46a38d5aa3cf","system_id":"levelo_inurba_marseille","lat":43.29835,"lon":5.36259,"is_reserved":false,"is_disabled":false,"rental_uris":{"android":"levelo://app?vid=9f4deee7-7f31-4c2e-82c6-46a38d5aa3cf","ios":"levelo://app?vid=9f4deee7-7f31-4c2e-82c6-46a38d5aa3cf"},"vehicle_type_id":"4","last_reported":1733228353,"current_range_meters":38800,"station_id":"ce4bgpp2rcd13ifvqc3g","pricing_plan_id":"cebpf4jnsgd1na2vs0mg"},{"bike_id":"9c77a68d-2e99-44e9-b903-950fb6644d35","system_id":"levelo_inurba_marseille","lat":43.25263,"lon":5.39474,"is_reserved":false,"is_disabled":true,"rental_uris":{"android":"levelo://app?vid=9c77a68d-2e99-44e9-b903-950fb6644d35","ios":"levelo://app?vid=9c77a68d-2e99-44e9-b903-950fb6644d35"},"vehicle_type_id":"4","last_reported":1733228353,"current_range_meters":0,"station_id":"","pricing_plan_id":"cebpf4jnsgd1na2vs0mg"},{"bike_id":"56246a82-e047-413e-a9f1-a7f32d2452bc","system_id":"levelo_inurba_marseille","lat":43.24168,"lon":5.36395,"is_reserved":false,"is_disabled":false,"rental_uris":{"android":"levelo://app?vid=56246a82-e047-413e-a9f1-a7f32d2452bc","ios":"levelo://app?vid=56246a82-e047-413e-a9f1-a7f32d2452bc"},"vehicle_type_id":"4","last_reported":1733228353,"current_range_meters":29600,"station_id":"cpo36qri1sfpv3e86is0","pricing_plan_id":"cebpf4jnsgd1na2vs0mg"},{"bike_id":"fc10e80d-9908-4738-a878-279093c115c0","system_id":"levelo_inurba_marseille","lat":43.29295,"lon":5.37462,"is_reserved":false,"is_disabled":false,"rental_uris":{"android":"levelo://app?vid=fc10e80d-9908-4738-a878-279093c115c0","ios":"levelo://app?vid=fc10e80d-9908-4738-a878-279093c115c0"},"vehicle_type_id":"4","last_reported":1733228353,"current_range_meters":36800,"station_id":"ce4bgi12rcd13ifvqb70","pricing_plan_id":"cebpf4jnsgd1na2vs0mg"},{"bike_id":"d343be82-d45b-4580-9267-ab2a574eac02","system_id":"levelo_inurba_marseille","lat":43.30803,"lon":5.43526,"is_reserved":false,"is_disabled":true,"rental_uris":{"android":"levelo://app?vid=d343be82-d45b-4580-9267-ab2a574eac02","ios":"levelo://app?vid=d343be82-d45b-4580-9267-ab2a574eac02"},"vehicle_type_id":"4","last_reported":1733228353,"current_range_meters":0,"station_id":"ce4bhph2rcd13ifvqheg","pricing_plan_id":"cebpf4jnsgd1na2vs0mg"},{"bike_id":"e2ef5e1d-37e9-4d20-b538-56f53add8679","system_id":"levelo_inurba_marseille","lat":43.32659,"lon":5.41006,"is_reserved":false,"is_disabled":false,"rental_uris":{"android":"levelo://app?vid=e2ef5e1d-37e9-4d20-b538-56f53add8679","ios":"levelo://app?vid=e2ef5e1d-37e9-4d20-b538-56f53add8679"},"vehicle_type_id":"4","last_reported":1733228353,"current_range_meters":24400,"station_id":"ce4bhpp2rcd13ifvqhgg","pricing_plan_id":"cebpf4jnsgd1na2vs0mg"},{"bike_id":"c17531e3-2798-489b-8b1b-7c5687fee335","system_id":"levelo_inurba_marseille","lat":43.31495,"lon":5.37308,"is_reserved":false,"is_disabled":false,"rental_uris":{"android":"levelo://app?vid=c17531e3-2798-489b-8b1b-7c5687fee335","ios":"levelo://app?vid=c17531e3-2798-489b-8b1b-7c5687fee335"},"vehicle_type_id":"4","last_reported":1733228353,"current_range_meters":38800,"station_id":"ce4bgt12rcd13ifvqcd0","pricing_plan_id":"cebpf4jnsgd1na2vs0mg"},{"bike_id":"4ea402f6-45b0-4846-84f5-29270e62c818","system_id":"levelo_inurba_marseille","lat":43.30842,"lon":5.37396,"is_reserved":false,"is_disabled":true,"rental_uris":{"android":"levelo://app?vid=4ea402f6-45b0-4846-84f5-29270e62c818","ios":"levelo://app?vid=4ea402f6-45b0-4846-84f5-29270e62c818"},"vehicle_type_id":"4","last_reported":1733228353,"current_range_meters":0,"station_id":"","pricing_plan_id":"cebpf4jnsgd1na2vs0mg"},{"bike_id":"83985555-c848-4b28-808f-8a7e7cf8519e","system_id":"levelo_inurba_marseille","lat":43.2811,"lon":5.44174,"is_reserved":false,"is_disabled":true,"rental_uris":{"android":"levelo://app?vid=83985555-c848-4b28-808f-8a7e7cf8519e","ios":"levelo://app?vid=83985555-c848-4b28-808f-8a7e7cf8519e"},"vehicle_type_id":"4","last_reported":1733228353,"current_range_meters":0,"station_id":"","pricing_plan_id":"cebpf4jnsgd1na2vs0mg"},{"bike_id":"2efae194-dc94-42b9-a7db-f31b2881d0ed","system_id":"levelo_inurba_marseille","lat":43.29517,"lon":5.37504,"is_reserved":false,"is_disabled":false,"rental_uris":{"android":"levelo://app?vid=2efae194-dc94-42b9-a7db-f31b2881d0ed","ios":"levelo://app?vid=2efae194-dc94-42b9-a7db-f31b2881d0ed"},"vehicle_type_id":"4","last_reported":1733228353,"current_range_meters":28800,"station_id":"ce4bgkp2rcd13ifvqbmg","pricing_plan_id":"cebpf4jnsgd1na2vs0mg"},{"bike_id":"d36aabf4-4cab-4b28-9bef-3586f21e73af","system_id":"levelo_inurba_marseille","lat":43.295832,"lon":5.375034,"is_reserved":false,"is_disabled":false,"rental_uris":{"android":"levelo://app?vid=d36aabf4-4cab-4b28-9bef-3586f21e73af","ios":"levelo://app?vid=d36aabf4-4cab-4b28-9bef-3586f21e73af"},"vehicle_type_id":"4","last_reported":1733228353,"current_range_meters":25600,"station_id":"ce4bgh92rcd13ifvqb50","pricing_plan_id":"cebpf4jnsgd1na2vs0mg"},{"bike_id":"24680a53-4438-4273-b1ba-6bdb48ce463f","system_id":"levelo_inurba_marseille","lat":43.24542,"lon":5.3952,"is_reserved":false,"is_disabled":false,"rental_uris":{"android":"levelo://app?vid=24680a53-4438-4273-b1ba-6bdb48ce463f","ios":"levelo://app?vid=24680a53-4438-4273-b1ba-6bdb48ce463f"},"vehicle_type_id":"4","last_reported":1733228353,"current_range_meters":38800,"station_id":"ce4bhlp2rcd13ifvqgjg","pricing_plan_id":"cebpf4jnsgd1na2vs0mg"},{"bike_id":"941eeae1-8936-4a86-b31a-ea87d84b2048","system_id":"levelo_inurba_marseille","lat":43.2806,"lon":5.35629,"is_reserved":false,"is_disabled":false,"rental_uris":{"android":"levelo://app?vid=941eeae1-8936-4a86-b31a-ea87d84b2048","ios":"levelo://app?vid=941eeae1-8936-4a86-b31a-ea87d84b2048"},"vehicle_type_id":"4","last_reported":1733228353,"current_range_meters":7200,"station_id":"","pricing_plan_id":"cebpf4jnsgd1na2vs0mg"},{"bike_id":"bce7ac70-e764-4bae-9f34-9583bd88cf5c","system_id":"levelo_inurba_marseille","lat":43.29813,"lon":5.40416,"is_reserved":false,"is_disabled":false,"rental_uris":{"android":"levelo://app?vid=bce7ac70-e764-4bae-9f34-9583bd88cf5c","ios":"levelo://app?vid=bce7ac70-e764-4bae-9f34-9583bd88cf5c"},"vehicle_type_id":"4","last_reported":1733228353,"current_range_meters":27600,"station_id":"ce4bh112rcd13ifvqd90","pricing_plan_id":"cebpf4jnsgd1na2vs0mg"},{"bike_id":"38f794f5-5184-4298-803a-3748656c4422","system_id":"levelo_inurba_marseille","lat":43.29421,"lon":5.38626,"is_reserved":false,"is_disabled":true,"rental_uris":{"android":"levelo://app?vid=38f794f5-5184-4298-803a-3748656c4422","ios":"levelo://app?vid=38f794f5-5184-4298-803a-3748656c4422"},"vehicle_type_id":"4","last_reported":1733228353,"current_range_meters":0,"station_id":"ce4bh2h2rcd13ifvqdh0","pricing_plan_id":"cebpf4jnsgd1na2vs0mg"},{"bike_id":"355f9b9d-f767-4c7c-b2c2-99f45fb7404f","system_id":"levelo_inurba_marseille","lat":43.30781,"lon":5.3763,"is_reserved":false,"is_disabled":false,"rental_uris":{"android":"levelo://app?vid=355f9b9d-f767-4c7c-b2c2-99f45fb7404f","ios":"levelo://app?vid=355f9b9d-f767-4c7c-b2c2-99f45fb7404f"},"vehicle_type_id":"4","last_reported":1733228353,"current_range_meters":38400,"station_id":"ce4bgv92rcd13ifvqcq0","pricing_plan_id":"cebpf4jnsgd1na2vs0mg"},{"bike_id":"d1a8240c-6717-4129-b791-865274eca2a9","system_id":"levelo_inurba_marseille","lat":43.30549,"lon":5.36533,"is_reserved":false,"is_disabled":false,"rental_uris":{"android":"levelo://app?vid=d1a8240c-6717-4129-b791-865274eca2a9","ios":"levelo://app?vid=d1a8240c-6717-4129-b791-865274eca2a9"},"vehicle_type_id":"4","last_reported":1733228353,"current_range_meters":35600,"station_id":"ce4bgs12rcd13ifvqcag","pricing_plan_id":"cebpf4jnsgd1na2vs0mg"},{"bike_id":"d5dc8b48-0564-4629-a65c-97bbfeb5bca1","system_id":"levelo_inurba_marseille","lat":43.26196,"lon":5.37451,"is_reserved":false,"is_disabled":false,"rental_uris":{"android":"levelo://app?vid=d5dc8b48-0564-4629-a65c-97bbfeb5bca1","ios":"levelo://app?vid=d5dc8b48-0564-4629-a65c-97bbfeb5bca1"},"vehicle_type_id":"4","last_reported":1733228353,"current_range_meters":36800,"station_id":"ce4bhgp2rcd13ifvqfc0","pricing_plan_id":"cebpf4jnsgd1na2vs0mg"},{"bike_id":"daa05a65-c05a-4068-9833-3010d61dc489","system_id":"levelo_inurba_marseille","lat":43.28479,"lon":5.38403,"is_reserved":false,"is_disabled":true,"rental_uris":{"android":"levelo://app?vid=daa05a65-c05a-4068-9833-3010d61dc489","ios":"levelo://app?vid=daa05a65-c05a-4068-9833-3010d61dc489"},"vehicle_type_id":"4","last_reported":1733228353,"current_range_meters":38000,"station_id":"ce4bh512rcd13ifvqe3g","pricing_plan_id":"cebpf4jnsgd1na2vs0mg"},{"bike_id":"d968385f-de2b-44eb-96a8-54efc707caa9","system_id":"levelo_inurba_marseille","lat":43.23196,"lon":5.35536,"is_reserved":false,"is_disabled":false,"rental_uris":{"android":"levelo://app?vid=d968385f-de2b-44eb-96a8-54efc707caa9","ios":"levelo://app?vid=d968385f-de2b-44eb-96a8-54efc707caa9"},"vehicle_type_id":"4","last_reported":1733228353,"current_range_meters":38800,"station_id":"ce4bhu92rcd13ifvqi70","pricing_plan_id":"cebpf4jnsgd1na2vs0mg"},{"bike_id":"e218f52a-3c8a-490a-99d9-5af7196625b0","system_id":"levelo_inurba_marseille","lat":43.23196,"lon":5.35547,"is_reserved":false,"is_disabled":false,"rental_uris":{"android":"levelo://app?vid=e218f52a-3c8a-490a-99d9-5af7196625b0","ios":"levelo://app?vid=e218f52a-3c8a-490a-99d9-5af7196625b0"},"vehicle_type_id":"4","last_reported":1733228353,"current_range_meters":39200,"station_id":"ce4bhu92rcd13ifvqi70","pricing_plan_id":"cebpf4jnsgd1na2vs0mg"},{"bike_id":"307ca336-3f57-4d5b-849b-5b9df48faeaf","system_id":"levelo_inurba_marseille","lat":43.30026,"lon":5.38877,"is_reserved":false,"is_disabled":true,"rental_uris":{"android":"levelo://app?vid=307ca336-3f57-4d5b-849b-5b9df48faeaf","ios":"levelo://app?vid=307ca336-3f57-4d5b-849b-5b9df48faeaf"},"vehicle_type_id":"4","last_reported":1733228353,"current_range_meters":0,"station_id":"","pricing_plan_id":"cebpf4jnsgd1na2vs0mg"},{"bike_id":"506c09f4-6c9b-4fb3-996c-4c7f86dd75a8","system_id":"levelo_inurba_marseille","lat":43.24557,"lon":5.37351,"is_reserved":false,"is_disabled":true,"rental_uris":{"android":"levelo://app?vid=506c09f4-6c9b-4fb3-996c-4c7f86dd75a8","ios":"levelo://app?vid=506c09f4-6c9b-4fb3-996c-4c7f86dd75a8"},"vehicle_type_id":"4","last_reported":1733228353,"current_range_meters":0,"station_id":"","pricing_plan_id":"cebpf4jnsgd1na2vs0mg"},{"bike_id":"0648d7f3-0115-4674-a631-4af963b6bc53","system_id":"levelo_inurba_marseille","lat":43.29414,"lon":5.38609,"is_reserved":false,"is_disabled":true,"rental_uris":{"android":"levelo://app?vid=0648d7f3-0115-4674-a631-4af963b6bc53","ios":"levelo://app?vid=0648d7f3-0115-4674-a631-4af963b6bc53"},"vehicle_type_id":"4","last_reported":1733228353,"current_range_meters":28400,"station_id":"ce4bh2h2rcd13ifvqdh0","pricing_plan_id":"cebpf4jnsgd1na2vs0mg"},{"bike_id":"9202c63e-372c-4469-a5c1-8e35757d1940","system_id":"levelo_inurba_marseille","lat":43.30053,"lon":5.38832,"is_reserved":false,"is_disabled":true,"rental_uris":{"android":"levelo://app?vid=9202c63e-372c-4469-a5c1-8e35757d1940","ios":"levelo://app?vid=9202c63e-372c-4469-a5c1-8e35757d1940"},"vehicle_type_id":"4","last_reported":1733228353,"current_range_meters":0,"station_id":"","pricing_plan_id":"cebpf4jnsgd1na2vs0mg"},{"bike_id":"3db2185b-e52b-49d6-bf63-7b055a7ec2f6","system_id":"levelo_inurba_marseille","lat":43.28938,"lon":5.36645,"is_reserved":false,"is_disabled":false,"rental_uris":{"android":"levelo://app?vid=3db2185b-e52b-49d6-bf63-7b055a7ec2f6","ios":"levelo://app?vid=3db2185b-e52b-49d6-bf63-7b055a7ec2f6"},"vehicle_type_id":"4","last_reported":1733228353,"current_range_meters":36800,"station_id":"ce4bhap2rcd13ifvqek0","pricing_plan_id":"cebpf4jnsgd1na2vs0mg"},{"bike_id":"2df8da6a-f191-4af7-8272-3c4d84a1c880","system_id":"levelo_inurba_marseille","lat":43.32663,"lon":5.40986,"is_reserved":false,"is_disabled":false,"rental_uris":{"android":"levelo://app?vid=2df8da6a-f191-4af7-8272-3c4d84a1c880","ios":"levelo://app?vid=2df8da6a-f191-4af7-8272-3c4d84a1c880"},"vehicle_type_id":"4","last_reported":1733228353,"current_range_meters":34000,"station_id":"ce4bhpp2rcd13ifvqhgg","pricing_plan_id":"cebpf4jnsgd1na2vs0mg"},{"bike_id":"59fe6ee5-2970-40fb-8f17-79075f699540","system_id":"levelo_inurba_marseille","lat":43.27051,"lon":5.40262,"is_reserved":false,"is_disabled":false,"rental_uris":{"android":"levelo://app?vid=59fe6ee5-2970-40fb-8f17-79075f699540","ios":"levelo://app?vid=59fe6ee5-2970-40fb-8f17-79075f699540"},"vehicle_type_id":"4","last_reported":1733228353,"current_range_meters":35200,"station_id":"ce4bhk92rcd13ifvqgc0","pricing_plan_id":"cebpf4jnsgd1na2vs0mg"},{"bike_id":"24c1f949-3f70-4fc6-80c4-85963901272a","system_id":"levelo_inurba_marseille","lat":43.30478,"lon":5.37916,"is_reserved":false,"is_disabled":false,"rental_uris":{"android":"levelo://app?vid=24c1f949-3f70-4fc6-80c4-85963901272a","ios":"levelo://app?vid=24c1f949-3f70-4fc6-80c4-85963901272a"},"vehicle_type_id":"4","last_reported":1733228353,"current_range_meters":27200,"station_id":"ce4bgup2rcd13ifvqcn0","pricing_plan_id":"cebpf4jnsgd1na2vs0mg"},{"bike_id":"72401246-0d93-497b-82fa-c0de71a5c822","system_id":"levelo_inurba_marseille","lat":43.30602,"lon":5.3722,"is_reserved":false,"is_disabled":false,"rental_uris":{"android":"levelo://app?vid=72401246-0d93-497b-82fa-c0de71a5c822","ios":"levelo://app?vid=72401246-0d93-497b-82fa-c0de71a5c822"},"vehicle_type_id":"4","last_reported":1733228353,"current_range_meters":38800,"station_id":"ce4bgqh2rcd13ifvqc4g","pricing_plan_id":"cebpf4jnsgd1na2vs0mg"},{"bike_id":"091e9107-b35b-4e74-a2ab-f0ba7dc4a1b0","system_id":"levelo_inurba_marseille","lat":43.27376,"lon":5.36272,"is_reserved":false,"is_disabled":false,"rental_uris":{"android":"levelo://app?vid=091e9107-b35b-4e74-a2ab-f0ba7dc4a1b0","ios":"levelo://app?vid=091e9107-b35b-4e74-a2ab-f0ba7dc4a1b0"},"vehicle_type_id":"4","last_reported":1733228353,"current_range_meters":20000,"station_id":"ce4bhbh2rcd13ifvqeo0","pricing_plan_id":"cebpf4jnsgd1na2vs0mg"},{"bike_id":"8cbb1876-809e-4922-953b-40d493b437d4","system_id":"levelo_inurba_marseille","lat":43.32339,"lon":5.4062,"is_reserved":false,"is_disabled":false,"rental_uris":{"android":"levelo://app?vid=8cbb1876-809e-4922-953b-40d493b437d4","ios":"levelo://app?vid=8cbb1876-809e-4922-953b-40d493b437d4"},"vehicle_type_id":"4","last_reported":1733228353,"current_range_meters":24000,"station_id":"ce4bhq92rcd13ifvqhjg","pricing_plan_id":"cebpf4jnsgd1na2vs0mg"},{"bike_id":"29e5a72a-1f12-4815-9cbd-7b8f7c59d95d","system_id":"levelo_inurba_marseille","lat":43.23148,"lon":5.43721,"is_reserved":false,"is_disabled":false,"rental_uris":{"android":"levelo://app?vid=29e5a72a-1f12-4815-9cbd-7b8f7c59d95d","ios":"levelo://app?vid=29e5a72a-1f12-4815-9cbd-7b8f7c59d95d"},"vehicle_type_id":"4","last_reported":1733228353,"current_range_meters":28400,"station_id":"ce4bhmp2rcd13ifvqgog","pricing_plan_id":"cebpf4jnsgd1na2vs0mg"},{"bike_id":"9bd8af31-ba0d-4e9c-9470-867a25cfc67b","system_id":"levelo_inurba_marseille","lat":43.29138,"lon":5.38072,"is_reserved":false,"is_disabled":false,"rental_uris":{"android":"levelo://app?vid=9bd8af31-ba0d-4e9c-9470-867a25cfc67b","ios":"levelo://app?vid=9bd8af31-ba0d-4e9c-9470-867a25cfc67b"},"vehicle_type_id":"4","last_reported":1733228353,"current_range_meters":35600,"station_id":"","pricing_plan_id":"cebpf4jnsgd1na2vs0mg"},{"bike_id":"719e509a-25e4-4b1b-9830-f708d85d7593","system_id":"levelo_inurba_marseille","lat":43.29569,"lon":5.37512,"is_reserved":false,"is_disabled":true,"rental_uris":{"android":"levelo://app?vid=719e509a-25e4-4b1b-9830-f708d85d7593","ios":"levelo://app?vid=719e509a-25e4-4b1b-9830-f708d85d7593"},"vehicle_type_id":"4","last_reported":1733228353,"current_range_meters":0,"station_id":"ce4bgh92rcd13ifvqb50","pricing_plan_id":"cebpf4jnsgd1na2vs0mg"},{"bike_id":"34990873-3196-4058-b006-4ffbc0216fdf","system_id":"levelo_inurba_marseille","lat":43.23195,"lon":5.35545,"is_reserved":false,"is_disabled":false,"rental_uris":{"android":"levelo://app?vid=34990873-3196-4058-b006-4ffbc0216fdf","ios":"levelo://app?vid=34990873-3196-4058-b006-4ffbc0216fdf"},"vehicle_type_id":"4","last_reported":1733228353,"current_range_meters":38800,"station_id":"ce4bhu92rcd13ifvqi70","pricing_plan_id":"cebpf4jnsgd1na2vs0mg"},{"bike_id":"0bf26240-ea4a-4fb0-a3eb-5657a82a1aac","system_id":"levelo_inurba_marseille","lat":43.30534,"lon":5.36706,"is_reserved":false,"is_disabled":false,"rental_uris":{"android":"levelo://app?vid=0bf26240-ea4a-4fb0-a3eb-5657a82a1aac","ios":"levelo://app?vid=0bf26240-ea4a-4fb0-a3eb-5657a82a1aac"},"vehicle_type_id":"4","last_reported":1733228353,"current_range_meters":6400,"station_id":"ce4bgrp2rcd13ifvqc9g","pricing_plan_id":"cebpf4jnsgd1na2vs0mg"},{"bike_id":"b8c4c32e-75d5-42c2-ae07-2a3da3c2053b","system_id":"levelo_inurba_marseille","lat":43.26224,"lon":5.38779,"is_reserved":false,"is_disabled":true,"rental_uris":{"android":"levelo://app?vid=b8c4c32e-75d5-42c2-ae07-2a3da3c2053b","ios":"levelo://app?vid=b8c4c32e-75d5-42c2-ae07-2a3da3c2053b"},"vehicle_type_id":"4","last_reported":1733228353,"current_range_meters":28800,"station_id":"","pricing_plan_id":"cebpf4jnsgd1na2vs0mg"},{"bike_id":"235e4433-937e-41f8-a4d6-6889c27bd8c1","system_id":"levelo_inurba_marseille","lat":43.31075,"lon":5.3835,"is_reserved":false,"is_disabled":false,"rental_uris":{"android":"levelo://app?vid=235e4433-937e-41f8-a4d6-6889c27bd8c1","ios":"levelo://app?vid=235e4433-937e-41f8-a4d6-6889c27bd8c1"},"vehicle_type_id":"4","last_reported":1733228353,"current_range_meters":24000,"station_id":"ce4bgv92rcd13ifvqcr0","pricing_plan_id":"cebpf4jnsgd1na2vs0mg"},{"bike_id":"bceda6dd-2b58-4768-a6c0-62ea3439e712","system_id":"levelo_inurba_marseille","lat":43.24175,"lon":5.39731,"is_reserved":false,"is_disabled":false,"rental_uris":{"android":"levelo://app?vid=bceda6dd-2b58-4768-a6c0-62ea3439e712","ios":"levelo://app?vid=bceda6dd-2b58-4768-a6c0-62ea3439e712"},"vehicle_type_id":"4","last_reported":1733228353,"current_range_meters":28000,"station_id":"ce4bhn12rcd13ifvqgpg","pricing_plan_id":"cebpf4jnsgd1na2vs0mg"},{"bike_id":"2cf65095-36e5-4949-abae-c54c2895d97b","system_id":"levelo_inurba_marseille","lat":43.32603,"lon":5.41373,"is_reserved":false,"is_disabled":true,"rental_uris":{"android":"levelo://app?vid=2cf65095-36e5-4949-abae-c54c2895d97b","ios":"levelo://app?vid=2cf65095-36e5-4949-abae-c54c2895d97b"},"vehicle_type_id":"4","last_reported":1733228353,"current_range_meters":0,"station_id":"","pricing_plan_id":"cebpf4jnsgd1na2vs0mg"},{"bike_id":"4e3855bb-d8fb-4736-926f-4a2e6331827d","system_id":"levelo_inurba_marseille","lat":43.30549,"lon":5.36529,"is_reserved":false,"is_disabled":false,"rental_uris":{"android":"levelo://app?vid=4e3855bb-d8fb-4736-926f-4a2e6331827d","ios":"levelo://app?vid=4e3855bb-d8fb-4736-926f-4a2e6331827d"},"vehicle_type_id":"4","last_reported":1733228353,"current_range_meters":36400,"station_id":"ce4bgs12rcd13ifvqcag","pricing_plan_id":"cebpf4jnsgd1na2vs0mg"},{"bike_id":"7eeb5ac6-a3ab-4724-a0d1-17bed7e385e6","system_id":"levelo_inurba_marseille","lat":43.27993,"lon":5.41659,"is_reserved":false,"is_disabled":true,"rental_uris":{"android":"levelo://app?vid=7eeb5ac6-a3ab-4724-a0d1-17bed7e385e6","ios":"levelo://app?vid=7eeb5ac6-a3ab-4724-a0d1-17bed7e385e6"},"vehicle_type_id":"4","last_reported":1733228353,"current_range_meters":30800,"station_id":"ce4bho12rcd13ifvqh1g","pricing_plan_id":"cebpf4jnsgd1na2vs0mg"},{"bike_id":"48f7fad5-9736-4854-ad66-3ac0235f4d2f","system_id":"levelo_inurba_marseille","lat":43.27051,"lon":5.40254,"is_reserved":false,"is_disabled":false,"rental_uris":{"android":"levelo://app?vid=48f7fad5-9736-4854-ad66-3ac0235f4d2f","ios":"levelo://app?vid=48f7fad5-9736-4854-ad66-3ac0235f4d2f"},"vehicle_type_id":"4","last_reported":1733228353,"current_range_meters":24400,"station_id":"ce4bhk92rcd13ifvqgc0","pricing_plan_id":"cebpf4jnsgd1na2vs0mg"},{"bike_id":"e7a16e2d-4d76-4047-97e2-25d55827c655","system_id":"levelo_inurba_marseille","lat":43.29618,"lon":5.37719,"is_reserved":false,"is_disabled":false,"rental_uris":{"android":"levelo://app?vid=e7a16e2d-4d76-4047-97e2-25d55827c655","ios":"levelo://app?vid=e7a16e2d-4d76-4047-97e2-25d55827c655"},"vehicle_type_id":"4","last_reported":1733228353,"current_range_meters":9200,"station_id":"ce4bgi92rcd13ifvqb90","pricing_plan_id":"cebpf4jnsgd1na2vs0mg"},{"bike_id":"1765576d-ad21-4bb0-85a8-4c7cde4f5294","system_id":"levelo_inurba_marseille","lat":43.29629,"lon":5.37146,"is_reserved":false,"is_disabled":true,"rental_uris":{"android":"levelo://app?vid=1765576d-ad21-4bb0-85a8-4c7cde4f5294","ios":"levelo://app?vid=1765576d-ad21-4bb0-85a8-4c7cde4f5294"},"vehicle_type_id":"4","last_reported":1733228353,"current_range_meters":6400,"station_id":"ce4bgnh2rcd13ifvqc0g","pricing_plan_id":"cebpf4jnsgd1na2vs0mg"},{"bike_id":"dcebfb52-5d37-43d9-9eb8-5ae0df9e0739","system_id":"levelo_inurba_marseille","lat":43.24538,"lon":5.39539,"is_reserved":false,"is_disabled":false,"rental_uris":{"android":"levelo://app?vid=dcebfb52-5d37-43d9-9eb8-5ae0df9e0739","ios":"levelo://app?vid=dcebfb52-5d37-43d9-9eb8-5ae0df9e0739"},"vehicle_type_id":"4","last_reported":1733228353,"current_range_meters":27600,"station_id":"ce4bhlp2rcd13ifvqgjg","pricing_plan_id":"cebpf4jnsgd1na2vs0mg"},{"bike_id":"7c3a53b3-8fc7-4177-95a8-33425acc6c06","system_id":"levelo_inurba_marseille","lat":43.28724,"lon":5.36104,"is_reserved":false,"is_disabled":false,"rental_uris":{"android":"levelo://app?vid=7c3a53b3-8fc7-4177-95a8-33425acc6c06","ios":"levelo://app?vid=7c3a53b3-8fc7-4177-95a8-33425acc6c06"},"vehicle_type_id":"4","last_reported":1733228353,"current_range_meters":10000,"station_id":"cki0cbj6b192h4jlfktg","pricing_plan_id":"cebpf4jnsgd1na2vs0mg"},{"bike_id":"8dbc495a-3278-4e61-8c53-9289dd18982d","system_id":"levelo_inurba_marseille","lat":43.2511,"lon":5.40326,"is_reserved":false,"is_disabled":false,"rental_uris":{"android":"levelo://app?vid=8dbc495a-3278-4e61-8c53-9289dd18982d","ios":"levelo://app?vid=8dbc495a-3278-4e61-8c53-9289dd18982d"},"vehicle_type_id":"4","last_reported":1733228353,"current_range_meters":38800,"station_id":"ce4bhlh2rcd13ifvqgig","pricing_plan_id":"cebpf4jnsgd1na2vs0mg"},{"bike_id":"c2327780-c202-4d47-895a-50a8b2b41f2a","system_id":"levelo_inurba_marseille","lat":43.30951,"lon":5.39027,"is_reserved":false,"is_disabled":false,"rental_uris":{"android":"levelo://app?vid=c2327780-c202-4d47-895a-50a8b2b41f2a","ios":"levelo://app?vid=c2327780-c202-4d47-895a-50a8b2b41f2a"},"vehicle_type_id":"4","last_reported":1733228353,"current_range_meters":24800,"station_id":"ce4bgup2rcd13ifvqco0","pricing_plan_id":"cebpf4jnsgd1na2vs0mg"},{"bike_id":"d295c728-7f23-4f02-adbd-d7afb218c0a3","system_id":"levelo_inurba_marseille","lat":43.30089,"lon":5.39093,"is_reserved":false,"is_disabled":false,"rental_uris":{"android":"levelo://app?vid=d295c728-7f23-4f02-adbd-d7afb218c0a3","ios":"levelo://app?vid=d295c728-7f23-4f02-adbd-d7afb218c0a3"},"vehicle_type_id":"4","last_reported":1733228353,"current_range_meters":38800,"station_id":"ce4bh192rcd13ifvqdb0","pricing_plan_id":"cebpf4jnsgd1na2vs0mg"},{"bike_id":"922c5544-e3bd-4d10-a747-bfef96b5581b","system_id":"levelo_inurba_marseille","lat":43.29514,"lon":5.39038,"is_reserved":false,"is_disabled":true,"rental_uris":{"android":"levelo://app?vid=922c5544-e3bd-4d10-a747-bfef96b5581b","ios":"levelo://app?vid=922c5544-e3bd-4d10-a747-bfef96b5581b"},"vehicle_type_id":"4","last_reported":1733228353,"current_range_meters":25200,"station_id":"ce4bh3p2rcd13ifvqdp0","pricing_plan_id":"cebpf4jnsgd1na2vs0mg"},{"bike_id":"7698aeae-9269-41f7-824a-276aec206ec6","system_id":"levelo_inurba_marseille","lat":43.33719,"lon":5.39174,"is_reserved":false,"is_disabled":false,"rental_uris":{"android":"levelo://app?vid=7698aeae-9269-41f7-824a-276aec206ec6","ios":"levelo://app?vid=7698aeae-9269-41f7-824a-276aec206ec6"},"vehicle_type_id":"4","last_reported":1733228353,"current_range_meters":36000,"station_id":"ce4bhr92rcd13ifvqhsg","pricing_plan_id":"cebpf4jnsgd1na2vs0mg"},{"bike_id":"1dc70cdf-4f74-41af-9e95-77502d50e11a","system_id":"levelo_inurba_marseille","lat":43.30412,"lon":5.41287,"is_reserved":false,"is_disabled":true,"rental_uris":{"android":"levelo://app?vid=1dc70cdf-4f74-41af-9e95-77502d50e11a","ios":"levelo://app?vid=1dc70cdf-4f74-41af-9e95-77502d50e11a"},"vehicle_type_id":"4","last_reported":1733228353,"current_range_meters":18000,"station_id":"ce4bhop2rcd13ifvqh8g","pricing_plan_id":"cebpf4jnsgd1na2vs0mg"},{"bike_id":"493af9ec-780a-44a3-be54-8ea9bc9b1958","system_id":"levelo_inurba_marseille","lat":43.30139,"lon":5.37416,"is_reserved":false,"is_disabled":false,"rental_uris":{"android":"levelo://app?vid=493af9ec-780a-44a3-be54-8ea9bc9b1958","ios":"levelo://app?vid=493af9ec-780a-44a3-be54-8ea9bc9b1958"},"vehicle_type_id":"4","last_reported":1733228353,"current_range_meters":32800,"station_id":"ce4bgs92rcd13ifvqcc0","pricing_plan_id":"cebpf4jnsgd1na2vs0mg"},{"bike_id":"f13481b6-d4d4-4eb7-a9b7-1bd3f71627d0","system_id":"levelo_inurba_marseille","lat":43.26198,"lon":5.37933,"is_reserved":false,"is_disabled":false,"rental_uris":{"android":"levelo://app?vid=f13481b6-d4d4-4eb7-a9b7-1bd3f71627d0","ios":"levelo://app?vid=f13481b6-d4d4-4eb7-a9b7-1bd3f71627d0"},"vehicle_type_id":"4","last_reported":1733228353,"current_range_meters":26800,"station_id":"ce4bhjp2rcd13ifvqg90","pricing_plan_id":"cebpf4jnsgd1na2vs0mg"},{"bike_id":"a8470222-8fc2-465c-8f1d-616d899efbab","system_id":"levelo_inurba_marseille","lat":43.25939,"lon":5.40907,"is_reserved":false,"is_disabled":false,"rental_uris":{"android":"levelo://app?vid=a8470222-8fc2-465c-8f1d-616d899efbab","ios":"levelo://app?vid=a8470222-8fc2-465c-8f1d-616d899efbab"},"vehicle_type_id":"4","last_reported":1733228353,"current_range_meters":28400,"station_id":"ce4bhm92rcd13ifvqglg","pricing_plan_id":"cebpf4jnsgd1na2vs0mg"},{"bike_id":"05e27a0f-f1bf-4f00-a2f1-ab19d9038bd5","system_id":"levelo_inurba_marseille","lat":43.2998,"lon":5.38492,"is_reserved":false,"is_disabled":false,"rental_uris":{"android":"levelo://app?vid=05e27a0f-f1bf-4f00-a2f1-ab19d9038bd5","ios":"levelo://app?vid=05e27a0f-f1bf-4f00-a2f1-ab19d9038bd5"},"vehicle_type_id":"4","last_reported":1733228353,"current_range_meters":24400,"station_id":"ce4bgj92rcd13ifvqbd0","pricing_plan_id":"cebpf4jnsgd1na2vs0mg"},{"bike_id":"6be34e8d-e6a4-4244-912f-4a919c181796","system_id":"levelo_inurba_marseille","lat":43.32536,"lon":5.4144,"is_reserved":false,"is_disabled":true,"rental_uris":{"android":"levelo://app?vid=6be34e8d-e6a4-4244-912f-4a919c181796","ios":"levelo://app?vid=6be34e8d-e6a4-4244-912f-4a919c181796"},"vehicle_type_id":"4","last_reported":1733228353,"current_range_meters":400,"station_id":"ce4bhq12rcd13ifvqhhg","pricing_plan_id":"cebpf4jnsgd1na2vs0mg"},{"bike_id":"79c8ea6d-5102-4a1e-b941-afdabc095945","system_id":"levelo_inurba_marseille","lat":43.29074,"lon":5.38353,"is_reserved":false,"is_disabled":true,"rental_uris":{"android":"levelo://app?vid=79c8ea6d-5102-4a1e-b941-afdabc095945","ios":"levelo://app?vid=79c8ea6d-5102-4a1e-b941-afdabc095945"},"vehicle_type_id":"4","last_reported":1733228353,"current_range_meters":25200,"station_id":"","pricing_plan_id":"cebpf4jnsgd1na2vs0mg"},{"bike_id":"d85fe9b9-a328-4c45-85c9-2ca7bf4076d8","system_id":"levelo_inurba_marseille","lat":43.3248,"lon":5.36566,"is_reserved":false,"is_disabled":false,"rental_uris":{"android":"levelo://app?vid=d85fe9b9-a328-4c45-85c9-2ca7bf4076d8","ios":"levelo://app?vid=d85fe9b9-a328-4c45-85c9-2ca7bf4076d8"},"vehicle_type_id":"4","last_reported":1733228353,"current_range_meters":32400,"station_id":"ce4bhs12rcd13ifvqhvg","pricing_plan_id":"cebpf4jnsgd1na2vs0mg"},{"bike_id":"b107272f-c42e-49e8-90dc-465fffb7a287","system_id":"levelo_inurba_marseille","lat":43.25107,"lon":5.40317,"is_reserved":false,"is_disabled":false,"rental_uris":{"android":"levelo://app?vid=b107272f-c42e-49e8-90dc-465fffb7a287","ios":"levelo://app?vid=b107272f-c42e-49e8-90dc-465fffb7a287"},"vehicle_type_id":"4","last_reported":1733228353,"current_range_meters":16000,"station_id":"ce4bhlh2rcd13ifvqgig","pricing_plan_id":"cebpf4jnsgd1na2vs0mg"},{"bike_id":"6a251842-a891-40c7-849d-ee8431730983","system_id":"levelo_inurba_marseille","lat":43.28953,"lon":5.3638,"is_reserved":false,"is_disabled":false,"rental_uris":{"android":"levelo://app?vid=6a251842-a891-40c7-849d-ee8431730983","ios":"levelo://app?vid=6a251842-a891-40c7-849d-ee8431730983"},"vehicle_type_id":"4","last_reported":1733228353,"current_range_meters":35200,"station_id":"ce4bhc92rcd13ifvqetg","pricing_plan_id":"cebpf4jnsgd1na2vs0mg"},{"bike_id":"d337693b-82b2-4f65-ad74-9a2472a5f9cd","system_id":"levelo_inurba_marseille","lat":43.2979,"lon":5.38119,"is_reserved":false,"is_disabled":true,"rental_uris":{"android":"levelo://app?vid=d337693b-82b2-4f65-ad74-9a2472a5f9cd","ios":"levelo://app?vid=d337693b-82b2-4f65-ad74-9a2472a5f9cd"},"vehicle_type_id":"4","last_reported":1733228353,"current_range_meters":36000,"station_id":"ce4bgip2rcd13ifvqbb0","pricing_plan_id":"cebpf4jnsgd1na2vs0mg"},{"bike_id":"235df27a-80c0-4b9c-bd37-4ee6ba82a995","system_id":"levelo_inurba_marseille","lat":43.28672,"lon":5.36353,"is_reserved":false,"is_disabled":false,"rental_uris":{"android":"levelo://app?vid=235df27a-80c0-4b9c-bd37-4ee6ba82a995","ios":"levelo://app?vid=235df27a-80c0-4b9c-bd37-4ee6ba82a995"},"vehicle_type_id":"4","last_reported":1733228353,"current_range_meters":16400,"station_id":"ce4bhah2rcd13ifvqej0","pricing_plan_id":"cebpf4jnsgd1na2vs0mg"},{"bike_id":"427d7497-fe79-4531-b7d6-69d2614ceec1","system_id":"levelo_inurba_marseille","lat":43.29175,"lon":5.38496,"is_reserved":false,"is_disabled":true,"rental_uris":{"android":"levelo://app?vid=427d7497-fe79-4531-b7d6-69d2614ceec1","ios":"levelo://app?vid=427d7497-fe79-4531-b7d6-69d2614ceec1"},"vehicle_type_id":"4","last_reported":1733228353,"current_range_meters":9200,"station_id":"","pricing_plan_id":"cebpf4jnsgd1na2vs0mg"},{"bike_id":"8fe55c2d-7384-438a-a0b6-fefb37ed3c90","system_id":"levelo_inurba_marseille","lat":43.28462,"lon":5.3589,"is_reserved":false,"is_disabled":false,"rental_uris":{"android":"levelo://app?vid=8fe55c2d-7384-438a-a0b6-fefb37ed3c90","ios":"levelo://app?vid=8fe55c2d-7384-438a-a0b6-fefb37ed3c90"},"vehicle_type_id":"4","last_reported":1733228353,"current_range_meters":39200,"station_id":"ce4bhah2rcd13ifvqei0","pricing_plan_id":"cebpf4jnsgd1na2vs0mg"},{"bike_id":"daa64a8d-65e1-48f3-89e8-4d94f47a6133","system_id":"levelo_inurba_marseille","lat":43.305323,"lon":5.365316,"is_reserved":false,"is_disabled":false,"rental_uris":{"android":"levelo://app?vid=daa64a8d-65e1-48f3-89e8-4d94f47a6133","ios":"levelo://app?vid=daa64a8d-65e1-48f3-89e8-4d94f47a6133"},"vehicle_type_id":"4","last_reported":1733228353,"current_range_meters":38800,"station_id":"ce4bgs12rcd13ifvqcag","pricing_plan_id":"cebpf4jnsgd1na2vs0mg"},{"bike_id":"a4b9e425-64b8-4ce2-a5ab-5fcc5d1230a4","system_id":"levelo_inurba_marseille","lat":43.32106,"lon":5.36779,"is_reserved":false,"is_disabled":false,"rental_uris":{"android":"levelo://app?vid=a4b9e425-64b8-4ce2-a5ab-5fcc5d1230a4","ios":"levelo://app?vid=a4b9e425-64b8-4ce2-a5ab-5fcc5d1230a4"},"vehicle_type_id":"4","last_reported":1733228353,"current_range_meters":10800,"station_id":"ce4bhrh2rcd13ifvqhug","pricing_plan_id":"cebpf4jnsgd1na2vs0mg"},{"bike_id":"f8a55f19-35f4-4de0-81dc-d179624ad447","system_id":"levelo_inurba_marseille","lat":43.24807,"lon":5.37459,"is_reserved":false,"is_disabled":false,"rental_uris":{"android":"levelo://app?vid=f8a55f19-35f4-4de0-81dc-d179624ad447","ios":"levelo://app?vid=f8a55f19-35f4-4de0-81dc-d179624ad447"},"vehicle_type_id":"4","last_reported":1733228353,"current_range_meters":10800,"station_id":"ce4bhgh2rcd13ifvqfb0","pricing_plan_id":"cebpf4jnsgd1na2vs0mg"},{"bike_id":"b2bc1728-46a3-400e-bd39-12c204f62d20","system_id":"levelo_inurba_marseille","lat":43.26942,"lon":5.40242,"is_reserved":false,"is_disabled":true,"rental_uris":{"android":"levelo://app?vid=b2bc1728-46a3-400e-bd39-12c204f62d20","ios":"levelo://app?vid=b2bc1728-46a3-400e-bd39-12c204f62d20"},"vehicle_type_id":"4","last_reported":1733228353,"current_range_meters":27200,"station_id":"cjm6bp8fraef2m0cb0m0","pricing_plan_id":"cebpf4jnsgd1na2vs0mg"},{"bike_id":"b1e6b49b-359d-4791-b1ed-8e1b7d5c7a6e","system_id":"levelo_inurba_marseille","lat":43.28,"lon":5.40003,"is_reserved":false,"is_disabled":false,"rental_uris":{"android":"levelo://app?vid=b1e6b49b-359d-4791-b1ed-8e1b7d5c7a6e","ios":"levelo://app?vid=b1e6b49b-359d-4791-b1ed-8e1b7d5c7a6e"},"vehicle_type_id":"4","last_reported":1733228353,"current_range_meters":10800,"station_id":"ce4bho92rcd13ifvqh4g","pricing_plan_id":"cebpf4jnsgd1na2vs0mg"},{"bike_id":"cf411c2a-cc80-4aeb-9c99-a3d88fef5d8f","system_id":"levelo_inurba_marseille","lat":43.29611,"lon":5.37717,"is_reserved":false,"is_disabled":true,"rental_uris":{"android":"levelo://app?vid=cf411c2a-cc80-4aeb-9c99-a3d88fef5d8f","ios":"levelo://app?vid=cf411c2a-cc80-4aeb-9c99-a3d88fef5d8f"},"vehicle_type_id":"4","last_reported":1733228353,"current_range_meters":9200,"station_id":"","pricing_plan_id":"cebpf4jnsgd1na2vs0mg"},{"bike_id":"7885831c-352b-4fa0-867f-571183fe24f4","system_id":"levelo_inurba_marseille","lat":43.33022,"lon":5.39046,"is_reserved":false,"is_disabled":false,"rental_uris":{"android":"levelo://app?vid=7885831c-352b-4fa0-867f-571183fe24f4","ios":"levelo://app?vid=7885831c-352b-4fa0-867f-571183fe24f4"},"vehicle_type_id":"4","last_reported":1733228353,"current_range_meters":22000,"station_id":"ce4bhr92rcd13ifvqhrg","pricing_plan_id":"cebpf4jnsgd1na2vs0mg"},{"bike_id":"027237e3-7331-49d2-98d0-38aee47caa3e","system_id":"levelo_inurba_marseille","lat":43.26933,"lon":5.38914,"is_reserved":false,"is_disabled":false,"rental_uris":{"android":"levelo://app?vid=027237e3-7331-49d2-98d0-38aee47caa3e","ios":"levelo://app?vid=027237e3-7331-49d2-98d0-38aee47caa3e"},"vehicle_type_id":"4","last_reported":1733228353,"current_range_meters":8000,"station_id":"ce4bhhh2rcd13ifvqfl0","pricing_plan_id":"cebpf4jnsgd1na2vs0mg"},{"bike_id":"11744467-450c-46ed-abf6-d52a26a54042","system_id":"levelo_inurba_marseille","lat":43.28935,"lon":5.36386,"is_reserved":false,"is_disabled":false,"rental_uris":{"android":"levelo://app?vid=11744467-450c-46ed-abf6-d52a26a54042","ios":"levelo://app?vid=11744467-450c-46ed-abf6-d52a26a54042"},"vehicle_type_id":"4","last_reported":1733228353,"current_range_meters":38800,"station_id":"ce4bhc92rcd13ifvqetg","pricing_plan_id":"cebpf4jnsgd1na2vs0mg"},{"bike_id":"d964f6b0-8387-40a1-865c-47c085075252","system_id":"levelo_inurba_marseille","lat":43.29024,"lon":5.38133,"is_reserved":false,"is_disabled":false,"rental_uris":{"android":"levelo://app?vid=d964f6b0-8387-40a1-865c-47c085075252","ios":"levelo://app?vid=d964f6b0-8387-40a1-865c-47c085075252"},"vehicle_type_id":"4","last_reported":1733228353,"current_range_meters":38400,"station_id":"ce4bh4p2rcd13ifvqe1g","pricing_plan_id":"cebpf4jnsgd1na2vs0mg"},{"bike_id":"1f705920-1902-480f-838e-dcfc3df08a4c","system_id":"levelo_inurba_marseille","lat":43.26803,"lon":5.40267,"is_reserved":false,"is_disabled":false,"rental_uris":{"android":"levelo://app?vid=1f705920-1902-480f-838e-dcfc3df08a4c","ios":"levelo://app?vid=1f705920-1902-480f-838e-dcfc3df08a4c"},"vehicle_type_id":"4","last_reported":1733228353,"current_range_meters":35600,"station_id":"ce501612rcd8frsf0b60","pricing_plan_id":"cebpf4jnsgd1na2vs0mg"},{"bike_id":"c96b39bd-6dab-4193-bf7d-5a2c776c8b8f","system_id":"levelo_inurba_marseille","lat":43.32486,"lon":5.36581,"is_reserved":false,"is_disabled":false,"rental_uris":{"android":"levelo://app?vid=c96b39bd-6dab-4193-bf7d-5a2c776c8b8f","ios":"levelo://app?vid=c96b39bd-6dab-4193-bf7d-5a2c776c8b8f"},"vehicle_type_id":"4","last_reported":1733228353,"current_range_meters":38800,"station_id":"ce4bhs12rcd13ifvqhvg","pricing_plan_id":"cebpf4jnsgd1na2vs0mg"},{"bike_id":"f4af382a-5363-4221-874b-b6fb29128c7b","system_id":"levelo_inurba_marseille","lat":43.29416,"lon":5.38624,"is_reserved":false,"is_disabled":true,"rental_uris":{"android":"levelo://app?vid=f4af382a-5363-4221-874b-b6fb29128c7b","ios":"levelo://app?vid=f4af382a-5363-4221-874b-b6fb29128c7b"},"vehicle_type_id":"4","last_reported":1733228353,"current_range_meters":0,"station_id":"ce4bh2h2rcd13ifvqdh0","pricing_plan_id":"cebpf4jnsgd1na2vs0mg"},{"bike_id":"a111a6cd-4af3-4fd0-a2de-0037d38b47f9","system_id":"levelo_inurba_marseille","lat":43.29842,"lon":5.36269,"is_reserved":false,"is_disabled":false,"rental_uris":{"android":"levelo://app?vid=a111a6cd-4af3-4fd0-a2de-0037d38b47f9","ios":"levelo://app?vid=a111a6cd-4af3-4fd0-a2de-0037d38b47f9"},"vehicle_type_id":"4","last_reported":1733228353,"current_range_meters":22000,"station_id":"ce4bgpp2rcd13ifvqc3g","pricing_plan_id":"cebpf4jnsgd1na2vs0mg"},{"bike_id":"b5a03233-d31f-4598-84c4-07d6d6043f52","system_id":"levelo_inurba_marseille","lat":43.2816,"lon":5.4264,"is_reserved":false,"is_disabled":false,"rental_uris":{"android":"levelo://app?vid=b5a03233-d31f-4598-84c4-07d6d6043f52","ios":"levelo://app?vid=b5a03233-d31f-4598-84c4-07d6d6043f52"},"vehicle_type_id":"4","last_reported":1733228353,"current_range_meters":36400,"station_id":"ce4bhnh2rcd13ifvqgug","pricing_plan_id":"cebpf4jnsgd1na2vs0mg"},{"bike_id":"7761e411-5b41-4d4c-b3c3-a07e983b78ed","system_id":"levelo_inurba_marseille","lat":43.3148,"lon":5.37312,"is_reserved":false,"is_disabled":false,"rental_uris":{"android":"levelo://app?vid=7761e411-5b41-4d4c-b3c3-a07e983b78ed","ios":"levelo://app?vid=7761e411-5b41-4d4c-b3c3-a07e983b78ed"},"vehicle_type_id":"4","last_reported":1733228353,"current_range_meters":8400,"station_id":"ce4bgt12rcd13ifvqcd0","pricing_plan_id":"cebpf4jnsgd1na2vs0mg"},{"bike_id":"5e160b8e-5c83-4423-b051-bd2cf577003d","system_id":"levelo_inurba_marseille","lat":43.23198,"lon":5.3555,"is_reserved":false,"is_disabled":false,"rental_uris":{"android":"levelo://app?vid=5e160b8e-5c83-4423-b051-bd2cf577003d","ios":"levelo://app?vid=5e160b8e-5c83-4423-b051-bd2cf577003d"},"vehicle_type_id":"4","last_reported":1733228353,"current_range_meters":39200,"station_id":"ce4bhu92rcd13ifvqi70","pricing_plan_id":"cebpf4jnsgd1na2vs0mg"},{"bike_id":"322cf6fe-0822-422b-95a4-35c4bd952f62","system_id":"levelo_inurba_marseille","lat":43.27178,"lon":5.4099,"is_reserved":false,"is_disabled":false,"rental_uris":{"android":"levelo://app?vid=322cf6fe-0822-422b-95a4-35c4bd952f62","ios":"levelo://app?vid=322cf6fe-0822-422b-95a4-35c4bd952f62"},"vehicle_type_id":"4","last_reported":1733228353,"current_range_meters":24800,"station_id":"ce4bhl12rcd13ifvqgf0","pricing_plan_id":"cebpf4jnsgd1na2vs0mg"},{"bike_id":"4fe01c68-e63d-4c1f-9999-9a60626db30d","system_id":"levelo_inurba_marseille","lat":43.29027,"lon":5.38136,"is_reserved":false,"is_disabled":true,"rental_uris":{"android":"levelo://app?vid=4fe01c68-e63d-4c1f-9999-9a60626db30d","ios":"levelo://app?vid=4fe01c68-e63d-4c1f-9999-9a60626db30d"},"vehicle_type_id":"4","last_reported":1733228353,"current_range_meters":38800,"station_id":"ce4bh4p2rcd13ifvqe1g","pricing_plan_id":"cebpf4jnsgd1na2vs0mg"},{"bike_id":"7707ba29-5b91-4931-aa98-df59c8261c4e","system_id":"levelo_inurba_marseille","lat":43.32663,"lon":5.4099,"is_reserved":false,"is_disabled":false,"rental_uris":{"android":"levelo://app?vid=7707ba29-5b91-4931-aa98-df59c8261c4e","ios":"levelo://app?vid=7707ba29-5b91-4931-aa98-df59c8261c4e"},"vehicle_type_id":"4","last_reported":1733228353,"current_range_meters":25600,"station_id":"ce4bhpp2rcd13ifvqhgg","pricing_plan_id":"cebpf4jnsgd1na2vs0mg"},{"bike_id":"0ecfd779-5539-47af-aacd-2f9643bc2006","system_id":"levelo_inurba_marseille","lat":43.30156,"lon":5.38078,"is_reserved":false,"is_disabled":false,"rental_uris":{"android":"levelo://app?vid=0ecfd779-5539-47af-aacd-2f9643bc2006","ios":"levelo://app?vid=0ecfd779-5539-47af-aacd-2f9643bc2006"},"vehicle_type_id":"4","last_reported":1733228353,"current_range_meters":29600,"station_id":"ce4bgjp2rcd13ifvqbh0","pricing_plan_id":"cebpf4jnsgd1na2vs0mg"},{"bike_id":"6cbae373-2d43-47f4-8be6-ac2a76d211c2","system_id":"levelo_inurba_marseille","lat":43.32654,"lon":5.41003,"is_reserved":false,"is_disabled":false,"rental_uris":{"android":"levelo://app?vid=6cbae373-2d43-47f4-8be6-ac2a76d211c2","ios":"levelo://app?vid=6cbae373-2d43-47f4-8be6-ac2a76d211c2"},"vehicle_type_id":"4","last_reported":1733228353,"current_range_meters":24000,"station_id":"ce4bhpp2rcd13ifvqhgg","pricing_plan_id":"cebpf4jnsgd1na2vs0mg"},{"bike_id":"632b4e11-5677-4370-9d67-9f0551548161","system_id":"levelo_inurba_marseille","lat":43.24804,"lon":5.3745,"is_reserved":false,"is_disabled":false,"rental_uris":{"android":"levelo://app?vid=632b4e11-5677-4370-9d67-9f0551548161","ios":"levelo://app?vid=632b4e11-5677-4370-9d67-9f0551548161"},"vehicle_type_id":"4","last_reported":1733228353,"current_range_meters":36000,"station_id":"ce4bhgh2rcd13ifvqfb0","pricing_plan_id":"cebpf4jnsgd1na2vs0mg"},{"bike_id":"a5ec52a0-fc7c-4022-8b79-b922e907dca7","system_id":"levelo_inurba_marseille","lat":43.29791,"lon":5.37104,"is_reserved":false,"is_disabled":false,"rental_uris":{"android":"levelo://app?vid=a5ec52a0-fc7c-4022-8b79-b922e907dca7","ios":"levelo://app?vid=a5ec52a0-fc7c-4022-8b79-b922e907dca7"},"vehicle_type_id":"4","last_reported":1733228353,"current_range_meters":38400,"station_id":"ce4bgop2rcd13ifvqc1g","pricing_plan_id":"cebpf4jnsgd1na2vs0mg"},{"bike_id":"da5aa3eb-3586-404d-89e2-44ff032b3acb","system_id":"levelo_inurba_marseille","lat":43.30546,"lon":5.36699,"is_reserved":false,"is_disabled":false,"rental_uris":{"android":"levelo://app?vid=da5aa3eb-3586-404d-89e2-44ff032b3acb","ios":"levelo://app?vid=da5aa3eb-3586-404d-89e2-44ff032b3acb"},"vehicle_type_id":"4","last_reported":1733228353,"current_range_meters":38800,"station_id":"ce4bgrp2rcd13ifvqc9g","pricing_plan_id":"cebpf4jnsgd1na2vs0mg"},{"bike_id":"3a3fd80a-cb87-4b2c-98bc-7143256e551e","system_id":"levelo_inurba_marseille","lat":43.27813,"lon":5.40715,"is_reserved":false,"is_disabled":false,"rental_uris":{"android":"levelo://app?vid=3a3fd80a-cb87-4b2c-98bc-7143256e551e","ios":"levelo://app?vid=3a3fd80a-cb87-4b2c-98bc-7143256e551e"},"vehicle_type_id":"4","last_reported":1733228353,"current_range_meters":34800,"station_id":"ce4bhnh2rcd13ifvqgtg","pricing_plan_id":"cebpf4jnsgd1na2vs0mg"},{"bike_id":"e63aa962-a242-44bd-8328-31cf6c0d9d3d","system_id":"levelo_inurba_marseille","lat":43.29304,"lon":5.37186,"is_reserved":false,"is_disabled":true,"rental_uris":{"android":"levelo://app?vid=e63aa962-a242-44bd-8328-31cf6c0d9d3d","ios":"levelo://app?vid=e63aa962-a242-44bd-8328-31cf6c0d9d3d"},"vehicle_type_id":"4","last_reported":1733228353,"current_range_meters":0,"station_id":"ce4bgh92rcd13ifvqb40","pricing_plan_id":"cebpf4jnsgd1na2vs0mg"},{"bike_id":"f8bcc820-9a1c-492a-9f26-6a6b26934b17","system_id":"levelo_inurba_marseille","lat":43.28616,"lon":5.37066,"is_reserved":false,"is_disabled":true,"rental_uris":{"android":"levelo://app?vid=f8bcc820-9a1c-492a-9f26-6a6b26934b17","ios":"levelo://app?vid=f8bcc820-9a1c-492a-9f26-6a6b26934b17"},"vehicle_type_id":"4","last_reported":1733228353,"current_range_meters":0,"station_id":"ce4bht12rcd13ifvqi60","pricing_plan_id":"cebpf4jnsgd1na2vs0mg"},{"bike_id":"8270202d-4d45-457f-b385-42f0ff5378cd","system_id":"levelo_inurba_marseille","lat":43.291,"lon":5.38144,"is_reserved":false,"is_disabled":false,"rental_uris":{"android":"levelo://app?vid=8270202d-4d45-457f-b385-42f0ff5378cd","ios":"levelo://app?vid=8270202d-4d45-457f-b385-42f0ff5378cd"},"vehicle_type_id":"4","last_reported":1733228353,"current_range_meters":28000,"station_id":"ce4bh512rcd13ifvqe2g","pricing_plan_id":"cebpf4jnsgd1na2vs0mg"},{"bike_id":"5cb1fbce-7f81-45f4-8698-0eaa408f80a5","system_id":"levelo_inurba_marseille","lat":43.28,"lon":5.41663,"is_reserved":false,"is_disabled":false,"rental_uris":{"android":"levelo://app?vid=5cb1fbce-7f81-45f4-8698-0eaa408f80a5","ios":"levelo://app?vid=5cb1fbce-7f81-45f4-8698-0eaa408f80a5"},"vehicle_type_id":"4","last_reported":1733228353,"current_range_meters":38800,"station_id":"ce4bho12rcd13ifvqh1g","pricing_plan_id":"cebpf4jnsgd1na2vs0mg"},{"bike_id":"897ac26a-4be0-4611-ac6d-8aaca22f84ba","system_id":"levelo_inurba_marseille","lat":43.29983,"lon":5.38493,"is_reserved":false,"is_disabled":false,"rental_uris":{"android":"levelo://app?vid=897ac26a-4be0-4611-ac6d-8aaca22f84ba","ios":"levelo://app?vid=897ac26a-4be0-4611-ac6d-8aaca22f84ba"},"vehicle_type_id":"4","last_reported":1733228353,"current_range_meters":3600,"station_id":"ce4bgj92rcd13ifvqbd0","pricing_plan_id":"cebpf4jnsgd1na2vs0mg"},{"bike_id":"3a9149f3-357c-4d0a-859b-18382ef024a5","system_id":"levelo_inurba_marseille","lat":43.32112,"lon":5.36775,"is_reserved":false,"is_disabled":false,"rental_uris":{"android":"levelo://app?vid=3a9149f3-357c-4d0a-859b-18382ef024a5","ios":"levelo://app?vid=3a9149f3-357c-4d0a-859b-18382ef024a5"},"vehicle_type_id":"4","last_reported":1733228353,"current_range_meters":32400,"station_id":"ce4bhrh2rcd13ifvqhug","pricing_plan_id":"cebpf4jnsgd1na2vs0mg"},{"bike_id":"7162aa44-86d7-4628-93e4-c9d3f5365eb9","system_id":"levelo_inurba_marseille","lat":43.30251,"lon":5.40069,"is_reserved":false,"is_disabled":false,"rental_uris":{"android":"levelo://app?vid=7162aa44-86d7-4628-93e4-c9d3f5365eb9","ios":"levelo://app?vid=7162aa44-86d7-4628-93e4-c9d3f5365eb9"},"vehicle_type_id":"4","last_reported":1733228353,"current_range_meters":38800,"station_id":"ce4bgvh2rcd13ifvqcs0","pricing_plan_id":"cebpf4jnsgd1na2vs0mg"},{"bike_id":"b0357120-4b57-4577-8e1a-920f146f9e31","system_id":"levelo_inurba_marseille","lat":43.284,"lon":5.37517,"is_reserved":false,"is_disabled":false,"rental_uris":{"android":"levelo://app?vid=b0357120-4b57-4577-8e1a-920f146f9e31","ios":"levelo://app?vid=b0357120-4b57-4577-8e1a-920f146f9e31"},"vehicle_type_id":"4","last_reported":1733228353,"current_range_meters":36800,"station_id":"ce4bh412rcd13ifvqds0","pricing_plan_id":"cebpf4jnsgd1na2vs0mg"},{"bike_id":"7dee9132-6637-43fe-9ae6-b4021faf0bd3","system_id":"levelo_inurba_marseille","lat":43.29372,"lon":5.37854,"is_reserved":false,"is_disabled":false,"rental_uris":{"android":"levelo://app?vid=7dee9132-6637-43fe-9ae6-b4021faf0bd3","ios":"levelo://app?vid=7dee9132-6637-43fe-9ae6-b4021faf0bd3"},"vehicle_type_id":"4","last_reported":1733228353,"current_range_meters":25200,"station_id":"ce4bgjh2rcd13ifvqbf0","pricing_plan_id":"cebpf4jnsgd1na2vs0mg"},{"bike_id":"da6a7a1d-e653-4950-af8c-8137b06f7d40","system_id":"levelo_inurba_marseille","lat":43.3004,"lon":5.37551,"is_reserved":false,"is_disabled":true,"rental_uris":{"android":"levelo://app?vid=da6a7a1d-e653-4950-af8c-8137b06f7d40","ios":"levelo://app?vid=da6a7a1d-e653-4950-af8c-8137b06f7d40"},"vehicle_type_id":"4","last_reported":1733228353,"current_range_meters":0,"station_id":"","pricing_plan_id":"cebpf4jnsgd1na2vs0mg"},{"bike_id":"6fa219e0-9f23-47e4-aca4-88e49fc228ce","system_id":"levelo_inurba_marseille","lat":43.31361,"lon":5.38356,"is_reserved":false,"is_disabled":false,"rental_uris":{"android":"levelo://app?vid=6fa219e0-9f23-47e4-aca4-88e49fc228ce","ios":"levelo://app?vid=6fa219e0-9f23-47e4-aca4-88e49fc228ce"},"vehicle_type_id":"4","last_reported":1733228353,"current_range_meters":4800,"station_id":"","pricing_plan_id":"cebpf4jnsgd1na2vs0mg"},{"bike_id":"84b70298-b809-4da6-ad8d-fdd37302eae8","system_id":"levelo_inurba_marseille","lat":43.29367,"lon":5.37834,"is_reserved":false,"is_disabled":false,"rental_uris":{"android":"levelo://app?vid=84b70298-b809-4da6-ad8d-fdd37302eae8","ios":"levelo://app?vid=84b70298-b809-4da6-ad8d-fdd37302eae8"},"vehicle_type_id":"4","last_reported":1733228353,"current_range_meters":20400,"station_id":"ce4bgjh2rcd13ifvqbf0","pricing_plan_id":"cebpf4jnsgd1na2vs0mg"},{"bike_id":"e6bbbf53-985a-487e-a0c4-ee284d44b44d","system_id":"levelo_inurba_marseille","lat":43.28858,"lon":5.39322,"is_reserved":false,"is_disabled":true,"rental_uris":{"android":"levelo://app?vid=e6bbbf53-985a-487e-a0c4-ee284d44b44d","ios":"levelo://app?vid=e6bbbf53-985a-487e-a0c4-ee284d44b44d"},"vehicle_type_id":"4","last_reported":1733228353,"current_range_meters":30400,"station_id":"ce4bh2p2rcd13ifvqdi0","pricing_plan_id":"cebpf4jnsgd1na2vs0mg"},{"bike_id":"a8fb378a-c602-4c18-afa4-0f1d6563be33","system_id":"levelo_inurba_marseille","lat":43.2895,"lon":5.36403,"is_reserved":false,"is_disabled":false,"rental_uris":{"android":"levelo://app?vid=a8fb378a-c602-4c18-afa4-0f1d6563be33","ios":"levelo://app?vid=a8fb378a-c602-4c18-afa4-0f1d6563be33"},"vehicle_type_id":"4","last_reported":1733228353,"current_range_meters":37600,"station_id":"ce4bhc92rcd13ifvqetg","pricing_plan_id":"cebpf4jnsgd1na2vs0mg"},{"bike_id":"acab11c7-676b-4fcd-bf03-f3c84a114b96","system_id":"levelo_inurba_marseille","lat":43.26959,"lon":5.38633,"is_reserved":false,"is_disabled":false,"rental_uris":{"android":"levelo://app?vid=acab11c7-676b-4fcd-bf03-f3c84a114b96","ios":"levelo://app?vid=acab11c7-676b-4fcd-bf03-f3c84a114b96"},"vehicle_type_id":"4","last_reported":1733228353,"current_range_meters":31200,"station_id":"ce4bhh92rcd13ifvqfh0","pricing_plan_id":"cebpf4jnsgd1na2vs0mg"},{"bike_id":"776b382d-575b-4ad7-8214-1678f34da237","system_id":"levelo_inurba_marseille","lat":43.24545,"lon":5.39519,"is_reserved":false,"is_disabled":false,"rental_uris":{"android":"levelo://app?vid=776b382d-575b-4ad7-8214-1678f34da237","ios":"levelo://app?vid=776b382d-575b-4ad7-8214-1678f34da237"},"vehicle_type_id":"4","last_reported":1733228353,"current_range_meters":34000,"station_id":"ce4bhlp2rcd13ifvqgjg","pricing_plan_id":"cebpf4jnsgd1na2vs0mg"},{"bike_id":"9f182489-b5c1-4400-91e1-858ac18cbfca","system_id":"levelo_inurba_marseille","lat":43.29579,"lon":5.36734,"is_reserved":false,"is_disabled":false,"rental_uris":{"android":"levelo://app?vid=9f182489-b5c1-4400-91e1-858ac18cbfca","ios":"levelo://app?vid=9f182489-b5c1-4400-91e1-858ac18cbfca"},"vehicle_type_id":"4","last_reported":1733228353,"current_range_meters":38800,"station_id":"ce4bgph2rcd13ifvqc2g","pricing_plan_id":"cebpf4jnsgd1na2vs0mg"},{"bike_id":"26d1e272-2c5d-4c96-ad87-cc59c5a05684","system_id":"levelo_inurba_marseille","lat":43.32539,"lon":5.41436,"is_reserved":false,"is_disabled":false,"rental_uris":{"android":"levelo://app?vid=26d1e272-2c5d-4c96-ad87-cc59c5a05684","ios":"levelo://app?vid=26d1e272-2c5d-4c96-ad87-cc59c5a05684"},"vehicle_type_id":"4","last_reported":1733228353,"current_range_meters":37600,"station_id":"ce4bhq12rcd13ifvqhhg","pricing_plan_id":"cebpf4jnsgd1na2vs0mg"},{"bike_id":"1607ef42-5433-495d-b717-b5e2e51bcf1f","system_id":"levelo_inurba_marseille","lat":43.29614,"lon":5.37714,"is_reserved":false,"is_disabled":false,"rental_uris":{"android":"levelo://app?vid=1607ef42-5433-495d-b717-b5e2e51bcf1f","ios":"levelo://app?vid=1607ef42-5433-495d-b717-b5e2e51bcf1f"},"vehicle_type_id":"4","last_reported":1733228353,"current_range_meters":36400,"station_id":"ce4bgi92rcd13ifvqb90","pricing_plan_id":"cebpf4jnsgd1na2vs0mg"},{"bike_id":"70c61673-8159-49b2-b6ed-4b8c3dd127e4","system_id":"levelo_inurba_marseille","lat":43.25094,"lon":5.39521,"is_reserved":false,"is_disabled":false,"rental_uris":{"android":"levelo://app?vid=70c61673-8159-49b2-b6ed-4b8c3dd127e4","ios":"levelo://app?vid=70c61673-8159-49b2-b6ed-4b8c3dd127e4"},"vehicle_type_id":"4","last_reported":1733228353,"current_range_meters":38800,"station_id":"ce4bhm12rcd13ifvqgkg","pricing_plan_id":"cebpf4jnsgd1na2vs0mg"},{"bike_id":"a93894f3-05aa-4c7d-b46a-8bed8d0437bb","system_id":"levelo_inurba_marseille","lat":43.24072,"lon":5.37749,"is_reserved":false,"is_disabled":true,"rental_uris":{"android":"levelo://app?vid=a93894f3-05aa-4c7d-b46a-8bed8d0437bb","ios":"levelo://app?vid=a93894f3-05aa-4c7d-b46a-8bed8d0437bb"},"vehicle_type_id":"4","last_reported":1733228353,"current_range_meters":31200,"station_id":"ce4bhnp2rcd13ifvqgvg","pricing_plan_id":"cebpf4jnsgd1na2vs0mg"},{"bike_id":"cec39c51-4930-4285-8177-5a6279c7f4d1","system_id":"levelo_inurba_marseille","lat":43.30785,"lon":5.37648,"is_reserved":false,"is_disabled":false,"rental_uris":{"android":"levelo://app?vid=cec39c51-4930-4285-8177-5a6279c7f4d1","ios":"levelo://app?vid=cec39c51-4930-4285-8177-5a6279c7f4d1"},"vehicle_type_id":"4","last_reported":1733228353,"current_range_meters":14800,"station_id":"ce4bgv92rcd13ifvqcq0","pricing_plan_id":"cebpf4jnsgd1na2vs0mg"},{"bike_id":"e30318e0-1870-4a11-9884-dece149533bc","system_id":"levelo_inurba_marseille","lat":43.30254,"lon":5.40078,"is_reserved":false,"is_disabled":false,"rental_uris":{"android":"levelo://app?vid=e30318e0-1870-4a11-9884-dece149533bc","ios":"levelo://app?vid=e30318e0-1870-4a11-9884-dece149533bc"},"vehicle_type_id":"4","last_reported":1733228353,"current_range_meters":16800,"station_id":"ce4bgvh2rcd13ifvqcs0","pricing_plan_id":"cebpf4jnsgd1na2vs0mg"},{"bike_id":"0a2f1f9e-26e1-44a7-8c5e-9e6a6f7abf3b","system_id":"levelo_inurba_marseille","lat":43.29007,"lon":5.35623,"is_reserved":false,"is_disabled":true,"rental_uris":{"android":"levelo://app?vid=0a2f1f9e-26e1-44a7-8c5e-9e6a6f7abf3b","ios":"levelo://app?vid=0a2f1f9e-26e1-44a7-8c5e-9e6a6f7abf3b"},"vehicle_type_id":"4","last_reported":1733228353,"current_range_meters":28400,"station_id":"ce4bhb92rcd13ifvqen0","pricing_plan_id":"cebpf4jnsgd1na2vs0mg"},{"bike_id":"53c49f91-b461-492e-a085-09cd1efdb30c","system_id":"levelo_inurba_marseille","lat":43.27181,"lon":5.4099,"is_reserved":false,"is_disabled":false,"rental_uris":{"android":"levelo://app?vid=53c49f91-b461-492e-a085-09cd1efdb30c","ios":"levelo://app?vid=53c49f91-b461-492e-a085-09cd1efdb30c"},"vehicle_type_id":"4","last_reported":1733228353,"current_range_meters":36400,"station_id":"ce4bhl12rcd13ifvqgf0","pricing_plan_id":"cebpf4jnsgd1na2vs0mg"},{"bike_id":"d9594733-6e50-4ddc-8ecb-4d3854d84bf6","system_id":"levelo_inurba_marseille","lat":43.26211,"lon":5.37443,"is_reserved":false,"is_disabled":false,"rental_uris":{"android":"levelo://app?vid=d9594733-6e50-4ddc-8ecb-4d3854d84bf6","ios":"levelo://app?vid=d9594733-6e50-4ddc-8ecb-4d3854d84bf6"},"vehicle_type_id":"4","last_reported":1733228353,"current_range_meters":38000,"station_id":"ce4bhgp2rcd13ifvqfc0","pricing_plan_id":"cebpf4jnsgd1na2vs0mg"},{"bike_id":"d9600396-5d38-4428-bbf6-dcf2c609d4d4","system_id":"levelo_inurba_marseille","lat":43.23962,"lon":5.36624,"is_reserved":false,"is_disabled":false,"rental_uris":{"android":"levelo://app?vid=d9600396-5d38-4428-bbf6-dcf2c609d4d4","ios":"levelo://app?vid=d9600396-5d38-4428-bbf6-dcf2c609d4d4"},"vehicle_type_id":"4","last_reported":1733228353,"current_range_meters":38800,"station_id":"ce4bhi12rcd13ifvqfp0","pricing_plan_id":"cebpf4jnsgd1na2vs0mg"},{"bike_id":"8c972fd1-08d0-40af-a5c3-17036a0c9441","system_id":"levelo_inurba_marseille","lat":43.31717,"lon":5.37757,"is_reserved":false,"is_disabled":false,"rental_uris":{"android":"levelo://app?vid=8c972fd1-08d0-40af-a5c3-17036a0c9441","ios":"levelo://app?vid=8c972fd1-08d0-40af-a5c3-17036a0c9441"},"vehicle_type_id":"4","last_reported":1733228353,"current_range_meters":8800,"station_id":"ce4bgth2rcd13ifvqch0","pricing_plan_id":"cebpf4jnsgd1na2vs0mg"},{"bike_id":"e859e0a0-8fd2-4674-897e-5faffa03737a","system_id":"levelo_inurba_marseille","lat":43.25931,"lon":5.40917,"is_reserved":false,"is_disabled":false,"rental_uris":{"android":"levelo://app?vid=e859e0a0-8fd2-4674-897e-5faffa03737a","ios":"levelo://app?vid=e859e0a0-8fd2-4674-897e-5faffa03737a"},"vehicle_type_id":"4","last_reported":1733228353,"current_range_meters":28000,"station_id":"ce4bhm92rcd13ifvqglg","pricing_plan_id":"cebpf4jnsgd1na2vs0mg"},{"bike_id":"fcf7f66c-ec07-4767-a3d3-2511a3110343","system_id":"levelo_inurba_marseille","lat":43.26556,"lon":5.37282,"is_reserved":false,"is_disabled":false,"rental_uris":{"android":"levelo://app?vid=fcf7f66c-ec07-4767-a3d3-2511a3110343","ios":"levelo://app?vid=fcf7f66c-ec07-4767-a3d3-2511a3110343"},"vehicle_type_id":"4","last_reported":1733228353,"current_range_meters":22400,"station_id":"ce4bhg12rcd13ifvqf70","pricing_plan_id":"cebpf4jnsgd1na2vs0mg"},{"bike_id":"afee990f-b1ca-4562-adf0-5c85af5d126c","system_id":"levelo_inurba_marseille","lat":43.26036,"lon":5.37557,"is_reserved":false,"is_disabled":false,"rental_uris":{"android":"levelo://app?vid=afee990f-b1ca-4562-adf0-5c85af5d126c","ios":"levelo://app?vid=afee990f-b1ca-4562-adf0-5c85af5d126c"},"vehicle_type_id":"4","last_reported":1733228353,"current_range_meters":35200,"station_id":"ce4bhgh2rcd13ifvqfa0","pricing_plan_id":"cebpf4jnsgd1na2vs0mg"},{"bike_id":"a95689b9-33aa-4999-bcfa-e51f7b387b2a","system_id":"levelo_inurba_marseille","lat":43.27973,"lon":5.38736,"is_reserved":false,"is_disabled":true,"rental_uris":{"android":"levelo://app?vid=a95689b9-33aa-4999-bcfa-e51f7b387b2a","ios":"levelo://app?vid=a95689b9-33aa-4999-bcfa-e51f7b387b2a"},"vehicle_type_id":"4","last_reported":1733228353,"current_range_meters":0,"station_id":"ce4bhg12rcd13ifvqf80","pricing_plan_id":"cebpf4jnsgd1na2vs0mg"},{"bike_id":"b8afe9da-9a3d-438c-8fbb-80e14d663770","system_id":"levelo_inurba_marseille","lat":43.29521,"lon":5.39036,"is_reserved":false,"is_disabled":true,"rental_uris":{"android":"levelo://app?vid=b8afe9da-9a3d-438c-8fbb-80e14d663770","ios":"levelo://app?vid=b8afe9da-9a3d-438c-8fbb-80e14d663770"},