{"last_updated":1761837108,"ttl":60,"version":"2.2","data":{"bikes":[{"bike_id":"aacc01e3-6d9f-491a-b1ed-d10f639e29e2","system_id":"levelo_inurba_marseille","lat":43.337444,"lon":5.374475,"is_reserved":false,"is_disabled":false,"rental_uris":{"android":"levelo://app?vid=aacc01e3-6d9f-491a-b1ed-d10f639e29e2","ios":"levelo://app?vid=aacc01e3-6d9f-491a-b1ed-d10f639e29e2"},"vehicle_type_id":"4","last_reported":1761837109,"current_range_meters":0,"station_id":"","pricing_plan_id":"cebpf4jnsgd1na2vs0mg"},{"bike_id":"35ef2eb9-fe09-4124-a7ab-f792dcbd6ddc","system_id":"levelo_inurba_marseille","lat":43.337444,"lon":5.374475,"is_reserved":false,"is_disabled":false,"rental_uris":{"android":"levelo://app?vid=35ef2eb9-fe09-4124-a7ab-f792dcbd6ddc","ios":"levelo://app?vid=35ef2eb9-fe09-4124-a7ab-f792dcbd6ddc"},"vehicle_type_id":"4","last_reported":1761837109,"current_range_meters":0,"station_id":"","pricing_plan_id":"cebpf4jnsgd1na2vs0mg"},{"bike_id":"49ddb7e7-127c-434c-8992-2e05f2e3428d","system_id":"levelo_inurba_marseille","lat":43.337444,"lon":5.374475,"is_reserved":false,"is_disabled":false,"rental_uris":{"android":"levelo://app?vid=49ddb7e7-127c-434c-8992-2e05f2e3428d","ios":"levelo://app?vid=49ddb7e7-127c-434c-8992-2e05f2e3428d"},"vehicle_type_id":"4","last_reported":1761837109,"current_range_meters":0,"station_id":"","pricing_plan_id":"cebpf4jnsgd1na2vs0mg"},{"bike_id":"b3b460c5-2faa-45c2-8fde-7b54e8b4eaf5","system_id":"levelo_inurba_marseille","lat":43.337444,"lon":5.374475,"is_reserved":false,"is_disabled":false,"rental_uris":{"android":"levelo://app?vid=b3b460c5-2faa-45c2-8fde-7b54e8b4eaf5","ios":"levelo://app?vid=b3b460c5-2faa-45c2-8fde-7b54e8b4eaf5"},"vehicle_type_id":"4","last_reported":1761837109,"current_range_meters":0,"station_id":"","pricing_plan_id":"cebpf4jnsgd1na2vs0mg"},{"bike_id":"6b8eeff3-ec31-445f-be43-f1e3ba63fb37","system_id":"levelo_inurba_marseille","lat":43.337416,"lon":5.374586,"is_reserved":false,"is_disabled":false,"rental_uris":{"android":"levelo://app?vid=6b8eeff3-ec31-445f-be43-f1e3ba63fb37","ios":"levelo://app?vid=6b8eeff3-ec31-445f-be43-f1e3ba63fb37"},"vehicle_type_id":"4","last_reported":1761837109,"current_range_meters":0,"station_id":"","pricing_plan_id":"cebpf4jnsgd1na2vs0mg"},{"bike_id":"e0e86d10-d79a-47b9-82ad-a00ae7a62a8a","system_id":"levelo_inurba_marseille","lat":43.337444,"lon":5.374475,"is_reserved":false,"is_disabled":false,"rental_uris":{"android":"levelo://app?vid=e0e86d10-d79a-47b9-82ad-a00ae7a62a8a","ios":"levelo://app?vid=e0e86d10-d79a-47b9-82ad-a00ae7a62a8a"},"vehicle_type_id":"4","last_reported":1761837109,"current_range_meters":0,"station_id":"","pricing_plan_id":"cebpf4jnsgd1na2vs0mg"},{"bike_id":"548f1c45-4f2a-4cfe-b981-5bc1daecb21b","system_id":"levelo_inurba_marseille","lat":43.337444,"lon":5.374475,"is_reserved":false,"is_disabled":false,"rental_uris":{"android":"levelo://app?vid=548f1c45-4f2a-4cfe-b981-5bc1daecb21b","ios":"levelo://app?vid=548f1c45-4f2a-4cfe-b981-5bc1daecb21b"},"vehicle_type_id":"4","last_reported":1761837109,"current_range_meters":0,"station_id":"","pricing_plan_id":"cebpf4jnsgd1na2vs0mg"},{"bike_id":"5260dce0-6ede-4de4-b006-1466527b5fbe","system_id":"levelo_inurba_marseille","lat":43.337444,"lon":5.374475,"is_reserved":false,"is_disabled":false,"rental_uris":{"android":"levelo://app?vid=5260dce0-6ede-4de4-b006-1466527b5fbe","ios":"levelo://app?vid=5260dce0-6ede-4de4-b006-1466527b5fbe"},"vehicle_type_id":"4","last_reported":1761837109,"current_range_meters":0,"station_id":"","pricing_plan_id":"cebpf4jnsgd1na2vs0mg"},{"bike_id":"fb1816a3-8e74-463a-88d2-d6b63cf0a426","system_id":"levelo_inurba_marseille","lat":43.337444,"lon":5.374475,"is_reserved":false,"is_disabled":false,"rental_uris":{"android":"levelo://app?vid=fb1816a3-8e74-463a-88d2-d6b63cf0a426","ios":"levelo://app?vid=fb1816a3-8e74-463a-88d2-d6b63cf0a426"},"vehicle_type_id":"4","last_reported":1761837109,"current_range_meters":0,"station_id":"","pricing_plan_id":"cebpf4jnsgd1na2vs0mg"},{"bike_id":"3c881d8d-608f-4c39-9df3-b2aa54f8afcf","system_id":"levelo_inurba_marseille","lat":43.337444,"lon":5.374475,"is_reserved":false,"is_disabled":false,"rental_uris":{"android":"levelo://app?vid=3c881d8d-608f-4c39-9df3-b2aa54f8afcf","ios":"levelo://app?vid=3c881d8d-608f-4c39-9df3-b2aa54f8afcf"},"vehicle_type_id":"4","last_reported":1761837109,"current_range_meters":0,"station_id":"","pricing_plan_id":"cebpf4jnsgd1na2vs0mg"},{"bike_id":"a26e4937-215f-44d2-a8de-a7d3ec75d32b","system_id":"levelo_inurba_marseille","lat":43.337444,"lon":5.374475,"is_reserved":false,"is_disabled":false,"rental_uris":{"android":"levelo://app?vid=a26e4937-215f-44d2-a8de-a7d3ec75d32b","ios":"levelo://app?vid=a26e4937-215f-44d2-a8de-a7d3ec75d32b"},"vehicle_type_id":"4","last_reported":1761837109,"current_range_meters":0,"station_id":"","pricing_plan_id":"cebpf4jnsgd1na2vs0mg"},{"bike_id":"fadc4e19-b9ad-4402-a5bc-a0eff5c2b634","system_id":"levelo_inurba_marseille","lat":43.337444,"lon":5.374475,"is_reserved":false,"is_disabled":false,"rental_uris":{"android":"levelo://app?vid=fadc4e19-b9ad-4402-a5bc-a0eff5c2b634","ios":"levelo://app?vid=fadc4e19-b9ad-4402-a5bc-a0eff5c2b634"},"vehicle_type_id":"4","last_reported":1761837109,"current_range_meters":0,"station_id":"","pricing_plan_id":"cebpf4jnsgd1na2vs0mg"},{"bike_id":"e294c151-4441-4e4a-a116-13c66dfb9429","system_id":"levelo_inurba_marseille","lat":43.337444,"lon":5.374475,"is_reserved":false,"is_disabled":false,"rental_uris":{"android":"levelo://app?vid=e294c151-4441-4e4a-a116-13c66dfb9429","ios":"levelo://app?vid=e294c151-4441-4e4a-a116-13c66dfb9429"},"vehicle_type_id":"4","last_reported":1761837109,"current_range_meters":0,"station_id":"","pricing_plan_id":"cebpf4jnsgd1na2vs0mg"},{"bike_id":"0baff1cc-f548-40f7-a934-77958566d6a5","system_id":"levelo_inurba_marseille","lat":43.337444,"lon":5.374475,"is_reserved":false,"is_disabled":false,"rental_uris":{"android":"levelo://app?vid=0baff1cc-f548-40f7-a934-77958566d6a5","ios":"levelo://app?vid=0baff1cc-f548-40f7-a934-77958566d6a5"},"vehicle_type_id":"4","last_reported":1761837109,"current_range_meters":0,"station_id":"","pricing_plan_id":"cebpf4jnsgd1na2vs0mg"},{"bike_id":"1310c5d0-e39d-4b9c-84d7-1872f297ff18","system_id":"levelo_inurba_marseille","lat":43.337444,"lon":5.374475,"is_reserved":false,"is_disabled":false,"rental_uris":{"android":"levelo://app?vid=1310c5d0-e39d-4b9c-84d7-1872f297ff18","ios":"levelo://app?vid=1310c5d0-e39d-4b9c-84d7-1872f297ff18"},"vehicle_type_id":"4","last_reported":1761837109,"current_range_meters":0,"station_id":"","pricing_plan_id":"cebpf4jnsgd1na2vs0mg"},{"bike_id":"01eaacf7-8682-4054-bf38-52456d06e6f6","system_id":"levelo_inurba_marseille","lat":43.337444,"lon":5.374475,"is_reserved":false,"is_disabled":false,"rental_uris":{"android":"levelo://app?vid=01eaacf7-8682-4054-bf38-52456d06e6f6","ios":"levelo://app?vid=01eaacf7-8682-4054-bf38-52456d06e6f6"},"vehicle_type_id":"4","last_reported":1761837109,"current_range_meters":0,"station_id":"","pricing_plan_id":"cebpf4jnsgd1na2vs0mg"},{"bike_id":"4dbab57a-b708-409a-b815-3b9a5d92f753","system_id":"levelo_inurba_marseille","lat":43.337444,"lon":5.374475,"is_reserved":false,"is_disabled":false,"rental_uris":{"android":"levelo://app?vid=4dbab57a-b708-409a-b815-3b9a5d92f753","ios":"levelo://app?vid=4dbab57a-b708-409a-b815-3b9a5d92f753"},"vehicle_type_id":"4","last_reported":1761837109,"current_range_meters":0,"station_id":"","pricing_plan_id":"cebpf4jnsgd1na2vs0mg"},{"bike_id":"00f1260a-63f9-4663-ac1e-51258f9213bd","system_id":"levelo_inurba_marseille","lat":43.337444,"lon":5.374475,"is_reserved":false,"is_disabled":false,"rental_uris":{"android":"levelo://app?vid=00f1260a-63f9-4663-ac1e-51258f9213bd","ios":"levelo://app?vid=00f1260a-63f9-4663-ac1e-51258f9213bd"},"vehicle_type_id":"4","last_reported":1761837109,"current_range_meters":0,"station_id":"","pricing_plan_id":"cebpf4jnsgd1na2vs0mg"},{"bike_id":"50aa746e-d71a-437c-bb7a-ed648a03f81b","system_id":"levelo_inurba_marseille","lat":43.337444,"lon":5.374475,"is_reserved":false,"is_disabled":false,"rental_uris":{"android":"levelo://app?vid=50aa746e-d71a-437c-bb7a-ed648a03f81b","ios":"levelo://app?vid=50aa746e-d71a-437c-bb7a-ed648a03f81b"},"vehicle_type_id":"4","last_reported":1761837109,"current_range_meters":0,"station_id":"","pricing_plan_id":"cebpf4jnsgd1na2vs0mg"},{"bike_id":"3e68cf6e-17b6-46f5-8b08-d049449e0ca4","system_id":"levelo_inurba_marseille","lat":43.337444,"lon":5.374475,"is_reserved":false,"is_disabled":false,"rental_uris":{"android":"levelo://app?vid=3e68cf6e-17b6-46f5-8b08-d049449e0ca4","ios":"levelo://app?vid=3e68cf6e-17b6-46f5-8b08-d049449e0ca4"},"vehicle_type_id":"4","last_reported":1761837109,"current_range_meters":0,"station_id":"","pricing_plan_id":"cebpf4jnsgd1na2vs0mg"},{"bike_id":"b06c4997-7e4f-467a-922f-92f2f2e27e9d","system_id":"levelo_inurba_marseille","lat":43.337444,"lon":5.374475,"is_reserved":false,"is_disabled":false,"rental_uris":{"android":"levelo://app?vid=b06c4997-7e4f-467a-922f-92f2f2e27e9d","ios":"levelo://app?vid=b06c4997-7e4f-467a-922f-92f2f2e27e9d"},"vehicle_type_id":"4","last_reported":1761837109,"current_range_meters":0,"station_id":"","pricing_plan_id":"cebpf4jnsgd1na2vs0mg"},{"bike_id":"bb49b980-4cfb-49a5-9add-f3f9d4fc6db5","system_id":"levelo_inurba_marseille","lat":43.337444,"lon":5.374475,"is_reserved":false,"is_disabled":false,"rental_uris":{"android":"levelo://app?vid=bb49b980-4cfb-49a5-9add-f3f9d4fc6db5","ios":"levelo://app?vid=bb49b980-4cfb-49a5-9add-f3f9d4fc6db5"},"vehicle_type_id":"4","last_reported":1761837109,"current_range_meters":0,"station_id":"","pricing_plan_id":"cebpf4jnsgd1na2vs0mg"},{"bike_id":"b97206fc-6c94-4378-926a-a788d4f71c09","system_id":"levelo_inurba_marseille","lat":43.337444,"lon":5.374475,"is_reserved":false,"is_disabled":false,"rental_uris":{"android":"levelo://app?vid=b97206fc-6c94-4378-926a-a788d4f71c09","ios":"levelo://app?vid=b97206fc-6c94-4378-926a-a788d4f71c09"},"vehicle_type_id":"4","last_reported":1761837109,"current_range_meters":0,"station_id":"","pricing_plan_id":"cebpf4jnsgd1na2vs0mg"},{"bike_id":"37d7ebf5-2b3d-4af3-a7cd-4f29f464d5a0","system_id":"levelo_inurba_marseille","lat":43.337444,"lon":5.374475,"is_reserved":false,"is_disabled":false,"rental_uris":{"android":"levelo://app?vid=37d7ebf5-2b3d-4af3-a7cd-4f29f464d5a0","ios":"levelo://app?vid=37d7ebf5-2b3d-4af3-a7cd-4f29f464d5a0"},"vehicle_type_id":"4","last_reported":1761837109,"current_range_meters":0,"station_id":"","pricing_plan_id":"cebpf4jnsgd1na2vs0mg"},{"bike_id":"4ce4318f-b763-4325-8589-2aecbcc80add","system_id":"levelo_inurba_marseille","lat":43.337444,"lon":5.374475,"is_reserved":false,"is_disabled":false,"rental_uris":{"android":"levelo://app?vid=4ce4318f-b763-4325-8589-2aecbcc80add","ios":"levelo://app?vid=4ce4318f-b763-4325-8589-2aecbcc80add"},"vehicle_type_id":"4","last_reported":1761837109,"current_range_meters":0,"station_id":"","pricing_plan_id":"cebpf4jnsgd1na2vs0mg"},{"bike_id":"a6a3a590-5c2a-4683-a516-e9f5572de0f8","system_id":"levelo_inurba_marseille","lat":43.337444,"lon":5.374475,"is_reserved":false,"is_disabled":false,"rental_uris":{"android":"levelo://app?vid=a6a3a590-5c2a-4683-a516-e9f5572de0f8","ios":"levelo://app?vid=a6a3a590-5c2a-4683-a516-e9f5572de0f8"},"vehicle_type_id":"4","last_reported":1761837109,"current_range_meters":0,"station_id":"","pricing_plan_id":"cebpf4jnsgd1na2vs0mg"},{"bike_id":"111bdd74-3ae9-48f5-979c-2e177e7747d9","system_id":"levelo_inurba_marseille","lat":43.337444,"lon":5.374475,"is_reserved":false,"is_disabled":false,"rental_uris":{"android":"levelo://app?vid=111bdd74-3ae9-48f5-979c-2e177e7747d9","ios":"levelo://app?vid=111bdd74-3ae9-48f5-979c-2e177e7747d9"},"vehicle_type_id":"4","last_reported":1761837109,"current_range_meters":0,"station_id":"","pricing_plan_id":"cebpf4jnsgd1na2vs0mg"},{"bike_id":"b9d871b8-65b0-40af-afa3-0bf2492a45a9","system_id":"levelo_inurba_marseille","lat":43.337444,"lon":5.374475,"is_reserved":false,"is_disabled":false,"rental_uris":{"android":"levelo://app?vid=b9d871b8-65b0-40af-afa3-0bf2492a45a9","ios":"levelo://app?vid=b9d871b8-65b0-40af-afa3-0bf2492a45a9"},"vehicle_type_id":"4","last_reported":1761837109,"current_range_meters":0,"station_id":"","pricing_plan_id":"cebpf4jnsgd1na2vs0mg"},{"bike_id":"5bec735e-fcf4-48c7-8bdc-29590fc410b1","system_id":"levelo_inurba_marseille","lat":43.337444,"lon":5.374475,"is_reserved":false,"is_disabled":false,"rental_uris":{"android":"levelo://app?vid=5bec735e-fcf4-48c7-8bdc-29590fc410b1","ios":"levelo://app?vid=5bec735e-fcf4-48c7-8bdc-29590fc410b1"},"vehicle_type_id":"4","last_reported":1761837109,"current_range_meters":0,"station_id":"","pricing_plan_id":"cebpf4jnsgd1na2vs0mg"},{"bike_id":"026e76ec-bb30-48a3-8407-a17635ff5e4d","system_id":"levelo_inurba_marseille","lat":43.337444,"lon":5.374475,"is_reserved":false,"is_disabled":false,"rental_uris":{"android":"levelo://app?vid=026e76ec-bb30-48a3-8407-a17635ff5e4d","ios":"levelo://app?vid=026e76ec-bb30-48a3-8407-a17635ff5e4d"},"vehicle_type_id":"4","last_reported":1761837109,"current_range_meters":0,"station_id":"","pricing_plan_id":"cebpf4jnsgd1na2vs0mg"},{"bike_id":"46d34bff-7ac4-476c-bd3e-8e7dba53c807","system_id":"levelo_inurba_marseille","lat":43.337444,"lon":5.374475,"is_reserved":false,"is_disabled":false,"rental_uris":{"android":"levelo://app?vid=46d34bff-7ac4-476c-bd3e-8e7dba53c807","ios":"levelo://app?vid=46d34bff-7ac4-476c-bd3e-8e7dba53c807"},"vehicle_type_id":"4","last_reported":1761837109,"current_range_meters":0,"station_id":"","pricing_plan_id":"cebpf4jnsgd1na2vs0mg"},{"bike_id":"2c7e37d6-d4ca-47ae-a0e0-a648dd4e1706","system_id":"levelo_inurba_marseille","lat":43.337444,"lon":5.374475,"is_reserved":false,"is_disabled":false,"rental_uris":{"android":"levelo://app?vid=2c7e37d6-d4ca-47ae-a0e0-a648dd4e1706","ios":"levelo://app?vid=2c7e37d6-d4ca-47ae-a0e0-a648dd4e1706"},"vehicle_type_id":"4","last_reported":1761837109,"current_range_meters":0,"station_id":"","pricing_plan_id":"cebpf4jnsgd1na2vs0mg"},{"bike_id":"94eee6a6-2463-4d2a-b222-3ef19356212a","system_id":"levelo_inurba_marseille","lat":43.337444,"lon":5.374475,"is_reserved":false,"is_disabled":false,"rental_uris":{"android":"levelo://app?vid=94eee6a6-2463-4d2a-b222-3ef19356212a","ios":"levelo://app?vid=94eee6a6-2463-4d2a-b222-3ef19356212a"},"vehicle_type_id":"4","last_reported":1761837109,"current_range_meters":0,"station_id":"","pricing_plan_id":"cebpf4jnsgd1na2vs0mg"},{"bike_id":"4592e008-320c-4bcd-ae3b-d140e613f684","system_id":"levelo_inurba_marseille","lat":43.337444,"lon":5.374475,"is_reserved":false,"is_disabled":false,"rental_uris":{"android":"levelo://app?vid=4592e008-320c-4bcd-ae3b-d140e613f684","ios":"levelo://app?vid=4592e008-320c-4bcd-ae3b-d140e613f684"},"vehicle_type_id":"4","last_reported":1761837109,"current_range_meters":0,"station_id":"","pricing_plan_id":"cebpf4jnsgd1na2vs0mg"},{"bike_id":"5807ce94-1b62-42db-8c77-9488accc83d5","system_id":"levelo_inurba_marseille","lat":43.337444,"lon":5.374475,"is_reserved":false,"is_disabled":false,"rental_uris":{"android":"levelo://app?vid=5807ce94-1b62-42db-8c77-9488accc83d5","ios":"levelo://app?vid=5807ce94-1b62-42db-8c77-9488accc83d5"},"vehicle_type_id":"4","last_reported":1761837109,"current_range_meters":0,"station_id":"","pricing_plan_id":"cebpf4jnsgd1na2vs0mg"},{"bike_id":"b7ed1a71-bc0c-483b-81c8-8572845d28ad","system_id":"levelo_inurba_marseille","lat":43.27619,"lon":5.36112,"is_reserved":false,"is_disabled":false,"rental_uris":{"android":"levelo://app?vid=b7ed1a71-bc0c-483b-81c8-8572845d28ad","ios":"levelo://app?vid=b7ed1a71-bc0c-483b-81c8-8572845d28ad"},"vehicle_type_id":"4","last_reported":1761837109,"current_range_meters":2800,"station_id":"ce4bgj92rcd13ifvqbe0","pricing_plan_id":"cebpf4jnsgd1na2vs0mg"},{"bike_id":"051913dc-42b2-4e4e-a8d6-f6067fc22a27","system_id":"levelo_inurba_marseille","lat":43.286951,"lon":5.373898,"is_reserved":false,"is_disabled":false,"rental_uris":{"android":"levelo://app?vid=051913dc-42b2-4e4e-a8d6-f6067fc22a27","ios":"levelo://app?vid=051913dc-42b2-4e4e-a8d6-f6067fc22a27"},"vehicle_type_id":"4","last_reported":1761837109,"current_range_meters":2800,"station_id":"ce4bh3p2rcd13ifvqdq0","pricing_plan_id":"cebpf4jnsgd1na2vs0mg"},{"bike_id":"e475780f-75cb-445f-901c-6021999cad3b","system_id":"levelo_inurba_marseille","lat":43.26564,"lon":5.39009,"is_reserved":false,"is_disabled":false,"rental_uris":{"android":"levelo://app?vid=e475780f-75cb-445f-901c-6021999cad3b","ios":"levelo://app?vid=e475780f-75cb-445f-901c-6021999cad3b"},"vehicle_type_id":"4","last_reported":1761837109,"current_range_meters":2800,"station_id":"ce4bhe12rcd13ifvqf30","pricing_plan_id":"cebpf4jnsgd1na2vs0mg"},{"bike_id":"579bca95-f87f-4868-b18f-ed0c542bfef1","system_id":"levelo_inurba_marseille","lat":43.29171,"lon":5.37159,"is_reserved":false,"is_disabled":false,"rental_uris":{"android":"levelo://app?vid=579bca95-f87f-4868-b18f-ed0c542bfef1","ios":"levelo://app?vid=579bca95-f87f-4868-b18f-ed0c542bfef1"},"vehicle_type_id":"4","last_reported":1761837109,"current_range_meters":2800,"station_id":"ce4bha92rcd13ifvqeh0","pricing_plan_id":"cebpf4jnsgd1na2vs0mg"},{"bike_id":"c06be8ce-2470-411f-a065-6dff01c731ed","system_id":"levelo_inurba_marseille","lat":43.3171,"lon":5.43717,"is_reserved":false,"is_disabled":false,"rental_uris":{"android":"levelo://app?vid=c06be8ce-2470-411f-a065-6dff01c731ed","ios":"levelo://app?vid=c06be8ce-2470-411f-a065-6dff01c731ed"},"vehicle_type_id":"4","last_reported":1761837109,"current_range_meters":3200,"station_id":"ce4bhp92rcd13ifvqhcg","pricing_plan_id":"cebpf4jnsgd1na2vs0mg"},{"bike_id":"eb8f13ff-065d-4e4e-b5e0-9c6d6156824b","system_id":"levelo_inurba_marseille","lat":43.21196,"lon":5.35082,"is_reserved":false,"is_disabled":false,"rental_uris":{"android":"levelo://app?vid=eb8f13ff-065d-4e4e-b5e0-9c6d6156824b","ios":"levelo://app?vid=eb8f13ff-065d-4e4e-b5e0-9c6d6156824b"},"vehicle_type_id":"4","last_reported":1761837109,"current_range_meters":3200,"station_id":"st_cvj6sg6p6f1abm77japg","pricing_plan_id":"cebpf4jnsgd1na2vs0mg"},{"bike_id":"ecec4fb3-15ff-427a-8ccb-89b5f5619910","system_id":"levelo_inurba_marseille","lat":43.264941,"lon":5.395457,"is_reserved":false,"is_disabled":false,"rental_uris":{"android":"levelo://app?vid=ecec4fb3-15ff-427a-8ccb-89b5f5619910","ios":"levelo://app?vid=ecec4fb3-15ff-427a-8ccb-89b5f5619910"},"vehicle_type_id":"4","last_reported":1761837109,"current_range_meters":3600,"station_id":"ce4bhi12rcd13ifvqfq0","pricing_plan_id":"cebpf4jnsgd1na2vs0mg"},{"bike_id":"fd6b5140-a155-4271-82ed-5a22a4ad6342","system_id":"levelo_inurba_marseille","lat":43.287746,"lon":5.362384,"is_reserved":false,"is_disabled":false,"rental_uris":{"android":"levelo://app?vid=fd6b5140-a155-4271-82ed-5a22a4ad6342","ios":"levelo://app?vid=fd6b5140-a155-4271-82ed-5a22a4ad6342"},"vehicle_type_id":"4","last_reported":1761837109,"current_range_meters":3600,"station_id":"cki0cbj6b192h4jlfktg","pricing_plan_id":"cebpf4jnsgd1na2vs0mg"},{"bike_id":"d5ca831f-8041-403e-ada8-7b4196c3d5be","system_id":"levelo_inurba_marseille","lat":43.293714,"lon":5.379385,"is_reserved":false,"is_disabled":false,"rental_uris":{"android":"levelo://app?vid=d5ca831f-8041-403e-ada8-7b4196c3d5be","ios":"levelo://app?vid=d5ca831f-8041-403e-ada8-7b4196c3d5be"},"vehicle_type_id":"4","last_reported":1761837109,"current_range_meters":3600,"station_id":"","pricing_plan_id":"cebpf4jnsgd1na2vs0mg"},{"bike_id":"646f7ee4-c28f-4818-b256-328e1cfc7abd","system_id":"levelo_inurba_marseille","lat":43.2844,"lon":5.37489,"is_reserved":false,"is_disabled":false,"rental_uris":{"android":"levelo://app?vid=646f7ee4-c28f-4818-b256-328e1cfc7abd","ios":"levelo://app?vid=646f7ee4-c28f-4818-b256-328e1cfc7abd"},"vehicle_type_id":"4","last_reported":1761837109,"current_range_meters":3600,"station_id":"ce4bh412rcd13ifvqds0","pricing_plan_id":"cebpf4jnsgd1na2vs0mg"},{"bike_id":"ce9d1214-ab90-4d91-a5dd-ed88d991721d","system_id":"levelo_inurba_marseille","lat":43.24631,"lon":5.43147,"is_reserved":false,"is_disabled":false,"rental_uris":{"android":"levelo://app?vid=ce9d1214-ab90-4d91-a5dd-ed88d991721d","ios":"levelo://app?vid=ce9d1214-ab90-4d91-a5dd-ed88d991721d"},"vehicle_type_id":"4","last_reported":1761837109,"current_range_meters":4000,"station_id":"st_d2m6c4gdas8pm72e190g","pricing_plan_id":"cebpf4jnsgd1na2vs0mg"},{"bike_id":"e9d3812e-e424-441e-b67a-608e0b30c8fe","system_id":"levelo_inurba_marseille","lat":43.29034,"lon":5.39974,"is_reserved":false,"is_disabled":false,"rental_uris":{"android":"levelo://app?vid=e9d3812e-e424-441e-b67a-608e0b30c8fe","ios":"levelo://app?vid=e9d3812e-e424-441e-b67a-608e0b30c8fe"},"vehicle_type_id":"4","last_reported":1761837109,"current_range_meters":4000,"station_id":"ce4bh392rcd13ifvqdm0","pricing_plan_id":"cebpf4jnsgd1na2vs0mg"},{"bike_id":"7fd373dc-3d48-4a08-8d1e-a07a15aa03ff","system_id":"levelo_inurba_marseille","lat":43.2677,"lon":5.39425,"is_reserved":false,"is_disabled":false,"rental_uris":{"android":"levelo://app?vid=7fd373dc-3d48-4a08-8d1e-a07a15aa03ff","ios":"levelo://app?vid=7fd373dc-3d48-4a08-8d1e-a07a15aa03ff"},"vehicle_type_id":"4","last_reported":1761837109,"current_range_meters":4000,"station_id":"ce4bhh12rcd13ifvqfg0","pricing_plan_id":"cebpf4jnsgd1na2vs0mg"},{"bike_id":"4b1c830b-43f1-48e8-a723-515a9d799169","system_id":"levelo_inurba_marseille","lat":43.26958,"lon":5.38634,"is_reserved":false,"is_disabled":false,"rental_uris":{"android":"levelo://app?vid=4b1c830b-43f1-48e8-a723-515a9d799169","ios":"levelo://app?vid=4b1c830b-43f1-48e8-a723-515a9d799169"},"vehicle_type_id":"4","last_reported":1761837109,"current_range_meters":4400,"station_id":"","pricing_plan_id":"cebpf4jnsgd1na2vs0mg"},{"bike_id":"42cb37b2-b285-4b13-aa46-e656110c3b17","system_id":"levelo_inurba_marseille","lat":43.28265,"lon":5.35076,"is_reserved":false,"is_disabled":false,"rental_uris":{"android":"levelo://app?vid=42cb37b2-b285-4b13-aa46-e656110c3b17","ios":"levelo://app?vid=42cb37b2-b285-4b13-aa46-e656110c3b17"},"vehicle_type_id":"4","last_reported":1761837109,"current_range_meters":4400,"station_id":"ce4bhbp2rcd13ifvqerg","pricing_plan_id":"cebpf4jnsgd1na2vs0mg"},{"bike_id":"50d940b6-4375-4d29-a8ce-85543b9de9c3","system_id":"levelo_inurba_marseille","lat":43.32109,"lon":5.3677,"is_reserved":false,"is_disabled":false,"rental_uris":{"android":"levelo://app?vid=50d940b6-4375-4d29-a8ce-85543b9de9c3","ios":"levelo://app?vid=50d940b6-4375-4d29-a8ce-85543b9de9c3"},"vehicle_type_id":"4","last_reported":1761837109,"current_range_meters":4400,"station_id":"ce4bhrh2rcd13ifvqhug","pricing_plan_id":"cebpf4jnsgd1na2vs0mg"},{"bike_id":"f9642d0c-1a18-4a94-8076-b1942729718e","system_id":"levelo_inurba_marseille","lat":43.27807,"lon":5.40737,"is_reserved":false,"is_disabled":false,"rental_uris":{"android":"levelo://app?vid=f9642d0c-1a18-4a94-8076-b1942729718e","ios":"levelo://app?vid=f9642d0c-1a18-4a94-8076-b1942729718e"},"vehicle_type_id":"4","last_reported":1761837109,"current_range_meters":4800,"station_id":"ce4bhnh2rcd13ifvqgtg","pricing_plan_id":"cebpf4jnsgd1na2vs0mg"},{"bike_id":"0ee244c4-df1c-47d3-bb68-b52c4994e75a","system_id":"levelo_inurba_marseille","lat":43.31327,"lon":5.36745,"is_reserved":false,"is_disabled":false,"rental_uris":{"android":"levelo://app?vid=0ee244c4-df1c-47d3-bb68-b52c4994e75a","ios":"levelo://app?vid=0ee244c4-df1c-47d3-bb68-b52c4994e75a"},"vehicle_type_id":"4","last_reported":1761837109,"current_range_meters":4800,"station_id":"ce4bgr92rcd13ifvqc6g","pricing_plan_id":"cebpf4jnsgd1na2vs0mg"},{"bike_id":"f6adb9c1-4a78-4322-baec-aa5f6f5d93b6","system_id":"levelo_inurba_marseille","lat":43.33766,"lon":5.37431,"is_reserved":false,"is_disabled":false,"rental_uris":{"android":"levelo://app?vid=f6adb9c1-4a78-4322-baec-aa5f6f5d93b6","ios":"levelo://app?vid=f6adb9c1-4a78-4322-baec-aa5f6f5d93b6"},"vehicle_type_id":"4","last_reported":1761837109,"current_range_meters":4800,"station_id":"","pricing_plan_id":"cebpf4jnsgd1na2vs0mg"},{"bike_id":"cbf1ea0a-ff9f-430a-8dec-818ec2e1bafc","system_id":"levelo_inurba_marseille","lat":43.27998,"lon":5.40015,"is_reserved":false,"is_disabled":false,"rental_uris":{"android":"levelo://app?vid=cbf1ea0a-ff9f-430a-8dec-818ec2e1bafc","ios":"levelo://app?vid=cbf1ea0a-ff9f-430a-8dec-818ec2e1bafc"},"vehicle_type_id":"4","last_reported":1761837109,"current_range_meters":5600,"station_id":"ce4bho92rcd13ifvqh4g","pricing_plan_id":"cebpf4jnsgd1na2vs0mg"},{"bike_id":"c22c8cec-0984-4c89-ab20-d243f57c5441","system_id":"levelo_inurba_marseille","lat":43.29217,"lon":5.3607,"is_reserved":false,"is_disabled":false,"rental_uris":{"android":"levelo://app?vid=c22c8cec-0984-4c89-ab20-d243f57c5441","ios":"levelo://app?vid=c22c8cec-0984-4c89-ab20-d243f57c5441"},"vehicle_type_id":"4","last_reported":1761837109,"current_range_meters":5600,"station_id":"ce4bhbh2rcd13ifvqeqg","pricing_plan_id":"cebpf4jnsgd1na2vs0mg"},{"bike_id":"46037f45-c7a3-446e-aaed-49aaf8b6e287","system_id":"levelo_inurba_marseille","lat":43.297813,"lon":5.39344,"is_reserved":false,"is_disabled":false,"rental_uris":{"android":"levelo://app?vid=46037f45-c7a3-446e-aaed-49aaf8b6e287","ios":"levelo://app?vid=46037f45-c7a3-446e-aaed-49aaf8b6e287"},"vehicle_type_id":"4","last_reported":1761837109,"current_range_meters":5600,"station_id":"chh1huq6cuj3fo74tm60","pricing_plan_id":"cebpf4jnsgd1na2vs0mg"},{"bike_id":"651b9304-e365-47ad-a728-50d77649b3c2","system_id":"levelo_inurba_marseille","lat":43.26211,"lon":5.37446,"is_reserved":false,"is_disabled":false,"rental_uris":{"android":"levelo://app?vid=651b9304-e365-47ad-a728-50d77649b3c2","ios":"levelo://app?vid=651b9304-e365-47ad-a728-50d77649b3c2"},"vehicle_type_id":"4","last_reported":1761837109,"current_range_meters":5600,"station_id":"ce4bhgp2rcd13ifvqfc0","pricing_plan_id":"cebpf4jnsgd1na2vs0mg"},{"bike_id":"a19ca254-e12d-42b7-8f99-30976cd44b2a","system_id":"levelo_inurba_marseille","lat":43.270881,"lon":5.383184,"is_reserved":false,"is_disabled":false,"rental_uris":{"android":"levelo://app?vid=a19ca254-e12d-42b7-8f99-30976cd44b2a","ios":"levelo://app?vid=a19ca254-e12d-42b7-8f99-30976cd44b2a"},"vehicle_type_id":"4","last_reported":1761837109,"current_range_meters":5600,"station_id":"ce4bghh2rcd13ifvqb60","pricing_plan_id":"cebpf4jnsgd1na2vs0mg"},{"bike_id":"df4a7072-9a99-4388-960f-688f83a92f17","system_id":"levelo_inurba_marseille","lat":43.295483,"lon":5.422905,"is_reserved":false,"is_disabled":false,"rental_uris":{"android":"levelo://app?vid=df4a7072-9a99-4388-960f-688f83a92f17","ios":"levelo://app?vid=df4a7072-9a99-4388-960f-688f83a92f17"},"vehicle_type_id":"4","last_reported":1761837109,"current_range_meters":6000,"station_id":"ce4bhph2rcd13ifvqhdg","pricing_plan_id":"cebpf4jnsgd1na2vs0mg"},{"bike_id":"41f41c53-c84d-4534-a1c0-58783d76d033","system_id":"levelo_inurba_marseille","lat":43.26552,"lon":5.37295,"is_reserved":false,"is_disabled":false,"rental_uris":{"android":"levelo://app?vid=41f41c53-c84d-4534-a1c0-58783d76d033","ios":"levelo://app?vid=41f41c53-c84d-4534-a1c0-58783d76d033"},"vehicle_type_id":"4","last_reported":1761837109,"current_range_meters":6000,"station_id":"ce4bhg12rcd13ifvqf70","pricing_plan_id":"cebpf4jnsgd1na2vs0mg"},{"bike_id":"f03105e6-7110-4dff-b591-d517cf10f9c8","system_id":"levelo_inurba_marseille","lat":43.27375,"lon":5.3623,"is_reserved":false,"is_disabled":true,"rental_uris":{"android":"levelo://app?vid=f03105e6-7110-4dff-b591-d517cf10f9c8","ios":"levelo://app?vid=f03105e6-7110-4dff-b591-d517cf10f9c8"},"vehicle_type_id":"4","last_reported":1761837109,"current_range_meters":6000,"station_id":"ce4bhbh2rcd13ifvqeo0","pricing_plan_id":"cebpf4jnsgd1na2vs0mg"},{"bike_id":"ae8ebe94-fc0f-4409-8f77-39eb5c613a67","system_id":"levelo_inurba_marseille","lat":43.337444,"lon":5.374475,"is_reserved":false,"is_disabled":false,"rental_uris":{"android":"levelo://app?vid=ae8ebe94-fc0f-4409-8f77-39eb5c613a67","ios":"levelo://app?vid=ae8ebe94-fc0f-4409-8f77-39eb5c613a67"},"vehicle_type_id":"4","last_reported":1761837109,"current_range_meters":6400,"station_id":"","pricing_plan_id":"cebpf4jnsgd1na2vs0mg"},{"bike_id":"9d5eeb9c-842b-4678-9788-9829b4a14900","system_id":"levelo_inurba_marseille","lat":43.30595,"lon":5.37235,"is_reserved":false,"is_disabled":false,"rental_uris":{"android":"levelo://app?vid=9d5eeb9c-842b-4678-9788-9829b4a14900","ios":"levelo://app?vid=9d5eeb9c-842b-4678-9788-9829b4a14900"},"vehicle_type_id":"4","last_reported":1761837109,"current_range_meters":6400,"station_id":"ce4bgqh2rcd13ifvqc4g","pricing_plan_id":"cebpf4jnsgd1na2vs0mg"},{"bike_id":"78fa03e5-9df8-47be-afe0-510cc0cfc113","system_id":"levelo_inurba_marseille","lat":43.29003,"lon":5.35613,"is_reserved":false,"is_disabled":false,"rental_uris":{"android":"levelo://app?vid=78fa03e5-9df8-47be-afe0-510cc0cfc113","ios":"levelo://app?vid=78fa03e5-9df8-47be-afe0-510cc0cfc113"},"vehicle_type_id":"4","last_reported":1761837109,"current_range_meters":6400,"station_id":"ce4bhb92rcd13ifvqen0","pricing_plan_id":"cebpf4jnsgd1na2vs0mg"},{"bike_id":"c42493ce-8657-4be1-8d11-5e046297e993","system_id":"levelo_inurba_marseille","lat":43.3011,"lon":5.3985,"is_reserved":false,"is_disabled":false,"rental_uris":{"android":"levelo://app?vid=c42493ce-8657-4be1-8d11-5e046297e993","ios":"levelo://app?vid=c42493ce-8657-4be1-8d11-5e046297e993"},"vehicle_type_id":"4","last_reported":1761837109,"current_range_meters":6400,"station_id":"ce4bh0h2rcd13ifvqd40","pricing_plan_id":"cebpf4jnsgd1na2vs0mg"},{"bike_id":"6cd0c5e0-cf94-4e58-8085-5bf7c3e60f08","system_id":"levelo_inurba_marseille","lat":43.29274,"lon":5.36854,"is_reserved":false,"is_disabled":false,"rental_uris":{"android":"levelo://app?vid=6cd0c5e0-cf94-4e58-8085-5bf7c3e60f08","ios":"levelo://app?vid=6cd0c5e0-cf94-4e58-8085-5bf7c3e60f08"},"vehicle_type_id":"4","last_reported":1761837109,"current_range_meters":6400,"station_id":"ce4bhbp2rcd13ifvqesg","pricing_plan_id":"cebpf4jnsgd1na2vs0mg"},{"bike_id":"c00f0d8f-aeb8-44c5-b96b-a200e9f06f11","system_id":"levelo_inurba_marseille","lat":43.281516,"lon":5.426454,"is_reserved":false,"is_disabled":false,"rental_uris":{"android":"levelo://app?vid=c00f0d8f-aeb8-44c5-b96b-a200e9f06f11","ios":"levelo://app?vid=c00f0d8f-aeb8-44c5-b96b-a200e9f06f11"},"vehicle_type_id":"4","last_reported":1761837109,"current_range_meters":6400,"station_id":"ce4bhnh2rcd13ifvqgug","pricing_plan_id":"cebpf4jnsgd1na2vs0mg"},{"bike_id":"c364e0f6-bd96-42ba-9383-7c8945f94b3d","system_id":"levelo_inurba_marseille","lat":43.273749,"lon":5.362613,"is_reserved":false,"is_disabled":false,"rental_uris":{"android":"levelo://app?vid=c364e0f6-bd96-42ba-9383-7c8945f94b3d","ios":"levelo://app?vid=c364e0f6-bd96-42ba-9383-7c8945f94b3d"},"vehicle_type_id":"4","last_reported":1761837109,"current_range_meters":6800,"station_id":"ce4bhbh2rcd13ifvqeo0","pricing_plan_id":"cebpf4jnsgd1na2vs0mg"},{"bike_id":"5b96055c-2ef7-4945-916a-7cb0815578c8","system_id":"levelo_inurba_marseille","lat":43.29525,"lon":5.39406,"is_reserved":false,"is_disabled":false,"rental_uris":{"android":"levelo://app?vid=5b96055c-2ef7-4945-916a-7cb0815578c8","ios":"levelo://app?vid=5b96055c-2ef7-4945-916a-7cb0815578c8"},"vehicle_type_id":"4","last_reported":1761837109,"current_range_meters":6800,"station_id":"ce4bh292rcd13ifvqdf0","pricing_plan_id":"cebpf4jnsgd1na2vs0mg"},{"bike_id":"fa74ee88-1934-48b3-b69d-6b920facf8a5","system_id":"levelo_inurba_marseille","lat":43.31484,"lon":5.37312,"is_reserved":false,"is_disabled":false,"rental_uris":{"android":"levelo://app?vid=fa74ee88-1934-48b3-b69d-6b920facf8a5","ios":"levelo://app?vid=fa74ee88-1934-48b3-b69d-6b920facf8a5"},"vehicle_type_id":"4","last_reported":1761837109,"current_range_meters":6800,"station_id":"ce4bgt12rcd13ifvqcd0","pricing_plan_id":"cebpf4jnsgd1na2vs0mg"},{"bike_id":"0d613edc-7f54-49d1-b12c-2bfcde9ff9e3","system_id":"levelo_inurba_marseille","lat":43.22561,"lon":5.41631,"is_reserved":false,"is_disabled":false,"rental_uris":{"android":"levelo://app?vid=0d613edc-7f54-49d1-b12c-2bfcde9ff9e3","ios":"levelo://app?vid=0d613edc-7f54-49d1-b12c-2bfcde9ff9e3"},"vehicle_type_id":"4","last_reported":1761837109,"current_range_meters":6800,"station_id":"st_d2o4gvlbi1j2169b742g","pricing_plan_id":"cebpf4jnsgd1na2vs0mg"},{"bike_id":"d7501644-af29-4949-85a6-6fb0d170cf4f","system_id":"levelo_inurba_marseille","lat":43.21174,"lon":5.35084,"is_reserved":false,"is_disabled":false,"rental_uris":{"android":"levelo://app?vid=d7501644-af29-4949-85a6-6fb0d170cf4f","ios":"levelo://app?vid=d7501644-af29-4949-85a6-6fb0d170cf4f"},"vehicle_type_id":"4","last_reported":1761837109,"current_range_meters":6800,"station_id":"st_cvj6sg6p6f1abm77japg","pricing_plan_id":"cebpf4jnsgd1na2vs0mg"},{"bike_id":"a207a80d-6596-4075-b58b-c0b1643b8290","system_id":"levelo_inurba_marseille","lat":43.27372,"lon":5.3626,"is_reserved":false,"is_disabled":false,"rental_uris":{"android":"levelo://app?vid=a207a80d-6596-4075-b58b-c0b1643b8290","ios":"levelo://app?vid=a207a80d-6596-4075-b58b-c0b1643b8290"},"vehicle_type_id":"4","last_reported":1761837109,"current_range_meters":6800,"station_id":"ce4bhbh2rcd13ifvqeo0","pricing_plan_id":"cebpf4jnsgd1na2vs0mg"},{"bike_id":"d02c2069-e0ff-4cf4-bd64-a5885a76c111","system_id":"levelo_inurba_marseille","lat":43.2957,"lon":5.37515,"is_reserved":false,"is_disabled":false,"rental_uris":{"android":"levelo://app?vid=d02c2069-e0ff-4cf4-bd64-a5885a76c111","ios":"levelo://app?vid=d02c2069-e0ff-4cf4-bd64-a5885a76c111"},"vehicle_type_id":"4","last_reported":1761837109,"current_range_meters":7200,"station_id":"ce4bgh92rcd13ifvqb50","pricing_plan_id":"cebpf4jnsgd1na2vs0mg"},{"bike_id":"8cf7e467-ca97-4c6e-87ff-1cd579b39787","system_id":"levelo_inurba_marseille","lat":43.31229,"lon":5.36875,"is_reserved":false,"is_disabled":false,"rental_uris":{"android":"levelo://app?vid=8cf7e467-ca97-4c6e-87ff-1cd579b39787","ios":"levelo://app?vid=8cf7e467-ca97-4c6e-87ff-1cd579b39787"},"vehicle_type_id":"4","last_reported":1761837109,"current_range_meters":7200,"station_id":"ce4bgl92rcd13ifvqbq0","pricing_plan_id":"cebpf4jnsgd1na2vs0mg"},{"bike_id":"89c9f0b2-b2f0-4e4b-a255-306dd794096e","system_id":"levelo_inurba_marseille","lat":43.26497,"lon":5.39559,"is_reserved":false,"is_disabled":false,"rental_uris":{"android":"levelo://app?vid=89c9f0b2-b2f0-4e4b-a255-306dd794096e","ios":"levelo://app?vid=89c9f0b2-b2f0-4e4b-a255-306dd794096e"},"vehicle_type_id":"4","last_reported":1761837109,"current_range_meters":8000,"station_id":"ce4bhi12rcd13ifvqfq0","pricing_plan_id":"cebpf4jnsgd1na2vs0mg"},{"bike_id":"68e02abc-d046-4acc-8082-131425b84f81","system_id":"levelo_inurba_marseille","lat":43.25115,"lon":5.40334,"is_reserved":false,"is_disabled":false,"rental_uris":{"android":"levelo://app?vid=68e02abc-d046-4acc-8082-131425b84f81","ios":"levelo://app?vid=68e02abc-d046-4acc-8082-131425b84f81"},"vehicle_type_id":"4","last_reported":1761837109,"current_range_meters":8000,"station_id":"ce4bhlh2rcd13ifvqgig","pricing_plan_id":"cebpf4jnsgd1na2vs0mg"},{"bike_id":"058c1146-151a-4949-88ca-a9718210303b","system_id":"levelo_inurba_marseille","lat":43.30533,"lon":5.38441,"is_reserved":false,"is_disabled":false,"rental_uris":{"android":"levelo://app?vid=058c1146-151a-4949-88ca-a9718210303b","ios":"levelo://app?vid=058c1146-151a-4949-88ca-a9718210303b"},"vehicle_type_id":"4","last_reported":1761837109,"current_range_meters":8400,"station_id":"ce4bgg92rcd13ifvqb30","pricing_plan_id":"cebpf4jnsgd1na2vs0mg"},{"bike_id":"d754bfb7-f057-4790-ae86-99e7de93bfe8","system_id":"levelo_inurba_marseille","lat":43.25511,"lon":5.37658,"is_reserved":false,"is_disabled":false,"rental_uris":{"android":"levelo://app?vid=d754bfb7-f057-4790-ae86-99e7de93bfe8","ios":"levelo://app?vid=d754bfb7-f057-4790-ae86-99e7de93bfe8"},"vehicle_type_id":"4","last_reported":1761837109,"current_range_meters":8400,"station_id":"ce4bhh12rcd13ifvqff0","pricing_plan_id":"cebpf4jnsgd1na2vs0mg"},{"bike_id":"69832e1b-e45a-48cf-bc6e-40a3e4a7e954","system_id":"levelo_inurba_marseille","lat":43.282745,"lon":5.350692,"is_reserved":false,"is_disabled":false,"rental_uris":{"android":"levelo://app?vid=69832e1b-e45a-48cf-bc6e-40a3e4a7e954","ios":"levelo://app?vid=69832e1b-e45a-48cf-bc6e-40a3e4a7e954"},"vehicle_type_id":"4","last_reported":1761837109,"current_range_meters":8400,"station_id":"ce4bhbp2rcd13ifvqerg","pricing_plan_id":"cebpf4jnsgd1na2vs0mg"},{"bike_id":"2c95fb64-8701-496d-9795-75bd64d6bc5c","system_id":"levelo_inurba_marseille","lat":43.27614,"lon":5.36121,"is_reserved":false,"is_disabled":false,"rental_uris":{"android":"levelo://app?vid=2c95fb64-8701-496d-9795-75bd64d6bc5c","ios":"levelo://app?vid=2c95fb64-8701-496d-9795-75bd64d6bc5c"},"vehicle_type_id":"4","last_reported":1761837109,"current_range_meters":8400,"station_id":"ce4bgj92rcd13ifvqbe0","pricing_plan_id":"cebpf4jnsgd1na2vs0mg"},{"bike_id":"df44f981-b802-42b3-9d5e-c2e24d11f60c","system_id":"levelo_inurba_marseille","lat":43.28347,"lon":5.38104,"is_reserved":false,"is_disabled":false,"rental_uris":{"android":"levelo://app?vid=df44f981-b802-42b3-9d5e-c2e24d11f60c","ios":"levelo://app?vid=df44f981-b802-42b3-9d5e-c2e24d11f60c"},"vehicle_type_id":"4","last_reported":1761837109,"current_range_meters":9200,"station_id":"ce4bh412rcd13ifvqdr0","pricing_plan_id":"cebpf4jnsgd1na2vs0mg"},{"bike_id":"28e1f1c8-7c02-430f-81fa-033fa7d6574a","system_id":"levelo_inurba_marseille","lat":43.29931,"lon":5.36555,"is_reserved":false,"is_disabled":false,"rental_uris":{"android":"levelo://app?vid=28e1f1c8-7c02-430f-81fa-033fa7d6574a","ios":"levelo://app?vid=28e1f1c8-7c02-430f-81fa-033fa7d6574a"},"vehicle_type_id":"4","last_reported":1761837109,"current_range_meters":9200,"station_id":"ce4bgm92rcd13ifvqbr0","pricing_plan_id":"cebpf4jnsgd1na2vs0mg"},{"bike_id":"4644b8ac-affa-4d50-b2ae-974d32d38290","system_id":"levelo_inurba_marseille","lat":43.30793,"lon":5.43547,"is_reserved":false,"is_disabled":false,"rental_uris":{"android":"levelo://app?vid=4644b8ac-affa-4d50-b2ae-974d32d38290","ios":"levelo://app?vid=4644b8ac-affa-4d50-b2ae-974d32d38290"},"vehicle_type_id":"4","last_reported":1761837109,"current_range_meters":9200,"station_id":"","pricing_plan_id":"cebpf4jnsgd1na2vs0mg"},{"bike_id":"8c830576-9a11-4ace-905f-fcf50c13e22a","system_id":"levelo_inurba_marseille","lat":43.31219,"lon":5.36878,"is_reserved":false,"is_disabled":false,"rental_uris":{"android":"levelo://app?vid=8c830576-9a11-4ace-905f-fcf50c13e22a","ios":"levelo://app?vid=8c830576-9a11-4ace-905f-fcf50c13e22a"},"vehicle_type_id":"4","last_reported":1761837109,"current_range_meters":9200,"station_id":"ce4bgl92rcd13ifvqbq0","pricing_plan_id":"cebpf4jnsgd1na2vs0mg"},{"bike_id":"96c5d217-5e62-4d1d-8b4d-ea127b5083fe","system_id":"levelo_inurba_marseille","lat":43.25518,"lon":5.37664,"is_reserved":false,"is_disabled":false,"rental_uris":{"android":"levelo://app?vid=96c5d217-5e62-4d1d-8b4d-ea127b5083fe","ios":"levelo://app?vid=96c5d217-5e62-4d1d-8b4d-ea127b5083fe"},"vehicle_type_id":"4","last_reported":1761837109,"current_range_meters":9200,"station_id":"ce4bhh12rcd13ifvqff0","pricing_plan_id":"cebpf4jnsgd1na2vs0mg"},{"bike_id":"99cb73ed-3c17-4e5c-a8ba-a44aedd6810f","system_id":"levelo_inurba_marseille","lat":43.29247,"lon":5.3763,"is_reserved":false,"is_disabled":false,"rental_uris":{"android":"levelo://app?vid=99cb73ed-3c17-4e5c-a8ba-a44aedd6810f","ios":"levelo://app?vid=99cb73ed-3c17-4e5c-a8ba-a44aedd6810f"},"vehicle_type_id":"4","last_reported":1761837109,"current_range_meters":9200,"station_id":"ce4bgi12rcd13ifvqb80","pricing_plan_id":"cebpf4jnsgd1na2vs0mg"},{"bike_id":"a1ff797a-b418-48dd-b141-6154c9bd95ec","system_id":"levelo_inurba_marseille","lat":43.3014,"lon":5.37419,"is_reserved":false,"is_disabled":false,"rental_uris":{"android":"levelo://app?vid=a1ff797a-b418-48dd-b141-6154c9bd95ec","ios":"levelo://app?vid=a1ff797a-b418-48dd-b141-6154c9bd95ec"},"vehicle_type_id":"4","last_reported":1761837109,"current_range_meters":9200,"station_id":"ce4bgs92rcd13ifvqcc0","pricing_plan_id":"cebpf4jnsgd1na2vs0mg"},{"bike_id":"faee4aed-34d1-4e59-9f3e-bc2337688920","system_id":"levelo_inurba_marseille","lat":43.317138,"lon":5.437013,"is_reserved":false,"is_disabled":true,"rental_uris":{"android":"levelo://app?vid=faee4aed-34d1-4e59-9f3e-bc2337688920","ios":"levelo://app?vid=faee4aed-34d1-4e59-9f3e-bc2337688920"},"vehicle_type_id":"4","last_reported":1761837109,"current_range_meters":9200,"station_id":"ce4bhp92rcd13ifvqhcg","pricing_plan_id":"cebpf4jnsgd1na2vs0mg"},{"bike_id":"93119435-e03e-4bd7-a878-b1cda18ace29","system_id":"levelo_inurba_marseille","lat":43.231558,"lon":5.43707,"is_reserved":false,"is_disabled":false,"rental_uris":{"android":"levelo://app?vid=93119435-e03e-4bd7-a878-b1cda18ace29","ios":"levelo://app?vid=93119435-e03e-4bd7-a878-b1cda18ace29"},"vehicle_type_id":"4","last_reported":1761837109,"current_range_meters":9600,"station_id":"ce4bhmp2rcd13ifvqgog","pricing_plan_id":"cebpf4jnsgd1na2vs0mg"},{"bike_id":"9fbab517-315d-47f6-82c2-7cfbefc4adaa","system_id":"levelo_inurba_marseille","lat":43.29005,"lon":5.35609,"is_reserved":false,"is_disabled":false,"rental_uris":{"android":"levelo://app?vid=9fbab517-315d-47f6-82c2-7cfbefc4adaa","ios":"levelo://app?vid=9fbab517-315d-47f6-82c2-7cfbefc4adaa"},"vehicle_type_id":"4","last_reported":1761837109,"current_range_meters":9600,"station_id":"ce4bhb92rcd13ifvqen0","pricing_plan_id":"cebpf4jnsgd1na2vs0mg"},{"bike_id":"ab136956-9bee-4a88-837f-77edf78d5343","system_id":"levelo_inurba_marseille","lat":43.261988,"lon":5.37936,"is_reserved":false,"is_disabled":false,"rental_uris":{"android":"levelo://app?vid=ab136956-9bee-4a88-837f-77edf78d5343","ios":"levelo://app?vid=ab136956-9bee-4a88-837f-77edf78d5343"},"vehicle_type_id":"4","last_reported":1761837109,"current_range_meters":9600,"station_id":"ce4bhjp2rcd13ifvqg90","pricing_plan_id":"cebpf4jnsgd1na2vs0mg"},{"bike_id":"2425811b-6e68-4721-8b6f-533a2492c719","system_id":"levelo_inurba_marseille","lat":43.31377,"lon":5.36688,"is_reserved":false,"is_disabled":false,"rental_uris":{"android":"levelo://app?vid=2425811b-6e68-4721-8b6f-533a2492c719","ios":"levelo://app?vid=2425811b-6e68-4721-8b6f-533a2492c719"},"vehicle_type_id":"4","last_reported":1761837109,"current_range_meters":9600,"station_id":"ce4bgr92rcd13ifvqc6g","pricing_plan_id":"cebpf4jnsgd1na2vs0mg"},{"bike_id":"b3617c54-864b-4221-825b-3b6bb8442633","system_id":"levelo_inurba_marseille","lat":43.30532,"lon":5.36548,"is_reserved":false,"is_disabled":false,"rental_uris":{"android":"levelo://app?vid=b3617c54-864b-4221-825b-3b6bb8442633","ios":"levelo://app?vid=b3617c54-864b-4221-825b-3b6bb8442633"},"vehicle_type_id":"4","last_reported":1761837109,"current_range_meters":9600,"station_id":"ce4bgs12rcd13ifvqcag","pricing_plan_id":"cebpf4jnsgd1na2vs0mg"},{"bike_id":"81ca8b54-c7ea-4416-8c8d-cb945792bc5b","system_id":"levelo_inurba_marseille","lat":43.22568,"lon":5.41628,"is_reserved":false,"is_disabled":false,"rental_uris":{"android":"levelo://app?vid=81ca8b54-c7ea-4416-8c8d-cb945792bc5b","ios":"levelo://app?vid=81ca8b54-c7ea-4416-8c8d-cb945792bc5b"},"vehicle_type_id":"4","last_reported":1761837109,"current_range_meters":10000,"station_id":"st_d2o4gvlbi1j2169b742g","pricing_plan_id":"cebpf4jnsgd1na2vs0mg"},{"bike_id":"53278343-8a7f-414b-aad6-9f63fb2645e8","system_id":"levelo_inurba_marseille","lat":43.28613,"lon":5.37066,"is_reserved":false,"is_disabled":false,"rental_uris":{"android":"levelo://app?vid=53278343-8a7f-414b-aad6-9f63fb2645e8","ios":"levelo://app?vid=53278343-8a7f-414b-aad6-9f63fb2645e8"},"vehicle_type_id":"4","last_reported":1761837109,"current_range_meters":10800,"station_id":"ce4bht12rcd13ifvqi60","pricing_plan_id":"cebpf4jnsgd1na2vs0mg"},{"bike_id":"519a2e94-6493-4644-a67f-8c251b7fe560","system_id":"levelo_inurba_marseille","lat":43.22558,"lon":5.41638,"is_reserved":false,"is_disabled":false,"rental_uris":{"android":"levelo://app?vid=519a2e94-6493-4644-a67f-8c251b7fe560","ios":"levelo://app?vid=519a2e94-6493-4644-a67f-8c251b7fe560"},"vehicle_type_id":"4","last_reported":1761837109,"current_range_meters":10800,"station_id":"st_d2o4gvlbi1j2169b742g","pricing_plan_id":"cebpf4jnsgd1na2vs0mg"},{"bike_id":"569160a4-e207-4db9-b243-c638f0330d62","system_id":"levelo_inurba_marseille","lat":43.32098,"lon":5.36802,"is_reserved":false,"is_disabled":false,"rental_uris":{"android":"levelo://app?vid=569160a4-e207-4db9-b243-c638f0330d62","ios":"levelo://app?vid=569160a4-e207-4db9-b243-c638f0330d62"},"vehicle_type_id":"4","last_reported":1761837109,"current_range_meters":10800,"station_id":"ce4bhrh2rcd13ifvqhug","pricing_plan_id":"cebpf4jnsgd1na2vs0mg"},{"bike_id":"ecf9cbde-aa43-490c-bcd5-930e59bee927","system_id":"levelo_inurba_marseille","lat":43.309042,"lon":5.36841,"is_reserved":false,"is_disabled":false,"rental_uris":{"android":"levelo://app?vid=ecf9cbde-aa43-490c-bcd5-930e59bee927","ios":"levelo://app?vid=ecf9cbde-aa43-490c-bcd5-930e59bee927"},"vehicle_type_id":"4","last_reported":1761837109,"current_range_meters":11200,"station_id":"ce4bgn92rcd13ifvqbvg","pricing_plan_id":"cebpf4jnsgd1na2vs0mg"},{"bike_id":"a5c5754f-84cc-49fd-aedb-2d46aadbd70e","system_id":"levelo_inurba_marseille","lat":43.30222,"lon":5.39472,"is_reserved":false,"is_disabled":false,"rental_uris":{"android":"levelo://app?vid=a5c5754f-84cc-49fd-aedb-2d46aadbd70e","ios":"levelo://app?vid=a5c5754f-84cc-49fd-aedb-2d46aadbd70e"},"vehicle_type_id":"4","last_reported":1761837109,"current_range_meters":11200,"station_id":"ce4bh0p2rcd13ifvqd70","pricing_plan_id":"cebpf4jnsgd1na2vs0mg"},{"bike_id":"3c77c58d-c486-44fe-8b0d-5526decbac3b","system_id":"levelo_inurba_marseille","lat":43.29611,"lon":5.38106,"is_reserved":false,"is_disabled":false,"rental_uris":{"android":"levelo://app?vid=3c77c58d-c486-44fe-8b0d-5526decbac3b","ios":"levelo://app?vid=3c77c58d-c486-44fe-8b0d-5526decbac3b"},"vehicle_type_id":"4","last_reported":1761837109,"current_range_meters":11200,"station_id":"ce4bgl12rcd13ifvqbo0","pricing_plan_id":"cebpf4jnsgd1na2vs0mg"},{"bike_id":"6fff56e2-dc33-4322-9554-e738206d1bc0","system_id":"levelo_inurba_marseille","lat":43.211906,"lon":5.350883,"is_reserved":false,"is_disabled":false,"rental_uris":{"android":"levelo://app?vid=6fff56e2-dc33-4322-9554-e738206d1bc0","ios":"levelo://app?vid=6fff56e2-dc33-4322-9554-e738206d1bc0"},"vehicle_type_id":"4","last_reported":1761837109,"current_range_meters":11600,"station_id":"st_cvj6sg6p6f1abm77japg","pricing_plan_id":"cebpf4jnsgd1na2vs0mg"},{"bike_id":"c1e99b1b-a114-4097-85f1-4a4258993610","system_id":"levelo_inurba_marseille","lat":43.26026,"lon":5.37554,"is_reserved":false,"is_disabled":false,"rental_uris":{"android":"levelo://app?vid=c1e99b1b-a114-4097-85f1-4a4258993610","ios":"levelo://app?vid=c1e99b1b-a114-4097-85f1-4a4258993610"},"vehicle_type_id":"4","last_reported":1761837109,"current_range_meters":11600,"station_id":"ce4bhgh2rcd13ifvqfa0","pricing_plan_id":"cebpf4jnsgd1na2vs0mg"},{"bike_id":"8296177c-953a-4012-be95-4a77301f6be1","system_id":"levelo_inurba_marseille","lat":43.290024,"lon":5.3663,"is_reserved":false,"is_disabled":false,"rental_uris":{"android":"levelo://app?vid=8296177c-953a-4012-be95-4a77301f6be1","ios":"levelo://app?vid=8296177c-953a-4012-be95-4a77301f6be1"},"vehicle_type_id":"4","last_reported":1761837109,"current_range_meters":11600,"station_id":"","pricing_plan_id":"cebpf4jnsgd1na2vs0mg"},{"bike_id":"551f97a4-fbad-454e-ad29-2226c2f4b439","system_id":"levelo_inurba_marseille","lat":43.318507,"lon":5.411463,"is_reserved":false,"is_disabled":false,"rental_uris":{"android":"levelo://app?vid=551f97a4-fbad-454e-ad29-2226c2f4b439","ios":"levelo://app?vid=551f97a4-fbad-454e-ad29-2226c2f4b439"},"vehicle_type_id":"4","last_reported":1761837109,"current_range_meters":12000,"station_id":"ce4bgop2rcd13ifvqc1g","pricing_plan_id":"cebpf4jnsgd1na2vs0mg"},{"bike_id":"3126ce35-4101-4b06-a7b2-19548fb25089","system_id":"levelo_inurba_marseille","lat":43.21187,"lon":5.35071,"is_reserved":false,"is_disabled":false,"rental_uris":{"android":"levelo://app?vid=3126ce35-4101-4b06-a7b2-19548fb25089","ios":"levelo://app?vid=3126ce35-4101-4b06-a7b2-19548fb25089"},"vehicle_type_id":"4","last_reported":1761837109,"current_range_meters":12000,"station_id":"st_cvj6sg6p6f1abm77japg","pricing_plan_id":"cebpf4jnsgd1na2vs0mg"},{"bike_id":"bb9a697b-08ee-4a5e-b9eb-b274d6026d59","system_id":"levelo_inurba_marseille","lat":43.2988,"lon":5.39729,"is_reserved":false,"is_disabled":false,"rental_uris":{"android":"levelo://app?vid=bb9a697b-08ee-4a5e-b9eb-b274d6026d59","ios":"levelo://app?vid=bb9a697b-08ee-4a5e-b9eb-b274d6026d59"},"vehicle_type_id":"4","last_reported":1761837109,"current_range_meters":12000,"station_id":"ce4bh0h2rcd13ifvqd50","pricing_plan_id":"cebpf4jnsgd1na2vs0mg"},{"bike_id":"476dd080-4e5d-4053-a85b-d5e7e3aa237d","system_id":"levelo_inurba_marseille","lat":43.28615,"lon":5.35111,"is_reserved":false,"is_disabled":false,"rental_uris":{"android":"levelo://app?vid=476dd080-4e5d-4053-a85b-d5e7e3aa237d","ios":"levelo://app?vid=476dd080-4e5d-4053-a85b-d5e7e3aa237d"},"vehicle_type_id":"4","last_reported":1761837109,"current_range_meters":12400,"station_id":"ce4bhch2rcd13ifvqeug","pricing_plan_id":"cebpf4jnsgd1na2vs0mg"},{"bike_id":"46a93369-1902-468b-aab1-e3798940b974","system_id":"levelo_inurba_marseille","lat":43.29301,"lon":5.37158,"is_reserved":false,"is_disabled":false,"rental_uris":{"android":"levelo://app?vid=46a93369-1902-468b-aab1-e3798940b974","ios":"levelo://app?vid=46a93369-1902-468b-aab1-e3798940b974"},"vehicle_type_id":"4","last_reported":1761837109,"current_range_meters":12400,"station_id":"ce4bgh92rcd13ifvqb40","pricing_plan_id":"cebpf4jnsgd1na2vs0mg"},{"bike_id":"007a2f90-f745-4bee-a51b-98c80260fd5e","system_id":"levelo_inurba_marseille","lat":43.2809,"lon":5.37818,"is_reserved":false,"is_disabled":false,"rental_uris":{"android":"levelo://app?vid=007a2f90-f745-4bee-a51b-98c80260fd5e","ios":"levelo://app?vid=007a2f90-f745-4bee-a51b-98c80260fd5e"},"vehicle_type_id":"4","last_reported":1761837109,"current_range_meters":12400,"station_id":"ce4bha12rcd13ifvqee0","pricing_plan_id":"cebpf4jnsgd1na2vs0mg"},{"bike_id":"e7fbda8d-e4b1-4d1d-8e59-650ead40058d","system_id":"levelo_inurba_marseille","lat":43.24648,"lon":5.43147,"is_reserved":false,"is_disabled":false,"rental_uris":{"android":"levelo://app?vid=e7fbda8d-e4b1-4d1d-8e59-650ead40058d","ios":"levelo://app?vid=e7fbda8d-e4b1-4d1d-8e59-650ead40058d"},"vehicle_type_id":"4","last_reported":1761837109,"current_range_meters":12800,"station_id":"st_d2m6c4gdas8pm72e190g","pricing_plan_id":"cebpf4jnsgd1na2vs0mg"},{"bike_id":"b4cf4ddc-86c6-4aa3-bbef-f67b3166fb08","system_id":"levelo_inurba_marseille","lat":43.32124,"lon":5.36773,"is_reserved":false,"is_disabled":false,"rental_uris":{"android":"levelo://app?vid=b4cf4ddc-86c6-4aa3-bbef-f67b3166fb08","ios":"levelo://app?vid=b4cf4ddc-86c6-4aa3-bbef-f67b3166fb08"},"vehicle_type_id":"4","last_reported":1761837109,"current_range_meters":12800,"station_id":"ce4bhrh2rcd13ifvqhug","pricing_plan_id":"cebpf4jnsgd1na2vs0mg"},{"bike_id":"85bc867b-9e6a-4b07-b00a-4abd93d0f18e","system_id":"levelo_inurba_marseille","lat":43.28615,"lon":5.35115,"is_reserved":false,"is_disabled":false,"rental_uris":{"android":"levelo://app?vid=85bc867b-9e6a-4b07-b00a-4abd93d0f18e","ios":"levelo://app?vid=85bc867b-9e6a-4b07-b00a-4abd93d0f18e"},"vehicle_type_id":"4","last_reported":1761837109,"current_range_meters":12800,"station_id":"ce4bhch2rcd13ifvqeug","pricing_plan_id":"cebpf4jnsgd1na2vs0mg"},{"bike_id":"a4a81a3a-b1a5-4e69-b8f2-fc130ffc3362","system_id":"levelo_inurba_marseille","lat":43.26547,"lon":5.37298,"is_reserved":false,"is_disabled":false,"rental_uris":{"android":"levelo://app?vid=a4a81a3a-b1a5-4e69-b8f2-fc130ffc3362","ios":"levelo://app?vid=a4a81a3a-b1a5-4e69-b8f2-fc130ffc3362"},"vehicle_type_id":"4","last_reported":1761837109,"current_range_meters":12800,"station_id":"ce4bhg12rcd13ifvqf70","pricing_plan_id":"cebpf4jnsgd1na2vs0mg"},{"bike_id":"106d9eb9-0bf9-44ff-b226-3957474f220a","system_id":"levelo_inurba_marseille","lat":43.29962,"lon":5.41331,"is_reserved":false,"is_disabled":false,"rental_uris":{"android":"levelo://app?vid=106d9eb9-0bf9-44ff-b226-3957474f220a","ios":"levelo://app?vid=106d9eb9-0bf9-44ff-b226-3957474f220a"},"vehicle_type_id":"4","last_reported":1761837109,"current_range_meters":12800,"station_id":"ce4bhp12rcd13ifvqh9g","pricing_plan_id":"cebpf4jnsgd1na2vs0mg"},{"bike_id":"7168787f-424e-4fa3-a19a-a58bbe8bc4c9","system_id":"levelo_inurba_marseille","lat":43.30523,"lon":5.36735,"is_reserved":false,"is_disabled":false,"rental_uris":{"android":"levelo://app?vid=7168787f-424e-4fa3-a19a-a58bbe8bc4c9","ios":"levelo://app?vid=7168787f-424e-4fa3-a19a-a58bbe8bc4c9"},"vehicle_type_id":"4","last_reported":1761837109,"current_range_meters":12800,"station_id":"ce4bgrp2rcd13ifvqc9g","pricing_plan_id":"cebpf4jnsgd1na2vs0mg"},{"bike_id":"75fddbf0-b5da-4ef2-9474-82179e234f12","system_id":"levelo_inurba_marseille","lat":43.24179,"lon":5.39732,"is_reserved":false,"is_disabled":false,"rental_uris":{"android":"levelo://app?vid=75fddbf0-b5da-4ef2-9474-82179e234f12","ios":"levelo://app?vid=75fddbf0-b5da-4ef2-9474-82179e234f12"},"vehicle_type_id":"4","last_reported":1761837109,"current_range_meters":12800,"station_id":"ce4bhn12rcd13ifvqgpg","pricing_plan_id":"cebpf4jnsgd1na2vs0mg"},{"bike_id":"7f207ab9-20c3-4e9e-bbd9-4e326a022f64","system_id":"levelo_inurba_marseille","lat":43.26564,"lon":5.39005,"is_reserved":false,"is_disabled":false,"rental_uris":{"android":"levelo://app?vid=7f207ab9-20c3-4e9e-bbd9-4e326a022f64","ios":"levelo://app?vid=7f207ab9-20c3-4e9e-bbd9-4e326a022f64"},"vehicle_type_id":"4","last_reported":1761837109,"current_range_meters":13600,"station_id":"ce4bhe12rcd13ifvqf30","pricing_plan_id":"cebpf4jnsgd1na2vs0mg"},{"bike_id":"003dc589-afc6-47c4-a84a-e90cd5f91109","system_id":"levelo_inurba_marseille","lat":43.29524,"lon":5.39033,"is_reserved":false,"is_disabled":true,"rental_uris":{"android":"levelo://app?vid=003dc589-afc6-47c4-a84a-e90cd5f91109","ios":"levelo://app?vid=003dc589-afc6-47c4-a84a-e90cd5f91109"},"vehicle_type_id":"4","last_reported":1761837109,"current_range_meters":13600,"station_id":"ce4bh3p2rcd13ifvqdp0","pricing_plan_id":"cebpf4jnsgd1na2vs0mg"},{"bike_id":"2ec8fd1b-3b42-4f93-a828-68bd711efa51","system_id":"levelo_inurba_marseille","lat":43.24628,"lon":5.43147,"is_reserved":false,"is_disabled":false,"rental_uris":{"android":"levelo://app?vid=2ec8fd1b-3b42-4f93-a828-68bd711efa51","ios":"levelo://app?vid=2ec8fd1b-3b42-4f93-a828-68bd711efa51"},"vehicle_type_id":"4","last_reported":1761837109,"current_range_meters":13600,"station_id":"st_d2m6c4gdas8pm72e190g","pricing_plan_id":"cebpf4jnsgd1na2vs0mg"},{"bike_id":"477775b8-f273-4e77-925b-0d700783c278","system_id":"levelo_inurba_marseille","lat":43.24165,"lon":5.36396,"is_reserved":false,"is_disabled":false,"rental_uris":{"android":"levelo://app?vid=477775b8-f273-4e77-925b-0d700783c278","ios":"levelo://app?vid=477775b8-f273-4e77-925b-0d700783c278"},"vehicle_type_id":"4","last_reported":1761837109,"current_range_meters":13600,"station_id":"cpo36qri1sfpv3e86is0","pricing_plan_id":"cebpf4jnsgd1na2vs0mg"},{"bike_id":"67ceedf0-71e0-4d05-87a4-d6cc5d92e975","system_id":"levelo_inurba_marseille","lat":43.26196,"lon":5.37936,"is_reserved":false,"is_disabled":false,"rental_uris":{"android":"levelo://app?vid=67ceedf0-71e0-4d05-87a4-d6cc5d92e975","ios":"levelo://app?vid=67ceedf0-71e0-4d05-87a4-d6cc5d92e975"},"vehicle_type_id":"4","last_reported":1761837109,"current_range_meters":13600,"station_id":"ce4bhjp2rcd13ifvqg90","pricing_plan_id":"cebpf4jnsgd1na2vs0mg"},{"bike_id":"4ad9dbf3-3a76-4ac3-bd3a-cfcc4e50eecd","system_id":"levelo_inurba_marseille","lat":43.28924,"lon":5.36651,"is_reserved":false,"is_disabled":false,"rental_uris":{"android":"levelo://app?vid=4ad9dbf3-3a76-4ac3-bd3a-cfcc4e50eecd","ios":"levelo://app?vid=4ad9dbf3-3a76-4ac3-bd3a-cfcc4e50eecd"},"vehicle_type_id":"4","last_reported":1761837109,"current_range_meters":13600,"station_id":"ce4bhap2rcd13ifvqek0","pricing_plan_id":"cebpf4jnsgd1na2vs0mg"},{"bike_id":"c56a68e0-035e-4d6b-92ac-165a4859959a","system_id":"levelo_inurba_marseille","lat":43.28264,"lon":5.35087,"is_reserved":false,"is_disabled":false,"rental_uris":{"android":"levelo://app?vid=c56a68e0-035e-4d6b-92ac-165a4859959a","ios":"levelo://app?vid=c56a68e0-035e-4d6b-92ac-165a4859959a"},"vehicle_type_id":"4","last_reported":1761837109,"current_range_meters":13600,"station_id":"ce4bhbp2rcd13ifvqerg","pricing_plan_id":"cebpf4jnsgd1na2vs0mg"},{"bike_id":"868c9f67-46db-40c2-8054-2388a5f9841e","system_id":"levelo_inurba_marseille","lat":43.3236,"lon":5.36735,"is_reserved":false,"is_disabled":false,"rental_uris":{"android":"levelo://app?vid=868c9f67-46db-40c2-8054-2388a5f9841e","ios":"levelo://app?vid=868c9f67-46db-40c2-8054-2388a5f9841e"},"vehicle_type_id":"4","last_reported":1761837109,"current_range_meters":13600,"station_id":"ce4bhsh2rcd13ifvqi2g","pricing_plan_id":"cebpf4jnsgd1na2vs0mg"},{"bike_id":"f6946de9-6fd5-486c-846e-6aac0ac8e59f","system_id":"levelo_inurba_marseille","lat":43.21187,"lon":5.35093,"is_reserved":false,"is_disabled":false,"rental_uris":{"android":"levelo://app?vid=f6946de9-6fd5-486c-846e-6aac0ac8e59f","ios":"levelo://app?vid=f6946de9-6fd5-486c-846e-6aac0ac8e59f"},"vehicle_type_id":"4","last_reported":1761837109,"current_range_meters":13600,"station_id":"st_cvj6sg6p6f1abm77japg","pricing_plan_id":"cebpf4jnsgd1na2vs0mg"},{"bike_id":"15e2c5dd-bae1-46fb-906a-d29fa37d6e53","system_id":"levelo_inurba_marseille","lat":43.3132,"lon":5.37331,"is_reserved":false,"is_disabled":false,"rental_uris":{"android":"levelo://app?vid=15e2c5dd-bae1-46fb-906a-d29fa37d6e53","ios":"levelo://app?vid=15e2c5dd-bae1-46fb-906a-d29fa37d6e53"},"vehicle_type_id":"4","last_reported":1761837109,"current_range_meters":13600,"station_id":"","pricing_plan_id":"cebpf4jnsgd1na2vs0mg"},{"bike_id":"d123589f-7ccf-443d-9412-d780ab7c160c","system_id":"levelo_inurba_marseille","lat":43.24066,"lon":5.37771,"is_reserved":false,"is_disabled":false,"rental_uris":{"android":"levelo://app?vid=d123589f-7ccf-443d-9412-d780ab7c160c","ios":"levelo://app?vid=d123589f-7ccf-443d-9412-d780ab7c160c"},"vehicle_type_id":"4","last_reported":1761837109,"current_range_meters":13600,"station_id":"ce4bhnp2rcd13ifvqgvg","pricing_plan_id":"cebpf4jnsgd1na2vs0mg"},{"bike_id":"420c6014-3dda-497a-bf80-db8c7dfa6d9c","system_id":"levelo_inurba_marseille","lat":43.30122,"lon":5.43104,"is_reserved":false,"is_disabled":false,"rental_uris":{"android":"levelo://app?vid=420c6014-3dda-497a-bf80-db8c7dfa6d9c","ios":"levelo://app?vid=420c6014-3dda-497a-bf80-db8c7dfa6d9c"},"vehicle_type_id":"4","last_reported":1761837109,"current_range_meters":14000,"station_id":"st_d3js3co5814s73ftftug","pricing_plan_id":"cebpf4jnsgd1na2vs0mg"},{"bike_id":"ece027da-824a-47d0-bc54-5da75c26caf2","system_id":"levelo_inurba_marseille","lat":43.305426,"lon":5.367017,"is_reserved":false,"is_disabled":false,"rental_uris":{"android":"levelo://app?vid=ece027da-824a-47d0-bc54-5da75c26caf2","ios":"levelo://app?vid=ece027da-824a-47d0-bc54-5da75c26caf2"},"vehicle_type_id":"4","last_reported":1761837109,"current_range_meters":14000,"station_id":"ce4bgrp2rcd13ifvqc9g","pricing_plan_id":"cebpf4jnsgd1na2vs0mg"},{"bike_id":"87f07427-7afa-4c61-8863-cee86bfb2232","system_id":"levelo_inurba_marseille","lat":43.27215,"lon":5.40967,"is_reserved":false,"is_disabled":false,"rental_uris":{"android":"levelo://app?vid=87f07427-7afa-4c61-8863-cee86bfb2232","ios":"levelo://app?vid=87f07427-7afa-4c61-8863-cee86bfb2232"},"vehicle_type_id":"4","last_reported":1761837109,"current_range_meters":14000,"station_id":"","pricing_plan_id":"cebpf4jnsgd1na2vs0mg"},{"bike_id":"b88fe5d4-4214-4acb-a8d8-15048cd72dbe","system_id":"levelo_inurba_marseille","lat":43.29594,"lon":5.42163,"is_reserved":false,"is_disabled":false,"rental_uris":{"android":"levelo://app?vid=b88fe5d4-4214-4acb-a8d8-15048cd72dbe","ios":"levelo://app?vid=b88fe5d4-4214-4acb-a8d8-15048cd72dbe"},"vehicle_type_id":"4","last_reported":1761837109,"current_range_meters":14000,"station_id":"ce4bhph2rcd13ifvqhdg","pricing_plan_id":"cebpf4jnsgd1na2vs0mg"},{"bike_id":"a18dbf48-2c4d-4fa4-a4c5-c9871d73c9a0","system_id":"levelo_inurba_marseille","lat":43.301994,"lon":5.383462,"is_reserved":false,"is_disabled":false,"rental_uris":{"android":"levelo://app?vid=a18dbf48-2c4d-4fa4-a4c5-c9871d73c9a0","ios":"levelo://app?vid=a18dbf48-2c4d-4fa4-a4c5-c9871d73c9a0"},"vehicle_type_id":"4","last_reported":1761837109,"current_range_meters":14400,"station_id":"ce4bgup2rcd13ifvqcn0","pricing_plan_id":"cebpf4jnsgd1na2vs0mg"},{"bike_id":"a272e42d-63c4-46fd-b886-11af7a1e5624","system_id":"levelo_inurba_marseille","lat":43.29914,"lon":5.37468,"is_reserved":false,"is_disabled":false,"rental_uris":{"android":"levelo://app?vid=a272e42d-63c4-46fd-b886-11af7a1e5624","ios":"levelo://app?vid=a272e42d-63c4-46fd-b886-11af7a1e5624"},"vehicle_type_id":"4","last_reported":1761837109,"current_range_meters":14400,"station_id":"ce4bgjh2rcd13ifvqbg0","pricing_plan_id":"cebpf4jnsgd1na2vs0mg"},{"bike_id":"19bc830c-d758-4974-9ffc-8455c21afe7c","system_id":"levelo_inurba_marseille","lat":43.26552,"lon":5.37285,"is_reserved":false,"is_disabled":false,"rental_uris":{"android":"levelo://app?vid=19bc830c-d758-4974-9ffc-8455c21afe7c","ios":"levelo://app?vid=19bc830c-d758-4974-9ffc-8455c21afe7c"},"vehicle_type_id":"4","last_reported":1761837109,"current_range_meters":14400,"station_id":"ce4bhg12rcd13ifvqf70","pricing_plan_id":"cebpf4jnsgd1na2vs0mg"},{"bike_id":"8f9c3be1-dcf5-4f61-be35-6ea98fc54277","system_id":"levelo_inurba_marseille","lat":43.299342,"lon":5.365671,"is_reserved":false,"is_disabled":false,"rental_uris":{"android":"levelo://app?vid=8f9c3be1-dcf5-4f61-be35-6ea98fc54277","ios":"levelo://app?vid=8f9c3be1-dcf5-4f61-be35-6ea98fc54277"},"vehicle_type_id":"4","last_reported":1761837109,"current_range_meters":15200,"station_id":"ce4bgm92rcd13ifvqbr0","pricing_plan_id":"cebpf4jnsgd1na2vs0mg"},{"bike_id":"c13c6629-68c2-400d-a36d-0a5369bfeb06","system_id":"levelo_inurba_marseille","lat":43.239693,"lon":5.366337,"is_reserved":false,"is_disabled":false,"rental_uris":{"android":"levelo://app?vid=c13c6629-68c2-400d-a36d-0a5369bfeb06","ios":"levelo://app?vid=c13c6629-68c2-400d-a36d-0a5369bfeb06"},"vehicle_type_id":"4","last_reported":1761837109,"current_range_meters":15200,"station_id":"ce4bhi12rcd13ifvqfp0","pricing_plan_id":"cebpf4jnsgd1na2vs0mg"},{"bike_id":"a0d564f2-5ac0-4238-b3be-1fed830781ea","system_id":"levelo_inurba_marseille","lat":43.273801,"lon":5.362358,"is_reserved":false,"is_disabled":false,"rental_uris":{"android":"levelo://app?vid=a0d564f2-5ac0-4238-b3be-1fed830781ea","ios":"levelo://app?vid=a0d564f2-5ac0-4238-b3be-1fed830781ea"},"vehicle_type_id":"4","last_reported":1761837109,"current_range_meters":15200,"station_id":"","pricing_plan_id":"cebpf4jnsgd1na2vs0mg"},{"bike_id":"79ab418a-79c0-4a6e-993b-761280f132d6","system_id":"levelo_inurba_marseille","lat":43.284839,"lon":5.485351,"is_reserved":false,"is_disabled":false,"rental_uris":{"android":"levelo://app?vid=79ab418a-79c0-4a6e-993b-761280f132d6","ios":"levelo://app?vid=79ab418a-79c0-4a6e-993b-761280f132d6"},"vehicle_type_id":"4","last_reported":1761837109,"current_range_meters":15200,"station_id":"","pricing_plan_id":"cebpf4jnsgd1na2vs0mg"},{"bike_id":"3cc89a08-4917-4ae1-86a1-44bb8916c46d","system_id":"levelo_inurba_marseille","lat":43.23965,"lon":5.36636,"is_reserved":false,"is_disabled":false,"rental_uris":{"android":"levelo://app?vid=3cc89a08-4917-4ae1-86a1-44bb8916c46d","ios":"levelo://app?vid=3cc89a08-4917-4ae1-86a1-44bb8916c46d"},"vehicle_type_id":"4","last_reported":1761837109,"current_range_meters":15200,"station_id":"ce4bhi12rcd13ifvqfp0","pricing_plan_id":"cebpf4jnsgd1na2vs0mg"},{"bike_id":"4e695ff5-59e2-4c2d-b1d7-02a8bfaf1062","system_id":"levelo_inurba_marseille","lat":43.30121,"lon":5.398603,"is_reserved":false,"is_disabled":false,"rental_uris":{"android":"levelo://app?vid=4e695ff5-59e2-4c2d-b1d7-02a8bfaf1062","ios":"levelo://app?vid=4e695ff5-59e2-4c2d-b1d7-02a8bfaf1062"},"vehicle_type_id":"4","last_reported":1761837109,"current_range_meters":15200,"station_id":"ce4bh0h2rcd13ifvqd40","pricing_plan_id":"cebpf4jnsgd1na2vs0mg"},{"bike_id":"b33f1cf4-b45c-4f76-bf57-443484054f4b","system_id":"levelo_inurba_marseille","lat":43.2463,"lon":5.43148,"is_reserved":false,"is_disabled":false,"rental_uris":{"android":"levelo://app?vid=b33f1cf4-b45c-4f76-bf57-443484054f4b","ios":"levelo://app?vid=b33f1cf4-b45c-4f76-bf57-443484054f4b"},"vehicle_type_id":"4","last_reported":1761837109,"current_range_meters":15200,"station_id":"st_d2m6c4gdas8pm72e190g","pricing_plan_id":"cebpf4jnsgd1na2vs0mg"},{"bike_id":"8efa85ea-85a4-497e-90d4-42675f4ad12a","system_id":"levelo_inurba_marseille","lat":43.264593,"lon":5.373405,"is_reserved":false,"is_disabled":false,"rental_uris":{"android":"levelo://app?vid=8efa85ea-85a4-497e-90d4-42675f4ad12a","ios":"levelo://app?vid=8efa85ea-85a4-497e-90d4-42675f4ad12a"},"vehicle_type_id":"4","last_reported":1761837109,"current_range_meters":15200,"station_id":"","pricing_plan_id":"cebpf4jnsgd1na2vs0mg"},{"bike_id":"365ea7ac-bd85-4ae2-b670-d9658093b0b3","system_id":"levelo_inurba_marseille","lat":43.28722,"lon":5.360886,"is_reserved":false,"is_disabled":false,"rental_uris":{"android":"levelo://app?vid=365ea7ac-bd85-4ae2-b670-d9658093b0b3","ios":"levelo://app?vid=365ea7ac-bd85-4ae2-b670-d9658093b0b3"},"vehicle_type_id":"4","last_reported":1761837109,"current_range_meters":15200,"station_id":"cki0cbj6b192h4jlfktg","pricing_plan_id":"cebpf4jnsgd1na2vs0mg"},{"bike_id":"9b93b5e1-c939-4745-bf85-2d21945442dc","system_id":"levelo_inurba_marseille","lat":43.29993,"lon":5.3641,"is_reserved":false,"is_disabled":false,"rental_uris":{"android":"levelo://app?vid=9b93b5e1-c939-4745-bf85-2d21945442dc","ios":"levelo://app?vid=9b93b5e1-c939-4745-bf85-2d21945442dc"},"vehicle_type_id":"4","last_reported":1761837109,"current_range_meters":16000,"station_id":"","pricing_plan_id":"cebpf4jnsgd1na2vs0mg"},{"bike_id":"49eabeb8-91e9-4fed-9256-a94ef104e5f4","system_id":"levelo_inurba_marseille","lat":43.29599,"lon":5.36733,"is_reserved":false,"is_disabled":false,"rental_uris":{"android":"levelo://app?vid=49eabeb8-91e9-4fed-9256-a94ef104e5f4","ios":"levelo://app?vid=49eabeb8-91e9-4fed-9256-a94ef104e5f4"},"vehicle_type_id":"4","last_reported":1761837109,"current_range_meters":16000,"station_id":"ce4bgph2rcd13ifvqc2g","pricing_plan_id":"cebpf4jnsgd1na2vs0mg"},{"bike_id":"31a4b71c-a9cf-44a2-86d1-77d746675aae","system_id":"levelo_inurba_marseille","lat":43.29002,"lon":5.35617,"is_reserved":false,"is_disabled":false,"rental_uris":{"android":"levelo://app?vid=31a4b71c-a9cf-44a2-86d1-77d746675aae","ios":"levelo://app?vid=31a4b71c-a9cf-44a2-86d1-77d746675aae"},"vehicle_type_id":"4","last_reported":1761837109,"current_range_meters":16000,"station_id":"ce4bhb92rcd13ifvqen0","pricing_plan_id":"cebpf4jnsgd1na2vs0mg"},{"bike_id":"5ac76b08-9fce-4235-b6a9-a15fce067341","system_id":"levelo_inurba_marseille","lat":43.2455,"lon":5.36366,"is_reserved":false,"is_disabled":false,"rental_uris":{"android":"levelo://app?vid=5ac76b08-9fce-4235-b6a9-a15fce067341","ios":"levelo://app?vid=5ac76b08-9fce-4235-b6a9-a15fce067341"},"vehicle_type_id":"4","last_reported":1761837109,"current_range_meters":16000,"station_id":"","pricing_plan_id":"cebpf4jnsgd1na2vs0mg"},{"bike_id":"334eb48a-c2ee-4618-a48c-6fcbd6e5dad3","system_id":"levelo_inurba_marseille","lat":43.2737,"lon":5.36261,"is_reserved":false,"is_disabled":false,"rental_uris":{"android":"levelo://app?vid=334eb48a-c2ee-4618-a48c-6fcbd6e5dad3","ios":"levelo://app?vid=334eb48a-c2ee-4618-a48c-6fcbd6e5dad3"},"vehicle_type_id":"4","last_reported":1761837109,"current_range_meters":16000,"station_id":"ce4bhbh2rcd13ifvqeo0","pricing_plan_id":"cebpf4jnsgd1na2vs0mg"},{"bike_id":"23d1ee93-94f0-47cb-9a0c-a929ac2852b9","system_id":"levelo_inurba_marseille","lat":43.284238,"lon":5.350111,"is_reserved":false,"is_disabled":false,"rental_uris":{"android":"levelo://app?vid=23d1ee93-94f0-47cb-9a0c-a929ac2852b9","ios":"levelo://app?vid=23d1ee93-94f0-47cb-9a0c-a929ac2852b9"},"vehicle_type_id":"4","last_reported":1761837109,"current_range_meters":16000,"station_id":"ce4bhbh2rcd13ifvqepg","pricing_plan_id":"cebpf4jnsgd1na2vs0mg"},{"bike_id":"643fbe3b-efc3-43f6-bfcf-a706b76eeb1d","system_id":"levelo_inurba_marseille","lat":43.24073,"lon":5.377668,"is_reserved":false,"is_disabled":false,"rental_uris":{"android":"levelo://app?vid=643fbe3b-efc3-43f6-bfcf-a706b76eeb1d","ios":"levelo://app?vid=643fbe3b-efc3-43f6-bfcf-a706b76eeb1d"},"vehicle_type_id":"4","last_reported":1761837109,"current_range_meters":16000,"station_id":"ce4bhnp2rcd13ifvqgvg","pricing_plan_id":"cebpf4jnsgd1na2vs0mg"},{"bike_id":"13b5bebc-2277-4643-9efc-b419c3a09bbd","system_id":"levelo_inurba_marseille","lat":43.2293,"lon":5.35387,"is_reserved":false,"is_disabled":false,"rental_uris":{"android":"levelo://app?vid=13b5bebc-2277-4643-9efc-b419c3a09bbd","ios":"levelo://app?vid=13b5bebc-2277-4643-9efc-b419c3a09bbd"},"vehicle_type_id":"4","last_reported":1761837109,"current_range_meters":16400,"station_id":"cpo3532slgdg3j2ikp40","pricing_plan_id":"cebpf4jnsgd1na2vs0mg"},{"bike_id":"c2b29e2a-9ddf-4599-9569-ebeda3771708","system_id":"levelo_inurba_marseille","lat":43.21168,"lon":5.35096,"is_reserved":false,"is_disabled":false,"rental_uris":{"android":"levelo://app?vid=c2b29e2a-9ddf-4599-9569-ebeda3771708","ios":"levelo://app?vid=c2b29e2a-9ddf-4599-9569-ebeda3771708"},"vehicle_type_id":"4","last_reported":1761837109,"current_range_meters":16400,"station_id":"st_cvj6sg6p6f1abm77japg","pricing_plan_id":"cebpf4jnsgd1na2vs0mg"},{"bike_id":"091b1cc6-ee35-4c11-88b4-b45025ecb805","system_id":"levelo_inurba_marseille","lat":43.27374,"lon":5.36261,"is_reserved":false,"is_disabled":false,"rental_uris":{"android":"levelo://app?vid=091b1cc6-ee35-4c11-88b4-b45025ecb805","ios":"levelo://app?vid=091b1cc6-ee35-4c11-88b4-b45025ecb805"},"vehicle_type_id":"4","last_reported":1761837109,"current_range_meters":16400,"station_id":"ce4bhbh2rcd13ifvqeo0","pricing_plan_id":"cebpf4jnsgd1na2vs0mg"},{"bike_id":"2fd86c53-d195-4ab3-a5e6-984f6c0f4c38","system_id":"levelo_inurba_marseille","lat":43.2656,"lon":5.37339,"is_reserved":false,"is_disabled":false,"rental_uris":{"android":"levelo://app?vid=2fd86c53-d195-4ab3-a5e6-984f6c0f4c38","ios":"levelo://app?vid=2fd86c53-d195-4ab3-a5e6-984f6c0f4c38"},"vehicle_type_id":"4","last_reported":1761837109,"current_range_meters":16800,"station_id":"ce4bhg12rcd13ifvqf70","pricing_plan_id":"cebpf4jnsgd1na2vs0mg"},{"bike_id":"88327406-ba65-4ce0-831c-3da476dbb691","system_id":"levelo_inurba_marseille","lat":43.2378,"lon":5.36643,"is_reserved":false,"is_disabled":false,"rental_uris":{"android":"levelo://app?vid=88327406-ba65-4ce0-831c-3da476dbb691","ios":"levelo://app?vid=88327406-ba65-4ce0-831c-3da476dbb691"},"vehicle_type_id":"4","last_reported":1761837109,"current_range_meters":16800,"station_id":"st_d3nk18o9ro0c73en2l3g","pricing_plan_id":"cebpf4jnsgd1na2vs0mg"},{"bike_id":"2131bee7-dd57-4552-ad2e-0d08b1aef153","system_id":"levelo_inurba_marseille","lat":43.2928,"lon":5.36838,"is_reserved":false,"is_disabled":false,"rental_uris":{"android":"levelo://app?vid=2131bee7-dd57-4552-ad2e-0d08b1aef153","ios":"levelo://app?vid=2131bee7-dd57-4552-ad2e-0d08b1aef153"},"vehicle_type_id":"4","last_reported":1761837109,"current_range_meters":16800,"station_id":"ce4bhbp2rcd13ifvqesg","pricing_plan_id":"cebpf4jnsgd1na2vs0mg"},{"bike_id":"da0420b8-69e2-4ddf-9915-f492ed723756","system_id":"levelo_inurba_marseille","lat":43.30175,"lon":5.36619,"is_reserved":false,"is_disabled":false,"rental_uris":{"android":"levelo://app?vid=da0420b8-69e2-4ddf-9915-f492ed723756","ios":"levelo://app?vid=da0420b8-69e2-4ddf-9915-f492ed723756"},"vehicle_type_id":"4","last_reported":1761837109,"current_range_meters":16800,"station_id":"ce4bgrh2rcd13ifvqc8g","pricing_plan_id":"cebpf4jnsgd1na2vs0mg"},{"bike_id":"8bd76c8d-f5a7-49ff-b58b-3b6e9febc7f1","system_id":"levelo_inurba_marseille","lat":43.28529,"lon":5.44113,"is_reserved":false,"is_disabled":false,"rental_uris":{"android":"levelo://app?vid=8bd76c8d-f5a7-49ff-b58b-3b6e9febc7f1","ios":"levelo://app?vid=8bd76c8d-f5a7-49ff-b58b-3b6e9febc7f1"},"vehicle_type_id":"4","last_reported":1761837109,"current_range_meters":16800,"station_id":"st_d3j3df2ikq2c7380ej80","pricing_plan_id":"cebpf4jnsgd1na2vs0mg"},{"bike_id":"084b77c3-bae6-43e9-9ec8-af1ca907a562","system_id":"levelo_inurba_marseille","lat":43.25506,"lon":5.37654,"is_reserved":false,"is_disabled":false,"rental_uris":{"android":"levelo://app?vid=084b77c3-bae6-43e9-9ec8-af1ca907a562","ios":"levelo://app?vid=084b77c3-bae6-43e9-9ec8-af1ca907a562"},"vehicle_type_id":"4","last_reported":1761837109,"current_range_meters":16800,"station_id":"ce4bhh12rcd13ifvqff0","pricing_plan_id":"cebpf4jnsgd1na2vs0mg"},{"bike_id":"be6d3677-fda8-4ea8-ac4d-67dccfbd2e0c","system_id":"levelo_inurba_marseille","lat":43.29932,"lon":5.36564,"is_reserved":false,"is_disabled":false,"rental_uris":{"android":"levelo://app?vid=be6d3677-fda8-4ea8-ac4d-67dccfbd2e0c","ios":"levelo://app?vid=be6d3677-fda8-4ea8-ac4d-67dccfbd2e0c"},"vehicle_type_id":"4","last_reported":1761837109,"current_range_meters":16800,"station_id":"ce4bgm92rcd13ifvqbr0","pricing_plan_id":"cebpf4jnsgd1na2vs0mg"},{"bike_id":"c1b80a2d-4c09-4897-a6de-d7dc582f3acd","system_id":"levelo_inurba_marseille","lat":43.30244,"lon":5.37742,"is_reserved":false,"is_disabled":false,"rental_uris":{"android":"levelo://app?vid=c1b80a2d-4c09-4897-a6de-d7dc582f3acd","ios":"levelo://app?vid=c1b80a2d-4c09-4897-a6de-d7dc582f3acd"},"vehicle_type_id":"4","last_reported":1761837109,"current_range_meters":16800,"station_id":"ce4bguh2rcd13ifvqcj0","pricing_plan_id":"cebpf4jnsgd1na2vs0mg"},{"bike_id":"54296072-40eb-4a6c-8984-2b6567f907a2","system_id":"levelo_inurba_marseille","lat":43.290692,"lon":5.371791,"is_reserved":false,"is_disabled":false,"rental_uris":{"android":"levelo://app?vid=54296072-40eb-4a6c-8984-2b6567f907a2","ios":"levelo://app?vid=54296072-40eb-4a6c-8984-2b6567f907a2"},"vehicle_type_id":"4","last_reported":1761837109,"current_range_meters":16800,"station_id":"ce4bh5p2rcd13ifvqe4g","pricing_plan_id":"cebpf4jnsgd1na2vs0mg"},{"bike_id":"216e46ca-be00-4e8e-a1e1-fb94531ee1ae","system_id":"levelo_inurba_marseille","lat":43.2954,"lon":5.42287,"is_reserved":false,"is_disabled":true,"rental_uris":{"android":"levelo://app?vid=216e46ca-be00-4e8e-a1e1-fb94531ee1ae","ios":"levelo://app?vid=216e46ca-be00-4e8e-a1e1-fb94531ee1ae"},"vehicle_type_id":"4","last_reported":1761837109,"current_range_meters":17200,"station_id":"ce4bhph2rcd13ifvqhdg","pricing_plan_id":"cebpf4jnsgd1na2vs0mg"},{"bike_id":"2f75dca4-ae1e-4cd0-a762-7cc12bd92006","system_id":"levelo_inurba_marseille","lat":43.276224,"lon":5.361107,"is_reserved":false,"is_disabled":false,"rental_uris":{"android":"levelo://app?vid=2f75dca4-ae1e-4cd0-a762-7cc12bd92006","ios":"levelo://app?vid=2f75dca4-ae1e-4cd0-a762-7cc12bd92006"},"vehicle_type_id":"4","last_reported":1761837109,"current_range_meters":17200,"station_id":"ce4bgj92rcd13ifvqbe0","pricing_plan_id":"cebpf4jnsgd1na2vs0mg"},{"bike_id":"9a8c6b52-40de-40a8-961b-f25b9a19491b","system_id":"levelo_inurba_marseille","lat":43.27065,"lon":5.42299,"is_reserved":false,"is_disabled":false,"rental_uris":{"android":"levelo://app?vid=9a8c6b52-40de-40a8-961b-f25b9a19491b","ios":"levelo://app?vid=9a8c6b52-40de-40a8-961b-f25b9a19491b"},"vehicle_type_id":"4","last_reported":1761837109,"current_range_meters":17200,"station_id":"ce4bhk92rcd13ifvqgb0","pricing_plan_id":"cebpf4jnsgd1na2vs0mg"},{"bike_id":"20f4b636-0263-461f-8528-cd153df38e8b","system_id":"levelo_inurba_marseille","lat":43.2499,"lon":5.38951,"is_reserved":false,"is_disabled":false,"rental_uris":{"android":"levelo://app?vid=20f4b636-0263-461f-8528-cd153df38e8b","ios":"levelo://app?vid=20f4b636-0263-461f-8528-cd153df38e8b"},"vehicle_type_id":"4","last_reported":1761837109,"current_range_meters":17200,"station_id":"ce4bhgp2rcd13ifvqfd0","pricing_plan_id":"cebpf4jnsgd1na2vs0mg"},{"bike_id":"80c53fab-d9fd-4b9a-94e7-e3f3183e35da","system_id":"levelo_inurba_marseille","lat":43.33025,"lon":5.3905,"is_reserved":false,"is_disabled":false,"rental_uris":{"android":"levelo://app?vid=80c53fab-d9fd-4b9a-94e7-e3f3183e35da","ios":"levelo://app?vid=80c53fab-d9fd-4b9a-94e7-e3f3183e35da"},"vehicle_type_id":"4","last_reported":1761837109,"current_range_meters":17200,"station_id":"ce4bhr92rcd13ifvqhrg","pricing_plan_id":"cebpf4jnsgd1na2vs0mg"},{"bike_id":"ac054415-4e37-4567-b95e-73970b5e64bc","system_id":"levelo_inurba_marseille","lat":43.324825,"lon":5.365826,"is_reserved":false,"is_disabled":false,"rental_uris":{"android":"levelo://app?vid=ac054415-4e37-4567-b95e-73970b5e64bc","ios":"levelo://app?vid=ac054415-4e37-4567-b95e-73970b5e64bc"},"vehicle_type_id":"4","last_reported":1761837109,"current_range_meters":17200,"station_id":"ce4bhs12rcd13ifvqhvg","pricing_plan_id":"cebpf4jnsgd1na2vs0mg"},{"bike_id":"7dcbb312-1af6-419e-b362-06cb5d441001","system_id":"levelo_inurba_marseille","lat":43.25512,"lon":5.37646,"is_reserved":false,"is_disabled":false,"rental_uris":{"android":"levelo://app?vid=7dcbb312-1af6-419e-b362-06cb5d441001","ios":"levelo://app?vid=7dcbb312-1af6-419e-b362-06cb5d441001"},"vehicle_type_id":"4","last_reported":1761837109,"current_range_meters":17200,"station_id":"ce4bhh12rcd13ifvqff0","pricing_plan_id":"cebpf4jnsgd1na2vs0mg"},{"bike_id":"db401dcb-dc87-4e19-81ad-a3908ab9e53a","system_id":"levelo_inurba_marseille","lat":43.28838,"lon":5.40013,"is_reserved":false,"is_disabled":false,"rental_uris":{"android":"levelo://app?vid=db401dcb-dc87-4e19-81ad-a3908ab9e53a","ios":"levelo://app?vid=db401dcb-dc87-4e19-81ad-a3908ab9e53a"},"vehicle_type_id":"4","last_reported":1761837109,"current_range_meters":17200,"station_id":"","pricing_plan_id":"cebpf4jnsgd1na2vs0mg"},{"bike_id":"05a47c24-c74d-4482-aade-5974399cb310","system_id":"levelo_inurba_marseille","lat":43.29606,"lon":5.37672,"is_reserved":false,"is_disabled":false,"rental_uris":{"android":"levelo://app?vid=05a47c24-c74d-4482-aade-5974399cb310","ios":"levelo://app?vid=05a47c24-c74d-4482-aade-5974399cb310"},"vehicle_type_id":"4","last_reported":1761837109,"current_range_meters":17200,"station_id":"ce4bgi92rcd13ifvqb90","pricing_plan_id":"cebpf4jnsgd1na2vs0mg"},{"bike_id":"31c8721c-3208-4c59-a6fa-6895f6c9b08c","system_id":"levelo_inurba_marseille","lat":43.255,"lon":5.3765,"is_reserved":false,"is_disabled":false,"rental_uris":{"android":"levelo://app?vid=31c8721c-3208-4c59-a6fa-6895f6c9b08c","ios":"levelo://app?vid=31c8721c-3208-4c59-a6fa-6895f6c9b08c"},"vehicle_type_id":"4","last_reported":1761837109,"current_range_meters":17200,"station_id":"ce4bhh12rcd13ifvqff0","pricing_plan_id":"cebpf4jnsgd1na2vs0mg"},{"bike_id":"b8f404d3-62c4-4489-a471-d37212346558","system_id":"levelo_inurba_marseille","lat":43.31055,"lon":5.37871,"is_reserved":false,"is_disabled":false,"rental_uris":{"android":"levelo://app?vid=b8f404d3-62c4-4489-a471-d37212346558","ios":"levelo://app?vid=b8f404d3-62c4-4489-a471-d37212346558"},"vehicle_type_id":"4","last_reported":1761837109,"current_range_meters":17200,"station_id":"","pricing_plan_id":"cebpf4jnsgd1na2vs0mg"},{"bike_id":"f6e41c21-0e74-476c-8273-8a6a7b44e6bc","system_id":"levelo_inurba_marseille","lat":43.307304,"lon":5.424488,"is_reserved":false,"is_disabled":false,"rental_uris":{"android":"levelo://app?vid=f6e41c21-0e74-476c-8273-8a6a7b44e6bc","ios":"levelo://app?vid=f6e41c21-0e74-476c-8273-8a6a7b44e6bc"},"vehicle_type_id":"4","last_reported":1761837109,"current_range_meters":17200,"station_id":"st_cvj6ca6bvosntc0bfgr0","pricing_plan_id":"cebpf4jnsgd1na2vs0mg"},{"bike_id":"1884d5c9-bd91-4658-bea4-a53682273fa1","system_id":"levelo_inurba_marseille","lat":43.2798,"lon":5.40024,"is_reserved":false,"is_disabled":false,"rental_uris":{"android":"levelo://app?vid=1884d5c9-bd91-4658-bea4-a53682273fa1","ios":"levelo://app?vid=1884d5c9-bd91-4658-bea4-a53682273fa1"},"vehicle_type_id":"4","last_reported":1761837109,"current_range_meters":17600,"station_id":"ce4bho92rcd13ifvqh4g","pricing_plan_id":"cebpf4jnsgd1na2vs0mg"},{"bike_id":"a4dac4fa-66e6-48be-a654-6e17cdc7ca0b","system_id":"levelo_inurba_marseille","lat":43.337571,"lon":5.374323,"is_reserved":false,"is_disabled":false,"rental_uris":{"android":"levelo://app?vid=a4dac4fa-66e6-48be-a654-6e17cdc7ca0b","ios":"levelo://app?vid=a4dac4fa-66e6-48be-a654-6e17cdc7ca0b"},"vehicle_type_id":"4","last_reported":1761837109,"current_range_meters":17600,"station_id":"","pricing_plan_id":"cebpf4jnsgd1na2vs0mg"},{"bike_id":"dbdcbebb-ba09-4611-b641-7e922549f81a","system_id":"levelo_inurba_marseille","lat":43.3046,"lon":5.37905,"is_reserved":false,"is_disabled":false,"rental_uris":{"android":"levelo://app?vid=dbdcbebb-ba09-4611-b641-7e922549f81a","ios":"levelo://app?vid=dbdcbebb-ba09-4611-b641-7e922549f81a"},"vehicle_type_id":"4","last_reported":1761837109,"current_range_meters":17600,"station_id":"ce4bgup2rcd13ifvqcn0","pricing_plan_id":"cebpf4jnsgd1na2vs0mg"},{"bike_id":"8a0ff850-cf9f-4e75-bc3f-994489f28f31","system_id":"levelo_inurba_marseille","lat":43.22558,"lon":5.41648,"is_reserved":false,"is_disabled":false,"rental_uris":{"android":"levelo://app?vid=8a0ff850-cf9f-4e75-bc3f-994489f28f31","ios":"levelo://app?vid=8a0ff850-cf9f-4e75-bc3f-994489f28f31"},"vehicle_type_id":"4","last_reported":1761837109,"current_range_meters":17600,"station_id":"st_d2o4gvlbi1j2169b742g","pricing_plan_id":"cebpf4jnsgd1na2vs0mg"},{"bike_id":"ede3cf36-d636-426c-9ea0-80f695930f6d","system_id":"levelo_inurba_marseille","lat":43.3028,"lon":5.377,"is_reserved":false,"is_disabled":false,"rental_uris":{"android":"levelo://app?vid=ede3cf36-d636-426c-9ea0-80f695930f6d","ios":"levelo://app?vid=ede3cf36-d636-426c-9ea0-80f695930f6d"},"vehicle_type_id":"4","last_reported":1761837109,"current_range_meters":17600,"station_id":"ce4bguh2rcd13ifvqcj0","pricing_plan_id":"cebpf4jnsgd1na2vs0mg"},{"bike_id":"4a269658-efc3-43fb-9a59-9805d56ddae4","system_id":"levelo_inurba_marseille","lat":43.2655,"lon":5.37284,"is_reserved":false,"is_disabled":false,"rental_uris":{"android":"levelo://app?vid=4a269658-efc3-43fb-9a59-9805d56ddae4","ios":"levelo://app?vid=4a269658-efc3-43fb-9a59-9805d56ddae4"},"vehicle_type_id":"4","last_reported":1761837109,"current_range_meters":17600,"station_id":"ce4bhg12rcd13ifvqf70","pricing_plan_id":"cebpf4jnsgd1na2vs0mg"},{"bike_id":"39115826-ff07-401d-bd27-b3c57a05dbaf","system_id":"levelo_inurba_marseille","lat":43.26787,"lon":5.39425,"is_reserved":false,"is_disabled":false,"rental_uris":{"android":"levelo://app?vid=39115826-ff07-401d-bd27-b3c57a05dbaf","ios":"levelo://app?vid=39115826-ff07-401d-bd27-b3c57a05dbaf"},"vehicle_type_id":"4","last_reported":1761837109,"current_range_meters":17600,"station_id":"ce4bhh12rcd13ifvqfg0","pricing_plan_id":"cebpf4jnsgd1na2vs0mg"},{"bike_id":"bee06f8d-6c7a-431b-870a-31d22b966633","system_id":"levelo_inurba_marseille","lat":43.34141,"lon":5.40905,"is_reserved":false,"is_disabled":false,"rental_uris":{"android":"levelo://app?vid=bee06f8d-6c7a-431b-870a-31d22b966633","ios":"levelo://app?vid=bee06f8d-6c7a-431b-870a-31d22b966633"},"vehicle_type_id":"4","last_reported":1761837109,"current_range_meters":17600,"station_id":"ce4bhqh2rcd13ifvqhlg","pricing_plan_id":"cebpf4jnsgd1na2vs0mg"},{"bike_id":"32a35b9b-6aca-4b70-9bd2-e6acde4ddbcc","system_id":"levelo_inurba_marseille","lat":43.22933,"lon":5.35379,"is_reserved":false,"is_disabled":false,"rental_uris":{"android":"levelo://app?vid=32a35b9b-6aca-4b70-9bd2-e6acde4ddbcc","ios":"levelo://app?vid=32a35b9b-6aca-4b70-9bd2-e6acde4ddbcc"},"vehicle_type_id":"4","last_reported":1761837109,"current_range_meters":17600,"station_id":"cpo3532slgdg3j2ikp40","pricing_plan_id":"cebpf4jnsgd1na2vs0mg"},{"bike_id":"c0a1ab8d-72ff-4114-b274-fdab8f1c3cb0","system_id":"levelo_inurba_marseille","lat":43.24149,"lon":5.39697,"is_reserved":false,"is_disabled":false,"rental_uris":{"android":"levelo://app?vid=c0a1ab8d-72ff-4114-b274-fdab8f1c3cb0","ios":"levelo://app?vid=c0a1ab8d-72ff-4114-b274-fdab8f1c3cb0"},"vehicle_type_id":"4","last_reported":1761837109,"current_range_meters":18000,"station_id":"ce4bhn12rcd13ifvqgpg","pricing_plan_id":"cebpf4jnsgd1na2vs0mg"},{"bike_id":"20c1c26d-be2a-4cac-8028-038f5ffc2f00","system_id":"levelo_inurba_marseille","lat":43.29249,"lon":5.36865,"is_reserved":false,"is_disabled":false,"rental_uris":{"android":"levelo://app?vid=20c1c26d-be2a-4cac-8028-038f5ffc2f00","ios":"levelo://app?vid=20c1c26d-be2a-4cac-8028-038f5ffc2f00"},"vehicle_type_id":"4","last_reported":1761837109,"current_range_meters":18000,"station_id":"ce4bhbp2rcd13ifvqesg","pricing_plan_id":"cebpf4jnsgd1na2vs0mg"},{"bike_id":"70e3e0f4-e383-46a4-93e3-5cb9990c4fa0","system_id":"levelo_inurba_marseille","lat":43.29095,"lon":5.38149,"is_reserved":false,"is_disabled":false,"rental_uris":{"android":"levelo://app?vid=70e3e0f4-e383-46a4-93e3-5cb9990c4fa0","ios":"levelo://app?vid=70e3e0f4-e383-46a4-93e3-5cb9990c4fa0"},"vehicle_type_id":"4","last_reported":1761837109,"current_range_meters":18000,"station_id":"ce4bh512rcd13ifvqe2g","pricing_plan_id":"cebpf4jnsgd1na2vs0mg"},{"bike_id":"f7b660d1-a642-4edf-a806-ad577ba031da","system_id":"levelo_inurba_marseille","lat":43.30559,"lon":5.36533,"is_reserved":false,"is_disabled":false,"rental_uris":{"android":"levelo://app?vid=f7b660d1-a642-4edf-a806-ad577ba031da","ios":"levelo://app?vid=f7b660d1-a642-4edf-a806-ad577ba031da"},"vehicle_type_id":"4","last_reported":1761837109,"current_range_meters":18000,"station_id":"ce4bgs12rcd13ifvqcag","pricing_plan_id":"cebpf4jnsgd1na2vs0mg"},{"bike_id":"dfe9358b-cc24-49b1-8038-333fed7831e2","system_id":"levelo_inurba_marseille","lat":43.29713,"lon":5.37702,"is_reserved":false,"is_disabled":false,"rental_uris":{"android":"levelo://app?vid=dfe9358b-cc24-49b1-8038-333fed7831e2","ios":"levelo://app?vid=dfe9358b-cc24-49b1-8038-333fed7831e2"},"vehicle_type_id":"4","last_reported":1761837109,"current_range_meters":18000,"station_id":"ce4bgkh2rcd13ifvqbl0","pricing_plan_id":"cebpf4jnsgd1na2vs0mg"},{"bike_id":"4d87c8b0-0a11-46ec-89a2-cf8ba36e9d2d","system_id":"levelo_inurba_marseille","lat":43.287065,"lon":5.399872,"is_reserved":false,"is_disabled":false,"rental_uris":{"android":"levelo://app?vid=4d87c8b0-0a11-46ec-89a2-cf8ba36e9d2d","ios":"levelo://app?vid=4d87c8b0-0a11-46ec-89a2-cf8ba36e9d2d"},"vehicle_type_id":"4","last_reported":1761837109,"current_range_meters":18000,"station_id":"ce4bho92rcd13ifvqh3g","pricing_plan_id":"cebpf4jnsgd1na2vs0mg"},{"bike_id":"f6e0e3f8-3c81-4868-b57d-23be85bceefb","system_id":"levelo_inurba_marseille","lat":43.25082,"lon":5.39528,"is_reserved":false,"is_disabled":false,"rental_uris":{"android":"levelo://app?vid=f6e0e3f8-3c81-4868-b57d-23be85bceefb","ios":"levelo://app?vid=f6e0e3f8-3c81-4868-b57d-23be85bceefb"},"vehicle_type_id":"4","last_reported":1761837109,"current_range_meters":18000,"station_id":"ce4bhm12rcd13ifvqgkg","pricing_plan_id":"cebpf4jnsgd1na2vs0mg"},{"bike_id":"50fabdae-b4d4-4ddc-b9ae-b2a22ed0eba4","system_id":"levelo_inurba_marseille","lat":43.277389,"lon":5.374291,"is_reserved":false,"is_disabled":false,"rental_uris":{"android":"levelo://app?vid=50fabdae-b4d4-4ddc-b9ae-b2a22ed0eba4","ios":"levelo://app?vid=50fabdae-b4d4-4ddc-b9ae-b2a22ed0eba4"},"vehicle_type_id":"4","last_reported":1761837109,"current_range_meters":18000,"station_id":"ce4bhbh2rcd13ifvqeo0","pricing_plan_id":"cebpf4jnsgd1na2vs0mg"},{"bike_id":"a27ea015-9d73-41b0-aa36-b3953f30b56d","system_id":"levelo_inurba_marseille","lat":43.24634,"lon":5.38906,"is_reserved":false,"is_disabled":false,"rental_uris":{"android":"levelo://app?vid=a27ea015-9d73-41b0-aa36-b3953f30b56d","ios":"levelo://app?vid=a27ea015-9d73-41b0-aa36-b3953f30b56d"},"vehicle_type_id":"4","last_reported":1761837109,"current_range_meters":18800,"station_id":"ce4bhg12rcd13ifvqf60","pricing_plan_id":"cebpf4jnsgd1na2vs0mg"},{"bike_id":"6bff2a15-2b10-4730-96c6-c03c1a013697","system_id":"levelo_inurba_marseille","lat":43.29013,"lon":5.38119,"is_reserved":false,"is_disabled":false,"rental_uris":{"android":"levelo://app?vid=6bff2a15-2b10-4730-96c6-c03c1a013697","ios":"levelo://app?vid=6bff2a15-2b10-4730-96c6-c03c1a013697"},"vehicle_type_id":"4","last_reported":1761837109,"current_range_meters":18800,"station_id":"ce4bh4p2rcd13ifvqe1g","pricing_plan_id":"cebpf4jnsgd1na2vs0mg"},{"bike_id":"39e51dd6-0029-4ebe-baf5-1963ac20b8df","system_id":"levelo_inurba_marseille","lat":43.24551,"lon":5.39539,"is_reserved":false,"is_disabled":false,"rental_uris":{"android":"levelo://app?vid=39e51dd6-0029-4ebe-baf5-1963ac20b8df","ios":"levelo://app?vid=39e51dd6-0029-4ebe-baf5-1963ac20b8df"},"vehicle_type_id":"4","last_reported":1761837109,"current_range_meters":18800,"station_id":"ce4bhlp2rcd13ifvqgjg","pricing_plan_id":"cebpf4jnsgd1na2vs0mg"},{"bike_id":"9da932a5-8f71-41d5-90d3-bb657dc1c603","system_id":"levelo_inurba_marseille","lat":43.276635,"lon":5.388816,"is_reserved":false,"is_disabled":false,"rental_uris":{"android":"levelo://app?vid=9da932a5-8f71-41d5-90d3-bb657dc1c603","ios":"levelo://app?vid=9da932a5-8f71-41d5-90d3-bb657dc1c603"},"vehicle_type_id":"4","last_reported":1761837109,"current_range_meters":18800,"station_id":"ce4bhi12rcd13ifvqfo0","pricing_plan_id":"cebpf4jnsgd1na2vs0mg"},{"bike_id":"ee261a32-9de1-4b9e-a923-6c91e1e26176","system_id":"levelo_inurba_marseille","lat":43.284944,"lon":5.48394,"is_reserved":false,"is_disabled":false,"rental_uris":{"android":"levelo://app?vid=ee261a32-9de1-4b9e-a923-6c91e1e26176","ios":"levelo://app?vid=ee261a32-9de1-4b9e-a923-6c91e1e26176"},"vehicle_type_id":"4","last_reported":1761837109,"current_range_meters":18800,"station_id":"st_d3svhcjqgbts73a3dn0g","pricing_plan_id":"cebpf4jnsgd1na2vs0mg"},{"bike_id":"9c7deed2-882d-430f-b6c9-93172f5c5e85","system_id":"levelo_inurba_marseille","lat":43.29003,"lon":5.3562,"is_reserved":false,"is_disabled":false,"rental_uris":{"android":"levelo://app?vid=9c7deed2-882d-430f-b6c9-93172f5c5e85","ios":"levelo://app?vid=9c7deed2-882d-430f-b6c9-93172f5c5e85"},"vehicle_type_id":"4","last_reported":1761837109,"current_range_meters":18800,"station_id":"ce4bhb92rcd13ifvqen0","pricing_plan_id":"cebpf4jnsgd1na2vs0mg"},{"bike_id":"3cdb08b0-77c7-4e1f-ba18-06cdf855b596","system_id":"levelo_inurba_marseille","lat":43.29785,"lon":5.37077,"is_reserved":false,"is_disabled":false,"rental_uris":{"android":"levelo://app?vid=3cdb08b0-77c7-4e1f-ba18-06cdf855b596","ios":"levelo://app?vid=3cdb08b0-77c7-4e1f-ba18-06cdf855b596"},"vehicle_type_id":"4","last_reported":1761837109,"current_range_meters":19200,"station_id":"ce4bgop2rcd13ifvqc1g","pricing_plan_id":"cebpf4jnsgd1na2vs0mg"},{"bike_id":"560ac9bb-472a-461f-a7c9-aa377313471c","system_id":"levelo_inurba_marseille","lat":43.24688,"lon":5.38136,"is_reserved":false,"is_disabled":false,"rental_uris":{"android":"levelo://app?vid=560ac9bb-472a-461f-a7c9-aa377313471c","ios":"levelo://app?vid=560ac9bb-472a-461f-a7c9-aa377313471c"},"vehicle_type_id":"4","last_reported":1761837109,"current_range_meters":19200,"station_id":"ce4bhih2rcd13ifvqfr0","pricing_plan_id":"cebpf4jnsgd1na2vs0mg"},{"bike_id":"0a9abdf5-79f0-47db-9743-c4be71bd0ac0","system_id":"levelo_inurba_marseille","lat":43.30119,"lon":5.4313,"is_reserved":false,"is_disabled":false,"rental_uris":{"android":"levelo://app?vid=0a9abdf5-79f0-47db-9743-c4be71bd0ac0","ios":"levelo://app?vid=0a9abdf5-79f0-47db-9743-c4be71bd0ac0"},"vehicle_type_id":"4","last_reported":1761837109,"current_range_meters":19200,"station_id":"st_d3js3co5814s73ftftug","pricing_plan_id":"cebpf4jnsgd1na2vs0mg"},{"bike_id":"ade39380-d3ac-4843-aac0-8d8c294215d1","system_id":"levelo_inurba_marseille","lat":43.273745,"lon":5.362607,"is_reserved":false,"is_disabled":false,"rental_uris":{"android":"levelo://app?vid=ade39380-d3ac-4843-aac0-8d8c294215d1","ios":"levelo://app?vid=ade39380-d3ac-4843-aac0-8d8c294215d1"},"vehicle_type_id":"4","last_reported":1761837109,"current_range_meters":19200,"station_id":"ce4bhbh2rcd13ifvqeo0","pricing_plan_id":"cebpf4jnsgd1na2vs0mg"},{"bike_id":"179ce6e6-2ed9-442e-92a4-9e439bdae226","system_id":"levelo_inurba_marseille","lat":43.31296,"lon":5.36753,"is_reserved":false,"is_disabled":false,"rental_uris":{"android":"levelo://app?vid=179ce6e6-2ed9-442e-92a4-9e439bdae226","ios":"levelo://app?vid=179ce6e6-2ed9-442e-92a4-9e439bdae226"},"vehicle_type_id":"4","last_reported":1761837109,"current_range_meters":19200,"station_id":"","pricing_plan_id":"cebpf4jnsgd1na2vs0mg"},{"bike_id":"87064cd6-96b0-442e-8d9e-d72564bdbe28","system_id":"levelo_inurba_marseille","lat":43.310696,"lon":5.383574,"is_reserved":false,"is_disabled":false,"rental_uris":{"android":"levelo://app?vid=87064cd6-96b0-442e-8d9e-d72564bdbe28","ios":"levelo://app?vid=87064cd6-96b0-442e-8d9e-d72564bdbe28"},"vehicle_type_id":"4","last_reported":1761837109,"current_range_meters":19600,"station_id":"","pricing_plan_id":"cebpf4jnsgd1na2vs0mg"},{"bike_id":"4dfe3a7a-891b-4a3a-a7d8-8b0c8654af30","system_id":"levelo_inurba_marseille","lat":43.260404,"lon":5.37568,"is_reserved":false,"is_disabled":false,"rental_uris":{"android":"levelo://app?vid=4dfe3a7a-891b-4a3a-a7d8-8b0c8654af30","ios":"levelo://app?vid=4dfe3a7a-891b-4a3a-a7d8-8b0c8654af30"},"vehicle_type_id":"4","last_reported":1761837109,"current_range_meters":19600,"station_id":"ce4bhgh2rcd13ifvqfa0","pricing_plan_id":"cebpf4jnsgd1na2vs0mg"},{"bike_id":"4db70d35-55c1-4882-9afa-60a20ebab009","system_id":"levelo_inurba_marseille","lat":43.30884,"lon":5.39659,"is_reserved":false,"is_disabled":false,"rental_uris":{"android":"levelo://app?vid=4db70d35-55c1-4882-9afa-60a20ebab009","ios":"levelo://app?vid=4db70d35-55c1-4882-9afa-60a20ebab009"},"vehicle_type_id":"4","last_reported":1761837109,"current_range_meters":19600,"station_id":"ce4bh012rcd13ifvqcv0","pricing_plan_id":"cebpf4jnsgd1na2vs0mg"},{"bike_id":"4dfda3f6-0107-4abe-9691-c087da796c03","system_id":"levelo_inurba_marseille","lat":43.290408,"lon":5.375761,"is_reserved":false,"is_disabled":false,"rental_uris":{"android":"levelo://app?vid=4dfda3f6-0107-4abe-9691-c087da796c03","ios":"levelo://app?vid=4dfda3f6-0107-4abe-9691-c087da796c03"},"vehicle_type_id":"4","last_reported":1761837109,"current_range_meters":19600,"station_id":"ce4bh692rcd13ifvqe90","pricing_plan_id":"cebpf4jnsgd1na2vs0mg"},{"bike_id":"e02b8061-ba2d-4d7c-8048-3c9472854eb0","system_id":"levelo_inurba_marseille","lat":43.27308,"lon":5.39136,"is_reserved":false,"is_disabled":false,"rental_uris":{"android":"levelo://app?vid=e02b8061-ba2d-4d7c-8048-3c9472854eb0","ios":"levelo://app?vid=e02b8061-ba2d-4d7c-8048-3c9472854eb0"},"vehicle_type_id":"4","last_reported":1761837109,"current_range_meters":19600,"station_id":"","pricing_plan_id":"cebpf4jnsgd1na2vs0mg"},{"bike_id":"17860370-b709-464a-ae87-ef07a5744ace","system_id":"levelo_inurba_marseille","lat":43.26678,"lon":5.38287,"is_reserved":false,"is_disabled":false,"rental_uris":{"android":"levelo://app?vid=17860370-b709-464a-ae87-ef07a5744ace","ios":"levelo://app?vid=17860370-b709-464a-ae87-ef07a5744ace"},"vehicle_type_id":"4","last_reported":1761837109,"current_range_meters":19600,"station_id":"ce4bhg92rcd13ifvqf90","pricing_plan_id":"cebpf4jnsgd1na2vs0mg"},{"bike_id":"d09d98ee-bea7-4a20-b7b9-bff4910302ec","system_id":"levelo_inurba_marseille","lat":43.31376,"lon":5.36714,"is_reserved":false,"is_disabled":false,"rental_uris":{"android":"levelo://app?vid=d09d98ee-bea7-4a20-b7b9-bff4910302ec","ios":"levelo://app?vid=d09d98ee-bea7-4a20-b7b9-bff4910302ec"},"vehicle_type_id":"4","last_reported":1761837109,"current_range_meters":19600,"station_id":"ce4bgr92rcd13ifvqc6g","pricing_plan_id":"cebpf4jnsgd1na2vs0mg"},{"bike_id":"ca9e1f70-9f94-48de-9252-05f431184534","system_id":"levelo_inurba_marseille","lat":43.24659,"lon":5.38171,"is_reserved":false,"is_disabled":false,"rental_uris":{"android":"levelo://app?vid=ca9e1f70-9f94-48de-9252-05f431184534","ios":"levelo://app?vid=ca9e1f70-9f94-48de-9252-05f431184534"},"vehicle_type_id":"4","last_reported":1761837109,"current_range_meters":19600,"station_id":"ce4bhih2rcd13ifvqfr0","pricing_plan_id":"cebpf4jnsgd1na2vs0mg"},{"bike_id":"2e85b8f5-34ac-40b3-8daf-548ca5c0c17c","system_id":"levelo_inurba_marseille","lat":43.29219,"lon":5.36064,"is_reserved":false,"is_disabled":false,"rental_uris":{"android":"levelo://app?vid=2e85b8f5-34ac-40b3-8daf-548ca5c0c17c","ios":"levelo://app?vid=2e85b8f5-34ac-40b3-8daf-548ca5c0c17c"},"vehicle_type_id":"4","last_reported":1761837109,"current_range_meters":19600,"station_id":"ce4bhbh2rcd13ifvqeqg","pricing_plan_id":"cebpf4jnsgd1na2vs0mg"},{"bike_id":"3e147cc7-1c05-4c10-88db-3d10fe34fe3a","system_id":"levelo_inurba_marseille","lat":43.24638,"lon":5.43146,"is_reserved":false,"is_disabled":false,"rental_uris":{"android":"levelo://app?vid=3e147cc7-1c05-4c10-88db-3d10fe34fe3a","ios":"levelo://app?vid=3e147cc7-1c05-4c10-88db-3d10fe34fe3a"},"vehicle_type_id":"4","last_reported":1761837109,"current_range_meters":19600,"station_id":"st_d2m6c4gdas8pm72e190g","pricing_plan_id":"cebpf4jnsgd1na2vs0mg"},{"bike_id":"90cc4e35-1e9a-4d48-878d-a3997094c0ce","system_id":"levelo_inurba_marseille","lat":43.24634,"lon":5.43153,"is_reserved":false,"is_disabled":false,"rental_uris":{"android":"levelo://app?vid=90cc4e35-1e9a-4d48-878d-a3997094c0ce","ios":"levelo://app?vid=90cc4e35-1e9a-4d48-878d-a3997094c0ce"},"vehicle_type_id":"4","last_reported":1761837109,"current_range_meters":19600,"station_id":"st_d2m6c4gdas8pm72e190g","pricing_plan_id":"cebpf4jnsgd1na2vs0mg"},{"bike_id":"dedb4f63-ea54-40fc-9c19-5ff9807fc89a","system_id":"levelo_inurba_marseille","lat":43.27366,"lon":5.36264,"is_reserved":false,"is_disabled":false,"rental_uris":{"android":"levelo://app?vid=dedb4f63-ea54-40fc-9c19-5ff9807fc89a","ios":"levelo://app?vid=dedb4f63-ea54-40fc-9c19-5ff9807fc89a"},"vehicle_type_id":"4","last_reported":1761837109,"current_range_meters":19600,"station_id":"ce4bhbh2rcd13ifvqeo0","pricing_plan_id":"cebpf4jnsgd1na2vs0mg"},{"bike_id":"37af0f70-3ca6-49d2-98dc-f1a38d947ed8","system_id":"levelo_inurba_marseille","lat":43.29896,"lon":5.43673,"is_reserved":false,"is_disabled":false,"rental_uris":{"android":"levelo://app?vid=37af0f70-3ca6-49d2-98dc-f1a38d947ed8","ios":"levelo://app?vid=37af0f70-3ca6-49d2-98dc-f1a38d947ed8"},"vehicle_type_id":"4","last_reported":1761837109,"current_range_meters":20000,"station_id":"ce4bhpp2rcd13ifvqhfg","pricing_plan_id":"cebpf4jnsgd1na2vs0mg"},{"bike_id":"bdfe2d3e-da78-490a-9ba0-eac8e89c9720","system_id":"levelo_inurba_marseille","lat":43.31081,"lon":5.42437,"is_reserved":false,"is_disabled":false,"rental_uris":{"android":"levelo://app?vid=bdfe2d3e-da78-490a-9ba0-eac8e89c9720","ios":"levelo://app?vid=bdfe2d3e-da78-490a-9ba0-eac8e89c9720"},"vehicle_type_id":"4","last_reported":1761837109,"current_range_meters":20000,"station_id":"ce4bhp92rcd13ifvqhag","pricing_plan_id":"cebpf4jnsgd1na2vs0mg"},{"bike_id":"d0e50457-ffef-43ac-85cb-a2ad664e691c","system_id":"levelo_inurba_marseille","lat":43.29254,"lon":5.40915,"is_reserved":false,"is_disabled":false,"rental_uris":{"android":"levelo://app?vid=d0e50457-ffef-43ac-85cb-a2ad664e691c","ios":"levelo://app?vid=d0e50457-ffef-43ac-85cb-a2ad664e691c"},"vehicle_type_id":"4","last_reported":1761837109,"current_range_meters":20000,"station_id":"ce4bh192rcd13ifvqdc0","pricing_plan_id":"cebpf4jnsgd1na2vs0mg"},{"bike_id":"e974006c-e3c8-4c1a-9a8d-ea5c7e7acb49","system_id":"levelo_inurba_marseille","lat":43.28534,"lon":5.44109,"is_reserved":false,"is_disabled":false,"rental_uris":{"android":"levelo://app?vid=e974006c-e3c8-4c1a-9a8d-ea5c7e7acb49","ios":"levelo://app?vid=e974006c-e3c8-4c1a-9a8d-ea5c7e7acb49"},"vehicle_type_id":"4","last_reported":1761837109,"current_range_meters":20000,"station_id":"st_d3j3df2ikq2c7380ej80","pricing_plan_id":"cebpf4jnsgd1na2vs0mg"},{"bike_id":"7b3c66ed-cac4-40b3-8245-1adbc401836c","system_id":"levelo_inurba_marseille","lat":43.312225,"lon":5.368655,"is_reserved":false,"is_disabled":false,"rental_uris":{"android":"levelo://app?vid=7b3c66ed-cac4-40b3-8245-1adbc401836c","ios":"levelo://app?vid=7b3c66ed-cac4-40b3-8245-1adbc401836c"},"vehicle_type_id":"4","last_reported":1761837109,"current_range_meters":20400,"station_id":"ce4bgl92rcd13ifvqbq0","pricing_plan_id":"cebpf4jnsgd1na2vs0mg"},