{"last_updated":1720382835,"ttl":30,"version":"2.2","data":{"bikes":[{"bike_id":"79fd9977-a1f6-4243-a8f3-22a80f8a101f","system_id":"levelo_inurba_marseille","lat":43.312239,"lon":5.368562,"is_reserved":false,"is_disabled":false,"rental_uris":{"android":"levelo://app?vid=79fd9977-a1f6-4243-a8f3-22a80f8a101f","ios":"levelo://app?vid=79fd9977-a1f6-4243-a8f3-22a80f8a101f"},"vehicle_type_id":"4","last_reported":1720382835,"current_range_meters":9200,"station_id":"ce4bgl92rcd13ifvqbq0","pricing_plan_id":"cebpf4jnsgd1na2vs0mg"},{"bike_id":"9ca6c1bd-8f87-4527-90c6-5675b86a5073","system_id":"levelo_inurba_marseille","lat":43.308,"lon":5.36788,"is_reserved":false,"is_disabled":false,"rental_uris":{"android":"levelo://app?vid=9ca6c1bd-8f87-4527-90c6-5675b86a5073","ios":"levelo://app?vid=9ca6c1bd-8f87-4527-90c6-5675b86a5073"},"vehicle_type_id":"4","last_reported":1720382835,"current_range_meters":0,"station_id":"","pricing_plan_id":"cebpf4jnsgd1na2vs0mg"},{"bike_id":"af189b6f-79ec-43c0-b5ae-b47c450dc9c0","system_id":"levelo_inurba_marseille","lat":43.309039,"lon":5.371797,"is_reserved":false,"is_disabled":false,"rental_uris":{"android":"levelo://app?vid=af189b6f-79ec-43c0-b5ae-b47c450dc9c0","ios":"levelo://app?vid=af189b6f-79ec-43c0-b5ae-b47c450dc9c0"},"vehicle_type_id":"4","last_reported":1720382835,"current_range_meters":7600,"station_id":"ce4bguh2rcd13ifvqckg","pricing_plan_id":"cebpf4jnsgd1na2vs0mg"},{"bike_id":"41cdcdd6-ded1-4424-b142-2da7b544bf9d","system_id":"levelo_inurba_marseille","lat":43.31785,"lon":5.369384,"is_reserved":false,"is_disabled":false,"rental_uris":{"android":"levelo://app?vid=41cdcdd6-ded1-4424-b142-2da7b544bf9d","ios":"levelo://app?vid=41cdcdd6-ded1-4424-b142-2da7b544bf9d"},"vehicle_type_id":"4","last_reported":1720382835,"current_range_meters":0,"station_id":"","pricing_plan_id":"cebpf4jnsgd1na2vs0mg"},{"bike_id":"991729fd-4558-4e9b-9485-60a28937c8a6","system_id":"levelo_inurba_marseille","lat":43.30537,"lon":5.367345,"is_reserved":false,"is_disabled":false,"rental_uris":{"android":"levelo://app?vid=991729fd-4558-4e9b-9485-60a28937c8a6","ios":"levelo://app?vid=991729fd-4558-4e9b-9485-60a28937c8a6"},"vehicle_type_id":"4","last_reported":1720382835,"current_range_meters":3600,"station_id":"ce4bgrp2rcd13ifvqc9g","pricing_plan_id":"cebpf4jnsgd1na2vs0mg"},{"bike_id":"bae050e2-5768-415b-b5a8-cdda4ade72b3","system_id":"levelo_inurba_marseille","lat":43.30537,"lon":5.367345,"is_reserved":false,"is_disabled":false,"rental_uris":{"android":"levelo://app?vid=bae050e2-5768-415b-b5a8-cdda4ade72b3","ios":"levelo://app?vid=bae050e2-5768-415b-b5a8-cdda4ade72b3"},"vehicle_type_id":"4","last_reported":1720382835,"current_range_meters":0,"station_id":"ce4bgrp2rcd13ifvqc9g","pricing_plan_id":"cebpf4jnsgd1na2vs0mg"},{"bike_id":"a959135e-73bb-4d74-a703-61fd9ed332ec","system_id":"levelo_inurba_marseille","lat":43.30534,"lon":5.36661,"is_reserved":false,"is_disabled":false,"rental_uris":{"android":"levelo://app?vid=a959135e-73bb-4d74-a703-61fd9ed332ec","ios":"levelo://app?vid=a959135e-73bb-4d74-a703-61fd9ed332ec"},"vehicle_type_id":"4","last_reported":1720382835,"current_range_meters":27600,"station_id":"","pricing_plan_id":"cebpf4jnsgd1na2vs0mg"},{"bike_id":"66e36f9a-c5da-48a7-93b8-167d1e2716e1","system_id":"levelo_inurba_marseille","lat":43.305989,"lon":5.37225,"is_reserved":false,"is_disabled":false,"rental_uris":{"android":"levelo://app?vid=66e36f9a-c5da-48a7-93b8-167d1e2716e1","ios":"levelo://app?vid=66e36f9a-c5da-48a7-93b8-167d1e2716e1"},"vehicle_type_id":"4","last_reported":1720382835,"current_range_meters":21200,"station_id":"ce4bgqh2rcd13ifvqc4g","pricing_plan_id":"cebpf4jnsgd1na2vs0mg"},{"bike_id":"b0b70ae0-9e6a-4443-a55d-0d480dcb8a69","system_id":"levelo_inurba_marseille","lat":43.306,"lon":5.37229,"is_reserved":false,"is_disabled":false,"rental_uris":{"android":"levelo://app?vid=b0b70ae0-9e6a-4443-a55d-0d480dcb8a69","ios":"levelo://app?vid=b0b70ae0-9e6a-4443-a55d-0d480dcb8a69"},"vehicle_type_id":"4","last_reported":1720382835,"current_range_meters":0,"station_id":"ce4bgqh2rcd13ifvqc4g","pricing_plan_id":"cebpf4jnsgd1na2vs0mg"},{"bike_id":"c0866c64-2e40-4160-a14b-8766e90c1235","system_id":"levelo_inurba_marseille","lat":43.305989,"lon":5.37225,"is_reserved":false,"is_disabled":false,"rental_uris":{"android":"levelo://app?vid=c0866c64-2e40-4160-a14b-8766e90c1235","ios":"levelo://app?vid=c0866c64-2e40-4160-a14b-8766e90c1235"},"vehicle_type_id":"4","last_reported":1720382835,"current_range_meters":0,"station_id":"ce4bgqh2rcd13ifvqc4g","pricing_plan_id":"cebpf4jnsgd1na2vs0mg"},{"bike_id":"96832ba6-9e11-48c4-8946-baa0d283bc83","system_id":"levelo_inurba_marseille","lat":43.3215,"lon":5.37129,"is_reserved":false,"is_disabled":false,"rental_uris":{"android":"levelo://app?vid=96832ba6-9e11-48c4-8946-baa0d283bc83","ios":"levelo://app?vid=96832ba6-9e11-48c4-8946-baa0d283bc83"},"vehicle_type_id":"4","last_reported":1720382835,"current_range_meters":7600,"station_id":"","pricing_plan_id":"cebpf4jnsgd1na2vs0mg"},{"bike_id":"3586604b-0838-450d-82b4-ed21774e4784","system_id":"levelo_inurba_marseille","lat":43.3216,"lon":5.37127,"is_reserved":false,"is_disabled":false,"rental_uris":{"android":"levelo://app?vid=3586604b-0838-450d-82b4-ed21774e4784","ios":"levelo://app?vid=3586604b-0838-450d-82b4-ed21774e4784"},"vehicle_type_id":"4","last_reported":1720382835,"current_range_meters":19200,"station_id":"","pricing_plan_id":"cebpf4jnsgd1na2vs0mg"},{"bike_id":"0e483b0b-b93f-47f0-accc-3305338bb2c1","system_id":"levelo_inurba_marseille","lat":43.32171,"lon":5.37137,"is_reserved":false,"is_disabled":false,"rental_uris":{"android":"levelo://app?vid=0e483b0b-b93f-47f0-accc-3305338bb2c1","ios":"levelo://app?vid=0e483b0b-b93f-47f0-accc-3305338bb2c1"},"vehicle_type_id":"4","last_reported":1720382835,"current_range_meters":25200,"station_id":"","pricing_plan_id":"cebpf4jnsgd1na2vs0mg"},{"bike_id":"9f3ea985-e211-4d4a-b488-03a07e044959","system_id":"levelo_inurba_marseille","lat":43.32175,"lon":5.37128,"is_reserved":false,"is_disabled":false,"rental_uris":{"android":"levelo://app?vid=9f3ea985-e211-4d4a-b488-03a07e044959","ios":"levelo://app?vid=9f3ea985-e211-4d4a-b488-03a07e044959"},"vehicle_type_id":"4","last_reported":1720382835,"current_range_meters":6400,"station_id":"","pricing_plan_id":"cebpf4jnsgd1na2vs0mg"},{"bike_id":"2752aa03-86ff-46e1-b26c-b6a8cdef8891","system_id":"levelo_inurba_marseille","lat":43.3218,"lon":5.37125,"is_reserved":false,"is_disabled":false,"rental_uris":{"android":"levelo://app?vid=2752aa03-86ff-46e1-b26c-b6a8cdef8891","ios":"levelo://app?vid=2752aa03-86ff-46e1-b26c-b6a8cdef8891"},"vehicle_type_id":"4","last_reported":1720382835,"current_range_meters":12800,"station_id":"","pricing_plan_id":"cebpf4jnsgd1na2vs0mg"},{"bike_id":"cdb6d3d7-41bd-415b-a831-57425f111626","system_id":"levelo_inurba_marseille","lat":43.32196,"lon":5.37131,"is_reserved":false,"is_disabled":false,"rental_uris":{"android":"levelo://app?vid=cdb6d3d7-41bd-415b-a831-57425f111626","ios":"levelo://app?vid=cdb6d3d7-41bd-415b-a831-57425f111626"},"vehicle_type_id":"4","last_reported":1720382835,"current_range_meters":24000,"station_id":"","pricing_plan_id":"cebpf4jnsgd1na2vs0mg"},{"bike_id":"de7f94a0-f3a6-4702-b950-2ed30e4e8005","system_id":"levelo_inurba_marseille","lat":43.316203,"lon":5.38195,"is_reserved":false,"is_disabled":false,"rental_uris":{"android":"levelo://app?vid=de7f94a0-f3a6-4702-b950-2ed30e4e8005","ios":"levelo://app?vid=de7f94a0-f3a6-4702-b950-2ed30e4e8005"},"vehicle_type_id":"4","last_reported":1720382835,"current_range_meters":11200,"station_id":"","pricing_plan_id":"cebpf4jnsgd1na2vs0mg"},{"bike_id":"10547e81-fc8d-4808-b367-a784008cf1cb","system_id":"levelo_inurba_marseille","lat":43.301008,"lon":5.368712,"is_reserved":false,"is_disabled":false,"rental_uris":{"android":"levelo://app?vid=10547e81-fc8d-4808-b367-a784008cf1cb","ios":"levelo://app?vid=10547e81-fc8d-4808-b367-a784008cf1cb"},"vehicle_type_id":"4","last_reported":1720382835,"current_range_meters":14800,"station_id":"","pricing_plan_id":"cebpf4jnsgd1na2vs0mg"},{"bike_id":"d262d183-ff98-4ede-a027-59f9685f8360","system_id":"levelo_inurba_marseille","lat":43.30463,"lon":5.37899,"is_reserved":false,"is_disabled":false,"rental_uris":{"android":"levelo://app?vid=d262d183-ff98-4ede-a027-59f9685f8360","ios":"levelo://app?vid=d262d183-ff98-4ede-a027-59f9685f8360"},"vehicle_type_id":"4","last_reported":1720382835,"current_range_meters":0,"station_id":"ce4bgup2rcd13ifvqcn0","pricing_plan_id":"cebpf4jnsgd1na2vs0mg"},{"bike_id":"a8adae0f-d8b6-4fa3-81da-e9f9e15cac37","system_id":"levelo_inurba_marseille","lat":43.324771,"lon":5.36557,"is_reserved":false,"is_disabled":false,"rental_uris":{"android":"levelo://app?vid=a8adae0f-d8b6-4fa3-81da-e9f9e15cac37","ios":"levelo://app?vid=a8adae0f-d8b6-4fa3-81da-e9f9e15cac37"},"vehicle_type_id":"4","last_reported":1720382835,"current_range_meters":0,"station_id":"ce4bhs12rcd13ifvqhvg","pricing_plan_id":"cebpf4jnsgd1na2vs0mg"},{"bike_id":"cba06cdd-58a4-4e5d-bbdd-20cdfd8568b3","system_id":"levelo_inurba_marseille","lat":43.32483,"lon":5.3657,"is_reserved":false,"is_disabled":false,"rental_uris":{"android":"levelo://app?vid=cba06cdd-58a4-4e5d-bbdd-20cdfd8568b3","ios":"levelo://app?vid=cba06cdd-58a4-4e5d-bbdd-20cdfd8568b3"},"vehicle_type_id":"4","last_reported":1720382835,"current_range_meters":2400,"station_id":"ce4bhs12rcd13ifvqhvg","pricing_plan_id":"cebpf4jnsgd1na2vs0mg"},{"bike_id":"5e65e1ab-ca2a-42e4-9304-26f733b45267","system_id":"levelo_inurba_marseille","lat":43.31068,"lon":5.38348,"is_reserved":false,"is_disabled":false,"rental_uris":{"android":"levelo://app?vid=5e65e1ab-ca2a-42e4-9304-26f733b45267","ios":"levelo://app?vid=5e65e1ab-ca2a-42e4-9304-26f733b45267"},"vehicle_type_id":"4","last_reported":1720382835,"current_range_meters":0,"station_id":"ce4bgv92rcd13ifvqcr0","pricing_plan_id":"cebpf4jnsgd1na2vs0mg"},{"bike_id":"b7416247-e0bc-4d5c-a58a-88f0ece393a3","system_id":"levelo_inurba_marseille","lat":43.31073,"lon":5.3835,"is_reserved":false,"is_disabled":false,"rental_uris":{"android":"levelo://app?vid=b7416247-e0bc-4d5c-a58a-88f0ece393a3","ios":"levelo://app?vid=b7416247-e0bc-4d5c-a58a-88f0ece393a3"},"vehicle_type_id":"4","last_reported":1720382835,"current_range_meters":12800,"station_id":"ce4bgv92rcd13ifvqcr0","pricing_plan_id":"cebpf4jnsgd1na2vs0mg"},{"bike_id":"195a3c08-b51e-480b-818f-9838d543d9ee","system_id":"levelo_inurba_marseille","lat":43.31062,"lon":5.3835,"is_reserved":false,"is_disabled":false,"rental_uris":{"android":"levelo://app?vid=195a3c08-b51e-480b-818f-9838d543d9ee","ios":"levelo://app?vid=195a3c08-b51e-480b-818f-9838d543d9ee"},"vehicle_type_id":"4","last_reported":1720382835,"current_range_meters":0,"station_id":"ce4bgv92rcd13ifvqcr0","pricing_plan_id":"cebpf4jnsgd1na2vs0mg"},{"bike_id":"6b5d6ca5-8f40-4763-aca4-9e18f0ebea8c","system_id":"levelo_inurba_marseille","lat":43.31074,"lon":5.38358,"is_reserved":false,"is_disabled":false,"rental_uris":{"android":"levelo://app?vid=6b5d6ca5-8f40-4763-aca4-9e18f0ebea8c","ios":"levelo://app?vid=6b5d6ca5-8f40-4763-aca4-9e18f0ebea8c"},"vehicle_type_id":"4","last_reported":1720382835,"current_range_meters":0,"station_id":"ce4bgv92rcd13ifvqcr0","pricing_plan_id":"cebpf4jnsgd1na2vs0mg"},{"bike_id":"5a1a0cff-2035-4b78-86d8-8542cc8b3251","system_id":"levelo_inurba_marseille","lat":43.310804,"lon":5.38359,"is_reserved":false,"is_disabled":false,"rental_uris":{"android":"levelo://app?vid=5a1a0cff-2035-4b78-86d8-8542cc8b3251","ios":"levelo://app?vid=5a1a0cff-2035-4b78-86d8-8542cc8b3251"},"vehicle_type_id":"4","last_reported":1720382835,"current_range_meters":0,"station_id":"ce4bgv92rcd13ifvqcr0","pricing_plan_id":"cebpf4jnsgd1na2vs0mg"},{"bike_id":"aa4244b5-8da8-4800-98d6-bcf4bf0eed49","system_id":"levelo_inurba_marseille","lat":43.310804,"lon":5.38359,"is_reserved":false,"is_disabled":false,"rental_uris":{"android":"levelo://app?vid=aa4244b5-8da8-4800-98d6-bcf4bf0eed49","ios":"levelo://app?vid=aa4244b5-8da8-4800-98d6-bcf4bf0eed49"},"vehicle_type_id":"4","last_reported":1720382835,"current_range_meters":0,"station_id":"ce4bgv92rcd13ifvqcr0","pricing_plan_id":"cebpf4jnsgd1na2vs0mg"},{"bike_id":"a50d111f-4094-47fd-a535-640fa02acf7f","system_id":"levelo_inurba_marseille","lat":43.31074,"lon":5.38361,"is_reserved":false,"is_disabled":false,"rental_uris":{"android":"levelo://app?vid=a50d111f-4094-47fd-a535-640fa02acf7f","ios":"levelo://app?vid=a50d111f-4094-47fd-a535-640fa02acf7f"},"vehicle_type_id":"4","last_reported":1720382835,"current_range_meters":0,"station_id":"ce4bgv92rcd13ifvqcr0","pricing_plan_id":"cebpf4jnsgd1na2vs0mg"},{"bike_id":"da2a053f-855b-453e-b26e-b576ae14143f","system_id":"levelo_inurba_marseille","lat":43.319935,"lon":5.381699,"is_reserved":false,"is_disabled":false,"rental_uris":{"android":"levelo://app?vid=da2a053f-855b-453e-b26e-b576ae14143f","ios":"levelo://app?vid=da2a053f-855b-453e-b26e-b576ae14143f"},"vehicle_type_id":"4","last_reported":1720382835,"current_range_meters":5600,"station_id":"ce4bhr12rcd13ifvqhpg","pricing_plan_id":"cebpf4jnsgd1na2vs0mg"},{"bike_id":"a51d1405-92dd-4eee-b7b5-af34f9798af4","system_id":"levelo_inurba_marseille","lat":43.319935,"lon":5.381699,"is_reserved":false,"is_disabled":false,"rental_uris":{"android":"levelo://app?vid=a51d1405-92dd-4eee-b7b5-af34f9798af4","ios":"levelo://app?vid=a51d1405-92dd-4eee-b7b5-af34f9798af4"},"vehicle_type_id":"4","last_reported":1720382835,"current_range_meters":19600,"station_id":"ce4bhr12rcd13ifvqhpg","pricing_plan_id":"cebpf4jnsgd1na2vs0mg"},{"bike_id":"dabeb2c2-10f4-49ec-84b5-eb4ebc43f17a","system_id":"levelo_inurba_marseille","lat":43.30001,"lon":5.37177,"is_reserved":false,"is_disabled":false,"rental_uris":{"android":"levelo://app?vid=dabeb2c2-10f4-49ec-84b5-eb4ebc43f17a","ios":"levelo://app?vid=dabeb2c2-10f4-49ec-84b5-eb4ebc43f17a"},"vehicle_type_id":"4","last_reported":1720382835,"current_range_meters":3200,"station_id":"","pricing_plan_id":"cebpf4jnsgd1na2vs0mg"},{"bike_id":"ff84752c-b741-4ea2-8ed4-52af6f38a97b","system_id":"levelo_inurba_marseille","lat":43.299724,"lon":5.371829,"is_reserved":false,"is_disabled":false,"rental_uris":{"android":"levelo://app?vid=ff84752c-b741-4ea2-8ed4-52af6f38a97b","ios":"levelo://app?vid=ff84752c-b741-4ea2-8ed4-52af6f38a97b"},"vehicle_type_id":"4","last_reported":1720382835,"current_range_meters":0,"station_id":"ce4bgr92rcd13ifvqc7g","pricing_plan_id":"cebpf4jnsgd1na2vs0mg"},{"bike_id":"b12d7e11-fbf6-4a1a-808d-dc5ce42d3bdf","system_id":"levelo_inurba_marseille","lat":43.299724,"lon":5.371829,"is_reserved":false,"is_disabled":false,"rental_uris":{"android":"levelo://app?vid=b12d7e11-fbf6-4a1a-808d-dc5ce42d3bdf","ios":"levelo://app?vid=b12d7e11-fbf6-4a1a-808d-dc5ce42d3bdf"},"vehicle_type_id":"4","last_reported":1720382835,"current_range_meters":0,"station_id":"ce4bgr92rcd13ifvqc7g","pricing_plan_id":"cebpf4jnsgd1na2vs0mg"},{"bike_id":"3bca010e-ee99-4fc3-849c-d336e3c774de","system_id":"levelo_inurba_marseille","lat":43.299222,"lon":5.365554,"is_reserved":false,"is_disabled":false,"rental_uris":{"android":"levelo://app?vid=3bca010e-ee99-4fc3-849c-d336e3c774de","ios":"levelo://app?vid=3bca010e-ee99-4fc3-849c-d336e3c774de"},"vehicle_type_id":"4","last_reported":1720382835,"current_range_meters":6800,"station_id":"ce4bgm92rcd13ifvqbr0","pricing_plan_id":"cebpf4jnsgd1na2vs0mg"},{"bike_id":"d8687fd2-5bf2-49a9-8ed5-3ad747aed64f","system_id":"levelo_inurba_marseille","lat":43.298476,"lon":5.362777,"is_reserved":false,"is_disabled":false,"rental_uris":{"android":"levelo://app?vid=d8687fd2-5bf2-49a9-8ed5-3ad747aed64f","ios":"levelo://app?vid=d8687fd2-5bf2-49a9-8ed5-3ad747aed64f"},"vehicle_type_id":"4","last_reported":1720382835,"current_range_meters":0,"station_id":"ce4bgpp2rcd13ifvqc3g","pricing_plan_id":"cebpf4jnsgd1na2vs0mg"},{"bike_id":"587a542d-0d83-47f4-a8f0-b480c41410e4","system_id":"levelo_inurba_marseille","lat":43.311722,"lon":5.387247,"is_reserved":false,"is_disabled":false,"rental_uris":{"android":"levelo://app?vid=587a542d-0d83-47f4-a8f0-b480c41410e4","ios":"levelo://app?vid=587a542d-0d83-47f4-a8f0-b480c41410e4"},"vehicle_type_id":"4","last_reported":1720382835,"current_range_meters":3600,"station_id":"ce4bgv12rcd13ifvqcp0","pricing_plan_id":"cebpf4jnsgd1na2vs0mg"},{"bike_id":"b06786dc-73b8-4c5c-94ed-076de97d8d82","system_id":"levelo_inurba_marseille","lat":43.297774,"lon":5.370875,"is_reserved":false,"is_disabled":false,"rental_uris":{"android":"levelo://app?vid=b06786dc-73b8-4c5c-94ed-076de97d8d82","ios":"levelo://app?vid=b06786dc-73b8-4c5c-94ed-076de97d8d82"},"vehicle_type_id":"4","last_reported":1720382835,"current_range_meters":2800,"station_id":"ce4bgop2rcd13ifvqc1g","pricing_plan_id":"cebpf4jnsgd1na2vs0mg"},{"bike_id":"49e3571a-b01d-4c86-b893-ba18e3ad9508","system_id":"levelo_inurba_marseille","lat":43.322872,"lon":5.382756,"is_reserved":false,"is_disabled":false,"rental_uris":{"android":"levelo://app?vid=49e3571a-b01d-4c86-b893-ba18e3ad9508","ios":"levelo://app?vid=49e3571a-b01d-4c86-b893-ba18e3ad9508"},"vehicle_type_id":"4","last_reported":1720382835,"current_range_meters":17200,"station_id":"ce4bhr12rcd13ifvqhqg","pricing_plan_id":"cebpf4jnsgd1na2vs0mg"},{"bike_id":"d1eb4bc1-5f6f-41a7-8681-8d5675f01855","system_id":"levelo_inurba_marseille","lat":43.299243,"lon":5.374807,"is_reserved":false,"is_disabled":false,"rental_uris":{"android":"levelo://app?vid=d1eb4bc1-5f6f-41a7-8681-8d5675f01855","ios":"levelo://app?vid=d1eb4bc1-5f6f-41a7-8681-8d5675f01855"},"vehicle_type_id":"4","last_reported":1720382835,"current_range_meters":0,"station_id":"ce4bgjh2rcd13ifvqbg0","pricing_plan_id":"cebpf4jnsgd1na2vs0mg"},{"bike_id":"232f31d7-1b0a-4f92-a9d8-043ff4d92572","system_id":"levelo_inurba_marseille","lat":43.2968,"lon":5.37291,"is_reserved":false,"is_disabled":false,"rental_uris":{"android":"levelo://app?vid=232f31d7-1b0a-4f92-a9d8-043ff4d92572","ios":"levelo://app?vid=232f31d7-1b0a-4f92-a9d8-043ff4d92572"},"vehicle_type_id":"4","last_reported":1720382835,"current_range_meters":6000,"station_id":"ce4bgk12rcd13ifvqbj0","pricing_plan_id":"cebpf4jnsgd1na2vs0mg"},{"bike_id":"280525b4-850d-4349-9c72-4f70d3424eeb","system_id":"levelo_inurba_marseille","lat":43.32725,"lon":5.37844,"is_reserved":false,"is_disabled":false,"rental_uris":{"android":"levelo://app?vid=280525b4-850d-4349-9c72-4f70d3424eeb","ios":"levelo://app?vid=280525b4-850d-4349-9c72-4f70d3424eeb"},"vehicle_type_id":"4","last_reported":1720382835,"current_range_meters":1200,"station_id":"","pricing_plan_id":"cebpf4jnsgd1na2vs0mg"},{"bike_id":"c946225b-d10c-468f-8862-33bbe15fe732","system_id":"levelo_inurba_marseille","lat":43.29573,"lon":5.367355,"is_reserved":false,"is_disabled":false,"rental_uris":{"android":"levelo://app?vid=c946225b-d10c-468f-8862-33bbe15fe732","ios":"levelo://app?vid=c946225b-d10c-468f-8862-33bbe15fe732"},"vehicle_type_id":"4","last_reported":1720382835,"current_range_meters":0,"station_id":"ce4bgph2rcd13ifvqc2g","pricing_plan_id":"cebpf4jnsgd1na2vs0mg"},{"bike_id":"5b48ef88-2563-4fac-865a-69a313aa9ba9","system_id":"levelo_inurba_marseille","lat":43.309589,"lon":5.390258,"is_reserved":false,"is_disabled":false,"rental_uris":{"android":"levelo://app?vid=5b48ef88-2563-4fac-865a-69a313aa9ba9","ios":"levelo://app?vid=5b48ef88-2563-4fac-865a-69a313aa9ba9"},"vehicle_type_id":"4","last_reported":1720382835,"current_range_meters":23600,"station_id":"ce4bgup2rcd13ifvqco0","pricing_plan_id":"cebpf4jnsgd1na2vs0mg"},{"bike_id":"7c880efa-150d-4b22-bfc2-1a028df84ec6","system_id":"levelo_inurba_marseille","lat":43.317557,"lon":5.39012,"is_reserved":false,"is_disabled":false,"rental_uris":{"android":"levelo://app?vid=7c880efa-150d-4b22-bfc2-1a028df84ec6","ios":"levelo://app?vid=7c880efa-150d-4b22-bfc2-1a028df84ec6"},"vehicle_type_id":"4","last_reported":1720382835,"current_range_meters":0,"station_id":"ce4bhqp2rcd13ifvqhng","pricing_plan_id":"cebpf4jnsgd1na2vs0mg"},{"bike_id":"d702d643-57eb-4770-9016-a4a4c63f99ff","system_id":"levelo_inurba_marseille","lat":43.317557,"lon":5.390173,"is_reserved":false,"is_disabled":false,"rental_uris":{"android":"levelo://app?vid=d702d643-57eb-4770-9016-a4a4c63f99ff","ios":"levelo://app?vid=d702d643-57eb-4770-9016-a4a4c63f99ff"},"vehicle_type_id":"4","last_reported":1720382835,"current_range_meters":9200,"station_id":"ce4bhqp2rcd13ifvqhng","pricing_plan_id":"cebpf4jnsgd1na2vs0mg"},{"bike_id":"4e23e0a7-107a-409b-a70f-2d146d436933","system_id":"levelo_inurba_marseille","lat":43.295748,"lon":5.37522,"is_reserved":false,"is_disabled":false,"rental_uris":{"android":"levelo://app?vid=4e23e0a7-107a-409b-a70f-2d146d436933","ios":"levelo://app?vid=4e23e0a7-107a-409b-a70f-2d146d436933"},"vehicle_type_id":"4","last_reported":1720382835,"current_range_meters":0,"station_id":"ce4bgh92rcd13ifvqb50","pricing_plan_id":"cebpf4jnsgd1na2vs0mg"},{"bike_id":"50d96884-781a-42de-a5ad-ec6604997116","system_id":"levelo_inurba_marseille","lat":43.296277,"lon":5.377108,"is_reserved":false,"is_disabled":false,"rental_uris":{"android":"levelo://app?vid=50d96884-781a-42de-a5ad-ec6604997116","ios":"levelo://app?vid=50d96884-781a-42de-a5ad-ec6604997116"},"vehicle_type_id":"4","last_reported":1720382835,"current_range_meters":26000,"station_id":"ce4bgi92rcd13ifvqb90","pricing_plan_id":"cebpf4jnsgd1na2vs0mg"},{"bike_id":"6ef3a2da-6ce4-488f-909a-a07b57f79665","system_id":"levelo_inurba_marseille","lat":43.304274,"lon":5.388873,"is_reserved":false,"is_disabled":false,"rental_uris":{"android":"levelo://app?vid=6ef3a2da-6ce4-488f-909a-a07b57f79665","ios":"levelo://app?vid=6ef3a2da-6ce4-488f-909a-a07b57f79665"},"vehicle_type_id":"4","last_reported":1720382835,"current_range_meters":1200,"station_id":"ce4bgk12rcd13ifvqbi0","pricing_plan_id":"cebpf4jnsgd1na2vs0mg"},{"bike_id":"2cc88eed-668c-4f08-bade-73fd3e99beec","system_id":"levelo_inurba_marseille","lat":43.296273,"lon":5.377186,"is_reserved":false,"is_disabled":false,"rental_uris":{"android":"levelo://app?vid=2cc88eed-668c-4f08-bade-73fd3e99beec","ios":"levelo://app?vid=2cc88eed-668c-4f08-bade-73fd3e99beec"},"vehicle_type_id":"4","last_reported":1720382835,"current_range_meters":27600,"station_id":"ce4bgi92rcd13ifvqb90","pricing_plan_id":"cebpf4jnsgd1na2vs0mg"},{"bike_id":"3b4d4f9b-e9cc-45cc-90ed-6572e6ce6082","system_id":"levelo_inurba_marseille","lat":43.298037,"lon":5.381066,"is_reserved":false,"is_disabled":false,"rental_uris":{"android":"levelo://app?vid=3b4d4f9b-e9cc-45cc-90ed-6572e6ce6082","ios":"levelo://app?vid=3b4d4f9b-e9cc-45cc-90ed-6572e6ce6082"},"vehicle_type_id":"4","last_reported":1720382835,"current_range_meters":0,"station_id":"ce4bgip2rcd13ifvqbb0","pricing_plan_id":"cebpf4jnsgd1na2vs0mg"},{"bike_id":"46f39812-caee-4721-bb6c-e2fc5eb908bb","system_id":"levelo_inurba_marseille","lat":43.296263,"lon":5.377094,"is_reserved":false,"is_disabled":false,"rental_uris":{"android":"levelo://app?vid=46f39812-caee-4721-bb6c-e2fc5eb908bb","ios":"levelo://app?vid=46f39812-caee-4721-bb6c-e2fc5eb908bb"},"vehicle_type_id":"4","last_reported":1720382835,"current_range_meters":31200,"station_id":"ce4bgi92rcd13ifvqb90","pricing_plan_id":"cebpf4jnsgd1na2vs0mg"},{"bike_id":"88dfb9b2-8f3b-4047-bf9b-475113f0981f","system_id":"levelo_inurba_marseille","lat":43.296277,"lon":5.377108,"is_reserved":false,"is_disabled":false,"rental_uris":{"android":"levelo://app?vid=88dfb9b2-8f3b-4047-bf9b-475113f0981f","ios":"levelo://app?vid=88dfb9b2-8f3b-4047-bf9b-475113f0981f"},"vehicle_type_id":"4","last_reported":1720382835,"current_range_meters":31600,"station_id":"ce4bgi92rcd13ifvqb90","pricing_plan_id":"cebpf4jnsgd1na2vs0mg"},{"bike_id":"2133bb59-686c-4502-b717-460f466550e7","system_id":"levelo_inurba_marseille","lat":43.296277,"lon":5.377108,"is_reserved":false,"is_disabled":false,"rental_uris":{"android":"levelo://app?vid=2133bb59-686c-4502-b717-460f466550e7","ios":"levelo://app?vid=2133bb59-686c-4502-b717-460f466550e7"},"vehicle_type_id":"4","last_reported":1720382835,"current_range_meters":31200,"station_id":"ce4bgi92rcd13ifvqb90","pricing_plan_id":"cebpf4jnsgd1na2vs0mg"},{"bike_id":"4bf4e9a2-1be3-4846-aed4-86872f057e79","system_id":"levelo_inurba_marseille","lat":43.29973,"lon":5.38486,"is_reserved":false,"is_disabled":false,"rental_uris":{"android":"levelo://app?vid=4bf4e9a2-1be3-4846-aed4-86872f057e79","ios":"levelo://app?vid=4bf4e9a2-1be3-4846-aed4-86872f057e79"},"vehicle_type_id":"4","last_reported":1720382835,"current_range_meters":0,"station_id":"ce4bgj92rcd13ifvqbd0","pricing_plan_id":"cebpf4jnsgd1na2vs0mg"},{"bike_id":"17db5ad9-03e2-4679-bd84-b0487af829ad","system_id":"levelo_inurba_marseille","lat":43.29972,"lon":5.38487,"is_reserved":false,"is_disabled":false,"rental_uris":{"android":"levelo://app?vid=17db5ad9-03e2-4679-bd84-b0487af829ad","ios":"levelo://app?vid=17db5ad9-03e2-4679-bd84-b0487af829ad"},"vehicle_type_id":"4","last_reported":1720382835,"current_range_meters":0,"station_id":"ce4bgj92rcd13ifvqbd0","pricing_plan_id":"cebpf4jnsgd1na2vs0mg"},{"bike_id":"18b204eb-89fc-4a8b-84e4-101b431cfe9c","system_id":"levelo_inurba_marseille","lat":43.296263,"lon":5.377094,"is_reserved":false,"is_disabled":false,"rental_uris":{"android":"levelo://app?vid=18b204eb-89fc-4a8b-84e4-101b431cfe9c","ios":"levelo://app?vid=18b204eb-89fc-4a8b-84e4-101b431cfe9c"},"vehicle_type_id":"4","last_reported":1720382835,"current_range_meters":5200,"station_id":"ce4bgi92rcd13ifvqb90","pricing_plan_id":"cebpf4jnsgd1na2vs0mg"},{"bike_id":"d89d6859-e675-4174-867d-fae9700322e7","system_id":"levelo_inurba_marseille","lat":43.295279,"lon":5.375048,"is_reserved":false,"is_disabled":false,"rental_uris":{"android":"levelo://app?vid=d89d6859-e675-4174-867d-fae9700322e7","ios":"levelo://app?vid=d89d6859-e675-4174-867d-fae9700322e7"},"vehicle_type_id":"4","last_reported":1720382835,"current_range_meters":0,"station_id":"ce4bgkp2rcd13ifvqbmg","pricing_plan_id":"cebpf4jnsgd1na2vs0mg"},{"bike_id":"445a4b9d-e768-47ca-93e7-a804ffd32290","system_id":"levelo_inurba_marseille","lat":43.299717,"lon":5.384845,"is_reserved":false,"is_disabled":false,"rental_uris":{"android":"levelo://app?vid=445a4b9d-e768-47ca-93e7-a804ffd32290","ios":"levelo://app?vid=445a4b9d-e768-47ca-93e7-a804ffd32290"},"vehicle_type_id":"4","last_reported":1720382835,"current_range_meters":22800,"station_id":"ce4bgj92rcd13ifvqbd0","pricing_plan_id":"cebpf4jnsgd1na2vs0mg"},{"bike_id":"c00d26b8-f85d-47b2-9518-8a4a87ec1bcc","system_id":"levelo_inurba_marseille","lat":43.294797,"lon":5.37493,"is_reserved":false,"is_disabled":false,"rental_uris":{"android":"levelo://app?vid=c00d26b8-f85d-47b2-9518-8a4a87ec1bcc","ios":"levelo://app?vid=c00d26b8-f85d-47b2-9518-8a4a87ec1bcc"},"vehicle_type_id":"4","last_reported":1720382835,"current_range_meters":0,"station_id":"ce4bgkp2rcd13ifvqbmg","pricing_plan_id":"cebpf4jnsgd1na2vs0mg"},{"bike_id":"11229ede-6e86-46da-831b-3d61a71f7123","system_id":"levelo_inurba_marseille","lat":43.32367,"lon":5.388836,"is_reserved":false,"is_disabled":false,"rental_uris":{"android":"levelo://app?vid=11229ede-6e86-46da-831b-3d61a71f7123","ios":"levelo://app?vid=11229ede-6e86-46da-831b-3d61a71f7123"},"vehicle_type_id":"4","last_reported":1720382835,"current_range_meters":7600,"station_id":"ce4bhqp2rcd13ifvqhog","pricing_plan_id":"cebpf4jnsgd1na2vs0mg"},{"bike_id":"b67cd37f-050c-4802-aafd-51fe759e9042","system_id":"levelo_inurba_marseille","lat":43.32367,"lon":5.388836,"is_reserved":false,"is_disabled":false,"rental_uris":{"android":"levelo://app?vid=b67cd37f-050c-4802-aafd-51fe759e9042","ios":"levelo://app?vid=b67cd37f-050c-4802-aafd-51fe759e9042"},"vehicle_type_id":"4","last_reported":1720382835,"current_range_meters":0,"station_id":"ce4bhqp2rcd13ifvqhog","pricing_plan_id":"cebpf4jnsgd1na2vs0mg"},{"bike_id":"5b7ef8f9-ea74-418d-ab98-6c471f6e84ea","system_id":"levelo_inurba_marseille","lat":43.32367,"lon":5.388836,"is_reserved":false,"is_disabled":false,"rental_uris":{"android":"levelo://app?vid=5b7ef8f9-ea74-418d-ab98-6c471f6e84ea","ios":"levelo://app?vid=5b7ef8f9-ea74-418d-ab98-6c471f6e84ea"},"vehicle_type_id":"4","last_reported":1720382835,"current_range_meters":0,"station_id":"ce4bhqp2rcd13ifvqhog","pricing_plan_id":"cebpf4jnsgd1na2vs0mg"},{"bike_id":"ce2b170c-f212-4cad-914d-78e2f9970b4c","system_id":"levelo_inurba_marseille","lat":43.32367,"lon":5.388836,"is_reserved":false,"is_disabled":false,"rental_uris":{"android":"levelo://app?vid=ce2b170c-f212-4cad-914d-78e2f9970b4c","ios":"levelo://app?vid=ce2b170c-f212-4cad-914d-78e2f9970b4c"},"vehicle_type_id":"4","last_reported":1720382835,"current_range_meters":0,"station_id":"ce4bhqp2rcd13ifvqhog","pricing_plan_id":"cebpf4jnsgd1na2vs0mg"},{"bike_id":"fc03ca95-6826-4e1e-89b3-09b1c165de2f","system_id":"levelo_inurba_marseille","lat":43.29601,"lon":5.381,"is_reserved":false,"is_disabled":false,"rental_uris":{"android":"levelo://app?vid=fc03ca95-6826-4e1e-89b3-09b1c165de2f","ios":"levelo://app?vid=fc03ca95-6826-4e1e-89b3-09b1c165de2f"},"vehicle_type_id":"4","last_reported":1720382835,"current_range_meters":0,"station_id":"ce4bgl12rcd13ifvqbo0","pricing_plan_id":"cebpf4jnsgd1na2vs0mg"},{"bike_id":"d920dbe7-98bb-4790-bcc9-63d332a3c4bc","system_id":"levelo_inurba_marseille","lat":43.292749,"lon":5.368402,"is_reserved":false,"is_disabled":false,"rental_uris":{"android":"levelo://app?vid=d920dbe7-98bb-4790-bcc9-63d332a3c4bc","ios":"levelo://app?vid=d920dbe7-98bb-4790-bcc9-63d332a3c4bc"},"vehicle_type_id":"4","last_reported":1720382835,"current_range_meters":22800,"station_id":"ce4bhbp2rcd13ifvqesg","pricing_plan_id":"cebpf4jnsgd1na2vs0mg"},{"bike_id":"b8a31460-1ac3-4f43-a97f-f42e7437753b","system_id":"levelo_inurba_marseille","lat":43.292749,"lon":5.368402,"is_reserved":false,"is_disabled":false,"rental_uris":{"android":"levelo://app?vid=b8a31460-1ac3-4f43-a97f-f42e7437753b","ios":"levelo://app?vid=b8a31460-1ac3-4f43-a97f-f42e7437753b"},"vehicle_type_id":"4","last_reported":1720382835,"current_range_meters":0,"station_id":"ce4bhbp2rcd13ifvqesg","pricing_plan_id":"cebpf4jnsgd1na2vs0mg"},{"bike_id":"b2762deb-b5f2-4ade-bb4d-7a5b0a32eac9","system_id":"levelo_inurba_marseille","lat":43.29272,"lon":5.36839,"is_reserved":false,"is_disabled":false,"rental_uris":{"android":"levelo://app?vid=b2762deb-b5f2-4ade-bb4d-7a5b0a32eac9","ios":"levelo://app?vid=b2762deb-b5f2-4ade-bb4d-7a5b0a32eac9"},"vehicle_type_id":"4","last_reported":1720382835,"current_range_meters":0,"station_id":"ce4bhbp2rcd13ifvqesg","pricing_plan_id":"cebpf4jnsgd1na2vs0mg"},{"bike_id":"c27e8371-e4ec-464e-9bda-f15a4285f366","system_id":"levelo_inurba_marseille","lat":43.29234,"lon":5.36416,"is_reserved":false,"is_disabled":false,"rental_uris":{"android":"levelo://app?vid=c27e8371-e4ec-464e-9bda-f15a4285f366","ios":"levelo://app?vid=c27e8371-e4ec-464e-9bda-f15a4285f366"},"vehicle_type_id":"4","last_reported":1720382835,"current_range_meters":1600,"station_id":"","pricing_plan_id":"cebpf4jnsgd1na2vs0mg"},{"bike_id":"2638d7bc-8d78-46c3-9ed9-cbbc97a98962","system_id":"levelo_inurba_marseille","lat":43.293009,"lon":5.374584,"is_reserved":false,"is_disabled":false,"rental_uris":{"android":"levelo://app?vid=2638d7bc-8d78-46c3-9ed9-cbbc97a98962","ios":"levelo://app?vid=2638d7bc-8d78-46c3-9ed9-cbbc97a98962"},"vehicle_type_id":"4","last_reported":1720382835,"current_range_meters":0,"station_id":"ce4bgi12rcd13ifvqb70","pricing_plan_id":"cebpf4jnsgd1na2vs0mg"},{"bike_id":"9a3780cb-f9b9-4b67-a651-b971e86b03df","system_id":"levelo_inurba_marseille","lat":43.302992,"lon":5.392136,"is_reserved":false,"is_disabled":false,"rental_uris":{"android":"levelo://app?vid=9a3780cb-f9b9-4b67-a651-b971e86b03df","ios":"levelo://app?vid=9a3780cb-f9b9-4b67-a651-b971e86b03df"},"vehicle_type_id":"4","last_reported":1720382835,"current_range_meters":19600,"station_id":"ce4bgkh2rcd13ifvqbk0","pricing_plan_id":"cebpf4jnsgd1na2vs0mg"},{"bike_id":"df58ad48-de1a-4a70-bd95-7bb51ab02953","system_id":"levelo_inurba_marseille","lat":43.30085,"lon":5.390856,"is_reserved":false,"is_disabled":false,"rental_uris":{"android":"levelo://app?vid=df58ad48-de1a-4a70-bd95-7bb51ab02953","ios":"levelo://app?vid=df58ad48-de1a-4a70-bd95-7bb51ab02953"},"vehicle_type_id":"4","last_reported":1720382835,"current_range_meters":20000,"station_id":"ce4bh192rcd13ifvqdb0","pricing_plan_id":"cebpf4jnsgd1na2vs0mg"},{"bike_id":"b38c6ce6-dad4-4044-81d9-2bf6b30732c1","system_id":"levelo_inurba_marseille","lat":43.298764,"lon":5.388973,"is_reserved":false,"is_disabled":false,"rental_uris":{"android":"levelo://app?vid=b38c6ce6-dad4-4044-81d9-2bf6b30732c1","ios":"levelo://app?vid=b38c6ce6-dad4-4044-81d9-2bf6b30732c1"},"vehicle_type_id":"4","last_reported":1720382835,"current_range_meters":4000,"station_id":"ce4bh392rcd13ifvqdl0","pricing_plan_id":"cebpf4jnsgd1na2vs0mg"},{"bike_id":"615d1db0-d48e-49b4-8bfa-8dd5a2ef3fd0","system_id":"levelo_inurba_marseille","lat":43.309047,"lon":5.396551,"is_reserved":false,"is_disabled":false,"rental_uris":{"android":"levelo://app?vid=615d1db0-d48e-49b4-8bfa-8dd5a2ef3fd0","ios":"levelo://app?vid=615d1db0-d48e-49b4-8bfa-8dd5a2ef3fd0"},"vehicle_type_id":"4","last_reported":1720382835,"current_range_meters":2400,"station_id":"ce4bh012rcd13ifvqcv0","pricing_plan_id":"cebpf4jnsgd1na2vs0mg"},{"bike_id":"ffaf5cde-2e02-47c3-ad22-2cc453c3a3c0","system_id":"levelo_inurba_marseille","lat":43.29529,"lon":5.385581,"is_reserved":false,"is_disabled":false,"rental_uris":{"android":"levelo://app?vid=ffaf5cde-2e02-47c3-ad22-2cc453c3a3c0","ios":"levelo://app?vid=ffaf5cde-2e02-47c3-ad22-2cc453c3a3c0"},"vehicle_type_id":"4","last_reported":1720382835,"current_range_meters":24800,"station_id":"ce4bgih2rcd13ifvqba0","pricing_plan_id":"cebpf4jnsgd1na2vs0mg"},{"bike_id":"b8b72846-8206-49d0-9380-9560aca95909","system_id":"levelo_inurba_marseille","lat":43.29529,"lon":5.385581,"is_reserved":false,"is_disabled":false,"rental_uris":{"android":"levelo://app?vid=b8b72846-8206-49d0-9380-9560aca95909","ios":"levelo://app?vid=b8b72846-8206-49d0-9380-9560aca95909"},"vehicle_type_id":"4","last_reported":1720382835,"current_range_meters":6000,"station_id":"ce4bgih2rcd13ifvqba0","pricing_plan_id":"cebpf4jnsgd1na2vs0mg"},{"bike_id":"7462f41e-60ea-45b4-84bf-4a5513f1032e","system_id":"levelo_inurba_marseille","lat":43.29529,"lon":5.385581,"is_reserved":false,"is_disabled":false,"rental_uris":{"android":"levelo://app?vid=7462f41e-60ea-45b4-84bf-4a5513f1032e","ios":"levelo://app?vid=7462f41e-60ea-45b4-84bf-4a5513f1032e"},"vehicle_type_id":"4","last_reported":1720382835,"current_range_meters":5200,"station_id":"ce4bgih2rcd13ifvqba0","pricing_plan_id":"cebpf4jnsgd1na2vs0mg"},{"bike_id":"68cc5049-4f30-4eea-9816-a94ac2447008","system_id":"levelo_inurba_marseille","lat":43.290779,"lon":5.371482,"is_reserved":false,"is_disabled":false,"rental_uris":{"android":"levelo://app?vid=68cc5049-4f30-4eea-9816-a94ac2447008","ios":"levelo://app?vid=68cc5049-4f30-4eea-9816-a94ac2447008"},"vehicle_type_id":"4","last_reported":1720382835,"current_range_meters":21200,"station_id":"ce4bh5p2rcd13ifvqe4g","pricing_plan_id":"cebpf4jnsgd1na2vs0mg"},{"bike_id":"b6f98fa2-0806-4770-b522-7972c844fe78","system_id":"levelo_inurba_marseille","lat":43.290624,"lon":5.359245,"is_reserved":false,"is_disabled":false,"rental_uris":{"android":"levelo://app?vid=b6f98fa2-0806-4770-b522-7972c844fe78","ios":"levelo://app?vid=b6f98fa2-0806-4770-b522-7972c844fe78"},"vehicle_type_id":"4","last_reported":1720382835,"current_range_meters":29200,"station_id":"ce4bha92rcd13ifvqeg0","pricing_plan_id":"cebpf4jnsgd1na2vs0mg"},{"bike_id":"d36383db-ec77-489b-8456-f4611e6f2752","system_id":"levelo_inurba_marseille","lat":43.29422,"lon":5.38619,"is_reserved":false,"is_disabled":false,"rental_uris":{"android":"levelo://app?vid=d36383db-ec77-489b-8456-f4611e6f2752","ios":"levelo://app?vid=d36383db-ec77-489b-8456-f4611e6f2752"},"vehicle_type_id":"4","last_reported":1720382835,"current_range_meters":0,"station_id":"ce4bh2h2rcd13ifvqdh0","pricing_plan_id":"cebpf4jnsgd1na2vs0mg"},{"bike_id":"26d18e7c-78fd-40ad-87cc-9d2e3207f87a","system_id":"levelo_inurba_marseille","lat":43.28941,"lon":5.36636,"is_reserved":false,"is_disabled":false,"rental_uris":{"android":"levelo://app?vid=26d18e7c-78fd-40ad-87cc-9d2e3207f87a","ios":"levelo://app?vid=26d18e7c-78fd-40ad-87cc-9d2e3207f87a"},"vehicle_type_id":"4","last_reported":1720382835,"current_range_meters":0,"station_id":"ce4bhap2rcd13ifvqek0","pricing_plan_id":"cebpf4jnsgd1na2vs0mg"},{"bike_id":"2608441f-bf3e-4d9c-84ca-5c98bc75c3f7","system_id":"levelo_inurba_marseille","lat":43.29413,"lon":5.38628,"is_reserved":false,"is_disabled":false,"rental_uris":{"android":"levelo://app?vid=2608441f-bf3e-4d9c-84ca-5c98bc75c3f7","ios":"levelo://app?vid=2608441f-bf3e-4d9c-84ca-5c98bc75c3f7"},"vehicle_type_id":"4","last_reported":1720382835,"current_range_meters":0,"station_id":"ce4bh2h2rcd13ifvqdh0","pricing_plan_id":"cebpf4jnsgd1na2vs0mg"},{"bike_id":"e8efdb41-3e8b-4a38-8bd8-c5ebcdf1798f","system_id":"levelo_inurba_marseille","lat":43.289468,"lon":5.363719,"is_reserved":false,"is_disabled":false,"rental_uris":{"android":"levelo://app?vid=e8efdb41-3e8b-4a38-8bd8-c5ebcdf1798f","ios":"levelo://app?vid=e8efdb41-3e8b-4a38-8bd8-c5ebcdf1798f"},"vehicle_type_id":"4","last_reported":1720382835,"current_range_meters":0,"station_id":"ce4bhc92rcd13ifvqetg","pricing_plan_id":"cebpf4jnsgd1na2vs0mg"},{"bike_id":"078bed90-b0ad-4f83-9eea-38b181751131","system_id":"levelo_inurba_marseille","lat":43.31259,"lon":5.39944,"is_reserved":false,"is_disabled":false,"rental_uris":{"android":"levelo://app?vid=078bed90-b0ad-4f83-9eea-38b181751131","ios":"levelo://app?vid=078bed90-b0ad-4f83-9eea-38b181751131"},"vehicle_type_id":"4","last_reported":1720382835,"current_range_meters":1200,"station_id":"","pricing_plan_id":"cebpf4jnsgd1na2vs0mg"},{"bike_id":"b30fe9ca-03f7-4c35-a68d-05018d483280","system_id":"levelo_inurba_marseille","lat":43.29272,"lon":5.38431,"is_reserved":false,"is_disabled":false,"rental_uris":{"android":"levelo://app?vid=b30fe9ca-03f7-4c35-a68d-05018d483280","ios":"levelo://app?vid=b30fe9ca-03f7-4c35-a68d-05018d483280"},"vehicle_type_id":"4","last_reported":1720382835,"current_range_meters":0,"station_id":"ce4bh692rcd13ifvqea0","pricing_plan_id":"cebpf4jnsgd1na2vs0mg"},{"bike_id":"f783e95a-cab3-4512-96e0-6b490633e197","system_id":"levelo_inurba_marseille","lat":43.29263,"lon":5.3843,"is_reserved":false,"is_disabled":false,"rental_uris":{"android":"levelo://app?vid=f783e95a-cab3-4512-96e0-6b490633e197","ios":"levelo://app?vid=f783e95a-cab3-4512-96e0-6b490633e197"},"vehicle_type_id":"4","last_reported":1720382835,"current_range_meters":0,"station_id":"ce4bh692rcd13ifvqea0","pricing_plan_id":"cebpf4jnsgd1na2vs0mg"},{"bike_id":"7e195970-436b-4c83-a497-2028b89318b6","system_id":"levelo_inurba_marseille","lat":43.292642,"lon":5.384254,"is_reserved":false,"is_disabled":false,"rental_uris":{"android":"levelo://app?vid=7e195970-436b-4c83-a497-2028b89318b6","ios":"levelo://app?vid=7e195970-436b-4c83-a497-2028b89318b6"},"vehicle_type_id":"4","last_reported":1720382835,"current_range_meters":30400,"station_id":"ce4bh692rcd13ifvqea0","pricing_plan_id":"cebpf4jnsgd1na2vs0mg"},{"bike_id":"4dc84669-3e7d-48f9-9e9b-b13fb927b792","system_id":"levelo_inurba_marseille","lat":43.290103,"lon":5.356114,"is_reserved":false,"is_disabled":false,"rental_uris":{"android":"levelo://app?vid=4dc84669-3e7d-48f9-9e9b-b13fb927b792","ios":"levelo://app?vid=4dc84669-3e7d-48f9-9e9b-b13fb927b792"},"vehicle_type_id":"4","last_reported":1720382835,"current_range_meters":0,"station_id":"ce4bhb92rcd13ifvqen0","pricing_plan_id":"cebpf4jnsgd1na2vs0mg"},{"bike_id":"82bc8c6d-a8b5-4603-98c8-20f58453d4e7","system_id":"levelo_inurba_marseille","lat":43.290995,"lon":5.381361,"is_reserved":false,"is_disabled":false,"rental_uris":{"android":"levelo://app?vid=82bc8c6d-a8b5-4603-98c8-20f58453d4e7","ios":"levelo://app?vid=82bc8c6d-a8b5-4603-98c8-20f58453d4e7"},"vehicle_type_id":"4","last_reported":1720382835,"current_range_meters":0,"station_id":"ce4bh512rcd13ifvqe2g","pricing_plan_id":"cebpf4jnsgd1na2vs0mg"},{"bike_id":"e20b4d37-2fd3-4ad7-a9b0-72c9ffa0cfae","system_id":"levelo_inurba_marseille","lat":43.30382,"lon":5.3979,"is_reserved":false,"is_disabled":false,"rental_uris":{"android":"levelo://app?vid=e20b4d37-2fd3-4ad7-a9b0-72c9ffa0cfae","ios":"levelo://app?vid=e20b4d37-2fd3-4ad7-a9b0-72c9ffa0cfae"},"vehicle_type_id":"4","last_reported":1720382835,"current_range_meters":20400,"station_id":"","pricing_plan_id":"cebpf4jnsgd1na2vs0mg"},{"bike_id":"75f9c527-70d5-4763-9b6b-1870606fa571","system_id":"levelo_inurba_marseille","lat":43.2978,"lon":5.39329,"is_reserved":false,"is_disabled":false,"rental_uris":{"android":"levelo://app?vid=75f9c527-70d5-4763-9b6b-1870606fa571","ios":"levelo://app?vid=75f9c527-70d5-4763-9b6b-1870606fa571"},"vehicle_type_id":"4","last_reported":1720382835,"current_range_meters":1200,"station_id":"chh1huq6cuj3fo74tm60","pricing_plan_id":"cebpf4jnsgd1na2vs0mg"},{"bike_id":"ab21f94a-615e-45cb-9d2c-3bbcdf0bc378","system_id":"levelo_inurba_marseille","lat":43.33018,"lon":5.39026,"is_reserved":false,"is_disabled":false,"rental_uris":{"android":"levelo://app?vid=ab21f94a-615e-45cb-9d2c-3bbcdf0bc378","ios":"levelo://app?vid=ab21f94a-615e-45cb-9d2c-3bbcdf0bc378"},"vehicle_type_id":"4","last_reported":1720382835,"current_range_meters":0,"station_id":"ce4bhr92rcd13ifvqhrg","pricing_plan_id":"cebpf4jnsgd1na2vs0mg"},{"bike_id":"28c80ce1-78d2-4c04-874a-9b9f416c5209","system_id":"levelo_inurba_marseille","lat":43.297815,"lon":5.393548,"is_reserved":false,"is_disabled":false,"rental_uris":{"android":"levelo://app?vid=28c80ce1-78d2-4c04-874a-9b9f416c5209","ios":"levelo://app?vid=28c80ce1-78d2-4c04-874a-9b9f416c5209"},"vehicle_type_id":"4","last_reported":1720382835,"current_range_meters":0,"station_id":"chh1huq6cuj3fo74tm60","pricing_plan_id":"cebpf4jnsgd1na2vs0mg"},{"bike_id":"44ca1e2c-a6b2-444b-8aab-66cc5962034f","system_id":"levelo_inurba_marseille","lat":43.33021,"lon":5.39036,"is_reserved":false,"is_disabled":false,"rental_uris":{"android":"levelo://app?vid=44ca1e2c-a6b2-444b-8aab-66cc5962034f","ios":"levelo://app?vid=44ca1e2c-a6b2-444b-8aab-66cc5962034f"},"vehicle_type_id":"4","last_reported":1720382835,"current_range_meters":3600,"station_id":"ce4bhr92rcd13ifvqhrg","pricing_plan_id":"cebpf4jnsgd1na2vs0mg"},{"bike_id":"d928cc06-f741-48d6-96ea-ec9d4ab19e15","system_id":"levelo_inurba_marseille","lat":43.330245,"lon":5.390345,"is_reserved":false,"is_disabled":false,"rental_uris":{"android":"levelo://app?vid=d928cc06-f741-48d6-96ea-ec9d4ab19e15","ios":"levelo://app?vid=d928cc06-f741-48d6-96ea-ec9d4ab19e15"},"vehicle_type_id":"4","last_reported":1720382835,"current_range_meters":16800,"station_id":"ce4bhr92rcd13ifvqhrg","pricing_plan_id":"cebpf4jnsgd1na2vs0mg"},{"bike_id":"a6e53086-f8c5-4fbc-9ec4-4ac6f1dbbea0","system_id":"levelo_inurba_marseille","lat":43.330442,"lon":5.389148,"is_reserved":false,"is_disabled":false,"rental_uris":{"android":"levelo://app?vid=a6e53086-f8c5-4fbc-9ec4-4ac6f1dbbea0","ios":"levelo://app?vid=a6e53086-f8c5-4fbc-9ec4-4ac6f1dbbea0"},"vehicle_type_id":"4","last_reported":1720382835,"current_range_meters":5200,"station_id":"ce4bhr92rcd13ifvqhrg","pricing_plan_id":"cebpf4jnsgd1na2vs0mg"},{"bike_id":"9b4a95b9-507b-462b-b241-ac7ec0fb92a5","system_id":"levelo_inurba_marseille","lat":43.28856,"lon":5.358371,"is_reserved":false,"is_disabled":false,"rental_uris":{"android":"levelo://app?vid=9b4a95b9-507b-462b-b241-ac7ec0fb92a5","ios":"levelo://app?vid=9b4a95b9-507b-462b-b241-ac7ec0fb92a5"},"vehicle_type_id":"4","last_reported":1720382835,"current_range_meters":0,"station_id":"ce4bhb12rcd13ifvqem0","pricing_plan_id":"cebpf4jnsgd1na2vs0mg"},{"bike_id":"0605d7c2-1fe3-4178-a5af-1a72291b2120","system_id":"levelo_inurba_marseille","lat":43.294162,"lon":5.386292,"is_reserved":false,"is_disabled":false,"rental_uris":{"android":"levelo://app?vid=0605d7c2-1fe3-4178-a5af-1a72291b2120","ios":"levelo://app?vid=0605d7c2-1fe3-4178-a5af-1a72291b2120"},"vehicle_type_id":"4","last_reported":1720382835,"current_range_meters":12800,"station_id":"ce4bh2h2rcd13ifvqdh0","pricing_plan_id":"cebpf4jnsgd1na2vs0mg"},{"bike_id":"fdbfcc29-04c6-4739-ba7e-441fb2e2593e","system_id":"levelo_inurba_marseille","lat":43.337408,"lon":5.374532,"is_reserved":false,"is_disabled":false,"rental_uris":{"android":"levelo://app?vid=fdbfcc29-04c6-4739-ba7e-441fb2e2593e","ios":"levelo://app?vid=fdbfcc29-04c6-4739-ba7e-441fb2e2593e"},"vehicle_type_id":"4","last_reported":1720382835,"current_range_meters":30000,"station_id":"","pricing_plan_id":"cebpf4jnsgd1na2vs0mg"},{"bike_id":"88f27a2f-daa4-4dfc-b23a-0cfd244fc967","system_id":"levelo_inurba_marseille","lat":43.337447,"lon":5.374523,"is_reserved":false,"is_disabled":false,"rental_uris":{"android":"levelo://app?vid=88f27a2f-daa4-4dfc-b23a-0cfd244fc967","ios":"levelo://app?vid=88f27a2f-daa4-4dfc-b23a-0cfd244fc967"},"vehicle_type_id":"4","last_reported":1720382835,"current_range_meters":12400,"station_id":"","pricing_plan_id":"cebpf4jnsgd1na2vs0mg"},{"bike_id":"a2c5ae8d-c643-4625-8a13-cf9980220ad8","system_id":"levelo_inurba_marseille","lat":43.309371,"lon":5.401449,"is_reserved":false,"is_disabled":false,"rental_uris":{"android":"levelo://app?vid=a2c5ae8d-c643-4625-8a13-cf9980220ad8","ios":"levelo://app?vid=a2c5ae8d-c643-4625-8a13-cf9980220ad8"},"vehicle_type_id":"4","last_reported":1720382835,"current_range_meters":5200,"station_id":"ce4bgvp2rcd13ifvqct0","pricing_plan_id":"cebpf4jnsgd1na2vs0mg"},{"bike_id":"568e51fe-3317-4e32-82a4-2bd4944c6912","system_id":"levelo_inurba_marseille","lat":43.33756,"lon":5.37429,"is_reserved":false,"is_disabled":false,"rental_uris":{"android":"levelo://app?vid=568e51fe-3317-4e32-82a4-2bd4944c6912","ios":"levelo://app?vid=568e51fe-3317-4e32-82a4-2bd4944c6912"},"vehicle_type_id":"4","last_reported":1720382835,"current_range_meters":1600,"station_id":"","pricing_plan_id":"cebpf4jnsgd1na2vs0mg"},{"bike_id":"22664dbb-05c6-44b7-ac76-723d395f476e","system_id":"levelo_inurba_marseille","lat":43.33755,"lon":5.37446,"is_reserved":false,"is_disabled":false,"rental_uris":{"android":"levelo://app?vid=22664dbb-05c6-44b7-ac76-723d395f476e","ios":"levelo://app?vid=22664dbb-05c6-44b7-ac76-723d395f476e"},"vehicle_type_id":"4","last_reported":1720382835,"current_range_meters":24400,"station_id":"","pricing_plan_id":"cebpf4jnsgd1na2vs0mg"},{"bike_id":"41fcb31e-469f-4a07-8a88-fbe57c2d85f5","system_id":"levelo_inurba_marseille","lat":43.33755,"lon":5.37455,"is_reserved":false,"is_disabled":false,"rental_uris":{"android":"levelo://app?vid=41fcb31e-469f-4a07-8a88-fbe57c2d85f5","ios":"levelo://app?vid=41fcb31e-469f-4a07-8a88-fbe57c2d85f5"},"vehicle_type_id":"4","last_reported":1720382835,"current_range_meters":22800,"station_id":"","pricing_plan_id":"cebpf4jnsgd1na2vs0mg"},{"bike_id":"ba77c056-6fe7-4228-884f-a9f07e3f5ccc","system_id":"levelo_inurba_marseille","lat":43.337605,"lon":5.374409,"is_reserved":false,"is_disabled":false,"rental_uris":{"android":"levelo://app?vid=ba77c056-6fe7-4228-884f-a9f07e3f5ccc","ios":"levelo://app?vid=ba77c056-6fe7-4228-884f-a9f07e3f5ccc"},"vehicle_type_id":"4","last_reported":1720382835,"current_range_meters":30000,"station_id":"ce4rr2p2rcd13i802rgg","pricing_plan_id":"cebpf4jnsgd1na2vs0mg"},{"bike_id":"d18fc15d-e9a7-4dbb-9aed-fc17bcc86552","system_id":"levelo_inurba_marseille","lat":43.337632,"lon":5.374326,"is_reserved":false,"is_disabled":false,"rental_uris":{"android":"levelo://app?vid=d18fc15d-e9a7-4dbb-9aed-fc17bcc86552","ios":"levelo://app?vid=d18fc15d-e9a7-4dbb-9aed-fc17bcc86552"},"vehicle_type_id":"4","last_reported":1720382835,"current_range_meters":12000,"station_id":"","pricing_plan_id":"cebpf4jnsgd1na2vs0mg"},{"bike_id":"e8043679-5e2d-45ca-af32-4c2eeb2d3b4d","system_id":"levelo_inurba_marseille","lat":43.337673,"lon":5.374338,"is_reserved":false,"is_disabled":false,"rental_uris":{"android":"levelo://app?vid=e8043679-5e2d-45ca-af32-4c2eeb2d3b4d","ios":"levelo://app?vid=e8043679-5e2d-45ca-af32-4c2eeb2d3b4d"},"vehicle_type_id":"4","last_reported":1720382835,"current_range_meters":14000,"station_id":"","pricing_plan_id":"cebpf4jnsgd1na2vs0mg"},{"bike_id":"ca28a750-034c-4926-945c-7b5f8a0741a9","system_id":"levelo_inurba_marseille","lat":43.337674,"lon":5.374413,"is_reserved":false,"is_disabled":false,"rental_uris":{"android":"levelo://app?vid=ca28a750-034c-4926-945c-7b5f8a0741a9","ios":"levelo://app?vid=ca28a750-034c-4926-945c-7b5f8a0741a9"},"vehicle_type_id":"4","last_reported":1720382835,"current_range_meters":25200,"station_id":"","pricing_plan_id":"cebpf4jnsgd1na2vs0mg"},{"bike_id":"521138e1-cc76-4f6c-a6ca-333c20821687","system_id":"levelo_inurba_marseille","lat":43.33728,"lon":5.35583,"is_reserved":false,"is_disabled":false,"rental_uris":{"android":"levelo://app?vid=521138e1-cc76-4f6c-a6ca-333c20821687","ios":"levelo://app?vid=521138e1-cc76-4f6c-a6ca-333c20821687"},"vehicle_type_id":"4","last_reported":1720382835,"current_range_meters":25600,"station_id":"","pricing_plan_id":"cebpf4jnsgd1na2vs0mg"},{"bike_id":"054a0e2e-039b-47a2-a1f7-deed654647fc","system_id":"levelo_inurba_marseille","lat":43.28727,"lon":5.36078,"is_reserved":false,"is_disabled":false,"rental_uris":{"android":"levelo://app?vid=054a0e2e-039b-47a2-a1f7-deed654647fc","ios":"levelo://app?vid=054a0e2e-039b-47a2-a1f7-deed654647fc"},"vehicle_type_id":"4","last_reported":1720382835,"current_range_meters":0,"station_id":"cki0cbj6b192h4jlfktg","pricing_plan_id":"cebpf4jnsgd1na2vs0mg"},{"bike_id":"2c68ff2c-5cd1-4822-be37-daaf3c123a2a","system_id":"levelo_inurba_marseille","lat":43.28727,"lon":5.36078,"is_reserved":false,"is_disabled":false,"rental_uris":{"android":"levelo://app?vid=2c68ff2c-5cd1-4822-be37-daaf3c123a2a","ios":"levelo://app?vid=2c68ff2c-5cd1-4822-be37-daaf3c123a2a"},"vehicle_type_id":"4","last_reported":1720382835,"current_range_meters":6400,"station_id":"cki0cbj6b192h4jlfktg","pricing_plan_id":"cebpf4jnsgd1na2vs0mg"},{"bike_id":"493e1d13-1307-463e-8056-d494f7c84f39","system_id":"levelo_inurba_marseille","lat":43.298681,"lon":5.397225,"is_reserved":false,"is_disabled":false,"rental_uris":{"android":"levelo://app?vid=493e1d13-1307-463e-8056-d494f7c84f39","ios":"levelo://app?vid=493e1d13-1307-463e-8056-d494f7c84f39"},"vehicle_type_id":"4","last_reported":1720382835,"current_range_meters":0,"station_id":"ce4bh0h2rcd13ifvqd50","pricing_plan_id":"cebpf4jnsgd1na2vs0mg"},{"bike_id":"19a554eb-3336-42e1-86be-60dea4e99940","system_id":"levelo_inurba_marseille","lat":43.298681,"lon":5.397225,"is_reserved":false,"is_disabled":false,"rental_uris":{"android":"levelo://app?vid=19a554eb-3336-42e1-86be-60dea4e99940","ios":"levelo://app?vid=19a554eb-3336-42e1-86be-60dea4e99940"},"vehicle_type_id":"4","last_reported":1720382835,"current_range_meters":31600,"station_id":"ce4bh0h2rcd13ifvqd50","pricing_plan_id":"cebpf4jnsgd1na2vs0mg"},{"bike_id":"c7d4268b-c223-42c4-86ff-525e636a3348","system_id":"levelo_inurba_marseille","lat":43.298681,"lon":5.397225,"is_reserved":false,"is_disabled":false,"rental_uris":{"android":"levelo://app?vid=c7d4268b-c223-42c4-86ff-525e636a3348","ios":"levelo://app?vid=c7d4268b-c223-42c4-86ff-525e636a3348"},"vehicle_type_id":"4","last_reported":1720382835,"current_range_meters":0,"station_id":"ce4bh0h2rcd13ifvqd50","pricing_plan_id":"cebpf4jnsgd1na2vs0mg"},{"bike_id":"295be8bf-20af-4600-adc2-d77b9d7d617c","system_id":"levelo_inurba_marseille","lat":43.29882,"lon":5.39749,"is_reserved":false,"is_disabled":false,"rental_uris":{"android":"levelo://app?vid=295be8bf-20af-4600-adc2-d77b9d7d617c","ios":"levelo://app?vid=295be8bf-20af-4600-adc2-d77b9d7d617c"},"vehicle_type_id":"4","last_reported":1720382835,"current_range_meters":31200,"station_id":"ce4bh0h2rcd13ifvqd50","pricing_plan_id":"cebpf4jnsgd1na2vs0mg"},{"bike_id":"076cf2e0-365a-42c5-9b11-d7ea4423a683","system_id":"levelo_inurba_marseille","lat":43.295196,"lon":5.39397,"is_reserved":false,"is_disabled":false,"rental_uris":{"android":"levelo://app?vid=076cf2e0-365a-42c5-9b11-d7ea4423a683","ios":"levelo://app?vid=076cf2e0-365a-42c5-9b11-d7ea4423a683"},"vehicle_type_id":"4","last_reported":1720382835,"current_range_meters":18800,"station_id":"ce4bh292rcd13ifvqdf0","pricing_plan_id":"cebpf4jnsgd1na2vs0mg"},{"bike_id":"84fff4e8-f7dd-4131-978c-f3ac3370470e","system_id":"levelo_inurba_marseille","lat":43.295196,"lon":5.39397,"is_reserved":false,"is_disabled":false,"rental_uris":{"android":"levelo://app?vid=84fff4e8-f7dd-4131-978c-f3ac3370470e","ios":"levelo://app?vid=84fff4e8-f7dd-4131-978c-f3ac3370470e"},"vehicle_type_id":"4","last_reported":1720382835,"current_range_meters":17600,"station_id":"ce4bh292rcd13ifvqdf0","pricing_plan_id":"cebpf4jnsgd1na2vs0mg"},{"bike_id":"17597a1d-6f8b-4486-8ce8-effb6eeed590","system_id":"levelo_inurba_marseille","lat":43.295196,"lon":5.39397,"is_reserved":false,"is_disabled":false,"rental_uris":{"android":"levelo://app?vid=17597a1d-6f8b-4486-8ce8-effb6eeed590","ios":"levelo://app?vid=17597a1d-6f8b-4486-8ce8-effb6eeed590"},"vehicle_type_id":"4","last_reported":1720382835,"current_range_meters":22000,"station_id":"ce4bh292rcd13ifvqdf0","pricing_plan_id":"cebpf4jnsgd1na2vs0mg"},{"bike_id":"5c9cd90b-174b-4a67-97f6-8c4138edcf18","system_id":"levelo_inurba_marseille","lat":43.302759,"lon":5.400793,"is_reserved":false,"is_disabled":false,"rental_uris":{"android":"levelo://app?vid=5c9cd90b-174b-4a67-97f6-8c4138edcf18","ios":"levelo://app?vid=5c9cd90b-174b-4a67-97f6-8c4138edcf18"},"vehicle_type_id":"4","last_reported":1720382835,"current_range_meters":16000,"station_id":"ce4bgvh2rcd13ifvqcs0","pricing_plan_id":"cebpf4jnsgd1na2vs0mg"},{"bike_id":"cdfdd7c2-845e-4951-abbe-44468e0879b2","system_id":"levelo_inurba_marseille","lat":43.302759,"lon":5.400793,"is_reserved":false,"is_disabled":false,"rental_uris":{"android":"levelo://app?vid=cdfdd7c2-845e-4951-abbe-44468e0879b2","ios":"levelo://app?vid=cdfdd7c2-845e-4951-abbe-44468e0879b2"},"vehicle_type_id":"4","last_reported":1720382835,"current_range_meters":6400,"station_id":"ce4bgvh2rcd13ifvqcs0","pricing_plan_id":"cebpf4jnsgd1na2vs0mg"},{"bike_id":"0c4e4e11-8a8c-4778-9691-799bdc4e3b4d","system_id":"levelo_inurba_marseille","lat":43.302351,"lon":5.400443,"is_reserved":false,"is_disabled":false,"rental_uris":{"android":"levelo://app?vid=0c4e4e11-8a8c-4778-9691-799bdc4e3b4d","ios":"levelo://app?vid=0c4e4e11-8a8c-4778-9691-799bdc4e3b4d"},"vehicle_type_id":"4","last_reported":1720382835,"current_range_meters":31600,"station_id":"","pricing_plan_id":"cebpf4jnsgd1na2vs0mg"},{"bike_id":"a3c90727-41f0-4a29-a9da-e45ecfa3b170","system_id":"levelo_inurba_marseille","lat":43.302759,"lon":5.400793,"is_reserved":false,"is_disabled":false,"rental_uris":{"android":"levelo://app?vid=a3c90727-41f0-4a29-a9da-e45ecfa3b170","ios":"levelo://app?vid=a3c90727-41f0-4a29-a9da-e45ecfa3b170"},"vehicle_type_id":"4","last_reported":1720382835,"current_range_meters":5600,"station_id":"ce4bgvh2rcd13ifvqcs0","pricing_plan_id":"cebpf4jnsgd1na2vs0mg"},{"bike_id":"0573f929-b958-4b2e-85bc-1fed5ef2e0db","system_id":"levelo_inurba_marseille","lat":43.290336,"lon":5.386425,"is_reserved":false,"is_disabled":false,"rental_uris":{"android":"levelo://app?vid=0573f929-b958-4b2e-85bc-1fed5ef2e0db","ios":"levelo://app?vid=0573f929-b958-4b2e-85bc-1fed5ef2e0db"},"vehicle_type_id":"4","last_reported":1720382835,"current_range_meters":0,"station_id":"ce4bh4p2rcd13ifvqe0g","pricing_plan_id":"cebpf4jnsgd1na2vs0mg"},{"bike_id":"ce64f094-85f6-4ef5-975e-ac20b3dec5a5","system_id":"levelo_inurba_marseille","lat":43.302759,"lon":5.400793,"is_reserved":false,"is_disabled":false,"rental_uris":{"android":"levelo://app?vid=ce64f094-85f6-4ef5-975e-ac20b3dec5a5","ios":"levelo://app?vid=ce64f094-85f6-4ef5-975e-ac20b3dec5a5"},"vehicle_type_id":"4","last_reported":1720382835,"current_range_meters":31600,"station_id":"ce4bgvh2rcd13ifvqcs0","pricing_plan_id":"cebpf4jnsgd1na2vs0mg"},{"bike_id":"0f21a570-0f73-4703-a9f1-59d4faac2c4a","system_id":"levelo_inurba_marseille","lat":43.302759,"lon":5.400793,"is_reserved":false,"is_disabled":false,"rental_uris":{"android":"levelo://app?vid=0f21a570-0f73-4703-a9f1-59d4faac2c4a","ios":"levelo://app?vid=0f21a570-0f73-4703-a9f1-59d4faac2c4a"},"vehicle_type_id":"4","last_reported":1720382835,"current_range_meters":28000,"station_id":"ce4bgvh2rcd13ifvqcs0","pricing_plan_id":"cebpf4jnsgd1na2vs0mg"},{"bike_id":"9895d461-3323-41cc-bce8-d34645733584","system_id":"levelo_inurba_marseille","lat":43.28715,"lon":5.37944,"is_reserved":false,"is_disabled":false,"rental_uris":{"android":"levelo://app?vid=9895d461-3323-41cc-bce8-d34645733584","ios":"levelo://app?vid=9895d461-3323-41cc-bce8-d34645733584"},"vehicle_type_id":"4","last_reported":1720382835,"current_range_meters":0,"station_id":"ce4bh9p2rcd13ifvqec0","pricing_plan_id":"cebpf4jnsgd1na2vs0mg"},{"bike_id":"054a8837-e44a-4069-9d19-3f24eb78cbc8","system_id":"levelo_inurba_marseille","lat":43.291994,"lon":5.392907,"is_reserved":false,"is_disabled":false,"rental_uris":{"android":"levelo://app?vid=054a8837-e44a-4069-9d19-3f24eb78cbc8","ios":"levelo://app?vid=054a8837-e44a-4069-9d19-3f24eb78cbc8"},"vehicle_type_id":"4","last_reported":1720382835,"current_range_meters":3600,"station_id":"ce4bh192rcd13ifvqdd0","pricing_plan_id":"cebpf4jnsgd1na2vs0mg"},{"bike_id":"8eb1befa-8388-430e-adcd-69a625664a59","system_id":"levelo_inurba_marseille","lat":43.291994,"lon":5.392907,"is_reserved":false,"is_disabled":false,"rental_uris":{"android":"levelo://app?vid=8eb1befa-8388-430e-adcd-69a625664a59","ios":"levelo://app?vid=8eb1befa-8388-430e-adcd-69a625664a59"},"vehicle_type_id":"4","last_reported":1720382835,"current_range_meters":16400,"station_id":"ce4bh192rcd13ifvqdd0","pricing_plan_id":"cebpf4jnsgd1na2vs0mg"},{"bike_id":"e5033b98-754c-4e9d-9856-f455f850ff3a","system_id":"levelo_inurba_marseille","lat":43.29193,"lon":5.39319,"is_reserved":false,"is_disabled":false,"rental_uris":{"android":"levelo://app?vid=e5033b98-754c-4e9d-9856-f455f850ff3a","ios":"levelo://app?vid=e5033b98-754c-4e9d-9856-f455f850ff3a"},"vehicle_type_id":"4","last_reported":1720382835,"current_range_meters":0,"station_id":"ce4bh192rcd13ifvqdd0","pricing_plan_id":"cebpf4jnsgd1na2vs0mg"},{"bike_id":"88101340-1ba0-4237-b9b6-ed416ecfab22","system_id":"levelo_inurba_marseille","lat":43.291994,"lon":5.392907,"is_reserved":false,"is_disabled":false,"rental_uris":{"android":"levelo://app?vid=88101340-1ba0-4237-b9b6-ed416ecfab22","ios":"levelo://app?vid=88101340-1ba0-4237-b9b6-ed416ecfab22"},"vehicle_type_id":"4","last_reported":1720382835,"current_range_meters":7600,"station_id":"ce4bh192rcd13ifvqdd0","pricing_plan_id":"cebpf4jnsgd1na2vs0mg"},{"bike_id":"86077d9d-9758-4570-9bec-4620820bab4d","system_id":"levelo_inurba_marseille","lat":43.28458,"lon":5.35892,"is_reserved":false,"is_disabled":false,"rental_uris":{"android":"levelo://app?vid=86077d9d-9758-4570-9bec-4620820bab4d","ios":"levelo://app?vid=86077d9d-9758-4570-9bec-4620820bab4d"},"vehicle_type_id":"4","last_reported":1720382835,"current_range_meters":0,"station_id":"ce4bhah2rcd13ifvqei0","pricing_plan_id":"cebpf4jnsgd1na2vs0mg"},{"bike_id":"bcd64e42-dee6-4dc1-9f1a-c6db838ed68b","system_id":"levelo_inurba_marseille","lat":43.294314,"lon":5.397498,"is_reserved":false,"is_disabled":false,"rental_uris":{"android":"levelo://app?vid=bcd64e42-dee6-4dc1-9f1a-c6db838ed68b","ios":"levelo://app?vid=bcd64e42-dee6-4dc1-9f1a-c6db838ed68b"},"vehicle_type_id":"4","last_reported":1720382835,"current_range_meters":28400,"station_id":"ce4bh3h2rcd13ifvqdo0","pricing_plan_id":"cebpf4jnsgd1na2vs0mg"},{"bike_id":"0d05fca4-3535-4338-abab-fb6914a3a680","system_id":"levelo_inurba_marseille","lat":43.28454,"lon":5.35888,"is_reserved":false,"is_disabled":false,"rental_uris":{"android":"levelo://app?vid=0d05fca4-3535-4338-abab-fb6914a3a680","ios":"levelo://app?vid=0d05fca4-3535-4338-abab-fb6914a3a680"},"vehicle_type_id":"4","last_reported":1720382835,"current_range_meters":0,"station_id":"ce4bhah2rcd13ifvqei0","pricing_plan_id":"cebpf4jnsgd1na2vs0mg"},{"bike_id":"326e8412-015a-4d5e-860d-400478d90c43","system_id":"levelo_inurba_marseille","lat":43.28617,"lon":5.35099,"is_reserved":false,"is_disabled":false,"rental_uris":{"android":"levelo://app?vid=326e8412-015a-4d5e-860d-400478d90c43","ios":"levelo://app?vid=326e8412-015a-4d5e-860d-400478d90c43"},"vehicle_type_id":"4","last_reported":1720382835,"current_range_meters":0,"station_id":"ce4bhch2rcd13ifvqeug","pricing_plan_id":"cebpf4jnsgd1na2vs0mg"},{"bike_id":"45cbc19d-82db-4687-bbb0-c548fb388cfa","system_id":"levelo_inurba_marseille","lat":43.285856,"lon":5.350771,"is_reserved":false,"is_disabled":false,"rental_uris":{"android":"levelo://app?vid=45cbc19d-82db-4687-bbb0-c548fb388cfa","ios":"levelo://app?vid=45cbc19d-82db-4687-bbb0-c548fb388cfa"},"vehicle_type_id":"4","last_reported":1720382835,"current_range_meters":1600,"station_id":"ce4bhch2rcd13ifvqeug","pricing_plan_id":"cebpf4jnsgd1na2vs0mg"},{"bike_id":"d9b2ee0c-91dc-4456-8012-f51576cb640b","system_id":"levelo_inurba_marseille","lat":43.295713,"lon":5.399639,"is_reserved":false,"is_disabled":false,"rental_uris":{"android":"levelo://app?vid=d9b2ee0c-91dc-4456-8012-f51576cb640b","ios":"levelo://app?vid=d9b2ee0c-91dc-4456-8012-f51576cb640b"},"vehicle_type_id":"4","last_reported":1720382835,"current_range_meters":2400,"station_id":"ce4bh312rcd13ifvqdj0","pricing_plan_id":"cebpf4jnsgd1na2vs0mg"},{"bike_id":"8a61fa89-a644-4781-b36c-19fc9f55b80c","system_id":"levelo_inurba_marseille","lat":43.283998,"lon":5.375062,"is_reserved":false,"is_disabled":false,"rental_uris":{"android":"levelo://app?vid=8a61fa89-a644-4781-b36c-19fc9f55b80c","ios":"levelo://app?vid=8a61fa89-a644-4781-b36c-19fc9f55b80c"},"vehicle_type_id":"4","last_reported":1720382835,"current_range_meters":2000,"station_id":"ce4bh412rcd13ifvqds0","pricing_plan_id":"cebpf4jnsgd1na2vs0mg"},{"bike_id":"906eb329-fb9c-4c3e-a450-e2212eed7285","system_id":"levelo_inurba_marseille","lat":43.29953,"lon":5.40327,"is_reserved":false,"is_disabled":false,"rental_uris":{"android":"levelo://app?vid=906eb329-fb9c-4c3e-a450-e2212eed7285","ios":"levelo://app?vid=906eb329-fb9c-4c3e-a450-e2212eed7285"},"vehicle_type_id":"4","last_reported":1720382835,"current_range_meters":16800,"station_id":"","pricing_plan_id":"cebpf4jnsgd1na2vs0mg"},{"bike_id":"4c49f1c0-b209-4c1f-9263-98262a8b1084","system_id":"levelo_inurba_marseille","lat":43.286595,"lon":5.386795,"is_reserved":false,"is_disabled":false,"rental_uris":{"android":"levelo://app?vid=4c49f1c0-b209-4c1f-9263-98262a8b1084","ios":"levelo://app?vid=4c49f1c0-b209-4c1f-9263-98262a8b1084"},"vehicle_type_id":"4","last_reported":1720382835,"current_range_meters":2400,"station_id":"ce4bh492rcd13ifvqdug","pricing_plan_id":"cebpf4jnsgd1na2vs0mg"},{"bike_id":"c9307de9-ce1d-44b2-b7b1-bd55ff79ffca","system_id":"levelo_inurba_marseille","lat":43.286748,"lon":5.386573,"is_reserved":false,"is_disabled":false,"rental_uris":{"android":"levelo://app?vid=c9307de9-ce1d-44b2-b7b1-bd55ff79ffca","ios":"levelo://app?vid=c9307de9-ce1d-44b2-b7b1-bd55ff79ffca"},"vehicle_type_id":"4","last_reported":1720382835,"current_range_meters":0,"station_id":"ce4bh492rcd13ifvqdug","pricing_plan_id":"cebpf4jnsgd1na2vs0mg"},{"bike_id":"d125b9fb-f6db-47ce-aae4-0eb256b4e184","system_id":"levelo_inurba_marseille","lat":43.286595,"lon":5.386795,"is_reserved":false,"is_disabled":false,"rental_uris":{"android":"levelo://app?vid=d125b9fb-f6db-47ce-aae4-0eb256b4e184","ios":"levelo://app?vid=d125b9fb-f6db-47ce-aae4-0eb256b4e184"},"vehicle_type_id":"4","last_reported":1720382835,"current_range_meters":2000,"station_id":"ce4bh492rcd13ifvqdug","pricing_plan_id":"cebpf4jnsgd1na2vs0mg"},{"bike_id":"efe24664-bf6f-4ebe-89a4-c1317208ed9d","system_id":"levelo_inurba_marseille","lat":43.286595,"lon":5.386795,"is_reserved":false,"is_disabled":false,"rental_uris":{"android":"levelo://app?vid=efe24664-bf6f-4ebe-89a4-c1317208ed9d","ios":"levelo://app?vid=efe24664-bf6f-4ebe-89a4-c1317208ed9d"},"vehicle_type_id":"4","last_reported":1720382835,"current_range_meters":0,"station_id":"ce4bh492rcd13ifvqdug","pricing_plan_id":"cebpf4jnsgd1na2vs0mg"},{"bike_id":"44cd95e7-4fa1-499f-a3d7-0b294778abcc","system_id":"levelo_inurba_marseille","lat":43.286595,"lon":5.386795,"is_reserved":false,"is_disabled":false,"rental_uris":{"android":"levelo://app?vid=44cd95e7-4fa1-499f-a3d7-0b294778abcc","ios":"levelo://app?vid=44cd95e7-4fa1-499f-a3d7-0b294778abcc"},"vehicle_type_id":"4","last_reported":1720382835,"current_range_meters":0,"station_id":"ce4bh492rcd13ifvqdug","pricing_plan_id":"cebpf4jnsgd1na2vs0mg"},{"bike_id":"f80b58d6-2b5f-486d-962f-fecfe50679b2","system_id":"levelo_inurba_marseille","lat":43.3189,"lon":5.40743,"is_reserved":false,"is_disabled":false,"rental_uris":{"android":"levelo://app?vid=f80b58d6-2b5f-486d-962f-fecfe50679b2","ios":"levelo://app?vid=f80b58d6-2b5f-486d-962f-fecfe50679b2"},"vehicle_type_id":"4","last_reported":1720382835,"current_range_meters":5200,"station_id":"ce4bhq12rcd13ifvqhig","pricing_plan_id":"cebpf4jnsgd1na2vs0mg"},{"bike_id":"93f88a42-6603-4ee9-a56b-7b5bd4eac423","system_id":"levelo_inurba_marseille","lat":43.31876,"lon":5.40758,"is_reserved":false,"is_disabled":false,"rental_uris":{"android":"levelo://app?vid=93f88a42-6603-4ee9-a56b-7b5bd4eac423","ios":"levelo://app?vid=93f88a42-6603-4ee9-a56b-7b5bd4eac423"},"vehicle_type_id":"4","last_reported":1720382835,"current_range_meters":2000,"station_id":"ce4bhq12rcd13ifvqhig","pricing_plan_id":"cebpf4jnsgd1na2vs0mg"},{"bike_id":"5f79a5a1-51c1-4edd-80a7-7c9bef5071a5","system_id":"levelo_inurba_marseille","lat":43.337168,"lon":5.391825,"is_reserved":false,"is_disabled":false,"rental_uris":{"android":"levelo://app?vid=5f79a5a1-51c1-4edd-80a7-7c9bef5071a5","ios":"levelo://app?vid=5f79a5a1-51c1-4edd-80a7-7c9bef5071a5"},"vehicle_type_id":"4","last_reported":1720382835,"current_range_meters":1600,"station_id":"ce4bhr92rcd13ifvqhsg","pricing_plan_id":"cebpf4jnsgd1na2vs0mg"},{"bike_id":"8feb17dd-f8a2-498f-afed-ca9a4f0b6feb","system_id":"levelo_inurba_marseille","lat":43.323464,"lon":5.406297,"is_reserved":false,"is_disabled":false,"rental_uris":{"android":"levelo://app?vid=8feb17dd-f8a2-498f-afed-ca9a4f0b6feb","ios":"levelo://app?vid=8feb17dd-f8a2-498f-afed-ca9a4f0b6feb"},"vehicle_type_id":"4","last_reported":1720382835,"current_range_meters":0,"station_id":"ce4bhq92rcd13ifvqhjg","pricing_plan_id":"cebpf4jnsgd1na2vs0mg"},{"bike_id":"1e7b741e-fd2f-47ad-8713-12ed084b3090","system_id":"levelo_inurba_marseille","lat":43.33717,"lon":5.391857,"is_reserved":false,"is_disabled":false,"rental_uris":{"android":"levelo://app?vid=1e7b741e-fd2f-47ad-8713-12ed084b3090","ios":"levelo://app?vid=1e7b741e-fd2f-47ad-8713-12ed084b3090"},"vehicle_type_id":"4","last_reported":1720382835,"current_range_meters":16000,"station_id":"ce4bhr92rcd13ifvqhsg","pricing_plan_id":"cebpf4jnsgd1na2vs0mg"},{"bike_id":"6436e9c7-6831-45a3-a5d0-cede0f95840d","system_id":"levelo_inurba_marseille","lat":43.288497,"lon":5.393089,"is_reserved":false,"is_disabled":false,"rental_uris":{"android":"levelo://app?vid=6436e9c7-6831-45a3-a5d0-cede0f95840d","ios":"levelo://app?vid=6436e9c7-6831-45a3-a5d0-cede0f95840d"},"vehicle_type_id":"4","last_reported":1720382835,"current_range_meters":0,"station_id":"ce4bh2p2rcd13ifvqdi0","pricing_plan_id":"cebpf4jnsgd1na2vs0mg"},{"bike_id":"f942d317-3689-4b3c-9379-bd6ed32b8aef","system_id":"levelo_inurba_marseille","lat":43.284219,"lon":5.3497,"is_reserved":false,"is_disabled":false,"rental_uris":{"android":"levelo://app?vid=f942d317-3689-4b3c-9379-bd6ed32b8aef","ios":"levelo://app?vid=f942d317-3689-4b3c-9379-bd6ed32b8aef"},"vehicle_type_id":"4","last_reported":1720382835,"current_range_meters":24400,"station_id":"ce4bhbh2rcd13ifvqepg","pricing_plan_id":"cebpf4jnsgd1na2vs0mg"},{"bike_id":"f698a579-c49d-4cfe-9b1b-71a0e85aa75a","system_id":"levelo_inurba_marseille","lat":43.292724,"lon":5.401131,"is_reserved":false,"is_disabled":false,"rental_uris":{"android":"levelo://app?vid=f698a579-c49d-4cfe-9b1b-71a0e85aa75a","ios":"levelo://app?vid=f698a579-c49d-4cfe-9b1b-71a0e85aa75a"},"vehicle_type_id":"4","last_reported":1720382835,"current_range_meters":8000,"station_id":"ce4bh312rcd13ifvqdk0","pricing_plan_id":"cebpf4jnsgd1na2vs0mg"},{"bike_id":"1209f50f-c54a-4b33-b68d-14b1a66675e2","system_id":"levelo_inurba_marseille","lat":43.292724,"lon":5.401131,"is_reserved":false,"is_disabled":false,"rental_uris":{"android":"levelo://app?vid=1209f50f-c54a-4b33-b68d-14b1a66675e2","ios":"levelo://app?vid=1209f50f-c54a-4b33-b68d-14b1a66675e2"},"vehicle_type_id":"4","last_reported":1720382835,"current_range_meters":2000,"station_id":"ce4bh312rcd13ifvqdk0","pricing_plan_id":"cebpf4jnsgd1na2vs0mg"},{"bike_id":"a15dd6e7-028d-48cf-943c-267649704d1d","system_id":"levelo_inurba_marseille","lat":43.28357,"lon":5.38637,"is_reserved":false,"is_disabled":false,"rental_uris":{"android":"levelo://app?vid=a15dd6e7-028d-48cf-943c-267649704d1d","ios":"levelo://app?vid=a15dd6e7-028d-48cf-943c-267649704d1d"},"vehicle_type_id":"4","last_reported":1720382835,"current_range_meters":19200,"station_id":"ce4bh492rcd13ifvqdvg","pricing_plan_id":"cebpf4jnsgd1na2vs0mg"},{"bike_id":"7919f9b0-343a-48bc-8352-f15f3c54e409","system_id":"levelo_inurba_marseille","lat":43.28108,"lon":5.37827,"is_reserved":false,"is_disabled":false,"rental_uris":{"android":"levelo://app?vid=7919f9b0-343a-48bc-8352-f15f3c54e409","ios":"levelo://app?vid=7919f9b0-343a-48bc-8352-f15f3c54e409"},"vehicle_type_id":"4","last_reported":1720382835,"current_range_meters":8800,"station_id":"ce4bha12rcd13ifvqee0","pricing_plan_id":"cebpf4jnsgd1na2vs0mg"},{"bike_id":"62a0e3ed-15b3-4069-a409-cfebc85cf4c2","system_id":"levelo_inurba_marseille","lat":43.296263,"lon":5.40601,"is_reserved":false,"is_disabled":false,"rental_uris":{"android":"levelo://app?vid=62a0e3ed-15b3-4069-a409-cfebc85cf4c2","ios":"levelo://app?vid=62a0e3ed-15b3-4069-a409-cfebc85cf4c2"},"vehicle_type_id":"4","last_reported":1720382835,"current_range_meters":31200,"station_id":"ce4bh0h2rcd13ifvqd60","pricing_plan_id":"cebpf4jnsgd1na2vs0mg"},{"bike_id":"746bdb55-0792-44a6-b976-da3a1d769986","system_id":"levelo_inurba_marseille","lat":43.281044,"lon":5.378308,"is_reserved":false,"is_disabled":false,"rental_uris":{"android":"levelo://app?vid=746bdb55-0792-44a6-b976-da3a1d769986","ios":"levelo://app?vid=746bdb55-0792-44a6-b976-da3a1d769986"},"vehicle_type_id":"4","last_reported":1720382835,"current_range_meters":0,"station_id":"ce4bha12rcd13ifvqee0","pricing_plan_id":"cebpf4jnsgd1na2vs0mg"},{"bike_id":"130dc838-374b-4961-b415-b456c63b47c1","system_id":"levelo_inurba_marseille","lat":43.296263,"lon":5.40601,"is_reserved":false,"is_disabled":false,"rental_uris":{"android":"levelo://app?vid=130dc838-374b-4961-b415-b456c63b47c1","ios":"levelo://app?vid=130dc838-374b-4961-b415-b456c63b47c1"},"vehicle_type_id":"4","last_reported":1720382835,"current_range_meters":31200,"station_id":"ce4bh0h2rcd13ifvqd60","pricing_plan_id":"cebpf4jnsgd1na2vs0mg"},{"bike_id":"6d77e403-e2df-4107-8702-aee705a99759","system_id":"levelo_inurba_marseille","lat":43.290538,"lon":5.40028,"is_reserved":false,"is_disabled":false,"rental_uris":{"android":"levelo://app?vid=6d77e403-e2df-4107-8702-aee705a99759","ios":"levelo://app?vid=6d77e403-e2df-4107-8702-aee705a99759"},"vehicle_type_id":"4","last_reported":1720382835,"current_range_meters":20800,"station_id":"","pricing_plan_id":"cebpf4jnsgd1na2vs0mg"},{"bike_id":"b92d0bb1-057f-4e4c-ae00-ced475c471a6","system_id":"levelo_inurba_marseille","lat":43.31956,"lon":5.41202,"is_reserved":false,"is_disabled":false,"rental_uris":{"android":"levelo://app?vid=b92d0bb1-057f-4e4c-ae00-ced475c471a6","ios":"levelo://app?vid=b92d0bb1-057f-4e4c-ae00-ced475c471a6"},"vehicle_type_id":"4","last_reported":1720382835,"current_range_meters":14000,"station_id":"","pricing_plan_id":"cebpf4jnsgd1na2vs0mg"},{"bike_id":"e6cd2958-a067-495d-9991-9190aaec3484","system_id":"levelo_inurba_marseille","lat":43.285736,"lon":5.394846,"is_reserved":false,"is_disabled":false,"rental_uris":{"android":"levelo://app?vid=e6cd2958-a067-495d-9991-9190aaec3484","ios":"levelo://app?vid=e6cd2958-a067-495d-9991-9190aaec3484"},"vehicle_type_id":"4","last_reported":1720382835,"current_range_meters":0,"station_id":"ce4bh292rcd13ifvqdg0","pricing_plan_id":"cebpf4jnsgd1na2vs0mg"},{"bike_id":"4b010e16-0e32-4703-ac22-6e88fce8898b","system_id":"levelo_inurba_marseille","lat":43.304188,"lon":5.412904,"is_reserved":false,"is_disabled":false,"rental_uris":{"android":"levelo://app?vid=4b010e16-0e32-4703-ac22-6e88fce8898b","ios":"levelo://app?vid=4b010e16-0e32-4703-ac22-6e88fce8898b"},"vehicle_type_id":"4","last_reported":1720382835,"current_range_meters":1200,"station_id":"ce4bhop2rcd13ifvqh8g","pricing_plan_id":"cebpf4jnsgd1na2vs0mg"},{"bike_id":"3affedca-1a9a-4482-859c-c8b9c3a91d34","system_id":"levelo_inurba_marseille","lat":43.30428,"lon":5.41331,"is_reserved":false,"is_disabled":false,"rental_uris":{"android":"levelo://app?vid=3affedca-1a9a-4482-859c-c8b9c3a91d34","ios":"levelo://app?vid=3affedca-1a9a-4482-859c-c8b9c3a91d34"},"vehicle_type_id":"4","last_reported":1720382835,"current_range_meters":2800,"station_id":"ce4bhop2rcd13ifvqh8g","pricing_plan_id":"cebpf4jnsgd1na2vs0mg"},{"bike_id":"390d20e2-afad-4677-a89c-9dea64937b79","system_id":"levelo_inurba_marseille","lat":43.279087,"lon":5.380114,"is_reserved":false,"is_disabled":false,"rental_uris":{"android":"levelo://app?vid=390d20e2-afad-4677-a89c-9dea64937b79","ios":"levelo://app?vid=390d20e2-afad-4677-a89c-9dea64937b79"},"vehicle_type_id":"4","last_reported":1720382835,"current_range_meters":6400,"station_id":"ce4bhf92rcd13ifvqf50","pricing_plan_id":"cebpf4jnsgd1na2vs0mg"},{"bike_id":"1f97b350-34b8-45e5-8137-a5e2a9993d37","system_id":"levelo_inurba_marseille","lat":43.27901,"lon":5.38,"is_reserved":false,"is_disabled":false,"rental_uris":{"android":"levelo://app?vid=1f97b350-34b8-45e5-8137-a5e2a9993d37","ios":"levelo://app?vid=1f97b350-34b8-45e5-8137-a5e2a9993d37"},"vehicle_type_id":"4","last_reported":1720382835,"current_range_meters":4800,"station_id":"ce4bhf92rcd13ifvqf50","pricing_plan_id":"cebpf4jnsgd1na2vs0mg"},{"bike_id":"65875d16-6718-4ba3-8be5-b135a7f38a79","system_id":"levelo_inurba_marseille","lat":43.287154,"lon":5.399979,"is_reserved":false,"is_disabled":false,"rental_uris":{"android":"levelo://app?vid=65875d16-6718-4ba3-8be5-b135a7f38a79","ios":"levelo://app?vid=65875d16-6718-4ba3-8be5-b135a7f38a79"},"vehicle_type_id":"4","last_reported":1720382835,"current_range_meters":27200,"station_id":"ce4bho92rcd13ifvqh3g","pricing_plan_id":"cebpf4jnsgd1na2vs0mg"},{"bike_id":"7a6ee590-816c-4c53-a090-2423a834231f","system_id":"levelo_inurba_marseille","lat":43.279057,"lon":5.382837,"is_reserved":false,"is_disabled":false,"rental_uris":{"android":"levelo://app?vid=7a6ee590-816c-4c53-a090-2423a834231f","ios":"levelo://app?vid=7a6ee590-816c-4c53-a090-2423a834231f"},"vehicle_type_id":"4","last_reported":1720382835,"current_range_meters":7600,"station_id":"","pricing_plan_id":"cebpf4jnsgd1na2vs0mg"},{"bike_id":"1e5ca607-345f-4340-ad12-5164cdb507af","system_id":"levelo_inurba_marseille","lat":43.27847,"lon":5.380585,"is_reserved":false,"is_disabled":false,"rental_uris":{"android":"levelo://app?vid=1e5ca607-345f-4340-ad12-5164cdb507af","ios":"levelo://app?vid=1e5ca607-345f-4340-ad12-5164cdb507af"},"vehicle_type_id":"4","last_reported":1720382835,"current_range_meters":12800,"station_id":"","pricing_plan_id":"cebpf4jnsgd1na2vs0mg"},{"bike_id":"835be171-4e68-4168-b42f-5d2f1843bef7","system_id":"levelo_inurba_marseille","lat":43.299577,"lon":5.413277,"is_reserved":false,"is_disabled":false,"rental_uris":{"android":"levelo://app?vid=835be171-4e68-4168-b42f-5d2f1843bef7","ios":"levelo://app?vid=835be171-4e68-4168-b42f-5d2f1843bef7"},"vehicle_type_id":"4","last_reported":1720382835,"current_range_meters":21600,"station_id":"ce4bhp12rcd13ifvqh9g","pricing_plan_id":"cebpf4jnsgd1na2vs0mg"},{"bike_id":"d3c4e713-e64b-4664-bc51-9872ef463576","system_id":"levelo_inurba_marseille","lat":43.27971,"lon":5.387475,"is_reserved":false,"is_disabled":false,"rental_uris":{"android":"levelo://app?vid=d3c4e713-e64b-4664-bc51-9872ef463576","ios":"levelo://app?vid=d3c4e713-e64b-4664-bc51-9872ef463576"},"vehicle_type_id":"4","last_reported":1720382835,"current_range_meters":3200,"station_id":"ce4bhg12rcd13ifvqf80","pricing_plan_id":"cebpf4jnsgd1na2vs0mg"},{"bike_id":"32f06b8c-92e9-4623-878e-efae1e079843","system_id":"levelo_inurba_marseille","lat":43.27968,"lon":5.38743,"is_reserved":false,"is_disabled":false,"rental_uris":{"android":"levelo://app?vid=32f06b8c-92e9-4623-878e-efae1e079843","ios":"levelo://app?vid=32f06b8c-92e9-4623-878e-efae1e079843"},"vehicle_type_id":"4","last_reported":1720382835,"current_range_meters":3200,"station_id":"ce4bhg12rcd13ifvqf80","pricing_plan_id":"cebpf4jnsgd1na2vs0mg"},{"bike_id":"c9317806-3a8b-422c-a6e7-b6157456fddb","system_id":"levelo_inurba_marseille","lat":43.27931,"lon":5.38679,"is_reserved":false,"is_disabled":false,"rental_uris":{"android":"levelo://app?vid=c9317806-3a8b-422c-a6e7-b6157456fddb","ios":"levelo://app?vid=c9317806-3a8b-422c-a6e7-b6157456fddb"},"vehicle_type_id":"4","last_reported":1720382835,"current_range_meters":3200,"station_id":"","pricing_plan_id":"cebpf4jnsgd1na2vs0mg"},{"bike_id":"cf9f2ea3-76ec-48f4-abeb-9785413b21de","system_id":"levelo_inurba_marseille","lat":43.292571,"lon":5.409107,"is_reserved":false,"is_disabled":false,"rental_uris":{"android":"levelo://app?vid=cf9f2ea3-76ec-48f4-abeb-9785413b21de","ios":"levelo://app?vid=cf9f2ea3-76ec-48f4-abeb-9785413b21de"},"vehicle_type_id":"4","last_reported":1720382835,"current_range_meters":26400,"station_id":"ce4bh192rcd13ifvqdc0","pricing_plan_id":"cebpf4jnsgd1na2vs0mg"},{"bike_id":"708a5900-6aa5-4f2f-bfd0-193240aceec6","system_id":"levelo_inurba_marseille","lat":43.292569,"lon":5.409107,"is_reserved":false,"is_disabled":false,"rental_uris":{"android":"levelo://app?vid=708a5900-6aa5-4f2f-bfd0-193240aceec6","ios":"levelo://app?vid=708a5900-6aa5-4f2f-bfd0-193240aceec6"},"vehicle_type_id":"4","last_reported":1720382835,"current_range_meters":21200,"station_id":"ce4bh192rcd13ifvqdc0","pricing_plan_id":"cebpf4jnsgd1na2vs0mg"},{"bike_id":"e28182f7-75d3-4119-94d6-7e1d2d0e127a","system_id":"levelo_inurba_marseille","lat":43.276179,"lon":5.361009,"is_reserved":false,"is_disabled":false,"rental_uris":{"android":"levelo://app?vid=e28182f7-75d3-4119-94d6-7e1d2d0e127a","ios":"levelo://app?vid=e28182f7-75d3-4119-94d6-7e1d2d0e127a"},"vehicle_type_id":"4","last_reported":1720382835,"current_range_meters":30000,"station_id":"ce4bgj92rcd13ifvqbe0","pricing_plan_id":"cebpf4jnsgd1na2vs0mg"},{"bike_id":"ea9c163f-6ede-48eb-8497-5d623b8c86be","system_id":"levelo_inurba_marseille","lat":43.28084,"lon":5.39664,"is_reserved":false,"is_disabled":false,"rental_uris":{"android":"levelo://app?vid=ea9c163f-6ede-48eb-8497-5d623b8c86be","ios":"levelo://app?vid=ea9c163f-6ede-48eb-8497-5d623b8c86be"},"vehicle_type_id":"4","last_reported":1720382835,"current_range_meters":23200,"station_id":"ce4bho12rcd13ifvqh2g","pricing_plan_id":"cebpf4jnsgd1na2vs0mg"},{"bike_id":"b1d5bfd8-d3f6-471d-924f-924a318cae88","system_id":"levelo_inurba_marseille","lat":43.27378,"lon":5.36255,"is_reserved":false,"is_disabled":false,"rental_uris":{"android":"levelo://app?vid=b1d5bfd8-d3f6-471d-924f-924a318cae88","ios":"levelo://app?vid=b1d5bfd8-d3f6-471d-924f-924a318cae88"},"vehicle_type_id":"4","last_reported":1720382835,"current_range_meters":29600,"station_id":"ce4bhbh2rcd13ifvqeo0","pricing_plan_id":"cebpf4jnsgd1na2vs0mg"},{"bike_id":"c048037a-cec3-4a27-88a5-3ed7fbb56e7c","system_id":"levelo_inurba_marseille","lat":43.27378,"lon":5.36254,"is_reserved":false,"is_disabled":false,"rental_uris":{"android":"levelo://app?vid=c048037a-cec3-4a27-88a5-3ed7fbb56e7c","ios":"levelo://app?vid=c048037a-cec3-4a27-88a5-3ed7fbb56e7c"},"vehicle_type_id":"4","last_reported":1720382835,"current_range_meters":23200,"station_id":"ce4bhbh2rcd13ifvqeo0","pricing_plan_id":"cebpf4jnsgd1na2vs0mg"},{"bike_id":"4e3c1ca5-22eb-476e-a5bb-65b05a06b3be","system_id":"levelo_inurba_marseille","lat":43.27378,"lon":5.36247,"is_reserved":false,"is_disabled":false,"rental_uris":{"android":"levelo://app?vid=4e3c1ca5-22eb-476e-a5bb-65b05a06b3be","ios":"levelo://app?vid=4e3c1ca5-22eb-476e-a5bb-65b05a06b3be"},"vehicle_type_id":"4","last_reported":1720382835,"current_range_meters":30800,"station_id":"ce4bhbh2rcd13ifvqeo0","pricing_plan_id":"cebpf4jnsgd1na2vs0mg"},{"bike_id":"5cefb57e-dec7-4ca5-b7ea-64a8faaf085c","system_id":"levelo_inurba_marseille","lat":43.27377,"lon":5.36252,"is_reserved":false,"is_disabled":false,"rental_uris":{"android":"levelo://app?vid=5cefb57e-dec7-4ca5-b7ea-64a8faaf085c","ios":"levelo://app?vid=5cefb57e-dec7-4ca5-b7ea-64a8faaf085c"},"vehicle_type_id":"4","last_reported":1720382835,"current_range_meters":27200,"station_id":"ce4bhbh2rcd13ifvqeo0","pricing_plan_id":"cebpf4jnsgd1na2vs0mg"},{"bike_id":"7769cfcc-97b1-4d2c-8a42-1ffa89a4d39a","system_id":"levelo_inurba_marseille","lat":43.273752,"lon":5.362591,"is_reserved":false,"is_disabled":false,"rental_uris":{"android":"levelo://app?vid=7769cfcc-97b1-4d2c-8a42-1ffa89a4d39a","ios":"levelo://app?vid=7769cfcc-97b1-4d2c-8a42-1ffa89a4d39a"},"vehicle_type_id":"4","last_reported":1720382835,"current_range_meters":10400,"station_id":"ce4bhbh2rcd13ifvqeo0","pricing_plan_id":"cebpf4jnsgd1na2vs0mg"},{"bike_id":"372b631c-ec56-4517-a81b-df5b2bb2bea3","system_id":"levelo_inurba_marseille","lat":43.27375,"lon":5.36253,"is_reserved":false,"is_disabled":false,"rental_uris":{"android":"levelo://app?vid=372b631c-ec56-4517-a81b-df5b2bb2bea3","ios":"levelo://app?vid=372b631c-ec56-4517-a81b-df5b2bb2bea3"},"vehicle_type_id":"4","last_reported":1720382835,"current_range_meters":25600,"station_id":"ce4bhbh2rcd13ifvqeo0","pricing_plan_id":"cebpf4jnsgd1na2vs0mg"},{"bike_id":"a42125eb-813c-4768-9d76-ff019c69487b","system_id":"levelo_inurba_marseille","lat":43.27374,"lon":5.36235,"is_reserved":false,"is_disabled":false,"rental_uris":{"android":"levelo://app?vid=a42125eb-813c-4768-9d76-ff019c69487b","ios":"levelo://app?vid=a42125eb-813c-4768-9d76-ff019c69487b"},"vehicle_type_id":"4","last_reported":1720382835,"current_range_meters":31200,"station_id":"ce4bhbh2rcd13ifvqeo0","pricing_plan_id":"cebpf4jnsgd1na2vs0mg"},{"bike_id":"c05369aa-a45f-4635-ad05-79ff617b4668","system_id":"levelo_inurba_marseille","lat":43.273609,"lon":5.362708,"is_reserved":false,"is_disabled":false,"rental_uris":{"android":"levelo://app?vid=c05369aa-a45f-4635-ad05-79ff617b4668","ios":"levelo://app?vid=c05369aa-a45f-4635-ad05-79ff617b4668"},"vehicle_type_id":"4","last_reported":1720382835,"current_range_meters":2400,"station_id":"ce4bhbh2rcd13ifvqeo0","pricing_plan_id":"cebpf4jnsgd1na2vs0mg"},{"bike_id":"ff673b66-6d06-4bad-aff8-3fed648c5b68","system_id":"levelo_inurba_marseille","lat":43.27564,"lon":5.384175,"is_reserved":false,"is_disabled":false,"rental_uris":{"android":"levelo://app?vid=ff673b66-6d06-4bad-aff8-3fed648c5b68","ios":"levelo://app?vid=ff673b66-6d06-4bad-aff8-3fed648c5b68"},"vehicle_type_id":"4","last_reported":1720382835,"current_range_meters":0,"station_id":"ce4bhh92rcd13ifvqfi0","pricing_plan_id":"cebpf4jnsgd1na2vs0mg"},{"bike_id":"5fc41c2a-6444-49c0-86b6-535662aa99e5","system_id":"levelo_inurba_marseille","lat":43.275604,"lon":5.384139,"is_reserved":false,"is_disabled":false,"rental_uris":{"android":"levelo://app?vid=5fc41c2a-6444-49c0-86b6-535662aa99e5","ios":"levelo://app?vid=5fc41c2a-6444-49c0-86b6-535662aa99e5"},"vehicle_type_id":"4","last_reported":1720382835,"current_range_meters":0,"station_id":"ce4bhh92rcd13ifvqfi0","pricing_plan_id":"cebpf4jnsgd1na2vs0mg"},{"bike_id":"88f78590-e5c9-4196-a1a3-cef7f14a3b36","system_id":"levelo_inurba_marseille","lat":43.336134,"lon":5.410341,"is_reserved":false,"is_disabled":false,"rental_uris":{"android":"levelo://app?vid=88f78590-e5c9-4196-a1a3-cef7f14a3b36","ios":"levelo://app?vid=88f78590-e5c9-4196-a1a3-cef7f14a3b36"},"vehicle_type_id":"4","last_reported":1720382835,"current_range_meters":4400,"station_id":"ce4bhqh2rcd13ifvqhmg","pricing_plan_id":"cebpf4jnsgd1na2vs0mg"},{"bike_id":"436d8961-db17-4720-aefd-ac583fc28e2e","system_id":"levelo_inurba_marseille","lat":43.336148,"lon":5.410349,"is_reserved":false,"is_disabled":false,"rental_uris":{"android":"levelo://app?vid=436d8961-db17-4720-aefd-ac583fc28e2e","ios":"levelo://app?vid=436d8961-db17-4720-aefd-ac583fc28e2e"},"vehicle_type_id":"4","last_reported":1720382835,"current_range_meters":4400,"station_id":"ce4bhqh2rcd13ifvqhmg","pricing_plan_id":"cebpf4jnsgd1na2vs0mg"},{"bike_id":"2a677d32-0954-4af2-815d-a67c34f7f1d5","system_id":"levelo_inurba_marseille","lat":43.278128,"lon":5.407195,"is_reserved":false,"is_disabled":false,"rental_uris":{"android":"levelo://app?vid=2a677d32-0954-4af2-815d-a67c34f7f1d5","ios":"levelo://app?vid=2a677d32-0954-4af2-815d-a67c34f7f1d5"},"vehicle_type_id":"4","last_reported":1720382835,"current_range_meters":0,"station_id":"ce4bhnh2rcd13ifvqgtg","pricing_plan_id":"cebpf4jnsgd1na2vs0mg"},{"bike_id":"30906462-a49a-48f9-a1fa-ea5db49433d5","system_id":"levelo_inurba_marseille","lat":43.279185,"lon":5.395692,"is_reserved":false,"is_disabled":false,"rental_uris":{"android":"levelo://app?vid=30906462-a49a-48f9-a1fa-ea5db49433d5","ios":"levelo://app?vid=30906462-a49a-48f9-a1fa-ea5db49433d5"},"vehicle_type_id":"4","last_reported":1720382835,"current_range_meters":0,"station_id":"ce4bhf92rcd13ifvqf40","pricing_plan_id":"cebpf4jnsgd1na2vs0mg"},{"bike_id":"6794011d-688c-4c1c-a763-585ac4552f19","system_id":"levelo_inurba_marseille","lat":43.35235,"lon":5.366965,"is_reserved":false,"is_disabled":false,"rental_uris":{"android":"levelo://app?vid=6794011d-688c-4c1c-a763-585ac4552f19","ios":"levelo://app?vid=6794011d-688c-4c1c-a763-585ac4552f19"},"vehicle_type_id":"4","last_reported":1720382835,"current_range_meters":17200,"station_id":"","pricing_plan_id":"cebpf4jnsgd1na2vs0mg"},{"bike_id":"97ab271c-9f97-4b8f-b126-e4ac9a9bbcde","system_id":"levelo_inurba_marseille","lat":43.279185,"lon":5.395692,"is_reserved":false,"is_disabled":false,"rental_uris":{"android":"levelo://app?vid=97ab271c-9f97-4b8f-b126-e4ac9a9bbcde","ios":"levelo://app?vid=97ab271c-9f97-4b8f-b126-e4ac9a9bbcde"},"vehicle_type_id":"4","last_reported":1720382835,"current_range_meters":0,"station_id":"ce4bhf92rcd13ifvqf40","pricing_plan_id":"cebpf4jnsgd1na2vs0mg"},{"bike_id":"c1e37d18-0ffc-43f8-b565-3f3baecbf511","system_id":"levelo_inurba_marseille","lat":43.279975,"lon":5.40009,"is_reserved":false,"is_disabled":false,"rental_uris":{"android":"levelo://app?vid=c1e37d18-0ffc-43f8-b565-3f3baecbf511","ios":"levelo://app?vid=c1e37d18-0ffc-43f8-b565-3f3baecbf511"},"vehicle_type_id":"4","last_reported":1720382835,"current_range_meters":0,"station_id":"ce4bho92rcd13ifvqh4g","pricing_plan_id":"cebpf4jnsgd1na2vs0mg"},{"bike_id":"50af3ece-858f-4ed5-942b-6c4ee00fba1b","system_id":"levelo_inurba_marseille","lat":43.275058,"lon":5.38943,"is_reserved":false,"is_disabled":false,"rental_uris":{"android":"levelo://app?vid=50af3ece-858f-4ed5-942b-6c4ee00fba1b","ios":"levelo://app?vid=50af3ece-858f-4ed5-942b-6c4ee00fba1b"},"vehicle_type_id":"4","last_reported":1720382835,"current_range_meters":0,"station_id":"","pricing_plan_id":"cebpf4jnsgd1na2vs0mg"},{"bike_id":"a1c77f5e-f042-4d4b-b349-02e8505a8a1b","system_id":"levelo_inurba_marseille","lat":43.298469,"lon":5.420676,"is_reserved":false,"is_disabled":false,"rental_uris":{"android":"levelo://app?vid=a1c77f5e-f042-4d4b-b349-02e8505a8a1b","ios":"levelo://app?vid=a1c77f5e-f042-4d4b-b349-02e8505a8a1b"},"vehicle_type_id":"4","last_reported":1720382835,"current_range_meters":0,"station_id":"","pricing_plan_id":"cebpf4jnsgd1na2vs0mg"},{"bike_id":"3d748c0e-d69d-49d7-b4d6-b6526862b381","system_id":"levelo_inurba_marseille","lat":43.310785,"lon":5.424305,"is_reserved":false,"is_disabled":false,"rental_uris":{"android":"levelo://app?vid=3d748c0e-d69d-49d7-b4d6-b6526862b381","ios":"levelo://app?vid=3d748c0e-d69d-49d7-b4d6-b6526862b381"},"vehicle_type_id":"4","last_reported":1720382835,"current_range_meters":22400,"station_id":"ce4bhp92rcd13ifvqhag","pricing_plan_id":"cebpf4jnsgd1na2vs0mg"},{"bike_id":"62db7c11-383d-4a54-9b01-9ef2675a2860","system_id":"levelo_inurba_marseille","lat":43.29853,"lon":5.42102,"is_reserved":false,"is_disabled":false,"rental_uris":{"android":"levelo://app?vid=62db7c11-383d-4a54-9b01-9ef2675a2860","ios":"levelo://app?vid=62db7c11-383d-4a54-9b01-9ef2675a2860"},"vehicle_type_id":"4","last_reported":1720382835,"current_range_meters":7200,"station_id":"","pricing_plan_id":"cebpf4jnsgd1na2vs0mg"},{"bike_id":"428fd064-c878-432a-b114-7fcd35ba5785","system_id":"levelo_inurba_marseille","lat":43.274099,"lon":5.394019,"is_reserved":false,"is_disabled":false,"rental_uris":{"android":"levelo://app?vid=428fd064-c878-432a-b114-7fcd35ba5785","ios":"levelo://app?vid=428fd064-c878-432a-b114-7fcd35ba5785"},"vehicle_type_id":"4","last_reported":1720382835,"current_range_meters":28000,"station_id":"ce4bhdp2rcd13ifvqf20","pricing_plan_id":"cebpf4jnsgd1na2vs0mg"},{"bike_id":"944afc63-187a-4c87-8c56-7deb87e275d4","system_id":"levelo_inurba_marseille","lat":43.29555,"lon":5.42289,"is_reserved":false,"is_disabled":false,"rental_uris":{"android":"levelo://app?vid=944afc63-187a-4c87-8c56-7deb87e275d4","ios":"levelo://app?vid=944afc63-187a-4c87-8c56-7deb87e275d4"},"vehicle_type_id":"4","last_reported":1720382835,"current_range_meters":3200,"station_id":"ce4bhph2rcd13ifvqhdg","pricing_plan_id":"cebpf4jnsgd1na2vs0mg"},{"bike_id":"749b98ea-45f8-4dc1-ba9c-748bbfbba56a","system_id":"levelo_inurba_marseille","lat":43.295523,"lon":5.422926,"is_reserved":false,"is_disabled":false,"rental_uris":{"android":"levelo://app?vid=749b98ea-45f8-4dc1-ba9c-748bbfbba56a","ios":"levelo://app?vid=749b98ea-45f8-4dc1-ba9c-748bbfbba56a"},"vehicle_type_id":"4","last_reported":1720382835,"current_range_meters":8400,"station_id":"ce4bhph2rcd13ifvqhdg","pricing_plan_id":"cebpf4jnsgd1na2vs0mg"},{"bike_id":"bf0295a9-a15f-410a-92dc-776185a7717c","system_id":"levelo_inurba_marseille","lat":43.278128,"lon":5.407195,"is_reserved":false,"is_disabled":false,"rental_uris":{"android":"levelo://app?vid=bf0295a9-a15f-410a-92dc-776185a7717c","ios":"levelo://app?vid=bf0295a9-a15f-410a-92dc-776185a7717c"},"vehicle_type_id":"4","last_reported":1720382835,"current_range_meters":24800,"station_id":"ce4bhnh2rcd13ifvqgtg","pricing_plan_id":"cebpf4jnsgd1na2vs0mg"},{"bike_id":"7ce31ca0-8149-4aa1-b23d-7a690d3c5557","system_id":"levelo_inurba_marseille","lat":43.278128,"lon":5.407195,"is_reserved":false,"is_disabled":false,"rental_uris":{"android":"levelo://app?vid=7ce31ca0-8149-4aa1-b23d-7a690d3c5557","ios":"levelo://app?vid=7ce31ca0-8149-4aa1-b23d-7a690d3c5557"},"vehicle_type_id":"4","last_reported":1720382835,"current_range_meters":12800,"station_id":"ce4bhnh2rcd13ifvqgtg","pricing_plan_id":"cebpf4jnsgd1na2vs0mg"},{"bike_id":"35bab625-52b0-42ee-a597-e9eca46091a4","system_id":"levelo_inurba_marseille","lat":43.27814,"lon":5.40711,"is_reserved":false,"is_disabled":false,"rental_uris":{"android":"levelo://app?vid=35bab625-52b0-42ee-a597-e9eca46091a4","ios":"levelo://app?vid=35bab625-52b0-42ee-a597-e9eca46091a4"},"vehicle_type_id":"4","last_reported":1720382835,"current_range_meters":0,"station_id":"ce4bhnh2rcd13ifvqgtg","pricing_plan_id":"cebpf4jnsgd1na2vs0mg"},{"bike_id":"b88cf354-82fa-49d3-829a-6e9963931640","system_id":"levelo_inurba_marseille","lat":43.278128,"lon":5.407195,"is_reserved":false,"is_disabled":false,"rental_uris":{"android":"levelo://app?vid=b88cf354-82fa-49d3-829a-6e9963931640","ios":"levelo://app?vid=b88cf354-82fa-49d3-829a-6e9963931640"},"vehicle_type_id":"4","last_reported":1720382835,"current_range_meters":26800,"station_id":"ce4bhnh2rcd13ifvqgtg","pricing_plan_id":"cebpf4jnsgd1na2vs0mg"},{"bike_id":"2d7f4117-c87a-43b9-b021-8c83d52f38c1","system_id":"levelo_inurba_marseille","lat":43.278128,"lon":5.407195,"is_reserved":false,"is_disabled":false,"rental_uris":{"android":"levelo://app?vid=2d7f4117-c87a-43b9-b021-8c83d52f38c1","ios":"levelo://app?vid=2d7f4117-c87a-43b9-b021-8c83d52f38c1"},"vehicle_type_id":"4","last_reported":1720382835,"current_range_meters":25600,"station_id":"ce4bhnh2rcd13ifvqgtg","pricing_plan_id":"cebpf4jnsgd1na2vs0mg"},{"bike_id":"542d6fc2-9298-4c57-8c0c-296d3e8fb25c","system_id":"levelo_inurba_marseille","lat":43.27939,"lon":5.41034,"is_reserved":false,"is_disabled":false,"rental_uris":{"android":"levelo://app?vid=542d6fc2-9298-4c57-8c0c-296d3e8fb25c","ios":"levelo://app?vid=542d6fc2-9298-4c57-8c0c-296d3e8fb25c"},"vehicle_type_id":"4","last_reported":1720382835,"current_range_meters":0,"station_id":"ce4bhnp2rcd13ifvqh0g","pricing_plan_id":"cebpf4jnsgd1na2vs0mg"},{"bike_id":"8346516b-3c50-4176-af32-b85f04cd4079","system_id":"levelo_inurba_marseille","lat":43.27941,"lon":5.41043,"is_reserved":false,"is_disabled":false,"rental_uris":{"android":"levelo://app?vid=8346516b-3c50-4176-af32-b85f04cd4079","ios":"levelo://app?vid=8346516b-3c50-4176-af32-b85f04cd4079"},"vehicle_type_id":"4","last_reported":1720382835,"current_range_meters":2800,"station_id":"ce4bhnp2rcd13ifvqh0g","pricing_plan_id":"cebpf4jnsgd1na2vs0mg"},{"bike_id":"1113ad85-f959-4ba7-8f44-ce32f04fa370","system_id":"levelo_inurba_marseille","lat":43.35393,"lon":5.33631,"is_reserved":false,"is_disabled":false,"rental_uris":{"android":"levelo://app?vid=1113ad85-f959-4ba7-8f44-ce32f04fa370","ios":"levelo://app?vid=1113ad85-f959-4ba7-8f44-ce32f04fa370"},"vehicle_type_id":"4","last_reported":1720382835,"current_range_meters":6800,"station_id":"","pricing_plan_id":"cebpf4jnsgd1na2vs0mg"},{"bike_id":"456f46dd-c95a-4c37-ad25-d81c10b0c3df","system_id":"levelo_inurba_marseille","lat":43.289724,"lon":5.425449,"is_reserved":false,"is_disabled":false,"rental_uris":{"android":"levelo://app?vid=456f46dd-c95a-4c37-ad25-d81c10b0c3df","ios":"levelo://app?vid=456f46dd-c95a-4c37-ad25-d81c10b0c3df"},"vehicle_type_id":"4","last_reported":1720382835,"current_range_meters":6400,"station_id":"","pricing_plan_id":"cebpf4jnsgd1na2vs0mg"},{"bike_id":"8444270b-0d6c-4388-9d90-c481ce6b5321","system_id":"levelo_inurba_marseille","lat":43.28853,"lon":5.42489,"is_reserved":false,"is_disabled":false,"rental_uris":{"android":"levelo://app?vid=8444270b-0d6c-4388-9d90-c481ce6b5321","ios":"levelo://app?vid=8444270b-0d6c-4388-9d90-c481ce6b5321"},"vehicle_type_id":"4","last_reported":1720382835,"current_range_meters":5600,"station_id":"","pricing_plan_id":"cebpf4jnsgd1na2vs0mg"},{"bike_id":"aeeb9bbb-83b6-4d5a-937d-d857200aaf23","system_id":"levelo_inurba_marseille","lat":43.27994,"lon":5.41663,"is_reserved":false,"is_disabled":false,"rental_uris":{"android":"levelo://app?vid=aeeb9bbb-83b6-4d5a-937d-d857200aaf23","ios":"levelo://app?vid=aeeb9bbb-83b6-4d5a-937d-d857200aaf23"},"vehicle_type_id":"4","last_reported":1720382835,"current_range_meters":0,"station_id":"ce4bho12rcd13ifvqh1g","pricing_plan_id":"cebpf4jnsgd1na2vs0mg"},{"bike_id":"d384b043-c20f-4284-9afd-49328dc2b0bd","system_id":"levelo_inurba_marseille","lat":43.27996,"lon":5.416624,"is_reserved":false,"is_disabled":false,"rental_uris":{"android":"levelo://app?vid=d384b043-c20f-4284-9afd-49328dc2b0bd","ios":"levelo://app?vid=d384b043-c20f-4284-9afd-49328dc2b0bd"},"vehicle_type_id":"4","last_reported":1720382835,"current_range_meters":2400,"station_id":"ce4bho12rcd13ifvqh1g","pricing_plan_id":"cebpf4jnsgd1na2vs0mg"},{"bike_id":"ecaeef95-b5f1-43c1-aa1a-1fb43b676050","system_id":"levelo_inurba_marseille","lat":43.308041,"lon":5.434483,"is_reserved":false,"is_disabled":false,"rental_uris":{"android":"levelo://app?vid=ecaeef95-b5f1-43c1-aa1a-1fb43b676050","ios":"levelo://app?vid=ecaeef95-b5f1-43c1-aa1a-1fb43b676050"},"vehicle_type_id":"4","last_reported":1720382835,"current_range_meters":27200,"station_id":"","pricing_plan_id":"cebpf4jnsgd1na2vs0mg"},{"bike_id":"014747a9-6651-4f69-aa12-d40ca5af42a2","system_id":"levelo_inurba_marseille","lat":43.3342,"lon":5.42882,"is_reserved":false,"is_disabled":false,"rental_uris":{"android":"levelo://app?vid=014747a9-6651-4f69-aa12-d40ca5af42a2","ios":"levelo://app?vid=014747a9-6651-4f69-aa12-d40ca5af42a2"},"vehicle_type_id":"4","last_reported":1720382835,"current_range_meters":2000,"station_id":"","pricing_plan_id":"cebpf4jnsgd1na2vs0mg"},{"bike_id":"fcdd431f-9912-4b24-8ee7-fc83e56d6441","system_id":"levelo_inurba_marseille","lat":43.265571,"lon":5.390032,"is_reserved":false,"is_disabled":false,"rental_uris":{"android":"levelo://app?vid=fcdd431f-9912-4b24-8ee7-fc83e56d6441","ios":"levelo://app?vid=fcdd431f-9912-4b24-8ee7-fc83e56d6441"},"vehicle_type_id":"4","last_reported":1720382835,"current_range_meters":10400,"station_id":"ce4bhe12rcd13ifvqf30","pricing_plan_id":"cebpf4jnsgd1na2vs0mg"},{"bike_id":"9fbdedc4-5e11-41df-8169-b9edc1f4730d","system_id":"levelo_inurba_marseille","lat":43.26941,"lon":5.40246,"is_reserved":false,"is_disabled":false,"rental_uris":{"android":"levelo://app?vid=9fbdedc4-5e11-41df-8169-b9edc1f4730d","ios":"levelo://app?vid=9fbdedc4-5e11-41df-8169-b9edc1f4730d"},"vehicle_type_id":"4","last_reported":1720382835,"current_range_meters":0,"station_id":"cjm6bp8fraef2m0cb0m0","pricing_plan_id":"cebpf4jnsgd1na2vs0mg"},{"bike_id":"d0468274-f823-409d-b811-64c9cf0ebe52","system_id":"levelo_inurba_marseille","lat":43.26203,"lon":5.370517,"is_reserved":false,"is_disabled":false,"rental_uris":{"android":"levelo://app?vid=d0468274-f823-409d-b811-64c9cf0ebe52","ios":"levelo://app?vid=d0468274-f823-409d-b811-64c9cf0ebe52"},"vehicle_type_id":"4","last_reported":1720382835,"current_range_meters":4800,"station_id":"","pricing_plan_id":"cebpf4jnsgd1na2vs0mg"},{"bike_id":"2bf71cf9-1396-418d-a894-682c62c7c786","system_id":"levelo_inurba_marseille","lat":43.26208,"lon":5.37445,"is_reserved":false,"is_disabled":false,"rental_uris":{"android":"levelo://app?vid=2bf71cf9-1396-418d-a894-682c62c7c786","ios":"levelo://app?vid=2bf71cf9-1396-418d-a894-682c62c7c786"},"vehicle_type_id":"4","last_reported":1720382835,"current_range_meters":31600,"station_id":"ce4bhgp2rcd13ifvqfc0","pricing_plan_id":"cebpf4jnsgd1na2vs0mg"},{"bike_id":"ac60b4ad-fc52-4d1c-8016-b4e08459958d","system_id":"levelo_inurba_marseille","lat":43.26205,"lon":5.37442,"is_reserved":false,"is_disabled":false,"rental_uris":{"android":"levelo://app?vid=ac60b4ad-fc52-4d1c-8016-b4e08459958d","ios":"levelo://app?vid=ac60b4ad-fc52-4d1c-8016-b4e08459958d"},"vehicle_type_id":"4","last_reported":1720382835,"current_range_meters":0,"station_id":"ce4bhgp2rcd13ifvqfc0","pricing_plan_id":"cebpf4jnsgd1na2vs0mg"},{"bike_id":"75467970-8066-473d-955f-f04d2964a97e","system_id":"levelo_inurba_marseille","lat":43.261977,"lon":5.37453,"is_reserved":false,"is_disabled":false,"rental_uris":{"android":"levelo://app?vid=75467970-8066-473d-955f-f04d2964a97e","ios":"levelo://app?vid=75467970-8066-473d-955f-f04d2964a97e"},"vehicle_type_id":"4","last_reported":1720382835,"current_range_meters":0,"station_id":"ce4bhgp2rcd13ifvqfc0","pricing_plan_id":"cebpf4jnsgd1na2vs0mg"},{"bike_id":"88dfeb40-0fe2-4f0a-9d7e-b1560ba088d6","system_id":"levelo_inurba_marseille","lat":43.261782,"lon":5.374515,"is_reserved":false,"is_disabled":false,"rental_uris":{"android":"levelo://app?vid=88dfeb40-0fe2-4f0a-9d7e-b1560ba088d6","ios":"levelo://app?vid=88dfeb40-0fe2-4f0a-9d7e-b1560ba088d6"},"vehicle_type_id":"4","last_reported":1720382835,"current_range_meters":0,"station_id":"ce4bhgp2rcd13ifvqfc0","pricing_plan_id":"cebpf4jnsgd1na2vs0mg"},{"bike_id":"8e9a333f-83b3-4cba-aae2-3d5cc66fae54","system_id":"levelo_inurba_marseille","lat":43.262012,"lon":5.379307,"is_reserved":false,"is_disabled":false,"rental_uris":{"android":"levelo://app?vid=8e9a333f-83b3-4cba-aae2-3d5cc66fae54","ios":"levelo://app?vid=8e9a333f-83b3-4cba-aae2-3d5cc66fae54"},"vehicle_type_id":"4","last_reported":1720382835,"current_range_meters":7600,"station_id":"ce4bhjp2rcd13ifvqg90","pricing_plan_id":"cebpf4jnsgd1na2vs0mg"},{"bike_id":"148fa9f9-bc9e-471d-99b7-f96095cf953b","system_id":"levelo_inurba_marseille","lat":43.271388,"lon":5.409269,"is_reserved":false,"is_disabled":false,"rental_uris":{"android":"levelo://app?vid=148fa9f9-bc9e-471d-99b7-f96095cf953b","ios":"levelo://app?vid=148fa9f9-bc9e-471d-99b7-f96095cf953b"},