{"last_updated":1721927248,"ttl":30,"version":"2.2","data":{"bikes":[{"bike_id":"225f7201-c00a-48d8-8e66-9c61792f14c1","system_id":"levelo_inurba_marseille","lat":43.31243,"lon":5.36825,"is_reserved":false,"is_disabled":false,"rental_uris":{"android":"levelo://app?vid=225f7201-c00a-48d8-8e66-9c61792f14c1","ios":"levelo://app?vid=225f7201-c00a-48d8-8e66-9c61792f14c1"},"vehicle_type_id":"4","last_reported":1721927248,"current_range_meters":18000,"station_id":"ce4bgl92rcd13ifvqbq0","pricing_plan_id":"cebpf4jnsgd1na2vs0mg"},{"bike_id":"df87f099-de53-497b-a0a7-bef992c0edf3","system_id":"levelo_inurba_marseille","lat":43.312239,"lon":5.368562,"is_reserved":false,"is_disabled":false,"rental_uris":{"android":"levelo://app?vid=df87f099-de53-497b-a0a7-bef992c0edf3","ios":"levelo://app?vid=df87f099-de53-497b-a0a7-bef992c0edf3"},"vehicle_type_id":"4","last_reported":1721927248,"current_range_meters":8400,"station_id":"ce4bgl92rcd13ifvqbq0","pricing_plan_id":"cebpf4jnsgd1na2vs0mg"},{"bike_id":"f4c6b7bc-9411-4437-b34a-2d9b67a25a91","system_id":"levelo_inurba_marseille","lat":43.31492,"lon":5.37305,"is_reserved":false,"is_disabled":false,"rental_uris":{"android":"levelo://app?vid=f4c6b7bc-9411-4437-b34a-2d9b67a25a91","ios":"levelo://app?vid=f4c6b7bc-9411-4437-b34a-2d9b67a25a91"},"vehicle_type_id":"4","last_reported":1721927248,"current_range_meters":0,"station_id":"ce4bgt12rcd13ifvqcd0","pricing_plan_id":"cebpf4jnsgd1na2vs0mg"},{"bike_id":"4d1ea58d-ac3d-4abd-84b3-b530b8df9b74","system_id":"levelo_inurba_marseille","lat":43.305714,"lon":5.365633,"is_reserved":false,"is_disabled":false,"rental_uris":{"android":"levelo://app?vid=4d1ea58d-ac3d-4abd-84b3-b530b8df9b74","ios":"levelo://app?vid=4d1ea58d-ac3d-4abd-84b3-b530b8df9b74"},"vehicle_type_id":"4","last_reported":1721927248,"current_range_meters":2400,"station_id":"ce4bgs12rcd13ifvqcag","pricing_plan_id":"cebpf4jnsgd1na2vs0mg"},{"bike_id":"717d0939-64ca-4bf7-b7fc-6c45b321eeab","system_id":"levelo_inurba_marseille","lat":43.305714,"lon":5.365633,"is_reserved":false,"is_disabled":false,"rental_uris":{"android":"levelo://app?vid=717d0939-64ca-4bf7-b7fc-6c45b321eeab","ios":"levelo://app?vid=717d0939-64ca-4bf7-b7fc-6c45b321eeab"},"vehicle_type_id":"4","last_reported":1721927248,"current_range_meters":0,"station_id":"ce4bgs12rcd13ifvqcag","pricing_plan_id":"cebpf4jnsgd1na2vs0mg"},{"bike_id":"97ce7780-010a-4c71-aaa9-9a7c42a3704f","system_id":"levelo_inurba_marseille","lat":43.305989,"lon":5.37225,"is_reserved":false,"is_disabled":false,"rental_uris":{"android":"levelo://app?vid=97ce7780-010a-4c71-aaa9-9a7c42a3704f","ios":"levelo://app?vid=97ce7780-010a-4c71-aaa9-9a7c42a3704f"},"vehicle_type_id":"4","last_reported":1721927248,"current_range_meters":0,"station_id":"ce4bgqh2rcd13ifvqc4g","pricing_plan_id":"cebpf4jnsgd1na2vs0mg"},{"bike_id":"a7324f0e-b1dc-4e0e-b823-f42d3d773289","system_id":"levelo_inurba_marseille","lat":43.311125,"lon":5.377624,"is_reserved":false,"is_disabled":false,"rental_uris":{"android":"levelo://app?vid=a7324f0e-b1dc-4e0e-b823-f42d3d773289","ios":"levelo://app?vid=a7324f0e-b1dc-4e0e-b823-f42d3d773289"},"vehicle_type_id":"4","last_reported":1721927248,"current_range_meters":0,"station_id":"ce4bgt92rcd13ifvqcg0","pricing_plan_id":"cebpf4jnsgd1na2vs0mg"},{"bike_id":"679c4fb3-9363-4157-8f52-33ca86a44812","system_id":"levelo_inurba_marseille","lat":43.30842,"lon":5.37706,"is_reserved":false,"is_disabled":false,"rental_uris":{"android":"levelo://app?vid=679c4fb3-9363-4157-8f52-33ca86a44812","ios":"levelo://app?vid=679c4fb3-9363-4157-8f52-33ca86a44812"},"vehicle_type_id":"4","last_reported":1721927248,"current_range_meters":18400,"station_id":"","pricing_plan_id":"cebpf4jnsgd1na2vs0mg"},{"bike_id":"3e123668-5713-4d31-a93b-28ccd51f75f0","system_id":"levelo_inurba_marseille","lat":43.315289,"lon":5.380349,"is_reserved":false,"is_disabled":false,"rental_uris":{"android":"levelo://app?vid=3e123668-5713-4d31-a93b-28ccd51f75f0","ios":"levelo://app?vid=3e123668-5713-4d31-a93b-28ccd51f75f0"},"vehicle_type_id":"4","last_reported":1721927248,"current_range_meters":22400,"station_id":"ce4bhsp2rcd13ifvqi50","pricing_plan_id":"cebpf4jnsgd1na2vs0mg"},{"bike_id":"a20da283-90ec-4043-b9c5-ad2495debdf0","system_id":"levelo_inurba_marseille","lat":43.308012,"lon":5.381511,"is_reserved":false,"is_disabled":false,"rental_uris":{"android":"levelo://app?vid=a20da283-90ec-4043-b9c5-ad2495debdf0","ios":"levelo://app?vid=a20da283-90ec-4043-b9c5-ad2495debdf0"},"vehicle_type_id":"4","last_reported":1721927248,"current_range_meters":17200,"station_id":"ce4bgt12rcd13ifvqce0","pricing_plan_id":"cebpf4jnsgd1na2vs0mg"},{"bike_id":"ad035ae8-f006-4f59-bf66-ab29ce648f07","system_id":"levelo_inurba_marseille","lat":43.308012,"lon":5.381511,"is_reserved":false,"is_disabled":false,"rental_uris":{"android":"levelo://app?vid=ad035ae8-f006-4f59-bf66-ab29ce648f07","ios":"levelo://app?vid=ad035ae8-f006-4f59-bf66-ab29ce648f07"},"vehicle_type_id":"4","last_reported":1721927248,"current_range_meters":23600,"station_id":"ce4bgt12rcd13ifvqce0","pricing_plan_id":"cebpf4jnsgd1na2vs0mg"},{"bike_id":"5f70286a-3b90-4b9b-a286-cccc2c9a4eea","system_id":"levelo_inurba_marseille","lat":43.308012,"lon":5.381511,"is_reserved":false,"is_disabled":false,"rental_uris":{"android":"levelo://app?vid=5f70286a-3b90-4b9b-a286-cccc2c9a4eea","ios":"levelo://app?vid=5f70286a-3b90-4b9b-a286-cccc2c9a4eea"},"vehicle_type_id":"4","last_reported":1721927248,"current_range_meters":16000,"station_id":"ce4bgt12rcd13ifvqce0","pricing_plan_id":"cebpf4jnsgd1na2vs0mg"},{"bike_id":"e9eab1c5-45d6-4722-93de-f7c076f55abe","system_id":"levelo_inurba_marseille","lat":43.308012,"lon":5.381511,"is_reserved":false,"is_disabled":false,"rental_uris":{"android":"levelo://app?vid=e9eab1c5-45d6-4722-93de-f7c076f55abe","ios":"levelo://app?vid=e9eab1c5-45d6-4722-93de-f7c076f55abe"},"vehicle_type_id":"4","last_reported":1721927248,"current_range_meters":6400,"station_id":"ce4bgt12rcd13ifvqce0","pricing_plan_id":"cebpf4jnsgd1na2vs0mg"},{"bike_id":"ab450c1d-d0f5-48dd-9e61-ea40d9a3a594","system_id":"levelo_inurba_marseille","lat":43.308012,"lon":5.381511,"is_reserved":false,"is_disabled":false,"rental_uris":{"android":"levelo://app?vid=ab450c1d-d0f5-48dd-9e61-ea40d9a3a594","ios":"levelo://app?vid=ab450c1d-d0f5-48dd-9e61-ea40d9a3a594"},"vehicle_type_id":"4","last_reported":1721927248,"current_range_meters":0,"station_id":"ce4bgt12rcd13ifvqce0","pricing_plan_id":"cebpf4jnsgd1na2vs0mg"},{"bike_id":"49e26e04-0699-4053-bf1a-c3d3d3eb6987","system_id":"levelo_inurba_marseille","lat":43.304606,"lon":5.379026,"is_reserved":false,"is_disabled":false,"rental_uris":{"android":"levelo://app?vid=49e26e04-0699-4053-bf1a-c3d3d3eb6987","ios":"levelo://app?vid=49e26e04-0699-4053-bf1a-c3d3d3eb6987"},"vehicle_type_id":"4","last_reported":1721927248,"current_range_meters":0,"station_id":"ce4bgup2rcd13ifvqcn0","pricing_plan_id":"cebpf4jnsgd1na2vs0mg"},{"bike_id":"d9bf9cb9-7c94-459b-b2d7-b0fa732120f5","system_id":"levelo_inurba_marseille","lat":43.304606,"lon":5.379026,"is_reserved":false,"is_disabled":false,"rental_uris":{"android":"levelo://app?vid=d9bf9cb9-7c94-459b-b2d7-b0fa732120f5","ios":"levelo://app?vid=d9bf9cb9-7c94-459b-b2d7-b0fa732120f5"},"vehicle_type_id":"4","last_reported":1721927248,"current_range_meters":3200,"station_id":"ce4bgup2rcd13ifvqcn0","pricing_plan_id":"cebpf4jnsgd1na2vs0mg"},{"bike_id":"c55fecc3-dbcb-4707-a911-7ee931ee2558","system_id":"levelo_inurba_marseille","lat":43.30464,"lon":5.37901,"is_reserved":false,"is_disabled":false,"rental_uris":{"android":"levelo://app?vid=c55fecc3-dbcb-4707-a911-7ee931ee2558","ios":"levelo://app?vid=c55fecc3-dbcb-4707-a911-7ee931ee2558"},"vehicle_type_id":"4","last_reported":1721927248,"current_range_meters":31600,"station_id":"ce4bgup2rcd13ifvqcn0","pricing_plan_id":"cebpf4jnsgd1na2vs0mg"},{"bike_id":"89dd80d1-764e-42c5-8e80-f01ebe1ad63f","system_id":"levelo_inurba_marseille","lat":43.304606,"lon":5.379026,"is_reserved":false,"is_disabled":false,"rental_uris":{"android":"levelo://app?vid=89dd80d1-764e-42c5-8e80-f01ebe1ad63f","ios":"levelo://app?vid=89dd80d1-764e-42c5-8e80-f01ebe1ad63f"},"vehicle_type_id":"4","last_reported":1721927248,"current_range_meters":31600,"station_id":"ce4bgup2rcd13ifvqcn0","pricing_plan_id":"cebpf4jnsgd1na2vs0mg"},{"bike_id":"029d5243-faf4-4263-a4a9-16b065a3456d","system_id":"levelo_inurba_marseille","lat":43.304606,"lon":5.379026,"is_reserved":false,"is_disabled":false,"rental_uris":{"android":"levelo://app?vid=029d5243-faf4-4263-a4a9-16b065a3456d","ios":"levelo://app?vid=029d5243-faf4-4263-a4a9-16b065a3456d"},"vehicle_type_id":"4","last_reported":1721927248,"current_range_meters":0,"station_id":"ce4bgup2rcd13ifvqcn0","pricing_plan_id":"cebpf4jnsgd1na2vs0mg"},{"bike_id":"8c5f26c0-0cb0-4735-8d11-707b81e217b5","system_id":"levelo_inurba_marseille","lat":43.304606,"lon":5.379026,"is_reserved":false,"is_disabled":false,"rental_uris":{"android":"levelo://app?vid=8c5f26c0-0cb0-4735-8d11-707b81e217b5","ios":"levelo://app?vid=8c5f26c0-0cb0-4735-8d11-707b81e217b5"},"vehicle_type_id":"4","last_reported":1721927248,"current_range_meters":2400,"station_id":"ce4bgup2rcd13ifvqcn0","pricing_plan_id":"cebpf4jnsgd1na2vs0mg"},{"bike_id":"42846808-a0ef-43ec-bf78-ac87ae218a47","system_id":"levelo_inurba_marseille","lat":43.324771,"lon":5.36557,"is_reserved":false,"is_disabled":false,"rental_uris":{"android":"levelo://app?vid=42846808-a0ef-43ec-bf78-ac87ae218a47","ios":"levelo://app?vid=42846808-a0ef-43ec-bf78-ac87ae218a47"},"vehicle_type_id":"4","last_reported":1721927248,"current_range_meters":16800,"station_id":"ce4bhs12rcd13ifvqhvg","pricing_plan_id":"cebpf4jnsgd1na2vs0mg"},{"bike_id":"34530ffe-75a7-4474-b778-bf8da623f326","system_id":"levelo_inurba_marseille","lat":43.324771,"lon":5.36557,"is_reserved":false,"is_disabled":false,"rental_uris":{"android":"levelo://app?vid=34530ffe-75a7-4474-b778-bf8da623f326","ios":"levelo://app?vid=34530ffe-75a7-4474-b778-bf8da623f326"},"vehicle_type_id":"4","last_reported":1721927248,"current_range_meters":19600,"station_id":"ce4bhs12rcd13ifvqhvg","pricing_plan_id":"cebpf4jnsgd1na2vs0mg"},{"bike_id":"387dafde-1dd4-4497-b8fa-604bafb08d8c","system_id":"levelo_inurba_marseille","lat":43.324771,"lon":5.36557,"is_reserved":false,"is_disabled":false,"rental_uris":{"android":"levelo://app?vid=387dafde-1dd4-4497-b8fa-604bafb08d8c","ios":"levelo://app?vid=387dafde-1dd4-4497-b8fa-604bafb08d8c"},"vehicle_type_id":"4","last_reported":1721927248,"current_range_meters":18800,"station_id":"ce4bhs12rcd13ifvqhvg","pricing_plan_id":"cebpf4jnsgd1na2vs0mg"},{"bike_id":"5b96acc4-7381-4ca3-a4cd-9af895a68d9b","system_id":"levelo_inurba_marseille","lat":43.310804,"lon":5.38359,"is_reserved":false,"is_disabled":false,"rental_uris":{"android":"levelo://app?vid=5b96acc4-7381-4ca3-a4cd-9af895a68d9b","ios":"levelo://app?vid=5b96acc4-7381-4ca3-a4cd-9af895a68d9b"},"vehicle_type_id":"4","last_reported":1721927248,"current_range_meters":14800,"station_id":"ce4bgv92rcd13ifvqcr0","pricing_plan_id":"cebpf4jnsgd1na2vs0mg"},{"bike_id":"92dc3334-b5c2-4312-90db-fd66e43ae8c5","system_id":"levelo_inurba_marseille","lat":43.310804,"lon":5.38359,"is_reserved":false,"is_disabled":false,"rental_uris":{"android":"levelo://app?vid=92dc3334-b5c2-4312-90db-fd66e43ae8c5","ios":"levelo://app?vid=92dc3334-b5c2-4312-90db-fd66e43ae8c5"},"vehicle_type_id":"4","last_reported":1721927248,"current_range_meters":6000,"station_id":"ce4bgv92rcd13ifvqcr0","pricing_plan_id":"cebpf4jnsgd1na2vs0mg"},{"bike_id":"21abc285-f2cf-4452-b259-3c9dd8a947e1","system_id":"levelo_inurba_marseille","lat":43.324771,"lon":5.36557,"is_reserved":false,"is_disabled":false,"rental_uris":{"android":"levelo://app?vid=21abc285-f2cf-4452-b259-3c9dd8a947e1","ios":"levelo://app?vid=21abc285-f2cf-4452-b259-3c9dd8a947e1"},"vehicle_type_id":"4","last_reported":1721927248,"current_range_meters":21600,"station_id":"ce4bhs12rcd13ifvqhvg","pricing_plan_id":"cebpf4jnsgd1na2vs0mg"},{"bike_id":"c45bc7da-32c5-4165-bf10-7455a112786c","system_id":"levelo_inurba_marseille","lat":43.30143,"lon":5.37413,"is_reserved":false,"is_disabled":false,"rental_uris":{"android":"levelo://app?vid=c45bc7da-32c5-4165-bf10-7455a112786c","ios":"levelo://app?vid=c45bc7da-32c5-4165-bf10-7455a112786c"},"vehicle_type_id":"4","last_reported":1721927248,"current_range_meters":19200,"station_id":"ce4bgs92rcd13ifvqcc0","pricing_plan_id":"cebpf4jnsgd1na2vs0mg"},{"bike_id":"883a2081-d01e-430b-bc1c-e0939d3d6f2a","system_id":"levelo_inurba_marseille","lat":43.301429,"lon":5.37413,"is_reserved":false,"is_disabled":false,"rental_uris":{"android":"levelo://app?vid=883a2081-d01e-430b-bc1c-e0939d3d6f2a","ios":"levelo://app?vid=883a2081-d01e-430b-bc1c-e0939d3d6f2a"},"vehicle_type_id":"4","last_reported":1721927248,"current_range_meters":17600,"station_id":"ce4bgs92rcd13ifvqcc0","pricing_plan_id":"cebpf4jnsgd1na2vs0mg"},{"bike_id":"443467e2-f0bb-4bd9-9b4d-9c576b3d2c83","system_id":"levelo_inurba_marseille","lat":43.302784,"lon":5.377158,"is_reserved":false,"is_disabled":false,"rental_uris":{"android":"levelo://app?vid=443467e2-f0bb-4bd9-9b4d-9c576b3d2c83","ios":"levelo://app?vid=443467e2-f0bb-4bd9-9b4d-9c576b3d2c83"},"vehicle_type_id":"4","last_reported":1721927248,"current_range_meters":0,"station_id":"ce4bguh2rcd13ifvqcj0","pricing_plan_id":"cebpf4jnsgd1na2vs0mg"},{"bike_id":"730f683c-5ab4-4897-9ca4-f287c26d70d2","system_id":"levelo_inurba_marseille","lat":43.319935,"lon":5.381699,"is_reserved":false,"is_disabled":false,"rental_uris":{"android":"levelo://app?vid=730f683c-5ab4-4897-9ca4-f287c26d70d2","ios":"levelo://app?vid=730f683c-5ab4-4897-9ca4-f287c26d70d2"},"vehicle_type_id":"4","last_reported":1721927248,"current_range_meters":0,"station_id":"ce4bhr12rcd13ifvqhpg","pricing_plan_id":"cebpf4jnsgd1na2vs0mg"},{"bike_id":"95253418-16a5-4933-a6a5-705e16560d1f","system_id":"levelo_inurba_marseille","lat":43.29979,"lon":5.37179,"is_reserved":false,"is_disabled":false,"rental_uris":{"android":"levelo://app?vid=95253418-16a5-4933-a6a5-705e16560d1f","ios":"levelo://app?vid=95253418-16a5-4933-a6a5-705e16560d1f"},"vehicle_type_id":"4","last_reported":1721927248,"current_range_meters":0,"station_id":"ce4bgr92rcd13ifvqc7g","pricing_plan_id":"cebpf4jnsgd1na2vs0mg"},{"bike_id":"e7a1262d-a27a-4986-80b6-f265928eb9b6","system_id":"levelo_inurba_marseille","lat":43.30067,"lon":5.37511,"is_reserved":false,"is_disabled":false,"rental_uris":{"android":"levelo://app?vid=e7a1262d-a27a-4986-80b6-f265928eb9b6","ios":"levelo://app?vid=e7a1262d-a27a-4986-80b6-f265928eb9b6"},"vehicle_type_id":"4","last_reported":1721927248,"current_range_meters":2000,"station_id":"","pricing_plan_id":"cebpf4jnsgd1na2vs0mg"},{"bike_id":"de816fab-60fa-43a3-a01d-8bbc1531c271","system_id":"levelo_inurba_marseille","lat":43.299724,"lon":5.371829,"is_reserved":false,"is_disabled":false,"rental_uris":{"android":"levelo://app?vid=de816fab-60fa-43a3-a01d-8bbc1531c271","ios":"levelo://app?vid=de816fab-60fa-43a3-a01d-8bbc1531c271"},"vehicle_type_id":"4","last_reported":1721927248,"current_range_meters":0,"station_id":"ce4bgr92rcd13ifvqc7g","pricing_plan_id":"cebpf4jnsgd1na2vs0mg"},{"bike_id":"5a107017-1058-4168-ad42-05e4be64d64d","system_id":"levelo_inurba_marseille","lat":43.299724,"lon":5.371829,"is_reserved":false,"is_disabled":false,"rental_uris":{"android":"levelo://app?vid=5a107017-1058-4168-ad42-05e4be64d64d","ios":"levelo://app?vid=5a107017-1058-4168-ad42-05e4be64d64d"},"vehicle_type_id":"4","last_reported":1721927248,"current_range_meters":8800,"station_id":"ce4bgr92rcd13ifvqc7g","pricing_plan_id":"cebpf4jnsgd1na2vs0mg"},{"bike_id":"4c523942-dd37-4a70-902b-d1c760b18748","system_id":"levelo_inurba_marseille","lat":43.29855,"lon":5.36287,"is_reserved":false,"is_disabled":false,"rental_uris":{"android":"levelo://app?vid=4c523942-dd37-4a70-902b-d1c760b18748","ios":"levelo://app?vid=4c523942-dd37-4a70-902b-d1c760b18748"},"vehicle_type_id":"4","last_reported":1721927248,"current_range_meters":0,"station_id":"ce4bgpp2rcd13ifvqc3g","pricing_plan_id":"cebpf4jnsgd1na2vs0mg"},{"bike_id":"d0711a7f-86fa-4e1a-b060-4303889c1c84","system_id":"levelo_inurba_marseille","lat":43.298433,"lon":5.362774,"is_reserved":false,"is_disabled":false,"rental_uris":{"android":"levelo://app?vid=d0711a7f-86fa-4e1a-b060-4303889c1c84","ios":"levelo://app?vid=d0711a7f-86fa-4e1a-b060-4303889c1c84"},"vehicle_type_id":"4","last_reported":1721927248,"current_range_meters":4000,"station_id":"ce4bgpp2rcd13ifvqc3g","pricing_plan_id":"cebpf4jnsgd1na2vs0mg"},{"bike_id":"5d48de99-9469-4f5a-8e1f-99ee1a0c4431","system_id":"levelo_inurba_marseille","lat":43.301939,"lon":5.366286,"is_reserved":false,"is_disabled":false,"rental_uris":{"android":"levelo://app?vid=5d48de99-9469-4f5a-8e1f-99ee1a0c4431","ios":"levelo://app?vid=5d48de99-9469-4f5a-8e1f-99ee1a0c4431"},"vehicle_type_id":"4","last_reported":1721927248,"current_range_meters":2400,"station_id":"ce4bgrh2rcd13ifvqc8g","pricing_plan_id":"cebpf4jnsgd1na2vs0mg"},{"bike_id":"807659cf-f083-43ef-a9fa-01324437f360","system_id":"levelo_inurba_marseille","lat":43.30147,"lon":5.3808,"is_reserved":false,"is_disabled":false,"rental_uris":{"android":"levelo://app?vid=807659cf-f083-43ef-a9fa-01324437f360","ios":"levelo://app?vid=807659cf-f083-43ef-a9fa-01324437f360"},"vehicle_type_id":"4","last_reported":1721927248,"current_range_meters":0,"station_id":"","pricing_plan_id":"cebpf4jnsgd1na2vs0mg"},{"bike_id":"e5e7a712-06cc-432e-8017-20cd8330c96b","system_id":"levelo_inurba_marseille","lat":43.30151,"lon":5.38089,"is_reserved":false,"is_disabled":false,"rental_uris":{"android":"levelo://app?vid=e5e7a712-06cc-432e-8017-20cd8330c96b","ios":"levelo://app?vid=e5e7a712-06cc-432e-8017-20cd8330c96b"},"vehicle_type_id":"4","last_reported":1721927248,"current_range_meters":0,"station_id":"","pricing_plan_id":"cebpf4jnsgd1na2vs0mg"},{"bike_id":"b11443f7-b674-4da3-bb14-74f979cb0a15","system_id":"levelo_inurba_marseille","lat":43.2978,"lon":5.37109,"is_reserved":false,"is_disabled":false,"rental_uris":{"android":"levelo://app?vid=b11443f7-b674-4da3-bb14-74f979cb0a15","ios":"levelo://app?vid=b11443f7-b674-4da3-bb14-74f979cb0a15"},"vehicle_type_id":"4","last_reported":1721927248,"current_range_meters":0,"station_id":"ce4bgop2rcd13ifvqc1g","pricing_plan_id":"cebpf4jnsgd1na2vs0mg"},{"bike_id":"cdfb6b3f-d6fb-4d7e-9a55-66403d9de1cd","system_id":"levelo_inurba_marseille","lat":43.32287,"lon":5.38259,"is_reserved":false,"is_disabled":false,"rental_uris":{"android":"levelo://app?vid=cdfb6b3f-d6fb-4d7e-9a55-66403d9de1cd","ios":"levelo://app?vid=cdfb6b3f-d6fb-4d7e-9a55-66403d9de1cd"},"vehicle_type_id":"4","last_reported":1721927248,"current_range_meters":5600,"station_id":"ce4bhr12rcd13ifvqhqg","pricing_plan_id":"cebpf4jnsgd1na2vs0mg"},{"bike_id":"b7c473da-ed72-448f-ba2b-17a09e628aa2","system_id":"levelo_inurba_marseille","lat":43.322872,"lon":5.382756,"is_reserved":false,"is_disabled":false,"rental_uris":{"android":"levelo://app?vid=b7c473da-ed72-448f-ba2b-17a09e628aa2","ios":"levelo://app?vid=b7c473da-ed72-448f-ba2b-17a09e628aa2"},"vehicle_type_id":"4","last_reported":1721927248,"current_range_meters":26800,"station_id":"ce4bhr12rcd13ifvqhqg","pricing_plan_id":"cebpf4jnsgd1na2vs0mg"},{"bike_id":"a8e7a11a-4f5e-4473-bd13-3187fbb6cd1a","system_id":"levelo_inurba_marseille","lat":43.29711,"lon":5.36611,"is_reserved":false,"is_disabled":false,"rental_uris":{"android":"levelo://app?vid=a8e7a11a-4f5e-4473-bd13-3187fbb6cd1a","ios":"levelo://app?vid=a8e7a11a-4f5e-4473-bd13-3187fbb6cd1a"},"vehicle_type_id":"4","last_reported":1721927248,"current_range_meters":0,"station_id":"","pricing_plan_id":"cebpf4jnsgd1na2vs0mg"},{"bike_id":"70ca5cf4-379e-4ae4-b3b8-972c1c692fdd","system_id":"levelo_inurba_marseille","lat":43.29717,"lon":5.37692,"is_reserved":false,"is_disabled":false,"rental_uris":{"android":"levelo://app?vid=70ca5cf4-379e-4ae4-b3b8-972c1c692fdd","ios":"levelo://app?vid=70ca5cf4-379e-4ae4-b3b8-972c1c692fdd"},"vehicle_type_id":"4","last_reported":1721927248,"current_range_meters":0,"station_id":"ce4bgkh2rcd13ifvqbl0","pricing_plan_id":"cebpf4jnsgd1na2vs0mg"},{"bike_id":"d87f8225-b8b5-4062-a726-c266f28c06b8","system_id":"levelo_inurba_marseille","lat":43.299028,"lon":5.381509,"is_reserved":false,"is_disabled":false,"rental_uris":{"android":"levelo://app?vid=d87f8225-b8b5-4062-a726-c266f28c06b8","ios":"levelo://app?vid=d87f8225-b8b5-4062-a726-c266f28c06b8"},"vehicle_type_id":"4","last_reported":1721927248,"current_range_meters":12800,"station_id":"ce4bgj12rcd13ifvqbc0","pricing_plan_id":"cebpf4jnsgd1na2vs0mg"},{"bike_id":"4a517db3-a34e-4e2d-9b28-5ac711912a76","system_id":"levelo_inurba_marseille","lat":43.299028,"lon":5.381509,"is_reserved":false,"is_disabled":false,"rental_uris":{"android":"levelo://app?vid=4a517db3-a34e-4e2d-9b28-5ac711912a76","ios":"levelo://app?vid=4a517db3-a34e-4e2d-9b28-5ac711912a76"},"vehicle_type_id":"4","last_reported":1721927248,"current_range_meters":0,"station_id":"ce4bgj12rcd13ifvqbc0","pricing_plan_id":"cebpf4jnsgd1na2vs0mg"},{"bike_id":"24e34234-6391-41ea-b484-493ab722c92e","system_id":"levelo_inurba_marseille","lat":43.299028,"lon":5.381509,"is_reserved":false,"is_disabled":false,"rental_uris":{"android":"levelo://app?vid=24e34234-6391-41ea-b484-493ab722c92e","ios":"levelo://app?vid=24e34234-6391-41ea-b484-493ab722c92e"},"vehicle_type_id":"4","last_reported":1721927248,"current_range_meters":25200,"station_id":"ce4bgj12rcd13ifvqbc0","pricing_plan_id":"cebpf4jnsgd1na2vs0mg"},{"bike_id":"935af623-7163-4467-9b09-22aabfa43b78","system_id":"levelo_inurba_marseille","lat":43.309589,"lon":5.390258,"is_reserved":false,"is_disabled":false,"rental_uris":{"android":"levelo://app?vid=935af623-7163-4467-9b09-22aabfa43b78","ios":"levelo://app?vid=935af623-7163-4467-9b09-22aabfa43b78"},"vehicle_type_id":"4","last_reported":1721927248,"current_range_meters":0,"station_id":"ce4bgup2rcd13ifvqco0","pricing_plan_id":"cebpf4jnsgd1na2vs0mg"},{"bike_id":"823a1e42-c4bd-41f0-9ef2-7347087bd8a3","system_id":"levelo_inurba_marseille","lat":43.32139,"lon":5.38772,"is_reserved":false,"is_disabled":false,"rental_uris":{"android":"levelo://app?vid=823a1e42-c4bd-41f0-9ef2-7347087bd8a3","ios":"levelo://app?vid=823a1e42-c4bd-41f0-9ef2-7347087bd8a3"},"vehicle_type_id":"4","last_reported":1721927248,"current_range_meters":8000,"station_id":"","pricing_plan_id":"cebpf4jnsgd1na2vs0mg"},{"bike_id":"2345221b-3521-48a6-b035-f75ec2d22ef7","system_id":"levelo_inurba_marseille","lat":43.317557,"lon":5.390173,"is_reserved":false,"is_disabled":false,"rental_uris":{"android":"levelo://app?vid=2345221b-3521-48a6-b035-f75ec2d22ef7","ios":"levelo://app?vid=2345221b-3521-48a6-b035-f75ec2d22ef7"},"vehicle_type_id":"4","last_reported":1721927248,"current_range_meters":26800,"station_id":"ce4bhqp2rcd13ifvqhng","pricing_plan_id":"cebpf4jnsgd1na2vs0mg"},{"bike_id":"42085424-5ab7-43d5-a63c-5e6174a3f7b3","system_id":"levelo_inurba_marseille","lat":43.317557,"lon":5.390173,"is_reserved":false,"is_disabled":false,"rental_uris":{"android":"levelo://app?vid=42085424-5ab7-43d5-a63c-5e6174a3f7b3","ios":"levelo://app?vid=42085424-5ab7-43d5-a63c-5e6174a3f7b3"},"vehicle_type_id":"4","last_reported":1721927248,"current_range_meters":1200,"station_id":"ce4bhqp2rcd13ifvqhng","pricing_plan_id":"cebpf4jnsgd1na2vs0mg"},{"bike_id":"8552d49f-6a8a-4623-ab17-d02cecf555fb","system_id":"levelo_inurba_marseille","lat":43.298037,"lon":5.381066,"is_reserved":false,"is_disabled":false,"rental_uris":{"android":"levelo://app?vid=8552d49f-6a8a-4623-ab17-d02cecf555fb","ios":"levelo://app?vid=8552d49f-6a8a-4623-ab17-d02cecf555fb"},"vehicle_type_id":"4","last_reported":1721927248,"current_range_meters":16400,"station_id":"ce4bgip2rcd13ifvqbb0","pricing_plan_id":"cebpf4jnsgd1na2vs0mg"},{"bike_id":"8d81a44f-65dd-405e-b505-ba4aa81b9c19","system_id":"levelo_inurba_marseille","lat":43.298037,"lon":5.381066,"is_reserved":false,"is_disabled":false,"rental_uris":{"android":"levelo://app?vid=8d81a44f-65dd-405e-b505-ba4aa81b9c19","ios":"levelo://app?vid=8d81a44f-65dd-405e-b505-ba4aa81b9c19"},"vehicle_type_id":"4","last_reported":1721927248,"current_range_meters":0,"station_id":"ce4bgip2rcd13ifvqbb0","pricing_plan_id":"cebpf4jnsgd1na2vs0mg"},{"bike_id":"ff8d258a-e313-44bc-b480-9420c5df438f","system_id":"levelo_inurba_marseille","lat":43.30439,"lon":5.3888,"is_reserved":false,"is_disabled":false,"rental_uris":{"android":"levelo://app?vid=ff8d258a-e313-44bc-b480-9420c5df438f","ios":"levelo://app?vid=ff8d258a-e313-44bc-b480-9420c5df438f"},"vehicle_type_id":"4","last_reported":1721927248,"current_range_meters":0,"station_id":"ce4bgk12rcd13ifvqbi0","pricing_plan_id":"cebpf4jnsgd1na2vs0mg"},{"bike_id":"7f78bd2a-816d-44fd-bf5e-e8aeeef5ab68","system_id":"levelo_inurba_marseille","lat":43.29576,"lon":5.375117,"is_reserved":false,"is_disabled":false,"rental_uris":{"android":"levelo://app?vid=7f78bd2a-816d-44fd-bf5e-e8aeeef5ab68","ios":"levelo://app?vid=7f78bd2a-816d-44fd-bf5e-e8aeeef5ab68"},"vehicle_type_id":"4","last_reported":1721927248,"current_range_meters":0,"station_id":"ce4bgh92rcd13ifvqb50","pricing_plan_id":"cebpf4jnsgd1na2vs0mg"},{"bike_id":"e5d5e962-828a-4f20-92c3-1d947351b586","system_id":"levelo_inurba_marseille","lat":43.304274,"lon":5.388873,"is_reserved":false,"is_disabled":false,"rental_uris":{"android":"levelo://app?vid=e5d5e962-828a-4f20-92c3-1d947351b586","ios":"levelo://app?vid=e5d5e962-828a-4f20-92c3-1d947351b586"},"vehicle_type_id":"4","last_reported":1721927248,"current_range_meters":18800,"station_id":"ce4bgk12rcd13ifvqbi0","pricing_plan_id":"cebpf4jnsgd1na2vs0mg"},{"bike_id":"dbde6805-14e1-4acb-8a41-e71737b07a26","system_id":"levelo_inurba_marseille","lat":43.2957,"lon":5.37515,"is_reserved":false,"is_disabled":false,"rental_uris":{"android":"levelo://app?vid=dbde6805-14e1-4acb-8a41-e71737b07a26","ios":"levelo://app?vid=dbde6805-14e1-4acb-8a41-e71737b07a26"},"vehicle_type_id":"4","last_reported":1721927248,"current_range_meters":0,"station_id":"ce4bgh92rcd13ifvqb50","pricing_plan_id":"cebpf4jnsgd1na2vs0mg"},{"bike_id":"b5c144e2-f96e-48d1-af83-deee9a3cea53","system_id":"levelo_inurba_marseille","lat":43.298037,"lon":5.381066,"is_reserved":false,"is_disabled":false,"rental_uris":{"android":"levelo://app?vid=b5c144e2-f96e-48d1-af83-deee9a3cea53","ios":"levelo://app?vid=b5c144e2-f96e-48d1-af83-deee9a3cea53"},"vehicle_type_id":"4","last_reported":1721927248,"current_range_meters":13200,"station_id":"ce4bgip2rcd13ifvqbb0","pricing_plan_id":"cebpf4jnsgd1na2vs0mg"},{"bike_id":"007de419-ab98-44d0-971e-6e385121af33","system_id":"levelo_inurba_marseille","lat":43.304278,"lon":5.388868,"is_reserved":false,"is_disabled":false,"rental_uris":{"android":"levelo://app?vid=007de419-ab98-44d0-971e-6e385121af33","ios":"levelo://app?vid=007de419-ab98-44d0-971e-6e385121af33"},"vehicle_type_id":"4","last_reported":1721927248,"current_range_meters":2400,"station_id":"ce4bgk12rcd13ifvqbi0","pricing_plan_id":"cebpf4jnsgd1na2vs0mg"},{"bike_id":"ab281748-f092-4f74-a5b2-4d79adc97f9f","system_id":"levelo_inurba_marseille","lat":43.299717,"lon":5.384845,"is_reserved":false,"is_disabled":false,"rental_uris":{"android":"levelo://app?vid=ab281748-f092-4f74-a5b2-4d79adc97f9f","ios":"levelo://app?vid=ab281748-f092-4f74-a5b2-4d79adc97f9f"},"vehicle_type_id":"4","last_reported":1721927248,"current_range_meters":17600,"station_id":"ce4bgj92rcd13ifvqbd0","pricing_plan_id":"cebpf4jnsgd1na2vs0mg"},{"bike_id":"9e0af130-e453-40fd-978c-65884d8b76db","system_id":"levelo_inurba_marseille","lat":43.30145,"lon":5.38766,"is_reserved":false,"is_disabled":false,"rental_uris":{"android":"levelo://app?vid=9e0af130-e453-40fd-978c-65884d8b76db","ios":"levelo://app?vid=9e0af130-e453-40fd-978c-65884d8b76db"},"vehicle_type_id":"4","last_reported":1721927248,"current_range_meters":12000,"station_id":"ce4bghh2rcd13ifvqb60","pricing_plan_id":"cebpf4jnsgd1na2vs0mg"},{"bike_id":"a1f05781-c1af-428e-9771-bf03c5101377","system_id":"levelo_inurba_marseille","lat":43.304274,"lon":5.388873,"is_reserved":false,"is_disabled":false,"rental_uris":{"android":"levelo://app?vid=a1f05781-c1af-428e-9771-bf03c5101377","ios":"levelo://app?vid=a1f05781-c1af-428e-9771-bf03c5101377"},"vehicle_type_id":"4","last_reported":1721927248,"current_range_meters":2800,"station_id":"ce4bgk12rcd13ifvqbi0","pricing_plan_id":"cebpf4jnsgd1na2vs0mg"},{"bike_id":"115797ea-d335-4c59-acaf-9a485d6b5abb","system_id":"levelo_inurba_marseille","lat":43.301396,"lon":5.387812,"is_reserved":false,"is_disabled":false,"rental_uris":{"android":"levelo://app?vid=115797ea-d335-4c59-acaf-9a485d6b5abb","ios":"levelo://app?vid=115797ea-d335-4c59-acaf-9a485d6b5abb"},"vehicle_type_id":"4","last_reported":1721927248,"current_range_meters":0,"station_id":"ce4bghh2rcd13ifvqb60","pricing_plan_id":"cebpf4jnsgd1na2vs0mg"},{"bike_id":"0b87a869-fc21-44b4-b0c2-13fd39b93993","system_id":"levelo_inurba_marseille","lat":43.30128,"lon":5.38782,"is_reserved":false,"is_disabled":false,"rental_uris":{"android":"levelo://app?vid=0b87a869-fc21-44b4-b0c2-13fd39b93993","ios":"levelo://app?vid=0b87a869-fc21-44b4-b0c2-13fd39b93993"},"vehicle_type_id":"4","last_reported":1721927248,"current_range_meters":0,"station_id":"ce4bghh2rcd13ifvqb60","pricing_plan_id":"cebpf4jnsgd1na2vs0mg"},{"bike_id":"7f2e09e0-6060-4cbf-b20c-2d315f618e4b","system_id":"levelo_inurba_marseille","lat":43.30128,"lon":5.38786,"is_reserved":false,"is_disabled":false,"rental_uris":{"android":"levelo://app?vid=7f2e09e0-6060-4cbf-b20c-2d315f618e4b","ios":"levelo://app?vid=7f2e09e0-6060-4cbf-b20c-2d315f618e4b"},"vehicle_type_id":"4","last_reported":1721927248,"current_range_meters":14800,"station_id":"ce4bghh2rcd13ifvqb60","pricing_plan_id":"cebpf4jnsgd1na2vs0mg"},{"bike_id":"a436fe0c-c97d-4e2f-bad3-06c80b21c5cf","system_id":"levelo_inurba_marseille","lat":43.295647,"lon":5.380789,"is_reserved":false,"is_disabled":false,"rental_uris":{"android":"levelo://app?vid=a436fe0c-c97d-4e2f-bad3-06c80b21c5cf","ios":"levelo://app?vid=a436fe0c-c97d-4e2f-bad3-06c80b21c5cf"},"vehicle_type_id":"4","last_reported":1721927248,"current_range_meters":1600,"station_id":"","pricing_plan_id":"cebpf4jnsgd1na2vs0mg"},{"bike_id":"824dc260-104e-4223-a868-bf653d80758e","system_id":"levelo_inurba_marseille","lat":43.293259,"lon":5.371586,"is_reserved":false,"is_disabled":false,"rental_uris":{"android":"levelo://app?vid=824dc260-104e-4223-a868-bf653d80758e","ios":"levelo://app?vid=824dc260-104e-4223-a868-bf653d80758e"},"vehicle_type_id":"4","last_reported":1721927248,"current_range_meters":11600,"station_id":"ce4bgh92rcd13ifvqb40","pricing_plan_id":"cebpf4jnsgd1na2vs0mg"},{"bike_id":"5f5008d6-5b68-416d-878d-ad738ccced89","system_id":"levelo_inurba_marseille","lat":43.292697,"lon":5.367692,"is_reserved":false,"is_disabled":false,"rental_uris":{"android":"levelo://app?vid=5f5008d6-5b68-416d-878d-ad738ccced89","ios":"levelo://app?vid=5f5008d6-5b68-416d-878d-ad738ccced89"},"vehicle_type_id":"4","last_reported":1721927248,"current_range_meters":0,"station_id":"","pricing_plan_id":"cebpf4jnsgd1na2vs0mg"},{"bike_id":"7a1e3d4f-7697-4b70-b4f9-a081397b2560","system_id":"levelo_inurba_marseille","lat":43.293009,"lon":5.374584,"is_reserved":false,"is_disabled":false,"rental_uris":{"android":"levelo://app?vid=7a1e3d4f-7697-4b70-b4f9-a081397b2560","ios":"levelo://app?vid=7a1e3d4f-7697-4b70-b4f9-a081397b2560"},"vehicle_type_id":"4","last_reported":1721927248,"current_range_meters":9600,"station_id":"ce4bgi12rcd13ifvqb70","pricing_plan_id":"cebpf4jnsgd1na2vs0mg"},{"bike_id":"74557431-1ba7-43ae-8ecd-1bc2b6dbb981","system_id":"levelo_inurba_marseille","lat":43.2936,"lon":5.37835,"is_reserved":false,"is_disabled":false,"rental_uris":{"android":"levelo://app?vid=74557431-1ba7-43ae-8ecd-1bc2b6dbb981","ios":"levelo://app?vid=74557431-1ba7-43ae-8ecd-1bc2b6dbb981"},"vehicle_type_id":"4","last_reported":1721927248,"current_range_meters":2800,"station_id":"ce4bgjh2rcd13ifvqbf0","pricing_plan_id":"cebpf4jnsgd1na2vs0mg"},{"bike_id":"acd8d1d1-15b2-4945-b44a-048f8b6cc13b","system_id":"levelo_inurba_marseille","lat":43.2936,"lon":5.37835,"is_reserved":false,"is_disabled":false,"rental_uris":{"android":"levelo://app?vid=acd8d1d1-15b2-4945-b44a-048f8b6cc13b","ios":"levelo://app?vid=acd8d1d1-15b2-4945-b44a-048f8b6cc13b"},"vehicle_type_id":"4","last_reported":1721927248,"current_range_meters":16800,"station_id":"ce4bgjh2rcd13ifvqbf0","pricing_plan_id":"cebpf4jnsgd1na2vs0mg"},{"bike_id":"0f184184-2be2-4d8b-8bf9-7437e96485a0","system_id":"levelo_inurba_marseille","lat":43.292311,"lon":5.360731,"is_reserved":false,"is_disabled":false,"rental_uris":{"android":"levelo://app?vid=0f184184-2be2-4d8b-8bf9-7437e96485a0","ios":"levelo://app?vid=0f184184-2be2-4d8b-8bf9-7437e96485a0"},"vehicle_type_id":"4","last_reported":1721927248,"current_range_meters":0,"station_id":"ce4bhbh2rcd13ifvqeqg","pricing_plan_id":"cebpf4jnsgd1na2vs0mg"},{"bike_id":"d2becdc1-bf7f-40d2-b2ef-a5a2c0f6ef2e","system_id":"levelo_inurba_marseille","lat":43.29221,"lon":5.36035,"is_reserved":false,"is_disabled":false,"rental_uris":{"android":"levelo://app?vid=d2becdc1-bf7f-40d2-b2ef-a5a2c0f6ef2e","ios":"levelo://app?vid=d2becdc1-bf7f-40d2-b2ef-a5a2c0f6ef2e"},"vehicle_type_id":"4","last_reported":1721927248,"current_range_meters":18000,"station_id":"ce4bhbh2rcd13ifvqeqg","pricing_plan_id":"cebpf4jnsgd1na2vs0mg"},{"bike_id":"528757c9-2e84-44f3-926a-47bc493fdcff","system_id":"levelo_inurba_marseille","lat":43.29214,"lon":5.36044,"is_reserved":false,"is_disabled":false,"rental_uris":{"android":"levelo://app?vid=528757c9-2e84-44f3-926a-47bc493fdcff","ios":"levelo://app?vid=528757c9-2e84-44f3-926a-47bc493fdcff"},"vehicle_type_id":"4","last_reported":1721927248,"current_range_meters":0,"station_id":"ce4bhbh2rcd13ifvqeqg","pricing_plan_id":"cebpf4jnsgd1na2vs0mg"},{"bike_id":"625ee573-5ff7-47d6-84df-5d368aebcafc","system_id":"levelo_inurba_marseille","lat":43.298764,"lon":5.388973,"is_reserved":false,"is_disabled":false,"rental_uris":{"android":"levelo://app?vid=625ee573-5ff7-47d6-84df-5d368aebcafc","ios":"levelo://app?vid=625ee573-5ff7-47d6-84df-5d368aebcafc"},"vehicle_type_id":"4","last_reported":1721927248,"current_range_meters":14400,"station_id":"ce4bh392rcd13ifvqdl0","pricing_plan_id":"cebpf4jnsgd1na2vs0mg"},{"bike_id":"1022065a-ae34-4322-a3c0-fe060648e3cf","system_id":"levelo_inurba_marseille","lat":43.298764,"lon":5.388973,"is_reserved":false,"is_disabled":false,"rental_uris":{"android":"levelo://app?vid=1022065a-ae34-4322-a3c0-fe060648e3cf","ios":"levelo://app?vid=1022065a-ae34-4322-a3c0-fe060648e3cf"},"vehicle_type_id":"4","last_reported":1721927248,"current_range_meters":14400,"station_id":"ce4bh392rcd13ifvqdl0","pricing_plan_id":"cebpf4jnsgd1na2vs0mg"},{"bike_id":"bfd741fe-4240-4d23-a27e-ba7f16c8f86a","system_id":"levelo_inurba_marseille","lat":43.301117,"lon":5.398795,"is_reserved":false,"is_disabled":false,"rental_uris":{"android":"levelo://app?vid=bfd741fe-4240-4d23-a27e-ba7f16c8f86a","ios":"levelo://app?vid=bfd741fe-4240-4d23-a27e-ba7f16c8f86a"},"vehicle_type_id":"4","last_reported":1721927248,"current_range_meters":28000,"station_id":"ce4bh0h2rcd13ifvqd40","pricing_plan_id":"cebpf4jnsgd1na2vs0mg"},{"bike_id":"22408748-94ec-4d35-9f72-f4b3aa5c03a9","system_id":"levelo_inurba_marseille","lat":43.30884,"lon":5.39628,"is_reserved":false,"is_disabled":false,"rental_uris":{"android":"levelo://app?vid=22408748-94ec-4d35-9f72-f4b3aa5c03a9","ios":"levelo://app?vid=22408748-94ec-4d35-9f72-f4b3aa5c03a9"},"vehicle_type_id":"4","last_reported":1721927248,"current_range_meters":26800,"station_id":"ce4bh012rcd13ifvqcv0","pricing_plan_id":"cebpf4jnsgd1na2vs0mg"},{"bike_id":"3dda22c3-e3f5-4b13-85fd-414e3d4fd48a","system_id":"levelo_inurba_marseille","lat":43.313291,"lon":5.396838,"is_reserved":false,"is_disabled":false,"rental_uris":{"android":"levelo://app?vid=3dda22c3-e3f5-4b13-85fd-414e3d4fd48a","ios":"levelo://app?vid=3dda22c3-e3f5-4b13-85fd-414e3d4fd48a"},"vehicle_type_id":"4","last_reported":1721927248,"current_range_meters":7200,"station_id":"ce4bgvp2rcd13ifvqcu0","pricing_plan_id":"cebpf4jnsgd1na2vs0mg"},{"bike_id":"abc04b3c-39c4-455c-8cc4-3393f078654c","system_id":"levelo_inurba_marseille","lat":43.313291,"lon":5.396838,"is_reserved":false,"is_disabled":false,"rental_uris":{"android":"levelo://app?vid=abc04b3c-39c4-455c-8cc4-3393f078654c","ios":"levelo://app?vid=abc04b3c-39c4-455c-8cc4-3393f078654c"},"vehicle_type_id":"4","last_reported":1721927248,"current_range_meters":4800,"station_id":"ce4bgvp2rcd13ifvqcu0","pricing_plan_id":"cebpf4jnsgd1na2vs0mg"},{"bike_id":"63f1b5fa-032c-4400-89c7-3b81dd160e6b","system_id":"levelo_inurba_marseille","lat":43.313291,"lon":5.396838,"is_reserved":false,"is_disabled":false,"rental_uris":{"android":"levelo://app?vid=63f1b5fa-032c-4400-89c7-3b81dd160e6b","ios":"levelo://app?vid=63f1b5fa-032c-4400-89c7-3b81dd160e6b"},"vehicle_type_id":"4","last_reported":1721927248,"current_range_meters":4800,"station_id":"ce4bgvp2rcd13ifvqcu0","pricing_plan_id":"cebpf4jnsgd1na2vs0mg"},{"bike_id":"b83f0e2b-f310-4f4d-9982-12b1a5f786a0","system_id":"levelo_inurba_marseille","lat":43.313291,"lon":5.396838,"is_reserved":false,"is_disabled":false,"rental_uris":{"android":"levelo://app?vid=b83f0e2b-f310-4f4d-9982-12b1a5f786a0","ios":"levelo://app?vid=b83f0e2b-f310-4f4d-9982-12b1a5f786a0"},"vehicle_type_id":"4","last_reported":1721927248,"current_range_meters":2400,"station_id":"ce4bgvp2rcd13ifvqcu0","pricing_plan_id":"cebpf4jnsgd1na2vs0mg"},{"bike_id":"39746781-69a4-49d6-8e43-fd8a83f4d096","system_id":"levelo_inurba_marseille","lat":43.309038,"lon":5.396546,"is_reserved":false,"is_disabled":false,"rental_uris":{"android":"levelo://app?vid=39746781-69a4-49d6-8e43-fd8a83f4d096","ios":"levelo://app?vid=39746781-69a4-49d6-8e43-fd8a83f4d096"},"vehicle_type_id":"4","last_reported":1721927248,"current_range_meters":2000,"station_id":"ce4bh012rcd13ifvqcv0","pricing_plan_id":"cebpf4jnsgd1na2vs0mg"},{"bike_id":"70ba8733-41f8-4ea2-a04e-0332b9c99fd6","system_id":"levelo_inurba_marseille","lat":43.308934,"lon":5.396595,"is_reserved":false,"is_disabled":false,"rental_uris":{"android":"levelo://app?vid=70ba8733-41f8-4ea2-a04e-0332b9c99fd6","ios":"levelo://app?vid=70ba8733-41f8-4ea2-a04e-0332b9c99fd6"},"vehicle_type_id":"4","last_reported":1721927248,"current_range_meters":2000,"station_id":"","pricing_plan_id":"cebpf4jnsgd1na2vs0mg"},{"bike_id":"cd5fb9bb-76d6-40a7-874e-e2ed4ed166eb","system_id":"levelo_inurba_marseille","lat":43.309038,"lon":5.396546,"is_reserved":false,"is_disabled":false,"rental_uris":{"android":"levelo://app?vid=cd5fb9bb-76d6-40a7-874e-e2ed4ed166eb","ios":"levelo://app?vid=cd5fb9bb-76d6-40a7-874e-e2ed4ed166eb"},"vehicle_type_id":"4","last_reported":1721927248,"current_range_meters":0,"station_id":"ce4bh012rcd13ifvqcv0","pricing_plan_id":"cebpf4jnsgd1na2vs0mg"},{"bike_id":"d2cb1c3d-4085-409d-9804-91df8f3da781","system_id":"levelo_inurba_marseille","lat":43.29529,"lon":5.385581,"is_reserved":false,"is_disabled":false,"rental_uris":{"android":"levelo://app?vid=d2cb1c3d-4085-409d-9804-91df8f3da781","ios":"levelo://app?vid=d2cb1c3d-4085-409d-9804-91df8f3da781"},"vehicle_type_id":"4","last_reported":1721927248,"current_range_meters":4800,"station_id":"ce4bgih2rcd13ifvqba0","pricing_plan_id":"cebpf4jnsgd1na2vs0mg"},{"bike_id":"855c1c85-4ef0-4678-8b2b-ce04694dbcc9","system_id":"levelo_inurba_marseille","lat":43.29529,"lon":5.385581,"is_reserved":false,"is_disabled":false,"rental_uris":{"android":"levelo://app?vid=855c1c85-4ef0-4678-8b2b-ce04694dbcc9","ios":"levelo://app?vid=855c1c85-4ef0-4678-8b2b-ce04694dbcc9"},"vehicle_type_id":"4","last_reported":1721927248,"current_range_meters":8400,"station_id":"ce4bgih2rcd13ifvqba0","pricing_plan_id":"cebpf4jnsgd1na2vs0mg"},{"bike_id":"4c1842a7-bccc-46ba-ac7a-c3f6d27396f6","system_id":"levelo_inurba_marseille","lat":43.29529,"lon":5.385581,"is_reserved":false,"is_disabled":false,"rental_uris":{"android":"levelo://app?vid=4c1842a7-bccc-46ba-ac7a-c3f6d27396f6","ios":"levelo://app?vid=4c1842a7-bccc-46ba-ac7a-c3f6d27396f6"},"vehicle_type_id":"4","last_reported":1721927248,"current_range_meters":27200,"station_id":"ce4bgih2rcd13ifvqba0","pricing_plan_id":"cebpf4jnsgd1na2vs0mg"},{"bike_id":"ca957de7-fad5-4daa-85e5-3e00aff5e737","system_id":"levelo_inurba_marseille","lat":43.29529,"lon":5.385581,"is_reserved":false,"is_disabled":false,"rental_uris":{"android":"levelo://app?vid=ca957de7-fad5-4daa-85e5-3e00aff5e737","ios":"levelo://app?vid=ca957de7-fad5-4daa-85e5-3e00aff5e737"},"vehicle_type_id":"4","last_reported":1721927248,"current_range_meters":8800,"station_id":"ce4bgih2rcd13ifvqba0","pricing_plan_id":"cebpf4jnsgd1na2vs0mg"},{"bike_id":"6c5b546f-9af9-4c50-b921-bebfa03c10b4","system_id":"levelo_inurba_marseille","lat":43.290449,"lon":5.37021,"is_reserved":false,"is_disabled":false,"rental_uris":{"android":"levelo://app?vid=6c5b546f-9af9-4c50-b921-bebfa03c10b4","ios":"levelo://app?vid=6c5b546f-9af9-4c50-b921-bebfa03c10b4"},"vehicle_type_id":"4","last_reported":1721927248,"current_range_meters":0,"station_id":"","pricing_plan_id":"cebpf4jnsgd1na2vs0mg"},{"bike_id":"6a6f274c-d269-4ff6-ab68-75503ed14866","system_id":"levelo_inurba_marseille","lat":43.30209,"lon":5.39458,"is_reserved":false,"is_disabled":false,"rental_uris":{"android":"levelo://app?vid=6a6f274c-d269-4ff6-ab68-75503ed14866","ios":"levelo://app?vid=6a6f274c-d269-4ff6-ab68-75503ed14866"},"vehicle_type_id":"4","last_reported":1721927248,"current_range_meters":0,"station_id":"ce4bh0p2rcd13ifvqd70","pricing_plan_id":"cebpf4jnsgd1na2vs0mg"},{"bike_id":"82911dc2-4f8e-4d3f-9dce-cf7536a832c6","system_id":"levelo_inurba_marseille","lat":43.29049,"lon":5.35902,"is_reserved":false,"is_disabled":false,"rental_uris":{"android":"levelo://app?vid=82911dc2-4f8e-4d3f-9dce-cf7536a832c6","ios":"levelo://app?vid=82911dc2-4f8e-4d3f-9dce-cf7536a832c6"},"vehicle_type_id":"4","last_reported":1721927248,"current_range_meters":0,"station_id":"ce4bha92rcd13ifvqeg0","pricing_plan_id":"cebpf4jnsgd1na2vs0mg"},{"bike_id":"97cc79e7-64be-4b61-8bdb-8ab0270da02a","system_id":"levelo_inurba_marseille","lat":43.294162,"lon":5.386292,"is_reserved":false,"is_disabled":false,"rental_uris":{"android":"levelo://app?vid=97cc79e7-64be-4b61-8bdb-8ab0270da02a","ios":"levelo://app?vid=97cc79e7-64be-4b61-8bdb-8ab0270da02a"},"vehicle_type_id":"4","last_reported":1721927248,"current_range_meters":23600,"station_id":"ce4bh2h2rcd13ifvqdh0","pricing_plan_id":"cebpf4jnsgd1na2vs0mg"},{"bike_id":"d131a486-5cd1-4fd8-9220-95cf6d35ad15","system_id":"levelo_inurba_marseille","lat":43.28941,"lon":5.36633,"is_reserved":false,"is_disabled":false,"rental_uris":{"android":"levelo://app?vid=d131a486-5cd1-4fd8-9220-95cf6d35ad15","ios":"levelo://app?vid=d131a486-5cd1-4fd8-9220-95cf6d35ad15"},"vehicle_type_id":"4","last_reported":1721927248,"current_range_meters":20800,"station_id":"ce4bhap2rcd13ifvqek0","pricing_plan_id":"cebpf4jnsgd1na2vs0mg"},{"bike_id":"97e109de-9e88-4bd9-8f6b-dea4df66ce90","system_id":"levelo_inurba_marseille","lat":43.289184,"lon":5.366408,"is_reserved":false,"is_disabled":false,"rental_uris":{"android":"levelo://app?vid=97e109de-9e88-4bd9-8f6b-dea4df66ce90","ios":"levelo://app?vid=97e109de-9e88-4bd9-8f6b-dea4df66ce90"},"vehicle_type_id":"4","last_reported":1721927248,"current_range_meters":6000,"station_id":"ce4bhap2rcd13ifvqek0","pricing_plan_id":"cebpf4jnsgd1na2vs0mg"},{"bike_id":"b77bd547-f9e5-4be4-ace1-4a143d7e8de0","system_id":"levelo_inurba_marseille","lat":43.290327,"lon":5.375711,"is_reserved":false,"is_disabled":false,"rental_uris":{"android":"levelo://app?vid=b77bd547-f9e5-4be4-ace1-4a143d7e8de0","ios":"levelo://app?vid=b77bd547-f9e5-4be4-ace1-4a143d7e8de0"},"vehicle_type_id":"4","last_reported":1721927248,"current_range_meters":2800,"station_id":"ce4bh692rcd13ifvqe90","pricing_plan_id":"cebpf4jnsgd1na2vs0mg"},{"bike_id":"8ba38f1d-b4b2-4469-8aad-1f21245e0541","system_id":"levelo_inurba_marseille","lat":43.28928,"lon":5.364013,"is_reserved":false,"is_disabled":false,"rental_uris":{"android":"levelo://app?vid=8ba38f1d-b4b2-4469-8aad-1f21245e0541","ios":"levelo://app?vid=8ba38f1d-b4b2-4469-8aad-1f21245e0541"},"vehicle_type_id":"4","last_reported":1721927248,"current_range_meters":800,"station_id":"ce4bhc92rcd13ifvqetg","pricing_plan_id":"cebpf4jnsgd1na2vs0mg"},{"bike_id":"03e0462f-b465-4c38-8a9e-df4fcc2753f0","system_id":"levelo_inurba_marseille","lat":43.29016,"lon":5.35721,"is_reserved":false,"is_disabled":false,"rental_uris":{"android":"levelo://app?vid=03e0462f-b465-4c38-8a9e-df4fcc2753f0","ios":"levelo://app?vid=03e0462f-b465-4c38-8a9e-df4fcc2753f0"},"vehicle_type_id":"4","last_reported":1721927248,"current_range_meters":0,"station_id":"","pricing_plan_id":"cebpf4jnsgd1na2vs0mg"},{"bike_id":"e39e0c48-f921-463f-8755-9285aa75c7b4","system_id":"levelo_inurba_marseille","lat":43.29265,"lon":5.38439,"is_reserved":false,"is_disabled":false,"rental_uris":{"android":"levelo://app?vid=e39e0c48-f921-463f-8755-9285aa75c7b4","ios":"levelo://app?vid=e39e0c48-f921-463f-8755-9285aa75c7b4"},"vehicle_type_id":"4","last_reported":1721927248,"current_range_meters":10000,"station_id":"ce4bh692rcd13ifvqea0","pricing_plan_id":"cebpf4jnsgd1na2vs0mg"},{"bike_id":"6a322126-2dc3-4ea7-9046-f72925321c5b","system_id":"levelo_inurba_marseille","lat":43.304274,"lon":5.397513,"is_reserved":false,"is_disabled":false,"rental_uris":{"android":"levelo://app?vid=6a322126-2dc3-4ea7-9046-f72925321c5b","ios":"levelo://app?vid=6a322126-2dc3-4ea7-9046-f72925321c5b"},"vehicle_type_id":"4","last_reported":1721927248,"current_range_meters":3600,"station_id":"ce4bh092rcd13ifvqd20","pricing_plan_id":"cebpf4jnsgd1na2vs0mg"},{"bike_id":"2281fca2-d92b-43a2-9dd6-a2c8b331b837","system_id":"levelo_inurba_marseille","lat":43.292644,"lon":5.384257,"is_reserved":false,"is_disabled":false,"rental_uris":{"android":"levelo://app?vid=2281fca2-d92b-43a2-9dd6-a2c8b331b837","ios":"levelo://app?vid=2281fca2-d92b-43a2-9dd6-a2c8b331b837"},"vehicle_type_id":"4","last_reported":1721927248,"current_range_meters":8400,"station_id":"ce4bh692rcd13ifvqea0","pricing_plan_id":"cebpf4jnsgd1na2vs0mg"},{"bike_id":"96cd63b4-3874-4fc1-8210-02d86a9d1657","system_id":"levelo_inurba_marseille","lat":43.29256,"lon":5.38445,"is_reserved":false,"is_disabled":false,"rental_uris":{"android":"levelo://app?vid=96cd63b4-3874-4fc1-8210-02d86a9d1657","ios":"levelo://app?vid=96cd63b4-3874-4fc1-8210-02d86a9d1657"},"vehicle_type_id":"4","last_reported":1721927248,"current_range_meters":0,"station_id":"ce4bh692rcd13ifvqea0","pricing_plan_id":"cebpf4jnsgd1na2vs0mg"},{"bike_id":"e0b9fac0-9099-4492-bfd2-3c2cda198905","system_id":"levelo_inurba_marseille","lat":43.29259,"lon":5.38452,"is_reserved":false,"is_disabled":false,"rental_uris":{"android":"levelo://app?vid=e0b9fac0-9099-4492-bfd2-3c2cda198905","ios":"levelo://app?vid=e0b9fac0-9099-4492-bfd2-3c2cda198905"},"vehicle_type_id":"4","last_reported":1721927248,"current_range_meters":0,"station_id":"ce4bh692rcd13ifvqea0","pricing_plan_id":"cebpf4jnsgd1na2vs0mg"},{"bike_id":"67a7bbe1-0d5d-4c63-8489-c3e4eedcf998","system_id":"levelo_inurba_marseille","lat":43.290103,"lon":5.356114,"is_reserved":false,"is_disabled":false,"rental_uris":{"android":"levelo://app?vid=67a7bbe1-0d5d-4c63-8489-c3e4eedcf998","ios":"levelo://app?vid=67a7bbe1-0d5d-4c63-8489-c3e4eedcf998"},"vehicle_type_id":"4","last_reported":1721927248,"current_range_meters":9200,"station_id":"ce4bhb92rcd13ifvqen0","pricing_plan_id":"cebpf4jnsgd1na2vs0mg"},{"bike_id":"3ae58e38-383a-4380-ac68-41ddc2b9426b","system_id":"levelo_inurba_marseille","lat":43.29006,"lon":5.35624,"is_reserved":false,"is_disabled":false,"rental_uris":{"android":"levelo://app?vid=3ae58e38-383a-4380-ac68-41ddc2b9426b","ios":"levelo://app?vid=3ae58e38-383a-4380-ac68-41ddc2b9426b"},"vehicle_type_id":"4","last_reported":1721927248,"current_range_meters":0,"station_id":"ce4bhb92rcd13ifvqen0","pricing_plan_id":"cebpf4jnsgd1na2vs0mg"},{"bike_id":"01ec1e7f-ff0d-4c1b-b4df-2dd1d4b0680e","system_id":"levelo_inurba_marseille","lat":43.290104,"lon":5.356111,"is_reserved":false,"is_disabled":false,"rental_uris":{"android":"levelo://app?vid=01ec1e7f-ff0d-4c1b-b4df-2dd1d4b0680e","ios":"levelo://app?vid=01ec1e7f-ff0d-4c1b-b4df-2dd1d4b0680e"},"vehicle_type_id":"4","last_reported":1721927248,"current_range_meters":2000,"station_id":"ce4bhb92rcd13ifvqen0","pricing_plan_id":"cebpf4jnsgd1na2vs0mg"},{"bike_id":"68cb3613-24a5-46d7-befa-b8069d5ba738","system_id":"levelo_inurba_marseille","lat":43.290104,"lon":5.356111,"is_reserved":false,"is_disabled":false,"rental_uris":{"android":"levelo://app?vid=68cb3613-24a5-46d7-befa-b8069d5ba738","ios":"levelo://app?vid=68cb3613-24a5-46d7-befa-b8069d5ba738"},"vehicle_type_id":"4","last_reported":1721927248,"current_range_meters":15600,"station_id":"ce4bhb92rcd13ifvqen0","pricing_plan_id":"cebpf4jnsgd1na2vs0mg"},{"bike_id":"259b037b-e115-40b6-9b9f-6ccc29b13825","system_id":"levelo_inurba_marseille","lat":43.290104,"lon":5.356111,"is_reserved":false,"is_disabled":false,"rental_uris":{"android":"levelo://app?vid=259b037b-e115-40b6-9b9f-6ccc29b13825","ios":"levelo://app?vid=259b037b-e115-40b6-9b9f-6ccc29b13825"},"vehicle_type_id":"4","last_reported":1721927248,"current_range_meters":0,"station_id":"ce4bhb92rcd13ifvqen0","pricing_plan_id":"cebpf4jnsgd1na2vs0mg"},{"bike_id":"71a58c80-3480-4f07-aa86-b0156548fce8","system_id":"levelo_inurba_marseille","lat":43.290103,"lon":5.356114,"is_reserved":false,"is_disabled":false,"rental_uris":{"android":"levelo://app?vid=71a58c80-3480-4f07-aa86-b0156548fce8","ios":"levelo://app?vid=71a58c80-3480-4f07-aa86-b0156548fce8"},"vehicle_type_id":"4","last_reported":1721927248,"current_range_meters":18800,"station_id":"ce4bhb92rcd13ifvqen0","pricing_plan_id":"cebpf4jnsgd1na2vs0mg"},{"bike_id":"2d756d2b-7d55-4b3e-b4e5-a09b247526cf","system_id":"levelo_inurba_marseille","lat":43.290995,"lon":5.381361,"is_reserved":false,"is_disabled":false,"rental_uris":{"android":"levelo://app?vid=2d756d2b-7d55-4b3e-b4e5-a09b247526cf","ios":"levelo://app?vid=2d756d2b-7d55-4b3e-b4e5-a09b247526cf"},"vehicle_type_id":"4","last_reported":1721927248,"current_range_meters":0,"station_id":"ce4bh512rcd13ifvqe2g","pricing_plan_id":"cebpf4jnsgd1na2vs0mg"},{"bike_id":"087ba96f-b01e-4dac-99fc-11d80248d729","system_id":"levelo_inurba_marseille","lat":43.289741,"lon":5.378306,"is_reserved":false,"is_disabled":false,"rental_uris":{"android":"levelo://app?vid=087ba96f-b01e-4dac-99fc-11d80248d729","ios":"levelo://app?vid=087ba96f-b01e-4dac-99fc-11d80248d729"},"vehicle_type_id":"4","last_reported":1721927248,"current_range_meters":12400,"station_id":"ce4bh9p2rcd13ifvqed0","pricing_plan_id":"cebpf4jnsgd1na2vs0mg"},{"bike_id":"54da6c1f-e41f-4d61-9491-72c037dace6f","system_id":"levelo_inurba_marseille","lat":43.297815,"lon":5.393548,"is_reserved":false,"is_disabled":false,"rental_uris":{"android":"levelo://app?vid=54da6c1f-e41f-4d61-9491-72c037dace6f","ios":"levelo://app?vid=54da6c1f-e41f-4d61-9491-72c037dace6f"},"vehicle_type_id":"4","last_reported":1721927248,"current_range_meters":2400,"station_id":"chh1huq6cuj3fo74tm60","pricing_plan_id":"cebpf4jnsgd1na2vs0mg"},{"bike_id":"0cc90c3e-0a13-433c-8909-e8dca58d932f","system_id":"levelo_inurba_marseille","lat":43.28988,"lon":5.37833,"is_reserved":false,"is_disabled":false,"rental_uris":{"android":"levelo://app?vid=0cc90c3e-0a13-433c-8909-e8dca58d932f","ios":"levelo://app?vid=0cc90c3e-0a13-433c-8909-e8dca58d932f"},"vehicle_type_id":"4","last_reported":1721927248,"current_range_meters":0,"station_id":"ce4bh9p2rcd13ifvqed0","pricing_plan_id":"cebpf4jnsgd1na2vs0mg"},{"bike_id":"909822e5-e6ce-468b-bbc3-e345609ad7c5","system_id":"levelo_inurba_marseille","lat":43.289743,"lon":5.378304,"is_reserved":false,"is_disabled":false,"rental_uris":{"android":"levelo://app?vid=909822e5-e6ce-468b-bbc3-e345609ad7c5","ios":"levelo://app?vid=909822e5-e6ce-468b-bbc3-e345609ad7c5"},"vehicle_type_id":"4","last_reported":1721927248,"current_range_meters":0,"station_id":"ce4bh9p2rcd13ifvqed0","pricing_plan_id":"cebpf4jnsgd1na2vs0mg"},{"bike_id":"223e42db-3e44-4628-a4fc-3c271ee59b96","system_id":"levelo_inurba_marseille","lat":43.29784,"lon":5.3934,"is_reserved":false,"is_disabled":false,"rental_uris":{"android":"levelo://app?vid=223e42db-3e44-4628-a4fc-3c271ee59b96","ios":"levelo://app?vid=223e42db-3e44-4628-a4fc-3c271ee59b96"},"vehicle_type_id":"4","last_reported":1721927248,"current_range_meters":0,"station_id":"chh1huq6cuj3fo74tm60","pricing_plan_id":"cebpf4jnsgd1na2vs0mg"},{"bike_id":"9b7dc041-d4e3-4e91-871c-5c1ad101907c","system_id":"levelo_inurba_marseille","lat":43.289741,"lon":5.378306,"is_reserved":false,"is_disabled":false,"rental_uris":{"android":"levelo://app?vid=9b7dc041-d4e3-4e91-871c-5c1ad101907c","ios":"levelo://app?vid=9b7dc041-d4e3-4e91-871c-5c1ad101907c"},"vehicle_type_id":"4","last_reported":1721927248,"current_range_meters":27200,"station_id":"ce4bh9p2rcd13ifvqed0","pricing_plan_id":"cebpf4jnsgd1na2vs0mg"},{"bike_id":"9c67b9e8-5a06-4cf3-9541-1b2a12341629","system_id":"levelo_inurba_marseille","lat":43.297807,"lon":5.393533,"is_reserved":false,"is_disabled":false,"rental_uris":{"android":"levelo://app?vid=9c67b9e8-5a06-4cf3-9541-1b2a12341629","ios":"levelo://app?vid=9c67b9e8-5a06-4cf3-9541-1b2a12341629"},"vehicle_type_id":"4","last_reported":1721927248,"current_range_meters":19600,"station_id":"chh1huq6cuj3fo74tm60","pricing_plan_id":"cebpf4jnsgd1na2vs0mg"},{"bike_id":"f978ad5e-7868-4342-bd55-ef5a8551954c","system_id":"levelo_inurba_marseille","lat":43.295169,"lon":5.390426,"is_reserved":false,"is_disabled":false,"rental_uris":{"android":"levelo://app?vid=f978ad5e-7868-4342-bd55-ef5a8551954c","ios":"levelo://app?vid=f978ad5e-7868-4342-bd55-ef5a8551954c"},"vehicle_type_id":"4","last_reported":1721927248,"current_range_meters":26400,"station_id":"ce4bh3p2rcd13ifvqdp0","pricing_plan_id":"cebpf4jnsgd1na2vs0mg"},{"bike_id":"0dbcfc82-0b13-446c-a687-1c742f9651c1","system_id":"levelo_inurba_marseille","lat":43.330442,"lon":5.389148,"is_reserved":false,"is_disabled":false,"rental_uris":{"android":"levelo://app?vid=0dbcfc82-0b13-446c-a687-1c742f9651c1","ios":"levelo://app?vid=0dbcfc82-0b13-446c-a687-1c742f9651c1"},"vehicle_type_id":"4","last_reported":1721927248,"current_range_meters":31200,"station_id":"ce4bhr92rcd13ifvqhrg","pricing_plan_id":"cebpf4jnsgd1na2vs0mg"},{"bike_id":"0d4f93f9-74bf-4342-b394-2c8f67c284bc","system_id":"levelo_inurba_marseille","lat":43.290103,"lon":5.356114,"is_reserved":false,"is_disabled":false,"rental_uris":{"android":"levelo://app?vid=0d4f93f9-74bf-4342-b394-2c8f67c284bc","ios":"levelo://app?vid=0d4f93f9-74bf-4342-b394-2c8f67c284bc"},"vehicle_type_id":"4","last_reported":1721927248,"current_range_meters":18000,"station_id":"ce4bhb92rcd13ifvqen0","pricing_plan_id":"cebpf4jnsgd1na2vs0mg"},{"bike_id":"8e723267-a90a-4fc3-80ff-0a23eb76c178","system_id":"levelo_inurba_marseille","lat":43.290094,"lon":5.381264,"is_reserved":false,"is_disabled":false,"rental_uris":{"android":"levelo://app?vid=8e723267-a90a-4fc3-80ff-0a23eb76c178","ios":"levelo://app?vid=8e723267-a90a-4fc3-80ff-0a23eb76c178"},"vehicle_type_id":"4","last_reported":1721927248,"current_range_meters":0,"station_id":"ce4bh4p2rcd13ifvqe1g","pricing_plan_id":"cebpf4jnsgd1na2vs0mg"},{"bike_id":"c7f5c9ee-9dc5-49e9-9638-0ca0aaf9f43b","system_id":"levelo_inurba_marseille","lat":43.28856,"lon":5.358371,"is_reserved":false,"is_disabled":false,"rental_uris":{"android":"levelo://app?vid=c7f5c9ee-9dc5-49e9-9638-0ca0aaf9f43b","ios":"levelo://app?vid=c7f5c9ee-9dc5-49e9-9638-0ca0aaf9f43b"},"vehicle_type_id":"4","last_reported":1721927248,"current_range_meters":20400,"station_id":"ce4bhb12rcd13ifvqem0","pricing_plan_id":"cebpf4jnsgd1na2vs0mg"},{"bike_id":"ed9dcdcc-4a21-410e-a663-db592b28cb72","system_id":"levelo_inurba_marseille","lat":43.28856,"lon":5.358371,"is_reserved":false,"is_disabled":false,"rental_uris":{"android":"levelo://app?vid=ed9dcdcc-4a21-410e-a663-db592b28cb72","ios":"levelo://app?vid=ed9dcdcc-4a21-410e-a663-db592b28cb72"},"vehicle_type_id":"4","last_reported":1721927248,"current_range_meters":12800,"station_id":"ce4bhb12rcd13ifvqem0","pricing_plan_id":"cebpf4jnsgd1na2vs0mg"},{"bike_id":"05a718c7-d328-47ba-b4f8-33dbbfb1e975","system_id":"levelo_inurba_marseille","lat":43.28856,"lon":5.358371,"is_reserved":false,"is_disabled":false,"rental_uris":{"android":"levelo://app?vid=05a718c7-d328-47ba-b4f8-33dbbfb1e975","ios":"levelo://app?vid=05a718c7-d328-47ba-b4f8-33dbbfb1e975"},"vehicle_type_id":"4","last_reported":1721927248,"current_range_meters":800,"station_id":"ce4bhb12rcd13ifvqem0","pricing_plan_id":"cebpf4jnsgd1na2vs0mg"},{"bike_id":"9b0ef755-6d11-4ea5-bf6d-b6d3ad34802b","system_id":"levelo_inurba_marseille","lat":43.312609,"lon":5.401662,"is_reserved":false,"is_disabled":false,"rental_uris":{"android":"levelo://app?vid=9b0ef755-6d11-4ea5-bf6d-b6d3ad34802b","ios":"levelo://app?vid=9b0ef755-6d11-4ea5-bf6d-b6d3ad34802b"},"vehicle_type_id":"4","last_reported":1721927248,"current_range_meters":400,"station_id":"ce4bh092rcd13ifvqd30","pricing_plan_id":"cebpf4jnsgd1na2vs0mg"},{"bike_id":"11628e1a-6759-4cf0-af67-e502f0dd75a2","system_id":"levelo_inurba_marseille","lat":43.31276,"lon":5.40168,"is_reserved":false,"is_disabled":false,"rental_uris":{"android":"levelo://app?vid=11628e1a-6759-4cf0-af67-e502f0dd75a2","ios":"levelo://app?vid=11628e1a-6759-4cf0-af67-e502f0dd75a2"},"vehicle_type_id":"4","last_reported":1721927248,"current_range_meters":0,"station_id":"ce4bh092rcd13ifvqd30","pricing_plan_id":"cebpf4jnsgd1na2vs0mg"},{"bike_id":"6ce0dc37-40cc-4a92-8af6-862bea8a664c","system_id":"levelo_inurba_marseille","lat":43.309371,"lon":5.401449,"is_reserved":false,"is_disabled":false,"rental_uris":{"android":"levelo://app?vid=6ce0dc37-40cc-4a92-8af6-862bea8a664c","ios":"levelo://app?vid=6ce0dc37-40cc-4a92-8af6-862bea8a664c"},"vehicle_type_id":"4","last_reported":1721927248,"current_range_meters":5200,"station_id":"ce4bgvp2rcd13ifvqct0","pricing_plan_id":"cebpf4jnsgd1na2vs0mg"},{"bike_id":"149ad317-2977-4c2d-b9af-065d2c29d5b4","system_id":"levelo_inurba_marseille","lat":43.287867,"lon":5.373639,"is_reserved":false,"is_disabled":false,"rental_uris":{"android":"levelo://app?vid=149ad317-2977-4c2d-b9af-065d2c29d5b4","ios":"levelo://app?vid=149ad317-2977-4c2d-b9af-065d2c29d5b4"},"vehicle_type_id":"4","last_reported":1721927248,"current_range_meters":27600,"station_id":"","pricing_plan_id":"cebpf4jnsgd1na2vs0mg"},{"bike_id":"0753e7b2-e98f-4d3a-9110-01046f9e14a5","system_id":"levelo_inurba_marseille","lat":43.33755,"lon":5.37436,"is_reserved":false,"is_disabled":false,"rental_uris":{"android":"levelo://app?vid=0753e7b2-e98f-4d3a-9110-01046f9e14a5","ios":"levelo://app?vid=0753e7b2-e98f-4d3a-9110-01046f9e14a5"},"vehicle_type_id":"4","last_reported":1721927248,"current_range_meters":24000,"station_id":"","pricing_plan_id":"cebpf4jnsgd1na2vs0mg"},{"bike_id":"3b0336c9-2e8e-43ea-a09a-ee7cef35d734","system_id":"levelo_inurba_marseille","lat":43.33759,"lon":5.37437,"is_reserved":false,"is_disabled":false,"rental_uris":{"android":"levelo://app?vid=3b0336c9-2e8e-43ea-a09a-ee7cef35d734","ios":"levelo://app?vid=3b0336c9-2e8e-43ea-a09a-ee7cef35d734"},"vehicle_type_id":"4","last_reported":1721927248,"current_range_meters":14800,"station_id":"","pricing_plan_id":"cebpf4jnsgd1na2vs0mg"},{"bike_id":"9a4fc2cd-6e90-499f-b786-8a6cf682a52e","system_id":"levelo_inurba_marseille","lat":43.33761,"lon":5.37429,"is_reserved":false,"is_disabled":false,"rental_uris":{"android":"levelo://app?vid=9a4fc2cd-6e90-499f-b786-8a6cf682a52e","ios":"levelo://app?vid=9a4fc2cd-6e90-499f-b786-8a6cf682a52e"},"vehicle_type_id":"4","last_reported":1721927248,"current_range_meters":20400,"station_id":"","pricing_plan_id":"cebpf4jnsgd1na2vs0mg"},{"bike_id":"2683a0d9-0cf4-467d-ab04-4001d607282f","system_id":"levelo_inurba_marseille","lat":43.33763,"lon":5.37433,"is_reserved":false,"is_disabled":false,"rental_uris":{"android":"levelo://app?vid=2683a0d9-0cf4-467d-ab04-4001d607282f","ios":"levelo://app?vid=2683a0d9-0cf4-467d-ab04-4001d607282f"},"vehicle_type_id":"4","last_reported":1721927248,"current_range_meters":8000,"station_id":"","pricing_plan_id":"cebpf4jnsgd1na2vs0mg"},{"bike_id":"fdcc00ea-974f-4e19-ae62-7476b64790cc","system_id":"levelo_inurba_marseille","lat":43.21194,"lon":5.41774,"is_reserved":false,"is_disabled":false,"rental_uris":{"android":"levelo://app?vid=fdcc00ea-974f-4e19-ae62-7476b64790cc","ios":"levelo://app?vid=fdcc00ea-974f-4e19-ae62-7476b64790cc"},"vehicle_type_id":"4","last_reported":1721927248,"current_range_meters":3600,"station_id":"","pricing_plan_id":"cebpf4jnsgd1na2vs0mg"},{"bike_id":"9f66f613-4e32-4a88-b946-5b3fd4fe853c","system_id":"levelo_inurba_marseille","lat":43.30133,"lon":5.39855,"is_reserved":false,"is_disabled":false,"rental_uris":{"android":"levelo://app?vid=9f66f613-4e32-4a88-b946-5b3fd4fe853c","ios":"levelo://app?vid=9f66f613-4e32-4a88-b946-5b3fd4fe853c"},"vehicle_type_id":"4","last_reported":1721927248,"current_range_meters":0,"station_id":"ce4bh0h2rcd13ifvqd40","pricing_plan_id":"cebpf4jnsgd1na2vs0mg"},{"bike_id":"c43f4f49-f04d-4beb-a3f8-a2b73a3655ea","system_id":"levelo_inurba_marseille","lat":43.33788,"lon":5.37439,"is_reserved":false,"is_disabled":false,"rental_uris":{"android":"levelo://app?vid=c43f4f49-f04d-4beb-a3f8-a2b73a3655ea","ios":"levelo://app?vid=c43f4f49-f04d-4beb-a3f8-a2b73a3655ea"},"vehicle_type_id":"4","last_reported":1721927248,"current_range_meters":24000,"station_id":"","pricing_plan_id":"cebpf4jnsgd1na2vs0mg"},{"bike_id":"44be46dc-a318-4626-a89a-79d0c3da0e47","system_id":"levelo_inurba_marseille","lat":43.28727,"lon":5.36078,"is_reserved":false,"is_disabled":false,"rental_uris":{"android":"levelo://app?vid=44be46dc-a318-4626-a89a-79d0c3da0e47","ios":"levelo://app?vid=44be46dc-a318-4626-a89a-79d0c3da0e47"},"vehicle_type_id":"4","last_reported":1721927248,"current_range_meters":13600,"station_id":"cki0cbj6b192h4jlfktg","pricing_plan_id":"cebpf4jnsgd1na2vs0mg"},{"bike_id":"8cc49dde-fbfa-4098-94bb-72577c809c3a","system_id":"levelo_inurba_marseille","lat":43.28727,"lon":5.36078,"is_reserved":false,"is_disabled":false,"rental_uris":{"android":"levelo://app?vid=8cc49dde-fbfa-4098-94bb-72577c809c3a","ios":"levelo://app?vid=8cc49dde-fbfa-4098-94bb-72577c809c3a"},"vehicle_type_id":"4","last_reported":1721927248,"current_range_meters":23200,"station_id":"cki0cbj6b192h4jlfktg","pricing_plan_id":"cebpf4jnsgd1na2vs0mg"},{"bike_id":"7b4a0006-e69c-4bd1-80d5-e0f3dd807b59","system_id":"levelo_inurba_marseille","lat":43.28727,"lon":5.36078,"is_reserved":false,"is_disabled":false,"rental_uris":{"android":"levelo://app?vid=7b4a0006-e69c-4bd1-80d5-e0f3dd807b59","ios":"levelo://app?vid=7b4a0006-e69c-4bd1-80d5-e0f3dd807b59"},"vehicle_type_id":"4","last_reported":1721927248,"current_range_meters":20000,"station_id":"cki0cbj6b192h4jlfktg","pricing_plan_id":"cebpf4jnsgd1na2vs0mg"},{"bike_id":"3aba063f-da84-4968-ad43-f309087f2415","system_id":"levelo_inurba_marseille","lat":43.28727,"lon":5.36078,"is_reserved":false,"is_disabled":false,"rental_uris":{"android":"levelo://app?vid=3aba063f-da84-4968-ad43-f309087f2415","ios":"levelo://app?vid=3aba063f-da84-4968-ad43-f309087f2415"},"vehicle_type_id":"4","last_reported":1721927248,"current_range_meters":5200,"station_id":"cki0cbj6b192h4jlfktg","pricing_plan_id":"cebpf4jnsgd1na2vs0mg"},{"bike_id":"837a4ee3-3ec7-4ac4-93af-98ad601c6912","system_id":"levelo_inurba_marseille","lat":43.28727,"lon":5.36078,"is_reserved":false,"is_disabled":false,"rental_uris":{"android":"levelo://app?vid=837a4ee3-3ec7-4ac4-93af-98ad601c6912","ios":"levelo://app?vid=837a4ee3-3ec7-4ac4-93af-98ad601c6912"},"vehicle_type_id":"4","last_reported":1721927248,"current_range_meters":1600,"station_id":"cki0cbj6b192h4jlfktg","pricing_plan_id":"cebpf4jnsgd1na2vs0mg"},{"bike_id":"20d1ad6d-4830-4fe6-8071-5844c21becbc","system_id":"levelo_inurba_marseille","lat":43.28727,"lon":5.36078,"is_reserved":false,"is_disabled":false,"rental_uris":{"android":"levelo://app?vid=20d1ad6d-4830-4fe6-8071-5844c21becbc","ios":"levelo://app?vid=20d1ad6d-4830-4fe6-8071-5844c21becbc"},"vehicle_type_id":"4","last_reported":1721927248,"current_range_meters":1600,"station_id":"cki0cbj6b192h4jlfktg","pricing_plan_id":"cebpf4jnsgd1na2vs0mg"},{"bike_id":"4dff1173-64dc-451a-89b7-ca1d36a8a22b","system_id":"levelo_inurba_marseille","lat":43.28727,"lon":5.36078,"is_reserved":false,"is_disabled":false,"rental_uris":{"android":"levelo://app?vid=4dff1173-64dc-451a-89b7-ca1d36a8a22b","ios":"levelo://app?vid=4dff1173-64dc-451a-89b7-ca1d36a8a22b"},"vehicle_type_id":"4","last_reported":1721927248,"current_range_meters":9200,"station_id":"cki0cbj6b192h4jlfktg","pricing_plan_id":"cebpf4jnsgd1na2vs0mg"},{"bike_id":"2dac3164-8f90-4859-8a78-7d975a535493","system_id":"levelo_inurba_marseille","lat":43.28702,"lon":5.37386,"is_reserved":false,"is_disabled":false,"rental_uris":{"android":"levelo://app?vid=2dac3164-8f90-4859-8a78-7d975a535493","ios":"levelo://app?vid=2dac3164-8f90-4859-8a78-7d975a535493"},"vehicle_type_id":"4","last_reported":1721927248,"current_range_meters":0,"station_id":"ce4bh3p2rcd13ifvqdq0","pricing_plan_id":"cebpf4jnsgd1na2vs0mg"},{"bike_id":"2cb77eca-bd2e-4a15-80a8-e9ac9a9aa7a7","system_id":"levelo_inurba_marseille","lat":43.298681,"lon":5.397225,"is_reserved":false,"is_disabled":false,"rental_uris":{"android":"levelo://app?vid=2cb77eca-bd2e-4a15-80a8-e9ac9a9aa7a7","ios":"levelo://app?vid=2cb77eca-bd2e-4a15-80a8-e9ac9a9aa7a7"},"vehicle_type_id":"4","last_reported":1721927248,"current_range_meters":21600,"station_id":"ce4bh0h2rcd13ifvqd50","pricing_plan_id":"cebpf4jnsgd1na2vs0mg"},{"bike_id":"9a8655f8-ffc8-4cd5-a2dc-7525f394c81a","system_id":"levelo_inurba_marseille","lat":43.286593,"lon":5.363346,"is_reserved":false,"is_disabled":false,"rental_uris":{"android":"levelo://app?vid=9a8655f8-ffc8-4cd5-a2dc-7525f394c81a","ios":"levelo://app?vid=9a8655f8-ffc8-4cd5-a2dc-7525f394c81a"},"vehicle_type_id":"4","last_reported":1721927248,"current_range_meters":0,"station_id":"ce4bhah2rcd13ifvqej0","pricing_plan_id":"cebpf4jnsgd1na2vs0mg"},{"bike_id":"0bf0298e-5dd5-4333-a9f9-19df2c324cd6","system_id":"levelo_inurba_marseille","lat":43.286961,"lon":5.373785,"is_reserved":false,"is_disabled":false,"rental_uris":{"android":"levelo://app?vid=0bf0298e-5dd5-4333-a9f9-19df2c324cd6","ios":"levelo://app?vid=0bf0298e-5dd5-4333-a9f9-19df2c324cd6"},"vehicle_type_id":"4","last_reported":1721927248,"current_range_meters":0,"station_id":"ce4bh3p2rcd13ifvqdq0","pricing_plan_id":"cebpf4jnsgd1na2vs0mg"},{"bike_id":"fecd86aa-6d3f-4656-a902-17e822471fa1","system_id":"levelo_inurba_marseille","lat":43.289307,"lon":5.38406,"is_reserved":false,"is_disabled":false,"rental_uris":{"android":"levelo://app?vid=fecd86aa-6d3f-4656-a902-17e822471fa1","ios":"levelo://app?vid=fecd86aa-6d3f-4656-a902-17e822471fa1"},"vehicle_type_id":"4","last_reported":1721927248,"current_range_meters":18000,"station_id":"ce4bh612rcd13ifvqe6g","pricing_plan_id":"cebpf4jnsgd1na2vs0mg"},{"bike_id":"8c3abbf6-0280-44de-a9b2-757ba4f6d923","system_id":"levelo_inurba_marseille","lat":43.290336,"lon":5.386425,"is_reserved":false,"is_disabled":false,"rental_uris":{"android":"levelo://app?vid=8c3abbf6-0280-44de-a9b2-757ba4f6d923","ios":"levelo://app?vid=8c3abbf6-0280-44de-a9b2-757ba4f6d923"},"vehicle_type_id":"4","last_reported":1721927248,"current_range_meters":21600,"station_id":"ce4bh4p2rcd13ifvqe0g","pricing_plan_id":"cebpf4jnsgd1na2vs0mg"},{"bike_id":"be6981e1-708e-4e27-8d5d-d08c9e340714","system_id":"levelo_inurba_marseille","lat":43.29031,"lon":5.38642,"is_reserved":false,"is_disabled":false,"rental_uris":{"android":"levelo://app?vid=be6981e1-708e-4e27-8d5d-d08c9e340714","ios":"levelo://app?vid=be6981e1-708e-4e27-8d5d-d08c9e340714"},"vehicle_type_id":"4","last_reported":1721927248,"current_range_meters":0,"station_id":"ce4bh4p2rcd13ifvqe0g","pricing_plan_id":"cebpf4jnsgd1na2vs0mg"},{"bike_id":"16a6d0b8-1aba-44c7-bb0a-3e60ca46f0db","system_id":"levelo_inurba_marseille","lat":43.290336,"lon":5.386425,"is_reserved":false,"is_disabled":false,"rental_uris":{"android":"levelo://app?vid=16a6d0b8-1aba-44c7-bb0a-3e60ca46f0db","ios":"levelo://app?vid=16a6d0b8-1aba-44c7-bb0a-3e60ca46f0db"},"vehicle_type_id":"4","last_reported":1721927248,"current_range_meters":0,"station_id":"ce4bh4p2rcd13ifvqe0g","pricing_plan_id":"cebpf4jnsgd1na2vs0mg"},{"bike_id":"fd913183-a63a-4180-8902-0114b015ae74","system_id":"levelo_inurba_marseille","lat":43.290336,"lon":5.386425,"is_reserved":false,"is_disabled":false,"rental_uris":{"android":"levelo://app?vid=fd913183-a63a-4180-8902-0114b015ae74","ios":"levelo://app?vid=fd913183-a63a-4180-8902-0114b015ae74"},"vehicle_type_id":"4","last_reported":1721927248,"current_range_meters":800,"station_id":"ce4bh4p2rcd13ifvqe0g","pricing_plan_id":"cebpf4jnsgd1na2vs0mg"},{"bike_id":"86a38e28-4245-4c16-a5ae-80f92f852d7b","system_id":"levelo_inurba_marseille","lat":43.302759,"lon":5.400793,"is_reserved":false,"is_disabled":false,"rental_uris":{"android":"levelo://app?vid=86a38e28-4245-4c16-a5ae-80f92f852d7b","ios":"levelo://app?vid=86a38e28-4245-4c16-a5ae-80f92f852d7b"},"vehicle_type_id":"4","last_reported":1721927248,"current_range_meters":19600,"station_id":"ce4bgvh2rcd13ifvqcs0","pricing_plan_id":"cebpf4jnsgd1na2vs0mg"},{"bike_id":"aa143e9d-2a3e-4722-9647-890d3e870864","system_id":"levelo_inurba_marseille","lat":43.289307,"lon":5.38406,"is_reserved":false,"is_disabled":false,"rental_uris":{"android":"levelo://app?vid=aa143e9d-2a3e-4722-9647-890d3e870864","ios":"levelo://app?vid=aa143e9d-2a3e-4722-9647-890d3e870864"},"vehicle_type_id":"4","last_reported":1721927248,"current_range_meters":20800,"station_id":"ce4bh612rcd13ifvqe6g","pricing_plan_id":"cebpf4jnsgd1na2vs0mg"},{"bike_id":"e8425b50-5b3a-4512-893f-6dfb8198ed95","system_id":"levelo_inurba_marseille","lat":43.286039,"lon":5.370679,"is_reserved":false,"is_disabled":false,"rental_uris":{"android":"levelo://app?vid=e8425b50-5b3a-4512-893f-6dfb8198ed95","ios":"levelo://app?vid=e8425b50-5b3a-4512-893f-6dfb8198ed95"},"vehicle_type_id":"4","last_reported":1721927248,"current_range_meters":31200,"station_id":"ce4bht12rcd13ifvqi60","pricing_plan_id":"cebpf4jnsgd1na2vs0mg"},{"bike_id":"213809c4-9eef-485b-81e3-163739bc1b92","system_id":"levelo_inurba_marseille","lat":43.286039,"lon":5.370679,"is_reserved":false,"is_disabled":false,"rental_uris":{"android":"levelo://app?vid=213809c4-9eef-485b-81e3-163739bc1b92","ios":"levelo://app?vid=213809c4-9eef-485b-81e3-163739bc1b92"},"vehicle_type_id":"4","last_reported":1721927248,"current_range_meters":9200,"station_id":"ce4bht12rcd13ifvqi60","pricing_plan_id":"cebpf4jnsgd1na2vs0mg"},{"bike_id":"088ecab4-b8c0-47f8-8c33-8a1559aecb35","system_id":"levelo_inurba_marseille","lat":43.316821,"lon":5.404737,"is_reserved":false,"is_disabled":false,"rental_uris":{"android":"levelo://app?vid=088ecab4-b8c0-47f8-8c33-8a1559aecb35","ios":"levelo://app?vid=088ecab4-b8c0-47f8-8c33-8a1559aecb35"},"vehicle_type_id":"4","last_reported":1721927248,"current_range_meters":3600,"station_id":"ce4bh012rcd13ifvqd00","pricing_plan_id":"cebpf4jnsgd1na2vs0mg"},{"bike_id":"03d15f7d-404c-48ef-b77f-1cc2ee1131c6","system_id":"levelo_inurba_marseille","lat":43.316821,"lon":5.404737,"is_reserved":false,"is_disabled":false,"rental_uris":{"android":"levelo://app?vid=03d15f7d-404c-48ef-b77f-1cc2ee1131c6","ios":"levelo://app?vid=03d15f7d-404c-48ef-b77f-1cc2ee1131c6"},"vehicle_type_id":"4","last_reported":1721927248,"current_range_meters":2400,"station_id":"ce4bh012rcd13ifvqd00","pricing_plan_id":"cebpf4jnsgd1na2vs0mg"},{"bike_id":"342b5e45-5801-4c4c-ab7b-c4b3e161cd11","system_id":"levelo_inurba_marseille","lat":43.29198,"lon":5.39328,"is_reserved":false,"is_disabled":false,"rental_uris":{"android":"levelo://app?vid=342b5e45-5801-4c4c-ab7b-c4b3e161cd11","ios":"levelo://app?vid=342b5e45-5801-4c4c-ab7b-c4b3e161cd11"},"vehicle_type_id":"4","last_reported":1721927248,"current_range_meters":0,"station_id":"ce4bh192rcd13ifvqdd0","pricing_plan_id":"cebpf4jnsgd1na2vs0mg"},{"bike_id":"f68abc0e-a5c4-46f0-9daf-b655ca633f9f","system_id":"levelo_inurba_marseille","lat":43.294314,"lon":5.397498,"is_reserved":false,"is_disabled":false,"rental_uris":{"android":"levelo://app?vid=f68abc0e-a5c4-46f0-9daf-b655ca633f9f","ios":"levelo://app?vid=f68abc0e-a5c4-46f0-9daf-b655ca633f9f"},"vehicle_type_id":"4","last_reported":1721927248,"current_range_meters":3600,"station_id":"ce4bh3h2rcd13ifvqdo0","pricing_plan_id":"cebpf4jnsgd1na2vs0mg"},{"bike_id":"7f341628-5965-410b-b34e-11a7fb35ff8e","system_id":"levelo_inurba_marseille","lat":43.28624,"lon":5.35105,"is_reserved":false,"is_disabled":false,"rental_uris":{"android":"levelo://app?vid=7f341628-5965-410b-b34e-11a7fb35ff8e","ios":"levelo://app?vid=7f341628-5965-410b-b34e-11a7fb35ff8e"},"vehicle_type_id":"4","last_reported":1721927248,"current_range_meters":14800,"station_id":"ce4bhch2rcd13ifvqeug","pricing_plan_id":"cebpf4jnsgd1na2vs0mg"},{"bike_id":"baf27a1c-4257-4017-9a78-e03720d5e23c","system_id":"levelo_inurba_marseille","lat":43.28621,"lon":5.35109,"is_reserved":false,"is_disabled":false,"rental_uris":{"android":"levelo://app?vid=baf27a1c-4257-4017-9a78-e03720d5e23c","ios":"levelo://app?vid=baf27a1c-4257-4017-9a78-e03720d5e23c"},"vehicle_type_id":"4","last_reported":1721927248,"current_range_meters":31200,"station_id":"ce4bhch2rcd13ifvqeug","pricing_plan_id":"cebpf4jnsgd1na2vs0mg"},{"bike_id":"f43a0541-55ed-4a9a-a5e1-4a85494f017b","system_id":"levelo_inurba_marseille","lat":43.28621,"lon":5.35107,"is_reserved":false,"is_disabled":false,"rental_uris":{"android":"levelo://app?vid=f43a0541-55ed-4a9a-a5e1-4a85494f017b","ios":"levelo://app?vid=f43a0541-55ed-4a9a-a5e1-4a85494f017b"},"vehicle_type_id":"4","last_reported":1721927248,"current_range_meters":31200,"station_id":"ce4bhch2rcd13ifvqeug","pricing_plan_id":"cebpf4jnsgd1na2vs0mg"},{"bike_id":"1c292994-818e-4238-ac2d-85afe6dfa2ca","system_id":"levelo_inurba_marseille","lat":43.2862,"lon":5.35107,"is_reserved":false,"is_disabled":false,"rental_uris":{"android":"levelo://app?vid=1c292994-818e-4238-ac2d-85afe6dfa2ca","ios":"levelo://app?vid=1c292994-818e-4238-ac2d-85afe6dfa2ca"},"vehicle_type_id":"4","last_reported":1721927248,"current_range_meters":10000,"station_id":"ce4bhch2rcd13ifvqeug","pricing_plan_id":"cebpf4jnsgd1na2vs0mg"},{"bike_id":"50cf9037-6707-4bab-8bb9-1eb7828dd18b","system_id":"levelo_inurba_marseille","lat":43.28618,"lon":5.35111,"is_reserved":false,"is_disabled":false,"rental_uris":{"android":"levelo://app?vid=50cf9037-6707-4bab-8bb9-1eb7828dd18b","ios":"levelo://app?vid=50cf9037-6707-4bab-8bb9-1eb7828dd18b"},"vehicle_type_id":"4","last_reported":1721927248,"current_range_meters":14800,"station_id":"ce4bhch2rcd13ifvqeug","pricing_plan_id":"cebpf4jnsgd1na2vs0mg"},{"bike_id":"4f22c34d-ed34-458f-bd6d-906c53a6e928","system_id":"levelo_inurba_marseille","lat":43.28619,"lon":5.35107,"is_reserved":false,"is_disabled":false,"rental_uris":{"android":"levelo://app?vid=4f22c34d-ed34-458f-bd6d-906c53a6e928","ios":"levelo://app?vid=4f22c34d-ed34-458f-bd6d-906c53a6e928"},"vehicle_type_id":"4","last_reported":1721927248,"current_range_meters":12800,"station_id":"ce4bhch2rcd13ifvqeug","pricing_plan_id":"cebpf4jnsgd1na2vs0mg"},{"bike_id":"782381f0-f3b4-469b-bd80-50005d81a7ea","system_id":"levelo_inurba_marseille","lat":43.28619,"lon":5.35107,"is_reserved":false,"is_disabled":false,"rental_uris":{"android":"levelo://app?vid=782381f0-f3b4-469b-bd80-50005d81a7ea","ios":"levelo://app?vid=782381f0-f3b4-469b-bd80-50005d81a7ea"},"vehicle_type_id":"4","last_reported":1721927248,"current_range_meters":22800,"station_id":"ce4bhch2rcd13ifvqeug","pricing_plan_id":"cebpf4jnsgd1na2vs0mg"},{"bike_id":"d5073623-00db-4f1a-8b76-28754798b75a","system_id":"levelo_inurba_marseille","lat":43.28619,"lon":5.35106,"is_reserved":false,"is_disabled":false,"rental_uris":{"android":"levelo://app?vid=d5073623-00db-4f1a-8b76-28754798b75a","ios":"levelo://app?vid=d5073623-00db-4f1a-8b76-28754798b75a"},"vehicle_type_id":"4","last_reported":1721927248,"current_range_meters":14000,"station_id":"ce4bhch2rcd13ifvqeug","pricing_plan_id":"cebpf4jnsgd1na2vs0mg"},{"bike_id":"bfb66df4-b0b7-43f5-9c78-b7941e1c6db1","system_id":"levelo_inurba_marseille","lat":43.285856,"lon":5.350771,"is_reserved":false,"is_disabled":false,"rental_uris":{"android":"levelo://app?vid=bfb66df4-b0b7-43f5-9c78-b7941e1c6db1","ios":"levelo://app?vid=bfb66df4-b0b7-43f5-9c78-b7941e1c6db1"},"vehicle_type_id":"4","last_reported":1721927248,"current_range_meters":24400,"station_id":"ce4bhch2rcd13ifvqeug","pricing_plan_id":"cebpf4jnsgd1na2vs0mg"},{"bike_id":"376507f8-e83b-496a-b3b4-45f769ff891b","system_id":"levelo_inurba_marseille","lat":43.286177,"lon":5.351096,"is_reserved":false,"is_disabled":false,"rental_uris":{"android":"levelo://app?vid=376507f8-e83b-496a-b3b4-45f769ff891b","ios":"levelo://app?vid=376507f8-e83b-496a-b3b4-45f769ff891b"},"vehicle_type_id":"4","last_reported":1721927248,"current_range_meters":9200,"station_id":"ce4bhch2rcd13ifvqeug","pricing_plan_id":"cebpf4jnsgd1na2vs0mg"},{"bike_id":"d8e92c0d-fb54-4219-b0a9-c9c728323ce2","system_id":"levelo_inurba_marseille","lat":43.28619,"lon":5.35105,"is_reserved":false,"is_disabled":false,"rental_uris":{"android":"levelo://app?vid=d8e92c0d-fb54-4219-b0a9-c9c728323ce2","ios":"levelo://app?vid=d8e92c0d-fb54-4219-b0a9-c9c728323ce2"},"vehicle_type_id":"4","last_reported":1721927248,"current_range_meters":31200,"station_id":"ce4bhch2rcd13ifvqeug","pricing_plan_id":"cebpf4jnsgd1na2vs0mg"},{"bike_id":"525a6546-143c-48ce-9a95-7a8e039bec44","system_id":"levelo_inurba_marseille","lat":43.28619,"lon":5.35104,"is_reserved":false,"is_disabled":false,"rental_uris":{"android":"levelo://app?vid=525a6546-143c-48ce-9a95-7a8e039bec44","ios":"levelo://app?vid=525a6546-143c-48ce-9a95-7a8e039bec44"},"vehicle_type_id":"4","last_reported":1721927248,"current_range_meters":23200,"station_id":"ce4bhch2rcd13ifvqeug","pricing_plan_id":"cebpf4jnsgd1na2vs0mg"},{"bike_id":"6d7c93ba-e70f-46cc-b585-5e808f890a16","system_id":"levelo_inurba_marseille","lat":43.28619,"lon":5.35103,"is_reserved":false,"is_disabled":false,"rental_uris":{"android":"levelo://app?vid=6d7c93ba-e70f-46cc-b585-5e808f890a16","ios":"levelo://app?vid=6d7c93ba-e70f-46cc-b585-5e808f890a16"},"vehicle_type_id":"4","last_reported":1721927248,"current_range_meters":0,"station_id":"ce4bhch2rcd13ifvqeug","pricing_plan_id":"cebpf4jnsgd1na2vs0mg"},{"bike_id":"fcb67040-4a1b-4e0c-bf1e-536e55106c7a","system_id":"levelo_inurba_marseille","lat":43.28619,"lon":5.35102,"is_reserved":false,"is_disabled":false,"rental_uris":{"android":"levelo://app?vid=fcb67040-4a1b-4e0c-bf1e-536e55106c7a","ios":"levelo://app?vid=fcb67040-4a1b-4e0c-bf1e-536e55106c7a"},"vehicle_type_id":"4","last_reported":1721927248,"current_range_meters":21200,"station_id":"ce4bhch2rcd13ifvqeug","pricing_plan_id":"cebpf4jnsgd1na2vs0mg"},{"bike_id":"15bb5bd6-a798-432e-9416-10d4dc55a522","system_id":"levelo_inurba_marseille","lat":43.28619,"lon":5.351,"is_reserved":false,"is_disabled":false,"rental_uris":{"android":"levelo://app?vid=15bb5bd6-a798-432e-9416-10d4dc55a522","ios":"levelo://app?vid=15bb5bd6-a798-432e-9416-10d4dc55a522"},"vehicle_type_id":"4","last_reported":1721927248,"current_range_meters":16000,"station_id":"ce4bhch2rcd13ifvqeug","pricing_plan_id":"cebpf4jnsgd1na2vs0mg"},{"bike_id":"8eb72a86-56fd-4167-a656-ba99ae70b9cb","system_id":"levelo_inurba_marseille","lat":43.28617,"lon":5.35106,"is_reserved":false,"is_disabled":false,"rental_uris":{"android":"levelo://app?vid=8eb72a86-56fd-4167-a656-ba99ae70b9cb","ios":"levelo://app?vid=8eb72a86-56fd-4167-a656-ba99ae70b9cb"},"vehicle_type_id":"4","last_reported":1721927248,"current_range_meters":18400,"station_id":"ce4bhch2rcd13ifvqeug","pricing_plan_id":"cebpf4jnsgd1na2vs0mg"},{"bike_id":"d088dc9b-508b-4c89-b69e-1e9e6bc75be5","system_id":"levelo_inurba_marseille","lat":43.28616,"lon":5.35108,"is_reserved":false,"is_disabled":false,"rental_uris":{"android":"levelo://app?vid=d088dc9b-508b-4c89-b69e-1e9e6bc75be5","ios":"levelo://app?vid=d088dc9b-508b-4c89-b69e-1e9e6bc75be5"},"vehicle_type_id":"4","last_reported":1721927248,"current_range_meters":9600,"station_id":"ce4bhch2rcd13ifvqeug","pricing_plan_id":"cebpf4jnsgd1na2vs0mg"},{"bike_id":"0b9f1fc2-7810-427d-8d6e-c1d0061bc1e5","system_id":"levelo_inurba_marseille","lat":43.28618,"lon":5.35101,"is_reserved":false,"is_disabled":false,"rental_uris":{"android":"levelo://app?vid=0b9f1fc2-7810-427d-8d6e-c1d0061bc1e5","ios":"levelo://app?vid=0b9f1fc2-7810-427d-8d6e-c1d0061bc1e5"},"vehicle_type_id":"4","last_reported":1721927248,"current_range_meters":2800,"station_id":"ce4bhch2rcd13ifvqeug","pricing_plan_id":"cebpf4jnsgd1na2vs0mg"},{"bike_id":"93f87298-51ff-4c54-a369-d38a5af36ed0","system_id":"levelo_inurba_marseille","lat":43.28618,"lon":5.35099,"is_reserved":false,"is_disabled":false,"rental_uris":{"android":"levelo://app?vid=93f87298-51ff-4c54-a369-d38a5af36ed0","ios":"levelo://app?vid=93f87298-51ff-4c54-a369-d38a5af36ed0"},"vehicle_type_id":"4","last_reported":1721927248,"current_range_meters":30400,"station_id":"ce4bhch2rcd13ifvqeug","pricing_plan_id":"cebpf4jnsgd1na2vs0mg"},{"bike_id":"c3e8840f-e782-464a-8891-680136d38927","system_id":"levelo_inurba_marseille","lat":43.285848,"lon":5.350787,"is_reserved":false,"is_disabled":false,"rental_uris":{"android":"levelo://app?vid=c3e8840f-e782-464a-8891-680136d38927","ios":"levelo://app?vid=c3e8840f-e782-464a-8891-680136d38927"},"vehicle_type_id":"4","last_reported":1721927248,"current_range_meters":8400,"station_id":"ce4bhch2rcd13ifvqeug","pricing_plan_id":"cebpf4jnsgd1na2vs0mg"},{"bike_id":"26008f8d-cac6-46de-af77-16cce6428ec5","system_id":"levelo_inurba_marseille","lat":43.28614,"lon":5.35105,"is_reserved":false,"is_disabled":false,"rental_uris":{"android":"levelo://app?vid=26008f8d-cac6-46de-af77-16cce6428ec5","ios":"levelo://app?vid=26008f8d-cac6-46de-af77-16cce6428ec5"},"vehicle_type_id":"4","last_reported":1721927248,"current_range_meters":0,"station_id":"ce4bhch2rcd13ifvqeug","pricing_plan_id":"cebpf4jnsgd1na2vs0mg"},{"bike_id":"7212787e-c1dd-401c-b51b-fc539f19f1d8","system_id":"levelo_inurba_marseille","lat":43.28614,"lon":5.35103,"is_reserved":false,"is_disabled":false,"rental_uris":{"android":"levelo://app?vid=7212787e-c1dd-401c-b51b-fc539f19f1d8","ios":"levelo://app?vid=7212787e-c1dd-401c-b51b-fc539f19f1d8"},"vehicle_type_id":"4","last_reported":1721927248,"current_range_meters":3200,"station_id":"ce4bhch2rcd13ifvqeug","pricing_plan_id":"cebpf4jnsgd1na2vs0mg"},{"bike_id":"09bf8fc1-a590-428f-85f7-423af9384306","system_id":"levelo_inurba_marseille","lat":43.286105,"lon":5.351136,"is_reserved":false,"is_disabled":false,"rental_uris":{"android":"levelo://app?vid=09bf8fc1-a590-428f-85f7-423af9384306","ios":"levelo://app?vid=09bf8fc1-a590-428f-85f7-423af9384306"},"vehicle_type_id":"4","last_reported":1721927248,"current_range_meters":0,"station_id":"ce4bhgp2rcd13ifvqfc0","pricing_plan_id":"cebpf4jnsgd1na2vs0mg"},{"bike_id":"bde0a76d-3c42-4c12-9f3e-4cf5d9955be1","system_id":"levelo_inurba_marseille","lat":43.28615,"lon":5.35099,"is_reserved":false,"is_disabled":false,"rental_uris":{"android":"levelo://app?vid=bde0a76d-3c42-4c12-9f3e-4cf5d9955be1","ios":"levelo://app?vid=bde0a76d-3c42-4c12-9f3e-4cf5d9955be1"},"vehicle_type_id":"4","last_reported":1721927248,"current_range_meters":800,"station_id":"ce4bhch2rcd13ifvqeug","pricing_plan_id":"cebpf4jnsgd1na2vs0mg"},{"bike_id":"5e6a2ad2-43a6-4197-9d40-5b170bc29bdb","system_id":"levelo_inurba_marseille","lat":43.28614,"lon":5.35102,"is_reserved":false,"is_disabled":false,"rental_uris":{"android":"levelo://app?vid=5e6a2ad2-43a6-4197-9d40-5b170bc29bdb","ios":"levelo://app?vid=5e6a2ad2-43a6-4197-9d40-5b170bc29bdb"},"vehicle_type_id":"4","last_reported":1721927248,"current_range_meters":20400,"station_id":"ce4bhch2rcd13ifvqeug","pricing_plan_id":"cebpf4jnsgd1na2vs0mg"},{"bike_id":"8f2863ef-e6eb-4d91-b9b8-fb5a123def84","system_id":"levelo_inurba_marseille","lat":43.28613,"lon":5.35105,"is_reserved":false,"is_disabled":false,"rental_uris":{"android":"levelo://app?vid=8f2863ef-e6eb-4d91-b9b8-fb5a123def84","ios":"levelo://app?vid=8f2863ef-e6eb-4d91-b9b8-fb5a123def84"},"vehicle_type_id":"4","last_reported":1721927248,"current_range_meters":17200,"station_id":"ce4bhch2rcd13ifvqeug","pricing_plan_id":"cebpf4jnsgd1na2vs0mg"},{"bike_id":"ed8b6e34-13d0-4283-b2c2-e17e26b77529","system_id":"levelo_inurba_marseille","lat":43.28615,"lon":5.35097,"is_reserved":false,"is_disabled":false,"rental_uris":{"android":"levelo://app?vid=ed8b6e34-13d0-4283-b2c2-e17e26b77529","ios":"levelo://app?vid=ed8b6e34-13d0-4283-b2c2-e17e26b77529"},"vehicle_type_id":"4","last_reported":1721927248,"current_range_meters":29200,"station_id":"ce4bhch2rcd13ifvqeug","pricing_plan_id":"cebpf4jnsgd1na2vs0mg"},{"bike_id":"17b1ec3a-7059-481d-aacb-a3a1798d1ce7","system_id":"levelo_inurba_marseille","lat":43.28613,"lon":5.351,"is_reserved":false,"is_disabled":false,"rental_uris":{"android":"levelo://app?vid=17b1ec3a-7059-481d-aacb-a3a1798d1ce7","ios":"levelo://app?vid=17b1ec3a-7059-481d-aacb-a3a1798d1ce7"},"vehicle_type_id":"4","last_reported":1721927248,"current_range_meters":30000,"station_id":"ce4bhch2rcd13ifvqeug","pricing_plan_id":"cebpf4jnsgd1na2vs0mg"},{"bike_id":"d3c30d35-5656-47a6-8777-04885cb1f9c8","system_id":"levelo_inurba_marseille","lat":43.28611,"lon":5.35103,"is_reserved":false,"is_disabled":false,"rental_uris":{"android":"levelo://app?vid=d3c30d35-5656-47a6-8777-04885cb1f9c8","ios":"levelo://app?vid=d3c30d35-5656-47a6-8777-04885cb1f9c8"},"vehicle_type_id":"4","last_reported":1721927248,"current_range_meters":25600,"station_id":"ce4bhch2rcd13ifvqeug","pricing_plan_id":"cebpf4jnsgd1na2vs0mg"},{"bike_id":"7418894c-92c7-48b6-b227-5be879d34ddf","system_id":"levelo_inurba_marseille","lat":43.2861,"lon":5.35102,"is_reserved":false,"is_disabled":false,"rental_uris":{"android":"levelo://app?vid=7418894c-92c7-48b6-b227-5be879d34ddf","ios":"levelo://app?vid=7418894c-92c7-48b6-b227-5be879d34ddf"},"vehicle_type_id":"4","last_reported":1721927248,"current_range_meters":9200,"station_id":"ce4bhch2rcd13ifvqeug","pricing_plan_id":"cebpf4jnsgd1na2vs0mg"},{"bike_id":"668aa9d2-e3bf-408a-b567-a24bd69f623e","system_id":"levelo_inurba_marseille","lat":43.283998,"lon":5.375062,"is_reserved":false,"is_disabled":false,"rental_uris":{"android":"levelo://app?vid=668aa9d2-e3bf-408a-b567-a24bd69f623e","ios":"levelo://app?vid=668aa9d2-e3bf-408a-b567-a24bd69f623e"},"vehicle_type_id":"4","last_reported":1721927248,"current_range_meters":5200,"station_id":"ce4bh412rcd13ifvqds0","pricing_plan_id":"cebpf4jnsgd1na2vs0mg"},{"bike_id":"d673307e-84f5-4e4a-b787-0e850eeb0c0e","system_id":"levelo_inurba_marseille","lat":43.295755,"lon":5.399753,"is_reserved":false,"is_disabled":false,"rental_uris":{"android":"levelo://app?vid=d673307e-84f5-4e4a-b787-0e850eeb0c0e","ios":"levelo://app?vid=d673307e-84f5-4e4a-b787-0e850eeb0c0e"},"vehicle_type_id":"4","last_reported":1721927248,"current_range_meters":0,"station_id":"ce4bh312rcd13ifvqdj0","pricing_plan_id":"cebpf4jnsgd1na2vs0mg"},{"bike_id":"513df6f4-06f2-485b-bfeb-40f7250b71f3","system_id":"levelo_inurba_marseille","lat":43.295713,"lon":5.399639,"is_reserved":false,"is_disabled":false,"rental_uris":{"android":"levelo://app?vid=513df6f4-06f2-485b-bfeb-40f7250b71f3","ios":"levelo://app?vid=513df6f4-06f2-485b-bfeb-40f7250b71f3"},"vehicle_type_id":"4","last_reported":1721927248,"current_range_meters":2400,"station_id":"ce4bh312rcd13ifvqdj0","pricing_plan_id":"cebpf4jnsgd1na2vs0mg"},{"bike_id":"7a77a844-7f67-4700-a05b-4eff51dcc08d","system_id":"levelo_inurba_marseille","lat":43.295713,"lon":5.399639,"is_reserved":false,"is_disabled":false,"rental_uris":{"android":"levelo://app?vid=7a77a844-7f67-4700-a05b-4eff51dcc08d","ios":"levelo://app?vid=7a77a844-7f67-4700-a05b-4eff51dcc08d"},"vehicle_type_id":"4","last_reported":1721927248,"current_range_meters":400,"station_id":"ce4bh312rcd13ifvqdj0","pricing_plan_id":"cebpf4jnsgd1na2vs0mg"},{"bike_id":"7b9fc8a6-5281-4074-b367-95760fb21c6d","system_id":"levelo_inurba_marseille","lat":43.28668,"lon":5.38668,"is_reserved":false,"is_disabled":false,"rental_uris":{"android":"levelo://app?vid=7b9fc8a6-5281-4074-b367-95760fb21c6d","ios":"levelo://app?vid=7b9fc8a6-5281-4074-b367-95760fb21c6d"},"vehicle_type_id":"4","last_reported":1721927248,"current_range_meters":0,"station_id":"ce4bh492rcd13ifvqdug","pricing_plan_id":"cebpf4jnsgd1na2vs0mg"},{"bike_id":"b30916fc-dc01-4ade-afcb-c1a0d04e30ab","system_id":"levelo_inurba_marseille","lat":43.323464,"lon":5.406297,"is_reserved":false,"is_disabled":false,"rental_uris":{"android":"levelo://app?vid=b30916fc-dc01-4ade-afcb-c1a0d04e30ab","ios":"levelo://app?vid=b30916fc-dc01-4ade-afcb-c1a0d04e30ab"},"vehicle_type_id":"4","last_reported":1721927248,"current_range_meters":15600,"station_id":"ce4bhq92rcd13ifvqhjg","pricing_plan_id":"cebpf4jnsgd1na2vs0mg"},{"bike_id":"657f37ce-de74-479a-a45f-d1263a77f960","system_id":"levelo_inurba_marseille","lat":43.33729,"lon":5.39184,"is_reserved":false,"is_disabled":false,"rental_uris":{"android":"levelo://app?vid=657f37ce-de74-479a-a45f-d1263a77f960","ios":"levelo://app?vid=657f37ce-de74-479a-a45f-d1263a77f960"},"vehicle_type_id":"4","last_reported":1721927248,"current_range_meters":28400,"station_id":"ce4bhr92rcd13ifvqhsg","pricing_plan_id":"cebpf4jnsgd1na2vs0mg"},{"bike_id":"5a316060-938f-4e00-b2b6-841ec6656765","system_id":"levelo_inurba_marseille","lat":43.323464,"lon":5.406297,"is_reserved":false,"is_disabled":false,"rental_uris":{"android":"levelo://app?vid=5a316060-938f-4e00-b2b6-841ec6656765","ios":"levelo://app?vid=5a316060-938f-4e00-b2b6-841ec6656765"},"vehicle_type_id":"4","last_reported":1721927248,"current_range_meters":18400,"station_id":"ce4bhq92rcd13ifvqhjg","pricing_plan_id":"cebpf4jnsgd1na2vs0mg"},{"bike_id":"73bd4a1d-e3dc-439f-8ca8-5bee70aed885","system_id":"levelo_inurba_marseille","lat":43.33717,"lon":5.391857,"is_reserved":false,"is_disabled":false,"rental_uris":{"android":"levelo://app?vid=73bd4a1d-e3dc-439f-8ca8-5bee70aed885","ios":"levelo://app?vid=73bd4a1d-e3dc-439f-8ca8-5bee70aed885"},"vehicle_type_id":"4","last_reported":1721927248,"current_range_meters":24000,"station_id":"ce4bhr92rcd13ifvqhsg","pricing_plan_id":"cebpf4jnsgd1na2vs0mg"},{"bike_id":"3ab8709a-8c1c-4e22-ad8e-7899a2d8ea87","system_id":"levelo_inurba_marseille","lat":43.297946,"lon":5.404063,"is_reserved":false,"is_disabled":false,"rental_uris":{"android":"levelo://app?vid=3ab8709a-8c1c-4e22-ad8e-7899a2d8ea87","ios":"levelo://app?vid=3ab8709a-8c1c-4e22-ad8e-7899a2d8ea87"},"vehicle_type_id":"4","last_reported":1721927248,"current_range_meters":3600,"station_id":"ce4bh112rcd13ifvqd90","pricing_plan_id":"cebpf4jnsgd1na2vs0mg"},{"bike_id":"cca32635-f63e-4d31-badf-fb65f222e452","system_id":"levelo_inurba_marseille","lat":43.28862,"lon":5.39316,"is_reserved":false,"is_disabled":false,"rental_uris":{"android":"levelo://app?vid=cca32635-f63e-4d31-badf-fb65f222e452","ios":"levelo://app?vid=cca32635-f63e-4d31-badf-fb65f222e452"},"vehicle_type_id":"4","last_reported":1721927248,"current_range_meters":0,"station_id":"ce4bh2p2rcd13ifvqdi0","pricing_plan_id":"cebpf4jnsgd1na2vs0mg"},{"bike_id":"eba57366-90b3-42dc-9c60-24e38435d829","system_id":"levelo_inurba_marseille","lat":43.28431,"lon":5.3498,"is_reserved":false,"is_disabled":false,"rental_uris":{"android":"levelo://app?vid=eba57366-90b3-42dc-9c60-24e38435d829","ios":"levelo://app?vid=eba57366-90b3-42dc-9c60-24e38435d829"},"vehicle_type_id":"4","last_reported":1721927248,"current_range_meters":18800,"station_id":"ce4bhbh2rcd13ifvqepg","pricing_plan_id":"cebpf4jnsgd1na2vs0mg"},{"bike_id":"d0b06101-bdfb-4409-aede-c6c70ccc8c46","system_id":"levelo_inurba_marseille","lat":43.28428,"lon":5.34987,"is_reserved":false,"is_disabled":false,"rental_uris":{"android":"levelo://app?vid=d0b06101-bdfb-4409-aede-c6c70ccc8c46","ios":"levelo://app?vid=d0b06101-bdfb-4409-aede-c6c70ccc8c46"},"vehicle_type_id":"4","last_reported":1721927248,"current_range_meters":28400,"station_id":"ce4bhbh2rcd13ifvqepg","pricing_plan_id":"cebpf4jnsgd1na2vs0mg"},{"bike_id":"e6f7a545-65f6-45e7-a842-5dc92ed42df2","system_id":"levelo_inurba_marseille","lat":43.28428,"lon":5.34987,"is_reserved":false,"is_disabled":false,"rental_uris":{"android":"levelo://app?vid=e6f7a545-65f6-45e7-a842-5dc92ed42df2","ios":"levelo://app?vid=e6f7a545-65f6-45e7-a842-5dc92ed42df2"},"vehicle_type_id":"4","last_reported":1721927248,"current_range_meters":23600,"station_id":"ce4bhbh2rcd13ifvqepg","pricing_plan_id":"cebpf4jnsgd1na2vs0mg"},{"bike_id":"edab4ec2-0d96-41e5-87eb-feb81c416760","system_id":"levelo_inurba_marseille","lat":43.284262,"lon":5.349916,"is_reserved":false,"is_disabled":false,"rental_uris":{"android":"levelo://app?vid=edab4ec2-0d96-41e5-87eb-feb81c416760","ios":"levelo://app?vid=edab4ec2-0d96-41e5-87eb-feb81c416760"},"vehicle_type_id":"4","last_reported":1721927248,"current_range_meters":16000,"station_id":"ce4bhbh2rcd13ifvqepg","pricing_plan_id":"cebpf4jnsgd1na2vs0mg"},{"bike_id":"237c1c62-72a8-415d-9475-9bf637d3cb1a","system_id":"levelo_inurba_marseille","lat":43.28424,"lon":5.34997,"is_reserved":false,"is_disabled":false,"rental_uris":{"android":"levelo://app?vid=237c1c62-72a8-415d-9475-9bf637d3cb1a","ios":"levelo://app?vid=237c1c62-72a8-415d-9475-9bf637d3cb1a"},"vehicle_type_id":"4","last_reported":1721927248,"current_range_meters":30800,"station_id":"ce4bhbh2rcd13ifvqepg","pricing_plan_id":"cebpf4jnsgd1na2vs0mg"},{"bike_id":"4de214ea-05c3-43c3-9e15-ee06efb25229","system_id":"levelo_inurba_marseille","lat":43.28428,"lon":5.34984,"is_reserved":false,"is_disabled":false,"rental_uris":{"android":"levelo://app?vid=4de214ea-05c3-43c3-9e15-ee06efb25229","ios":"levelo://app?vid=4de214ea-05c3-43c3-9e15-ee06efb25229"},"vehicle_type_id":"4","last_reported":1721927248,"current_range_meters":4800,"station_id":"ce4bhbh2rcd13ifvqepg","pricing_plan_id":"cebpf4jnsgd1na2vs0mg"},{"bike_id":"e4c1928f-0fc2-4348-980c-346857767eaa","system_id":"levelo_inurba_marseille","lat":43.284244,"lon":5.349914,"is_reserved":false,"is_disabled":false,"rental_uris":{"android":"levelo://app?vid=e4c1928f-0fc2-4348-980c-346857767eaa","ios":"levelo://app?vid=e4c1928f-0fc2-4348-980c-346857767eaa"},"vehicle_type_id":"4","last_reported":1721927248,"current_range_meters":9200,"station_id":"ce4bhbh2rcd13ifvqepg","pricing_plan_id":"cebpf4jnsgd1na2vs0mg"},{"bike_id":"e11f32cc-afdc-4c6a-9ad1-5eedc825b15d","system_id":"levelo_inurba_marseille","lat":43.28423,"lon":5.34994,"is_reserved":false,"is_disabled":false,"rental_uris":{"android":"levelo://app?vid=e11f32cc-afdc-4c6a-9ad1-5eedc825b15d","ios":"levelo://app?vid=e11f32cc-afdc-4c6a-9ad1-5eedc825b15d"},"vehicle_type_id":"4","last_reported":1721927248,"current_range_meters":4400,"station_id":"ce4bhbh2rcd13ifvqepg","pricing_plan_id":"cebpf4jnsgd1na2vs0mg"},{"bike_id":"807bea52-b401-4e55-ae67-2eb0f55a9b2e","system_id":"levelo_inurba_marseille","lat":43.284247,"lon":5.349882,"is_reserved":false,"is_disabled":false,"rental_uris":{"android":"levelo://app?vid=807bea52-b401-4e55-ae67-2eb0f55a9b2e","ios":"levelo://app?vid=807bea52-b401-4e55-ae67-2eb0f55a9b2e"},"vehicle_type_id":"4","last_reported":1721927248,"current_range_meters":10400,"station_id":"ce4bhbh2rcd13ifvqepg","pricing_plan_id":"cebpf4jnsgd1na2vs0mg"},{"bike_id":"50dfb4ab-8439-46f0-bc7a-03da6c48a588","system_id":"levelo_inurba_marseille","lat":43.28422,"lon":5.34995,"is_reserved":false,"is_disabled":false,"rental_uris":{"android":"levelo://app?vid=50dfb4ab-8439-46f0-bc7a-03da6c48a588","ios":"levelo://app?vid=50dfb4ab-8439-46f0-bc7a-03da6c48a588"},"vehicle_type_id":"4","last_reported":1721927248,"current_range_meters":14400,"station_id":"ce4bhbh2rcd13ifvqepg","pricing_plan_id":"cebpf4jnsgd1na2vs0mg"},{"bike_id":"8309e126-57f3-4393-bbf8-29f61a6330c9","system_id":"levelo_inurba_marseille","lat":43.28422,"lon":5.34992,"is_reserved":false,"is_disabled":false,"rental_uris":{"android":"levelo://app?vid=8309e126-57f3-4393-bbf8-29f61a6330c9","ios":"levelo://app?vid=8309e126-57f3-4393-bbf8-29f61a6330c9"},"vehicle_type_id":"4","last_reported":1721927248,"current_range_meters":9200,"station_id":"ce4bhbh2rcd13ifvqepg","pricing_plan_id":"cebpf4jnsgd1na2vs0mg"},{"bike_id":"49b9d9c8-ecba-4867-a0bb-0ceb52979b81","system_id":"levelo_inurba_marseille","lat":43.284259,"lon":5.349796,"is_reserved":false,"is_disabled":false,"rental_uris":{"android":"levelo://app?vid=49b9d9c8-ecba-4867-a0bb-0ceb52979b81","ios":"levelo://app?vid=49b9d9c8-ecba-4867-a0bb-0ceb52979b81"},"vehicle_type_id":"4","last_reported":1721927248,"current_range_meters":29600,"station_id":"ce4bhbh2rcd13ifvqepg","pricing_plan_id":"cebpf4jnsgd1na2vs0mg"},{"bike_id":"19e7a952-0879-426e-9608-140b99f65ec9","system_id":"levelo_inurba_marseille","lat":43.28427,"lon":5.34976,"is_reserved":false,"is_disabled":false,"rental_uris":{"android":"levelo://app?vid=19e7a952-0879-426e-9608-140b99f65ec9","ios":"levelo://app?vid=19e7a952-0879-426e-9608-140b99f65ec9"},"vehicle_type_id":"4","last_reported":1721927248,"current_range_meters":12800,"station_id":"ce4bhbh2rcd13ifvqepg","pricing_plan_id":"cebpf4jnsgd1na2vs0mg"},{"bike_id":"e73fa89f-6e16-415a-8f78-2ad045c62412","system_id":"levelo_inurba_marseille","lat":43.28424,"lon":5.34985,"is_reserved":false,"is_disabled":false,"rental_uris":{"android":"levelo://app?vid=e73fa89f-6e16-415a-8f78-2ad045c62412","ios":"levelo://app?vid=e73fa89f-6e16-415a-8f78-2ad045c62412"},"vehicle_type_id":"4","last_reported":1721927248,"current_range_meters":7200,"station_id":"ce4bhbh2rcd13ifvqepg","pricing_plan_id":"cebpf4jnsgd1na2vs0mg"},{"bike_id":"183184dd-f4b1-4300-b5b1-251ed2a696ce","system_id":"levelo_inurba_marseille","lat":43.28424,"lon":5.34984,"is_reserved":false,"is_disabled":false,"rental_uris":{"android":"levelo://app?vid=183184dd-f4b1-4300-b5b1-251ed2a696ce","ios":"levelo://app?vid=183184dd-f4b1-4300-b5b1-251ed2a696ce"},"vehicle_type_id":"4","last_reported":1721927248,"current_range_meters":13200,"station_id":"ce4bhbh2rcd13ifvqepg","pricing_plan_id":"cebpf4jnsgd1na2vs0mg"},{"bike_id":"ddccdbd0-3dc1-4efa-b6cd-2e27890203c1","system_id":"levelo_inurba_marseille","lat":43.28421,"lon":5.34992,"is_reserved":false,"is_disabled":false,"rental_uris":{"android":"levelo://app?vid=ddccdbd0-3dc1-4efa-b6cd-2e27890203c1","ios":"levelo://app?vid=ddccdbd0-3dc1-4efa-b6cd-2e27890203c1"},"vehicle_type_id":"4","last_reported":1721927248,"current_range_meters":28000,"station_id":"ce4bhbh2rcd13ifvqepg","pricing_plan_id":"cebpf4jnsgd1na2vs0mg"},{"bike_id":"98e0d3de-0c1b-4872-8738-e575e902d36f","system_id":"levelo_inurba_marseille","lat":43.28421,"lon":5.34991,"is_reserved":false,"is_disabled":false,"rental_uris":{"android":"levelo://app?vid=98e0d3de-0c1b-4872-8738-e575e902d36f","ios":"levelo://app?vid=98e0d3de-0c1b-4872-8738-e575e902d36f"},"vehicle_type_id":"4","last_reported":1721927248,"current_range_meters":24800,"station_id":"ce4bhbh2rcd13ifvqepg","pricing_plan_id":"cebpf4jnsgd1na2vs0mg"},{"bike_id":"abda737e-79b0-48d3-b265-9c2af900d3db","system_id":"levelo_inurba_marseille","lat":43.284211,"lon":5.349908,"is_reserved":false,"is_disabled":false,"rental_uris":{"android":"levelo://app?vid=abda737e-79b0-48d3-b265-9c2af900d3db","ios":"levelo://app?vid=abda737e-79b0-48d3-b265-9c2af900d3db"},"vehicle_type_id":"4","last_reported":1721927248,"current_range_meters":31200,"station_id":"ce4bhbh2rcd13ifvqepg","pricing_plan_id":"cebpf4jnsgd1na2vs0mg"},{"bike_id":"20f8e325-ba9e-47b2-b3dc-4a191a62de87","system_id":"levelo_inurba_marseille","lat":43.284213,"lon":5.349899,"is_reserved":false,"is_disabled":false,"rental_uris":{"android":"levelo://app?vid=20f8e325-ba9e-47b2-b3dc-4a191a62de87","ios":"levelo://app?vid=20f8e325-ba9e-47b2-b3dc-4a191a62de87"},"vehicle_type_id":"4","last_reported":1721927248,"current_range_meters":31200,"station_id":"ce4bhbh2rcd13ifvqepg","pricing_plan_id":"cebpf4jnsgd1na2vs0mg"},