{"last_updated":1741932831,"ttl":60,"version":"2.2","data":{"bikes":[{"bike_id":"eabb6b0c-9939-42bf-968f-dc61fc77f9d9","system_id":"levelo_inurba_marseille","lat":43.27995,"lon":5.3658,"is_reserved":false,"is_disabled":false,"rental_uris":{"android":"levelo://app?vid=eabb6b0c-9939-42bf-968f-dc61fc77f9d9","ios":"levelo://app?vid=eabb6b0c-9939-42bf-968f-dc61fc77f9d9"},"vehicle_type_id":"4","last_reported":1741932831,"current_range_meters":2800,"station_id":"","pricing_plan_id":"cebpf4jnsgd1na2vs0mg"},{"bike_id":"1716b85c-267a-4799-b270-e74eb7172ede","system_id":"levelo_inurba_marseille","lat":43.28027,"lon":5.36944,"is_reserved":false,"is_disabled":false,"rental_uris":{"android":"levelo://app?vid=1716b85c-267a-4799-b270-e74eb7172ede","ios":"levelo://app?vid=1716b85c-267a-4799-b270-e74eb7172ede"},"vehicle_type_id":"4","last_reported":1741932831,"current_range_meters":2800,"station_id":"ce4bha12rcd13ifvqef0","pricing_plan_id":"cebpf4jnsgd1na2vs0mg"},{"bike_id":"3a6f4a08-7097-425e-ba9b-503eb294df3b","system_id":"levelo_inurba_marseille","lat":43.27804,"lon":5.40734,"is_reserved":false,"is_disabled":true,"rental_uris":{"android":"levelo://app?vid=3a6f4a08-7097-425e-ba9b-503eb294df3b","ios":"levelo://app?vid=3a6f4a08-7097-425e-ba9b-503eb294df3b"},"vehicle_type_id":"4","last_reported":1741932831,"current_range_meters":3200,"station_id":"ce4bhnh2rcd13ifvqgtg","pricing_plan_id":"cebpf4jnsgd1na2vs0mg"},{"bike_id":"a1865482-901a-461f-bbbf-89cc5aaa4978","system_id":"levelo_inurba_marseille","lat":43.31241,"lon":5.37862,"is_reserved":false,"is_disabled":false,"rental_uris":{"android":"levelo://app?vid=a1865482-901a-461f-bbbf-89cc5aaa4978","ios":"levelo://app?vid=a1865482-901a-461f-bbbf-89cc5aaa4978"},"vehicle_type_id":"4","last_reported":1741932831,"current_range_meters":3600,"station_id":"","pricing_plan_id":"cebpf4jnsgd1na2vs0mg"},{"bike_id":"0e1454f0-c501-449b-b78c-ddfc8f4d9aab","system_id":"levelo_inurba_marseille","lat":43.33768,"lon":5.3749,"is_reserved":false,"is_disabled":false,"rental_uris":{"android":"levelo://app?vid=0e1454f0-c501-449b-b78c-ddfc8f4d9aab","ios":"levelo://app?vid=0e1454f0-c501-449b-b78c-ddfc8f4d9aab"},"vehicle_type_id":"4","last_reported":1741932831,"current_range_meters":3600,"station_id":"","pricing_plan_id":"cebpf4jnsgd1na2vs0mg"},{"bike_id":"a72cf16a-6a30-42fd-ab49-950071c074f6","system_id":"levelo_inurba_marseille","lat":43.257192,"lon":5.411099,"is_reserved":false,"is_disabled":false,"rental_uris":{"android":"levelo://app?vid=a72cf16a-6a30-42fd-ab49-950071c074f6","ios":"levelo://app?vid=a72cf16a-6a30-42fd-ab49-950071c074f6"},"vehicle_type_id":"4","last_reported":1741932831,"current_range_meters":4000,"station_id":"ce4bhkp2rcd13ifvqgd0","pricing_plan_id":"cebpf4jnsgd1na2vs0mg"},{"bike_id":"4cb8f842-136a-4433-88e0-08e50ae949b5","system_id":"levelo_inurba_marseille","lat":43.27816,"lon":5.40733,"is_reserved":false,"is_disabled":false,"rental_uris":{"android":"levelo://app?vid=4cb8f842-136a-4433-88e0-08e50ae949b5","ios":"levelo://app?vid=4cb8f842-136a-4433-88e0-08e50ae949b5"},"vehicle_type_id":"4","last_reported":1741932831,"current_range_meters":4000,"station_id":"ce4bhnh2rcd13ifvqgtg","pricing_plan_id":"cebpf4jnsgd1na2vs0mg"},{"bike_id":"7f97dab3-6641-4c6a-9b12-3940cae11793","system_id":"levelo_inurba_marseille","lat":43.25009,"lon":5.38924,"is_reserved":false,"is_disabled":false,"rental_uris":{"android":"levelo://app?vid=7f97dab3-6641-4c6a-9b12-3940cae11793","ios":"levelo://app?vid=7f97dab3-6641-4c6a-9b12-3940cae11793"},"vehicle_type_id":"4","last_reported":1741932831,"current_range_meters":4400,"station_id":"ce4bhgp2rcd13ifvqfd0","pricing_plan_id":"cebpf4jnsgd1na2vs0mg"},{"bike_id":"2fe54254-5b11-4939-bb74-6fb31c1295ea","system_id":"levelo_inurba_marseille","lat":43.229323,"lon":5.353764,"is_reserved":false,"is_disabled":false,"rental_uris":{"android":"levelo://app?vid=2fe54254-5b11-4939-bb74-6fb31c1295ea","ios":"levelo://app?vid=2fe54254-5b11-4939-bb74-6fb31c1295ea"},"vehicle_type_id":"4","last_reported":1741932831,"current_range_meters":4400,"station_id":"cpo3532slgdg3j2ikp40","pricing_plan_id":"cebpf4jnsgd1na2vs0mg"},{"bike_id":"8ca720cf-8cc7-4201-a29c-e07b0ffda00a","system_id":"levelo_inurba_marseille","lat":43.23198,"lon":5.39997,"is_reserved":false,"is_disabled":false,"rental_uris":{"android":"levelo://app?vid=8ca720cf-8cc7-4201-a29c-e07b0ffda00a","ios":"levelo://app?vid=8ca720cf-8cc7-4201-a29c-e07b0ffda00a"},"vehicle_type_id":"4","last_reported":1741932831,"current_range_meters":4400,"station_id":"ce4bhn12rcd13ifvqgqg","pricing_plan_id":"cebpf4jnsgd1na2vs0mg"},{"bike_id":"d5ae4600-476e-4c8a-b248-76c73ec9f040","system_id":"levelo_inurba_marseille","lat":43.25008,"lon":5.3892,"is_reserved":false,"is_disabled":false,"rental_uris":{"android":"levelo://app?vid=d5ae4600-476e-4c8a-b248-76c73ec9f040","ios":"levelo://app?vid=d5ae4600-476e-4c8a-b248-76c73ec9f040"},"vehicle_type_id":"4","last_reported":1741932831,"current_range_meters":4800,"station_id":"ce4bhgp2rcd13ifvqfd0","pricing_plan_id":"cebpf4jnsgd1na2vs0mg"},{"bike_id":"7e2efce6-2abc-47be-8e98-d015769ebdaa","system_id":"levelo_inurba_marseille","lat":43.274285,"lon":5.418723,"is_reserved":false,"is_disabled":false,"rental_uris":{"android":"levelo://app?vid=7e2efce6-2abc-47be-8e98-d015769ebdaa","ios":"levelo://app?vid=7e2efce6-2abc-47be-8e98-d015769ebdaa"},"vehicle_type_id":"4","last_reported":1741932831,"current_range_meters":4800,"station_id":"","pricing_plan_id":"cebpf4jnsgd1na2vs0mg"},{"bike_id":"9e1237c1-208f-4b0d-9e05-70106fcb9362","system_id":"levelo_inurba_marseille","lat":43.28413,"lon":5.3754,"is_reserved":false,"is_disabled":false,"rental_uris":{"android":"levelo://app?vid=9e1237c1-208f-4b0d-9e05-70106fcb9362","ios":"levelo://app?vid=9e1237c1-208f-4b0d-9e05-70106fcb9362"},"vehicle_type_id":"4","last_reported":1741932831,"current_range_meters":4800,"station_id":"ce4bh412rcd13ifvqds0","pricing_plan_id":"cebpf4jnsgd1na2vs0mg"},{"bike_id":"d6fc2cf1-5cbe-480c-bbbf-1166b9131bf7","system_id":"levelo_inurba_marseille","lat":43.27994,"lon":5.41669,"is_reserved":false,"is_disabled":false,"rental_uris":{"android":"levelo://app?vid=d6fc2cf1-5cbe-480c-bbbf-1166b9131bf7","ios":"levelo://app?vid=d6fc2cf1-5cbe-480c-bbbf-1166b9131bf7"},"vehicle_type_id":"4","last_reported":1741932831,"current_range_meters":4800,"station_id":"ce4bho12rcd13ifvqh1g","pricing_plan_id":"cebpf4jnsgd1na2vs0mg"},{"bike_id":"99ecfabd-1a26-4876-ac5c-4502db90408a","system_id":"levelo_inurba_marseille","lat":43.3047,"lon":5.37908,"is_reserved":false,"is_disabled":false,"rental_uris":{"android":"levelo://app?vid=99ecfabd-1a26-4876-ac5c-4502db90408a","ios":"levelo://app?vid=99ecfabd-1a26-4876-ac5c-4502db90408a"},"vehicle_type_id":"4","last_reported":1741932831,"current_range_meters":4800,"station_id":"ce4bgup2rcd13ifvqcn0","pricing_plan_id":"cebpf4jnsgd1na2vs0mg"},{"bike_id":"d7cf3da4-03cf-4eae-b183-47670a6b872f","system_id":"levelo_inurba_marseille","lat":43.2319,"lon":5.35567,"is_reserved":false,"is_disabled":false,"rental_uris":{"android":"levelo://app?vid=d7cf3da4-03cf-4eae-b183-47670a6b872f","ios":"levelo://app?vid=d7cf3da4-03cf-4eae-b183-47670a6b872f"},"vehicle_type_id":"4","last_reported":1741932831,"current_range_meters":6000,"station_id":"ce4bhu92rcd13ifvqi70","pricing_plan_id":"cebpf4jnsgd1na2vs0mg"},{"bike_id":"ccde3be1-4144-427e-acc2-fed605e4915f","system_id":"levelo_inurba_marseille","lat":43.281041,"lon":5.39847,"is_reserved":false,"is_disabled":false,"rental_uris":{"android":"levelo://app?vid=ccde3be1-4144-427e-acc2-fed605e4915f","ios":"levelo://app?vid=ccde3be1-4144-427e-acc2-fed605e4915f"},"vehicle_type_id":"4","last_reported":1741932831,"current_range_meters":6000,"station_id":"","pricing_plan_id":"cebpf4jnsgd1na2vs0mg"},{"bike_id":"931a65f6-98be-4189-b167-a49aeaf4dc43","system_id":"levelo_inurba_marseille","lat":43.25,"lon":5.38924,"is_reserved":false,"is_disabled":false,"rental_uris":{"android":"levelo://app?vid=931a65f6-98be-4189-b167-a49aeaf4dc43","ios":"levelo://app?vid=931a65f6-98be-4189-b167-a49aeaf4dc43"},"vehicle_type_id":"4","last_reported":1741932831,"current_range_meters":6000,"station_id":"ce4bhgp2rcd13ifvqfd0","pricing_plan_id":"cebpf4jnsgd1na2vs0mg"},{"bike_id":"3674c64e-3a28-4e86-8ab2-f27f7050deb8","system_id":"levelo_inurba_marseille","lat":43.28698,"lon":5.37929,"is_reserved":false,"is_disabled":false,"rental_uris":{"android":"levelo://app?vid=3674c64e-3a28-4e86-8ab2-f27f7050deb8","ios":"levelo://app?vid=3674c64e-3a28-4e86-8ab2-f27f7050deb8"},"vehicle_type_id":"4","last_reported":1741932831,"current_range_meters":6000,"station_id":"ce4bh9p2rcd13ifvqec0","pricing_plan_id":"cebpf4jnsgd1na2vs0mg"},{"bike_id":"56ebe466-b342-4e8c-9a0e-3406b8d2db2c","system_id":"levelo_inurba_marseille","lat":43.27988,"lon":5.40042,"is_reserved":false,"is_disabled":false,"rental_uris":{"android":"levelo://app?vid=56ebe466-b342-4e8c-9a0e-3406b8d2db2c","ios":"levelo://app?vid=56ebe466-b342-4e8c-9a0e-3406b8d2db2c"},"vehicle_type_id":"4","last_reported":1741932831,"current_range_meters":6400,"station_id":"ce4bho92rcd13ifvqh4g","pricing_plan_id":"cebpf4jnsgd1na2vs0mg"},{"bike_id":"7ebfb57f-258a-4c22-9402-1f9f24559070","system_id":"levelo_inurba_marseille","lat":43.257163,"lon":5.411109,"is_reserved":false,"is_disabled":false,"rental_uris":{"android":"levelo://app?vid=7ebfb57f-258a-4c22-9402-1f9f24559070","ios":"levelo://app?vid=7ebfb57f-258a-4c22-9402-1f9f24559070"},"vehicle_type_id":"4","last_reported":1741932831,"current_range_meters":6400,"station_id":"ce4bhkp2rcd13ifvqgd0","pricing_plan_id":"cebpf4jnsgd1na2vs0mg"},{"bike_id":"bbe3b04a-4a72-4f38-8422-b6f8f79a7093","system_id":"levelo_inurba_marseille","lat":43.325454,"lon":5.410124,"is_reserved":false,"is_disabled":false,"rental_uris":{"android":"levelo://app?vid=bbe3b04a-4a72-4f38-8422-b6f8f79a7093","ios":"levelo://app?vid=bbe3b04a-4a72-4f38-8422-b6f8f79a7093"},"vehicle_type_id":"4","last_reported":1741932831,"current_range_meters":6400,"station_id":"","pricing_plan_id":"cebpf4jnsgd1na2vs0mg"},{"bike_id":"088a4bb0-9b25-47e9-9fd1-337287ee4e2c","system_id":"levelo_inurba_marseille","lat":43.28727,"lon":5.36089,"is_reserved":false,"is_disabled":false,"rental_uris":{"android":"levelo://app?vid=088a4bb0-9b25-47e9-9fd1-337287ee4e2c","ios":"levelo://app?vid=088a4bb0-9b25-47e9-9fd1-337287ee4e2c"},"vehicle_type_id":"4","last_reported":1741932831,"current_range_meters":6400,"station_id":"cki0cbj6b192h4jlfktg","pricing_plan_id":"cebpf4jnsgd1na2vs0mg"},{"bike_id":"0f161917-d8c5-4841-b64b-7e226665578c","system_id":"levelo_inurba_marseille","lat":43.251206,"lon":5.403198,"is_reserved":false,"is_disabled":false,"rental_uris":{"android":"levelo://app?vid=0f161917-d8c5-4841-b64b-7e226665578c","ios":"levelo://app?vid=0f161917-d8c5-4841-b64b-7e226665578c"},"vehicle_type_id":"4","last_reported":1741932831,"current_range_meters":6400,"station_id":"ce4bhlh2rcd13ifvqgig","pricing_plan_id":"cebpf4jnsgd1na2vs0mg"},{"bike_id":"a4acc583-7b24-4665-929d-fada161a91f7","system_id":"levelo_inurba_marseille","lat":43.29482,"lon":5.44448,"is_reserved":false,"is_disabled":false,"rental_uris":{"android":"levelo://app?vid=a4acc583-7b24-4665-929d-fada161a91f7","ios":"levelo://app?vid=a4acc583-7b24-4665-929d-fada161a91f7"},"vehicle_type_id":"4","last_reported":1741932831,"current_range_meters":6400,"station_id":"","pricing_plan_id":"cebpf4jnsgd1na2vs0mg"},{"bike_id":"db7198b7-4986-487c-848f-b6fa2eea4556","system_id":"levelo_inurba_marseille","lat":43.31987,"lon":5.38166,"is_reserved":false,"is_disabled":false,"rental_uris":{"android":"levelo://app?vid=db7198b7-4986-487c-848f-b6fa2eea4556","ios":"levelo://app?vid=db7198b7-4986-487c-848f-b6fa2eea4556"},"vehicle_type_id":"4","last_reported":1741932831,"current_range_meters":6400,"station_id":"ce4bhr12rcd13ifvqhpg","pricing_plan_id":"cebpf4jnsgd1na2vs0mg"},{"bike_id":"f7b33571-a21f-4f2b-a89d-a47450e1c052","system_id":"levelo_inurba_marseille","lat":43.27937,"lon":5.41067,"is_reserved":false,"is_disabled":false,"rental_uris":{"android":"levelo://app?vid=f7b33571-a21f-4f2b-a89d-a47450e1c052","ios":"levelo://app?vid=f7b33571-a21f-4f2b-a89d-a47450e1c052"},"vehicle_type_id":"4","last_reported":1741932831,"current_range_meters":6400,"station_id":"ce4bhnp2rcd13ifvqh0g","pricing_plan_id":"cebpf4jnsgd1na2vs0mg"},{"bike_id":"d0f37a2d-5920-4a00-ab9e-56f97581bf07","system_id":"levelo_inurba_marseille","lat":43.27815,"lon":5.40728,"is_reserved":false,"is_disabled":false,"rental_uris":{"android":"levelo://app?vid=d0f37a2d-5920-4a00-ab9e-56f97581bf07","ios":"levelo://app?vid=d0f37a2d-5920-4a00-ab9e-56f97581bf07"},"vehicle_type_id":"4","last_reported":1741932831,"current_range_meters":6800,"station_id":"ce4bhnh2rcd13ifvqgtg","pricing_plan_id":"cebpf4jnsgd1na2vs0mg"},{"bike_id":"1d9a5003-f7eb-451d-80d5-0a02826709a5","system_id":"levelo_inurba_marseille","lat":43.30584,"lon":5.37241,"is_reserved":false,"is_disabled":true,"rental_uris":{"android":"levelo://app?vid=1d9a5003-f7eb-451d-80d5-0a02826709a5","ios":"levelo://app?vid=1d9a5003-f7eb-451d-80d5-0a02826709a5"},"vehicle_type_id":"4","last_reported":1741932831,"current_range_meters":6800,"station_id":"ce4bgqh2rcd13ifvqc4g","pricing_plan_id":"cebpf4jnsgd1na2vs0mg"},{"bike_id":"cd62f0b0-e712-4ed8-b222-8e7cb2c87e1b","system_id":"levelo_inurba_marseille","lat":43.23581,"lon":5.40358,"is_reserved":false,"is_disabled":false,"rental_uris":{"android":"levelo://app?vid=cd62f0b0-e712-4ed8-b222-8e7cb2c87e1b","ios":"levelo://app?vid=cd62f0b0-e712-4ed8-b222-8e7cb2c87e1b"},"vehicle_type_id":"4","last_reported":1741932831,"current_range_meters":6800,"station_id":"","pricing_plan_id":"cebpf4jnsgd1na2vs0mg"},{"bike_id":"1bc48551-0c9e-4efb-8959-86401b55df78","system_id":"levelo_inurba_marseille","lat":43.33096,"lon":5.37989,"is_reserved":false,"is_disabled":false,"rental_uris":{"android":"levelo://app?vid=1bc48551-0c9e-4efb-8959-86401b55df78","ios":"levelo://app?vid=1bc48551-0c9e-4efb-8959-86401b55df78"},"vehicle_type_id":"4","last_reported":1741932831,"current_range_meters":6800,"station_id":"","pricing_plan_id":"cebpf4jnsgd1na2vs0mg"},{"bike_id":"fe2dbfad-2b3c-45be-b26a-7ab6c0dcbc97","system_id":"levelo_inurba_marseille","lat":43.30148,"lon":5.37679,"is_reserved":false,"is_disabled":false,"rental_uris":{"android":"levelo://app?vid=fe2dbfad-2b3c-45be-b26a-7ab6c0dcbc97","ios":"levelo://app?vid=fe2dbfad-2b3c-45be-b26a-7ab6c0dcbc97"},"vehicle_type_id":"4","last_reported":1741932831,"current_range_meters":6800,"station_id":"","pricing_plan_id":"cebpf4jnsgd1na2vs0mg"},{"bike_id":"7a5158c5-a332-40d9-b718-72571efee9d7","system_id":"levelo_inurba_marseille","lat":43.2811,"lon":5.44605,"is_reserved":false,"is_disabled":false,"rental_uris":{"android":"levelo://app?vid=7a5158c5-a332-40d9-b718-72571efee9d7","ios":"levelo://app?vid=7a5158c5-a332-40d9-b718-72571efee9d7"},"vehicle_type_id":"4","last_reported":1741932831,"current_range_meters":7200,"station_id":"","pricing_plan_id":"cebpf4jnsgd1na2vs0mg"},{"bike_id":"8b280ae3-41fc-4032-96f1-8905fd5fbf6d","system_id":"levelo_inurba_marseille","lat":43.26203,"lon":5.37454,"is_reserved":false,"is_disabled":false,"rental_uris":{"android":"levelo://app?vid=8b280ae3-41fc-4032-96f1-8905fd5fbf6d","ios":"levelo://app?vid=8b280ae3-41fc-4032-96f1-8905fd5fbf6d"},"vehicle_type_id":"4","last_reported":1741932831,"current_range_meters":7200,"station_id":"ce4bhgp2rcd13ifvqfc0","pricing_plan_id":"cebpf4jnsgd1na2vs0mg"},{"bike_id":"b363f8b8-2518-47c4-9880-4e754d1b57c8","system_id":"levelo_inurba_marseille","lat":43.309228,"lon":5.401398,"is_reserved":false,"is_disabled":false,"rental_uris":{"android":"levelo://app?vid=b363f8b8-2518-47c4-9880-4e754d1b57c8","ios":"levelo://app?vid=b363f8b8-2518-47c4-9880-4e754d1b57c8"},"vehicle_type_id":"4","last_reported":1741932831,"current_range_meters":7200,"station_id":"ce4bgvp2rcd13ifvqct0","pricing_plan_id":"cebpf4jnsgd1na2vs0mg"},{"bike_id":"7e68ab91-64b1-4ca8-90d6-c2d2040b8729","system_id":"levelo_inurba_marseille","lat":43.23186,"lon":5.39995,"is_reserved":false,"is_disabled":false,"rental_uris":{"android":"levelo://app?vid=7e68ab91-64b1-4ca8-90d6-c2d2040b8729","ios":"levelo://app?vid=7e68ab91-64b1-4ca8-90d6-c2d2040b8729"},"vehicle_type_id":"4","last_reported":1741932831,"current_range_meters":7200,"station_id":"ce4bhn12rcd13ifvqgqg","pricing_plan_id":"cebpf4jnsgd1na2vs0mg"},{"bike_id":"fa62e7ec-7147-46c0-be4f-553f88a41227","system_id":"levelo_inurba_marseille","lat":43.229355,"lon":5.35383,"is_reserved":false,"is_disabled":false,"rental_uris":{"android":"levelo://app?vid=fa62e7ec-7147-46c0-be4f-553f88a41227","ios":"levelo://app?vid=fa62e7ec-7147-46c0-be4f-553f88a41227"},"vehicle_type_id":"4","last_reported":1741932831,"current_range_meters":7200,"station_id":"cpo3532slgdg3j2ikp40","pricing_plan_id":"cebpf4jnsgd1na2vs0mg"},{"bike_id":"eb566ff4-1bac-4bc4-88db-2a4f2a1cb684","system_id":"levelo_inurba_marseille","lat":43.28926,"lon":5.39622,"is_reserved":false,"is_disabled":false,"rental_uris":{"android":"levelo://app?vid=eb566ff4-1bac-4bc4-88db-2a4f2a1cb684","ios":"levelo://app?vid=eb566ff4-1bac-4bc4-88db-2a4f2a1cb684"},"vehicle_type_id":"4","last_reported":1741932831,"current_range_meters":7200,"station_id":"ce4bh3h2rcd13ifvqdn0","pricing_plan_id":"cebpf4jnsgd1na2vs0mg"},{"bike_id":"b3fead73-4c4c-401e-81a0-a7fad437c748","system_id":"levelo_inurba_marseille","lat":43.250101,"lon":5.389179,"is_reserved":false,"is_disabled":false,"rental_uris":{"android":"levelo://app?vid=b3fead73-4c4c-401e-81a0-a7fad437c748","ios":"levelo://app?vid=b3fead73-4c4c-401e-81a0-a7fad437c748"},"vehicle_type_id":"4","last_reported":1741932831,"current_range_meters":7200,"station_id":"ce4bhgp2rcd13ifvqfd0","pricing_plan_id":"cebpf4jnsgd1na2vs0mg"},{"bike_id":"7cb13c0a-cb6d-4337-ace8-9f764fd7dfcf","system_id":"levelo_inurba_marseille","lat":43.28838,"lon":5.35845,"is_reserved":false,"is_disabled":false,"rental_uris":{"android":"levelo://app?vid=7cb13c0a-cb6d-4337-ace8-9f764fd7dfcf","ios":"levelo://app?vid=7cb13c0a-cb6d-4337-ace8-9f764fd7dfcf"},"vehicle_type_id":"4","last_reported":1741932831,"current_range_meters":7200,"station_id":"ce4bhb12rcd13ifvqem0","pricing_plan_id":"cebpf4jnsgd1na2vs0mg"},{"bike_id":"e350ce66-a995-469c-b4d1-ba6658fe49e2","system_id":"levelo_inurba_marseille","lat":43.27815,"lon":5.40742,"is_reserved":false,"is_disabled":false,"rental_uris":{"android":"levelo://app?vid=e350ce66-a995-469c-b4d1-ba6658fe49e2","ios":"levelo://app?vid=e350ce66-a995-469c-b4d1-ba6658fe49e2"},"vehicle_type_id":"4","last_reported":1741932831,"current_range_meters":7200,"station_id":"ce4bhnh2rcd13ifvqgtg","pricing_plan_id":"cebpf4jnsgd1na2vs0mg"},{"bike_id":"29c167e7-f543-4956-bde0-273e9178e2cf","system_id":"levelo_inurba_marseille","lat":43.32359,"lon":5.36767,"is_reserved":false,"is_disabled":false,"rental_uris":{"android":"levelo://app?vid=29c167e7-f543-4956-bde0-273e9178e2cf","ios":"levelo://app?vid=29c167e7-f543-4956-bde0-273e9178e2cf"},"vehicle_type_id":"4","last_reported":1741932831,"current_range_meters":7200,"station_id":"ce4bhsh2rcd13ifvqi2g","pricing_plan_id":"cebpf4jnsgd1na2vs0mg"},{"bike_id":"814c8ec0-7f86-43ef-a1aa-fb2c579e864f","system_id":"levelo_inurba_marseille","lat":43.30478,"lon":5.38203,"is_reserved":false,"is_disabled":false,"rental_uris":{"android":"levelo://app?vid=814c8ec0-7f86-43ef-a1aa-fb2c579e864f","ios":"levelo://app?vid=814c8ec0-7f86-43ef-a1aa-fb2c579e864f"},"vehicle_type_id":"4","last_reported":1741932831,"current_range_meters":8000,"station_id":"","pricing_plan_id":"cebpf4jnsgd1na2vs0mg"},{"bike_id":"155c7165-40f9-4638-84a1-91e91cddb9e0","system_id":"levelo_inurba_marseille","lat":43.308036,"lon":5.373479,"is_reserved":false,"is_disabled":true,"rental_uris":{"android":"levelo://app?vid=155c7165-40f9-4638-84a1-91e91cddb9e0","ios":"levelo://app?vid=155c7165-40f9-4638-84a1-91e91cddb9e0"},"vehicle_type_id":"4","last_reported":1741932831,"current_range_meters":8000,"station_id":"","pricing_plan_id":"cebpf4jnsgd1na2vs0mg"},{"bike_id":"b83e02a7-ca0f-411d-affd-218ff3682aa5","system_id":"levelo_inurba_marseille","lat":43.25699,"lon":5.41101,"is_reserved":false,"is_disabled":false,"rental_uris":{"android":"levelo://app?vid=b83e02a7-ca0f-411d-affd-218ff3682aa5","ios":"levelo://app?vid=b83e02a7-ca0f-411d-affd-218ff3682aa5"},"vehicle_type_id":"4","last_reported":1741932831,"current_range_meters":8000,"station_id":"ce4bhkp2rcd13ifvqgd0","pricing_plan_id":"cebpf4jnsgd1na2vs0mg"},{"bike_id":"bf2b9451-004a-4a30-894f-420bab883597","system_id":"levelo_inurba_marseille","lat":43.281045,"lon":5.378478,"is_reserved":false,"is_disabled":false,"rental_uris":{"android":"levelo://app?vid=bf2b9451-004a-4a30-894f-420bab883597","ios":"levelo://app?vid=bf2b9451-004a-4a30-894f-420bab883597"},"vehicle_type_id":"4","last_reported":1741932831,"current_range_meters":8000,"station_id":"ce4bha12rcd13ifvqee0","pricing_plan_id":"cebpf4jnsgd1na2vs0mg"},{"bike_id":"d0da08c1-6f2e-4548-8fc2-e9c8603b4e82","system_id":"levelo_inurba_marseille","lat":43.30942,"lon":5.39048,"is_reserved":false,"is_disabled":true,"rental_uris":{"android":"levelo://app?vid=d0da08c1-6f2e-4548-8fc2-e9c8603b4e82","ios":"levelo://app?vid=d0da08c1-6f2e-4548-8fc2-e9c8603b4e82"},"vehicle_type_id":"4","last_reported":1741932831,"current_range_meters":8000,"station_id":"ce4bgup2rcd13ifvqco0","pricing_plan_id":"cebpf4jnsgd1na2vs0mg"},{"bike_id":"b78c10b7-b880-4638-b672-f8fc61bd3c48","system_id":"levelo_inurba_marseille","lat":43.240793,"lon":5.377484,"is_reserved":false,"is_disabled":false,"rental_uris":{"android":"levelo://app?vid=b78c10b7-b880-4638-b672-f8fc61bd3c48","ios":"levelo://app?vid=b78c10b7-b880-4638-b672-f8fc61bd3c48"},"vehicle_type_id":"4","last_reported":1741932831,"current_range_meters":8000,"station_id":"ce4bhnp2rcd13ifvqgvg","pricing_plan_id":"cebpf4jnsgd1na2vs0mg"},{"bike_id":"5aed8199-3ddd-4220-8c4a-507766c3f1de","system_id":"levelo_inurba_marseille","lat":43.29436,"lon":5.39762,"is_reserved":false,"is_disabled":false,"rental_uris":{"android":"levelo://app?vid=5aed8199-3ddd-4220-8c4a-507766c3f1de","ios":"levelo://app?vid=5aed8199-3ddd-4220-8c4a-507766c3f1de"},"vehicle_type_id":"4","last_reported":1741932831,"current_range_meters":8000,"station_id":"ce4bh3h2rcd13ifvqdo0","pricing_plan_id":"cebpf4jnsgd1na2vs0mg"},{"bike_id":"154d0f4a-7cf1-4b4a-8919-807104d462e1","system_id":"levelo_inurba_marseille","lat":43.26659,"lon":5.38621,"is_reserved":false,"is_disabled":false,"rental_uris":{"android":"levelo://app?vid=154d0f4a-7cf1-4b4a-8919-807104d462e1","ios":"levelo://app?vid=154d0f4a-7cf1-4b4a-8919-807104d462e1"},"vehicle_type_id":"4","last_reported":1741932831,"current_range_meters":8000,"station_id":"","pricing_plan_id":"cebpf4jnsgd1na2vs0mg"},{"bike_id":"36ebfc17-b6ab-4767-a5e0-c94c11aba8a2","system_id":"levelo_inurba_marseille","lat":43.323614,"lon":5.388911,"is_reserved":false,"is_disabled":false,"rental_uris":{"android":"levelo://app?vid=36ebfc17-b6ab-4767-a5e0-c94c11aba8a2","ios":"levelo://app?vid=36ebfc17-b6ab-4767-a5e0-c94c11aba8a2"},"vehicle_type_id":"4","last_reported":1741932831,"current_range_meters":8000,"station_id":"ce4bhqp2rcd13ifvqhog","pricing_plan_id":"cebpf4jnsgd1na2vs0mg"},{"bike_id":"1cbeb49c-8d51-46f2-ad03-8af78ea79d9a","system_id":"levelo_inurba_marseille","lat":43.241737,"lon":5.397107,"is_reserved":false,"is_disabled":false,"rental_uris":{"android":"levelo://app?vid=1cbeb49c-8d51-46f2-ad03-8af78ea79d9a","ios":"levelo://app?vid=1cbeb49c-8d51-46f2-ad03-8af78ea79d9a"},"vehicle_type_id":"4","last_reported":1741932831,"current_range_meters":8000,"station_id":"ce4bhn12rcd13ifvqgpg","pricing_plan_id":"cebpf4jnsgd1na2vs0mg"},{"bike_id":"bb9e49e1-15a1-4567-8da3-1ff54c01ee0c","system_id":"levelo_inurba_marseille","lat":43.284158,"lon":5.349863,"is_reserved":false,"is_disabled":false,"rental_uris":{"android":"levelo://app?vid=bb9e49e1-15a1-4567-8da3-1ff54c01ee0c","ios":"levelo://app?vid=bb9e49e1-15a1-4567-8da3-1ff54c01ee0c"},"vehicle_type_id":"4","last_reported":1741932831,"current_range_meters":8000,"station_id":"ce4bhbh2rcd13ifvqepg","pricing_plan_id":"cebpf4jnsgd1na2vs0mg"},{"bike_id":"8c81821e-1f53-47a6-97d2-f4348c01f291","system_id":"levelo_inurba_marseille","lat":43.274963,"lon":5.424448,"is_reserved":false,"is_disabled":false,"rental_uris":{"android":"levelo://app?vid=8c81821e-1f53-47a6-97d2-f4348c01f291","ios":"levelo://app?vid=8c81821e-1f53-47a6-97d2-f4348c01f291"},"vehicle_type_id":"4","last_reported":1741932831,"current_range_meters":8000,"station_id":"ce4bhn92rcd13ifvqgrg","pricing_plan_id":"cebpf4jnsgd1na2vs0mg"},{"bike_id":"d0be61ee-8c6c-4bf7-99b6-f099a281a656","system_id":"levelo_inurba_marseille","lat":43.2501,"lon":5.38959,"is_reserved":false,"is_disabled":false,"rental_uris":{"android":"levelo://app?vid=d0be61ee-8c6c-4bf7-99b6-f099a281a656","ios":"levelo://app?vid=d0be61ee-8c6c-4bf7-99b6-f099a281a656"},"vehicle_type_id":"4","last_reported":1741932831,"current_range_meters":8000,"station_id":"ce4bhgp2rcd13ifvqfd0","pricing_plan_id":"cebpf4jnsgd1na2vs0mg"},{"bike_id":"39df283f-35a5-4c44-9f0d-6dd6923a19a4","system_id":"levelo_inurba_marseille","lat":43.321202,"lon":5.367759,"is_reserved":false,"is_disabled":false,"rental_uris":{"android":"levelo://app?vid=39df283f-35a5-4c44-9f0d-6dd6923a19a4","ios":"levelo://app?vid=39df283f-35a5-4c44-9f0d-6dd6923a19a4"},"vehicle_type_id":"4","last_reported":1741932831,"current_range_meters":8000,"station_id":"ce4bhrh2rcd13ifvqhug","pricing_plan_id":"cebpf4jnsgd1na2vs0mg"},{"bike_id":"46f861aa-dccb-400d-8fc7-bb9082254569","system_id":"levelo_inurba_marseille","lat":43.28037,"lon":5.36938,"is_reserved":false,"is_disabled":false,"rental_uris":{"android":"levelo://app?vid=46f861aa-dccb-400d-8fc7-bb9082254569","ios":"levelo://app?vid=46f861aa-dccb-400d-8fc7-bb9082254569"},"vehicle_type_id":"4","last_reported":1741932831,"current_range_meters":8400,"station_id":"ce4bha12rcd13ifvqef0","pricing_plan_id":"cebpf4jnsgd1na2vs0mg"},{"bike_id":"d4f28dc4-1355-4c42-a706-3679bbd67020","system_id":"levelo_inurba_marseille","lat":43.30661,"lon":5.40113,"is_reserved":false,"is_disabled":false,"rental_uris":{"android":"levelo://app?vid=d4f28dc4-1355-4c42-a706-3679bbd67020","ios":"levelo://app?vid=d4f28dc4-1355-4c42-a706-3679bbd67020"},"vehicle_type_id":"4","last_reported":1741932831,"current_range_meters":8400,"station_id":"ce4bh112rcd13ifvqda0","pricing_plan_id":"cebpf4jnsgd1na2vs0mg"},{"bike_id":"912073e3-7196-4f25-b618-cf16febee9e9","system_id":"levelo_inurba_marseille","lat":43.31331,"lon":5.39696,"is_reserved":false,"is_disabled":false,"rental_uris":{"android":"levelo://app?vid=912073e3-7196-4f25-b618-cf16febee9e9","ios":"levelo://app?vid=912073e3-7196-4f25-b618-cf16febee9e9"},"vehicle_type_id":"4","last_reported":1741932831,"current_range_meters":8400,"station_id":"ce4bgvp2rcd13ifvqcu0","pricing_plan_id":"cebpf4jnsgd1na2vs0mg"},{"bike_id":"6bdc7424-03f2-49cb-b720-187fb686656a","system_id":"levelo_inurba_marseille","lat":43.29867,"lon":5.39735,"is_reserved":false,"is_disabled":false,"rental_uris":{"android":"levelo://app?vid=6bdc7424-03f2-49cb-b720-187fb686656a","ios":"levelo://app?vid=6bdc7424-03f2-49cb-b720-187fb686656a"},"vehicle_type_id":"4","last_reported":1741932831,"current_range_meters":8400,"station_id":"ce4bh0h2rcd13ifvqd50","pricing_plan_id":"cebpf4jnsgd1na2vs0mg"},{"bike_id":"4f2ddad8-944b-4f7f-88fd-24992043188c","system_id":"levelo_inurba_marseille","lat":43.309264,"lon":5.401516,"is_reserved":false,"is_disabled":false,"rental_uris":{"android":"levelo://app?vid=4f2ddad8-944b-4f7f-88fd-24992043188c","ios":"levelo://app?vid=4f2ddad8-944b-4f7f-88fd-24992043188c"},"vehicle_type_id":"4","last_reported":1741932831,"current_range_meters":8400,"station_id":"ce4bgvp2rcd13ifvqct0","pricing_plan_id":"cebpf4jnsgd1na2vs0mg"},{"bike_id":"1179ea35-4831-4438-984a-d67269a5255b","system_id":"levelo_inurba_marseille","lat":43.23196,"lon":5.35561,"is_reserved":false,"is_disabled":false,"rental_uris":{"android":"levelo://app?vid=1179ea35-4831-4438-984a-d67269a5255b","ios":"levelo://app?vid=1179ea35-4831-4438-984a-d67269a5255b"},"vehicle_type_id":"4","last_reported":1741932831,"current_range_meters":8400,"station_id":"ce4bhu92rcd13ifvqi70","pricing_plan_id":"cebpf4jnsgd1na2vs0mg"},{"bike_id":"54184fa2-bc10-4430-9b0e-4e689a6e5eb5","system_id":"levelo_inurba_marseille","lat":43.303079,"lon":5.369099,"is_reserved":false,"is_disabled":true,"rental_uris":{"android":"levelo://app?vid=54184fa2-bc10-4430-9b0e-4e689a6e5eb5","ios":"levelo://app?vid=54184fa2-bc10-4430-9b0e-4e689a6e5eb5"},"vehicle_type_id":"4","last_reported":1741932831,"current_range_meters":8400,"station_id":"ce4bgqh2rcd13ifvqc5g","pricing_plan_id":"cebpf4jnsgd1na2vs0mg"},{"bike_id":"6307ec30-142e-4380-a1b4-79305fa6f44a","system_id":"levelo_inurba_marseille","lat":43.25741,"lon":5.41098,"is_reserved":false,"is_disabled":true,"rental_uris":{"android":"levelo://app?vid=6307ec30-142e-4380-a1b4-79305fa6f44a","ios":"levelo://app?vid=6307ec30-142e-4380-a1b4-79305fa6f44a"},"vehicle_type_id":"4","last_reported":1741932831,"current_range_meters":8400,"station_id":"ce4bhkp2rcd13ifvqgd0","pricing_plan_id":"cebpf4jnsgd1na2vs0mg"},{"bike_id":"8c4e2b01-9679-46b7-86e3-aa2306d13c64","system_id":"levelo_inurba_marseille","lat":43.27838,"lon":5.392,"is_reserved":false,"is_disabled":false,"rental_uris":{"android":"levelo://app?vid=8c4e2b01-9679-46b7-86e3-aa2306d13c64","ios":"levelo://app?vid=8c4e2b01-9679-46b7-86e3-aa2306d13c64"},"vehicle_type_id":"4","last_reported":1741932831,"current_range_meters":8400,"station_id":"ce4bhjp2rcd13ifvqga0","pricing_plan_id":"cebpf4jnsgd1na2vs0mg"},{"bike_id":"db1d9945-452a-48d1-a218-9d250e8fb884","system_id":"levelo_inurba_marseille","lat":43.31328,"lon":5.39702,"is_reserved":false,"is_disabled":false,"rental_uris":{"android":"levelo://app?vid=db1d9945-452a-48d1-a218-9d250e8fb884","ios":"levelo://app?vid=db1d9945-452a-48d1-a218-9d250e8fb884"},"vehicle_type_id":"4","last_reported":1741932831,"current_range_meters":8400,"station_id":"ce4bgvp2rcd13ifvqcu0","pricing_plan_id":"cebpf4jnsgd1na2vs0mg"},{"bike_id":"54bf63aa-0a8b-42b0-93c1-c2256fbfeabf","system_id":"levelo_inurba_marseille","lat":43.26558,"lon":5.39036,"is_reserved":false,"is_disabled":false,"rental_uris":{"android":"levelo://app?vid=54bf63aa-0a8b-42b0-93c1-c2256fbfeabf","ios":"levelo://app?vid=54bf63aa-0a8b-42b0-93c1-c2256fbfeabf"},"vehicle_type_id":"4","last_reported":1741932831,"current_range_meters":8800,"station_id":"ce4bhe12rcd13ifvqf30","pricing_plan_id":"cebpf4jnsgd1na2vs0mg"},{"bike_id":"66bd7c0a-ab4a-486e-bfaa-cafa91efd9cb","system_id":"levelo_inurba_marseille","lat":43.265483,"lon":5.372868,"is_reserved":false,"is_disabled":false,"rental_uris":{"android":"levelo://app?vid=66bd7c0a-ab4a-486e-bfaa-cafa91efd9cb","ios":"levelo://app?vid=66bd7c0a-ab4a-486e-bfaa-cafa91efd9cb"},"vehicle_type_id":"4","last_reported":1741932831,"current_range_meters":8800,"station_id":"ce4bhg12rcd13ifvqf70","pricing_plan_id":"cebpf4jnsgd1na2vs0mg"},{"bike_id":"0dcda778-bf7d-4755-b78a-f4840d5b5675","system_id":"levelo_inurba_marseille","lat":43.28565,"lon":5.39497,"is_reserved":false,"is_disabled":false,"rental_uris":{"android":"levelo://app?vid=0dcda778-bf7d-4755-b78a-f4840d5b5675","ios":"levelo://app?vid=0dcda778-bf7d-4755-b78a-f4840d5b5675"},"vehicle_type_id":"4","last_reported":1741932831,"current_range_meters":8800,"station_id":"ce4bh292rcd13ifvqdg0","pricing_plan_id":"cebpf4jnsgd1na2vs0mg"},{"bike_id":"8939fbba-2fc8-450a-9027-04db4f4e697a","system_id":"levelo_inurba_marseille","lat":43.31432,"lon":5.40473,"is_reserved":false,"is_disabled":false,"rental_uris":{"android":"levelo://app?vid=8939fbba-2fc8-450a-9027-04db4f4e697a","ios":"levelo://app?vid=8939fbba-2fc8-450a-9027-04db4f4e697a"},"vehicle_type_id":"4","last_reported":1741932831,"current_range_meters":8800,"station_id":"","pricing_plan_id":"cebpf4jnsgd1na2vs0mg"},{"bike_id":"22c0550b-29b7-487c-9f57-3e6e4e86fd41","system_id":"levelo_inurba_marseille","lat":43.31524,"lon":5.38064,"is_reserved":false,"is_disabled":false,"rental_uris":{"android":"levelo://app?vid=22c0550b-29b7-487c-9f57-3e6e4e86fd41","ios":"levelo://app?vid=22c0550b-29b7-487c-9f57-3e6e4e86fd41"},"vehicle_type_id":"4","last_reported":1741932831,"current_range_meters":8800,"station_id":"ce4bhsp2rcd13ifvqi50","pricing_plan_id":"cebpf4jnsgd1na2vs0mg"},{"bike_id":"05485599-c5d2-4560-a085-53dc6075c7be","system_id":"levelo_inurba_marseille","lat":43.27998,"lon":5.40041,"is_reserved":false,"is_disabled":false,"rental_uris":{"android":"levelo://app?vid=05485599-c5d2-4560-a085-53dc6075c7be","ios":"levelo://app?vid=05485599-c5d2-4560-a085-53dc6075c7be"},"vehicle_type_id":"4","last_reported":1741932831,"current_range_meters":8800,"station_id":"ce4bho92rcd13ifvqh4g","pricing_plan_id":"cebpf4jnsgd1na2vs0mg"},{"bike_id":"f284e0dc-cf65-4213-adb7-a02697043fe8","system_id":"levelo_inurba_marseille","lat":43.29951,"lon":5.41331,"is_reserved":false,"is_disabled":false,"rental_uris":{"android":"levelo://app?vid=f284e0dc-cf65-4213-adb7-a02697043fe8","ios":"levelo://app?vid=f284e0dc-cf65-4213-adb7-a02697043fe8"},"vehicle_type_id":"4","last_reported":1741932831,"current_range_meters":8800,"station_id":"ce4bhp12rcd13ifvqh9g","pricing_plan_id":"cebpf4jnsgd1na2vs0mg"},{"bike_id":"76a1a065-7414-4909-8e1f-d9664a62f90e","system_id":"levelo_inurba_marseille","lat":43.28072,"lon":5.36963,"is_reserved":false,"is_disabled":false,"rental_uris":{"android":"levelo://app?vid=76a1a065-7414-4909-8e1f-d9664a62f90e","ios":"levelo://app?vid=76a1a065-7414-4909-8e1f-d9664a62f90e"},"vehicle_type_id":"4","last_reported":1741932831,"current_range_meters":8800,"station_id":"ce4bha12rcd13ifvqef0","pricing_plan_id":"cebpf4jnsgd1na2vs0mg"},{"bike_id":"c2100bd3-57ec-4820-992d-70841c2f886a","system_id":"levelo_inurba_marseille","lat":43.321064,"lon":5.36775,"is_reserved":false,"is_disabled":false,"rental_uris":{"android":"levelo://app?vid=c2100bd3-57ec-4820-992d-70841c2f886a","ios":"levelo://app?vid=c2100bd3-57ec-4820-992d-70841c2f886a"},"vehicle_type_id":"4","last_reported":1741932831,"current_range_meters":8800,"station_id":"ce4bhrh2rcd13ifvqhug","pricing_plan_id":"cebpf4jnsgd1na2vs0mg"},{"bike_id":"320564be-2867-4ab5-80ba-99ed9100fc63","system_id":"levelo_inurba_marseille","lat":43.2581,"lon":5.39458,"is_reserved":false,"is_disabled":false,"rental_uris":{"android":"levelo://app?vid=320564be-2867-4ab5-80ba-99ed9100fc63","ios":"levelo://app?vid=320564be-2867-4ab5-80ba-99ed9100fc63"},"vehicle_type_id":"4","last_reported":1741932831,"current_range_meters":8800,"station_id":"","pricing_plan_id":"cebpf4jnsgd1na2vs0mg"},{"bike_id":"85febf70-eab1-4f30-96f1-2b4d2195db5c","system_id":"levelo_inurba_marseille","lat":43.29236,"lon":5.38221,"is_reserved":false,"is_disabled":false,"rental_uris":{"android":"levelo://app?vid=85febf70-eab1-4f30-96f1-2b4d2195db5c","ios":"levelo://app?vid=85febf70-eab1-4f30-96f1-2b4d2195db5c"},"vehicle_type_id":"4","last_reported":1741932831,"current_range_meters":8800,"station_id":"","pricing_plan_id":"cebpf4jnsgd1na2vs0mg"},{"bike_id":"96bae133-2c88-4f4f-a72b-a62518ed1b8a","system_id":"levelo_inurba_marseille","lat":43.27495,"lon":5.4246,"is_reserved":false,"is_disabled":false,"rental_uris":{"android":"levelo://app?vid=96bae133-2c88-4f4f-a72b-a62518ed1b8a","ios":"levelo://app?vid=96bae133-2c88-4f4f-a72b-a62518ed1b8a"},"vehicle_type_id":"4","last_reported":1741932831,"current_range_meters":8800,"station_id":"ce4bhn92rcd13ifvqgrg","pricing_plan_id":"cebpf4jnsgd1na2vs0mg"},{"bike_id":"36c7ba74-60b3-4070-9c65-b28799445345","system_id":"levelo_inurba_marseille","lat":43.30794,"lon":5.38164,"is_reserved":false,"is_disabled":false,"rental_uris":{"android":"levelo://app?vid=36c7ba74-60b3-4070-9c65-b28799445345","ios":"levelo://app?vid=36c7ba74-60b3-4070-9c65-b28799445345"},"vehicle_type_id":"4","last_reported":1741932831,"current_range_meters":9200,"station_id":"ce4bgt12rcd13ifvqce0","pricing_plan_id":"cebpf4jnsgd1na2vs0mg"},{"bike_id":"fd0b94d0-5000-40fe-9251-aeb5428fb301","system_id":"levelo_inurba_marseille","lat":43.27182,"lon":5.4099,"is_reserved":false,"is_disabled":false,"rental_uris":{"android":"levelo://app?vid=fd0b94d0-5000-40fe-9251-aeb5428fb301","ios":"levelo://app?vid=fd0b94d0-5000-40fe-9251-aeb5428fb301"},"vehicle_type_id":"4","last_reported":1741932831,"current_range_meters":9200,"station_id":"ce4bhl12rcd13ifvqgf0","pricing_plan_id":"cebpf4jnsgd1na2vs0mg"},{"bike_id":"77c5059d-e18b-4169-9849-a973f1f035b1","system_id":"levelo_inurba_marseille","lat":43.27908,"lon":5.39591,"is_reserved":false,"is_disabled":false,"rental_uris":{"android":"levelo://app?vid=77c5059d-e18b-4169-9849-a973f1f035b1","ios":"levelo://app?vid=77c5059d-e18b-4169-9849-a973f1f035b1"},"vehicle_type_id":"4","last_reported":1741932831,"current_range_meters":9200,"station_id":"ce4bhf92rcd13ifvqf40","pricing_plan_id":"cebpf4jnsgd1na2vs0mg"},{"bike_id":"6cec560f-8635-4801-8462-637e6f2c72c5","system_id":"levelo_inurba_marseille","lat":43.231967,"lon":5.355486,"is_reserved":false,"is_disabled":false,"rental_uris":{"android":"levelo://app?vid=6cec560f-8635-4801-8462-637e6f2c72c5","ios":"levelo://app?vid=6cec560f-8635-4801-8462-637e6f2c72c5"},"vehicle_type_id":"4","last_reported":1741932831,"current_range_meters":9200,"station_id":"ce4bhu92rcd13ifvqi70","pricing_plan_id":"cebpf4jnsgd1na2vs0mg"},{"bike_id":"97a3342f-3ca5-439d-8886-7bbabf5b6c98","system_id":"levelo_inurba_marseille","lat":43.32106,"lon":5.36787,"is_reserved":false,"is_disabled":false,"rental_uris":{"android":"levelo://app?vid=97a3342f-3ca5-439d-8886-7bbabf5b6c98","ios":"levelo://app?vid=97a3342f-3ca5-439d-8886-7bbabf5b6c98"},"vehicle_type_id":"4","last_reported":1741932831,"current_range_meters":9200,"station_id":"ce4bhrh2rcd13ifvqhug","pricing_plan_id":"cebpf4jnsgd1na2vs0mg"},{"bike_id":"fe3c040d-320c-464f-9744-5e42fa5023fd","system_id":"levelo_inurba_marseille","lat":43.30167,"lon":5.38086,"is_reserved":false,"is_disabled":false,"rental_uris":{"android":"levelo://app?vid=fe3c040d-320c-464f-9744-5e42fa5023fd","ios":"levelo://app?vid=fe3c040d-320c-464f-9744-5e42fa5023fd"},"vehicle_type_id":"4","last_reported":1741932831,"current_range_meters":9200,"station_id":"ce4bgjp2rcd13ifvqbh0","pricing_plan_id":"cebpf4jnsgd1na2vs0mg"},{"bike_id":"8a7d6fbc-9324-4554-9abc-ceeffff483c4","system_id":"levelo_inurba_marseille","lat":43.323629,"lon":5.388818,"is_reserved":false,"is_disabled":false,"rental_uris":{"android":"levelo://app?vid=8a7d6fbc-9324-4554-9abc-ceeffff483c4","ios":"levelo://app?vid=8a7d6fbc-9324-4554-9abc-ceeffff483c4"},"vehicle_type_id":"4","last_reported":1741932831,"current_range_meters":9200,"station_id":"ce4bhqp2rcd13ifvqhog","pricing_plan_id":"cebpf4jnsgd1na2vs0mg"},{"bike_id":"6944bb06-8a8c-4cf4-86a1-ca9561cf4ee4","system_id":"levelo_inurba_marseille","lat":43.23051,"lon":5.35503,"is_reserved":false,"is_disabled":false,"rental_uris":{"android":"levelo://app?vid=6944bb06-8a8c-4cf4-86a1-ca9561cf4ee4","ios":"levelo://app?vid=6944bb06-8a8c-4cf4-86a1-ca9561cf4ee4"},"vehicle_type_id":"4","last_reported":1741932831,"current_range_meters":9200,"station_id":"cpo3342slgdg3j2ifvpg","pricing_plan_id":"cebpf4jnsgd1na2vs0mg"},{"bike_id":"d2c1304d-c6de-4e19-a363-2c0c4bdd9fb1","system_id":"levelo_inurba_marseille","lat":43.246482,"lon":5.388983,"is_reserved":false,"is_disabled":false,"rental_uris":{"android":"levelo://app?vid=d2c1304d-c6de-4e19-a363-2c0c4bdd9fb1","ios":"levelo://app?vid=d2c1304d-c6de-4e19-a363-2c0c4bdd9fb1"},"vehicle_type_id":"4","last_reported":1741932831,"current_range_meters":9200,"station_id":"ce4bhg12rcd13ifvqf60","pricing_plan_id":"cebpf4jnsgd1na2vs0mg"},{"bike_id":"64f08214-fb31-440a-81c0-e1b65159de7d","system_id":"levelo_inurba_marseille","lat":43.3146,"lon":5.37571,"is_reserved":false,"is_disabled":false,"rental_uris":{"android":"levelo://app?vid=64f08214-fb31-440a-81c0-e1b65159de7d","ios":"levelo://app?vid=64f08214-fb31-440a-81c0-e1b65159de7d"},"vehicle_type_id":"4","last_reported":1741932831,"current_range_meters":9200,"station_id":"","pricing_plan_id":"cebpf4jnsgd1na2vs0mg"},{"bike_id":"4b112a33-2820-4625-96c9-8f07ae7ff329","system_id":"levelo_inurba_marseille","lat":43.308,"lon":5.43523,"is_reserved":false,"is_disabled":false,"rental_uris":{"android":"levelo://app?vid=4b112a33-2820-4625-96c9-8f07ae7ff329","ios":"levelo://app?vid=4b112a33-2820-4625-96c9-8f07ae7ff329"},"vehicle_type_id":"4","last_reported":1741932831,"current_range_meters":9200,"station_id":"ce4bhph2rcd13ifvqheg","pricing_plan_id":"cebpf4jnsgd1na2vs0mg"},{"bike_id":"414a87d8-0320-4da5-94cb-1c2e9eb2c2e2","system_id":"levelo_inurba_marseille","lat":43.258235,"lon":5.394391,"is_reserved":false,"is_disabled":false,"rental_uris":{"android":"levelo://app?vid=414a87d8-0320-4da5-94cb-1c2e9eb2c2e2","ios":"levelo://app?vid=414a87d8-0320-4da5-94cb-1c2e9eb2c2e2"},"vehicle_type_id":"4","last_reported":1741932831,"current_range_meters":9600,"station_id":"ce4bhip2rcd13ifvqft0","pricing_plan_id":"cebpf4jnsgd1na2vs0mg"},{"bike_id":"84cc18dd-0a68-4c30-826c-6a22b51c17d6","system_id":"levelo_inurba_marseille","lat":43.30952,"lon":5.40149,"is_reserved":false,"is_disabled":false,"rental_uris":{"android":"levelo://app?vid=84cc18dd-0a68-4c30-826c-6a22b51c17d6","ios":"levelo://app?vid=84cc18dd-0a68-4c30-826c-6a22b51c17d6"},"vehicle_type_id":"4","last_reported":1741932831,"current_range_meters":9600,"station_id":"ce4bgvp2rcd13ifvqct0","pricing_plan_id":"cebpf4jnsgd1na2vs0mg"},{"bike_id":"7121d818-13e2-43ed-b445-7134fefdd64f","system_id":"levelo_inurba_marseille","lat":43.23188,"lon":5.35556,"is_reserved":false,"is_disabled":false,"rental_uris":{"android":"levelo://app?vid=7121d818-13e2-43ed-b445-7134fefdd64f","ios":"levelo://app?vid=7121d818-13e2-43ed-b445-7134fefdd64f"},"vehicle_type_id":"4","last_reported":1741932831,"current_range_meters":9600,"station_id":"ce4bhu92rcd13ifvqi70","pricing_plan_id":"cebpf4jnsgd1na2vs0mg"},{"bike_id":"919a1558-498c-48b7-b738-7940b23ca37a","system_id":"levelo_inurba_marseille","lat":43.262232,"lon":5.404656,"is_reserved":false,"is_disabled":false,"rental_uris":{"android":"levelo://app?vid=919a1558-498c-48b7-b738-7940b23ca37a","ios":"levelo://app?vid=919a1558-498c-48b7-b738-7940b23ca37a"},"vehicle_type_id":"4","last_reported":1741932831,"current_range_meters":9600,"station_id":"ce4bhmh2rcd13ifvqgmg","pricing_plan_id":"cebpf4jnsgd1na2vs0mg"},{"bike_id":"a25f12c4-dc85-4e88-89ff-7ae2c1a12ffe","system_id":"levelo_inurba_marseille","lat":43.31322,"lon":5.39721,"is_reserved":false,"is_disabled":false,"rental_uris":{"android":"levelo://app?vid=a25f12c4-dc85-4e88-89ff-7ae2c1a12ffe","ios":"levelo://app?vid=a25f12c4-dc85-4e88-89ff-7ae2c1a12ffe"},"vehicle_type_id":"4","last_reported":1741932831,"current_range_meters":9600,"station_id":"ce4bgvp2rcd13ifvqcu0","pricing_plan_id":"cebpf4jnsgd1na2vs0mg"},{"bike_id":"c118cc19-7f0e-4e54-b921-f1faa9246911","system_id":"levelo_inurba_marseille","lat":43.2407,"lon":5.37752,"is_reserved":false,"is_disabled":false,"rental_uris":{"android":"levelo://app?vid=c118cc19-7f0e-4e54-b921-f1faa9246911","ios":"levelo://app?vid=c118cc19-7f0e-4e54-b921-f1faa9246911"},"vehicle_type_id":"4","last_reported":1741932831,"current_range_meters":9600,"station_id":"ce4bhnp2rcd13ifvqgvg","pricing_plan_id":"cebpf4jnsgd1na2vs0mg"},{"bike_id":"c15f5842-a038-4f80-969f-9f0940ea7288","system_id":"levelo_inurba_marseille","lat":43.28928,"lon":5.39661,"is_reserved":false,"is_disabled":false,"rental_uris":{"android":"levelo://app?vid=c15f5842-a038-4f80-969f-9f0940ea7288","ios":"levelo://app?vid=c15f5842-a038-4f80-969f-9f0940ea7288"},"vehicle_type_id":"4","last_reported":1741932831,"current_range_meters":9600,"station_id":"ce4bh3h2rcd13ifvqdn0","pricing_plan_id":"cebpf4jnsgd1na2vs0mg"},{"bike_id":"c58ea9ca-fa82-45e4-b42f-886be65920e5","system_id":"levelo_inurba_marseille","lat":43.24539,"lon":5.39538,"is_reserved":false,"is_disabled":false,"rental_uris":{"android":"levelo://app?vid=c58ea9ca-fa82-45e4-b42f-886be65920e5","ios":"levelo://app?vid=c58ea9ca-fa82-45e4-b42f-886be65920e5"},"vehicle_type_id":"4","last_reported":1741932831,"current_range_meters":9600,"station_id":"ce4bhlp2rcd13ifvqgjg","pricing_plan_id":"cebpf4jnsgd1na2vs0mg"},{"bike_id":"4034c580-5a30-4362-a2a8-2a1c6bf23b36","system_id":"levelo_inurba_marseille","lat":43.30756,"lon":5.37683,"is_reserved":false,"is_disabled":false,"rental_uris":{"android":"levelo://app?vid=4034c580-5a30-4362-a2a8-2a1c6bf23b36","ios":"levelo://app?vid=4034c580-5a30-4362-a2a8-2a1c6bf23b36"},"vehicle_type_id":"4","last_reported":1741932831,"current_range_meters":9600,"station_id":"","pricing_plan_id":"cebpf4jnsgd1na2vs0mg"},{"bike_id":"6231c48c-b2ee-4457-a881-f9675e466c5b","system_id":"levelo_inurba_marseille","lat":43.32336,"lon":5.4063,"is_reserved":false,"is_disabled":false,"rental_uris":{"android":"levelo://app?vid=6231c48c-b2ee-4457-a881-f9675e466c5b","ios":"levelo://app?vid=6231c48c-b2ee-4457-a881-f9675e466c5b"},"vehicle_type_id":"4","last_reported":1741932831,"current_range_meters":9600,"station_id":"ce4bhq92rcd13ifvqhjg","pricing_plan_id":"cebpf4jnsgd1na2vs0mg"},{"bike_id":"56ef3efe-9ba9-4043-a730-5fc4d6f44599","system_id":"levelo_inurba_marseille","lat":43.28354,"lon":5.38113,"is_reserved":false,"is_disabled":false,"rental_uris":{"android":"levelo://app?vid=56ef3efe-9ba9-4043-a730-5fc4d6f44599","ios":"levelo://app?vid=56ef3efe-9ba9-4043-a730-5fc4d6f44599"},"vehicle_type_id":"4","last_reported":1741932831,"current_range_meters":9600,"station_id":"ce4bh412rcd13ifvqdr0","pricing_plan_id":"cebpf4jnsgd1na2vs0mg"},{"bike_id":"436bf6fd-98f0-4c70-968c-7fcac8f398a5","system_id":"levelo_inurba_marseille","lat":43.25087,"lon":5.41065,"is_reserved":false,"is_disabled":false,"rental_uris":{"android":"levelo://app?vid=436bf6fd-98f0-4c70-968c-7fcac8f398a5","ios":"levelo://app?vid=436bf6fd-98f0-4c70-968c-7fcac8f398a5"},"vehicle_type_id":"4","last_reported":1741932831,"current_range_meters":10000,"station_id":"","pricing_plan_id":"cebpf4jnsgd1na2vs0mg"},{"bike_id":"bf7035b0-43dc-4781-beb1-fc31690da7ef","system_id":"levelo_inurba_marseille","lat":43.239653,"lon":5.366179,"is_reserved":false,"is_disabled":false,"rental_uris":{"android":"levelo://app?vid=bf7035b0-43dc-4781-beb1-fc31690da7ef","ios":"levelo://app?vid=bf7035b0-43dc-4781-beb1-fc31690da7ef"},"vehicle_type_id":"4","last_reported":1741932831,"current_range_meters":10000,"station_id":"ce4bhi12rcd13ifvqfp0","pricing_plan_id":"cebpf4jnsgd1na2vs0mg"},{"bike_id":"1156d48d-c441-4ed8-8f3f-02ca2db64972","system_id":"levelo_inurba_marseille","lat":43.29888,"lon":5.39718,"is_reserved":false,"is_disabled":false,"rental_uris":{"android":"levelo://app?vid=1156d48d-c441-4ed8-8f3f-02ca2db64972","ios":"levelo://app?vid=1156d48d-c441-4ed8-8f3f-02ca2db64972"},"vehicle_type_id":"4","last_reported":1741932831,"current_range_meters":10000,"station_id":"ce4bh0h2rcd13ifvqd50","pricing_plan_id":"cebpf4jnsgd1na2vs0mg"},{"bike_id":"1ae01e22-4c4d-4069-8bf6-0be88949011a","system_id":"levelo_inurba_marseille","lat":43.32365,"lon":5.38895,"is_reserved":false,"is_disabled":false,"rental_uris":{"android":"levelo://app?vid=1ae01e22-4c4d-4069-8bf6-0be88949011a","ios":"levelo://app?vid=1ae01e22-4c4d-4069-8bf6-0be88949011a"},"vehicle_type_id":"4","last_reported":1741932831,"current_range_meters":10000,"station_id":"ce4bhqp2rcd13ifvqhog","pricing_plan_id":"cebpf4jnsgd1na2vs0mg"},{"bike_id":"b634fcd7-4303-4fed-a2f8-fcd04ed2a4dd","system_id":"levelo_inurba_marseille","lat":43.23055,"lon":5.35497,"is_reserved":false,"is_disabled":false,"rental_uris":{"android":"levelo://app?vid=b634fcd7-4303-4fed-a2f8-fcd04ed2a4dd","ios":"levelo://app?vid=b634fcd7-4303-4fed-a2f8-fcd04ed2a4dd"},"vehicle_type_id":"4","last_reported":1741932831,"current_range_meters":10000,"station_id":"cpo3342slgdg3j2ifvpg","pricing_plan_id":"cebpf4jnsgd1na2vs0mg"},{"bike_id":"3363e5ed-aafd-4c83-9f97-12270e6ffcf4","system_id":"levelo_inurba_marseille","lat":43.24858,"lon":5.40652,"is_reserved":false,"is_disabled":false,"rental_uris":{"android":"levelo://app?vid=3363e5ed-aafd-4c83-9f97-12270e6ffcf4","ios":"levelo://app?vid=3363e5ed-aafd-4c83-9f97-12270e6ffcf4"},"vehicle_type_id":"4","last_reported":1741932831,"current_range_meters":10000,"station_id":"","pricing_plan_id":"cebpf4jnsgd1na2vs0mg"},{"bike_id":"adf13718-871c-4cb2-b9d2-5a2c78cb19ce","system_id":"levelo_inurba_marseille","lat":43.29868,"lon":5.39732,"is_reserved":false,"is_disabled":false,"rental_uris":{"android":"levelo://app?vid=adf13718-871c-4cb2-b9d2-5a2c78cb19ce","ios":"levelo://app?vid=adf13718-871c-4cb2-b9d2-5a2c78cb19ce"},"vehicle_type_id":"4","last_reported":1741932831,"current_range_meters":10000,"station_id":"ce4bh0h2rcd13ifvqd50","pricing_plan_id":"cebpf4jnsgd1na2vs0mg"},{"bike_id":"9a719051-5115-4a08-8e7b-ae42f9cbb7fe","system_id":"levelo_inurba_marseille","lat":43.31101,"lon":5.37824,"is_reserved":false,"is_disabled":false,"rental_uris":{"android":"levelo://app?vid=9a719051-5115-4a08-8e7b-ae42f9cbb7fe","ios":"levelo://app?vid=9a719051-5115-4a08-8e7b-ae42f9cbb7fe"},"vehicle_type_id":"4","last_reported":1741932831,"current_range_meters":10000,"station_id":"ce4bgt92rcd13ifvqcg0","pricing_plan_id":"cebpf4jnsgd1na2vs0mg"},{"bike_id":"9fe8ba47-be57-43be-b757-1af1021ecf46","system_id":"levelo_inurba_marseille","lat":43.31061,"lon":5.38351,"is_reserved":false,"is_disabled":false,"rental_uris":{"android":"levelo://app?vid=9fe8ba47-be57-43be-b757-1af1021ecf46","ios":"levelo://app?vid=9fe8ba47-be57-43be-b757-1af1021ecf46"},"vehicle_type_id":"4","last_reported":1741932831,"current_range_meters":10000,"station_id":"ce4bgv92rcd13ifvqcr0","pricing_plan_id":"cebpf4jnsgd1na2vs0mg"},{"bike_id":"d9a03b36-8834-4ff0-a7a6-0aba8375e6fe","system_id":"levelo_inurba_marseille","lat":43.284441,"lon":5.391786,"is_reserved":false,"is_disabled":false,"rental_uris":{"android":"levelo://app?vid=d9a03b36-8834-4ff0-a7a6-0aba8375e6fe","ios":"levelo://app?vid=d9a03b36-8834-4ff0-a7a6-0aba8375e6fe"},"vehicle_type_id":"4","last_reported":1741932831,"current_range_meters":10000,"station_id":"ce4bhoh2rcd13ifvqh5g","pricing_plan_id":"cebpf4jnsgd1na2vs0mg"},{"bike_id":"484d62e3-8e92-4d73-971b-41c613b66c1b","system_id":"levelo_inurba_marseille","lat":43.288518,"lon":5.358443,"is_reserved":false,"is_disabled":false,"rental_uris":{"android":"levelo://app?vid=484d62e3-8e92-4d73-971b-41c613b66c1b","ios":"levelo://app?vid=484d62e3-8e92-4d73-971b-41c613b66c1b"},"vehicle_type_id":"4","last_reported":1741932831,"current_range_meters":10000,"station_id":"ce4bhb12rcd13ifvqem0","pricing_plan_id":"cebpf4jnsgd1na2vs0mg"},{"bike_id":"36ec5a15-215b-4367-a3ca-336aadd9a251","system_id":"levelo_inurba_marseille","lat":43.33746,"lon":5.3745,"is_reserved":false,"is_disabled":false,"rental_uris":{"android":"levelo://app?vid=36ec5a15-215b-4367-a3ca-336aadd9a251","ios":"levelo://app?vid=36ec5a15-215b-4367-a3ca-336aadd9a251"},"vehicle_type_id":"4","last_reported":1741932831,"current_range_meters":10000,"station_id":"","pricing_plan_id":"cebpf4jnsgd1na2vs0mg"},{"bike_id":"a5c672ff-0d6f-4565-b2c7-94f7284c6604","system_id":"levelo_inurba_marseille","lat":43.27937,"lon":5.41052,"is_reserved":false,"is_disabled":false,"rental_uris":{"android":"levelo://app?vid=a5c672ff-0d6f-4565-b2c7-94f7284c6604","ios":"levelo://app?vid=a5c672ff-0d6f-4565-b2c7-94f7284c6604"},"vehicle_type_id":"4","last_reported":1741932831,"current_range_meters":10800,"station_id":"ce4bhnp2rcd13ifvqh0g","pricing_plan_id":"cebpf4jnsgd1na2vs0mg"},{"bike_id":"468baa96-3c25-4c23-870e-453bcb0a0bfb","system_id":"levelo_inurba_marseille","lat":43.27812,"lon":5.40706,"is_reserved":false,"is_disabled":false,"rental_uris":{"android":"levelo://app?vid=468baa96-3c25-4c23-870e-453bcb0a0bfb","ios":"levelo://app?vid=468baa96-3c25-4c23-870e-453bcb0a0bfb"},"vehicle_type_id":"4","last_reported":1741932831,"current_range_meters":10800,"station_id":"ce4bhnh2rcd13ifvqgtg","pricing_plan_id":"cebpf4jnsgd1na2vs0mg"},{"bike_id":"205861f1-c8e8-437b-8921-43664245ec7b","system_id":"levelo_inurba_marseille","lat":43.30994,"lon":5.384683,"is_reserved":false,"is_disabled":false,"rental_uris":{"android":"levelo://app?vid=205861f1-c8e8-437b-8921-43664245ec7b","ios":"levelo://app?vid=205861f1-c8e8-437b-8921-43664245ec7b"},"vehicle_type_id":"4","last_reported":1741932831,"current_range_meters":10800,"station_id":"","pricing_plan_id":"cebpf4jnsgd1na2vs0mg"},{"bike_id":"74d894b1-9334-47c2-9db2-41270237a91f","system_id":"levelo_inurba_marseille","lat":43.23181,"lon":5.3999,"is_reserved":false,"is_disabled":false,"rental_uris":{"android":"levelo://app?vid=74d894b1-9334-47c2-9db2-41270237a91f","ios":"levelo://app?vid=74d894b1-9334-47c2-9db2-41270237a91f"},"vehicle_type_id":"4","last_reported":1741932831,"current_range_meters":10800,"station_id":"ce4bhn12rcd13ifvqgqg","pricing_plan_id":"cebpf4jnsgd1na2vs0mg"},{"bike_id":"594a33ea-5c85-49b0-893b-48b1f5e1011a","system_id":"levelo_inurba_marseille","lat":43.309228,"lon":5.401418,"is_reserved":false,"is_disabled":true,"rental_uris":{"android":"levelo://app?vid=594a33ea-5c85-49b0-893b-48b1f5e1011a","ios":"levelo://app?vid=594a33ea-5c85-49b0-893b-48b1f5e1011a"},"vehicle_type_id":"4","last_reported":1741932831,"current_range_meters":10800,"station_id":"ce4bgvp2rcd13ifvqct0","pricing_plan_id":"cebpf4jnsgd1na2vs0mg"},{"bike_id":"02757fb8-8293-4514-b994-62c44c21925e","system_id":"levelo_inurba_marseille","lat":43.28727,"lon":5.36118,"is_reserved":false,"is_disabled":false,"rental_uris":{"android":"levelo://app?vid=02757fb8-8293-4514-b994-62c44c21925e","ios":"levelo://app?vid=02757fb8-8293-4514-b994-62c44c21925e"},"vehicle_type_id":"4","last_reported":1741932831,"current_range_meters":10800,"station_id":"cki0cbj6b192h4jlfktg","pricing_plan_id":"cebpf4jnsgd1na2vs0mg"},{"bike_id":"1364704f-c9ba-4f42-a150-59df36918858","system_id":"levelo_inurba_marseille","lat":43.30641,"lon":5.40117,"is_reserved":false,"is_disabled":false,"rental_uris":{"android":"levelo://app?vid=1364704f-c9ba-4f42-a150-59df36918858","ios":"levelo://app?vid=1364704f-c9ba-4f42-a150-59df36918858"},"vehicle_type_id":"4","last_reported":1741932831,"current_range_meters":10800,"station_id":"ce4bh112rcd13ifvqda0","pricing_plan_id":"cebpf4jnsgd1na2vs0mg"},{"bike_id":"7aea5cac-f54e-4123-8d88-d24797d30a41","system_id":"levelo_inurba_marseille","lat":43.24658,"lon":5.38908,"is_reserved":false,"is_disabled":false,"rental_uris":{"android":"levelo://app?vid=7aea5cac-f54e-4123-8d88-d24797d30a41","ios":"levelo://app?vid=7aea5cac-f54e-4123-8d88-d24797d30a41"},"vehicle_type_id":"4","last_reported":1741932831,"current_range_meters":10800,"station_id":"ce4bhg12rcd13ifvqf60","pricing_plan_id":"cebpf4jnsgd1na2vs0mg"},{"bike_id":"78dce6e6-36eb-4d6b-a861-292dc7c9e479","system_id":"levelo_inurba_marseille","lat":43.24991,"lon":5.3893,"is_reserved":false,"is_disabled":false,"rental_uris":{"android":"levelo://app?vid=78dce6e6-36eb-4d6b-a861-292dc7c9e479","ios":"levelo://app?vid=78dce6e6-36eb-4d6b-a861-292dc7c9e479"},"vehicle_type_id":"4","last_reported":1741932831,"current_range_meters":11200,"station_id":"ce4bhgp2rcd13ifvqfd0","pricing_plan_id":"cebpf4jnsgd1na2vs0mg"},{"bike_id":"a5e71948-735a-4229-b2ca-74d55fc62066","system_id":"levelo_inurba_marseille","lat":43.28037,"lon":5.369389,"is_reserved":false,"is_disabled":false,"rental_uris":{"android":"levelo://app?vid=a5e71948-735a-4229-b2ca-74d55fc62066","ios":"levelo://app?vid=a5e71948-735a-4229-b2ca-74d55fc62066"},"vehicle_type_id":"4","last_reported":1741932831,"current_range_meters":11200,"station_id":"ce4bha12rcd13ifvqef0","pricing_plan_id":"cebpf4jnsgd1na2vs0mg"},{"bike_id":"2db1f70a-b321-4eab-a505-0665a9ce4cc1","system_id":"levelo_inurba_marseille","lat":43.29704,"lon":5.36601,"is_reserved":false,"is_disabled":false,"rental_uris":{"android":"levelo://app?vid=2db1f70a-b321-4eab-a505-0665a9ce4cc1","ios":"levelo://app?vid=2db1f70a-b321-4eab-a505-0665a9ce4cc1"},"vehicle_type_id":"4","last_reported":1741932831,"current_range_meters":11200,"station_id":"ce4bgn12rcd13ifvqbt0","pricing_plan_id":"cebpf4jnsgd1na2vs0mg"},{"bike_id":"840fe58d-702c-4643-802b-02b7904775ac","system_id":"levelo_inurba_marseille","lat":43.30788,"lon":5.43545,"is_reserved":false,"is_disabled":false,"rental_uris":{"android":"levelo://app?vid=840fe58d-702c-4643-802b-02b7904775ac","ios":"levelo://app?vid=840fe58d-702c-4643-802b-02b7904775ac"},"vehicle_type_id":"4","last_reported":1741932831,"current_range_meters":11200,"station_id":"ce4bhph2rcd13ifvqheg","pricing_plan_id":"cebpf4jnsgd1na2vs0mg"},{"bike_id":"d76b6165-d192-435e-aaea-6a18987b94b7","system_id":"levelo_inurba_marseille","lat":43.28413,"lon":5.349853,"is_reserved":false,"is_disabled":false,"rental_uris":{"android":"levelo://app?vid=d76b6165-d192-435e-aaea-6a18987b94b7","ios":"levelo://app?vid=d76b6165-d192-435e-aaea-6a18987b94b7"},"vehicle_type_id":"4","last_reported":1741932831,"current_range_meters":11200,"station_id":"ce4bhbh2rcd13ifvqepg","pricing_plan_id":"cebpf4jnsgd1na2vs0mg"},{"bike_id":"98befa5c-f449-457b-b6dd-787d678fbfe6","system_id":"levelo_inurba_marseille","lat":43.29749,"lon":5.37893,"is_reserved":false,"is_disabled":false,"rental_uris":{"android":"levelo://app?vid=98befa5c-f449-457b-b6dd-787d678fbfe6","ios":"levelo://app?vid=98befa5c-f449-457b-b6dd-787d678fbfe6"},"vehicle_type_id":"4","last_reported":1741932831,"current_range_meters":11200,"station_id":"","pricing_plan_id":"cebpf4jnsgd1na2vs0mg"},{"bike_id":"882877d6-b866-4b92-bcdf-bb43c34ed300","system_id":"levelo_inurba_marseille","lat":43.284248,"lon":5.349908,"is_reserved":false,"is_disabled":false,"rental_uris":{"android":"levelo://app?vid=882877d6-b866-4b92-bcdf-bb43c34ed300","ios":"levelo://app?vid=882877d6-b866-4b92-bcdf-bb43c34ed300"},"vehicle_type_id":"4","last_reported":1741932831,"current_range_meters":11600,"station_id":"ce4bhbh2rcd13ifvqepg","pricing_plan_id":"cebpf4jnsgd1na2vs0mg"},{"bike_id":"68a34e8f-540a-4fe3-a5ff-deaa13caa845","system_id":"levelo_inurba_marseille","lat":43.29728,"lon":5.44754,"is_reserved":false,"is_disabled":false,"rental_uris":{"android":"levelo://app?vid=68a34e8f-540a-4fe3-a5ff-deaa13caa845","ios":"levelo://app?vid=68a34e8f-540a-4fe3-a5ff-deaa13caa845"},"vehicle_type_id":"4","last_reported":1741932831,"current_range_meters":11600,"station_id":"","pricing_plan_id":"cebpf4jnsgd1na2vs0mg"},{"bike_id":"53cbc3b8-73f7-4525-88f8-5bf9f8c70134","system_id":"levelo_inurba_marseille","lat":43.28402,"lon":5.37513,"is_reserved":false,"is_disabled":false,"rental_uris":{"android":"levelo://app?vid=53cbc3b8-73f7-4525-88f8-5bf9f8c70134","ios":"levelo://app?vid=53cbc3b8-73f7-4525-88f8-5bf9f8c70134"},"vehicle_type_id":"4","last_reported":1741932831,"current_range_meters":11600,"station_id":"ce4bh412rcd13ifvqds0","pricing_plan_id":"cebpf4jnsgd1na2vs0mg"},{"bike_id":"1ccba09a-030c-4f03-8cb9-142b3443ab59","system_id":"levelo_inurba_marseille","lat":43.30878,"lon":5.39671,"is_reserved":false,"is_disabled":false,"rental_uris":{"android":"levelo://app?vid=1ccba09a-030c-4f03-8cb9-142b3443ab59","ios":"levelo://app?vid=1ccba09a-030c-4f03-8cb9-142b3443ab59"},"vehicle_type_id":"4","last_reported":1741932831,"current_range_meters":12000,"station_id":"ce4bh012rcd13ifvqcv0","pricing_plan_id":"cebpf4jnsgd1na2vs0mg"},{"bike_id":"aeec4843-e0cf-441f-b4d2-907b0f5fbe59","system_id":"levelo_inurba_marseille","lat":43.258254,"lon":5.394342,"is_reserved":false,"is_disabled":false,"rental_uris":{"android":"levelo://app?vid=aeec4843-e0cf-441f-b4d2-907b0f5fbe59","ios":"levelo://app?vid=aeec4843-e0cf-441f-b4d2-907b0f5fbe59"},"vehicle_type_id":"4","last_reported":1741932831,"current_range_meters":12000,"station_id":"ce4bhip2rcd13ifvqft0","pricing_plan_id":"cebpf4jnsgd1na2vs0mg"},{"bike_id":"29832e81-b63f-44c3-a8ae-1ccbc505bd58","system_id":"levelo_inurba_marseille","lat":43.27814,"lon":5.40722,"is_reserved":false,"is_disabled":false,"rental_uris":{"android":"levelo://app?vid=29832e81-b63f-44c3-a8ae-1ccbc505bd58","ios":"levelo://app?vid=29832e81-b63f-44c3-a8ae-1ccbc505bd58"},"vehicle_type_id":"4","last_reported":1741932831,"current_range_meters":12000,"station_id":"ce4bhnh2rcd13ifvqgtg","pricing_plan_id":"cebpf4jnsgd1na2vs0mg"},{"bike_id":"662e13ee-ccf3-4ffe-9041-8137225be89d","system_id":"levelo_inurba_marseille","lat":43.28871,"lon":5.36418,"is_reserved":false,"is_disabled":false,"rental_uris":{"android":"levelo://app?vid=662e13ee-ccf3-4ffe-9041-8137225be89d","ios":"levelo://app?vid=662e13ee-ccf3-4ffe-9041-8137225be89d"},"vehicle_type_id":"4","last_reported":1741932831,"current_range_meters":12000,"station_id":"","pricing_plan_id":"cebpf4jnsgd1na2vs0mg"},{"bike_id":"dc2dc920-7061-4611-9ad3-02d4898aaa15","system_id":"levelo_inurba_marseille","lat":43.23199,"lon":5.39979,"is_reserved":false,"is_disabled":false,"rental_uris":{"android":"levelo://app?vid=dc2dc920-7061-4611-9ad3-02d4898aaa15","ios":"levelo://app?vid=dc2dc920-7061-4611-9ad3-02d4898aaa15"},"vehicle_type_id":"4","last_reported":1741932831,"current_range_meters":12000,"station_id":"ce4bhn12rcd13ifvqgqg","pricing_plan_id":"cebpf4jnsgd1na2vs0mg"},{"bike_id":"3959c750-cc5b-4501-a9c1-aa26389cb4a3","system_id":"levelo_inurba_marseille","lat":43.29252,"lon":5.38434,"is_reserved":false,"is_disabled":true,"rental_uris":{"android":"levelo://app?vid=3959c750-cc5b-4501-a9c1-aa26389cb4a3","ios":"levelo://app?vid=3959c750-cc5b-4501-a9c1-aa26389cb4a3"},"vehicle_type_id":"4","last_reported":1741932831,"current_range_meters":12400,"station_id":"ce4bh692rcd13ifvqea0","pricing_plan_id":"cebpf4jnsgd1na2vs0mg"},{"bike_id":"ab047761-22ba-4663-afe3-d5d1d10a6654","system_id":"levelo_inurba_marseille","lat":43.2884,"lon":5.38149,"is_reserved":false,"is_disabled":false,"rental_uris":{"android":"levelo://app?vid=ab047761-22ba-4663-afe3-d5d1d10a6654","ios":"levelo://app?vid=ab047761-22ba-4663-afe3-d5d1d10a6654"},"vehicle_type_id":"4","last_reported":1741932831,"current_range_meters":12400,"station_id":"","pricing_plan_id":"cebpf4jnsgd1na2vs0mg"},{"bike_id":"c40c33b5-521b-4a17-b7a4-914cd59bd7c7","system_id":"levelo_inurba_marseille","lat":43.27999,"lon":5.41666,"is_reserved":false,"is_disabled":false,"rental_uris":{"android":"levelo://app?vid=c40c33b5-521b-4a17-b7a4-914cd59bd7c7","ios":"levelo://app?vid=c40c33b5-521b-4a17-b7a4-914cd59bd7c7"},"vehicle_type_id":"4","last_reported":1741932831,"current_range_meters":11600,"station_id":"ce4bho12rcd13ifvqh1g","pricing_plan_id":"cebpf4jnsgd1na2vs0mg"},{"bike_id":"69c60efd-cced-4215-918d-ab39edd61a69","system_id":"levelo_inurba_marseille","lat":43.27991,"lon":5.4162,"is_reserved":false,"is_disabled":false,"rental_uris":{"android":"levelo://app?vid=69c60efd-cced-4215-918d-ab39edd61a69","ios":"levelo://app?vid=69c60efd-cced-4215-918d-ab39edd61a69"},"vehicle_type_id":"4","last_reported":1741932831,"current_range_meters":12400,"station_id":"ce4bho12rcd13ifvqh1g","pricing_plan_id":"cebpf4jnsgd1na2vs0mg"},{"bike_id":"9fe7686a-dd83-42fb-a581-8ce0fadc4930","system_id":"levelo_inurba_marseille","lat":43.29914,"lon":5.37468,"is_reserved":false,"is_disabled":false,"rental_uris":{"android":"levelo://app?vid=9fe7686a-dd83-42fb-a581-8ce0fadc4930","ios":"levelo://app?vid=9fe7686a-dd83-42fb-a581-8ce0fadc4930"},"vehicle_type_id":"4","last_reported":1741932831,"current_range_meters":12400,"station_id":"ce4bgjh2rcd13ifvqbg0","pricing_plan_id":"cebpf4jnsgd1na2vs0mg"},{"bike_id":"975043cc-2947-4407-914c-c76c5824daa1","system_id":"levelo_inurba_marseille","lat":43.2705,"lon":5.40267,"is_reserved":false,"is_disabled":false,"rental_uris":{"android":"levelo://app?vid=975043cc-2947-4407-914c-c76c5824daa1","ios":"levelo://app?vid=975043cc-2947-4407-914c-c76c5824daa1"},"vehicle_type_id":"4","last_reported":1741932831,"current_range_meters":12400,"station_id":"ce4bhk92rcd13ifvqgc0","pricing_plan_id":"cebpf4jnsgd1na2vs0mg"},{"bike_id":"5bbbcc9c-c390-411b-9d62-74fb6404d435","system_id":"levelo_inurba_marseille","lat":43.24063,"lon":5.37765,"is_reserved":false,"is_disabled":false,"rental_uris":{"android":"levelo://app?vid=5bbbcc9c-c390-411b-9d62-74fb6404d435","ios":"levelo://app?vid=5bbbcc9c-c390-411b-9d62-74fb6404d435"},"vehicle_type_id":"4","last_reported":1741932831,"current_range_meters":12400,"station_id":"ce4bhnp2rcd13ifvqgvg","pricing_plan_id":"cebpf4jnsgd1na2vs0mg"},{"bike_id":"3e33256a-d861-45c0-af01-75642132ca20","system_id":"levelo_inurba_marseille","lat":43.330151,"lon":5.394081,"is_reserved":false,"is_disabled":false,"rental_uris":{"android":"levelo://app?vid=3e33256a-d861-45c0-af01-75642132ca20","ios":"levelo://app?vid=3e33256a-d861-45c0-af01-75642132ca20"},"vehicle_type_id":"4","last_reported":1741932831,"current_range_meters":12400,"station_id":"","pricing_plan_id":"cebpf4jnsgd1na2vs0mg"},{"bike_id":"11ab28db-342a-4a7b-89e2-1b7c32ed69f6","system_id":"levelo_inurba_marseille","lat":43.31279,"lon":5.40172,"is_reserved":false,"is_disabled":false,"rental_uris":{"android":"levelo://app?vid=11ab28db-342a-4a7b-89e2-1b7c32ed69f6","ios":"levelo://app?vid=11ab28db-342a-4a7b-89e2-1b7c32ed69f6"},"vehicle_type_id":"4","last_reported":1741932831,"current_range_meters":12800,"station_id":"ce4bh092rcd13ifvqd30","pricing_plan_id":"cebpf4jnsgd1na2vs0mg"},{"bike_id":"81e99bb2-252e-484a-a61f-54889572fa56","system_id":"levelo_inurba_marseille","lat":43.2923,"lon":5.3607,"is_reserved":false,"is_disabled":false,"rental_uris":{"android":"levelo://app?vid=81e99bb2-252e-484a-a61f-54889572fa56","ios":"levelo://app?vid=81e99bb2-252e-484a-a61f-54889572fa56"},"vehicle_type_id":"4","last_reported":1741932831,"current_range_meters":12800,"station_id":"ce4bhbh2rcd13ifvqeqg","pricing_plan_id":"cebpf4jnsgd1na2vs0mg"},{"bike_id":"c6f9c2cc-8d82-4ef0-9c96-3fa68372f355","system_id":"levelo_inurba_marseille","lat":43.25027,"lon":5.38938,"is_reserved":false,"is_disabled":false,"rental_uris":{"android":"levelo://app?vid=c6f9c2cc-8d82-4ef0-9c96-3fa68372f355","ios":"levelo://app?vid=c6f9c2cc-8d82-4ef0-9c96-3fa68372f355"},"vehicle_type_id":"4","last_reported":1741932831,"current_range_meters":12800,"station_id":"ce4bhgp2rcd13ifvqfd0","pricing_plan_id":"cebpf4jnsgd1na2vs0mg"},{"bike_id":"ac9829db-5826-4bcf-b26b-4776553d00ba","system_id":"levelo_inurba_marseille","lat":43.31684,"lon":5.40449,"is_reserved":false,"is_disabled":false,"rental_uris":{"android":"levelo://app?vid=ac9829db-5826-4bcf-b26b-4776553d00ba","ios":"levelo://app?vid=ac9829db-5826-4bcf-b26b-4776553d00ba"},"vehicle_type_id":"4","last_reported":1741932831,"current_range_meters":12800,"station_id":"ce4bh012rcd13ifvqd00","pricing_plan_id":"cebpf4jnsgd1na2vs0mg"},{"bike_id":"e8e9c490-a75f-4bb2-9f55-9848d5faa0bd","system_id":"levelo_inurba_marseille","lat":43.25715,"lon":5.41115,"is_reserved":false,"is_disabled":false,"rental_uris":{"android":"levelo://app?vid=e8e9c490-a75f-4bb2-9f55-9848d5faa0bd","ios":"levelo://app?vid=e8e9c490-a75f-4bb2-9f55-9848d5faa0bd"},"vehicle_type_id":"4","last_reported":1741932831,"current_range_meters":12800,"station_id":"ce4bhkp2rcd13ifvqgd0","pricing_plan_id":"cebpf4jnsgd1na2vs0mg"},{"bike_id":"c4f2740c-3fd6-4d84-b01f-bc333e653762","system_id":"levelo_inurba_marseille","lat":43.24655,"lon":5.38181,"is_reserved":false,"is_disabled":false,"rental_uris":{"android":"levelo://app?vid=c4f2740c-3fd6-4d84-b01f-bc333e653762","ios":"levelo://app?vid=c4f2740c-3fd6-4d84-b01f-bc333e653762"},"vehicle_type_id":"4","last_reported":1741932831,"current_range_meters":12800,"station_id":"ce4bhih2rcd13ifvqfr0","pricing_plan_id":"cebpf4jnsgd1na2vs0mg"},{"bike_id":"209369df-b5a0-42fc-be55-c13f536bfc68","system_id":"levelo_inurba_marseille","lat":43.314787,"lon":5.368596,"is_reserved":false,"is_disabled":false,"rental_uris":{"android":"levelo://app?vid=209369df-b5a0-42fc-be55-c13f536bfc68","ios":"levelo://app?vid=209369df-b5a0-42fc-be55-c13f536bfc68"},"vehicle_type_id":"4","last_reported":1741932831,"current_range_meters":12800,"station_id":"","pricing_plan_id":"cebpf4jnsgd1na2vs0mg"},{"bike_id":"0c95b249-063d-4d68-b0aa-6d11df8fba5b","system_id":"levelo_inurba_marseille","lat":43.30647,"lon":5.40069,"is_reserved":false,"is_disabled":false,"rental_uris":{"android":"levelo://app?vid=0c95b249-063d-4d68-b0aa-6d11df8fba5b","ios":"levelo://app?vid=0c95b249-063d-4d68-b0aa-6d11df8fba5b"},"vehicle_type_id":"4","last_reported":1741932831,"current_range_meters":12800,"station_id":"ce4bh112rcd13ifvqda0","pricing_plan_id":"cebpf4jnsgd1na2vs0mg"},{"bike_id":"2fcdbd2d-52b8-4841-9569-2b04b6707abc","system_id":"levelo_inurba_marseille","lat":43.2319,"lon":5.40001,"is_reserved":false,"is_disabled":false,"rental_uris":{"android":"levelo://app?vid=2fcdbd2d-52b8-4841-9569-2b04b6707abc","ios":"levelo://app?vid=2fcdbd2d-52b8-4841-9569-2b04b6707abc"},"vehicle_type_id":"4","last_reported":1741932831,"current_range_meters":13600,"station_id":"ce4bhn12rcd13ifvqgqg","pricing_plan_id":"cebpf4jnsgd1na2vs0mg"},{"bike_id":"bf42223a-5f10-4652-a828-669a98265513","system_id":"levelo_inurba_marseille","lat":43.287158,"lon":5.37935,"is_reserved":false,"is_disabled":false,"rental_uris":{"android":"levelo://app?vid=bf42223a-5f10-4652-a828-669a98265513","ios":"levelo://app?vid=bf42223a-5f10-4652-a828-669a98265513"},"vehicle_type_id":"4","last_reported":1741932831,"current_range_meters":13600,"station_id":"ce4bh9p2rcd13ifvqec0","pricing_plan_id":"cebpf4jnsgd1na2vs0mg"},{"bike_id":"ce06a747-dfc5-4afc-8c06-8358fffe4bb2","system_id":"levelo_inurba_marseille","lat":43.28409,"lon":5.34992,"is_reserved":false,"is_disabled":false,"rental_uris":{"android":"levelo://app?vid=ce06a747-dfc5-4afc-8c06-8358fffe4bb2","ios":"levelo://app?vid=ce06a747-dfc5-4afc-8c06-8358fffe4bb2"},"vehicle_type_id":"4","last_reported":1741932831,"current_range_meters":13600,"station_id":"ce4bhbh2rcd13ifvqepg","pricing_plan_id":"cebpf4jnsgd1na2vs0mg"},{"bike_id":"af474046-e400-4ac9-a0d2-80fc69b95ff7","system_id":"levelo_inurba_marseille","lat":43.30527,"lon":5.36545,"is_reserved":false,"is_disabled":false,"rental_uris":{"android":"levelo://app?vid=af474046-e400-4ac9-a0d2-80fc69b95ff7","ios":"levelo://app?vid=af474046-e400-4ac9-a0d2-80fc69b95ff7"},"vehicle_type_id":"4","last_reported":1741932831,"current_range_meters":13600,"station_id":"ce4bgs12rcd13ifvqcag","pricing_plan_id":"cebpf4jnsgd1na2vs0mg"},{"bike_id":"ae64ab42-2eb1-48d5-91c4-ee0243171e9d","system_id":"levelo_inurba_marseille","lat":43.29028,"lon":5.39966,"is_reserved":false,"is_disabled":false,"rental_uris":{"android":"levelo://app?vid=ae64ab42-2eb1-48d5-91c4-ee0243171e9d","ios":"levelo://app?vid=ae64ab42-2eb1-48d5-91c4-ee0243171e9d"},"vehicle_type_id":"4","last_reported":1741932831,"current_range_meters":13600,"station_id":"ce4bh392rcd13ifvqdm0","pricing_plan_id":"cebpf4jnsgd1na2vs0mg"},{"bike_id":"447c384c-91a7-47f1-a092-102efb0045fd","system_id":"levelo_inurba_marseille","lat":43.2961,"lon":5.40617,"is_reserved":false,"is_disabled":false,"rental_uris":{"android":"levelo://app?vid=447c384c-91a7-47f1-a092-102efb0045fd","ios":"levelo://app?vid=447c384c-91a7-47f1-a092-102efb0045fd"},"vehicle_type_id":"4","last_reported":1741932831,"current_range_meters":13600,"station_id":"ce4bh0h2rcd13ifvqd60","pricing_plan_id":"cebpf4jnsgd1na2vs0mg"},{"bike_id":"c7950de0-ccb6-4d1b-a54b-5d73e8dc2b0a","system_id":"levelo_inurba_marseille","lat":43.28441,"lon":5.39209,"is_reserved":false,"is_disabled":false,"rental_uris":{"android":"levelo://app?vid=c7950de0-ccb6-4d1b-a54b-5d73e8dc2b0a","ios":"levelo://app?vid=c7950de0-ccb6-4d1b-a54b-5d73e8dc2b0a"},"vehicle_type_id":"4","last_reported":1741932831,"current_range_meters":13600,"station_id":"ce4bhoh2rcd13ifvqh5g","pricing_plan_id":"cebpf4jnsgd1na2vs0mg"},{"bike_id":"bd7fb638-a561-41df-90ca-f32685780427","system_id":"levelo_inurba_marseille","lat":43.22922,"lon":5.35383,"is_reserved":false,"is_disabled":false,"rental_uris":{"android":"levelo://app?vid=bd7fb638-a561-41df-90ca-f32685780427","ios":"levelo://app?vid=bd7fb638-a561-41df-90ca-f32685780427"},"vehicle_type_id":"4","last_reported":1741932831,"current_range_meters":13600,"station_id":"cpo3532slgdg3j2ikp40","pricing_plan_id":"cebpf4jnsgd1na2vs0mg"},{"bike_id":"763a16a6-bc6e-48d4-84d3-a1ea13c086bc","system_id":"levelo_inurba_marseille","lat":43.290321,"lon":5.375604,"is_reserved":false,"is_disabled":true,"rental_uris":{"android":"levelo://app?vid=763a16a6-bc6e-48d4-84d3-a1ea13c086bc","ios":"levelo://app?vid=763a16a6-bc6e-48d4-84d3-a1ea13c086bc"},"vehicle_type_id":"4","last_reported":1741932831,"current_range_meters":13600,"station_id":"ce4bh692rcd13ifvqe90","pricing_plan_id":"cebpf4jnsgd1na2vs0mg"},{"bike_id":"bf990c20-70f5-4659-83c7-3780ce4a6071","system_id":"levelo_inurba_marseille","lat":43.28434,"lon":5.39182,"is_reserved":false,"is_disabled":false,"rental_uris":{"android":"levelo://app?vid=bf990c20-70f5-4659-83c7-3780ce4a6071","ios":"levelo://app?vid=bf990c20-70f5-4659-83c7-3780ce4a6071"},"vehicle_type_id":"4","last_reported":1741932831,"current_range_meters":13600,"station_id":"ce4bhoh2rcd13ifvqh5g","pricing_plan_id":"cebpf4jnsgd1na2vs0mg"},{"bike_id":"7afbb10b-29e2-408a-bf9a-c9b594f91f98","system_id":"levelo_inurba_marseille","lat":43.262263,"lon":5.404649,"is_reserved":false,"is_disabled":false,"rental_uris":{"android":"levelo://app?vid=7afbb10b-29e2-408a-bf9a-c9b594f91f98","ios":"levelo://app?vid=7afbb10b-29e2-408a-bf9a-c9b594f91f98"},"vehicle_type_id":"4","last_reported":1741932831,"current_range_meters":14000,"station_id":"ce4bhmh2rcd13ifvqgmg","pricing_plan_id":"cebpf4jnsgd1na2vs0mg"},{"bike_id":"59822710-2d10-4517-868b-42cfab329759","system_id":"levelo_inurba_marseille","lat":43.231971,"lon":5.355618,"is_reserved":false,"is_disabled":false,"rental_uris":{"android":"levelo://app?vid=59822710-2d10-4517-868b-42cfab329759","ios":"levelo://app?vid=59822710-2d10-4517-868b-42cfab329759"},"vehicle_type_id":"4","last_reported":1741932831,"current_range_meters":14000,"station_id":"ce4bhu92rcd13ifvqi70","pricing_plan_id":"cebpf4jnsgd1na2vs0mg"},{"bike_id":"31c8862d-1f7d-4f69-a37f-93c25c9ce4d5","system_id":"levelo_inurba_marseille","lat":43.250078,"lon":5.389287,"is_reserved":false,"is_disabled":false,"rental_uris":{"android":"levelo://app?vid=31c8862d-1f7d-4f69-a37f-93c25c9ce4d5","ios":"levelo://app?vid=31c8862d-1f7d-4f69-a37f-93c25c9ce4d5"},"vehicle_type_id":"4","last_reported":1741932831,"current_range_meters":14000,"station_id":"ce4bhgp2rcd13ifvqfd0","pricing_plan_id":"cebpf4jnsgd1na2vs0mg"},{"bike_id":"d98e5f37-4f71-4a36-9b3b-496f87de0d61","system_id":"levelo_inurba_marseille","lat":43.31105,"lon":5.37599,"is_reserved":false,"is_disabled":false,"rental_uris":{"android":"levelo://app?vid=d98e5f37-4f71-4a36-9b3b-496f87de0d61","ios":"levelo://app?vid=d98e5f37-4f71-4a36-9b3b-496f87de0d61"},"vehicle_type_id":"4","last_reported":1741932831,"current_range_meters":14000,"station_id":"","pricing_plan_id":"cebpf4jnsgd1na2vs0mg"},{"bike_id":"71e80157-4ef4-4e3e-8058-1f3fbd36ccdb","system_id":"levelo_inurba_marseille","lat":43.28933,"lon":5.39631,"is_reserved":false,"is_disabled":false,"rental_uris":{"android":"levelo://app?vid=71e80157-4ef4-4e3e-8058-1f3fbd36ccdb","ios":"levelo://app?vid=71e80157-4ef4-4e3e-8058-1f3fbd36ccdb"},"vehicle_type_id":"4","last_reported":1741932831,"current_range_meters":14000,"station_id":"ce4bh3h2rcd13ifvqdn0","pricing_plan_id":"cebpf4jnsgd1na2vs0mg"},{"bike_id":"e8c41106-611b-4b63-ab3a-8921ab9bd516","system_id":"levelo_inurba_marseille","lat":43.28839,"lon":5.35843,"is_reserved":false,"is_disabled":false,"rental_uris":{"android":"levelo://app?vid=e8c41106-611b-4b63-ab3a-8921ab9bd516","ios":"levelo://app?vid=e8c41106-611b-4b63-ab3a-8921ab9bd516"},"vehicle_type_id":"4","last_reported":1741932831,"current_range_meters":14400,"station_id":"ce4bhb12rcd13ifvqem0","pricing_plan_id":"cebpf4jnsgd1na2vs0mg"},{"bike_id":"f8e9787d-4c7f-4b26-a202-4ff55b4e451b","system_id":"levelo_inurba_marseille","lat":43.29939,"lon":5.37441,"is_reserved":false,"is_disabled":true,"rental_uris":{"android":"levelo://app?vid=f8e9787d-4c7f-4b26-a202-4ff55b4e451b","ios":"levelo://app?vid=f8e9787d-4c7f-4b26-a202-4ff55b4e451b"},"vehicle_type_id":"4","last_reported":1741932831,"current_range_meters":14400,"station_id":"ce4bgjh2rcd13ifvqbg0","pricing_plan_id":"cebpf4jnsgd1na2vs0mg"},{"bike_id":"ba033f89-bb1c-4f92-a2bf-635f0998cf01","system_id":"levelo_inurba_marseille","lat":43.28434,"lon":5.39187,"is_reserved":false,"is_disabled":false,"rental_uris":{"android":"levelo://app?vid=ba033f89-bb1c-4f92-a2bf-635f0998cf01","ios":"levelo://app?vid=ba033f89-bb1c-4f92-a2bf-635f0998cf01"},"vehicle_type_id":"4","last_reported":1741932831,"current_range_meters":14800,"station_id":"ce4bhoh2rcd13ifvqh5g","pricing_plan_id":"cebpf4jnsgd1na2vs0mg"},{"bike_id":"07c72146-04d2-40c0-8674-54cd753f78e1","system_id":"levelo_inurba_marseille","lat":43.25016,"lon":5.38908,"is_reserved":false,"is_disabled":false,"rental_uris":{"android":"levelo://app?vid=07c72146-04d2-40c0-8674-54cd753f78e1","ios":"levelo://app?vid=07c72146-04d2-40c0-8674-54cd753f78e1"},"vehicle_type_id":"4","last_reported":1741932831,"current_range_meters":14800,"station_id":"ce4bhgp2rcd13ifvqfd0","pricing_plan_id":"cebpf4jnsgd1na2vs0mg"},{"bike_id":"04f149c6-a120-4218-b435-a952d9eb67d0","system_id":"levelo_inurba_marseille","lat":43.24861,"lon":5.40645,"is_reserved":false,"is_disabled":false,"rental_uris":{"android":"levelo://app?vid=04f149c6-a120-4218-b435-a952d9eb67d0","ios":"levelo://app?vid=04f149c6-a120-4218-b435-a952d9eb67d0"},"vehicle_type_id":"4","last_reported":1741932831,"current_range_meters":14800,"station_id":"","pricing_plan_id":"cebpf4jnsgd1na2vs0mg"},{"bike_id":"5c6eed11-5b7b-4faa-9f2d-08025e97b244","system_id":"levelo_inurba_marseille","lat":43.24075,"lon":5.37785,"is_reserved":false,"is_disabled":false,"rental_uris":{"android":"levelo://app?vid=5c6eed11-5b7b-4faa-9f2d-08025e97b244","ios":"levelo://app?vid=5c6eed11-5b7b-4faa-9f2d-08025e97b244"},"vehicle_type_id":"4","last_reported":1741932831,"current_range_meters":14800,"station_id":"ce4bhnp2rcd13ifvqgvg","pricing_plan_id":"cebpf4jnsgd1na2vs0mg"},{"bike_id":"96f75d47-903c-45ac-ab93-3d63872bfcc8","system_id":"levelo_inurba_marseille","lat":43.278949,"lon":5.380125,"is_reserved":false,"is_disabled":false,"rental_uris":{"android":"levelo://app?vid=96f75d47-903c-45ac-ab93-3d63872bfcc8","ios":"levelo://app?vid=96f75d47-903c-45ac-ab93-3d63872bfcc8"},"vehicle_type_id":"4","last_reported":1741932831,"current_range_meters":15200,"station_id":"ce4bhf92rcd13ifvqf50","pricing_plan_id":"cebpf4jnsgd1na2vs0mg"},{"bike_id":"8e17715f-c74e-43f6-ada7-f6c63b953dbf","system_id":"levelo_inurba_marseille","lat":43.30885,"lon":5.3721,"is_reserved":false,"is_disabled":false,"rental_uris":{"android":"levelo://app?vid=8e17715f-c74e-43f6-ada7-f6c63b953dbf","ios":"levelo://app?vid=8e17715f-c74e-43f6-ada7-f6c63b953dbf"},"vehicle_type_id":"4","last_reported":1741932831,"current_range_meters":15200,"station_id":"ce4bguh2rcd13ifvqckg","pricing_plan_id":"cebpf4jnsgd1na2vs0mg"},{"bike_id":"480057fe-eac1-4351-8bb6-1067c18f12c8","system_id":"levelo_inurba_marseille","lat":43.28418,"lon":5.37521,"is_reserved":false,"is_disabled":false,"rental_uris":{"android":"levelo://app?vid=480057fe-eac1-4351-8bb6-1067c18f12c8","ios":"levelo://app?vid=480057fe-eac1-4351-8bb6-1067c18f12c8"},"vehicle_type_id":"4","last_reported":1741932831,"current_range_meters":15200,"station_id":"ce4bh412rcd13ifvqds0","pricing_plan_id":"cebpf4jnsgd1na2vs0mg"},{"bike_id":"08135f35-bf95-4ec3-b7d7-bd18c71af900","system_id":"levelo_inurba_marseille","lat":43.31272,"lon":5.40174,"is_reserved":false,"is_disabled":false,"rental_uris":{"android":"levelo://app?vid=08135f35-bf95-4ec3-b7d7-bd18c71af900","ios":"levelo://app?vid=08135f35-bf95-4ec3-b7d7-bd18c71af900"},"vehicle_type_id":"4","last_reported":1741932831,"current_range_meters":15200,"station_id":"ce4bh092rcd13ifvqd30","pricing_plan_id":"cebpf4jnsgd1na2vs0mg"},{"bike_id":"0d7955f1-ee12-476a-9add-4e922b4af2e0","system_id":"levelo_inurba_marseille","lat":43.31332,"lon":5.39706,"is_reserved":false,"is_disabled":false,"rental_uris":{"android":"levelo://app?vid=0d7955f1-ee12-476a-9add-4e922b4af2e0","ios":"levelo://app?vid=0d7955f1-ee12-476a-9add-4e922b4af2e0"},"vehicle_type_id":"4","last_reported":1741932831,"current_range_meters":15200,"station_id":"ce4bgvp2rcd13ifvqcu0","pricing_plan_id":"cebpf4jnsgd1na2vs0mg"},{"bike_id":"8eb1a957-a48f-4ea1-9a87-c9ca711e52f4","system_id":"levelo_inurba_marseille","lat":43.314925,"lon":5.372901,"is_reserved":false,"is_disabled":false,"rental_uris":{"android":"levelo://app?vid=8eb1a957-a48f-4ea1-9a87-c9ca711e52f4","ios":"levelo://app?vid=8eb1a957-a48f-4ea1-9a87-c9ca711e52f4"},"vehicle_type_id":"4","last_reported":1741932831,"current_range_meters":15200,"station_id":"ce4bgt12rcd13ifvqcd0","pricing_plan_id":"cebpf4jnsgd1na2vs0mg"},{"bike_id":"03681732-f126-4dbb-ad09-d1b9ba34b184","system_id":"levelo_inurba_marseille","lat":43.28251,"lon":5.35086,"is_reserved":false,"is_disabled":false,"rental_uris":{"android":"levelo://app?vid=03681732-f126-4dbb-ad09-d1b9ba34b184","ios":"levelo://app?vid=03681732-f126-4dbb-ad09-d1b9ba34b184"},"vehicle_type_id":"4","last_reported":1741932831,"current_range_meters":16000,"station_id":"ce4bhbp2rcd13ifvqerg","pricing_plan_id":"cebpf4jnsgd1na2vs0mg"},{"bike_id":"adb482da-38d1-4356-bb46-d4c16919ef20","system_id":"levelo_inurba_marseille","lat":43.29279,"lon":5.37442,"is_reserved":false,"is_disabled":true,"rental_uris":{"android":"levelo://app?vid=adb482da-38d1-4356-bb46-d4c16919ef20","ios":"levelo://app?vid=adb482da-38d1-4356-bb46-d4c16919ef20"},"vehicle_type_id":"4","last_reported":1741932831,"current_range_meters":16000,"station_id":"ce4bgi12rcd13ifvqb70","pricing_plan_id":"cebpf4jnsgd1na2vs0mg"},{"bike_id":"5b689058-a8e0-45c4-95c8-9ebaaf4696ff","system_id":"levelo_inurba_marseille","lat":43.29228,"lon":5.36068,"is_reserved":false,"is_disabled":false,"rental_uris":{"android":"levelo://app?vid=5b689058-a8e0-45c4-95c8-9ebaaf4696ff","ios":"levelo://app?vid=5b689058-a8e0-45c4-95c8-9ebaaf4696ff"},"vehicle_type_id":"4","last_reported":1741932831,"current_range_meters":16000,"station_id":"ce4bhbh2rcd13ifvqeqg","pricing_plan_id":"cebpf4jnsgd1na2vs0mg"},{"bike_id":"aeefe2ec-65b5-4d03-80b3-2396e9b36193","system_id":"levelo_inurba_marseille","lat":43.31082,"lon":5.38356,"is_reserved":false,"is_disabled":false,"rental_uris":{"android":"levelo://app?vid=aeefe2ec-65b5-4d03-80b3-2396e9b36193","ios":"levelo://app?vid=aeefe2ec-65b5-4d03-80b3-2396e9b36193"},"vehicle_type_id":"4","last_reported":1741932831,"current_range_meters":16000,"station_id":"ce4bgv92rcd13ifvqcr0","pricing_plan_id":"cebpf4jnsgd1na2vs0mg"},{"bike_id":"e0f00ea1-5190-455d-8f01-943045ce62ae","system_id":"levelo_inurba_marseille","lat":43.31171,"lon":5.37744,"is_reserved":false,"is_disabled":false,"rental_uris":{"android":"levelo://app?vid=e0f00ea1-5190-455d-8f01-943045ce62ae","ios":"levelo://app?vid=e0f00ea1-5190-455d-8f01-943045ce62ae"},"vehicle_type_id":"4","last_reported":1741932831,"current_range_meters":16000,"station_id":"","pricing_plan_id":"cebpf4jnsgd1na2vs0mg"},{"bike_id":"6de26fe8-e601-41a4-95fb-a0c7b8125e02","system_id":"levelo_inurba_marseille","lat":43.240727,"lon":5.377587,"is_reserved":false,"is_disabled":false,"rental_uris":{"android":"levelo://app?vid=6de26fe8-e601-41a4-95fb-a0c7b8125e02","ios":"levelo://app?vid=6de26fe8-e601-41a4-95fb-a0c7b8125e02"},"vehicle_type_id":"4","last_reported":1741932831,"current_range_meters":16000,"station_id":"ce4bhnp2rcd13ifvqgvg","pricing_plan_id":"cebpf4jnsgd1na2vs0mg"},{"bike_id":"50fc6919-e75b-41ca-91b1-b66005daff47","system_id":"levelo_inurba_marseille","lat":43.28728,"lon":5.37934,"is_reserved":false,"is_disabled":false,"rental_uris":{"android":"levelo://app?vid=50fc6919-e75b-41ca-91b1-b66005daff47","ios":"levelo://app?vid=50fc6919-e75b-41ca-91b1-b66005daff47"},"vehicle_type_id":"4","last_reported":1741932831,"current_range_meters":16400,"station_id":"ce4bh9p2rcd13ifvqec0","pricing_plan_id":"cebpf4jnsgd1na2vs0mg"},{"bike_id":"8832e951-7cf4-4902-bb80-aa5590d02a87","system_id":"levelo_inurba_marseille","lat":43.29624,"lon":5.37708,"is_reserved":false,"is_disabled":false,"rental_uris":{"android":"levelo://app?vid=8832e951-7cf4-4902-bb80-aa5590d02a87","ios":"levelo://app?vid=8832e951-7cf4-4902-bb80-aa5590d02a87"},"vehicle_type_id":"4","last_reported":1741932831,"current_range_meters":13600,"station_id":"ce4bgi92rcd13ifvqb90","pricing_plan_id":"cebpf4jnsgd1na2vs0mg"},{"bike_id":"7ac836fc-8bfb-4f6d-9ed8-aaa4df0bd855","system_id":"levelo_inurba_marseille","lat":43.323575,"lon":5.388809,"is_reserved":false,"is_disabled":false,"rental_uris":{"android":"levelo://app?vid=7ac836fc-8bfb-4f6d-9ed8-aaa4df0bd855","ios":"levelo://app?vid=7ac836fc-8bfb-4f6d-9ed8-aaa4df0bd855"},"vehicle_type_id":"4","last_reported":1741932831,"current_range_meters":16400,"station_id":"ce4bhqp2rcd13ifvqhog","pricing_plan_id":"cebpf4jnsgd1na2vs0mg"},{"bike_id":"4180b4fe-21df-4fcb-8ea6-aab5cd961e69","system_id":"levelo_inurba_marseille","lat":43.31897,"lon":5.4074,"is_reserved":false,"is_disabled":true,"rental_uris":{"android":"levelo://app?vid=4180b4fe-21df-4fcb-8ea6-aab5cd961e69","ios":"levelo://app?vid=4180b4fe-21df-4fcb-8ea6-aab5cd961e69"},"vehicle_type_id":"4","last_reported":1741932831,"current_range_meters":16400,"station_id":"ce4bhq12rcd13ifvqhig","pricing_plan_id":"cebpf4jnsgd1na2vs0mg"},{"bike_id":"a80d76dd-8dc7-4b3e-a4aa-e1c5b33899b1","system_id":"levelo_inurba_marseille","lat":43.257171,"lon":5.411149,"is_reserved":false,"is_disabled":false,"rental_uris":{"android":"levelo://app?vid=a80d76dd-8dc7-4b3e-a4aa-e1c5b33899b1","ios":"levelo://app?vid=a80d76dd-8dc7-4b3e-a4aa-e1c5b33899b1"},"vehicle_type_id":"4","last_reported":1741932831,"current_range_meters":16400,"station_id":"ce4bhkp2rcd13ifvqgd0","pricing_plan_id":"cebpf4jnsgd1na2vs0mg"},{"bike_id":"991df650-cda2-4c8d-b423-0d1baf725872","system_id":"levelo_inurba_marseille","lat":43.30144,"lon":5.38082,"is_reserved":false,"is_disabled":false,"rental_uris":{"android":"levelo://app?vid=991df650-cda2-4c8d-b423-0d1baf725872","ios":"levelo://app?vid=991df650-cda2-4c8d-b423-0d1baf725872"},"vehicle_type_id":"4","last_reported":1741932831,"current_range_meters":16400,"station_id":"ce4bgjp2rcd13ifvqbh0","pricing_plan_id":"cebpf4jnsgd1na2vs0mg"},{"bike_id":"a01f6986-79a6-4123-a40a-03975b1ce552","system_id":"levelo_inurba_marseille","lat":43.28361,"lon":5.38108,"is_reserved":false,"is_disabled":false,"rental_uris":{"android":"levelo://app?vid=a01f6986-79a6-4123-a40a-03975b1ce552","ios":"levelo://app?vid=a01f6986-79a6-4123-a40a-03975b1ce552"},"vehicle_type_id":"4","last_reported":1741932831,"current_range_meters":16400,"station_id":"ce4bh412rcd13ifvqdr0","pricing_plan_id":"cebpf4jnsgd1na2vs0mg"},{"bike_id":"ae2c374b-e3c1-46b0-837c-29badd9bd7b0","system_id":"levelo_inurba_marseille","lat":43.3023,"lon":5.40047,"is_reserved":false,"is_disabled":false,"rental_uris":{"android":"levelo://app?vid=ae2c374b-e3c1-46b0-837c-29badd9bd7b0","ios":"levelo://app?vid=ae2c374b-e3c1-46b0-837c-29badd9bd7b0"},"vehicle_type_id":"4","last_reported":1741932831,"current_range_meters":16400,"station_id":"","pricing_plan_id":"cebpf4jnsgd1na2vs0mg"},{"bike_id":"385ae15c-2c3c-4490-a507-5eb20fb883a5","system_id":"levelo_inurba_marseille","lat":43.25937,"lon":5.40907,"is_reserved":false,"is_disabled":false,"rental_uris":{"android":"levelo://app?vid=385ae15c-2c3c-4490-a507-5eb20fb883a5","ios":"levelo://app?vid=385ae15c-2c3c-4490-a507-5eb20fb883a5"},"vehicle_type_id":"4","last_reported":1741932831,"current_range_meters":16400,"station_id":"ce4bhm92rcd13ifvqglg","pricing_plan_id":"cebpf4jnsgd1na2vs0mg"},{"bike_id":"af2b5855-f21f-4585-9d1d-7c002cf2b81c","system_id":"levelo_inurba_marseille","lat":43.278157,"lon":5.407055,"is_reserved":false,"is_disabled":false,"rental_uris":{"android":"levelo://app?vid=af2b5855-f21f-4585-9d1d-7c002cf2b81c","ios":"levelo://app?vid=af2b5855-f21f-4585-9d1d-7c002cf2b81c"},"vehicle_type_id":"4","last_reported":1741932831,"current_range_meters":16400,"station_id":"ce4bhnh2rcd13ifvqgtg","pricing_plan_id":"cebpf4jnsgd1na2vs0mg"},{"bike_id":"a445fdf5-35b6-493b-a702-ef6ccfa3d657","system_id":"levelo_inurba_marseille","lat":43.31321,"lon":5.39707,"is_reserved":false,"is_disabled":false,"rental_uris":{"android":"levelo://app?vid=a445fdf5-35b6-493b-a702-ef6ccfa3d657","ios":"levelo://app?vid=a445fdf5-35b6-493b-a702-ef6ccfa3d657"},"vehicle_type_id":"4","last_reported":1741932831,"current_range_meters":16800,"station_id":"ce4bgvp2rcd13ifvqcu0","pricing_plan_id":"cebpf4jnsgd1na2vs0mg"},{"bike_id":"17363f48-ae8e-41e0-b3c9-f8bdccd25488","system_id":"levelo_inurba_marseille","lat":43.283449,"lon":5.381077,"is_reserved":false,"is_disabled":false,"rental_uris":{"android":"levelo://app?vid=17363f48-ae8e-41e0-b3c9-f8bdccd25488","ios":"levelo://app?vid=17363f48-ae8e-41e0-b3c9-f8bdccd25488"},"vehicle_type_id":"4","last_reported":1741932831,"current_range_meters":16800,"station_id":"ce4bh412rcd13ifvqdr0","pricing_plan_id":"cebpf4jnsgd1na2vs0mg"},{"bike_id":"bd66177f-a1f9-4db0-aaf4-f7bd40cddb3f","system_id":"levelo_inurba_marseille","lat":43.28726,"lon":5.36086,"is_reserved":false,"is_disabled":false,"rental_uris":{"android":"levelo://app?vid=bd66177f-a1f9-4db0-aaf4-f7bd40cddb3f","ios":"levelo://app?vid=bd66177f-a1f9-4db0-aaf4-f7bd40cddb3f"},"vehicle_type_id":"4","last_reported":1741932831,"current_range_meters":16800,"station_id":"cki0cbj6b192h4jlfktg","pricing_plan_id":"cebpf4jnsgd1na2vs0mg"},{"bike_id":"cabd3d2d-330e-43b2-8d0b-3e86699f79e1","system_id":"levelo_inurba_marseille","lat":43.24166,"lon":5.36422,"is_reserved":false,"is_disabled":false,"rental_uris":{"android":"levelo://app?vid=cabd3d2d-330e-43b2-8d0b-3e86699f79e1","ios":"levelo://app?vid=cabd3d2d-330e-43b2-8d0b-3e86699f79e1"},"vehicle_type_id":"4","last_reported":1741932831,"current_range_meters":16800,"station_id":"cpo36qri1sfpv3e86is0","pricing_plan_id":"cebpf4jnsgd1na2vs0mg"},{"bike_id":"dafb4e6b-e938-462a-92c6-369b1a00f057","system_id":"levelo_inurba_marseille","lat":43.28661,"lon":5.36362,"is_reserved":false,"is_disabled":false,"rental_uris":{"android":"levelo://app?vid=dafb4e6b-e938-462a-92c6-369b1a00f057","ios":"levelo://app?vid=dafb4e6b-e938-462a-92c6-369b1a00f057"},"vehicle_type_id":"4","last_reported":1741932831,"current_range_meters":16800,"station_id":"ce4bhah2rcd13ifvqej0","pricing_plan_id":"cebpf4jnsgd1na2vs0mg"},{"bike_id":"0b7bfdb8-fd03-4687-9225-8085184f929c","system_id":"levelo_inurba_marseille","lat":43.3235,"lon":5.36708,"is_reserved":false,"is_disabled":false,"rental_uris":{"android":"levelo://app?vid=0b7bfdb8-fd03-4687-9225-8085184f929c","ios":"levelo://app?vid=0b7bfdb8-fd03-4687-9225-8085184f929c"},"vehicle_type_id":"4","last_reported":1741932831,"current_range_meters":16800,"station_id":"ce4bhsh2rcd13ifvqi2g","pricing_plan_id":"cebpf4jnsgd1na2vs0mg"},{"bike_id":"ac3c2bed-7068-40d3-b993-cf1e4b27bb6a","system_id":"levelo_inurba_marseille","lat":43.28089,"lon":5.37878,"is_reserved":false,"is_disabled":false,"rental_uris":{"android":"levelo://app?vid=ac3c2bed-7068-40d3-b993-cf1e4b27bb6a","ios":"levelo://app?vid=ac3c2bed-7068-40d3-b993-cf1e4b27bb6a"},"vehicle_type_id":"4","last_reported":1741932831,"current_range_meters":16800,"station_id":"ce4bha12rcd13ifvqee0","pricing_plan_id":"cebpf4jnsgd1na2vs0mg"},{"bike_id":"09c53281-d9c1-4825-9f48-406f2fdf173e","system_id":"levelo_inurba_marseille","lat":43.30885,"lon":5.39635,"is_reserved":false,"is_disabled":false,"rental_uris":{"android":"levelo://app?vid=09c53281-d9c1-4825-9f48-406f2fdf173e","ios":"levelo://app?vid=09c53281-d9c1-4825-9f48-406f2fdf173e"},"vehicle_type_id":"4","last_reported":1741932831,"current_range_meters":16800,"station_id":"ce4bh012rcd13ifvqcv0","pricing_plan_id":"cebpf4jnsgd1na2vs0mg"},{"bike_id":"cef6793a-a9f0-4fc9-a278-b244fe4073b8","system_id":"levelo_inurba_marseille","lat":43.31285,"lon":5.40179,"is_reserved":false,"is_disabled":false,"rental_uris":{"android":"levelo://app?vid=cef6793a-a9f0-4fc9-a278-b244fe4073b8","ios":"levelo://app?vid=cef6793a-a9f0-4fc9-a278-b244fe4073b8"},"vehicle_type_id":"4","last_reported":1741932831,"current_range_meters":16800,"station_id":"ce4bh092rcd13ifvqd30","pricing_plan_id":"cebpf4jnsgd1na2vs0mg"},{"bike_id":"3720bdd8-c014-4188-b83b-28b1e3d55d80","system_id":"levelo_inurba_marseille","lat":43.30407,"lon":5.41288,"is_reserved":false,"is_disabled":false,"rental_uris":{"android":"levelo://app?vid=3720bdd8-c014-4188-b83b-28b1e3d55d80","ios":"levelo://app?vid=3720bdd8-c014-4188-b83b-28b1e3d55d80"},"vehicle_type_id":"4","last_reported":1741932831,"current_range_meters":16800,"station_id":"ce4bhop2rcd13ifvqh8g","pricing_plan_id":"cebpf4jnsgd1na2vs0mg"},{"bike_id":"7747e2df-1bc1-42b8-a252-91cd858114ea","system_id":"levelo_inurba_marseille","lat":43.302476,"lon":5.400655,"is_reserved":false,"is_disabled":false,"rental_uris":{"android":"levelo://app?vid=7747e2df-1bc1-42b8-a252-91cd858114ea","ios":"levelo://app?vid=7747e2df-1bc1-42b8-a252-91cd858114ea"},"vehicle_type_id":"4","last_reported":1741932831,"current_range_meters":17200,"station_id":"ce4bgvh2rcd13ifvqcs0","pricing_plan_id":"cebpf4jnsgd1na2vs0mg"},{"bike_id":"9fb6b33a-73b1-422a-9cd4-5f96dea7d5d6","system_id":"levelo_inurba_marseille","lat":43.28418,"lon":5.37512,"is_reserved":false,"is_disabled":false,"rental_uris":{"android":"levelo://app?vid=9fb6b33a-73b1-422a-9cd4-5f96dea7d5d6","ios":"levelo://app?vid=9fb6b33a-73b1-422a-9cd4-5f96dea7d5d6"},"vehicle_type_id":"4","last_reported":1741932831,"current_range_meters":17200,"station_id":"ce4bh412rcd13ifvqds0","pricing_plan_id":"cebpf4jnsgd1na2vs0mg"},{"bike_id":"a5754c81-27ee-47e9-be63-a995b35825b5","system_id":"levelo_inurba_marseille","lat":43.29874,"lon":5.38913,"is_reserved":false,"is_disabled":true,"rental_uris":{"android":"levelo://app?vid=a5754c81-27ee-47e9-be63-a995b35825b5","ios":"levelo://app?vid=a5754c81-27ee-47e9-be63-a995b35825b5"},"vehicle_type_id":"4","last_reported":1741932831,"current_range_meters":17200,"station_id":"ce4bh392rcd13ifvqdl0","pricing_plan_id":"cebpf4jnsgd1na2vs0mg"},{"bike_id":"76b5d343-6624-4366-8e6e-f702d50ae492","system_id":"levelo_inurba_marseille","lat":43.23192,"lon":5.35552,"is_reserved":false,"is_disabled":false,"rental_uris":{"android":"levelo://app?vid=76b5d343-6624-4366-8e6e-f702d50ae492","ios":"levelo://app?vid=76b5d343-6624-4366-8e6e-f702d50ae492"},"vehicle_type_id":"4","last_reported":1741932831,"current_range_meters":17200,"station_id":"ce4bhu92rcd13ifvqi70","pricing_plan_id":"cebpf4jnsgd1na2vs0mg"},{"bike_id":"dc8497d8-de53-4984-b972-b844f2fb02c6","system_id":"levelo_inurba_marseille","lat":43.3054,"lon":5.38062,"is_reserved":false,"is_disabled":false,"rental_uris":{"android":"levelo://app?vid=dc8497d8-de53-4984-b972-b844f2fb02c6","ios":"levelo://app?vid=dc8497d8-de53-4984-b972-b844f2fb02c6"},"vehicle_type_id":"4","last_reported":1741932831,"current_range_meters":17600,"station_id":"","pricing_plan_id":"cebpf4jnsgd1na2vs0mg"},{"bike_id":"26f57566-8401-47cb-a532-eb0f8aad38bc","system_id":"levelo_inurba_marseille","lat":43.23185,"lon":5.39991,"is_reserved":false,"is_disabled":false,"rental_uris":{"android":"levelo://app?vid=26f57566-8401-47cb-a532-eb0f8aad38bc","ios":"levelo://app?vid=26f57566-8401-47cb-a532-eb0f8aad38bc"},"vehicle_type_id":"4","last_reported":1741932831,"current_range_meters":17200,"station_id":"ce4bhn12rcd13ifvqgqg","pricing_plan_id":"cebpf4jnsgd1na2vs0mg"},{"bike_id":"8c6e62b1-d022-41e5-801b-94b33a48ecdb","system_id":"levelo_inurba_marseille","lat":43.306401,"lon":5.400712,"is_reserved":false,"is_disabled":false,"rental_uris":{"android":"levelo://app?vid=8c6e62b1-d022-41e5-801b-94b33a48ecdb","ios":"levelo://app?vid=8c6e62b1-d022-41e5-801b-94b33a48ecdb"},"vehicle_type_id":"4","last_reported":1741932831,"current_range_meters":17200,"station_id":"ce4bh112rcd13ifvqda0","pricing_plan_id":"cebpf4jnsgd1na2vs0mg"},{"bike_id":"f7d532fd-7b24-4b09-a094-09fcca17757f","system_id":"levelo_inurba_marseille","lat":43.286071,"lon":5.370636,"is_reserved":false,"is_disabled":false,"rental_uris":{"android":"levelo://app?vid=f7d532fd-7b24-4b09-a094-09fcca17757f","ios":"levelo://app?vid=f7d532fd-7b24-4b09-a094-09fcca17757f"},"vehicle_type_id":"4","last_reported":1741932831,"current_range_meters":17200,"station_id":"ce4bht12rcd13ifvqi60","pricing_plan_id":"cebpf4jnsgd1na2vs0mg"},{"bike_id":"0824f3af-1839-42e3-b2eb-1bc7ef5d8244","system_id":"levelo_inurba_marseille","lat":43.278119,"lon":5.407141,"is_reserved":false,"is_disabled":false,"rental_uris":{"android":"levelo://app?vid=0824f3af-1839-42e3-b2eb-1bc7ef5d8244","ios":"levelo://app?vid=0824f3af-1839-42e3-b2eb-1bc7ef5d8244"},"vehicle_type_id":"4","last_reported":1741932831,"current_range_meters":17200,"station_id":"ce4bhnh2rcd13ifvqgtg","pricing_plan_id":"cebpf4jnsgd1na2vs0mg"},{"bike_id":"3fbdbed3-81eb-4ebd-99e8-fe7ae5272906","system_id":"levelo_inurba_marseille","lat":43.25815,"lon":5.39448,"is_reserved":false,"is_disabled":false,"rental_uris":{"android":"levelo://app?vid=3fbdbed3-81eb-4ebd-99e8-fe7ae5272906","ios":"levelo://app?vid=3fbdbed3-81eb-4ebd-99e8-fe7ae5272906"},"vehicle_type_id":"4","last_reported":1741932831,"current_range_meters":17200,"station_id":"ce4bhip2rcd13ifvqft0","pricing_plan_id":"cebpf4jnsgd1na2vs0mg"},{"bike_id":"a31d59f8-7efd-42f2-9911-7b628cbd3502","system_id":"levelo_inurba_marseille","lat":43.28605,"lon":5.37067,"is_reserved":false,"is_disabled":false,"rental_uris":{"android":"levelo://app?vid=a31d59f8-7efd-42f2-9911-7b628cbd3502","ios":"levelo://app?vid=a31d59f8-7efd-42f2-9911-7b628cbd3502"},"vehicle_type_id":"4","last_reported":1741932831,"current_range_meters":17600,"station_id":"ce4bht12rcd13ifvqi60","pricing_plan_id":"cebpf4jnsgd1na2vs0mg"},{"bike_id":"e35a502b-8d17-4243-9159-cc38c1aac681","system_id":"levelo_inurba_marseille","lat":43.30439,"lon":5.38909,"is_reserved":false,"is_disabled":true,"rental_uris":{"android":"levelo://app?vid=e35a502b-8d17-4243-9159-cc38c1aac681","ios":"levelo://app?vid=e35a502b-8d17-4243-9159-cc38c1aac681"},"vehicle_type_id":"4","last_reported":1741932831,"current_range_meters":17600,"station_id":"ce4bgk12rcd13ifvqbi0","pricing_plan_id":"cebpf4jnsgd1na2vs0mg"},{"bike_id":"7e809cf9-4d16-4e10-88b0-f3e27f97828a","system_id":"levelo_inurba_marseille","lat":43.25005,"lon":5.38923,"is_reserved":false,"is_disabled":false,"rental_uris":{"android":"levelo://app?vid=7e809cf9-4d16-4e10-88b0-f3e27f97828a","ios":"levelo://app?vid=7e809cf9-4d16-4e10-88b0-f3e27f97828a"},"vehicle_type_id":"4","last_reported":1741932831,"current_range_meters":17600,"station_id":"ce4bhgp2rcd13ifvqfd0","pricing_plan_id":"cebpf4jnsgd1na2vs0mg"},{"bike_id":"e52b41b5-52df-4c67-a85c-3cebb3bf7504","system_id":"levelo_inurba_marseille","lat":43.32346,"lon":5.36756,"is_reserved":false,"is_disabled":false,"rental_uris":{"android":"levelo://app?vid=e52b41b5-52df-4c67-a85c-3cebb3bf7504","ios":"levelo://app?vid=e52b41b5-52df-4c67-a85c-3cebb3bf7504"},"vehicle_type_id":"4","last_reported":1741932831,"current_range_meters":17600,"station_id":"ce4bhsh2rcd13ifvqi2g","pricing_plan_id":"cebpf4jnsgd1na2vs0mg"},{"bike_id":"727a4e2b-0de2-47c4-ac58-5d6a3e371ae0","system_id":"levelo_inurba_marseille","lat":43.2789,"lon":5.35385,"is_reserved":false,"is_disabled":false,"rental_uris":{"android":"levelo://app?vid=727a4e2b-0de2-47c4-ac58-5d6a3e371ae0","ios":"levelo://app?vid=727a4e2b-0de2-47c4-ac58-5d6a3e371ae0"},"vehicle_type_id":"4","last_reported":1741932831,"current_range_meters":17600,"station_id":"","pricing_plan_id":"cebpf4jnsgd1na2vs0mg"},{"bike_id":"e2adeb4f-409c-4f12-8332-548abcff28c2","system_id":"levelo_inurba_marseille","lat":43.31271,"lon":5.4017,"is_reserved":false,"is_disabled":false,"rental_uris":{"android":"levelo://app?vid=e2adeb4f-409c-4f12-8332-548abcff28c2","ios":"levelo://app?vid=e2adeb4f-409c-4f12-8332-548abcff28c2"},"vehicle_type_id":"4","last_reported":1741932831,"current_range_meters":17600,"station_id":"ce4bh092rcd13ifvqd30","pricing_plan_id":"cebpf4jnsgd1na2vs0mg"},{"bike_id":"245a06e8-de6c-4b9c-844f-8dc90d8b77ed","system_id":"levelo_inurba_marseille","lat":43.317498,"lon":5.390109,"is_reserved":false,"is_disabled":false,"rental_uris":{"android":"levelo://app?vid=245a06e8-de6c-4b9c-844f-8dc90d8b77ed","ios":"levelo://app?vid=245a06e8-de6c-4b9c-844f-8dc90d8b77ed"},"vehicle_type_id":"4","last_reported":1741932831,"current_range_meters":18000,"station_id":"ce4bhqp2rcd13ifvqhng","pricing_plan_id":"cebpf4jnsgd1na2vs0mg"},