{"last_updated":1738070119,"ttl":60,"version":"2.2","data":{"bikes":[{"bike_id":"ae5ee59e-541f-4374-bbd1-aa10d76458aa","system_id":"levelo_inurba_marseille","lat":43.30195,"lon":5.36615,"is_reserved":false,"is_disabled":false,"rental_uris":{"android":"levelo://app?vid=ae5ee59e-541f-4374-bbd1-aa10d76458aa","ios":"levelo://app?vid=ae5ee59e-541f-4374-bbd1-aa10d76458aa"},"vehicle_type_id":"4","last_reported":1738070119,"current_range_meters":24000,"station_id":"ce4bgrh2rcd13ifvqc8g","pricing_plan_id":"cebpf4jnsgd1na2vs0mg"},{"bike_id":"c98c10ad-2c59-465b-9626-e2f31164a824","system_id":"levelo_inurba_marseille","lat":43.23195,"lon":5.35564,"is_reserved":false,"is_disabled":false,"rental_uris":{"android":"levelo://app?vid=c98c10ad-2c59-465b-9626-e2f31164a824","ios":"levelo://app?vid=c98c10ad-2c59-465b-9626-e2f31164a824"},"vehicle_type_id":"4","last_reported":1738070119,"current_range_meters":28800,"station_id":"ce4bhu92rcd13ifvqi70","pricing_plan_id":"cebpf4jnsgd1na2vs0mg"},{"bike_id":"02e98ac7-9859-40c9-9d6c-4ecb73e263ea","system_id":"levelo_inurba_marseille","lat":43.23151,"lon":5.43712,"is_reserved":false,"is_disabled":false,"rental_uris":{"android":"levelo://app?vid=02e98ac7-9859-40c9-9d6c-4ecb73e263ea","ios":"levelo://app?vid=02e98ac7-9859-40c9-9d6c-4ecb73e263ea"},"vehicle_type_id":"4","last_reported":1738070119,"current_range_meters":17200,"station_id":"ce4bhmp2rcd13ifvqgog","pricing_plan_id":"cebpf4jnsgd1na2vs0mg"},{"bike_id":"bde5b8d5-a83f-42e3-add6-97796caaf945","system_id":"levelo_inurba_marseille","lat":43.29692,"lon":5.37691,"is_reserved":false,"is_disabled":false,"rental_uris":{"android":"levelo://app?vid=bde5b8d5-a83f-42e3-add6-97796caaf945","ios":"levelo://app?vid=bde5b8d5-a83f-42e3-add6-97796caaf945"},"vehicle_type_id":"4","last_reported":1738070119,"current_range_meters":28400,"station_id":"ce4bgkh2rcd13ifvqbl0","pricing_plan_id":"cebpf4jnsgd1na2vs0mg"},{"bike_id":"a124f650-7603-4f08-8a8e-313384e3a4ed","system_id":"levelo_inurba_marseille","lat":43.28481,"lon":5.38406,"is_reserved":false,"is_disabled":false,"rental_uris":{"android":"levelo://app?vid=a124f650-7603-4f08-8a8e-313384e3a4ed","ios":"levelo://app?vid=a124f650-7603-4f08-8a8e-313384e3a4ed"},"vehicle_type_id":"4","last_reported":1738070119,"current_range_meters":32000,"station_id":"ce4bh512rcd13ifvqe3g","pricing_plan_id":"cebpf4jnsgd1na2vs0mg"},{"bike_id":"e9d8a52c-2b54-4a32-89a6-e73023c6a16a","system_id":"levelo_inurba_marseille","lat":43.30929,"lon":5.40127,"is_reserved":false,"is_disabled":false,"rental_uris":{"android":"levelo://app?vid=e9d8a52c-2b54-4a32-89a6-e73023c6a16a","ios":"levelo://app?vid=e9d8a52c-2b54-4a32-89a6-e73023c6a16a"},"vehicle_type_id":"4","last_reported":1738070119,"current_range_meters":10800,"station_id":"ce4bgvp2rcd13ifvqct0","pricing_plan_id":"cebpf4jnsgd1na2vs0mg"},{"bike_id":"a51f90a5-634a-4a31-813d-528860e76153","system_id":"levelo_inurba_marseille","lat":43.29427,"lon":5.38622,"is_reserved":false,"is_disabled":false,"rental_uris":{"android":"levelo://app?vid=a51f90a5-634a-4a31-813d-528860e76153","ios":"levelo://app?vid=a51f90a5-634a-4a31-813d-528860e76153"},"vehicle_type_id":"4","last_reported":1738070119,"current_range_meters":29600,"station_id":"ce4bh2h2rcd13ifvqdh0","pricing_plan_id":"cebpf4jnsgd1na2vs0mg"},{"bike_id":"f7f8117f-03ef-415e-85c6-2eeaf165e4f2","system_id":"levelo_inurba_marseille","lat":43.26237,"lon":5.40451,"is_reserved":false,"is_disabled":true,"rental_uris":{"android":"levelo://app?vid=f7f8117f-03ef-415e-85c6-2eeaf165e4f2","ios":"levelo://app?vid=f7f8117f-03ef-415e-85c6-2eeaf165e4f2"},"vehicle_type_id":"4","last_reported":1738070119,"current_range_meters":32800,"station_id":"ce4bhmh2rcd13ifvqgmg","pricing_plan_id":"cebpf4jnsgd1na2vs0mg"},{"bike_id":"781f6228-6703-472b-a180-bcc975839495","system_id":"levelo_inurba_marseille","lat":43.27068,"lon":5.4228,"is_reserved":false,"is_disabled":false,"rental_uris":{"android":"levelo://app?vid=781f6228-6703-472b-a180-bcc975839495","ios":"levelo://app?vid=781f6228-6703-472b-a180-bcc975839495"},"vehicle_type_id":"4","last_reported":1738070119,"current_range_meters":25600,"station_id":"ce4bhk92rcd13ifvqgb0","pricing_plan_id":"cebpf4jnsgd1na2vs0mg"},{"bike_id":"d77faba5-2b0c-430f-ad22-bcf40b90e74c","system_id":"levelo_inurba_marseille","lat":43.27821,"lon":5.40725,"is_reserved":false,"is_disabled":true,"rental_uris":{"android":"levelo://app?vid=d77faba5-2b0c-430f-ad22-bcf40b90e74c","ios":"levelo://app?vid=d77faba5-2b0c-430f-ad22-bcf40b90e74c"},"vehicle_type_id":"4","last_reported":1738070119,"current_range_meters":38400,"station_id":"ce4bhnh2rcd13ifvqgtg","pricing_plan_id":"cebpf4jnsgd1na2vs0mg"},{"bike_id":"f6340173-9207-4d88-91c4-7859b3322cb3","system_id":"levelo_inurba_marseille","lat":43.29556,"lon":5.42266,"is_reserved":false,"is_disabled":true,"rental_uris":{"android":"levelo://app?vid=f6340173-9207-4d88-91c4-7859b3322cb3","ios":"levelo://app?vid=f6340173-9207-4d88-91c4-7859b3322cb3"},"vehicle_type_id":"4","last_reported":1738070119,"current_range_meters":38800,"station_id":"ce4bhph2rcd13ifvqhdg","pricing_plan_id":"cebpf4jnsgd1na2vs0mg"},{"bike_id":"b230f289-4e47-417c-bb35-4e55e0a1f3f7","system_id":"levelo_inurba_marseille","lat":43.28587,"lon":5.35165,"is_reserved":false,"is_disabled":false,"rental_uris":{"android":"levelo://app?vid=b230f289-4e47-417c-bb35-4e55e0a1f3f7","ios":"levelo://app?vid=b230f289-4e47-417c-bb35-4e55e0a1f3f7"},"vehicle_type_id":"4","last_reported":1738070119,"current_range_meters":38400,"station_id":"ce4bhch2rcd13ifvqeug","pricing_plan_id":"cebpf4jnsgd1na2vs0mg"},{"bike_id":"0e5577eb-e782-4733-a49d-962e327ff8c3","system_id":"levelo_inurba_marseille","lat":43.33611,"lon":5.41018,"is_reserved":false,"is_disabled":false,"rental_uris":{"android":"levelo://app?vid=0e5577eb-e782-4733-a49d-962e327ff8c3","ios":"levelo://app?vid=0e5577eb-e782-4733-a49d-962e327ff8c3"},"vehicle_type_id":"4","last_reported":1738070119,"current_range_meters":39200,"station_id":"ce4bhqh2rcd13ifvqhmg","pricing_plan_id":"cebpf4jnsgd1na2vs0mg"},{"bike_id":"71b08460-4b9d-46eb-90f1-d29961c4c138","system_id":"levelo_inurba_marseille","lat":43.29172,"lon":5.3582,"is_reserved":false,"is_disabled":false,"rental_uris":{"android":"levelo://app?vid=71b08460-4b9d-46eb-90f1-d29961c4c138","ios":"levelo://app?vid=71b08460-4b9d-46eb-90f1-d29961c4c138"},"vehicle_type_id":"4","last_reported":1738070119,"current_range_meters":18000,"station_id":"ce4bhb12rcd13ifvqel0","pricing_plan_id":"cebpf4jnsgd1na2vs0mg"},{"bike_id":"4dcddd28-ada1-4c40-824d-38858fdbfc1d","system_id":"levelo_inurba_marseille","lat":43.26035,"lon":5.37549,"is_reserved":false,"is_disabled":false,"rental_uris":{"android":"levelo://app?vid=4dcddd28-ada1-4c40-824d-38858fdbfc1d","ios":"levelo://app?vid=4dcddd28-ada1-4c40-824d-38858fdbfc1d"},"vehicle_type_id":"4","last_reported":1738070119,"current_range_meters":8400,"station_id":"ce4bhgh2rcd13ifvqfa0","pricing_plan_id":"cebpf4jnsgd1na2vs0mg"},{"bike_id":"49a28dbb-9ec5-46f9-976d-461f8d6f358f","system_id":"levelo_inurba_marseille","lat":43.302401,"lon":5.36991,"is_reserved":false,"is_disabled":false,"rental_uris":{"android":"levelo://app?vid=49a28dbb-9ec5-46f9-976d-461f8d6f358f","ios":"levelo://app?vid=49a28dbb-9ec5-46f9-976d-461f8d6f358f"},"vehicle_type_id":"4","last_reported":1738070119,"current_range_meters":12000,"station_id":"ce4bgqh2rcd13ifvqc5g","pricing_plan_id":"cebpf4jnsgd1na2vs0mg"},{"bike_id":"96c6d005-88bb-4fd6-98f4-0a014c553eb8","system_id":"levelo_inurba_marseille","lat":43.33023,"lon":5.39042,"is_reserved":false,"is_disabled":false,"rental_uris":{"android":"levelo://app?vid=96c6d005-88bb-4fd6-98f4-0a014c553eb8","ios":"levelo://app?vid=96c6d005-88bb-4fd6-98f4-0a014c553eb8"},"vehicle_type_id":"4","last_reported":1738070119,"current_range_meters":38400,"station_id":"ce4bhr92rcd13ifvqhrg","pricing_plan_id":"cebpf4jnsgd1na2vs0mg"},{"bike_id":"f1b8e26d-f489-4f77-99ba-1d3e07470847","system_id":"levelo_inurba_marseille","lat":43.28726,"lon":5.39983,"is_reserved":false,"is_disabled":false,"rental_uris":{"android":"levelo://app?vid=f1b8e26d-f489-4f77-99ba-1d3e07470847","ios":"levelo://app?vid=f1b8e26d-f489-4f77-99ba-1d3e07470847"},"vehicle_type_id":"4","last_reported":1738070119,"current_range_meters":32400,"station_id":"ce4bho92rcd13ifvqh3g","pricing_plan_id":"cebpf4jnsgd1na2vs0mg"},{"bike_id":"5c388708-e3f2-4bbd-88d9-c199a31e81f9","system_id":"levelo_inurba_marseille","lat":43.2872,"lon":5.39985,"is_reserved":false,"is_disabled":true,"rental_uris":{"android":"levelo://app?vid=5c388708-e3f2-4bbd-88d9-c199a31e81f9","ios":"levelo://app?vid=5c388708-e3f2-4bbd-88d9-c199a31e81f9"},"vehicle_type_id":"4","last_reported":1738070119,"current_range_meters":36800,"station_id":"ce4bho92rcd13ifvqh3g","pricing_plan_id":"cebpf4jnsgd1na2vs0mg"},{"bike_id":"d4e70040-768f-4fa5-89e5-ef64bda4d03c","system_id":"levelo_inurba_marseille","lat":43.29264,"lon":5.38441,"is_reserved":false,"is_disabled":false,"rental_uris":{"android":"levelo://app?vid=d4e70040-768f-4fa5-89e5-ef64bda4d03c","ios":"levelo://app?vid=d4e70040-768f-4fa5-89e5-ef64bda4d03c"},"vehicle_type_id":"4","last_reported":1738070119,"current_range_meters":28400,"station_id":"ce4bh692rcd13ifvqea0","pricing_plan_id":"cebpf4jnsgd1na2vs0mg"},{"bike_id":"d6e771bb-f496-4392-8f11-9a8517e12dd2","system_id":"levelo_inurba_marseille","lat":43.29098,"lon":5.38158,"is_reserved":false,"is_disabled":false,"rental_uris":{"android":"levelo://app?vid=d6e771bb-f496-4392-8f11-9a8517e12dd2","ios":"levelo://app?vid=d6e771bb-f496-4392-8f11-9a8517e12dd2"},"vehicle_type_id":"4","last_reported":1738070119,"current_range_meters":38800,"station_id":"ce4bh512rcd13ifvqe2g","pricing_plan_id":"cebpf4jnsgd1na2vs0mg"},{"bike_id":"d302b16d-f581-4992-9151-b0c15c078cdc","system_id":"levelo_inurba_marseille","lat":43.26818,"lon":5.40264,"is_reserved":false,"is_disabled":false,"rental_uris":{"android":"levelo://app?vid=d302b16d-f581-4992-9151-b0c15c078cdc","ios":"levelo://app?vid=d302b16d-f581-4992-9151-b0c15c078cdc"},"vehicle_type_id":"4","last_reported":1738070119,"current_range_meters":38800,"station_id":"ce501612rcd8frsf0b60","pricing_plan_id":"cebpf4jnsgd1na2vs0mg"},{"bike_id":"7fdce8e7-f4f3-4cc9-a881-56ece1ecdb22","system_id":"levelo_inurba_marseille","lat":43.27966,"lon":5.38725,"is_reserved":false,"is_disabled":false,"rental_uris":{"android":"levelo://app?vid=7fdce8e7-f4f3-4cc9-a881-56ece1ecdb22","ios":"levelo://app?vid=7fdce8e7-f4f3-4cc9-a881-56ece1ecdb22"},"vehicle_type_id":"4","last_reported":1738070119,"current_range_meters":38800,"station_id":"ce4bhg12rcd13ifvqf80","pricing_plan_id":"cebpf4jnsgd1na2vs0mg"},{"bike_id":"1c4b1416-2656-4c98-9308-d3032f1490c2","system_id":"levelo_inurba_marseille","lat":43.28094,"lon":5.3784,"is_reserved":false,"is_disabled":false,"rental_uris":{"android":"levelo://app?vid=1c4b1416-2656-4c98-9308-d3032f1490c2","ios":"levelo://app?vid=1c4b1416-2656-4c98-9308-d3032f1490c2"},"vehicle_type_id":"4","last_reported":1738070119,"current_range_meters":33600,"station_id":"ce4bha12rcd13ifvqee0","pricing_plan_id":"cebpf4jnsgd1na2vs0mg"},{"bike_id":"26b11614-6415-40a3-bed2-5926abfaad8a","system_id":"levelo_inurba_marseille","lat":43.26695,"lon":5.38267,"is_reserved":false,"is_disabled":true,"rental_uris":{"android":"levelo://app?vid=26b11614-6415-40a3-bed2-5926abfaad8a","ios":"levelo://app?vid=26b11614-6415-40a3-bed2-5926abfaad8a"},"vehicle_type_id":"4","last_reported":1738070119,"current_range_meters":31200,"station_id":"ce4bhg92rcd13ifvqf90","pricing_plan_id":"cebpf4jnsgd1na2vs0mg"},{"bike_id":"05842d9c-388f-43e0-bc27-d826bd7ff1ce","system_id":"levelo_inurba_marseille","lat":43.30549,"lon":5.36698,"is_reserved":false,"is_disabled":false,"rental_uris":{"android":"levelo://app?vid=05842d9c-388f-43e0-bc27-d826bd7ff1ce","ios":"levelo://app?vid=05842d9c-388f-43e0-bc27-d826bd7ff1ce"},"vehicle_type_id":"4","last_reported":1738070119,"current_range_meters":25200,"station_id":"ce4bgrp2rcd13ifvqc9g","pricing_plan_id":"cebpf4jnsgd1na2vs0mg"},{"bike_id":"65d0b651-7177-46b6-b2f4-aa3ff933e745","system_id":"levelo_inurba_marseille","lat":43.27495,"lon":5.42448,"is_reserved":false,"is_disabled":false,"rental_uris":{"android":"levelo://app?vid=65d0b651-7177-46b6-b2f4-aa3ff933e745","ios":"levelo://app?vid=65d0b651-7177-46b6-b2f4-aa3ff933e745"},"vehicle_type_id":"4","last_reported":1738070119,"current_range_meters":28400,"station_id":"ce4bhn92rcd13ifvqgrg","pricing_plan_id":"cebpf4jnsgd1na2vs0mg"},{"bike_id":"4cd885e7-07fa-42ad-a294-3a57579ff57e","system_id":"levelo_inurba_marseille","lat":43.274995,"lon":5.42458,"is_reserved":false,"is_disabled":false,"rental_uris":{"android":"levelo://app?vid=4cd885e7-07fa-42ad-a294-3a57579ff57e","ios":"levelo://app?vid=4cd885e7-07fa-42ad-a294-3a57579ff57e"},"vehicle_type_id":"4","last_reported":1738070119,"current_range_meters":12400,"station_id":"ce4bhn92rcd13ifvqgrg","pricing_plan_id":"cebpf4jnsgd1na2vs0mg"},{"bike_id":"b4711644-38d7-4ce3-a08f-dd4d5811c9c7","system_id":"levelo_inurba_marseille","lat":43.27212,"lon":5.39186,"is_reserved":false,"is_disabled":false,"rental_uris":{"android":"levelo://app?vid=b4711644-38d7-4ce3-a08f-dd4d5811c9c7","ios":"levelo://app?vid=b4711644-38d7-4ce3-a08f-dd4d5811c9c7"},"vehicle_type_id":"4","last_reported":1738070119,"current_range_meters":6800,"station_id":"ce4bhhp2rcd13ifvqfm0","pricing_plan_id":"cebpf4jnsgd1na2vs0mg"},{"bike_id":"5d4915e0-4a9f-4c36-821a-8bde58abc3cd","system_id":"levelo_inurba_marseille","lat":43.25121,"lon":5.40339,"is_reserved":false,"is_disabled":true,"rental_uris":{"android":"levelo://app?vid=5d4915e0-4a9f-4c36-821a-8bde58abc3cd","ios":"levelo://app?vid=5d4915e0-4a9f-4c36-821a-8bde58abc3cd"},"vehicle_type_id":"4","last_reported":1738070119,"current_range_meters":16000,"station_id":"ce4bhlh2rcd13ifvqgig","pricing_plan_id":"cebpf4jnsgd1na2vs0mg"},{"bike_id":"72badfa2-a202-449f-979d-68487d445994","system_id":"levelo_inurba_marseille","lat":43.2408,"lon":5.37757,"is_reserved":false,"is_disabled":false,"rental_uris":{"android":"levelo://app?vid=72badfa2-a202-449f-979d-68487d445994","ios":"levelo://app?vid=72badfa2-a202-449f-979d-68487d445994"},"vehicle_type_id":"4","last_reported":1738070119,"current_range_meters":27600,"station_id":"ce4bhnp2rcd13ifvqgvg","pricing_plan_id":"cebpf4jnsgd1na2vs0mg"},{"bike_id":"75f78423-7bb1-46bc-9291-8f61438106b2","system_id":"levelo_inurba_marseille","lat":43.33031,"lon":5.39051,"is_reserved":false,"is_disabled":false,"rental_uris":{"android":"levelo://app?vid=75f78423-7bb1-46bc-9291-8f61438106b2","ios":"levelo://app?vid=75f78423-7bb1-46bc-9291-8f61438106b2"},"vehicle_type_id":"4","last_reported":1738070119,"current_range_meters":29600,"station_id":"ce4bhr92rcd13ifvqhrg","pricing_plan_id":"cebpf4jnsgd1na2vs0mg"},{"bike_id":"cf12dbb5-17ca-4ade-941d-16747601d6b9","system_id":"levelo_inurba_marseille","lat":43.27676,"lon":5.38892,"is_reserved":false,"is_disabled":false,"rental_uris":{"android":"levelo://app?vid=cf12dbb5-17ca-4ade-941d-16747601d6b9","ios":"levelo://app?vid=cf12dbb5-17ca-4ade-941d-16747601d6b9"},"vehicle_type_id":"4","last_reported":1738070119,"current_range_meters":34800,"station_id":"ce4bhi12rcd13ifvqfo0","pricing_plan_id":"cebpf4jnsgd1na2vs0mg"},{"bike_id":"5b093e90-300a-4b0a-a15d-ae22ef06f7a6","system_id":"levelo_inurba_marseille","lat":43.305282,"lon":5.365532,"is_reserved":false,"is_disabled":false,"rental_uris":{"android":"levelo://app?vid=5b093e90-300a-4b0a-a15d-ae22ef06f7a6","ios":"levelo://app?vid=5b093e90-300a-4b0a-a15d-ae22ef06f7a6"},"vehicle_type_id":"4","last_reported":1738070119,"current_range_meters":32000,"station_id":"ce4bgs12rcd13ifvqcag","pricing_plan_id":"cebpf4jnsgd1na2vs0mg"},{"bike_id":"8906b01c-c546-42d8-8a71-d3e4c23c32f6","system_id":"levelo_inurba_marseille","lat":43.24388,"lon":5.37058,"is_reserved":false,"is_disabled":false,"rental_uris":{"android":"levelo://app?vid=8906b01c-c546-42d8-8a71-d3e4c23c32f6","ios":"levelo://app?vid=8906b01c-c546-42d8-8a71-d3e4c23c32f6"},"vehicle_type_id":"4","last_reported":1738070119,"current_range_meters":38800,"station_id":"ce4bhhh2rcd13ifvqfk0","pricing_plan_id":"cebpf4jnsgd1na2vs0mg"},{"bike_id":"5a345101-40d7-408a-87d7-d5d4a6572658","system_id":"levelo_inurba_marseille","lat":43.30975,"lon":5.36828,"is_reserved":false,"is_disabled":true,"rental_uris":{"android":"levelo://app?vid=5a345101-40d7-408a-87d7-d5d4a6572658","ios":"levelo://app?vid=5a345101-40d7-408a-87d7-d5d4a6572658"},"vehicle_type_id":"4","last_reported":1738070119,"current_range_meters":1200,"station_id":"","pricing_plan_id":"cebpf4jnsgd1na2vs0mg"},{"bike_id":"b8c29f2b-1f86-4f45-adfd-ec02ee537576","system_id":"levelo_inurba_marseille","lat":43.29292,"lon":5.4014,"is_reserved":false,"is_disabled":false,"rental_uris":{"android":"levelo://app?vid=b8c29f2b-1f86-4f45-adfd-ec02ee537576","ios":"levelo://app?vid=b8c29f2b-1f86-4f45-adfd-ec02ee537576"},"vehicle_type_id":"4","last_reported":1738070119,"current_range_meters":28000,"station_id":"ce4bh312rcd13ifvqdk0","pricing_plan_id":"cebpf4jnsgd1na2vs0mg"},{"bike_id":"006c734c-161c-4988-a371-93795cddab9e","system_id":"levelo_inurba_marseille","lat":43.25131,"lon":5.40305,"is_reserved":false,"is_disabled":false,"rental_uris":{"android":"levelo://app?vid=006c734c-161c-4988-a371-93795cddab9e","ios":"levelo://app?vid=006c734c-161c-4988-a371-93795cddab9e"},"vehicle_type_id":"4","last_reported":1738070119,"current_range_meters":39200,"station_id":"ce4bhlh2rcd13ifvqgig","pricing_plan_id":"cebpf4jnsgd1na2vs0mg"},{"bike_id":"ab609a7e-df27-4b4f-8950-7d55cb5d0fb0","system_id":"levelo_inurba_marseille","lat":43.23154,"lon":5.43709,"is_reserved":false,"is_disabled":false,"rental_uris":{"android":"levelo://app?vid=ab609a7e-df27-4b4f-8950-7d55cb5d0fb0","ios":"levelo://app?vid=ab609a7e-df27-4b4f-8950-7d55cb5d0fb0"},"vehicle_type_id":"4","last_reported":1738070119,"current_range_meters":25200,"station_id":"ce4bhmp2rcd13ifvqgog","pricing_plan_id":"cebpf4jnsgd1na2vs0mg"},{"bike_id":"74f5b4fb-c983-4859-8997-cbdd1d625684","system_id":"levelo_inurba_marseille","lat":43.25957,"lon":5.40874,"is_reserved":false,"is_disabled":false,"rental_uris":{"android":"levelo://app?vid=74f5b4fb-c983-4859-8997-cbdd1d625684","ios":"levelo://app?vid=74f5b4fb-c983-4859-8997-cbdd1d625684"},"vehicle_type_id":"4","last_reported":1738070119,"current_range_meters":33200,"station_id":"ce4bhm92rcd13ifvqglg","pricing_plan_id":"cebpf4jnsgd1na2vs0mg"},{"bike_id":"a027425e-e6fd-4411-8715-e7f55967ddbe","system_id":"levelo_inurba_marseille","lat":43.29613,"lon":5.38108,"is_reserved":false,"is_disabled":false,"rental_uris":{"android":"levelo://app?vid=a027425e-e6fd-4411-8715-e7f55967ddbe","ios":"levelo://app?vid=a027425e-e6fd-4411-8715-e7f55967ddbe"},"vehicle_type_id":"4","last_reported":1738070119,"current_range_meters":25200,"station_id":"ce4bgl12rcd13ifvqbo0","pricing_plan_id":"cebpf4jnsgd1na2vs0mg"},{"bike_id":"528dd257-e231-44f4-876b-6552ff415f71","system_id":"levelo_inurba_marseille","lat":43.22925,"lon":5.3538,"is_reserved":false,"is_disabled":false,"rental_uris":{"android":"levelo://app?vid=528dd257-e231-44f4-876b-6552ff415f71","ios":"levelo://app?vid=528dd257-e231-44f4-876b-6552ff415f71"},"vehicle_type_id":"4","last_reported":1738070119,"current_range_meters":37600,"station_id":"cpo3532slgdg3j2ikp40","pricing_plan_id":"cebpf4jnsgd1na2vs0mg"},{"bike_id":"ad4340d9-371f-42d5-baf7-63dc13eeee31","system_id":"levelo_inurba_marseille","lat":43.30083,"lon":5.3909,"is_reserved":false,"is_disabled":false,"rental_uris":{"android":"levelo://app?vid=ad4340d9-371f-42d5-baf7-63dc13eeee31","ios":"levelo://app?vid=ad4340d9-371f-42d5-baf7-63dc13eeee31"},"vehicle_type_id":"4","last_reported":1738070119,"current_range_meters":39200,"station_id":"ce4bh192rcd13ifvqdb0","pricing_plan_id":"cebpf4jnsgd1na2vs0mg"},{"bike_id":"c8a3a0ed-dff2-4f3c-87dc-2e6b47b1ad28","system_id":"levelo_inurba_marseille","lat":43.337444,"lon":5.374475,"is_reserved":false,"is_disabled":true,"rental_uris":{"android":"levelo://app?vid=c8a3a0ed-dff2-4f3c-87dc-2e6b47b1ad28","ios":"levelo://app?vid=c8a3a0ed-dff2-4f3c-87dc-2e6b47b1ad28"},"vehicle_type_id":"4","last_reported":1738070119,"current_range_meters":5600,"station_id":"","pricing_plan_id":"cebpf4jnsgd1na2vs0mg"},{"bike_id":"f649570c-5587-473b-a0b1-17620187169c","system_id":"levelo_inurba_marseille","lat":43.28267,"lon":5.35075,"is_reserved":false,"is_disabled":true,"rental_uris":{"android":"levelo://app?vid=f649570c-5587-473b-a0b1-17620187169c","ios":"levelo://app?vid=f649570c-5587-473b-a0b1-17620187169c"},"vehicle_type_id":"4","last_reported":1738070119,"current_range_meters":38800,"station_id":"ce4bhbp2rcd13ifvqerg","pricing_plan_id":"cebpf4jnsgd1na2vs0mg"},{"bike_id":"061a807c-1db8-46c7-beec-da6308b151ea","system_id":"levelo_inurba_marseille","lat":43.29603,"lon":5.38096,"is_reserved":false,"is_disabled":true,"rental_uris":{"android":"levelo://app?vid=061a807c-1db8-46c7-beec-da6308b151ea","ios":"levelo://app?vid=061a807c-1db8-46c7-beec-da6308b151ea"},"vehicle_type_id":"4","last_reported":1738070119,"current_range_meters":32400,"station_id":"ce4bgl12rcd13ifvqbo0","pricing_plan_id":"cebpf4jnsgd1na2vs0mg"},{"bike_id":"2ef19481-5cec-4e29-895f-4e8bcc174a6d","system_id":"levelo_inurba_marseille","lat":43.27496,"lon":5.42449,"is_reserved":false,"is_disabled":false,"rental_uris":{"android":"levelo://app?vid=2ef19481-5cec-4e29-895f-4e8bcc174a6d","ios":"levelo://app?vid=2ef19481-5cec-4e29-895f-4e8bcc174a6d"},"vehicle_type_id":"4","last_reported":1738070119,"current_range_meters":8400,"station_id":"ce4bhn92rcd13ifvqgrg","pricing_plan_id":"cebpf4jnsgd1na2vs0mg"},{"bike_id":"244fdef9-5145-4ccb-9a9a-9cd47a036851","system_id":"levelo_inurba_marseille","lat":43.30154,"lon":5.38761,"is_reserved":false,"is_disabled":false,"rental_uris":{"android":"levelo://app?vid=244fdef9-5145-4ccb-9a9a-9cd47a036851","ios":"levelo://app?vid=244fdef9-5145-4ccb-9a9a-9cd47a036851"},"vehicle_type_id":"4","last_reported":1738070119,"current_range_meters":27200,"station_id":"ce4bhoh2rcd13ifvqh6g","pricing_plan_id":"cebpf4jnsgd1na2vs0mg"},{"bike_id":"a65d73dd-3c81-4c49-9152-e5bd89f12bec","system_id":"levelo_inurba_marseille","lat":43.29715,"lon":5.36606,"is_reserved":false,"is_disabled":false,"rental_uris":{"android":"levelo://app?vid=a65d73dd-3c81-4c49-9152-e5bd89f12bec","ios":"levelo://app?vid=a65d73dd-3c81-4c49-9152-e5bd89f12bec"},"vehicle_type_id":"4","last_reported":1738070119,"current_range_meters":38000,"station_id":"ce4bgn12rcd13ifvqbt0","pricing_plan_id":"cebpf4jnsgd1na2vs0mg"},{"bike_id":"c56189c5-04b6-46c3-862e-b1fd4715143e","system_id":"levelo_inurba_marseille","lat":43.23151,"lon":5.43711,"is_reserved":false,"is_disabled":false,"rental_uris":{"android":"levelo://app?vid=c56189c5-04b6-46c3-862e-b1fd4715143e","ios":"levelo://app?vid=c56189c5-04b6-46c3-862e-b1fd4715143e"},"vehicle_type_id":"4","last_reported":1738070119,"current_range_meters":24400,"station_id":"ce4bhmp2rcd13ifvqgog","pricing_plan_id":"cebpf4jnsgd1na2vs0mg"},{"bike_id":"7125fabb-d4fe-450e-b9a8-9b858c3dc86d","system_id":"levelo_inurba_marseille","lat":43.32472,"lon":5.36554,"is_reserved":false,"is_disabled":false,"rental_uris":{"android":"levelo://app?vid=7125fabb-d4fe-450e-b9a8-9b858c3dc86d","ios":"levelo://app?vid=7125fabb-d4fe-450e-b9a8-9b858c3dc86d"},"vehicle_type_id":"4","last_reported":1738070119,"current_range_meters":28800,"station_id":"ce4bhs12rcd13ifvqhvg","pricing_plan_id":"cebpf4jnsgd1na2vs0mg"},{"bike_id":"14e7fe67-f9f7-462e-8610-1eaa6cd96a94","system_id":"levelo_inurba_marseille","lat":43.30226,"lon":5.36629,"is_reserved":false,"is_disabled":false,"rental_uris":{"android":"levelo://app?vid=14e7fe67-f9f7-462e-8610-1eaa6cd96a94","ios":"levelo://app?vid=14e7fe67-f9f7-462e-8610-1eaa6cd96a94"},"vehicle_type_id":"4","last_reported":1738070119,"current_range_meters":18000,"station_id":"ce4bgrh2rcd13ifvqc8g","pricing_plan_id":"cebpf4jnsgd1na2vs0mg"},{"bike_id":"237cfedc-8287-4384-ad4a-cc188a26fec4","system_id":"levelo_inurba_marseille","lat":43.29302,"lon":5.37443,"is_reserved":false,"is_disabled":false,"rental_uris":{"android":"levelo://app?vid=237cfedc-8287-4384-ad4a-cc188a26fec4","ios":"levelo://app?vid=237cfedc-8287-4384-ad4a-cc188a26fec4"},"vehicle_type_id":"4","last_reported":1738070119,"current_range_meters":36800,"station_id":"ce4bgi12rcd13ifvqb70","pricing_plan_id":"cebpf4jnsgd1na2vs0mg"},{"bike_id":"cd82f50f-1e86-40da-9758-123ed9f78048","system_id":"levelo_inurba_marseille","lat":43.27409,"lon":5.39407,"is_reserved":false,"is_disabled":false,"rental_uris":{"android":"levelo://app?vid=cd82f50f-1e86-40da-9758-123ed9f78048","ios":"levelo://app?vid=cd82f50f-1e86-40da-9758-123ed9f78048"},"vehicle_type_id":"4","last_reported":1738070119,"current_range_meters":34000,"station_id":"ce4bhdp2rcd13ifvqf20","pricing_plan_id":"cebpf4jnsgd1na2vs0mg"},{"bike_id":"ac87515a-8bb4-48b1-b85c-2c3a2a77a9ff","system_id":"levelo_inurba_marseille","lat":43.29717,"lon":5.37686,"is_reserved":false,"is_disabled":false,"rental_uris":{"android":"levelo://app?vid=ac87515a-8bb4-48b1-b85c-2c3a2a77a9ff","ios":"levelo://app?vid=ac87515a-8bb4-48b1-b85c-2c3a2a77a9ff"},"vehicle_type_id":"4","last_reported":1738070119,"current_range_meters":36000,"station_id":"ce4bgkh2rcd13ifvqbl0","pricing_plan_id":"cebpf4jnsgd1na2vs0mg"},{"bike_id":"ece1c51d-d854-4523-ab4d-ec36ed60fd30","system_id":"levelo_inurba_marseille","lat":43.28424,"lon":5.34988,"is_reserved":false,"is_disabled":true,"rental_uris":{"android":"levelo://app?vid=ece1c51d-d854-4523-ab4d-ec36ed60fd30","ios":"levelo://app?vid=ece1c51d-d854-4523-ab4d-ec36ed60fd30"},"vehicle_type_id":"4","last_reported":1738070119,"current_range_meters":2000,"station_id":"ce4bhbh2rcd13ifvqepg","pricing_plan_id":"cebpf4jnsgd1na2vs0mg"},{"bike_id":"9838cc78-2b53-49d3-ae13-82df62c4fd64","system_id":"levelo_inurba_marseille","lat":43.28412,"lon":5.40934,"is_reserved":false,"is_disabled":true,"rental_uris":{"android":"levelo://app?vid=9838cc78-2b53-49d3-ae13-82df62c4fd64","ios":"levelo://app?vid=9838cc78-2b53-49d3-ae13-82df62c4fd64"},"vehicle_type_id":"4","last_reported":1738070119,"current_range_meters":0,"station_id":"","pricing_plan_id":"cebpf4jnsgd1na2vs0mg"},{"bike_id":"f7fe43dd-4981-4cd5-87f2-77f4f1f7fb0f","system_id":"levelo_inurba_marseille","lat":43.28726,"lon":5.37944,"is_reserved":false,"is_disabled":true,"rental_uris":{"android":"levelo://app?vid=f7fe43dd-4981-4cd5-87f2-77f4f1f7fb0f","ios":"levelo://app?vid=f7fe43dd-4981-4cd5-87f2-77f4f1f7fb0f"},"vehicle_type_id":"4","last_reported":1738070119,"current_range_meters":37600,"station_id":"ce4bh9p2rcd13ifvqec0","pricing_plan_id":"cebpf4jnsgd1na2vs0mg"},{"bike_id":"f3a886a3-500d-4d32-a120-4a7101c0f911","system_id":"levelo_inurba_marseille","lat":43.269331,"lon":5.402612,"is_reserved":false,"is_disabled":false,"rental_uris":{"android":"levelo://app?vid=f3a886a3-500d-4d32-a120-4a7101c0f911","ios":"levelo://app?vid=f3a886a3-500d-4d32-a120-4a7101c0f911"},"vehicle_type_id":"4","last_reported":1738070119,"current_range_meters":38800,"station_id":"cjm6bp8fraef2m0cb0m0","pricing_plan_id":"cebpf4jnsgd1na2vs0mg"},{"bike_id":"b78d90f8-6ec1-4dc6-8fb8-80fcd53dc6b3","system_id":"levelo_inurba_marseille","lat":43.2904,"lon":5.3756,"is_reserved":false,"is_disabled":false,"rental_uris":{"android":"levelo://app?vid=b78d90f8-6ec1-4dc6-8fb8-80fcd53dc6b3","ios":"levelo://app?vid=b78d90f8-6ec1-4dc6-8fb8-80fcd53dc6b3"},"vehicle_type_id":"4","last_reported":1738070119,"current_range_meters":38800,"station_id":"ce4bh692rcd13ifvqe90","pricing_plan_id":"cebpf4jnsgd1na2vs0mg"},{"bike_id":"08f4db7c-088d-4d66-9ae3-751c57486c2e","system_id":"levelo_inurba_marseille","lat":43.30906,"lon":5.36851,"is_reserved":false,"is_disabled":false,"rental_uris":{"android":"levelo://app?vid=08f4db7c-088d-4d66-9ae3-751c57486c2e","ios":"levelo://app?vid=08f4db7c-088d-4d66-9ae3-751c57486c2e"},"vehicle_type_id":"4","last_reported":1738070119,"current_range_meters":10000,"station_id":"ce4bgn92rcd13ifvqbvg","pricing_plan_id":"cebpf4jnsgd1na2vs0mg"},{"bike_id":"1c756a91-157c-4d1a-b52a-f5d48998978e","system_id":"levelo_inurba_marseille","lat":43.27431,"lon":5.39407,"is_reserved":false,"is_disabled":false,"rental_uris":{"android":"levelo://app?vid=1c756a91-157c-4d1a-b52a-f5d48998978e","ios":"levelo://app?vid=1c756a91-157c-4d1a-b52a-f5d48998978e"},"vehicle_type_id":"4","last_reported":1738070119,"current_range_meters":33200,"station_id":"ce4bhdp2rcd13ifvqf20","pricing_plan_id":"cebpf4jnsgd1na2vs0mg"},{"bike_id":"1cee26df-b168-4d3a-a8d9-7e324464b6f0","system_id":"levelo_inurba_marseille","lat":43.29253,"lon":5.3845,"is_reserved":false,"is_disabled":false,"rental_uris":{"android":"levelo://app?vid=1cee26df-b168-4d3a-a8d9-7e324464b6f0","ios":"levelo://app?vid=1cee26df-b168-4d3a-a8d9-7e324464b6f0"},"vehicle_type_id":"4","last_reported":1738070119,"current_range_meters":21600,"station_id":"ce4bh692rcd13ifvqea0","pricing_plan_id":"cebpf4jnsgd1na2vs0mg"},{"bike_id":"8d198b1c-d183-4e75-867d-bee140abe05c","system_id":"levelo_inurba_marseille","lat":43.30809,"lon":5.43584,"is_reserved":false,"is_disabled":false,"rental_uris":{"android":"levelo://app?vid=8d198b1c-d183-4e75-867d-bee140abe05c","ios":"levelo://app?vid=8d198b1c-d183-4e75-867d-bee140abe05c"},"vehicle_type_id":"4","last_reported":1738070119,"current_range_meters":17600,"station_id":"ce4bhph2rcd13ifvqheg","pricing_plan_id":"cebpf4jnsgd1na2vs0mg"},{"bike_id":"d2f97514-f07f-4a0b-8e03-aa116950ece7","system_id":"levelo_inurba_marseille","lat":43.29031,"lon":5.37159,"is_reserved":false,"is_disabled":true,"rental_uris":{"android":"levelo://app?vid=d2f97514-f07f-4a0b-8e03-aa116950ece7","ios":"levelo://app?vid=d2f97514-f07f-4a0b-8e03-aa116950ece7"},"vehicle_type_id":"4","last_reported":1738070119,"current_range_meters":10000,"station_id":"","pricing_plan_id":"cebpf4jnsgd1na2vs0mg"},{"bike_id":"50000d55-2d89-4a2c-a1f1-1a51d69904f2","system_id":"levelo_inurba_marseille","lat":43.28712,"lon":5.37915,"is_reserved":false,"is_disabled":false,"rental_uris":{"android":"levelo://app?vid=50000d55-2d89-4a2c-a1f1-1a51d69904f2","ios":"levelo://app?vid=50000d55-2d89-4a2c-a1f1-1a51d69904f2"},"vehicle_type_id":"4","last_reported":1738070119,"current_range_meters":34800,"station_id":"ce4bh9p2rcd13ifvqec0","pricing_plan_id":"cebpf4jnsgd1na2vs0mg"},{"bike_id":"d3789fd1-ca29-442a-86be-654ccca67f53","system_id":"levelo_inurba_marseille","lat":43.24069,"lon":5.37766,"is_reserved":false,"is_disabled":false,"rental_uris":{"android":"levelo://app?vid=d3789fd1-ca29-442a-86be-654ccca67f53","ios":"levelo://app?vid=d3789fd1-ca29-442a-86be-654ccca67f53"},"vehicle_type_id":"4","last_reported":1738070119,"current_range_meters":14800,"station_id":"ce4bhnp2rcd13ifvqgvg","pricing_plan_id":"cebpf4jnsgd1na2vs0mg"},{"bike_id":"2e0a8b86-b457-48a0-8577-213b01080398","system_id":"levelo_inurba_marseille","lat":43.23179,"lon":5.35537,"is_reserved":false,"is_disabled":false,"rental_uris":{"android":"levelo://app?vid=2e0a8b86-b457-48a0-8577-213b01080398","ios":"levelo://app?vid=2e0a8b86-b457-48a0-8577-213b01080398"},"vehicle_type_id":"4","last_reported":1738070119,"current_range_meters":38800,"station_id":"ce4bhu92rcd13ifvqi70","pricing_plan_id":"cebpf4jnsgd1na2vs0mg"},{"bike_id":"ad1b1fcc-4b97-4384-8c00-42b188f65aeb","system_id":"levelo_inurba_marseille","lat":43.30335,"lon":5.36913,"is_reserved":false,"is_disabled":false,"rental_uris":{"android":"levelo://app?vid=ad1b1fcc-4b97-4384-8c00-42b188f65aeb","ios":"levelo://app?vid=ad1b1fcc-4b97-4384-8c00-42b188f65aeb"},"vehicle_type_id":"4","last_reported":1738070119,"current_range_meters":17600,"station_id":"ce4bgqh2rcd13ifvqc5g","pricing_plan_id":"cebpf4jnsgd1na2vs0mg"},{"bike_id":"5e223a13-d9d6-4104-a061-2e2e2022fe21","system_id":"levelo_inurba_marseille","lat":43.23145,"lon":5.43733,"is_reserved":false,"is_disabled":false,"rental_uris":{"android":"levelo://app?vid=5e223a13-d9d6-4104-a061-2e2e2022fe21","ios":"levelo://app?vid=5e223a13-d9d6-4104-a061-2e2e2022fe21"},"vehicle_type_id":"4","last_reported":1738070119,"current_range_meters":20000,"station_id":"ce4bhmp2rcd13ifvqgog","pricing_plan_id":"cebpf4jnsgd1na2vs0mg"},{"bike_id":"d979d8d2-ec65-47af-9229-e4270aab279a","system_id":"levelo_inurba_marseille","lat":43.23064,"lon":5.354945,"is_reserved":false,"is_disabled":false,"rental_uris":{"android":"levelo://app?vid=d979d8d2-ec65-47af-9229-e4270aab279a","ios":"levelo://app?vid=d979d8d2-ec65-47af-9229-e4270aab279a"},"vehicle_type_id":"4","last_reported":1738070119,"current_range_meters":24400,"station_id":"cpo3342slgdg3j2ifvpg","pricing_plan_id":"cebpf4jnsgd1na2vs0mg"},{"bike_id":"beec82ff-6bac-4064-befa-4bdf4421761b","system_id":"levelo_inurba_marseille","lat":43.31732,"lon":5.42409,"is_reserved":false,"is_disabled":false,"rental_uris":{"android":"levelo://app?vid=beec82ff-6bac-4064-befa-4bdf4421761b","ios":"levelo://app?vid=beec82ff-6bac-4064-befa-4bdf4421761b"},"vehicle_type_id":"4","last_reported":1738070119,"current_range_meters":8000,"station_id":"ce4bhp92rcd13ifvqhbg","pricing_plan_id":"cebpf4jnsgd1na2vs0mg"},{"bike_id":"af190cbd-d008-43f0-ada0-6e9d26903b20","system_id":"levelo_inurba_marseille","lat":43.32468,"lon":5.36576,"is_reserved":false,"is_disabled":false,"rental_uris":{"android":"levelo://app?vid=af190cbd-d008-43f0-ada0-6e9d26903b20","ios":"levelo://app?vid=af190cbd-d008-43f0-ada0-6e9d26903b20"},"vehicle_type_id":"4","last_reported":1738070119,"current_range_meters":29600,"station_id":"ce4bhs12rcd13ifvqhvg","pricing_plan_id":"cebpf4jnsgd1na2vs0mg"},{"bike_id":"c92f3ed1-1832-45b1-95ae-e066a3c304bb","system_id":"levelo_inurba_marseille","lat":43.330394,"lon":5.390459,"is_reserved":false,"is_disabled":false,"rental_uris":{"android":"levelo://app?vid=c92f3ed1-1832-45b1-95ae-e066a3c304bb","ios":"levelo://app?vid=c92f3ed1-1832-45b1-95ae-e066a3c304bb"},"vehicle_type_id":"4","last_reported":1738070119,"current_range_meters":38000,"station_id":"ce4bhr92rcd13ifvqhrg","pricing_plan_id":"cebpf4jnsgd1na2vs0mg"},{"bike_id":"4d8dba79-ba29-44ee-b424-8008f46fbd61","system_id":"levelo_inurba_marseille","lat":43.29276,"lon":5.36854,"is_reserved":false,"is_disabled":false,"rental_uris":{"android":"levelo://app?vid=4d8dba79-ba29-44ee-b424-8008f46fbd61","ios":"levelo://app?vid=4d8dba79-ba29-44ee-b424-8008f46fbd61"},"vehicle_type_id":"4","last_reported":1738070119,"current_range_meters":16000,"station_id":"ce4bhbp2rcd13ifvqesg","pricing_plan_id":"cebpf4jnsgd1na2vs0mg"},{"bike_id":"60881969-2b21-4328-b823-e3e5062d06ef","system_id":"levelo_inurba_marseille","lat":43.27502,"lon":5.4247,"is_reserved":false,"is_disabled":false,"rental_uris":{"android":"levelo://app?vid=60881969-2b21-4328-b823-e3e5062d06ef","ios":"levelo://app?vid=60881969-2b21-4328-b823-e3e5062d06ef"},"vehicle_type_id":"4","last_reported":1738070119,"current_range_meters":38800,"station_id":"ce4bhn92rcd13ifvqgrg","pricing_plan_id":"cebpf4jnsgd1na2vs0mg"},{"bike_id":"65e5d743-4939-4264-b58d-d07fa3ba4595","system_id":"levelo_inurba_marseille","lat":43.24807,"lon":5.37477,"is_reserved":false,"is_disabled":false,"rental_uris":{"android":"levelo://app?vid=65e5d743-4939-4264-b58d-d07fa3ba4595","ios":"levelo://app?vid=65e5d743-4939-4264-b58d-d07fa3ba4595"},"vehicle_type_id":"4","last_reported":1738070119,"current_range_meters":38800,"station_id":"ce4bhgh2rcd13ifvqfb0","pricing_plan_id":"cebpf4jnsgd1na2vs0mg"},{"bike_id":"75214a19-3086-4aab-8ba6-a177978da634","system_id":"levelo_inurba_marseille","lat":43.29904,"lon":5.43665,"is_reserved":false,"is_disabled":false,"rental_uris":{"android":"levelo://app?vid=75214a19-3086-4aab-8ba6-a177978da634","ios":"levelo://app?vid=75214a19-3086-4aab-8ba6-a177978da634"},"vehicle_type_id":"4","last_reported":1738070119,"current_range_meters":36400,"station_id":"ce4bhpp2rcd13ifvqhfg","pricing_plan_id":"cebpf4jnsgd1na2vs0mg"},{"bike_id":"30bbb00e-1612-4a25-b2e9-c8ad656fb58a","system_id":"levelo_inurba_marseille","lat":43.33739,"lon":5.39183,"is_reserved":false,"is_disabled":false,"rental_uris":{"android":"levelo://app?vid=30bbb00e-1612-4a25-b2e9-c8ad656fb58a","ios":"levelo://app?vid=30bbb00e-1612-4a25-b2e9-c8ad656fb58a"},"vehicle_type_id":"4","last_reported":1738070119,"current_range_meters":38800,"station_id":"ce4bhr92rcd13ifvqhsg","pricing_plan_id":"cebpf4jnsgd1na2vs0mg"},{"bike_id":"769217ec-dc73-4c87-a87b-f7603f41a79b","system_id":"levelo_inurba_marseille","lat":43.30468,"lon":5.37914,"is_reserved":false,"is_disabled":false,"rental_uris":{"android":"levelo://app?vid=769217ec-dc73-4c87-a87b-f7603f41a79b","ios":"levelo://app?vid=769217ec-dc73-4c87-a87b-f7603f41a79b"},"vehicle_type_id":"4","last_reported":1738070119,"current_range_meters":36000,"station_id":"ce4bgup2rcd13ifvqcn0","pricing_plan_id":"cebpf4jnsgd1na2vs0mg"},{"bike_id":"f61cdbb1-70c7-4cb6-aadc-fa9f0c7e9c40","system_id":"levelo_inurba_marseille","lat":43.2902,"lon":5.38126,"is_reserved":false,"is_disabled":false,"rental_uris":{"android":"levelo://app?vid=f61cdbb1-70c7-4cb6-aadc-fa9f0c7e9c40","ios":"levelo://app?vid=f61cdbb1-70c7-4cb6-aadc-fa9f0c7e9c40"},"vehicle_type_id":"4","last_reported":1738070119,"current_range_meters":28000,"station_id":"ce4bh4p2rcd13ifvqe1g","pricing_plan_id":"cebpf4jnsgd1na2vs0mg"},{"bike_id":"ddeeb021-3aa5-4692-ac65-d696b9db8d28","system_id":"levelo_inurba_marseille","lat":43.33031,"lon":5.39042,"is_reserved":false,"is_disabled":false,"rental_uris":{"android":"levelo://app?vid=ddeeb021-3aa5-4692-ac65-d696b9db8d28","ios":"levelo://app?vid=ddeeb021-3aa5-4692-ac65-d696b9db8d28"},"vehicle_type_id":"4","last_reported":1738070119,"current_range_meters":38800,"station_id":"ce4bhr92rcd13ifvqhrg","pricing_plan_id":"cebpf4jnsgd1na2vs0mg"},{"bike_id":"af721f4e-7a43-4ca7-b439-ce7407c250b4","system_id":"levelo_inurba_marseille","lat":43.3077,"lon":5.37652,"is_reserved":false,"is_disabled":false,"rental_uris":{"android":"levelo://app?vid=af721f4e-7a43-4ca7-b439-ce7407c250b4","ios":"levelo://app?vid=af721f4e-7a43-4ca7-b439-ce7407c250b4"},"vehicle_type_id":"4","last_reported":1738070119,"current_range_meters":33200,"station_id":"ce4bgv92rcd13ifvqcq0","pricing_plan_id":"cebpf4jnsgd1na2vs0mg"},{"bike_id":"1013d37f-ae2a-42d3-8b17-3dae5567cc7e","system_id":"levelo_inurba_marseille","lat":43.28678,"lon":5.36357,"is_reserved":false,"is_disabled":false,"rental_uris":{"android":"levelo://app?vid=1013d37f-ae2a-42d3-8b17-3dae5567cc7e","ios":"levelo://app?vid=1013d37f-ae2a-42d3-8b17-3dae5567cc7e"},"vehicle_type_id":"4","last_reported":1738070119,"current_range_meters":14800,"station_id":"ce4bhah2rcd13ifvqej0","pricing_plan_id":"cebpf4jnsgd1na2vs0mg"},{"bike_id":"b98ebd21-0ed2-45bf-adf2-3a5fd07f9bba","system_id":"levelo_inurba_marseille","lat":43.30543,"lon":5.36708,"is_reserved":false,"is_disabled":false,"rental_uris":{"android":"levelo://app?vid=b98ebd21-0ed2-45bf-adf2-3a5fd07f9bba","ios":"levelo://app?vid=b98ebd21-0ed2-45bf-adf2-3a5fd07f9bba"},"vehicle_type_id":"4","last_reported":1738070119,"current_range_meters":38000,"station_id":"ce4bgrp2rcd13ifvqc9g","pricing_plan_id":"cebpf4jnsgd1na2vs0mg"},{"bike_id":"fcf78506-9084-4576-af1e-dfa5c93dddbe","system_id":"levelo_inurba_marseille","lat":43.30078,"lon":5.39087,"is_reserved":false,"is_disabled":false,"rental_uris":{"android":"levelo://app?vid=fcf78506-9084-4576-af1e-dfa5c93dddbe","ios":"levelo://app?vid=fcf78506-9084-4576-af1e-dfa5c93dddbe"},"vehicle_type_id":"4","last_reported":1738070119,"current_range_meters":6000,"station_id":"ce4bh192rcd13ifvqdb0","pricing_plan_id":"cebpf4jnsgd1na2vs0mg"},{"bike_id":"3c9c9088-9c27-4609-bc62-8218c0dc2be8","system_id":"levelo_inurba_marseille","lat":43.23198,"lon":5.35559,"is_reserved":false,"is_disabled":false,"rental_uris":{"android":"levelo://app?vid=3c9c9088-9c27-4609-bc62-8218c0dc2be8","ios":"levelo://app?vid=3c9c9088-9c27-4609-bc62-8218c0dc2be8"},"vehicle_type_id":"4","last_reported":1738070119,"current_range_meters":33200,"station_id":"ce4bhu92rcd13ifvqi70","pricing_plan_id":"cebpf4jnsgd1na2vs0mg"},{"bike_id":"f04f841c-b52f-408d-848c-787fbaebd160","system_id":"levelo_inurba_marseille","lat":43.24077,"lon":5.37761,"is_reserved":false,"is_disabled":false,"rental_uris":{"android":"levelo://app?vid=f04f841c-b52f-408d-848c-787fbaebd160","ios":"levelo://app?vid=f04f841c-b52f-408d-848c-787fbaebd160"},"vehicle_type_id":"4","last_reported":1738070119,"current_range_meters":20000,"station_id":"ce4bhnp2rcd13ifvqgvg","pricing_plan_id":"cebpf4jnsgd1na2vs0mg"},{"bike_id":"c052066b-6c3a-4b35-85d4-9e75d8cd0504","system_id":"levelo_inurba_marseille","lat":43.30898,"lon":5.3686,"is_reserved":false,"is_disabled":false,"rental_uris":{"android":"levelo://app?vid=c052066b-6c3a-4b35-85d4-9e75d8cd0504","ios":"levelo://app?vid=c052066b-6c3a-4b35-85d4-9e75d8cd0504"},"vehicle_type_id":"4","last_reported":1738070119,"current_range_meters":20000,"station_id":"ce4bgn92rcd13ifvqbvg","pricing_plan_id":"cebpf4jnsgd1na2vs0mg"},{"bike_id":"b503edb0-7a26-4d3b-9a9a-3221ec21d72c","system_id":"levelo_inurba_marseille","lat":43.28986,"lon":5.3783,"is_reserved":false,"is_disabled":false,"rental_uris":{"android":"levelo://app?vid=b503edb0-7a26-4d3b-9a9a-3221ec21d72c","ios":"levelo://app?vid=b503edb0-7a26-4d3b-9a9a-3221ec21d72c"},"vehicle_type_id":"4","last_reported":1738070119,"current_range_meters":38400,"station_id":"ce4bh9p2rcd13ifvqed0","pricing_plan_id":"cebpf4jnsgd1na2vs0mg"},{"bike_id":"4c6e6037-c2de-4c78-8ebc-763221a61613","system_id":"levelo_inurba_marseille","lat":43.22932,"lon":5.35381,"is_reserved":false,"is_disabled":false,"rental_uris":{"android":"levelo://app?vid=4c6e6037-c2de-4c78-8ebc-763221a61613","ios":"levelo://app?vid=4c6e6037-c2de-4c78-8ebc-763221a61613"},"vehicle_type_id":"4","last_reported":1738070119,"current_range_meters":38000,"station_id":"cpo3532slgdg3j2ikp40","pricing_plan_id":"cebpf4jnsgd1na2vs0mg"},{"bike_id":"15af56a0-50cc-4287-938a-57061c15f0c6","system_id":"levelo_inurba_marseille","lat":43.33022,"lon":5.39065,"is_reserved":false,"is_disabled":false,"rental_uris":{"android":"levelo://app?vid=15af56a0-50cc-4287-938a-57061c15f0c6","ios":"levelo://app?vid=15af56a0-50cc-4287-938a-57061c15f0c6"},"vehicle_type_id":"4","last_reported":1738070119,"current_range_meters":37600,"station_id":"ce4bhr92rcd13ifvqhrg","pricing_plan_id":"cebpf4jnsgd1na2vs0mg"},{"bike_id":"c5b4b0de-be85-4e58-bc32-b96b8050a2a3","system_id":"levelo_inurba_marseille","lat":43.29298,"lon":5.37445,"is_reserved":false,"is_disabled":false,"rental_uris":{"android":"levelo://app?vid=c5b4b0de-be85-4e58-bc32-b96b8050a2a3","ios":"levelo://app?vid=c5b4b0de-be85-4e58-bc32-b96b8050a2a3"},"vehicle_type_id":"4","last_reported":1738070119,"current_range_meters":36400,"station_id":"ce4bgi12rcd13ifvqb70","pricing_plan_id":"cebpf4jnsgd1na2vs0mg"},{"bike_id":"7742eb01-57a2-4158-84d2-ebddbaf256fd","system_id":"levelo_inurba_marseille","lat":43.24094,"lon":5.37748,"is_reserved":false,"is_disabled":false,"rental_uris":{"android":"levelo://app?vid=7742eb01-57a2-4158-84d2-ebddbaf256fd","ios":"levelo://app?vid=7742eb01-57a2-4158-84d2-ebddbaf256fd"},"vehicle_type_id":"4","last_reported":1738070119,"current_range_meters":25200,"station_id":"ce4bhnp2rcd13ifvqgvg","pricing_plan_id":"cebpf4jnsgd1na2vs0mg"},{"bike_id":"4d57edcc-7def-459a-9912-aa3d18d7b0d3","system_id":"levelo_inurba_marseille","lat":43.29788,"lon":5.38107,"is_reserved":false,"is_disabled":false,"rental_uris":{"android":"levelo://app?vid=4d57edcc-7def-459a-9912-aa3d18d7b0d3","ios":"levelo://app?vid=4d57edcc-7def-459a-9912-aa3d18d7b0d3"},"vehicle_type_id":"4","last_reported":1738070119,"current_range_meters":19600,"station_id":"ce4bgip2rcd13ifvqbb0","pricing_plan_id":"cebpf4jnsgd1na2vs0mg"},{"bike_id":"b58e9c2c-f4fa-4e4d-a3e6-d964f639b0fc","system_id":"levelo_inurba_marseille","lat":43.31425,"lon":5.36665,"is_reserved":false,"is_disabled":false,"rental_uris":{"android":"levelo://app?vid=b58e9c2c-f4fa-4e4d-a3e6-d964f639b0fc","ios":"levelo://app?vid=b58e9c2c-f4fa-4e4d-a3e6-d964f639b0fc"},"vehicle_type_id":"4","last_reported":1738070119,"current_range_meters":38800,"station_id":"ce4bgr92rcd13ifvqc6g","pricing_plan_id":"cebpf4jnsgd1na2vs0mg"},{"bike_id":"8707dca8-5fb6-4e35-a1ec-1f30a01fea05","system_id":"levelo_inurba_marseille","lat":43.29598,"lon":5.42247,"is_reserved":false,"is_disabled":false,"rental_uris":{"android":"levelo://app?vid=8707dca8-5fb6-4e35-a1ec-1f30a01fea05","ios":"levelo://app?vid=8707dca8-5fb6-4e35-a1ec-1f30a01fea05"},"vehicle_type_id":"4","last_reported":1738070119,"current_range_meters":36800,"station_id":"","pricing_plan_id":"cebpf4jnsgd1na2vs0mg"},{"bike_id":"7bb4b03b-1191-4ecb-a101-0b1acb6294f6","system_id":"levelo_inurba_marseille","lat":43.29795,"lon":5.40403,"is_reserved":false,"is_disabled":false,"rental_uris":{"android":"levelo://app?vid=7bb4b03b-1191-4ecb-a101-0b1acb6294f6","ios":"levelo://app?vid=7bb4b03b-1191-4ecb-a101-0b1acb6294f6"},"vehicle_type_id":"4","last_reported":1738070119,"current_range_meters":13600,"station_id":"ce4bh112rcd13ifvqd90","pricing_plan_id":"cebpf4jnsgd1na2vs0mg"},{"bike_id":"0928d7c6-291b-465e-a26d-59a12315b1a9","system_id":"levelo_inurba_marseille","lat":43.31334,"lon":5.39697,"is_reserved":false,"is_disabled":false,"rental_uris":{"android":"levelo://app?vid=0928d7c6-291b-465e-a26d-59a12315b1a9","ios":"levelo://app?vid=0928d7c6-291b-465e-a26d-59a12315b1a9"},"vehicle_type_id":"4","last_reported":1738070119,"current_range_meters":30000,"station_id":"ce4bgvp2rcd13ifvqcu0","pricing_plan_id":"cebpf4jnsgd1na2vs0mg"},{"bike_id":"d886aba8-35d1-46b1-ac01-e2551ba91737","system_id":"levelo_inurba_marseille","lat":43.2872,"lon":5.3793,"is_reserved":false,"is_disabled":false,"rental_uris":{"android":"levelo://app?vid=d886aba8-35d1-46b1-ac01-e2551ba91737","ios":"levelo://app?vid=d886aba8-35d1-46b1-ac01-e2551ba91737"},"vehicle_type_id":"4","last_reported":1738070119,"current_range_meters":38800,"station_id":"ce4bh9p2rcd13ifvqec0","pricing_plan_id":"cebpf4jnsgd1na2vs0mg"},{"bike_id":"b3f0c39b-7f92-4681-9665-648473977d15","system_id":"levelo_inurba_marseille","lat":43.29193,"lon":5.35806,"is_reserved":false,"is_disabled":false,"rental_uris":{"android":"levelo://app?vid=b3f0c39b-7f92-4681-9665-648473977d15","ios":"levelo://app?vid=b3f0c39b-7f92-4681-9665-648473977d15"},"vehicle_type_id":"4","last_reported":1738070119,"current_range_meters":38400,"station_id":"ce4bhb12rcd13ifvqel0","pricing_plan_id":"cebpf4jnsgd1na2vs0mg"},{"bike_id":"2256710f-428a-4b6c-afaf-f485da875c48","system_id":"levelo_inurba_marseille","lat":43.28622,"lon":5.35096,"is_reserved":false,"is_disabled":false,"rental_uris":{"android":"levelo://app?vid=2256710f-428a-4b6c-afaf-f485da875c48","ios":"levelo://app?vid=2256710f-428a-4b6c-afaf-f485da875c48"},"vehicle_type_id":"4","last_reported":1738070119,"current_range_meters":16000,"station_id":"ce4bhch2rcd13ifvqeug","pricing_plan_id":"cebpf4jnsgd1na2vs0mg"},{"bike_id":"ab2c796a-c23b-4a3a-9534-777b873d6a05","system_id":"levelo_inurba_marseille","lat":43.24169,"lon":5.36418,"is_reserved":false,"is_disabled":false,"rental_uris":{"android":"levelo://app?vid=ab2c796a-c23b-4a3a-9534-777b873d6a05","ios":"levelo://app?vid=ab2c796a-c23b-4a3a-9534-777b873d6a05"},"vehicle_type_id":"4","last_reported":1738070119,"current_range_meters":20800,"station_id":"cpo36qri1sfpv3e86is0","pricing_plan_id":"cebpf4jnsgd1na2vs0mg"},{"bike_id":"82836e63-296a-4e79-97de-de888fa1354f","system_id":"levelo_inurba_marseille","lat":43.28663,"lon":5.38683,"is_reserved":false,"is_disabled":false,"rental_uris":{"android":"levelo://app?vid=82836e63-296a-4e79-97de-de888fa1354f","ios":"levelo://app?vid=82836e63-296a-4e79-97de-de888fa1354f"},"vehicle_type_id":"4","last_reported":1738070119,"current_range_meters":22400,"station_id":"ce4bh492rcd13ifvqdug","pricing_plan_id":"cebpf4jnsgd1na2vs0mg"},{"bike_id":"c7197bf4-74a4-49de-9ce3-da6e53262b4e","system_id":"levelo_inurba_marseille","lat":43.2835,"lon":5.38105,"is_reserved":false,"is_disabled":false,"rental_uris":{"android":"levelo://app?vid=c7197bf4-74a4-49de-9ce3-da6e53262b4e","ios":"levelo://app?vid=c7197bf4-74a4-49de-9ce3-da6e53262b4e"},"vehicle_type_id":"4","last_reported":1738070119,"current_range_meters":13600,"station_id":"ce4bh412rcd13ifvqdr0","pricing_plan_id":"cebpf4jnsgd1na2vs0mg"},{"bike_id":"529f1ab7-390e-41c3-9180-30692697770e","system_id":"levelo_inurba_marseille","lat":43.28624,"lon":5.35095,"is_reserved":false,"is_disabled":true,"rental_uris":{"android":"levelo://app?vid=529f1ab7-390e-41c3-9180-30692697770e","ios":"levelo://app?vid=529f1ab7-390e-41c3-9180-30692697770e"},"vehicle_type_id":"4","last_reported":1738070119,"current_range_meters":14000,"station_id":"ce4bhch2rcd13ifvqeug","pricing_plan_id":"cebpf4jnsgd1na2vs0mg"},{"bike_id":"3fedd55f-b98e-4b45-b8cf-64db44be4cfc","system_id":"levelo_inurba_marseille","lat":43.30952,"lon":5.39037,"is_reserved":false,"is_disabled":false,"rental_uris":{"android":"levelo://app?vid=3fedd55f-b98e-4b45-b8cf-64db44be4cfc","ios":"levelo://app?vid=3fedd55f-b98e-4b45-b8cf-64db44be4cfc"},"vehicle_type_id":"4","last_reported":1738070119,"current_range_meters":27200,"station_id":"ce4bgup2rcd13ifvqco0","pricing_plan_id":"cebpf4jnsgd1na2vs0mg"},{"bike_id":"b8c29651-d1bf-41b0-9feb-4b9e7b4cf810","system_id":"levelo_inurba_marseille","lat":43.24077,"lon":5.37759,"is_reserved":false,"is_disabled":false,"rental_uris":{"android":"levelo://app?vid=b8c29651-d1bf-41b0-9feb-4b9e7b4cf810","ios":"levelo://app?vid=b8c29651-d1bf-41b0-9feb-4b9e7b4cf810"},"vehicle_type_id":"4","last_reported":1738070119,"current_range_meters":39200,"station_id":"ce4bhnp2rcd13ifvqgvg","pricing_plan_id":"cebpf4jnsgd1na2vs0mg"},{"bike_id":"56847d2e-80fb-4b1d-b8d6-47a1b0db5a59","system_id":"levelo_inurba_marseille","lat":43.31086,"lon":5.42444,"is_reserved":false,"is_disabled":false,"rental_uris":{"android":"levelo://app?vid=56847d2e-80fb-4b1d-b8d6-47a1b0db5a59","ios":"levelo://app?vid=56847d2e-80fb-4b1d-b8d6-47a1b0db5a59"},"vehicle_type_id":"4","last_reported":1738070119,"current_range_meters":20400,"station_id":"ce4bhp92rcd13ifvqhag","pricing_plan_id":"cebpf4jnsgd1na2vs0mg"},{"bike_id":"4d81dfbf-9038-4c02-9a6b-7cbf7a04db3d","system_id":"levelo_inurba_marseille","lat":43.27981,"lon":5.38721,"is_reserved":false,"is_disabled":false,"rental_uris":{"android":"levelo://app?vid=4d81dfbf-9038-4c02-9a6b-7cbf7a04db3d","ios":"levelo://app?vid=4d81dfbf-9038-4c02-9a6b-7cbf7a04db3d"},"vehicle_type_id":"4","last_reported":1738070119,"current_range_meters":18800,"station_id":"ce4bhg12rcd13ifvqf80","pricing_plan_id":"cebpf4jnsgd1na2vs0mg"},{"bike_id":"47b7bf9e-8708-47cd-851f-e2a4fed2fb3f","system_id":"levelo_inurba_marseille","lat":43.27476,"lon":5.4247,"is_reserved":false,"is_disabled":false,"rental_uris":{"android":"levelo://app?vid=47b7bf9e-8708-47cd-851f-e2a4fed2fb3f","ios":"levelo://app?vid=47b7bf9e-8708-47cd-851f-e2a4fed2fb3f"},"vehicle_type_id":"4","last_reported":1738070119,"current_range_meters":28000,"station_id":"ce4bhn92rcd13ifvqgrg","pricing_plan_id":"cebpf4jnsgd1na2vs0mg"},{"bike_id":"6b544164-ad64-4907-9140-df7ab85fac74","system_id":"levelo_inurba_marseille","lat":43.32373,"lon":5.36728,"is_reserved":false,"is_disabled":false,"rental_uris":{"android":"levelo://app?vid=6b544164-ad64-4907-9140-df7ab85fac74","ios":"levelo://app?vid=6b544164-ad64-4907-9140-df7ab85fac74"},"vehicle_type_id":"4","last_reported":1738070119,"current_range_meters":24800,"station_id":"ce4bhsh2rcd13ifvqi2g","pricing_plan_id":"cebpf4jnsgd1na2vs0mg"},{"bike_id":"eea5a0be-f050-4c1c-898c-49d8503e58ff","system_id":"levelo_inurba_marseille","lat":43.25725,"lon":5.41102,"is_reserved":false,"is_disabled":false,"rental_uris":{"android":"levelo://app?vid=eea5a0be-f050-4c1c-898c-49d8503e58ff","ios":"levelo://app?vid=eea5a0be-f050-4c1c-898c-49d8503e58ff"},"vehicle_type_id":"4","last_reported":1738070119,"current_range_meters":39200,"station_id":"ce4bhkp2rcd13ifvqgd0","pricing_plan_id":"cebpf4jnsgd1na2vs0mg"},{"bike_id":"3bb4a974-5645-4c60-9b4d-bd1f47b9ee9d","system_id":"levelo_inurba_marseille","lat":43.30463,"lon":5.37901,"is_reserved":false,"is_disabled":false,"rental_uris":{"android":"levelo://app?vid=3bb4a974-5645-4c60-9b4d-bd1f47b9ee9d","ios":"levelo://app?vid=3bb4a974-5645-4c60-9b4d-bd1f47b9ee9d"},"vehicle_type_id":"4","last_reported":1738070119,"current_range_meters":31200,"station_id":"ce4bgup2rcd13ifvqcn0","pricing_plan_id":"cebpf4jnsgd1na2vs0mg"},{"bike_id":"3afe2907-14fe-40b0-8ce8-247215ed16c8","system_id":"levelo_inurba_marseille","lat":43.26926,"lon":5.38933,"is_reserved":false,"is_disabled":true,"rental_uris":{"android":"levelo://app?vid=3afe2907-14fe-40b0-8ce8-247215ed16c8","ios":"levelo://app?vid=3afe2907-14fe-40b0-8ce8-247215ed16c8"},"vehicle_type_id":"4","last_reported":1738070119,"current_range_meters":8400,"station_id":"ce4bhhh2rcd13ifvqfl0","pricing_plan_id":"cebpf4jnsgd1na2vs0mg"},{"bike_id":"4cf2d0bc-33ee-42e0-9ab6-17e12a07dfc3","system_id":"levelo_inurba_marseille","lat":43.24074,"lon":5.3776,"is_reserved":false,"is_disabled":false,"rental_uris":{"android":"levelo://app?vid=4cf2d0bc-33ee-42e0-9ab6-17e12a07dfc3","ios":"levelo://app?vid=4cf2d0bc-33ee-42e0-9ab6-17e12a07dfc3"},"vehicle_type_id":"4","last_reported":1738070119,"current_range_meters":28400,"station_id":"ce4bhnp2rcd13ifvqgvg","pricing_plan_id":"cebpf4jnsgd1na2vs0mg"},{"bike_id":"a01196f7-bf19-45ed-8b12-401185d8ab0c","system_id":"levelo_inurba_marseille","lat":43.29282,"lon":5.36846,"is_reserved":false,"is_disabled":false,"rental_uris":{"android":"levelo://app?vid=a01196f7-bf19-45ed-8b12-401185d8ab0c","ios":"levelo://app?vid=a01196f7-bf19-45ed-8b12-401185d8ab0c"},"vehicle_type_id":"4","last_reported":1738070119,"current_range_meters":35600,"station_id":"ce4bhbp2rcd13ifvqesg","pricing_plan_id":"cebpf4jnsgd1na2vs0mg"},{"bike_id":"c59f63b1-9147-42d1-bd18-1095c3b0b00e","system_id":"levelo_inurba_marseille","lat":43.30463,"lon":5.37914,"is_reserved":false,"is_disabled":false,"rental_uris":{"android":"levelo://app?vid=c59f63b1-9147-42d1-bd18-1095c3b0b00e","ios":"levelo://app?vid=c59f63b1-9147-42d1-bd18-1095c3b0b00e"},"vehicle_type_id":"4","last_reported":1738070119,"current_range_meters":17200,"station_id":"ce4bgup2rcd13ifvqcn0","pricing_plan_id":"cebpf4jnsgd1na2vs0mg"},{"bike_id":"e16bcf47-fcd7-4bd9-a4d9-3d929e20bb54","system_id":"levelo_inurba_marseille","lat":43.31706,"lon":5.37731,"is_reserved":false,"is_disabled":false,"rental_uris":{"android":"levelo://app?vid=e16bcf47-fcd7-4bd9-a4d9-3d929e20bb54","ios":"levelo://app?vid=e16bcf47-fcd7-4bd9-a4d9-3d929e20bb54"},"vehicle_type_id":"4","last_reported":1738070119,"current_range_meters":24000,"station_id":"ce4bgth2rcd13ifvqch0","pricing_plan_id":"cebpf4jnsgd1na2vs0mg"},{"bike_id":"cc26c524-9981-41d6-9e25-17cb40d9e550","system_id":"levelo_inurba_marseille","lat":43.24811,"lon":5.37459,"is_reserved":false,"is_disabled":false,"rental_uris":{"android":"levelo://app?vid=cc26c524-9981-41d6-9e25-17cb40d9e550","ios":"levelo://app?vid=cc26c524-9981-41d6-9e25-17cb40d9e550"},"vehicle_type_id":"4","last_reported":1738070119,"current_range_meters":27200,"station_id":"ce4bhgh2rcd13ifvqfb0","pricing_plan_id":"cebpf4jnsgd1na2vs0mg"},{"bike_id":"631c6d7f-0a07-4944-b4e5-ab7a6e90fccd","system_id":"levelo_inurba_marseille","lat":43.27486,"lon":5.42461,"is_reserved":false,"is_disabled":false,"rental_uris":{"android":"levelo://app?vid=631c6d7f-0a07-4944-b4e5-ab7a6e90fccd","ios":"levelo://app?vid=631c6d7f-0a07-4944-b4e5-ab7a6e90fccd"},"vehicle_type_id":"4","last_reported":1738070119,"current_range_meters":38800,"station_id":"ce4bhn92rcd13ifvqgrg","pricing_plan_id":"cebpf4jnsgd1na2vs0mg"},{"bike_id":"26d2e347-271c-4f49-9b84-1ebc578fb013","system_id":"levelo_inurba_marseille","lat":43.28715,"lon":5.37934,"is_reserved":false,"is_disabled":false,"rental_uris":{"android":"levelo://app?vid=26d2e347-271c-4f49-9b84-1ebc578fb013","ios":"levelo://app?vid=26d2e347-271c-4f49-9b84-1ebc578fb013"},"vehicle_type_id":"4","last_reported":1738070119,"current_range_meters":38000,"station_id":"ce4bh9p2rcd13ifvqec0","pricing_plan_id":"cebpf4jnsgd1na2vs0mg"},{"bike_id":"7d9e8612-0f22-49eb-a6ac-7ade4f3aff92","system_id":"levelo_inurba_marseille","lat":43.27664,"lon":5.3888,"is_reserved":false,"is_disabled":false,"rental_uris":{"android":"levelo://app?vid=7d9e8612-0f22-49eb-a6ac-7ade4f3aff92","ios":"levelo://app?vid=7d9e8612-0f22-49eb-a6ac-7ade4f3aff92"},"vehicle_type_id":"4","last_reported":1738070119,"current_range_meters":24800,"station_id":"ce4bhi12rcd13ifvqfo0","pricing_plan_id":"cebpf4jnsgd1na2vs0mg"},{"bike_id":"f0d60596-134c-4025-8e70-49e458a18aef","system_id":"levelo_inurba_marseille","lat":43.30143,"lon":5.38119,"is_reserved":false,"is_disabled":true,"rental_uris":{"android":"levelo://app?vid=f0d60596-134c-4025-8e70-49e458a18aef","ios":"levelo://app?vid=f0d60596-134c-4025-8e70-49e458a18aef"},"vehicle_type_id":"4","last_reported":1738070119,"current_range_meters":0,"station_id":"ce4bgjp2rcd13ifvqbh0","pricing_plan_id":"cebpf4jnsgd1na2vs0mg"},{"bike_id":"dd195832-ff3f-4763-a260-74003ef7ff4c","system_id":"levelo_inurba_marseille","lat":43.29227,"lon":5.36025,"is_reserved":false,"is_disabled":true,"rental_uris":{"android":"levelo://app?vid=dd195832-ff3f-4763-a260-74003ef7ff4c","ios":"levelo://app?vid=dd195832-ff3f-4763-a260-74003ef7ff4c"},"vehicle_type_id":"4","last_reported":1738070119,"current_range_meters":37600,"station_id":"ce4bhbh2rcd13ifvqeqg","pricing_plan_id":"cebpf4jnsgd1na2vs0mg"},{"bike_id":"cca3bf4e-c45f-468d-8cdd-3f87d7ee10cd","system_id":"levelo_inurba_marseille","lat":43.29278,"lon":5.37443,"is_reserved":false,"is_disabled":false,"rental_uris":{"android":"levelo://app?vid=cca3bf4e-c45f-468d-8cdd-3f87d7ee10cd","ios":"levelo://app?vid=cca3bf4e-c45f-468d-8cdd-3f87d7ee10cd"},"vehicle_type_id":"4","last_reported":1738070119,"current_range_meters":37600,"station_id":"ce4bgi12rcd13ifvqb70","pricing_plan_id":"cebpf4jnsgd1na2vs0mg"},{"bike_id":"f8239b01-3b23-4214-aeee-b03ebaf1b50d","system_id":"levelo_inurba_marseille","lat":43.30543,"lon":5.36739,"is_reserved":false,"is_disabled":false,"rental_uris":{"android":"levelo://app?vid=f8239b01-3b23-4214-aeee-b03ebaf1b50d","ios":"levelo://app?vid=f8239b01-3b23-4214-aeee-b03ebaf1b50d"},"vehicle_type_id":"4","last_reported":1738070119,"current_range_meters":39200,"station_id":"ce4bgrp2rcd13ifvqc9g","pricing_plan_id":"cebpf4jnsgd1na2vs0mg"},{"bike_id":"01e62b8e-9f1f-4220-b786-d92edecf076d","system_id":"levelo_inurba_marseille","lat":43.28737,"lon":5.37934,"is_reserved":false,"is_disabled":false,"rental_uris":{"android":"levelo://app?vid=01e62b8e-9f1f-4220-b786-d92edecf076d","ios":"levelo://app?vid=01e62b8e-9f1f-4220-b786-d92edecf076d"},"vehicle_type_id":"4","last_reported":1738070119,"current_range_meters":36000,"station_id":"ce4bh9p2rcd13ifvqec0","pricing_plan_id":"cebpf4jnsgd1na2vs0mg"},{"bike_id":"39114634-f3bd-4c9f-816d-9355221ca99f","system_id":"levelo_inurba_marseille","lat":43.289544,"lon":5.366255,"is_reserved":false,"is_disabled":true,"rental_uris":{"android":"levelo://app?vid=39114634-f3bd-4c9f-816d-9355221ca99f","ios":"levelo://app?vid=39114634-f3bd-4c9f-816d-9355221ca99f"},"vehicle_type_id":"4","last_reported":1738070119,"current_range_meters":38800,"station_id":"ce4bhap2rcd13ifvqek0","pricing_plan_id":"cebpf4jnsgd1na2vs0mg"},{"bike_id":"1aadf412-34ba-4d80-bd51-1b9b40f1724a","system_id":"levelo_inurba_marseille","lat":43.24068,"lon":5.37763,"is_reserved":false,"is_disabled":false,"rental_uris":{"android":"levelo://app?vid=1aadf412-34ba-4d80-bd51-1b9b40f1724a","ios":"levelo://app?vid=1aadf412-34ba-4d80-bd51-1b9b40f1724a"},"vehicle_type_id":"4","last_reported":1738070119,"current_range_meters":14000,"station_id":"ce4bhnp2rcd13ifvqgvg","pricing_plan_id":"cebpf4jnsgd1na2vs0mg"},{"bike_id":"b1b71e4d-f7f1-4639-9836-d82bceddafdd","system_id":"levelo_inurba_marseille","lat":43.30164,"lon":5.38087,"is_reserved":false,"is_disabled":false,"rental_uris":{"android":"levelo://app?vid=b1b71e4d-f7f1-4639-9836-d82bceddafdd","ios":"levelo://app?vid=b1b71e4d-f7f1-4639-9836-d82bceddafdd"},"vehicle_type_id":"4","last_reported":1738070119,"current_range_meters":38400,"station_id":"ce4bgjp2rcd13ifvqbh0","pricing_plan_id":"cebpf4jnsgd1na2vs0mg"},{"bike_id":"cd48da39-a655-4dcb-97c2-bcb8d3d8c55b","system_id":"levelo_inurba_marseille","lat":43.23169,"lon":5.43703,"is_reserved":false,"is_disabled":true,"rental_uris":{"android":"levelo://app?vid=cd48da39-a655-4dcb-97c2-bcb8d3d8c55b","ios":"levelo://app?vid=cd48da39-a655-4dcb-97c2-bcb8d3d8c55b"},"vehicle_type_id":"4","last_reported":1738070119,"current_range_meters":0,"station_id":"ce4bhmp2rcd13ifvqgog","pricing_plan_id":"cebpf4jnsgd1na2vs0mg"},{"bike_id":"380db4f1-f717-47f9-90c2-eaffe33861d5","system_id":"levelo_inurba_marseille","lat":43.31224,"lon":5.36836,"is_reserved":false,"is_disabled":false,"rental_uris":{"android":"levelo://app?vid=380db4f1-f717-47f9-90c2-eaffe33861d5","ios":"levelo://app?vid=380db4f1-f717-47f9-90c2-eaffe33861d5"},"vehicle_type_id":"4","last_reported":1738070119,"current_range_meters":39200,"station_id":"ce4bgl92rcd13ifvqbq0","pricing_plan_id":"cebpf4jnsgd1na2vs0mg"},{"bike_id":"913040d1-f379-40aa-a006-e66733178a3f","system_id":"levelo_inurba_marseille","lat":43.23183,"lon":5.39979,"is_reserved":false,"is_disabled":false,"rental_uris":{"android":"levelo://app?vid=913040d1-f379-40aa-a006-e66733178a3f","ios":"levelo://app?vid=913040d1-f379-40aa-a006-e66733178a3f"},"vehicle_type_id":"4","last_reported":1738070119,"current_range_meters":17600,"station_id":"ce4bhn12rcd13ifvqgqg","pricing_plan_id":"cebpf4jnsgd1na2vs0mg"},{"bike_id":"387dd892-a68f-4ff0-a7a6-33552dcb388e","system_id":"levelo_inurba_marseille","lat":43.289307,"lon":5.36644,"is_reserved":false,"is_disabled":false,"rental_uris":{"android":"levelo://app?vid=387dd892-a68f-4ff0-a7a6-33552dcb388e","ios":"levelo://app?vid=387dd892-a68f-4ff0-a7a6-33552dcb388e"},"vehicle_type_id":"4","last_reported":1738070119,"current_range_meters":13600,"station_id":"ce4bhap2rcd13ifvqek0","pricing_plan_id":"cebpf4jnsgd1na2vs0mg"},{"bike_id":"dc4ca670-3e85-4586-a652-9da30eaf3b99","system_id":"levelo_inurba_marseille","lat":43.28726,"lon":5.37894,"is_reserved":false,"is_disabled":false,"rental_uris":{"android":"levelo://app?vid=dc4ca670-3e85-4586-a652-9da30eaf3b99","ios":"levelo://app?vid=dc4ca670-3e85-4586-a652-9da30eaf3b99"},"vehicle_type_id":"4","last_reported":1738070119,"current_range_meters":24400,"station_id":"ce4bh9p2rcd13ifvqec0","pricing_plan_id":"cebpf4jnsgd1na2vs0mg"},{"bike_id":"01c346e4-7211-4b0a-9252-8b8a59a9b82f","system_id":"levelo_inurba_marseille","lat":43.28849,"lon":5.35833,"is_reserved":false,"is_disabled":true,"rental_uris":{"android":"levelo://app?vid=01c346e4-7211-4b0a-9252-8b8a59a9b82f","ios":"levelo://app?vid=01c346e4-7211-4b0a-9252-8b8a59a9b82f"},"vehicle_type_id":"4","last_reported":1738070119,"current_range_meters":38400,"station_id":"ce4bhb12rcd13ifvqem0","pricing_plan_id":"cebpf4jnsgd1na2vs0mg"},{"bike_id":"822d0c81-aadf-42c0-a949-a73417b2af62","system_id":"levelo_inurba_marseille","lat":43.3245,"lon":5.36569,"is_reserved":false,"is_disabled":false,"rental_uris":{"android":"levelo://app?vid=822d0c81-aadf-42c0-a949-a73417b2af62","ios":"levelo://app?vid=822d0c81-aadf-42c0-a949-a73417b2af62"},"vehicle_type_id":"4","last_reported":1738070119,"current_range_meters":8800,"station_id":"ce4bhs12rcd13ifvqhvg","pricing_plan_id":"cebpf4jnsgd1na2vs0mg"},{"bike_id":"1deb9f83-7def-49a4-a7ec-4fa7f01e7960","system_id":"levelo_inurba_marseille","lat":43.313324,"lon":5.396997,"is_reserved":false,"is_disabled":false,"rental_uris":{"android":"levelo://app?vid=1deb9f83-7def-49a4-a7ec-4fa7f01e7960","ios":"levelo://app?vid=1deb9f83-7def-49a4-a7ec-4fa7f01e7960"},"vehicle_type_id":"4","last_reported":1738070119,"current_range_meters":27600,"station_id":"ce4bgvp2rcd13ifvqcu0","pricing_plan_id":"cebpf4jnsgd1na2vs0mg"},{"bike_id":"3fb74e29-7f1d-4c67-8af5-0bb8332df870","system_id":"levelo_inurba_marseille","lat":43.24408,"lon":5.37052,"is_reserved":false,"is_disabled":false,"rental_uris":{"android":"levelo://app?vid=3fb74e29-7f1d-4c67-8af5-0bb8332df870","ios":"levelo://app?vid=3fb74e29-7f1d-4c67-8af5-0bb8332df870"},"vehicle_type_id":"4","last_reported":1738070119,"current_range_meters":26000,"station_id":"ce4bhhh2rcd13ifvqfk0","pricing_plan_id":"cebpf4jnsgd1na2vs0mg"},{"bike_id":"611fad2e-6d45-44eb-a5e7-b3ab022b1b90","system_id":"levelo_inurba_marseille","lat":43.30567,"lon":5.36537,"is_reserved":false,"is_disabled":false,"rental_uris":{"android":"levelo://app?vid=611fad2e-6d45-44eb-a5e7-b3ab022b1b90","ios":"levelo://app?vid=611fad2e-6d45-44eb-a5e7-b3ab022b1b90"},"vehicle_type_id":"4","last_reported":1738070119,"current_range_meters":39200,"station_id":"ce4bgs12rcd13ifvqcag","pricing_plan_id":"cebpf4jnsgd1na2vs0mg"},{"bike_id":"a1f25abd-5197-4524-ac53-ad8743bef105","system_id":"levelo_inurba_marseille","lat":43.29893,"lon":5.4367,"is_reserved":false,"is_disabled":true,"rental_uris":{"android":"levelo://app?vid=a1f25abd-5197-4524-ac53-ad8743bef105","ios":"levelo://app?vid=a1f25abd-5197-4524-ac53-ad8743bef105"},"vehicle_type_id":"4","last_reported":1738070119,"current_range_meters":38000,"station_id":"ce4bhpp2rcd13ifvqhfg","pricing_plan_id":"cebpf4jnsgd1na2vs0mg"},{"bike_id":"25d50a30-6027-4ce1-b2c9-1243c2a1554f","system_id":"levelo_inurba_marseille","lat":43.28928,"lon":5.36393,"is_reserved":false,"is_disabled":false,"rental_uris":{"android":"levelo://app?vid=25d50a30-6027-4ce1-b2c9-1243c2a1554f","ios":"levelo://app?vid=25d50a30-6027-4ce1-b2c9-1243c2a1554f"},"vehicle_type_id":"4","last_reported":1738070119,"current_range_meters":31200,"station_id":"ce4bhc92rcd13ifvqetg","pricing_plan_id":"cebpf4jnsgd1na2vs0mg"},{"bike_id":"076810f3-e37e-4a24-a2bf-ae6df07f807b","system_id":"levelo_inurba_marseille","lat":43.29305,"lon":5.37428,"is_reserved":false,"is_disabled":false,"rental_uris":{"android":"levelo://app?vid=076810f3-e37e-4a24-a2bf-ae6df07f807b","ios":"levelo://app?vid=076810f3-e37e-4a24-a2bf-ae6df07f807b"},"vehicle_type_id":"4","last_reported":1738070119,"current_range_meters":22000,"station_id":"ce4bgi12rcd13ifvqb70","pricing_plan_id":"cebpf4jnsgd1na2vs0mg"},{"bike_id":"8a42d715-0ce9-4c6b-96f4-06031b5e80a7","system_id":"levelo_inurba_marseille","lat":43.25853,"lon":5.39907,"is_reserved":false,"is_disabled":false,"rental_uris":{"android":"levelo://app?vid=8a42d715-0ce9-4c6b-96f4-06031b5e80a7","ios":"levelo://app?vid=8a42d715-0ce9-4c6b-96f4-06031b5e80a7"},"vehicle_type_id":"4","last_reported":1738070119,"current_range_meters":28400,"station_id":"ce4bhl92rcd13ifvqghg","pricing_plan_id":"cebpf4jnsgd1na2vs0mg"},{"bike_id":"ff68af14-5554-4f8d-a3de-4549d987f602","system_id":"levelo_inurba_marseille","lat":43.29909,"lon":5.43668,"is_reserved":false,"is_disabled":false,"rental_uris":{"android":"levelo://app?vid=ff68af14-5554-4f8d-a3de-4549d987f602","ios":"levelo://app?vid=ff68af14-5554-4f8d-a3de-4549d987f602"},"vehicle_type_id":"4","last_reported":1738070119,"current_range_meters":36400,"station_id":"ce4bhpp2rcd13ifvqhfg","pricing_plan_id":"cebpf4jnsgd1na2vs0mg"},{"bike_id":"296acca2-a355-4830-bc97-a6939a85f573","system_id":"levelo_inurba_marseille","lat":43.25583,"lon":5.38252,"is_reserved":false,"is_disabled":false,"rental_uris":{"android":"levelo://app?vid=296acca2-a355-4830-bc97-a6939a85f573","ios":"levelo://app?vid=296acca2-a355-4830-bc97-a6939a85f573"},"vehicle_type_id":"4","last_reported":1738070119,"current_range_meters":28000,"station_id":"ce4bhih2rcd13ifvqfs0","pricing_plan_id":"cebpf4jnsgd1na2vs0mg"},{"bike_id":"46d69e1c-33f8-4323-92ae-63826d13506d","system_id":"levelo_inurba_marseille","lat":43.26949,"lon":5.40244,"is_reserved":false,"is_disabled":false,"rental_uris":{"android":"levelo://app?vid=46d69e1c-33f8-4323-92ae-63826d13506d","ios":"levelo://app?vid=46d69e1c-33f8-4323-92ae-63826d13506d"},"vehicle_type_id":"4","last_reported":1738070119,"current_range_meters":30000,"station_id":"cjm6bp8fraef2m0cb0m0","pricing_plan_id":"cebpf4jnsgd1na2vs0mg"},{"bike_id":"60b44109-932b-468b-8ceb-93cea2c9c54c","system_id":"levelo_inurba_marseille","lat":43.27502,"lon":5.42465,"is_reserved":false,"is_disabled":false,"rental_uris":{"android":"levelo://app?vid=60b44109-932b-468b-8ceb-93cea2c9c54c","ios":"levelo://app?vid=60b44109-932b-468b-8ceb-93cea2c9c54c"},"vehicle_type_id":"4","last_reported":1738070119,"current_range_meters":28400,"station_id":"ce4bhn92rcd13ifvqgrg","pricing_plan_id":"cebpf4jnsgd1na2vs0mg"},{"bike_id":"ebb205c2-a624-4ba3-b146-456d74ca16ee","system_id":"levelo_inurba_marseille","lat":43.25011,"lon":5.38934,"is_reserved":false,"is_disabled":false,"rental_uris":{"android":"levelo://app?vid=ebb205c2-a624-4ba3-b146-456d74ca16ee","ios":"levelo://app?vid=ebb205c2-a624-4ba3-b146-456d74ca16ee"},"vehicle_type_id":"4","last_reported":1738070119,"current_range_meters":36400,"station_id":"ce4bhgp2rcd13ifvqfd0","pricing_plan_id":"cebpf4jnsgd1na2vs0mg"},{"bike_id":"3c5cbf2e-5914-44e5-adf1-7229185be9cb","system_id":"levelo_inurba_marseille","lat":43.32467,"lon":5.36527,"is_reserved":false,"is_disabled":false,"rental_uris":{"android":"levelo://app?vid=3c5cbf2e-5914-44e5-adf1-7229185be9cb","ios":"levelo://app?vid=3c5cbf2e-5914-44e5-adf1-7229185be9cb"},"vehicle_type_id":"4","last_reported":1738070119,"current_range_meters":12400,"station_id":"ce4bhs12rcd13ifvqhvg","pricing_plan_id":"cebpf4jnsgd1na2vs0mg"},{"bike_id":"b1d260c0-acdb-4241-b1fa-29a58e464bb9","system_id":"levelo_inurba_marseille","lat":43.2439,"lon":5.37074,"is_reserved":false,"is_disabled":false,"rental_uris":{"android":"levelo://app?vid=b1d260c0-acdb-4241-b1fa-29a58e464bb9","ios":"levelo://app?vid=b1d260c0-acdb-4241-b1fa-29a58e464bb9"},"vehicle_type_id":"4","last_reported":1738070119,"current_range_meters":38400,"station_id":"ce4bhhh2rcd13ifvqfk0","pricing_plan_id":"cebpf4jnsgd1na2vs0mg"},{"bike_id":"e406b37f-e444-4bb4-9ab2-33091cf154bd","system_id":"levelo_inurba_marseille","lat":43.29315,"lon":5.37419,"is_reserved":false,"is_disabled":false,"rental_uris":{"android":"levelo://app?vid=e406b37f-e444-4bb4-9ab2-33091cf154bd","ios":"levelo://app?vid=e406b37f-e444-4bb4-9ab2-33091cf154bd"},"vehicle_type_id":"4","last_reported":1738070119,"current_range_meters":32800,"station_id":"ce4bgi12rcd13ifvqb70","pricing_plan_id":"cebpf4jnsgd1na2vs0mg"},{"bike_id":"8452d8dc-c138-444a-a251-f7618b1505d1","system_id":"levelo_inurba_marseille","lat":43.28281,"lon":5.35061,"is_reserved":false,"is_disabled":false,"rental_uris":{"android":"levelo://app?vid=8452d8dc-c138-444a-a251-f7618b1505d1","ios":"levelo://app?vid=8452d8dc-c138-444a-a251-f7618b1505d1"},"vehicle_type_id":"4","last_reported":1738070119,"current_range_meters":28000,"station_id":"ce4bhbp2rcd13ifvqerg","pricing_plan_id":"cebpf4jnsgd1na2vs0mg"},{"bike_id":"b5cc55f2-2a30-479b-8fa6-5ff8568d3372","system_id":"levelo_inurba_marseille","lat":43.26675,"lon":5.38272,"is_reserved":false,"is_disabled":true,"rental_uris":{"android":"levelo://app?vid=b5cc55f2-2a30-479b-8fa6-5ff8568d3372","ios":"levelo://app?vid=b5cc55f2-2a30-479b-8fa6-5ff8568d3372"},"vehicle_type_id":"4","last_reported":1738070119,"current_range_meters":38800,"station_id":"ce4bhg92rcd13ifvqf90","pricing_plan_id":"cebpf4jnsgd1na2vs0mg"},{"bike_id":"5189cd3c-0a23-42b8-b01f-5e19849cef00","system_id":"levelo_inurba_marseille","lat":43.2992,"lon":5.37489,"is_reserved":false,"is_disabled":false,"rental_uris":{"android":"levelo://app?vid=5189cd3c-0a23-42b8-b01f-5e19849cef00","ios":"levelo://app?vid=5189cd3c-0a23-42b8-b01f-5e19849cef00"},"vehicle_type_id":"4","last_reported":1738070119,"current_range_meters":32800,"station_id":"ce4bgjh2rcd13ifvqbg0","pricing_plan_id":"cebpf4jnsgd1na2vs0mg"},{"bike_id":"16e377ed-0b1f-4464-b29d-b7d1caa6fca1","system_id":"levelo_inurba_marseille","lat":43.25932,"lon":5.40893,"is_reserved":false,"is_disabled":false,"rental_uris":{"android":"levelo://app?vid=16e377ed-0b1f-4464-b29d-b7d1caa6fca1","ios":"levelo://app?vid=16e377ed-0b1f-4464-b29d-b7d1caa6fca1"},"vehicle_type_id":"4","last_reported":1738070119,"current_range_meters":10800,"station_id":"ce4bhm92rcd13ifvqglg","pricing_plan_id":"cebpf4jnsgd1na2vs0mg"},{"bike_id":"e3c5a10e-948d-477c-91ce-8c835a7fe362","system_id":"levelo_inurba_marseille","lat":43.28109,"lon":5.3967,"is_reserved":false,"is_disabled":true,"rental_uris":{"android":"levelo://app?vid=e3c5a10e-948d-477c-91ce-8c835a7fe362","ios":"levelo://app?vid=e3c5a10e-948d-477c-91ce-8c835a7fe362"},"vehicle_type_id":"4","last_reported":1738070119,"current_range_meters":0,"station_id":"ce4bho12rcd13ifvqh2g","pricing_plan_id":"cebpf4jnsgd1na2vs0mg"},{"bike_id":"333525fe-a0fb-4133-b0ab-981280a9f8ce","system_id":"levelo_inurba_marseille","lat":43.30904,"lon":5.36862,"is_reserved":false,"is_disabled":false,"rental_uris":{"android":"levelo://app?vid=333525fe-a0fb-4133-b0ab-981280a9f8ce","ios":"levelo://app?vid=333525fe-a0fb-4133-b0ab-981280a9f8ce"},"vehicle_type_id":"4","last_reported":1738070119,"current_range_meters":19600,"station_id":"ce4bgn92rcd13ifvqbvg","pricing_plan_id":"cebpf4jnsgd1na2vs0mg"},{"bike_id":"57166c3c-28c7-4ebe-86e5-fbd35640f1e8","system_id":"levelo_inurba_marseille","lat":43.29532,"lon":5.37498,"is_reserved":false,"is_disabled":false,"rental_uris":{"android":"levelo://app?vid=57166c3c-28c7-4ebe-86e5-fbd35640f1e8","ios":"levelo://app?vid=57166c3c-28c7-4ebe-86e5-fbd35640f1e8"},"vehicle_type_id":"4","last_reported":1738070119,"current_range_meters":37600,"station_id":"ce4bgkp2rcd13ifvqbmg","pricing_plan_id":"cebpf4jnsgd1na2vs0mg"},{"bike_id":"9f018113-1138-458d-9938-2357ae09399b","system_id":"levelo_inurba_marseille","lat":43.28615,"lon":5.35106,"is_reserved":false,"is_disabled":true,"rental_uris":{"android":"levelo://app?vid=9f018113-1138-458d-9938-2357ae09399b","ios":"levelo://app?vid=9f018113-1138-458d-9938-2357ae09399b"},"vehicle_type_id":"4","last_reported":1738070119,"current_range_meters":0,"station_id":"ce4bhch2rcd13ifvqeug","pricing_plan_id":"cebpf4jnsgd1na2vs0mg"},{"bike_id":"26f88feb-e8e8-46e5-bef2-c1cf95ddc1c2","system_id":"levelo_inurba_marseille","lat":43.29318,"lon":5.37182,"is_reserved":false,"is_disabled":false,"rental_uris":{"android":"levelo://app?vid=26f88feb-e8e8-46e5-bef2-c1cf95ddc1c2","ios":"levelo://app?vid=26f88feb-e8e8-46e5-bef2-c1cf95ddc1c2"},"vehicle_type_id":"4","last_reported":1738070119,"current_range_meters":38400,"station_id":"ce4bgh92rcd13ifvqb40","pricing_plan_id":"cebpf4jnsgd1na2vs0mg"},{"bike_id":"f846d495-effa-4e8f-ae39-f2d7b1fc0ba3","system_id":"levelo_inurba_marseille","lat":43.26805,"lon":5.40257,"is_reserved":false,"is_disabled":false,"rental_uris":{"android":"levelo://app?vid=f846d495-effa-4e8f-ae39-f2d7b1fc0ba3","ios":"levelo://app?vid=f846d495-effa-4e8f-ae39-f2d7b1fc0ba3"},"vehicle_type_id":"4","last_reported":1738070119,"current_range_meters":38800,"station_id":"ce501612rcd8frsf0b60","pricing_plan_id":"cebpf4jnsgd1na2vs0mg"},{"bike_id":"b7073f96-d16f-405f-8de7-80aaf9a2139a","system_id":"levelo_inurba_marseille","lat":43.28277,"lon":5.35073,"is_reserved":false,"is_disabled":false,"rental_uris":{"android":"levelo://app?vid=b7073f96-d16f-405f-8de7-80aaf9a2139a","ios":"levelo://app?vid=b7073f96-d16f-405f-8de7-80aaf9a2139a"},"vehicle_type_id":"4","last_reported":1738070119,"current_range_meters":9200,"station_id":"ce4bhbp2rcd13ifvqerg","pricing_plan_id":"cebpf4jnsgd1na2vs0mg"},{"bike_id":"a4be99d0-9f57-4d65-9197-81844e4eb908","system_id":"levelo_inurba_marseille","lat":43.32504,"lon":5.36561,"is_reserved":false,"is_disabled":false,"rental_uris":{"android":"levelo://app?vid=a4be99d0-9f57-4d65-9197-81844e4eb908","ios":"levelo://app?vid=a4be99d0-9f57-4d65-9197-81844e4eb908"},"vehicle_type_id":"4","last_reported":1738070119,"current_range_meters":28400,"station_id":"ce4bhs12rcd13ifvqhvg","pricing_plan_id":"cebpf4jnsgd1na2vs0mg"},{"bike_id":"599f7c6f-97e9-4903-9bdd-508f24c2e000","system_id":"levelo_inurba_marseille","lat":43.29018,"lon":5.3813,"is_reserved":false,"is_disabled":false,"rental_uris":{"android":"levelo://app?vid=599f7c6f-97e9-4903-9bdd-508f24c2e000","ios":"levelo://app?vid=599f7c6f-97e9-4903-9bdd-508f24c2e000"},"vehicle_type_id":"4","last_reported":1738070119,"current_range_meters":25200,"station_id":"ce4bh4p2rcd13ifvqe1g","pricing_plan_id":"cebpf4jnsgd1na2vs0mg"},{"bike_id":"f9173de2-2fa5-436f-a76b-3c96bd571284","system_id":"levelo_inurba_marseille","lat":43.29804,"lon":5.40419,"is_reserved":false,"is_disabled":true,"rental_uris":{"android":"levelo://app?vid=f9173de2-2fa5-436f-a76b-3c96bd571284","ios":"levelo://app?vid=f9173de2-2fa5-436f-a76b-3c96bd571284"},"vehicle_type_id":"4","last_reported":1738070119,"current_range_meters":36800,"station_id":"ce4bh112rcd13ifvqd90","pricing_plan_id":"cebpf4jnsgd1na2vs0mg"},{"bike_id":"54a3b066-8322-48b3-9a4e-9afae5461793","system_id":"levelo_inurba_marseille","lat":43.3036,"lon":5.41882,"is_reserved":false,"is_disabled":true,"rental_uris":{"android":"levelo://app?vid=54a3b066-8322-48b3-9a4e-9afae5461793","ios":"levelo://app?vid=54a3b066-8322-48b3-9a4e-9afae5461793"},"vehicle_type_id":"4","last_reported":1738070119,"current_range_meters":38800,"station_id":"ce4bhop2rcd13ifvqh7g","pricing_plan_id":"cebpf4jnsgd1na2vs0mg"},{"bike_id":"e128ca1e-eb04-44ce-825d-c8c32e10a8ea","system_id":"levelo_inurba_marseille","lat":43.29012,"lon":5.35606,"is_reserved":false,"is_disabled":false,"rental_uris":{"android":"levelo://app?vid=e128ca1e-eb04-44ce-825d-c8c32e10a8ea","ios":"levelo://app?vid=e128ca1e-eb04-44ce-825d-c8c32e10a8ea"},"vehicle_type_id":"4","last_reported":1738070119,"current_range_meters":34000,"station_id":"ce4bhb92rcd13ifvqen0","pricing_plan_id":"cebpf4jnsgd1na2vs0mg"},{"bike_id":"1932502a-a386-4bd4-8041-b68d3b661876","system_id":"levelo_inurba_marseille","lat":43.23213,"lon":5.35553,"is_reserved":false,"is_disabled":false,"rental_uris":{"android":"levelo://app?vid=1932502a-a386-4bd4-8041-b68d3b661876","ios":"levelo://app?vid=1932502a-a386-4bd4-8041-b68d3b661876"},"vehicle_type_id":"4","last_reported":1738070119,"current_range_meters":25200,"station_id":"ce4bhu92rcd13ifvqi70","pricing_plan_id":"cebpf4jnsgd1na2vs0mg"},{"bike_id":"05009f8b-42b7-4e4d-bb12-723ac016189d","system_id":"levelo_inurba_marseille","lat":43.31175,"lon":5.38722,"is_reserved":false,"is_disabled":false,"rental_uris":{"android":"levelo://app?vid=05009f8b-42b7-4e4d-bb12-723ac016189d","ios":"levelo://app?vid=05009f8b-42b7-4e4d-bb12-723ac016189d"},"vehicle_type_id":"4","last_reported":1738070119,"current_range_meters":35200,"station_id":"ce4bgv12rcd13ifvqcp0","pricing_plan_id":"cebpf4jnsgd1na2vs0mg"},{"bike_id":"7f85e01e-223e-4bfd-9fa8-5a4d9009b1ef","system_id":"levelo_inurba_marseille","lat":43.27438,"lon":5.39394,"is_reserved":false,"is_disabled":false,"rental_uris":{"android":"levelo://app?vid=7f85e01e-223e-4bfd-9fa8-5a4d9009b1ef","ios":"levelo://app?vid=7f85e01e-223e-4bfd-9fa8-5a4d9009b1ef"},"vehicle_type_id":"4","last_reported":1738070119,"current_range_meters":10800,"station_id":"ce4bhdp2rcd13ifvqf20","pricing_plan_id":"cebpf4jnsgd1na2vs0mg"},{"bike_id":"48fdff01-9c11-4e42-87fc-cff3a2a7ed95","system_id":"levelo_inurba_marseille","lat":43.24089,"lon":5.37741,"is_reserved":false,"is_disabled":false,"rental_uris":{"android":"levelo://app?vid=48fdff01-9c11-4e42-87fc-cff3a2a7ed95","ios":"levelo://app?vid=48fdff01-9c11-4e42-87fc-cff3a2a7ed95"},"vehicle_type_id":"4","last_reported":1738070119,"current_range_meters":12000,"station_id":"ce4bhnp2rcd13ifvqgvg","pricing_plan_id":"cebpf4jnsgd1na2vs0mg"},{"bike_id":"ee77105d-fb85-4ff3-b170-8616151c7d95","system_id":"levelo_inurba_marseille","lat":43.33623,"lon":5.41007,"is_reserved":false,"is_disabled":false,"rental_uris":{"android":"levelo://app?vid=ee77105d-fb85-4ff3-b170-8616151c7d95","ios":"levelo://app?vid=ee77105d-fb85-4ff3-b170-8616151c7d95"},"vehicle_type_id":"4","last_reported":1738070119,"current_range_meters":38800,"station_id":"ce4bhqh2rcd13ifvqhmg","pricing_plan_id":"cebpf4jnsgd1na2vs0mg"},{"bike_id":"930e80b9-31b1-4794-a031-336d148aef30","system_id":"levelo_inurba_marseille","lat":43.30165,"lon":5.38106,"is_reserved":false,"is_disabled":false,"rental_uris":{"android":"levelo://app?vid=930e80b9-31b1-4794-a031-336d148aef30","ios":"levelo://app?vid=930e80b9-31b1-4794-a031-336d148aef30"},"vehicle_type_id":"4","last_reported":1738070119,"current_range_meters":36400,"station_id":"ce4bgjp2rcd13ifvqbh0","pricing_plan_id":"cebpf4jnsgd1na2vs0mg"},{"bike_id":"aeb52962-1fe5-4ed8-99b7-f0690979f4d3","system_id":"levelo_inurba_marseille","lat":43.28465,"lon":5.38655,"is_reserved":false,"is_disabled":false,"rental_uris":{"android":"levelo://app?vid=aeb52962-1fe5-4ed8-99b7-f0690979f4d3","ios":"levelo://app?vid=aeb52962-1fe5-4ed8-99b7-f0690979f4d3"},"vehicle_type_id":"4","last_reported":1738070119,"current_range_meters":28000,"station_id":"","pricing_plan_id":"cebpf4jnsgd1na2vs0mg"},{"bike_id":"283c25d8-9fc5-495b-9825-5a72a68442bd","system_id":"levelo_inurba_marseille","lat":43.29251,"lon":5.4092,"is_reserved":false,"is_disabled":true,"rental_uris":{"android":"levelo://app?vid=283c25d8-9fc5-495b-9825-5a72a68442bd","ios":"levelo://app?vid=283c25d8-9fc5-495b-9825-5a72a68442bd"},"vehicle_type_id":"4","last_reported":1738070119,"current_range_meters":0,"station_id":"ce4bh192rcd13ifvqdc0","pricing_plan_id":"cebpf4jnsgd1na2vs0mg"},{"bike_id":"a3d00b76-e3d3-48a4-a596-66088ecb8491","system_id":"levelo_inurba_marseille","lat":43.33606,"lon":5.41006,"is_reserved":false,"is_disabled":false,"rental_uris":{"android":"levelo://app?vid=a3d00b76-e3d3-48a4-a596-66088ecb8491","ios":"levelo://app?vid=a3d00b76-e3d3-48a4-a596-66088ecb8491"},"vehicle_type_id":"4","last_reported":1738070119,"current_range_meters":38800,"station_id":"ce4bhqh2rcd13ifvqhmg","pricing_plan_id":"cebpf4jnsgd1na2vs0mg"},{"bike_id":"e3e26aee-15e1-425c-a48f-db58aa520742","system_id":"levelo_inurba_marseille","lat":43.23075,"lon":5.35495,"is_reserved":false,"is_disabled":false,"rental_uris":{"android":"levelo://app?vid=e3e26aee-15e1-425c-a48f-db58aa520742","ios":"levelo://app?vid=e3e26aee-15e1-425c-a48f-db58aa520742"},"vehicle_type_id":"4","last_reported":1738070119,"current_range_meters":37600,"station_id":"cpo3342slgdg3j2ifvpg","pricing_plan_id":"cebpf4jnsgd1na2vs0mg"},{"bike_id":"9fb813cb-e992-4585-8f3d-d25d13081f3b","system_id":"levelo_inurba_marseille","lat":43.23187,"lon":5.35547,"is_reserved":false,"is_disabled":false,"rental_uris":{"android":"levelo://app?vid=9fb813cb-e992-4585-8f3d-d25d13081f3b","ios":"levelo://app?vid=9fb813cb-e992-4585-8f3d-d25d13081f3b"},"vehicle_type_id":"4","last_reported":1738070119,"current_range_meters":38800,"station_id":"ce4bhu92rcd13ifvqi70","pricing_plan_id":"cebpf4jnsgd1na2vs0mg"},{"bike_id":"7c2c04a0-5c2d-4f19-b8a8-ceb0916ec7df","system_id":"levelo_inurba_marseille","lat":43.2741,"lon":5.39391,"is_reserved":false,"is_disabled":false,"rental_uris":{"android":"levelo://app?vid=7c2c04a0-5c2d-4f19-b8a8-ceb0916ec7df","ios":"levelo://app?vid=7c2c04a0-5c2d-4f19-b8a8-ceb0916ec7df"},"vehicle_type_id":"4","last_reported":1738070119,"current_range_meters":38400,"station_id":"ce4bhdp2rcd13ifvqf20","pricing_plan_id":"cebpf4jnsgd1na2vs0mg"},{"bike_id":"22ece8d6-ae08-4007-9d95-4ab4df0dfa49","system_id":"levelo_inurba_marseille","lat":43.32375,"lon":5.38879,"is_reserved":false,"is_disabled":false,"rental_uris":{"android":"levelo://app?vid=22ece8d6-ae08-4007-9d95-4ab4df0dfa49","ios":"levelo://app?vid=22ece8d6-ae08-4007-9d95-4ab4df0dfa49"},"vehicle_type_id":"4","last_reported":1738070119,"current_range_meters":9600,"station_id":"ce4bhqp2rcd13ifvqhog","pricing_plan_id":"cebpf4jnsgd1na2vs0mg"},{"bike_id":"31f30e6b-2967-4fc6-8e44-35cae93b8805","system_id":"levelo_inurba_marseille","lat":43.32459,"lon":5.36596,"is_reserved":false,"is_disabled":false,"rental_uris":{"android":"levelo://app?vid=31f30e6b-2967-4fc6-8e44-35cae93b8805","ios":"levelo://app?vid=31f30e6b-2967-4fc6-8e44-35cae93b8805"},"vehicle_type_id":"4","last_reported":1738070119,"current_range_meters":14000,"station_id":"ce4bhs12rcd13ifvqhvg","pricing_plan_id":"cebpf4jnsgd1na2vs0mg"},{"bike_id":"7c78a755-c7f5-4f07-a96b-621451d47948","system_id":"levelo_inurba_marseille","lat":43.29899,"lon":5.43658,"is_reserved":false,"is_disabled":false,"rental_uris":{"android":"levelo://app?vid=7c78a755-c7f5-4f07-a96b-621451d47948","ios":"levelo://app?vid=7c78a755-c7f5-4f07-a96b-621451d47948"},"vehicle_type_id":"4","last_reported":1738070119,"current_range_meters":24000,"station_id":"ce4bhpp2rcd13ifvqhfg","pricing_plan_id":"cebpf4jnsgd1na2vs0mg"},{"bike_id":"fb82f132-cc06-43c4-a66b-110a9f46f569","system_id":"levelo_inurba_marseille","lat":43.30951,"lon":5.39039,"is_reserved":false,"is_disabled":false,"rental_uris":{"android":"levelo://app?vid=fb82f132-cc06-43c4-a66b-110a9f46f569","ios":"levelo://app?vid=fb82f132-cc06-43c4-a66b-110a9f46f569"},"vehicle_type_id":"4","last_reported":1738070119,"current_range_meters":7200,"station_id":"ce4bgup2rcd13ifvqco0","pricing_plan_id":"cebpf4jnsgd1na2vs0mg"},{"bike_id":"054989b0-b784-422e-902c-af4a852e8036","system_id":"levelo_inurba_marseille","lat":43.30121,"lon":5.39853,"is_reserved":false,"is_disabled":false,"rental_uris":{"android":"levelo://app?vid=054989b0-b784-422e-902c-af4a852e8036","ios":"levelo://app?vid=054989b0-b784-422e-902c-af4a852e8036"},"vehicle_type_id":"4","last_reported":1738070119,"current_range_meters":8000,"station_id":"ce4bh0h2rcd13ifvqd40","pricing_plan_id":"cebpf4jnsgd1na2vs0mg"},{"bike_id":"803e03d8-7d2e-4feb-ac46-774902d16dee","system_id":"levelo_inurba_marseille","lat":43.33766,"lon":5.37469,"is_reserved":false,"is_disabled":true,"rental_uris":{"android":"levelo://app?vid=803e03d8-7d2e-4feb-ac46-774902d16dee","ios":"levelo://app?vid=803e03d8-7d2e-4feb-ac46-774902d16dee"},"vehicle_type_id":"4","last_reported":1738070119,"current_range_meters":38000,"station_id":"","pricing_plan_id":"cebpf4jnsgd1na2vs0mg"},{"bike_id":"30d38fca-e00b-4fb2-a568-f91dab54d5c5","system_id":"levelo_inurba_marseille","lat":43.312,"lon":5.36849,"is_reserved":false,"is_disabled":false,"rental_uris":{"android":"levelo://app?vid=30d38fca-e00b-4fb2-a568-f91dab54d5c5","ios":"levelo://app?vid=30d38fca-e00b-4fb2-a568-f91dab54d5c5"},"vehicle_type_id":"4","last_reported":1738070119,"current_range_meters":30400,"station_id":"ce4bgl92rcd13ifvqbq0","pricing_plan_id":"cebpf4jnsgd1na2vs0mg"},{"bike_id":"a48a4fa8-387b-4ecc-bc7a-c3f07822bf47","system_id":"levelo_inurba_marseille","lat":43.27074,"lon":5.3921,"is_reserved":false,"is_disabled":true,"rental_uris":{"android":"levelo://app?vid=a48a4fa8-387b-4ecc-bc7a-c3f07822bf47","ios":"levelo://app?vid=a48a4fa8-387b-4ecc-bc7a-c3f07822bf47"},"vehicle_type_id":"4","last_reported":1738070119,"current_range_meters":0,"station_id":"","pricing_plan_id":"cebpf4jnsgd1na2vs0mg"},{"bike_id":"d8e3e652-bcf6-43e0-be03-ff712527ceec","system_id":"levelo_inurba_marseille","lat":43.27494,"lon":5.42467,"is_reserved":false,"is_disabled":false,"rental_uris":{"android":"levelo://app?vid=d8e3e652-bcf6-43e0-be03-ff712527ceec","ios":"levelo://app?vid=d8e3e652-bcf6-43e0-be03-ff712527ceec"},"vehicle_type_id":"4","last_reported":1738070119,"current_range_meters":38800,"station_id":"ce4bhn92rcd13ifvqgrg","pricing_plan_id":"cebpf4jnsgd1na2vs0mg"},{"bike_id":"50ca10e9-8502-48f8-b050-48b1e4567280","system_id":"levelo_inurba_marseille","lat":43.32546,"lon":5.41443,"is_reserved":false,"is_disabled":false,"rental_uris":{"android":"levelo://app?vid=50ca10e9-8502-48f8-b050-48b1e4567280","ios":"levelo://app?vid=50ca10e9-8502-48f8-b050-48b1e4567280"},"vehicle_type_id":"4","last_reported":1738070119,"current_range_meters":35200,"station_id":"ce4bhq12rcd13ifvqhhg","pricing_plan_id":"cebpf4jnsgd1na2vs0mg"},{"bike_id":"7f762cad-14d3-4378-9c59-c304651b7679","system_id":"levelo_inurba_marseille","lat":43.29583,"lon":5.3996,"is_reserved":false,"is_disabled":true,"rental_uris":{"android":"levelo://app?vid=7f762cad-14d3-4378-9c59-c304651b7679","ios":"levelo://app?vid=7f762cad-14d3-4378-9c59-c304651b7679"},"vehicle_type_id":"4","last_reported":1738070119,"current_range_meters":30000,"station_id":"ce4bh312rcd13ifvqdj0","pricing_plan_id":"cebpf4jnsgd1na2vs0mg"},{"bike_id":"704ba91b-5558-4159-94ee-b7c7823452cd","system_id":"levelo_inurba_marseille","lat":43.29054,"lon":5.37585,"is_reserved":false,"is_disabled":false,"rental_uris":{"android":"levelo://app?vid=704ba91b-5558-4159-94ee-b7c7823452cd","ios":"levelo://app?vid=704ba91b-5558-4159-94ee-b7c7823452cd"},"vehicle_type_id":"4","last_reported":1738070119,"current_range_meters":38400,"station_id":"ce4bh692rcd13ifvqe90","pricing_plan_id":"cebpf4jnsgd1na2vs0mg"},{"bike_id":"8f22b9b5-6f84-44ba-860a-0c3169fc38a4","system_id":"levelo_inurba_marseille","lat":43.29005,"lon":5.35606,"is_reserved":false,"is_disabled":false,"rental_uris":{"android":"levelo://app?vid=8f22b9b5-6f84-44ba-860a-0c3169fc38a4","ios":"levelo://app?vid=8f22b9b5-6f84-44ba-860a-0c3169fc38a4"},"vehicle_type_id":"4","last_reported":1738070119,"current_range_meters":38800,"station_id":"ce4bhb92rcd13ifvqen0","pricing_plan_id":"cebpf4jnsgd1na2vs0mg"},{"bike_id":"1b1d99fd-78f9-4d2b-a6fd-f36c61c1a2aa","system_id":"levelo_inurba_marseille","lat":43.30545,"lon":5.36542,"is_reserved":false,"is_disabled":false,"rental_uris":{"android":"levelo://app?vid=1b1d99fd-78f9-4d2b-a6fd-f36c61c1a2aa","ios":"levelo://app?vid=1b1d99fd-78f9-4d2b-a6fd-f36c61c1a2aa"},"vehicle_type_id":"4","last_reported":1738070119,"current_range_meters":23200,"station_id":"ce4bgs12rcd13ifvqcag","pricing_plan_id":"cebpf4jnsgd1na2vs0mg"},{"bike_id":"f0bd9414-60c2-4335-996f-30dbea9a1625","system_id":"levelo_inurba_marseille","lat":43.29779,"lon":5.38116,"is_reserved":false,"is_disabled":false,"rental_uris":{"android":"levelo://app?vid=f0bd9414-60c2-4335-996f-30dbea9a1625","ios":"levelo://app?vid=f0bd9414-60c2-4335-996f-30dbea9a1625"},"vehicle_type_id":"4","last_reported":1738070119,"current_range_meters":26800,"station_id":"ce4bgip2rcd13ifvqbb0","pricing_plan_id":"cebpf4jnsgd1na2vs0mg"},{"bike_id":"c0199c43-6ad3-4c6c-a838-a256a1dd9983","system_id":"levelo_inurba_marseille","lat":43.29297,"lon":5.37421,"is_reserved":false,"is_disabled":false,"rental_uris":{"android":"levelo://app?vid=c0199c43-6ad3-4c6c-a838-a256a1dd9983","ios":"levelo://app?vid=c0199c43-6ad3-4c6c-a838-a256a1dd9983"},"vehicle_type_id":"4","last_reported":1738070119,"current_range_meters":32000,"station_id":"ce4bgi12rcd13ifvqb70","pricing_plan_id":"cebpf4jnsgd1na2vs0mg"},{"bike_id":"8f123f58-2803-4f70-aa06-7d428b4ad0fc","system_id":"levelo_inurba_marseille","lat":43.2862,"lon":5.35102,"is_reserved":false,"is_disabled":false,"rental_uris":{"android":"levelo://app?vid=8f123f58-2803-4f70-aa06-7d428b4ad0fc","ios":"levelo://app?vid=8f123f58-2803-4f70-aa06-7d428b4ad0fc"},"vehicle_type_id":"4","last_reported":1738070119,"current_range_meters":9600,"station_id":"ce4bhch2rcd13ifvqeug","pricing_plan_id":"cebpf4jnsgd1na2vs0mg"},{"bike_id":"f70b7e32-62b0-48b6-92b6-c18521e489cf","system_id":"levelo_inurba_marseille","lat":43.28356,"lon":5.38096,"is_reserved":false,"is_disabled":false,"rental_uris":{"android":"levelo://app?vid=f70b7e32-62b0-48b6-92b6-c18521e489cf","ios":"levelo://app?vid=f70b7e32-62b0-48b6-92b6-c18521e489cf"},"vehicle_type_id":"4","last_reported":1738070119,"current_range_meters":14000,"station_id":"ce4bh412rcd13ifvqdr0","pricing_plan_id":"cebpf4jnsgd1na2vs0mg"},{"bike_id":"c438c788-2c8f-4eda-8233-a8485c23c4af","system_id":"levelo_inurba_marseille","lat":43.30398,"lon":5.41297,"is_reserved":false,"is_disabled":true,"rental_uris":{"android":"levelo://app?vid=c438c788-2c8f-4eda-8233-a8485c23c4af","ios":"levelo://app?vid=c438c788-2c8f-4eda-8233-a8485c23c4af"},"vehicle_type_id":"4","last_reported":1738070119,"current_range_meters":0,"station_id":"ce4bhop2rcd13ifvqh8g","pricing_plan_id":"cebpf4jnsgd1na2vs0mg"},{"bike_id":"85af6c92-372c-4cd2-84da-c4ec61fa470d","system_id":"levelo_inurba_marseille","lat":43.25726,"lon":5.41114,"is_reserved":false,"is_disabled":true,"rental_uris":{"android":"levelo://app?vid=85af6c92-372c-4cd2-84da-c4ec61fa470d","ios":"levelo://app?vid=85af6c92-372c-4cd2-84da-c4ec61fa470d"},"vehicle_type_id":"4","last_reported":1738070119,"current_range_meters":39200,"station_id":"ce4bhkp2rcd13ifvqgd0","pricing_plan_id":"cebpf4jnsgd1na2vs0mg"},{"bike_id":"9c8682a0-e665-42ca-9e8b-8233d9f42b52","system_id":"levelo_inurba_marseille","lat":43.26948,"lon":5.40248,"is_reserved":false,"is_disabled":false,"rental_uris":{"android":"levelo://app?vid=9c8682a0-e665-42ca-9e8b-8233d9f42b52","ios":"levelo://app?vid=9c8682a0-e665-42ca-9e8b-8233d9f42b52"},"vehicle_type_id":"4","last_reported":1738070119,"current_range_meters":7200,"station_id":"cjm6bp8fraef2m0cb0m0","pricing_plan_id":"cebpf4jnsgd1na2vs0mg"},{"bike_id":"2e02df94-9b0d-4dde-ace7-107552e26bd2","system_id":"levelo_inurba_marseille","lat":43.26823,"lon":5.40257,"is_reserved":false,"is_disabled":false,"rental_uris":{"android":"levelo://app?vid=2e02df94-9b0d-4dde-ace7-107552e26bd2","ios":"levelo://app?vid=2e02df94-9b0d-4dde-ace7-107552e26bd2"},"vehicle_type_id":"4","last_reported":1738070119,"current_range_meters":39200,"station_id":"ce501612rcd8frsf0b60","pricing_plan_id":"cebpf4jnsgd1na2vs0mg"},{"bike_id":"5cf2daf4-98e7-4431-9d2f-0da0360b7949","system_id":"levelo_inurba_marseille","lat":43.29288,"lon":5.3743,"is_reserved":false,"is_disabled":false,"rental_uris":{"android":"levelo://app?vid=5cf2daf4-98e7-4431-9d2f-0da0360b7949","ios":"levelo://app?vid=5cf2daf4-98e7-4431-9d2f-0da0360b7949"},"vehicle_type_id":"4","last_reported":1738070119,"current_range_meters":17600,"station_id":"ce4bgi12rcd13ifvqb70","pricing_plan_id":"cebpf4jnsgd1na2vs0mg"},{"bike_id":"0a0ae71f-4f56-4994-bc72-73253d32ead8","system_id":"levelo_inurba_marseille","lat":43.27461,"lon":5.39332,"is_reserved":false,"is_disabled":false,"rental_uris":{"android":"levelo://app?vid=0a0ae71f-4f56-4994-bc72-73253d32ead8","ios":"levelo://app?vid=0a0ae71f-4f56-4994-bc72-73253d32ead8"},"vehicle_type_id":"4","last_reported":1738070119,"current_range_meters":38800,"station_id":"ce4bhdp2rcd13ifvqf20","pricing_plan_id":"cebpf4jnsgd1na2vs0mg"},{"bike_id":"079c1be2-2466-41bb-87eb-0b14ef034329","system_id":"levelo_inurba_marseille","lat":43.30538,"lon":5.36698,"is_reserved":false,"is_disabled":false,"rental_uris":{"android":"levelo://app?vid=079c1be2-2466-41bb-87eb-0b14ef034329","ios":"levelo://app?vid=079c1be2-2466-41bb-87eb-0b14ef034329"},"vehicle_type_id":"4","last_reported":1738070119,"current_range_meters":19200,"station_id":"ce4bgrp2rcd13ifvqc9g","pricing_plan_id":"cebpf4jnsgd1na2vs0mg"},{"bike_id":"3d98c6ce-e80d-46e8-b577-648cd8c28632","system_id":"levelo_inurba_marseille","lat":43.34699,"lon":5.34741,"is_reserved":false,"is_disabled":true,"rental_uris":{"android":"levelo://app?vid=3d98c6ce-e80d-46e8-b577-648cd8c28632","ios":"levelo://app?vid=3d98c6ce-e80d-46e8-b577-648cd8c28632"},"vehicle_type_id":"4","last_reported":1738070119,"current_range_meters":0,"station_id":"","pricing_plan_id":"cebpf4jnsgd1na2vs0mg"},{"bike_id":"f45e92fa-0e85-41e7-bd5d-428e50cde5ed","system_id":"levelo_inurba_marseille","lat":43.27439,"lon":5.39397,"is_reserved":false,"is_disabled":false,"rental_uris":{"android":"levelo://app?vid=f45e92fa-0e85-41e7-bd5d-428e50cde5ed","ios":"levelo://app?vid=f45e92fa-0e85-41e7-bd5d-428e50cde5ed"},"vehicle_type_id":"4","last_reported":1738070119,"current_range_meters":8800,"station_id":"ce4bhdp2rcd13ifvqf20","pricing_plan_id":"cebpf4jnsgd1na2vs0mg"},{"bike_id":"4bb4f2ad-32f7-4de4-aefe-944acff7c8f5","system_id":"levelo_inurba_marseille","lat":43.26801,"lon":5.40266,"is_reserved":false,"is_disabled":true,"rental_uris":{"android":"levelo://app?vid=4bb4f2ad-32f7-4de4-aefe-944acff7c8f5","ios":"levelo://app?vid=4bb4f2ad-32f7-4de4-aefe-944acff7c8f5"},"vehicle_type_id":"4","last_reported":1738070119,"current_range_meters":19200,"station_id":"ce501612rcd8frsf0b60","pricing_plan_id":"cebpf4jnsgd1na2vs0mg"},{"bike_id":"9c6c808c-2344-4484-b654-8a68fb115aa6","system_id":"levelo_inurba_marseille","lat":43.3146,"lon":5.37394,"is_reserved":false,"is_disabled":false,"rental_uris":{"android":"levelo://app?vid=9c6c808c-2344-4484-b654-8a68fb115aa6","ios":"levelo://app?vid=9c6c808c-2344-4484-b654-8a68fb115aa6"},"vehicle_type_id":"4","last_reported":1738070119,"current_range_meters":34000,"station_id":"","pricing_plan_id":"cebpf4jnsgd1na2vs0mg"},{"bike_id":"59c7a2b1-800c-4111-9a93-2f3b4351ba06","system_id":"levelo_inurba_marseille","lat":43.29531,"lon":5.37489,"is_reserved":false,"is_disabled":false,"rental_uris":{"android":"levelo://app?vid=59c7a2b1-800c-4111-9a93-2f3b4351ba06","ios":"levelo://app?vid=59c7a2b1-800c-4111-9a93-2f3b4351ba06"},"vehicle_type_id":"4","last_reported":1738070119,"current_range_meters":38800,"station_id":"ce4bgkp2rcd13ifvqbmg","pricing_plan_id":"cebpf4jnsgd1na2vs0mg"},{"bike_id":"3b20c0ef-5eb5-4103-b846-b97b1fa087ed","system_id":"levelo_inurba_marseille","lat":43.30572,"lon":5.36541,"is_reserved":false,"is_disabled":false,"rental_uris":{"android":"levelo://app?vid=3b20c0ef-5eb5-4103-b846-b97b1fa087ed","ios":"levelo://app?vid=3b20c0ef-5eb5-4103-b846-b97b1fa087ed"},"vehicle_type_id":"4","last_reported":1738070119,"current_range_meters":32800,"station_id":"ce4bgs12rcd13ifvqcag","pricing_plan_id":"cebpf4jnsgd1na2vs0mg"},{"bike_id":"b333cd80-7d33-4792-994c-327541464ea0","system_id":"levelo_inurba_marseille","lat":43.26198,"lon":5.3746,"is_reserved":false,"is_disabled":true,"rental_uris":{"android":"levelo://app?vid=b333cd80-7d33-4792-994c-327541464ea0","ios":"levelo://app?vid=b333cd80-7d33-4792-994c-327541464ea0"},"vehicle_type_id":"4","last_reported":1738070119,"current_range_meters":38800,"station_id":"ce4bhgp2rcd13ifvqfc0","pricing_plan_id":"cebpf4jnsgd1na2vs0mg"},{"bike_id":"0d0df9f1-edbf-4e8c-9522-12f0475ac324","system_id":"levelo_inurba_marseille","lat":43.29701,"lon":5.37704,"is_reserved":false,"is_disabled":false,"rental_uris":{"android":"levelo://app?vid=0d0df9f1-edbf-4e8c-9522-12f0475ac324","ios":"levelo://app?vid=0d0df9f1-edbf-4e8c-9522-12f0475ac324"},"vehicle_type_id":"4","last_reported":1738070119,"current_range_meters":37600,"station_id":"ce4bgkh2rcd13ifvqbl0","pricing_plan_id":"cebpf4jnsgd1na2vs0mg"},{"bike_id":"b5fde457-e9f6-4b57-b15d-b07d4dd9d2d3","system_id":"levelo_inurba_marseille","lat":43.31255,"lon":5.3688,"is_reserved":false,"is_disabled":false,"rental_uris":{"android":"levelo://app?vid=b5fde457-e9f6-4b57-b15d-b07d4dd9d2d3","ios":"levelo://app?vid=b5fde457-e9f6-4b57-b15d-b07d4dd9d2d3"},"vehicle_type_id":"4","last_reported":1738070119,"current_range_meters":39200,"station_id":"ce4bgl92rcd13ifvqbq0","pricing_plan_id":"cebpf4jnsgd1na2vs0mg"},{"bike_id":"0c69db19-2745-4f4d-bfef-389fd2b8d447","system_id":"levelo_inurba_marseille","lat":43.29579,"lon":5.37507,"is_reserved":false,"is_disabled":false,"rental_uris":{"android":"levelo://app?vid=0c69db19-2745-4f4d-bfef-389fd2b8d447","ios":"levelo://app?vid=0c69db19-2745-4f4d-bfef-389fd2b8d447"},"vehicle_type_id":"4","last_reported":1738070119,"current_range_meters":38800,"station_id":"ce4bgh92rcd13ifvqb50","pricing_plan_id":"cebpf4jnsgd1na2vs0mg"},{"bike_id":"d18dbc50-5aca-4d56-a4cc-d99160ab7060","system_id":"levelo_inurba_marseille","lat":43.30536,"lon":5.36694,"is_reserved":false,"is_disabled":false,"rental_uris":{"android":"levelo://app?vid=d18dbc50-5aca-4d56-a4cc-d99160ab7060","ios":"levelo://app?vid=d18dbc50-5aca-4d56-a4cc-d99160ab7060"},"vehicle_type_id":"4","last_reported":1738070119,"current_range_meters":24800,"station_id":"ce4bgrp2rcd13ifvqc9g","pricing_plan_id":"cebpf4jnsgd1na2vs0mg"},{"bike_id":"bde64ec1-0eab-4c53-b5e7-d5897326719b","system_id":"levelo_inurba_marseille","lat":43.2904,"lon":5.38649,"is_reserved":false,"is_disabled":false,"rental_uris":{"android":"levelo://app?vid=bde64ec1-0eab-4c53-b5e7-d5897326719b","ios":"levelo://app?vid=bde64ec1-0eab-4c53-b5e7-d5897326719b"},"vehicle_type_id":"4","last_reported":1738070119,"current_range_meters":22000,"station_id":"ce4bh4p2rcd13ifvqe0g","pricing_plan_id":"cebpf4jnsgd1na2vs0mg"},{"bike_id":"5b68f685-d84e-4177-9826-e697ef78b74f","system_id":"levelo_inurba_marseille","lat":43.32486,"lon":5.36566,"is_reserved":false,"is_disabled":false,"rental_uris":{"android":"levelo://app?vid=5b68f685-d84e-4177-9826-e697ef78b74f","ios":"levelo://app?vid=5b68f685-d84e-4177-9826-e697ef78b74f"},"vehicle_type_id":"4","last_reported":1738070119,"current_range_meters":24800,"station_id":"ce4bhs12rcd13ifvqhvg","pricing_plan_id":"cebpf4jnsgd1na2vs0mg"},