{"last_updated":1747242567,"ttl":60,"version":"2.2","data":{"bikes":[{"bike_id":"c0b9fd4f-e181-46ce-b0bf-f5119973334f","system_id":"levelo_inurba_marseille","lat":43.33771,"lon":5.37424,"is_reserved":false,"is_disabled":false,"rental_uris":{"android":"levelo://app?vid=c0b9fd4f-e181-46ce-b0bf-f5119973334f","ios":"levelo://app?vid=c0b9fd4f-e181-46ce-b0bf-f5119973334f"},"vehicle_type_id":"4","last_reported":1747242567,"current_range_meters":18000,"station_id":"","pricing_plan_id":"cebpf4jnsgd1na2vs0mg"},{"bike_id":"3fae8334-a9d0-4ed3-aa20-0276813b60f6","system_id":"levelo_inurba_marseille","lat":43.26833,"lon":5.38466,"is_reserved":false,"is_disabled":true,"rental_uris":{"android":"levelo://app?vid=3fae8334-a9d0-4ed3-aa20-0276813b60f6","ios":"levelo://app?vid=3fae8334-a9d0-4ed3-aa20-0276813b60f6"},"vehicle_type_id":"4","last_reported":1747242567,"current_range_meters":0,"station_id":"","pricing_plan_id":"cebpf4jnsgd1na2vs0mg"},{"bike_id":"173fb44d-9730-4a64-8c00-f4ad4ef399d3","system_id":"levelo_inurba_marseille","lat":43.31811,"lon":5.38561,"is_reserved":false,"is_disabled":true,"rental_uris":{"android":"levelo://app?vid=173fb44d-9730-4a64-8c00-f4ad4ef399d3","ios":"levelo://app?vid=173fb44d-9730-4a64-8c00-f4ad4ef399d3"},"vehicle_type_id":"4","last_reported":1747242567,"current_range_meters":0,"station_id":"","pricing_plan_id":"cebpf4jnsgd1na2vs0mg"},{"bike_id":"fc2577e7-1497-425b-9d4f-ab8d7dc843c6","system_id":"levelo_inurba_marseille","lat":43.33771,"lon":5.37485,"is_reserved":false,"is_disabled":true,"rental_uris":{"android":"levelo://app?vid=fc2577e7-1497-425b-9d4f-ab8d7dc843c6","ios":"levelo://app?vid=fc2577e7-1497-425b-9d4f-ab8d7dc843c6"},"vehicle_type_id":"4","last_reported":1747242567,"current_range_meters":0,"station_id":"","pricing_plan_id":"cebpf4jnsgd1na2vs0mg"},{"bike_id":"0fedde00-40eb-40d2-8fc2-e61ecce46b7b","system_id":"levelo_inurba_marseille","lat":43.28297,"lon":5.43238,"is_reserved":false,"is_disabled":true,"rental_uris":{"android":"levelo://app?vid=0fedde00-40eb-40d2-8fc2-e61ecce46b7b","ios":"levelo://app?vid=0fedde00-40eb-40d2-8fc2-e61ecce46b7b"},"vehicle_type_id":"4","last_reported":1747242567,"current_range_meters":0,"station_id":"","pricing_plan_id":"cebpf4jnsgd1na2vs0mg"},{"bike_id":"16e98c4e-da7f-4160-a41d-37f546e0efaa","system_id":"levelo_inurba_marseille","lat":43.29567,"lon":5.3621,"is_reserved":false,"is_disabled":true,"rental_uris":{"android":"levelo://app?vid=16e98c4e-da7f-4160-a41d-37f546e0efaa","ios":"levelo://app?vid=16e98c4e-da7f-4160-a41d-37f546e0efaa"},"vehicle_type_id":"4","last_reported":1747242567,"current_range_meters":0,"station_id":"","pricing_plan_id":"cebpf4jnsgd1na2vs0mg"},{"bike_id":"792567c6-0442-4011-aff0-9c05e25deb48","system_id":"levelo_inurba_marseille","lat":43.28071,"lon":5.44168,"is_reserved":false,"is_disabled":true,"rental_uris":{"android":"levelo://app?vid=792567c6-0442-4011-aff0-9c05e25deb48","ios":"levelo://app?vid=792567c6-0442-4011-aff0-9c05e25deb48"},"vehicle_type_id":"4","last_reported":1747242567,"current_range_meters":0,"station_id":"","pricing_plan_id":"cebpf4jnsgd1na2vs0mg"},{"bike_id":"5c911880-e527-415c-b4d5-d7cf14db1fe9","system_id":"levelo_inurba_marseille","lat":43.30131,"lon":5.38788,"is_reserved":false,"is_disabled":true,"rental_uris":{"android":"levelo://app?vid=5c911880-e527-415c-b4d5-d7cf14db1fe9","ios":"levelo://app?vid=5c911880-e527-415c-b4d5-d7cf14db1fe9"},"vehicle_type_id":"4","last_reported":1747242567,"current_range_meters":0,"station_id":"ce4bghh2rcd13ifvqb60","pricing_plan_id":"cebpf4jnsgd1na2vs0mg"},{"bike_id":"fc626966-523f-445c-82e1-4fb7958a397c","system_id":"levelo_inurba_marseille","lat":43.29258,"lon":5.37636,"is_reserved":false,"is_disabled":true,"rental_uris":{"android":"levelo://app?vid=fc626966-523f-445c-82e1-4fb7958a397c","ios":"levelo://app?vid=fc626966-523f-445c-82e1-4fb7958a397c"},"vehicle_type_id":"4","last_reported":1747242567,"current_range_meters":0,"station_id":"ce4bgi12rcd13ifvqb80","pricing_plan_id":"cebpf4jnsgd1na2vs0mg"},{"bike_id":"1a69d2f7-f52a-434c-912b-4e6d51bfd5d0","system_id":"levelo_inurba_marseille","lat":43.29963,"lon":5.38504,"is_reserved":false,"is_disabled":true,"rental_uris":{"android":"levelo://app?vid=1a69d2f7-f52a-434c-912b-4e6d51bfd5d0","ios":"levelo://app?vid=1a69d2f7-f52a-434c-912b-4e6d51bfd5d0"},"vehicle_type_id":"4","last_reported":1747242567,"current_range_meters":0,"station_id":"ce4bgj92rcd13ifvqbd0","pricing_plan_id":"cebpf4jnsgd1na2vs0mg"},{"bike_id":"cbee84bc-9af1-4042-a145-fd049de4d416","system_id":"levelo_inurba_marseille","lat":43.308,"lon":5.38159,"is_reserved":false,"is_disabled":true,"rental_uris":{"android":"levelo://app?vid=cbee84bc-9af1-4042-a145-fd049de4d416","ios":"levelo://app?vid=cbee84bc-9af1-4042-a145-fd049de4d416"},"vehicle_type_id":"4","last_reported":1747242567,"current_range_meters":0,"station_id":"ce4bgt12rcd13ifvqce0","pricing_plan_id":"cebpf4jnsgd1na2vs0mg"},{"bike_id":"50de3d3f-4b8f-4987-b9ee-7c12f59184ba","system_id":"levelo_inurba_marseille","lat":43.31716,"lon":5.40475,"is_reserved":false,"is_disabled":true,"rental_uris":{"android":"levelo://app?vid=50de3d3f-4b8f-4987-b9ee-7c12f59184ba","ios":"levelo://app?vid=50de3d3f-4b8f-4987-b9ee-7c12f59184ba"},"vehicle_type_id":"4","last_reported":1747242567,"current_range_meters":0,"station_id":"ce4bh012rcd13ifvqd00","pricing_plan_id":"cebpf4jnsgd1na2vs0mg"},{"bike_id":"3db8cc36-eeaf-4e1b-a0e8-95637a653626","system_id":"levelo_inurba_marseille","lat":43.303223,"lon":5.404367,"is_reserved":false,"is_disabled":true,"rental_uris":{"android":"levelo://app?vid=3db8cc36-eeaf-4e1b-a0e8-95637a653626","ios":"levelo://app?vid=3db8cc36-eeaf-4e1b-a0e8-95637a653626"},"vehicle_type_id":"4","last_reported":1747242567,"current_range_meters":0,"station_id":"ce4bh012rcd13ifvqd10","pricing_plan_id":"cebpf4jnsgd1na2vs0mg"},{"bike_id":"4be780d1-e37d-47ae-916d-2668a43bfdb2","system_id":"levelo_inurba_marseille","lat":43.29028,"lon":5.39988,"is_reserved":false,"is_disabled":true,"rental_uris":{"android":"levelo://app?vid=4be780d1-e37d-47ae-916d-2668a43bfdb2","ios":"levelo://app?vid=4be780d1-e37d-47ae-916d-2668a43bfdb2"},"vehicle_type_id":"4","last_reported":1747242567,"current_range_meters":0,"station_id":"ce4bh392rcd13ifvqdm0","pricing_plan_id":"cebpf4jnsgd1na2vs0mg"},{"bike_id":"46524869-1cd8-4d45-afaa-928d1d3f7b8f","system_id":"levelo_inurba_marseille","lat":43.28917,"lon":5.38399,"is_reserved":false,"is_disabled":true,"rental_uris":{"android":"levelo://app?vid=46524869-1cd8-4d45-afaa-928d1d3f7b8f","ios":"levelo://app?vid=46524869-1cd8-4d45-afaa-928d1d3f7b8f"},"vehicle_type_id":"4","last_reported":1747242567,"current_range_meters":0,"station_id":"ce4bh612rcd13ifvqe6g","pricing_plan_id":"cebpf4jnsgd1na2vs0mg"},{"bike_id":"955d9fc7-4763-4f6b-ba73-2005d028ec5d","system_id":"levelo_inurba_marseille","lat":43.290344,"lon":5.375661,"is_reserved":false,"is_disabled":true,"rental_uris":{"android":"levelo://app?vid=955d9fc7-4763-4f6b-ba73-2005d028ec5d","ios":"levelo://app?vid=955d9fc7-4763-4f6b-ba73-2005d028ec5d"},"vehicle_type_id":"4","last_reported":1747242567,"current_range_meters":0,"station_id":"ce4bh692rcd13ifvqe90","pricing_plan_id":"cebpf4jnsgd1na2vs0mg"},{"bike_id":"71dcd22d-11c4-49b2-8904-16d83be0d0d7","system_id":"levelo_inurba_marseille","lat":43.29268,"lon":5.38434,"is_reserved":false,"is_disabled":true,"rental_uris":{"android":"levelo://app?vid=71dcd22d-11c4-49b2-8904-16d83be0d0d7","ios":"levelo://app?vid=71dcd22d-11c4-49b2-8904-16d83be0d0d7"},"vehicle_type_id":"4","last_reported":1747242567,"current_range_meters":0,"station_id":"ce4bh692rcd13ifvqea0","pricing_plan_id":"cebpf4jnsgd1na2vs0mg"},{"bike_id":"e693aa05-5b12-4119-a8c8-a429255bc86c","system_id":"levelo_inurba_marseille","lat":43.28611,"lon":5.35114,"is_reserved":false,"is_disabled":true,"rental_uris":{"android":"levelo://app?vid=e693aa05-5b12-4119-a8c8-a429255bc86c","ios":"levelo://app?vid=e693aa05-5b12-4119-a8c8-a429255bc86c"},"vehicle_type_id":"4","last_reported":1747242567,"current_range_meters":0,"station_id":"ce4bhch2rcd13ifvqeug","pricing_plan_id":"cebpf4jnsgd1na2vs0mg"},{"bike_id":"ecf975e7-9f46-476d-ae45-11823f00cd74","system_id":"levelo_inurba_marseille","lat":43.27917,"lon":5.39586,"is_reserved":false,"is_disabled":true,"rental_uris":{"android":"levelo://app?vid=ecf975e7-9f46-476d-ae45-11823f00cd74","ios":"levelo://app?vid=ecf975e7-9f46-476d-ae45-11823f00cd74"},"vehicle_type_id":"4","last_reported":1747242567,"current_range_meters":0,"station_id":"ce4bhf92rcd13ifvqf40","pricing_plan_id":"cebpf4jnsgd1na2vs0mg"},{"bike_id":"7d648bb7-ab7e-409a-add7-d4a17f03de12","system_id":"levelo_inurba_marseille","lat":43.231564,"lon":5.437005,"is_reserved":false,"is_disabled":true,"rental_uris":{"android":"levelo://app?vid=7d648bb7-ab7e-409a-add7-d4a17f03de12","ios":"levelo://app?vid=7d648bb7-ab7e-409a-add7-d4a17f03de12"},"vehicle_type_id":"4","last_reported":1747242567,"current_range_meters":0,"station_id":"ce4bhmp2rcd13ifvqgog","pricing_plan_id":"cebpf4jnsgd1na2vs0mg"},{"bike_id":"ccc1e5dd-7b46-4f66-a425-f4eba0c15bd9","system_id":"levelo_inurba_marseille","lat":43.2951,"lon":5.37518,"is_reserved":false,"is_disabled":true,"rental_uris":{"android":"levelo://app?vid=ccc1e5dd-7b46-4f66-a425-f4eba0c15bd9","ios":"levelo://app?vid=ccc1e5dd-7b46-4f66-a425-f4eba0c15bd9"},"vehicle_type_id":"4","last_reported":1747242567,"current_range_meters":400,"station_id":"ce4bgkp2rcd13ifvqbmg","pricing_plan_id":"cebpf4jnsgd1na2vs0mg"},{"bike_id":"94106e4c-37ea-448b-93cb-26b7fd9b3ce0","system_id":"levelo_inurba_marseille","lat":43.30787,"lon":5.37647,"is_reserved":false,"is_disabled":true,"rental_uris":{"android":"levelo://app?vid=94106e4c-37ea-448b-93cb-26b7fd9b3ce0","ios":"levelo://app?vid=94106e4c-37ea-448b-93cb-26b7fd9b3ce0"},"vehicle_type_id":"4","last_reported":1747242567,"current_range_meters":400,"station_id":"ce4bgv92rcd13ifvqcq0","pricing_plan_id":"cebpf4jnsgd1na2vs0mg"},{"bike_id":"4361b8ec-abe9-4422-b7c1-3557c4234d6d","system_id":"levelo_inurba_marseille","lat":43.303192,"lon":5.404378,"is_reserved":false,"is_disabled":true,"rental_uris":{"android":"levelo://app?vid=4361b8ec-abe9-4422-b7c1-3557c4234d6d","ios":"levelo://app?vid=4361b8ec-abe9-4422-b7c1-3557c4234d6d"},"vehicle_type_id":"4","last_reported":1747242567,"current_range_meters":400,"station_id":"ce4bh012rcd13ifvqd10","pricing_plan_id":"cebpf4jnsgd1na2vs0mg"},{"bike_id":"9c542f7c-1f6b-4ace-9cdf-3e9f96c5897e","system_id":"levelo_inurba_marseille","lat":43.28265,"lon":5.35058,"is_reserved":false,"is_disabled":true,"rental_uris":{"android":"levelo://app?vid=9c542f7c-1f6b-4ace-9cdf-3e9f96c5897e","ios":"levelo://app?vid=9c542f7c-1f6b-4ace-9cdf-3e9f96c5897e"},"vehicle_type_id":"4","last_reported":1747242567,"current_range_meters":400,"station_id":"ce4bhbp2rcd13ifvqerg","pricing_plan_id":"cebpf4jnsgd1na2vs0mg"},{"bike_id":"4184fa50-9a5e-4ed9-94d4-f3e37f0213f9","system_id":"levelo_inurba_marseille","lat":43.28259,"lon":5.35072,"is_reserved":false,"is_disabled":true,"rental_uris":{"android":"levelo://app?vid=4184fa50-9a5e-4ed9-94d4-f3e37f0213f9","ios":"levelo://app?vid=4184fa50-9a5e-4ed9-94d4-f3e37f0213f9"},"vehicle_type_id":"4","last_reported":1747242567,"current_range_meters":400,"station_id":"ce4bhbp2rcd13ifvqerg","pricing_plan_id":"cebpf4jnsgd1na2vs0mg"},{"bike_id":"0a20e84b-951f-45e6-a6c6-ac43e5c7ea07","system_id":"levelo_inurba_marseille","lat":43.29581,"lon":5.36725,"is_reserved":false,"is_disabled":true,"rental_uris":{"android":"levelo://app?vid=0a20e84b-951f-45e6-a6c6-ac43e5c7ea07","ios":"levelo://app?vid=0a20e84b-951f-45e6-a6c6-ac43e5c7ea07"},"vehicle_type_id":"4","last_reported":1747242567,"current_range_meters":800,"station_id":"ce4bgph2rcd13ifvqc2g","pricing_plan_id":"cebpf4jnsgd1na2vs0mg"},{"bike_id":"4dc41274-1fcb-4676-b0d4-43e74efa4d16","system_id":"levelo_inurba_marseille","lat":43.2919,"lon":5.39327,"is_reserved":false,"is_disabled":true,"rental_uris":{"android":"levelo://app?vid=4dc41274-1fcb-4676-b0d4-43e74efa4d16","ios":"levelo://app?vid=4dc41274-1fcb-4676-b0d4-43e74efa4d16"},"vehicle_type_id":"4","last_reported":1747242567,"current_range_meters":800,"station_id":"ce4bh192rcd13ifvqdd0","pricing_plan_id":"cebpf4jnsgd1na2vs0mg"},{"bike_id":"83034bdb-a797-49b6-9aa3-44a3728c17ee","system_id":"levelo_inurba_marseille","lat":43.27372,"lon":5.36245,"is_reserved":false,"is_disabled":true,"rental_uris":{"android":"levelo://app?vid=83034bdb-a797-49b6-9aa3-44a3728c17ee","ios":"levelo://app?vid=83034bdb-a797-49b6-9aa3-44a3728c17ee"},"vehicle_type_id":"4","last_reported":1747242567,"current_range_meters":800,"station_id":"ce4bhbh2rcd13ifvqeo0","pricing_plan_id":"cebpf4jnsgd1na2vs0mg"},{"bike_id":"a49aa80e-f6a0-47aa-b204-da34265ea71a","system_id":"levelo_inurba_marseille","lat":43.292707,"lon":5.368407,"is_reserved":false,"is_disabled":true,"rental_uris":{"android":"levelo://app?vid=a49aa80e-f6a0-47aa-b204-da34265ea71a","ios":"levelo://app?vid=a49aa80e-f6a0-47aa-b204-da34265ea71a"},"vehicle_type_id":"4","last_reported":1747242567,"current_range_meters":800,"station_id":"ce4bhbp2rcd13ifvqesg","pricing_plan_id":"cebpf4jnsgd1na2vs0mg"},{"bike_id":"eea7f096-80ac-49e2-9bc0-fc43b636a8d9","system_id":"levelo_inurba_marseille","lat":43.30205,"lon":5.395377,"is_reserved":false,"is_disabled":true,"rental_uris":{"android":"levelo://app?vid=eea7f096-80ac-49e2-9bc0-fc43b636a8d9","ios":"levelo://app?vid=eea7f096-80ac-49e2-9bc0-fc43b636a8d9"},"vehicle_type_id":"4","last_reported":1747242567,"current_range_meters":1200,"station_id":"","pricing_plan_id":"cebpf4jnsgd1na2vs0mg"},{"bike_id":"3446d2e5-ab19-4e8e-bfc7-287a7475eb24","system_id":"levelo_inurba_marseille","lat":43.299743,"lon":5.385207,"is_reserved":false,"is_disabled":true,"rental_uris":{"android":"levelo://app?vid=3446d2e5-ab19-4e8e-bfc7-287a7475eb24","ios":"levelo://app?vid=3446d2e5-ab19-4e8e-bfc7-287a7475eb24"},"vehicle_type_id":"4","last_reported":1747242567,"current_range_meters":1200,"station_id":"ce4bgj92rcd13ifvqbd0","pricing_plan_id":"cebpf4jnsgd1na2vs0mg"},{"bike_id":"58ce8de3-0d25-4944-92ad-510d4cf6a541","system_id":"levelo_inurba_marseille","lat":43.29041,"lon":5.39964,"is_reserved":false,"is_disabled":true,"rental_uris":{"android":"levelo://app?vid=58ce8de3-0d25-4944-92ad-510d4cf6a541","ios":"levelo://app?vid=58ce8de3-0d25-4944-92ad-510d4cf6a541"},"vehicle_type_id":"4","last_reported":1747242567,"current_range_meters":1200,"station_id":"ce4bh392rcd13ifvqdm0","pricing_plan_id":"cebpf4jnsgd1na2vs0mg"},{"bike_id":"4b6fcd6c-f632-42bc-a801-fd84829015c1","system_id":"levelo_inurba_marseille","lat":43.28938,"lon":5.36631,"is_reserved":false,"is_disabled":true,"rental_uris":{"android":"levelo://app?vid=4b6fcd6c-f632-42bc-a801-fd84829015c1","ios":"levelo://app?vid=4b6fcd6c-f632-42bc-a801-fd84829015c1"},"vehicle_type_id":"4","last_reported":1747242567,"current_range_meters":1200,"station_id":"ce4bhap2rcd13ifvqek0","pricing_plan_id":"cebpf4jnsgd1na2vs0mg"},{"bike_id":"6baf8688-09eb-476b-be8c-c215426bad6b","system_id":"levelo_inurba_marseille","lat":43.25494,"lon":5.37683,"is_reserved":false,"is_disabled":true,"rental_uris":{"android":"levelo://app?vid=6baf8688-09eb-476b-be8c-c215426bad6b","ios":"levelo://app?vid=6baf8688-09eb-476b-be8c-c215426bad6b"},"vehicle_type_id":"4","last_reported":1747242567,"current_range_meters":1200,"station_id":"ce4bhh12rcd13ifvqff0","pricing_plan_id":"cebpf4jnsgd1na2vs0mg"},{"bike_id":"75528e29-e6e4-492b-926f-6be61b7ba974","system_id":"levelo_inurba_marseille","lat":43.27566,"lon":5.384303,"is_reserved":false,"is_disabled":true,"rental_uris":{"android":"levelo://app?vid=75528e29-e6e4-492b-926f-6be61b7ba974","ios":"levelo://app?vid=75528e29-e6e4-492b-926f-6be61b7ba974"},"vehicle_type_id":"4","last_reported":1747242567,"current_range_meters":1200,"station_id":"ce4bhh92rcd13ifvqfi0","pricing_plan_id":"cebpf4jnsgd1na2vs0mg"},{"bike_id":"6ea3ae3a-2149-43e1-a077-c95dcc818eb3","system_id":"levelo_inurba_marseille","lat":43.25719,"lon":5.41114,"is_reserved":false,"is_disabled":true,"rental_uris":{"android":"levelo://app?vid=6ea3ae3a-2149-43e1-a077-c95dcc818eb3","ios":"levelo://app?vid=6ea3ae3a-2149-43e1-a077-c95dcc818eb3"},"vehicle_type_id":"4","last_reported":1747242567,"current_range_meters":1200,"station_id":"ce4bhkp2rcd13ifvqgd0","pricing_plan_id":"cebpf4jnsgd1na2vs0mg"},{"bike_id":"264479de-e908-4475-8a25-17523ec3b09b","system_id":"levelo_inurba_marseille","lat":43.28446,"lon":5.39196,"is_reserved":false,"is_disabled":true,"rental_uris":{"android":"levelo://app?vid=264479de-e908-4475-8a25-17523ec3b09b","ios":"levelo://app?vid=264479de-e908-4475-8a25-17523ec3b09b"},"vehicle_type_id":"4","last_reported":1747242567,"current_range_meters":1200,"station_id":"ce4bhoh2rcd13ifvqh5g","pricing_plan_id":"cebpf4jnsgd1na2vs0mg"},{"bike_id":"10588561-49a3-4151-bc76-828b6b8201ca","system_id":"levelo_inurba_marseille","lat":43.30261,"lon":5.37722,"is_reserved":false,"is_disabled":true,"rental_uris":{"android":"levelo://app?vid=10588561-49a3-4151-bc76-828b6b8201ca","ios":"levelo://app?vid=10588561-49a3-4151-bc76-828b6b8201ca"},"vehicle_type_id":"4","last_reported":1747242567,"current_range_meters":1600,"station_id":"ce4bguh2rcd13ifvqcj0","pricing_plan_id":"cebpf4jnsgd1na2vs0mg"},{"bike_id":"48031959-1447-4efd-a2c5-99fe2573a87b","system_id":"levelo_inurba_marseille","lat":43.29536,"lon":5.39021,"is_reserved":false,"is_disabled":true,"rental_uris":{"android":"levelo://app?vid=48031959-1447-4efd-a2c5-99fe2573a87b","ios":"levelo://app?vid=48031959-1447-4efd-a2c5-99fe2573a87b"},"vehicle_type_id":"4","last_reported":1747242567,"current_range_meters":1600,"station_id":"ce4bh3p2rcd13ifvqdp0","pricing_plan_id":"cebpf4jnsgd1na2vs0mg"},{"bike_id":"f0d3db58-7ebf-4fed-97c9-128e346c4c78","system_id":"levelo_inurba_marseille","lat":43.25114,"lon":5.40302,"is_reserved":false,"is_disabled":true,"rental_uris":{"android":"levelo://app?vid=f0d3db58-7ebf-4fed-97c9-128e346c4c78","ios":"levelo://app?vid=f0d3db58-7ebf-4fed-97c9-128e346c4c78"},"vehicle_type_id":"4","last_reported":1747242567,"current_range_meters":1600,"station_id":"ce4bhlh2rcd13ifvqgig","pricing_plan_id":"cebpf4jnsgd1na2vs0mg"},{"bike_id":"e761432b-85de-4380-abbf-c39231da3f8f","system_id":"levelo_inurba_marseille","lat":43.28697,"lon":5.39983,"is_reserved":false,"is_disabled":true,"rental_uris":{"android":"levelo://app?vid=e761432b-85de-4380-abbf-c39231da3f8f","ios":"levelo://app?vid=e761432b-85de-4380-abbf-c39231da3f8f"},"vehicle_type_id":"4","last_reported":1747242567,"current_range_meters":1600,"station_id":"ce4bho92rcd13ifvqh3g","pricing_plan_id":"cebpf4jnsgd1na2vs0mg"},{"bike_id":"57ddeb2b-38aa-457b-9ea6-1c47cf7c50f9","system_id":"levelo_inurba_marseille","lat":43.28814,"lon":5.38252,"is_reserved":false,"is_disabled":true,"rental_uris":{"android":"levelo://app?vid=57ddeb2b-38aa-457b-9ea6-1c47cf7c50f9","ios":"levelo://app?vid=57ddeb2b-38aa-457b-9ea6-1c47cf7c50f9"},"vehicle_type_id":"4","last_reported":1747242567,"current_range_meters":2000,"station_id":"","pricing_plan_id":"cebpf4jnsgd1na2vs0mg"},{"bike_id":"224c9079-0c4a-4b1b-be6b-f8d9063eb5e9","system_id":"levelo_inurba_marseille","lat":43.29702,"lon":5.36616,"is_reserved":false,"is_disabled":true,"rental_uris":{"android":"levelo://app?vid=224c9079-0c4a-4b1b-be6b-f8d9063eb5e9","ios":"levelo://app?vid=224c9079-0c4a-4b1b-be6b-f8d9063eb5e9"},"vehicle_type_id":"4","last_reported":1747242567,"current_range_meters":2000,"station_id":"ce4bgn12rcd13ifvqbt0","pricing_plan_id":"cebpf4jnsgd1na2vs0mg"},{"bike_id":"b936cf4f-2ea6-4ff9-b10a-dff9e9dae3ea","system_id":"levelo_inurba_marseille","lat":43.30794,"lon":5.38172,"is_reserved":false,"is_disabled":true,"rental_uris":{"android":"levelo://app?vid=b936cf4f-2ea6-4ff9-b10a-dff9e9dae3ea","ios":"levelo://app?vid=b936cf4f-2ea6-4ff9-b10a-dff9e9dae3ea"},"vehicle_type_id":"4","last_reported":1747242567,"current_range_meters":2000,"station_id":"ce4bgt12rcd13ifvqce0","pricing_plan_id":"cebpf4jnsgd1na2vs0mg"},{"bike_id":"75021c11-7c1d-4eb4-9dbc-d2b4acc9562d","system_id":"levelo_inurba_marseille","lat":43.29873,"lon":5.39736,"is_reserved":false,"is_disabled":true,"rental_uris":{"android":"levelo://app?vid=75021c11-7c1d-4eb4-9dbc-d2b4acc9562d","ios":"levelo://app?vid=75021c11-7c1d-4eb4-9dbc-d2b4acc9562d"},"vehicle_type_id":"4","last_reported":1747242567,"current_range_meters":2000,"station_id":"ce4bh0h2rcd13ifvqd50","pricing_plan_id":"cebpf4jnsgd1na2vs0mg"},{"bike_id":"b502f1b2-b77e-4364-b45b-f2c8caa7efc3","system_id":"levelo_inurba_marseille","lat":43.28854,"lon":5.35844,"is_reserved":false,"is_disabled":true,"rental_uris":{"android":"levelo://app?vid=b502f1b2-b77e-4364-b45b-f2c8caa7efc3","ios":"levelo://app?vid=b502f1b2-b77e-4364-b45b-f2c8caa7efc3"},"vehicle_type_id":"4","last_reported":1747242567,"current_range_meters":2000,"station_id":"ce4bhb12rcd13ifvqem0","pricing_plan_id":"cebpf4jnsgd1na2vs0mg"},{"bike_id":"7154f837-ecd8-497a-a04a-7825a3ed2b89","system_id":"levelo_inurba_marseille","lat":43.27372,"lon":5.36252,"is_reserved":false,"is_disabled":true,"rental_uris":{"android":"levelo://app?vid=7154f837-ecd8-497a-a04a-7825a3ed2b89","ios":"levelo://app?vid=7154f837-ecd8-497a-a04a-7825a3ed2b89"},"vehicle_type_id":"4","last_reported":1747242567,"current_range_meters":2000,"station_id":"ce4bhbh2rcd13ifvqeo0","pricing_plan_id":"cebpf4jnsgd1na2vs0mg"},{"bike_id":"70012e70-1491-4e57-a026-c81792546e03","system_id":"levelo_inurba_marseille","lat":43.279749,"lon":5.387436,"is_reserved":false,"is_disabled":true,"rental_uris":{"android":"levelo://app?vid=70012e70-1491-4e57-a026-c81792546e03","ios":"levelo://app?vid=70012e70-1491-4e57-a026-c81792546e03"},"vehicle_type_id":"4","last_reported":1747242567,"current_range_meters":2000,"station_id":"ce4bhg12rcd13ifvqf80","pricing_plan_id":"cebpf4jnsgd1na2vs0mg"},{"bike_id":"e4744c2d-e9ac-4926-bfff-1c4b3f5127bc","system_id":"levelo_inurba_marseille","lat":43.26026,"lon":5.3755,"is_reserved":false,"is_disabled":true,"rental_uris":{"android":"levelo://app?vid=e4744c2d-e9ac-4926-bfff-1c4b3f5127bc","ios":"levelo://app?vid=e4744c2d-e9ac-4926-bfff-1c4b3f5127bc"},"vehicle_type_id":"4","last_reported":1747242567,"current_range_meters":2000,"station_id":"ce4bhgh2rcd13ifvqfa0","pricing_plan_id":"cebpf4jnsgd1na2vs0mg"},{"bike_id":"6cf01a63-1503-446d-9e7b-b14fb83e8a13","system_id":"levelo_inurba_marseille","lat":43.23964,"lon":5.36628,"is_reserved":false,"is_disabled":true,"rental_uris":{"android":"levelo://app?vid=6cf01a63-1503-446d-9e7b-b14fb83e8a13","ios":"levelo://app?vid=6cf01a63-1503-446d-9e7b-b14fb83e8a13"},"vehicle_type_id":"4","last_reported":1747242567,"current_range_meters":2000,"station_id":"ce4bhi12rcd13ifvqfp0","pricing_plan_id":"cebpf4jnsgd1na2vs0mg"},{"bike_id":"eb5d85b6-c433-4bb2-b91c-4ba6329fed0c","system_id":"levelo_inurba_marseille","lat":43.296265,"lon":5.371625,"is_reserved":false,"is_disabled":false,"rental_uris":{"android":"levelo://app?vid=eb5d85b6-c433-4bb2-b91c-4ba6329fed0c","ios":"levelo://app?vid=eb5d85b6-c433-4bb2-b91c-4ba6329fed0c"},"vehicle_type_id":"4","last_reported":1747242567,"current_range_meters":2800,"station_id":"ce4bgnh2rcd13ifvqc0g","pricing_plan_id":"cebpf4jnsgd1na2vs0mg"},{"bike_id":"483c482a-e664-484d-9eb5-1c1555007ac3","system_id":"levelo_inurba_marseille","lat":43.303223,"lon":5.40435,"is_reserved":false,"is_disabled":false,"rental_uris":{"android":"levelo://app?vid=483c482a-e664-484d-9eb5-1c1555007ac3","ios":"levelo://app?vid=483c482a-e664-484d-9eb5-1c1555007ac3"},"vehicle_type_id":"4","last_reported":1747242567,"current_range_meters":2800,"station_id":"ce4bh012rcd13ifvqd10","pricing_plan_id":"cebpf4jnsgd1na2vs0mg"},{"bike_id":"6a271e7d-9616-4171-a467-59f6c1f125b2","system_id":"levelo_inurba_marseille","lat":43.28037,"lon":5.36943,"is_reserved":false,"is_disabled":false,"rental_uris":{"android":"levelo://app?vid=6a271e7d-9616-4171-a467-59f6c1f125b2","ios":"levelo://app?vid=6a271e7d-9616-4171-a467-59f6c1f125b2"},"vehicle_type_id":"4","last_reported":1747242567,"current_range_meters":2800,"station_id":"ce4bha12rcd13ifvqef0","pricing_plan_id":"cebpf4jnsgd1na2vs0mg"},{"bike_id":"1cf3f5ca-4087-4fa9-86ab-0afa69cae48d","system_id":"levelo_inurba_marseille","lat":43.28267,"lon":5.35061,"is_reserved":false,"is_disabled":false,"rental_uris":{"android":"levelo://app?vid=1cf3f5ca-4087-4fa9-86ab-0afa69cae48d","ios":"levelo://app?vid=1cf3f5ca-4087-4fa9-86ab-0afa69cae48d"},"vehicle_type_id":"4","last_reported":1747242567,"current_range_meters":2800,"station_id":"ce4bhbp2rcd13ifvqerg","pricing_plan_id":"cebpf4jnsgd1na2vs0mg"},{"bike_id":"4e6d3e8f-88e0-40fb-8c8f-d8d2615846af","system_id":"levelo_inurba_marseille","lat":43.28613,"lon":5.35105,"is_reserved":false,"is_disabled":false,"rental_uris":{"android":"levelo://app?vid=4e6d3e8f-88e0-40fb-8c8f-d8d2615846af","ios":"levelo://app?vid=4e6d3e8f-88e0-40fb-8c8f-d8d2615846af"},"vehicle_type_id":"4","last_reported":1747242567,"current_range_meters":2800,"station_id":"ce4bhch2rcd13ifvqeug","pricing_plan_id":"cebpf4jnsgd1na2vs0mg"},{"bike_id":"3f385361-77c5-4851-ac3b-7619ac8de875","system_id":"levelo_inurba_marseille","lat":43.29604,"lon":5.3811,"is_reserved":false,"is_disabled":false,"rental_uris":{"android":"levelo://app?vid=3f385361-77c5-4851-ac3b-7619ac8de875","ios":"levelo://app?vid=3f385361-77c5-4851-ac3b-7619ac8de875"},"vehicle_type_id":"4","last_reported":1747242567,"current_range_meters":3200,"station_id":"ce4bgl12rcd13ifvqbo0","pricing_plan_id":"cebpf4jnsgd1na2vs0mg"},{"bike_id":"c6185883-bf1b-4e9a-850e-1a4ad0acc1a7","system_id":"levelo_inurba_marseille","lat":43.303253,"lon":5.404347,"is_reserved":false,"is_disabled":false,"rental_uris":{"android":"levelo://app?vid=c6185883-bf1b-4e9a-850e-1a4ad0acc1a7","ios":"levelo://app?vid=c6185883-bf1b-4e9a-850e-1a4ad0acc1a7"},"vehicle_type_id":"4","last_reported":1747242567,"current_range_meters":3200,"station_id":"ce4bh012rcd13ifvqd10","pricing_plan_id":"cebpf4jnsgd1na2vs0mg"},{"bike_id":"8257de54-0140-490a-8abb-2356910712ea","system_id":"levelo_inurba_marseille","lat":43.28483,"lon":5.38584,"is_reserved":false,"is_disabled":false,"rental_uris":{"android":"levelo://app?vid=8257de54-0140-490a-8abb-2356910712ea","ios":"levelo://app?vid=8257de54-0140-490a-8abb-2356910712ea"},"vehicle_type_id":"4","last_reported":1747242567,"current_range_meters":3200,"station_id":"ce4bh8p2rcd13ifvqeb0","pricing_plan_id":"cebpf4jnsgd1na2vs0mg"},{"bike_id":"87176245-693c-475c-9bda-770c95082757","system_id":"levelo_inurba_marseille","lat":43.26026,"lon":5.3756,"is_reserved":false,"is_disabled":false,"rental_uris":{"android":"levelo://app?vid=87176245-693c-475c-9bda-770c95082757","ios":"levelo://app?vid=87176245-693c-475c-9bda-770c95082757"},"vehicle_type_id":"4","last_reported":1747242567,"current_range_meters":3200,"station_id":"ce4bhgh2rcd13ifvqfa0","pricing_plan_id":"cebpf4jnsgd1na2vs0mg"},{"bike_id":"cffc716f-9a66-42b8-84ee-7de9e8e81887","system_id":"levelo_inurba_marseille","lat":43.31712,"lon":5.42437,"is_reserved":false,"is_disabled":false,"rental_uris":{"android":"levelo://app?vid=cffc716f-9a66-42b8-84ee-7de9e8e81887","ios":"levelo://app?vid=cffc716f-9a66-42b8-84ee-7de9e8e81887"},"vehicle_type_id":"4","last_reported":1747242567,"current_range_meters":3200,"station_id":"ce4bhp92rcd13ifvqhbg","pricing_plan_id":"cebpf4jnsgd1na2vs0mg"},{"bike_id":"ac1f9f8a-e61d-4865-8f0c-6768a0c0c57d","system_id":"levelo_inurba_marseille","lat":43.24385,"lon":5.3706,"is_reserved":false,"is_disabled":false,"rental_uris":{"android":"levelo://app?vid=ac1f9f8a-e61d-4865-8f0c-6768a0c0c57d","ios":"levelo://app?vid=ac1f9f8a-e61d-4865-8f0c-6768a0c0c57d"},"vehicle_type_id":"4","last_reported":1747242567,"current_range_meters":3600,"station_id":"ce4bhhh2rcd13ifvqfk0","pricing_plan_id":"cebpf4jnsgd1na2vs0mg"},{"bike_id":"e90fb942-1757-4daf-9884-b546489a1f7e","system_id":"levelo_inurba_marseille","lat":43.24671,"lon":5.38155,"is_reserved":false,"is_disabled":false,"rental_uris":{"android":"levelo://app?vid=e90fb942-1757-4daf-9884-b546489a1f7e","ios":"levelo://app?vid=e90fb942-1757-4daf-9884-b546489a1f7e"},"vehicle_type_id":"4","last_reported":1747242567,"current_range_meters":3600,"station_id":"ce4bhih2rcd13ifvqfr0","pricing_plan_id":"cebpf4jnsgd1na2vs0mg"},{"bike_id":"23fc8b79-ebcc-48c4-a28b-7092bb2d770f","system_id":"levelo_inurba_marseille","lat":43.27995,"lon":5.41665,"is_reserved":false,"is_disabled":false,"rental_uris":{"android":"levelo://app?vid=23fc8b79-ebcc-48c4-a28b-7092bb2d770f","ios":"levelo://app?vid=23fc8b79-ebcc-48c4-a28b-7092bb2d770f"},"vehicle_type_id":"4","last_reported":1747242567,"current_range_meters":3600,"station_id":"ce4bho12rcd13ifvqh1g","pricing_plan_id":"cebpf4jnsgd1na2vs0mg"},{"bike_id":"f2e1adfa-21a8-485e-995b-ad2b9c7bdc97","system_id":"levelo_inurba_marseille","lat":43.30941,"lon":5.39031,"is_reserved":false,"is_disabled":false,"rental_uris":{"android":"levelo://app?vid=f2e1adfa-21a8-485e-995b-ad2b9c7bdc97","ios":"levelo://app?vid=f2e1adfa-21a8-485e-995b-ad2b9c7bdc97"},"vehicle_type_id":"4","last_reported":1747242567,"current_range_meters":4000,"station_id":"ce4bgup2rcd13ifvqco0","pricing_plan_id":"cebpf4jnsgd1na2vs0mg"},{"bike_id":"967b56b4-f766-4341-948f-7393cc90a141","system_id":"levelo_inurba_marseille","lat":43.28616,"lon":5.35104,"is_reserved":false,"is_disabled":false,"rental_uris":{"android":"levelo://app?vid=967b56b4-f766-4341-948f-7393cc90a141","ios":"levelo://app?vid=967b56b4-f766-4341-948f-7393cc90a141"},"vehicle_type_id":"4","last_reported":1747242567,"current_range_meters":4000,"station_id":"ce4bhch2rcd13ifvqeug","pricing_plan_id":"cebpf4jnsgd1na2vs0mg"},{"bike_id":"8e878946-a94b-4fe1-85ba-0d4acbffc095","system_id":"levelo_inurba_marseille","lat":43.275631,"lon":5.425262,"is_reserved":false,"is_disabled":false,"rental_uris":{"android":"levelo://app?vid=8e878946-a94b-4fe1-85ba-0d4acbffc095","ios":"levelo://app?vid=8e878946-a94b-4fe1-85ba-0d4acbffc095"},"vehicle_type_id":"4","last_reported":1747242567,"current_range_meters":4000,"station_id":"ce4bhn92rcd13ifvqgrg","pricing_plan_id":"cebpf4jnsgd1na2vs0mg"},{"bike_id":"95b9651b-24ca-40ef-a319-3d06e507e536","system_id":"levelo_inurba_marseille","lat":43.31462,"lon":5.38404,"is_reserved":false,"is_disabled":false,"rental_uris":{"android":"levelo://app?vid=95b9651b-24ca-40ef-a319-3d06e507e536","ios":"levelo://app?vid=95b9651b-24ca-40ef-a319-3d06e507e536"},"vehicle_type_id":"4","last_reported":1747242567,"current_range_meters":4400,"station_id":"","pricing_plan_id":"cebpf4jnsgd1na2vs0mg"},{"bike_id":"ba08a712-f370-4b69-b8b8-758c03be412b","system_id":"levelo_inurba_marseille","lat":43.29568,"lon":5.39976,"is_reserved":false,"is_disabled":false,"rental_uris":{"android":"levelo://app?vid=ba08a712-f370-4b69-b8b8-758c03be412b","ios":"levelo://app?vid=ba08a712-f370-4b69-b8b8-758c03be412b"},"vehicle_type_id":"4","last_reported":1747242567,"current_range_meters":4400,"station_id":"ce4bh312rcd13ifvqdj0","pricing_plan_id":"cebpf4jnsgd1na2vs0mg"},{"bike_id":"789a826e-a4c4-49cf-b623-47e735e92eef","system_id":"levelo_inurba_marseille","lat":43.29446,"lon":5.39728,"is_reserved":false,"is_disabled":false,"rental_uris":{"android":"levelo://app?vid=789a826e-a4c4-49cf-b623-47e735e92eef","ios":"levelo://app?vid=789a826e-a4c4-49cf-b623-47e735e92eef"},"vehicle_type_id":"4","last_reported":1747242567,"current_range_meters":4400,"station_id":"ce4bh3h2rcd13ifvqdo0","pricing_plan_id":"cebpf4jnsgd1na2vs0mg"},{"bike_id":"810c9185-1f0f-498d-99bc-6cfc5e21cf32","system_id":"levelo_inurba_marseille","lat":43.29532,"lon":5.39023,"is_reserved":false,"is_disabled":false,"rental_uris":{"android":"levelo://app?vid=810c9185-1f0f-498d-99bc-6cfc5e21cf32","ios":"levelo://app?vid=810c9185-1f0f-498d-99bc-6cfc5e21cf32"},"vehicle_type_id":"4","last_reported":1747242567,"current_range_meters":4400,"station_id":"ce4bh3p2rcd13ifvqdp0","pricing_plan_id":"cebpf4jnsgd1na2vs0mg"},{"bike_id":"6111fa35-5666-4f6c-b1e9-256880cf5b1c","system_id":"levelo_inurba_marseille","lat":43.2396,"lon":5.36624,"is_reserved":false,"is_disabled":false,"rental_uris":{"android":"levelo://app?vid=6111fa35-5666-4f6c-b1e9-256880cf5b1c","ios":"levelo://app?vid=6111fa35-5666-4f6c-b1e9-256880cf5b1c"},"vehicle_type_id":"4","last_reported":1747242567,"current_range_meters":4400,"station_id":"ce4bhi12rcd13ifvqfp0","pricing_plan_id":"cebpf4jnsgd1na2vs0mg"},{"bike_id":"92c9759e-736f-4984-9134-5fec0012b76e","system_id":"levelo_inurba_marseille","lat":43.2816,"lon":5.42646,"is_reserved":false,"is_disabled":false,"rental_uris":{"android":"levelo://app?vid=92c9759e-736f-4984-9134-5fec0012b76e","ios":"levelo://app?vid=92c9759e-736f-4984-9134-5fec0012b76e"},"vehicle_type_id":"4","last_reported":1747242567,"current_range_meters":4400,"station_id":"ce4bhnh2rcd13ifvqgug","pricing_plan_id":"cebpf4jnsgd1na2vs0mg"},{"bike_id":"9242c71c-c776-4ce5-b907-ac8f23266d48","system_id":"levelo_inurba_marseille","lat":43.31725,"lon":5.43708,"is_reserved":false,"is_disabled":false,"rental_uris":{"android":"levelo://app?vid=9242c71c-c776-4ce5-b907-ac8f23266d48","ios":"levelo://app?vid=9242c71c-c776-4ce5-b907-ac8f23266d48"},"vehicle_type_id":"4","last_reported":1747242567,"current_range_meters":4400,"station_id":"ce4bhp92rcd13ifvqhcg","pricing_plan_id":"cebpf4jnsgd1na2vs0mg"},{"bike_id":"781a0700-f04b-4bd3-b841-9c9eb02cb2ef","system_id":"levelo_inurba_marseille","lat":43.319916,"lon":5.381718,"is_reserved":false,"is_disabled":false,"rental_uris":{"android":"levelo://app?vid=781a0700-f04b-4bd3-b841-9c9eb02cb2ef","ios":"levelo://app?vid=781a0700-f04b-4bd3-b841-9c9eb02cb2ef"},"vehicle_type_id":"4","last_reported":1747242567,"current_range_meters":4400,"station_id":"ce4bhr12rcd13ifvqhpg","pricing_plan_id":"cebpf4jnsgd1na2vs0mg"},{"bike_id":"8e208114-8a32-441b-807b-bf6cdbf4a4f8","system_id":"levelo_inurba_marseille","lat":43.29574,"lon":5.39966,"is_reserved":false,"is_disabled":false,"rental_uris":{"android":"levelo://app?vid=8e208114-8a32-441b-807b-bf6cdbf4a4f8","ios":"levelo://app?vid=8e208114-8a32-441b-807b-bf6cdbf4a4f8"},"vehicle_type_id":"4","last_reported":1747242567,"current_range_meters":4800,"station_id":"ce4bh312rcd13ifvqdj0","pricing_plan_id":"cebpf4jnsgd1na2vs0mg"},{"bike_id":"9971a2ed-7f02-486b-ac38-861eae690d25","system_id":"levelo_inurba_marseille","lat":43.29267,"lon":5.38438,"is_reserved":false,"is_disabled":false,"rental_uris":{"android":"levelo://app?vid=9971a2ed-7f02-486b-ac38-861eae690d25","ios":"levelo://app?vid=9971a2ed-7f02-486b-ac38-861eae690d25"},"vehicle_type_id":"4","last_reported":1747242567,"current_range_meters":4800,"station_id":"ce4bh692rcd13ifvqea0","pricing_plan_id":"cebpf4jnsgd1na2vs0mg"},{"bike_id":"577b618e-4532-4b31-8a19-16d0af1f94cc","system_id":"levelo_inurba_marseille","lat":43.26941,"lon":5.40249,"is_reserved":false,"is_disabled":false,"rental_uris":{"android":"levelo://app?vid=577b618e-4532-4b31-8a19-16d0af1f94cc","ios":"levelo://app?vid=577b618e-4532-4b31-8a19-16d0af1f94cc"},"vehicle_type_id":"4","last_reported":1747242567,"current_range_meters":4800,"station_id":"cjm6bp8fraef2m0cb0m0","pricing_plan_id":"cebpf4jnsgd1na2vs0mg"},{"bike_id":"ce4325af-2448-4172-bdec-81d552ee0b62","system_id":"levelo_inurba_marseille","lat":43.26177,"lon":5.42022,"is_reserved":false,"is_disabled":false,"rental_uris":{"android":"levelo://app?vid=ce4325af-2448-4172-bdec-81d552ee0b62","ios":"levelo://app?vid=ce4325af-2448-4172-bdec-81d552ee0b62"},"vehicle_type_id":"4","last_reported":1747242567,"current_range_meters":5600,"station_id":"","pricing_plan_id":"cebpf4jnsgd1na2vs0mg"},{"bike_id":"99dcdd44-12dd-448b-81c5-b219c4daa22f","system_id":"levelo_inurba_marseille","lat":43.29006,"lon":5.35615,"is_reserved":false,"is_disabled":false,"rental_uris":{"android":"levelo://app?vid=99dcdd44-12dd-448b-81c5-b219c4daa22f","ios":"levelo://app?vid=99dcdd44-12dd-448b-81c5-b219c4daa22f"},"vehicle_type_id":"4","last_reported":1747242567,"current_range_meters":5600,"station_id":"ce4bhb92rcd13ifvqen0","pricing_plan_id":"cebpf4jnsgd1na2vs0mg"},{"bike_id":"7dc035b5-90b3-4f97-a3e2-09a8a7d30b89","system_id":"levelo_inurba_marseille","lat":43.28414,"lon":5.34994,"is_reserved":false,"is_disabled":false,"rental_uris":{"android":"levelo://app?vid=7dc035b5-90b3-4f97-a3e2-09a8a7d30b89","ios":"levelo://app?vid=7dc035b5-90b3-4f97-a3e2-09a8a7d30b89"},"vehicle_type_id":"4","last_reported":1747242567,"current_range_meters":5600,"station_id":"ce4bhbh2rcd13ifvqepg","pricing_plan_id":"cebpf4jnsgd1na2vs0mg"},{"bike_id":"c509a4e2-a692-4f17-9a42-07a65231e9a5","system_id":"levelo_inurba_marseille","lat":43.23154,"lon":5.43708,"is_reserved":false,"is_disabled":false,"rental_uris":{"android":"levelo://app?vid=c509a4e2-a692-4f17-9a42-07a65231e9a5","ios":"levelo://app?vid=c509a4e2-a692-4f17-9a42-07a65231e9a5"},"vehicle_type_id":"4","last_reported":1747242567,"current_range_meters":5600,"station_id":"ce4bhmp2rcd13ifvqgog","pricing_plan_id":"cebpf4jnsgd1na2vs0mg"},{"bike_id":"a08eee52-d78f-4d9f-91bd-1df5b309642d","system_id":"levelo_inurba_marseille","lat":43.2319,"lon":5.35552,"is_reserved":false,"is_disabled":false,"rental_uris":{"android":"levelo://app?vid=a08eee52-d78f-4d9f-91bd-1df5b309642d","ios":"levelo://app?vid=a08eee52-d78f-4d9f-91bd-1df5b309642d"},"vehicle_type_id":"4","last_reported":1747242567,"current_range_meters":5600,"station_id":"ce4bhu92rcd13ifvqi70","pricing_plan_id":"cebpf4jnsgd1na2vs0mg"},{"bike_id":"d40ce14c-a535-40d1-a18b-a2a676c26111","system_id":"levelo_inurba_marseille","lat":43.30089,"lon":5.3906,"is_reserved":false,"is_disabled":false,"rental_uris":{"android":"levelo://app?vid=d40ce14c-a535-40d1-a18b-a2a676c26111","ios":"levelo://app?vid=d40ce14c-a535-40d1-a18b-a2a676c26111"},"vehicle_type_id":"4","last_reported":1747242567,"current_range_meters":6000,"station_id":"ce4bh192rcd13ifvqdb0","pricing_plan_id":"cebpf4jnsgd1na2vs0mg"},{"bike_id":"09e142e6-ff99-4408-b396-f4a549768214","system_id":"levelo_inurba_marseille","lat":43.288512,"lon":5.393107,"is_reserved":false,"is_disabled":false,"rental_uris":{"android":"levelo://app?vid=09e142e6-ff99-4408-b396-f4a549768214","ios":"levelo://app?vid=09e142e6-ff99-4408-b396-f4a549768214"},"vehicle_type_id":"4","last_reported":1747242567,"current_range_meters":6000,"station_id":"ce4bh2p2rcd13ifvqdi0","pricing_plan_id":"cebpf4jnsgd1na2vs0mg"},{"bike_id":"3e19ac01-a221-45c8-b0b2-7879dc50ae21","system_id":"levelo_inurba_marseille","lat":43.26198,"lon":5.37932,"is_reserved":false,"is_disabled":false,"rental_uris":{"android":"levelo://app?vid=3e19ac01-a221-45c8-b0b2-7879dc50ae21","ios":"levelo://app?vid=3e19ac01-a221-45c8-b0b2-7879dc50ae21"},"vehicle_type_id":"4","last_reported":1747242567,"current_range_meters":6000,"station_id":"ce4bhjp2rcd13ifvqg90","pricing_plan_id":"cebpf4jnsgd1na2vs0mg"},{"bike_id":"44e7b271-af65-4c3e-8727-24471f43eec7","system_id":"levelo_inurba_marseille","lat":43.27056,"lon":5.40258,"is_reserved":false,"is_disabled":false,"rental_uris":{"android":"levelo://app?vid=44e7b271-af65-4c3e-8727-24471f43eec7","ios":"levelo://app?vid=44e7b271-af65-4c3e-8727-24471f43eec7"},"vehicle_type_id":"4","last_reported":1747242567,"current_range_meters":6000,"station_id":"ce4bhk92rcd13ifvqgc0","pricing_plan_id":"cebpf4jnsgd1na2vs0mg"},{"bike_id":"8dd998fa-3ab2-4850-886e-df51a54df337","system_id":"levelo_inurba_marseille","lat":43.32332,"lon":5.40624,"is_reserved":false,"is_disabled":false,"rental_uris":{"android":"levelo://app?vid=8dd998fa-3ab2-4850-886e-df51a54df337","ios":"levelo://app?vid=8dd998fa-3ab2-4850-886e-df51a54df337"},"vehicle_type_id":"4","last_reported":1747242567,"current_range_meters":6000,"station_id":"ce4bhq92rcd13ifvqhjg","pricing_plan_id":"cebpf4jnsgd1na2vs0mg"},{"bike_id":"6953ca09-b1d0-473e-8b94-d568eb1a7f43","system_id":"levelo_inurba_marseille","lat":43.28868,"lon":5.37131,"is_reserved":false,"is_disabled":false,"rental_uris":{"android":"levelo://app?vid=6953ca09-b1d0-473e-8b94-d568eb1a7f43","ios":"levelo://app?vid=6953ca09-b1d0-473e-8b94-d568eb1a7f43"},"vehicle_type_id":"4","last_reported":1747242567,"current_range_meters":6400,"station_id":"","pricing_plan_id":"cebpf4jnsgd1na2vs0mg"},{"bike_id":"15aecd54-a6ab-4002-8454-b47ecf850b72","system_id":"levelo_inurba_marseille","lat":43.2904,"lon":5.39964,"is_reserved":false,"is_disabled":false,"rental_uris":{"android":"levelo://app?vid=15aecd54-a6ab-4002-8454-b47ecf850b72","ios":"levelo://app?vid=15aecd54-a6ab-4002-8454-b47ecf850b72"},"vehicle_type_id":"4","last_reported":1747242567,"current_range_meters":6400,"station_id":"ce4bh392rcd13ifvqdm0","pricing_plan_id":"cebpf4jnsgd1na2vs0mg"},{"bike_id":"49092a33-6f6a-4de8-ae14-576a63dc00fd","system_id":"levelo_inurba_marseille","lat":43.25107,"lon":5.40323,"is_reserved":false,"is_disabled":false,"rental_uris":{"android":"levelo://app?vid=49092a33-6f6a-4de8-ae14-576a63dc00fd","ios":"levelo://app?vid=49092a33-6f6a-4de8-ae14-576a63dc00fd"},"vehicle_type_id":"4","last_reported":1747242567,"current_range_meters":6400,"station_id":"ce4bhlh2rcd13ifvqgig","pricing_plan_id":"cebpf4jnsgd1na2vs0mg"},{"bike_id":"39f40186-b53a-4a97-a3fc-e431cc41b89e","system_id":"levelo_inurba_marseille","lat":43.24155,"lon":5.36424,"is_reserved":false,"is_disabled":false,"rental_uris":{"android":"levelo://app?vid=39f40186-b53a-4a97-a3fc-e431cc41b89e","ios":"levelo://app?vid=39f40186-b53a-4a97-a3fc-e431cc41b89e"},"vehicle_type_id":"4","last_reported":1747242567,"current_range_meters":6400,"station_id":"cpo36qri1sfpv3e86is0","pricing_plan_id":"cebpf4jnsgd1na2vs0mg"},{"bike_id":"5de1e8df-cec1-47cf-b554-41f6e726d337","system_id":"levelo_inurba_marseille","lat":43.27435,"lon":5.40604,"is_reserved":false,"is_disabled":false,"rental_uris":{"android":"levelo://app?vid=5de1e8df-cec1-47cf-b554-41f6e726d337","ios":"levelo://app?vid=5de1e8df-cec1-47cf-b554-41f6e726d337"},"vehicle_type_id":"4","last_reported":1747242567,"current_range_meters":6800,"station_id":"","pricing_plan_id":"cebpf4jnsgd1na2vs0mg"},{"bike_id":"c3ed5245-0340-44e8-b63d-84cc11ae7801","system_id":"levelo_inurba_marseille","lat":43.30311,"lon":5.36894,"is_reserved":false,"is_disabled":false,"rental_uris":{"android":"levelo://app?vid=c3ed5245-0340-44e8-b63d-84cc11ae7801","ios":"levelo://app?vid=c3ed5245-0340-44e8-b63d-84cc11ae7801"},"vehicle_type_id":"4","last_reported":1747242567,"current_range_meters":6800,"station_id":"ce4bgqh2rcd13ifvqc5g","pricing_plan_id":"cebpf4jnsgd1na2vs0mg"},{"bike_id":"41081213-1af9-45a0-b5fe-38b9da683b9c","system_id":"levelo_inurba_marseille","lat":43.28693,"lon":5.37399,"is_reserved":false,"is_disabled":false,"rental_uris":{"android":"levelo://app?vid=41081213-1af9-45a0-b5fe-38b9da683b9c","ios":"levelo://app?vid=41081213-1af9-45a0-b5fe-38b9da683b9c"},"vehicle_type_id":"4","last_reported":1747242567,"current_range_meters":6800,"station_id":"ce4bh3p2rcd13ifvqdq0","pricing_plan_id":"cebpf4jnsgd1na2vs0mg"},{"bike_id":"49513294-ccea-499d-b001-7df97fc96be7","system_id":"levelo_inurba_marseille","lat":43.27375,"lon":5.36268,"is_reserved":false,"is_disabled":false,"rental_uris":{"android":"levelo://app?vid=49513294-ccea-499d-b001-7df97fc96be7","ios":"levelo://app?vid=49513294-ccea-499d-b001-7df97fc96be7"},"vehicle_type_id":"4","last_reported":1747242567,"current_range_meters":6800,"station_id":"ce4bhbh2rcd13ifvqeo0","pricing_plan_id":"cebpf4jnsgd1na2vs0mg"},{"bike_id":"38c58fdc-0752-4504-bcc1-4174bb46b154","system_id":"levelo_inurba_marseille","lat":43.27394,"lon":5.36265,"is_reserved":false,"is_disabled":false,"rental_uris":{"android":"levelo://app?vid=38c58fdc-0752-4504-bcc1-4174bb46b154","ios":"levelo://app?vid=38c58fdc-0752-4504-bcc1-4174bb46b154"},"vehicle_type_id":"4","last_reported":1747242567,"current_range_meters":6800,"station_id":"ce4bhbh2rcd13ifvqeo0","pricing_plan_id":"cebpf4jnsgd1na2vs0mg"},{"bike_id":"f37b7848-b34f-4203-8cd6-ee4ac88ff930","system_id":"levelo_inurba_marseille","lat":43.23959,"lon":5.36643,"is_reserved":false,"is_disabled":false,"rental_uris":{"android":"levelo://app?vid=f37b7848-b34f-4203-8cd6-ee4ac88ff930","ios":"levelo://app?vid=f37b7848-b34f-4203-8cd6-ee4ac88ff930"},"vehicle_type_id":"4","last_reported":1747242567,"current_range_meters":6800,"station_id":"ce4bhi12rcd13ifvqfp0","pricing_plan_id":"cebpf4jnsgd1na2vs0mg"},{"bike_id":"f7e13854-d8b5-4665-88d4-a6202cc87022","system_id":"levelo_inurba_marseille","lat":43.27613,"lon":5.36097,"is_reserved":false,"is_disabled":false,"rental_uris":{"android":"levelo://app?vid=f7e13854-d8b5-4665-88d4-a6202cc87022","ios":"levelo://app?vid=f7e13854-d8b5-4665-88d4-a6202cc87022"},"vehicle_type_id":"4","last_reported":1747242567,"current_range_meters":7200,"station_id":"ce4bgj92rcd13ifvqbe0","pricing_plan_id":"cebpf4jnsgd1na2vs0mg"},{"bike_id":"dab629d7-23db-46b7-ab0c-bdfd4332428f","system_id":"levelo_inurba_marseille","lat":43.31333,"lon":5.39705,"is_reserved":false,"is_disabled":false,"rental_uris":{"android":"levelo://app?vid=dab629d7-23db-46b7-ab0c-bdfd4332428f","ios":"levelo://app?vid=dab629d7-23db-46b7-ab0c-bdfd4332428f"},"vehicle_type_id":"4","last_reported":1747242567,"current_range_meters":7200,"station_id":"ce4bgvp2rcd13ifvqcu0","pricing_plan_id":"cebpf4jnsgd1na2vs0mg"},{"bike_id":"81fa1d0b-0126-43a4-bdd6-9548e5529775","system_id":"levelo_inurba_marseille","lat":43.291982,"lon":5.393345,"is_reserved":false,"is_disabled":false,"rental_uris":{"android":"levelo://app?vid=81fa1d0b-0126-43a4-bdd6-9548e5529775","ios":"levelo://app?vid=81fa1d0b-0126-43a4-bdd6-9548e5529775"},"vehicle_type_id":"4","last_reported":1747242567,"current_range_meters":7200,"station_id":"ce4bh192rcd13ifvqdd0","pricing_plan_id":"cebpf4jnsgd1na2vs0mg"},{"bike_id":"a12f8da4-c8dd-408a-990c-1ba844459935","system_id":"levelo_inurba_marseille","lat":43.2582,"lon":5.3943,"is_reserved":false,"is_disabled":false,"rental_uris":{"android":"levelo://app?vid=a12f8da4-c8dd-408a-990c-1ba844459935","ios":"levelo://app?vid=a12f8da4-c8dd-408a-990c-1ba844459935"},"vehicle_type_id":"4","last_reported":1747242567,"current_range_meters":7200,"station_id":"ce4bhip2rcd13ifvqft0","pricing_plan_id":"cebpf4jnsgd1na2vs0mg"},{"bike_id":"1e617839-1167-4a92-9580-b1d84de92983","system_id":"levelo_inurba_marseille","lat":43.28001,"lon":5.41662,"is_reserved":false,"is_disabled":false,"rental_uris":{"android":"levelo://app?vid=1e617839-1167-4a92-9580-b1d84de92983","ios":"levelo://app?vid=1e617839-1167-4a92-9580-b1d84de92983"},"vehicle_type_id":"4","last_reported":1747242567,"current_range_meters":7200,"station_id":"ce4bho12rcd13ifvqh1g","pricing_plan_id":"cebpf4jnsgd1na2vs0mg"},{"bike_id":"c653cf3c-cfab-43b2-b84a-8798f9ecc34e","system_id":"levelo_inurba_marseille","lat":43.27997,"lon":5.4001,"is_reserved":false,"is_disabled":false,"rental_uris":{"android":"levelo://app?vid=c653cf3c-cfab-43b2-b84a-8798f9ecc34e","ios":"levelo://app?vid=c653cf3c-cfab-43b2-b84a-8798f9ecc34e"},"vehicle_type_id":"4","last_reported":1747242567,"current_range_meters":7200,"station_id":"ce4bho92rcd13ifvqh4g","pricing_plan_id":"cebpf4jnsgd1na2vs0mg"},{"bike_id":"a5060326-d89e-4fd4-966d-ee1778a4dbfe","system_id":"levelo_inurba_marseille","lat":43.31103,"lon":5.383863,"is_reserved":false,"is_disabled":false,"rental_uris":{"android":"levelo://app?vid=a5060326-d89e-4fd4-966d-ee1778a4dbfe","ios":"levelo://app?vid=a5060326-d89e-4fd4-966d-ee1778a4dbfe"},"vehicle_type_id":"4","last_reported":1747242567,"current_range_meters":8000,"station_id":"ce4bgv92rcd13ifvqcr0","pricing_plan_id":"cebpf4jnsgd1na2vs0mg"},{"bike_id":"c9667326-37fd-4e13-b97b-43466e032d3f","system_id":"levelo_inurba_marseille","lat":43.29534,"lon":5.39029,"is_reserved":false,"is_disabled":false,"rental_uris":{"android":"levelo://app?vid=c9667326-37fd-4e13-b97b-43466e032d3f","ios":"levelo://app?vid=c9667326-37fd-4e13-b97b-43466e032d3f"},"vehicle_type_id":"4","last_reported":1747242567,"current_range_meters":8000,"station_id":"ce4bh3p2rcd13ifvqdp0","pricing_plan_id":"cebpf4jnsgd1na2vs0mg"},{"bike_id":"2de118d4-469e-4086-a5fc-e2f9314b03a8","system_id":"levelo_inurba_marseille","lat":43.27383,"lon":5.36264,"is_reserved":false,"is_disabled":false,"rental_uris":{"android":"levelo://app?vid=2de118d4-469e-4086-a5fc-e2f9314b03a8","ios":"levelo://app?vid=2de118d4-469e-4086-a5fc-e2f9314b03a8"},"vehicle_type_id":"4","last_reported":1747242567,"current_range_meters":8000,"station_id":"ce4bhbh2rcd13ifvqeo0","pricing_plan_id":"cebpf4jnsgd1na2vs0mg"},{"bike_id":"97163a3d-c249-4c8c-ba82-63ec13b44948","system_id":"levelo_inurba_marseille","lat":43.24069,"lon":5.37765,"is_reserved":false,"is_disabled":false,"rental_uris":{"android":"levelo://app?vid=97163a3d-c249-4c8c-ba82-63ec13b44948","ios":"levelo://app?vid=97163a3d-c249-4c8c-ba82-63ec13b44948"},"vehicle_type_id":"4","last_reported":1747242567,"current_range_meters":8000,"station_id":"ce4bhnp2rcd13ifvqgvg","pricing_plan_id":"cebpf4jnsgd1na2vs0mg"},{"bike_id":"8627ad2c-18c3-4371-b797-50bdcc08edbf","system_id":"levelo_inurba_marseille","lat":43.21743,"lon":5.34613,"is_reserved":false,"is_disabled":false,"rental_uris":{"android":"levelo://app?vid=8627ad2c-18c3-4371-b797-50bdcc08edbf","ios":"levelo://app?vid=8627ad2c-18c3-4371-b797-50bdcc08edbf"},"vehicle_type_id":"4","last_reported":1747242567,"current_range_meters":8000,"station_id":"st_cvj6r9ubvosntc0bgbag","pricing_plan_id":"cebpf4jnsgd1na2vs0mg"},{"bike_id":"5c77ace6-8841-45ba-a373-f894bbd947f2","system_id":"levelo_inurba_marseille","lat":43.290177,"lon":5.3561,"is_reserved":false,"is_disabled":false,"rental_uris":{"android":"levelo://app?vid=5c77ace6-8841-45ba-a373-f894bbd947f2","ios":"levelo://app?vid=5c77ace6-8841-45ba-a373-f894bbd947f2"},"vehicle_type_id":"4","last_reported":1747242567,"current_range_meters":8400,"station_id":"ce4bhb92rcd13ifvqen0","pricing_plan_id":"cebpf4jnsgd1na2vs0mg"},{"bike_id":"faac790c-285b-4e73-ad07-d3dc84f9c931","system_id":"levelo_inurba_marseille","lat":43.296265,"lon":5.390036,"is_reserved":false,"is_disabled":false,"rental_uris":{"android":"levelo://app?vid=faac790c-285b-4e73-ad07-d3dc84f9c931","ios":"levelo://app?vid=faac790c-285b-4e73-ad07-d3dc84f9c931"},"vehicle_type_id":"4","last_reported":1747242567,"current_range_meters":8400,"station_id":"ce4bhph2rcd13ifvqhdg","pricing_plan_id":"cebpf4jnsgd1na2vs0mg"},{"bike_id":"6c5e2750-bf55-4812-bb81-a9df60873a61","system_id":"levelo_inurba_marseille","lat":43.29639,"lon":5.36185,"is_reserved":false,"is_disabled":false,"rental_uris":{"android":"levelo://app?vid=6c5e2750-bf55-4812-bb81-a9df60873a61","ios":"levelo://app?vid=6c5e2750-bf55-4812-bb81-a9df60873a61"},"vehicle_type_id":"4","last_reported":1747242567,"current_range_meters":8800,"station_id":"","pricing_plan_id":"cebpf4jnsgd1na2vs0mg"},{"bike_id":"fa4befad-9e1d-4f2a-8cac-8fccb960e5af","system_id":"levelo_inurba_marseille","lat":43.28936,"lon":5.3664,"is_reserved":false,"is_disabled":false,"rental_uris":{"android":"levelo://app?vid=fa4befad-9e1d-4f2a-8cac-8fccb960e5af","ios":"levelo://app?vid=fa4befad-9e1d-4f2a-8cac-8fccb960e5af"},"vehicle_type_id":"4","last_reported":1747242567,"current_range_meters":8800,"station_id":"ce4bhap2rcd13ifvqek0","pricing_plan_id":"cebpf4jnsgd1na2vs0mg"},{"bike_id":"ccd1bdf2-bff8-40e1-ae14-fc3efb93dbd3","system_id":"levelo_inurba_marseille","lat":43.26675,"lon":5.38269,"is_reserved":false,"is_disabled":false,"rental_uris":{"android":"levelo://app?vid=ccd1bdf2-bff8-40e1-ae14-fc3efb93dbd3","ios":"levelo://app?vid=ccd1bdf2-bff8-40e1-ae14-fc3efb93dbd3"},"vehicle_type_id":"4","last_reported":1747242567,"current_range_meters":8800,"station_id":"ce4bhg92rcd13ifvqf90","pricing_plan_id":"cebpf4jnsgd1na2vs0mg"},{"bike_id":"68a7439c-6cd2-4228-aacf-e3d8b1e5e7c4","system_id":"levelo_inurba_marseille","lat":43.25823,"lon":5.3944,"is_reserved":false,"is_disabled":false,"rental_uris":{"android":"levelo://app?vid=68a7439c-6cd2-4228-aacf-e3d8b1e5e7c4","ios":"levelo://app?vid=68a7439c-6cd2-4228-aacf-e3d8b1e5e7c4"},"vehicle_type_id":"4","last_reported":1747242567,"current_range_meters":8800,"station_id":"ce4bhip2rcd13ifvqft0","pricing_plan_id":"cebpf4jnsgd1na2vs0mg"},{"bike_id":"805eee42-8d8f-4d0a-b13b-e2aecd79680a","system_id":"levelo_inurba_marseille","lat":43.27492,"lon":5.42452,"is_reserved":false,"is_disabled":false,"rental_uris":{"android":"levelo://app?vid=805eee42-8d8f-4d0a-b13b-e2aecd79680a","ios":"levelo://app?vid=805eee42-8d8f-4d0a-b13b-e2aecd79680a"},"vehicle_type_id":"4","last_reported":1747242567,"current_range_meters":8800,"station_id":"ce4bhn92rcd13ifvqgrg","pricing_plan_id":"cebpf4jnsgd1na2vs0mg"},{"bike_id":"f516bdec-657c-46f1-abec-ebfac75025ea","system_id":"levelo_inurba_marseille","lat":43.22929,"lon":5.35375,"is_reserved":false,"is_disabled":false,"rental_uris":{"android":"levelo://app?vid=f516bdec-657c-46f1-abec-ebfac75025ea","ios":"levelo://app?vid=f516bdec-657c-46f1-abec-ebfac75025ea"},"vehicle_type_id":"4","last_reported":1747242567,"current_range_meters":8800,"station_id":"cpo3532slgdg3j2ikp40","pricing_plan_id":"cebpf4jnsgd1na2vs0mg"},{"bike_id":"07c4dff6-1b61-49e1-b9f3-cebd8d8c4c2f","system_id":"levelo_inurba_marseille","lat":43.31355,"lon":5.38501,"is_reserved":false,"is_disabled":false,"rental_uris":{"android":"levelo://app?vid=07c4dff6-1b61-49e1-b9f3-cebd8d8c4c2f","ios":"levelo://app?vid=07c4dff6-1b61-49e1-b9f3-cebd8d8c4c2f"},"vehicle_type_id":"4","last_reported":1747242567,"current_range_meters":9200,"station_id":"ce4bgt92rcd13ifvqcf0","pricing_plan_id":"cebpf4jnsgd1na2vs0mg"},{"bike_id":"3a6f71dc-f1cb-4286-95a1-eae09932b9df","system_id":"levelo_inurba_marseille","lat":43.28615,"lon":5.35111,"is_reserved":false,"is_disabled":false,"rental_uris":{"android":"levelo://app?vid=3a6f71dc-f1cb-4286-95a1-eae09932b9df","ios":"levelo://app?vid=3a6f71dc-f1cb-4286-95a1-eae09932b9df"},"vehicle_type_id":"4","last_reported":1747242567,"current_range_meters":9200,"station_id":"ce4bhch2rcd13ifvqeug","pricing_plan_id":"cebpf4jnsgd1na2vs0mg"},{"bike_id":"f557016b-b313-4fdd-8231-a1bd0d5cc0d0","system_id":"levelo_inurba_marseille","lat":43.26681,"lon":5.38276,"is_reserved":false,"is_disabled":false,"rental_uris":{"android":"levelo://app?vid=f557016b-b313-4fdd-8231-a1bd0d5cc0d0","ios":"levelo://app?vid=f557016b-b313-4fdd-8231-a1bd0d5cc0d0"},"vehicle_type_id":"4","last_reported":1747242567,"current_range_meters":9200,"station_id":"ce4bhg92rcd13ifvqf90","pricing_plan_id":"cebpf4jnsgd1na2vs0mg"},{"bike_id":"1bdd7a48-f929-4d41-9824-96420f50a037","system_id":"levelo_inurba_marseille","lat":43.24377,"lon":5.37049,"is_reserved":false,"is_disabled":false,"rental_uris":{"android":"levelo://app?vid=1bdd7a48-f929-4d41-9824-96420f50a037","ios":"levelo://app?vid=1bdd7a48-f929-4d41-9824-96420f50a037"},"vehicle_type_id":"4","last_reported":1747242567,"current_range_meters":9200,"station_id":"ce4bhhh2rcd13ifvqfk0","pricing_plan_id":"cebpf4jnsgd1na2vs0mg"},{"bike_id":"4a464b53-b6f1-406f-977c-852b5d022713","system_id":"levelo_inurba_marseille","lat":43.24386,"lon":5.37057,"is_reserved":false,"is_disabled":false,"rental_uris":{"android":"levelo://app?vid=4a464b53-b6f1-406f-977c-852b5d022713","ios":"levelo://app?vid=4a464b53-b6f1-406f-977c-852b5d022713"},"vehicle_type_id":"4","last_reported":1747242567,"current_range_meters":9200,"station_id":"ce4bhhh2rcd13ifvqfk0","pricing_plan_id":"cebpf4jnsgd1na2vs0mg"},{"bike_id":"aa40a7cc-bac1-4178-81bc-75c66713b2a5","system_id":"levelo_inurba_marseille","lat":43.2396,"lon":5.36634,"is_reserved":false,"is_disabled":false,"rental_uris":{"android":"levelo://app?vid=aa40a7cc-bac1-4178-81bc-75c66713b2a5","ios":"levelo://app?vid=aa40a7cc-bac1-4178-81bc-75c66713b2a5"},"vehicle_type_id":"4","last_reported":1747242567,"current_range_meters":9200,"station_id":"ce4bhi12rcd13ifvqfp0","pricing_plan_id":"cebpf4jnsgd1na2vs0mg"},{"bike_id":"f4f2764c-9286-4c08-9286-4de704f917c9","system_id":"levelo_inurba_marseille","lat":43.32656,"lon":5.40988,"is_reserved":false,"is_disabled":false,"rental_uris":{"android":"levelo://app?vid=f4f2764c-9286-4c08-9286-4de704f917c9","ios":"levelo://app?vid=f4f2764c-9286-4c08-9286-4de704f917c9"},"vehicle_type_id":"4","last_reported":1747242567,"current_range_meters":9200,"station_id":"ce4bhpp2rcd13ifvqhgg","pricing_plan_id":"cebpf4jnsgd1na2vs0mg"},{"bike_id":"7ebd35a0-9e6d-4cfb-8446-98e160c91ae8","system_id":"levelo_inurba_marseille","lat":43.31118,"lon":5.37759,"is_reserved":false,"is_disabled":false,"rental_uris":{"android":"levelo://app?vid=7ebd35a0-9e6d-4cfb-8446-98e160c91ae8","ios":"levelo://app?vid=7ebd35a0-9e6d-4cfb-8446-98e160c91ae8"},"vehicle_type_id":"4","last_reported":1747242567,"current_range_meters":9600,"station_id":"ce4bgt92rcd13ifvqcg0","pricing_plan_id":"cebpf4jnsgd1na2vs0mg"},{"bike_id":"ecca135e-b998-4673-ab43-fe4f0d7ec9fc","system_id":"levelo_inurba_marseille","lat":43.28462,"lon":5.35881,"is_reserved":false,"is_disabled":false,"rental_uris":{"android":"levelo://app?vid=ecca135e-b998-4673-ab43-fe4f0d7ec9fc","ios":"levelo://app?vid=ecca135e-b998-4673-ab43-fe4f0d7ec9fc"},"vehicle_type_id":"4","last_reported":1747242567,"current_range_meters":9600,"station_id":"ce4bhah2rcd13ifvqei0","pricing_plan_id":"cebpf4jnsgd1na2vs0mg"},{"bike_id":"ef1c4019-30c2-466d-8f5b-04d2e73561e4","system_id":"levelo_inurba_marseille","lat":43.29226,"lon":5.36063,"is_reserved":false,"is_disabled":false,"rental_uris":{"android":"levelo://app?vid=ef1c4019-30c2-466d-8f5b-04d2e73561e4","ios":"levelo://app?vid=ef1c4019-30c2-466d-8f5b-04d2e73561e4"},"vehicle_type_id":"4","last_reported":1747242567,"current_range_meters":9600,"station_id":"ce4bhbh2rcd13ifvqeqg","pricing_plan_id":"cebpf4jnsgd1na2vs0mg"},{"bike_id":"3faf053c-e846-4d83-83ee-8fd51efc38bb","system_id":"levelo_inurba_marseille","lat":43.32119,"lon":5.36799,"is_reserved":false,"is_disabled":false,"rental_uris":{"android":"levelo://app?vid=3faf053c-e846-4d83-83ee-8fd51efc38bb","ios":"levelo://app?vid=3faf053c-e846-4d83-83ee-8fd51efc38bb"},"vehicle_type_id":"4","last_reported":1747242567,"current_range_meters":9600,"station_id":"ce4bhrh2rcd13ifvqhug","pricing_plan_id":"cebpf4jnsgd1na2vs0mg"},{"bike_id":"d60c5cc5-e04e-47a5-9d40-5bd6a0046591","system_id":"levelo_inurba_marseille","lat":43.31363,"lon":5.38501,"is_reserved":false,"is_disabled":false,"rental_uris":{"android":"levelo://app?vid=d60c5cc5-e04e-47a5-9d40-5bd6a0046591","ios":"levelo://app?vid=d60c5cc5-e04e-47a5-9d40-5bd6a0046591"},"vehicle_type_id":"4","last_reported":1747242567,"current_range_meters":10000,"station_id":"ce4bgt92rcd13ifvqcf0","pricing_plan_id":"cebpf4jnsgd1na2vs0mg"},{"bike_id":"e7922358-d3e5-4dc9-84f4-7435575e6107","system_id":"levelo_inurba_marseille","lat":43.29217,"lon":5.36073,"is_reserved":false,"is_disabled":false,"rental_uris":{"android":"levelo://app?vid=e7922358-d3e5-4dc9-84f4-7435575e6107","ios":"levelo://app?vid=e7922358-d3e5-4dc9-84f4-7435575e6107"},"vehicle_type_id":"4","last_reported":1747242567,"current_range_meters":10000,"station_id":"ce4bhbh2rcd13ifvqeqg","pricing_plan_id":"cebpf4jnsgd1na2vs0mg"},{"bike_id":"22df9d24-71cd-493b-bd1b-3e49a1287f80","system_id":"levelo_inurba_marseille","lat":43.28604,"lon":5.35108,"is_reserved":false,"is_disabled":false,"rental_uris":{"android":"levelo://app?vid=22df9d24-71cd-493b-bd1b-3e49a1287f80","ios":"levelo://app?vid=22df9d24-71cd-493b-bd1b-3e49a1287f80"},"vehicle_type_id":"4","last_reported":1747242567,"current_range_meters":10000,"station_id":"ce4bhch2rcd13ifvqeug","pricing_plan_id":"cebpf4jnsgd1na2vs0mg"},{"bike_id":"48d56369-e3fc-4407-8396-fd68f2d89e05","system_id":"levelo_inurba_marseille","lat":43.26208,"lon":5.37446,"is_reserved":false,"is_disabled":false,"rental_uris":{"android":"levelo://app?vid=48d56369-e3fc-4407-8396-fd68f2d89e05","ios":"levelo://app?vid=48d56369-e3fc-4407-8396-fd68f2d89e05"},"vehicle_type_id":"4","last_reported":1747242567,"current_range_meters":10000,"station_id":"ce4bhgp2rcd13ifvqfc0","pricing_plan_id":"cebpf4jnsgd1na2vs0mg"},{"bike_id":"0879c7af-989f-4e68-9fd6-d134be2b3e7f","system_id":"levelo_inurba_marseille","lat":43.25939,"lon":5.40906,"is_reserved":false,"is_disabled":false,"rental_uris":{"android":"levelo://app?vid=0879c7af-989f-4e68-9fd6-d134be2b3e7f","ios":"levelo://app?vid=0879c7af-989f-4e68-9fd6-d134be2b3e7f"},"vehicle_type_id":"4","last_reported":1747242567,"current_range_meters":10000,"station_id":"ce4bhm92rcd13ifvqglg","pricing_plan_id":"cebpf4jnsgd1na2vs0mg"},{"bike_id":"f67ead3c-1ee4-4c8b-8113-1a8a9399fa34","system_id":"levelo_inurba_marseille","lat":43.31886,"lon":5.40734,"is_reserved":false,"is_disabled":false,"rental_uris":{"android":"levelo://app?vid=f67ead3c-1ee4-4c8b-8113-1a8a9399fa34","ios":"levelo://app?vid=f67ead3c-1ee4-4c8b-8113-1a8a9399fa34"},"vehicle_type_id":"4","last_reported":1747242567,"current_range_meters":10000,"station_id":"ce4bhq12rcd13ifvqhig","pricing_plan_id":"cebpf4jnsgd1na2vs0mg"},{"bike_id":"39aa1628-822e-4ce2-a2a5-c0f8adefac2f","system_id":"levelo_inurba_marseille","lat":43.33777,"lon":5.39198,"is_reserved":false,"is_disabled":false,"rental_uris":{"android":"levelo://app?vid=39aa1628-822e-4ce2-a2a5-c0f8adefac2f","ios":"levelo://app?vid=39aa1628-822e-4ce2-a2a5-c0f8adefac2f"},"vehicle_type_id":"4","last_reported":1747242567,"current_range_meters":10800,"station_id":"","pricing_plan_id":"cebpf4jnsgd1na2vs0mg"},{"bike_id":"a866697f-e7b2-4fdc-9e71-eb032617dba3","system_id":"levelo_inurba_marseille","lat":43.29974,"lon":5.38493,"is_reserved":false,"is_disabled":false,"rental_uris":{"android":"levelo://app?vid=a866697f-e7b2-4fdc-9e71-eb032617dba3","ios":"levelo://app?vid=a866697f-e7b2-4fdc-9e71-eb032617dba3"},"vehicle_type_id":"4","last_reported":1747242567,"current_range_meters":10800,"station_id":"ce4bgj92rcd13ifvqbd0","pricing_plan_id":"cebpf4jnsgd1na2vs0mg"},{"bike_id":"f97c1d73-3292-4c23-8dd9-67703dd18af1","system_id":"levelo_inurba_marseille","lat":43.29031,"lon":5.35924,"is_reserved":false,"is_disabled":false,"rental_uris":{"android":"levelo://app?vid=f97c1d73-3292-4c23-8dd9-67703dd18af1","ios":"levelo://app?vid=f97c1d73-3292-4c23-8dd9-67703dd18af1"},"vehicle_type_id":"4","last_reported":1747242567,"current_range_meters":10800,"station_id":"ce4bha92rcd13ifvqeg0","pricing_plan_id":"cebpf4jnsgd1na2vs0mg"},{"bike_id":"71173aa7-83ee-4acd-af7d-98a0e56919a3","system_id":"levelo_inurba_marseille","lat":43.289246,"lon":5.366503,"is_reserved":false,"is_disabled":false,"rental_uris":{"android":"levelo://app?vid=71173aa7-83ee-4acd-af7d-98a0e56919a3","ios":"levelo://app?vid=71173aa7-83ee-4acd-af7d-98a0e56919a3"},"vehicle_type_id":"4","last_reported":1747242567,"current_range_meters":10800,"station_id":"ce4bhap2rcd13ifvqek0","pricing_plan_id":"cebpf4jnsgd1na2vs0mg"},{"bike_id":"a948266d-683c-4e1b-a0d2-28dea41c0ee5","system_id":"levelo_inurba_marseille","lat":43.289798,"lon":5.35592,"is_reserved":false,"is_disabled":false,"rental_uris":{"android":"levelo://app?vid=a948266d-683c-4e1b-a0d2-28dea41c0ee5","ios":"levelo://app?vid=a948266d-683c-4e1b-a0d2-28dea41c0ee5"},"vehicle_type_id":"4","last_reported":1747242567,"current_range_meters":10800,"station_id":"ce4bhb92rcd13ifvqen0","pricing_plan_id":"cebpf4jnsgd1na2vs0mg"},{"bike_id":"67323d6f-fcac-4514-9363-d27a08855f07","system_id":"levelo_inurba_marseille","lat":43.28613,"lon":5.35101,"is_reserved":false,"is_disabled":false,"rental_uris":{"android":"levelo://app?vid=67323d6f-fcac-4514-9363-d27a08855f07","ios":"levelo://app?vid=67323d6f-fcac-4514-9363-d27a08855f07"},"vehicle_type_id":"4","last_reported":1747242567,"current_range_meters":10800,"station_id":"ce4bhch2rcd13ifvqeug","pricing_plan_id":"cebpf4jnsgd1na2vs0mg"},{"bike_id":"ebfedfe6-dee9-4129-9a75-1c0038169595","system_id":"levelo_inurba_marseille","lat":43.28638,"lon":5.35098,"is_reserved":false,"is_disabled":false,"rental_uris":{"android":"levelo://app?vid=ebfedfe6-dee9-4129-9a75-1c0038169595","ios":"levelo://app?vid=ebfedfe6-dee9-4129-9a75-1c0038169595"},"vehicle_type_id":"4","last_reported":1747242567,"current_range_meters":10800,"station_id":"ce4bhch2rcd13ifvqeug","pricing_plan_id":"cebpf4jnsgd1na2vs0mg"},{"bike_id":"9a66798f-e321-479f-8c56-3a1cc816024d","system_id":"levelo_inurba_marseille","lat":43.270683,"lon":5.4228,"is_reserved":false,"is_disabled":false,"rental_uris":{"android":"levelo://app?vid=9a66798f-e321-479f-8c56-3a1cc816024d","ios":"levelo://app?vid=9a66798f-e321-479f-8c56-3a1cc816024d"},"vehicle_type_id":"4","last_reported":1747242567,"current_range_meters":10800,"station_id":"ce4bhk92rcd13ifvqgb0","pricing_plan_id":"cebpf4jnsgd1na2vs0mg"},{"bike_id":"e3faef6f-635a-4b6b-b2b3-c0b918604df6","system_id":"levelo_inurba_marseille","lat":43.299023,"lon":5.436716,"is_reserved":false,"is_disabled":false,"rental_uris":{"android":"levelo://app?vid=e3faef6f-635a-4b6b-b2b3-c0b918604df6","ios":"levelo://app?vid=e3faef6f-635a-4b6b-b2b3-c0b918604df6"},"vehicle_type_id":"4","last_reported":1747242567,"current_range_meters":10800,"station_id":"ce4bhpp2rcd13ifvqhfg","pricing_plan_id":"cebpf4jnsgd1na2vs0mg"},{"bike_id":"b66b454e-94a3-4ad2-8cbe-795ac765acdd","system_id":"levelo_inurba_marseille","lat":43.32369,"lon":5.38896,"is_reserved":false,"is_disabled":false,"rental_uris":{"android":"levelo://app?vid=b66b454e-94a3-4ad2-8cbe-795ac765acdd","ios":"levelo://app?vid=b66b454e-94a3-4ad2-8cbe-795ac765acdd"},"vehicle_type_id":"4","last_reported":1747242567,"current_range_meters":10800,"station_id":"ce4bhqp2rcd13ifvqhog","pricing_plan_id":"cebpf4jnsgd1na2vs0mg"},{"bike_id":"86897497-2fff-497b-9a46-2c9e40c5855d","system_id":"levelo_inurba_marseille","lat":43.31113,"lon":5.3776,"is_reserved":false,"is_disabled":false,"rental_uris":{"android":"levelo://app?vid=86897497-2fff-497b-9a46-2c9e40c5855d","ios":"levelo://app?vid=86897497-2fff-497b-9a46-2c9e40c5855d"},"vehicle_type_id":"4","last_reported":1747242567,"current_range_meters":11200,"station_id":"ce4bgt92rcd13ifvqcg0","pricing_plan_id":"cebpf4jnsgd1na2vs0mg"},{"bike_id":"6364f906-1312-4386-9d0b-333b4c035ced","system_id":"levelo_inurba_marseille","lat":43.29006,"lon":5.38139,"is_reserved":false,"is_disabled":false,"rental_uris":{"android":"levelo://app?vid=6364f906-1312-4386-9d0b-333b4c035ced","ios":"levelo://app?vid=6364f906-1312-4386-9d0b-333b4c035ced"},"vehicle_type_id":"4","last_reported":1747242567,"current_range_meters":11200,"station_id":"ce4bh4p2rcd13ifvqe1g","pricing_plan_id":"cebpf4jnsgd1na2vs0mg"},{"bike_id":"3253633f-1eff-46f8-b659-1eb3cc99745f","system_id":"levelo_inurba_marseille","lat":43.28414,"lon":5.34985,"is_reserved":false,"is_disabled":false,"rental_uris":{"android":"levelo://app?vid=3253633f-1eff-46f8-b659-1eb3cc99745f","ios":"levelo://app?vid=3253633f-1eff-46f8-b659-1eb3cc99745f"},"vehicle_type_id":"4","last_reported":1747242567,"current_range_meters":11200,"station_id":"ce4bhbh2rcd13ifvqepg","pricing_plan_id":"cebpf4jnsgd1na2vs0mg"},{"bike_id":"68d099ce-a980-4924-8b2b-7140c4bcbe95","system_id":"levelo_inurba_marseille","lat":43.26025,"lon":5.37552,"is_reserved":false,"is_disabled":false,"rental_uris":{"android":"levelo://app?vid=68d099ce-a980-4924-8b2b-7140c4bcbe95","ios":"levelo://app?vid=68d099ce-a980-4924-8b2b-7140c4bcbe95"},"vehicle_type_id":"4","last_reported":1747242567,"current_range_meters":11600,"station_id":"ce4bhgh2rcd13ifvqfa0","pricing_plan_id":"cebpf4jnsgd1na2vs0mg"},{"bike_id":"16435f26-27af-4088-9280-ba31e5e78c89","system_id":"levelo_inurba_marseille","lat":43.27835,"lon":5.39206,"is_reserved":false,"is_disabled":false,"rental_uris":{"android":"levelo://app?vid=16435f26-27af-4088-9280-ba31e5e78c89","ios":"levelo://app?vid=16435f26-27af-4088-9280-ba31e5e78c89"},"vehicle_type_id":"4","last_reported":1747242567,"current_range_meters":11600,"station_id":"ce4bhjp2rcd13ifvqga0","pricing_plan_id":"cebpf4jnsgd1na2vs0mg"},{"bike_id":"d512bfe0-9df5-416e-aa23-f3942aa60dd0","system_id":"levelo_inurba_marseille","lat":43.32333,"lon":5.40622,"is_reserved":false,"is_disabled":false,"rental_uris":{"android":"levelo://app?vid=d512bfe0-9df5-416e-aa23-f3942aa60dd0","ios":"levelo://app?vid=d512bfe0-9df5-416e-aa23-f3942aa60dd0"},"vehicle_type_id":"4","last_reported":1747242567,"current_range_meters":11600,"station_id":"ce4bhq92rcd13ifvqhjg","pricing_plan_id":"cebpf4jnsgd1na2vs0mg"},{"bike_id":"82258d17-2326-4fc9-8e26-2aaa9d0eaf3b","system_id":"levelo_inurba_marseille","lat":43.28413,"lon":5.34978,"is_reserved":false,"is_disabled":false,"rental_uris":{"android":"levelo://app?vid=82258d17-2326-4fc9-8e26-2aaa9d0eaf3b","ios":"levelo://app?vid=82258d17-2326-4fc9-8e26-2aaa9d0eaf3b"},"vehicle_type_id":"4","last_reported":1747242567,"current_range_meters":12000,"station_id":"ce4bhbh2rcd13ifvqepg","pricing_plan_id":"cebpf4jnsgd1na2vs0mg"},{"bike_id":"d428bd4c-2f0d-472a-85e1-ec1affa268e2","system_id":"levelo_inurba_marseille","lat":43.255,"lon":5.37658,"is_reserved":false,"is_disabled":false,"rental_uris":{"android":"levelo://app?vid=d428bd4c-2f0d-472a-85e1-ec1affa268e2","ios":"levelo://app?vid=d428bd4c-2f0d-472a-85e1-ec1affa268e2"},"vehicle_type_id":"4","last_reported":1747242567,"current_range_meters":12400,"station_id":"ce4bhh12rcd13ifvqff0","pricing_plan_id":"cebpf4jnsgd1na2vs0mg"},{"bike_id":"8fee008b-7418-4571-a80e-f8d42cf8499d","system_id":"levelo_inurba_marseille","lat":43.249894,"lon":5.389895,"is_reserved":false,"is_disabled":false,"rental_uris":{"android":"levelo://app?vid=8fee008b-7418-4571-a80e-f8d42cf8499d","ios":"levelo://app?vid=8fee008b-7418-4571-a80e-f8d42cf8499d"},"vehicle_type_id":"4","last_reported":1747242567,"current_range_meters":12800,"station_id":"ce4bhgp2rcd13ifvqfd0","pricing_plan_id":"cebpf4jnsgd1na2vs0mg"},{"bike_id":"fad91a23-5ed0-49f8-b77e-d000cb40472d","system_id":"levelo_inurba_marseille","lat":43.29333,"lon":5.37135,"is_reserved":false,"is_disabled":false,"rental_uris":{"android":"levelo://app?vid=fad91a23-5ed0-49f8-b77e-d000cb40472d","ios":"levelo://app?vid=fad91a23-5ed0-49f8-b77e-d000cb40472d"},"vehicle_type_id":"4","last_reported":1747242567,"current_range_meters":13600,"station_id":"ce4bgh92rcd13ifvqb40","pricing_plan_id":"cebpf4jnsgd1na2vs0mg"},{"bike_id":"588a7f8a-3692-457c-b36c-02803382d01e","system_id":"levelo_inurba_marseille","lat":43.29009,"lon":5.3561,"is_reserved":false,"is_disabled":false,"rental_uris":{"android":"levelo://app?vid=588a7f8a-3692-457c-b36c-02803382d01e","ios":"levelo://app?vid=588a7f8a-3692-457c-b36c-02803382d01e"},"vehicle_type_id":"4","last_reported":1747242567,"current_range_meters":13600,"station_id":"ce4bhb92rcd13ifvqen0","pricing_plan_id":"cebpf4jnsgd1na2vs0mg"},{"bike_id":"31d8c446-9250-439a-8661-55ebfd351a15","system_id":"levelo_inurba_marseille","lat":43.2418,"lon":5.39732,"is_reserved":false,"is_disabled":false,"rental_uris":{"android":"levelo://app?vid=31d8c446-9250-439a-8661-55ebfd351a15","ios":"levelo://app?vid=31d8c446-9250-439a-8661-55ebfd351a15"},"vehicle_type_id":"4","last_reported":1747242567,"current_range_meters":13600,"station_id":"ce4bhn12rcd13ifvqgpg","pricing_plan_id":"cebpf4jnsgd1na2vs0mg"},{"bike_id":"1c33db55-b950-4897-93a3-dcb0f8fff2f9","system_id":"levelo_inurba_marseille","lat":43.311707,"lon":5.387257,"is_reserved":false,"is_disabled":false,"rental_uris":{"android":"levelo://app?vid=1c33db55-b950-4897-93a3-dcb0f8fff2f9","ios":"levelo://app?vid=1c33db55-b950-4897-93a3-dcb0f8fff2f9"},"vehicle_type_id":"4","last_reported":1747242567,"current_range_meters":14000,"station_id":"ce4bgv12rcd13ifvqcp0","pricing_plan_id":"cebpf4jnsgd1na2vs0mg"},{"bike_id":"55ed95f7-b9ae-4c94-a88b-ec8c90b12ea7","system_id":"levelo_inurba_marseille","lat":43.292768,"lon":5.408741,"is_reserved":false,"is_disabled":false,"rental_uris":{"android":"levelo://app?vid=55ed95f7-b9ae-4c94-a88b-ec8c90b12ea7","ios":"levelo://app?vid=55ed95f7-b9ae-4c94-a88b-ec8c90b12ea7"},"vehicle_type_id":"4","last_reported":1747242567,"current_range_meters":14000,"station_id":"ce4bh192rcd13ifvqdc0","pricing_plan_id":"cebpf4jnsgd1na2vs0mg"},{"bike_id":"cb449aeb-63bf-4e11-a01d-928c7eea1054","system_id":"levelo_inurba_marseille","lat":43.28587,"lon":5.35114,"is_reserved":false,"is_disabled":false,"rental_uris":{"android":"levelo://app?vid=cb449aeb-63bf-4e11-a01d-928c7eea1054","ios":"levelo://app?vid=cb449aeb-63bf-4e11-a01d-928c7eea1054"},"vehicle_type_id":"4","last_reported":1747242567,"current_range_meters":14000,"station_id":"ce4bhch2rcd13ifvqeug","pricing_plan_id":"cebpf4jnsgd1na2vs0mg"},{"bike_id":"cbb8789e-fb44-4e38-9fe9-fa8542b0f69b","system_id":"levelo_inurba_marseille","lat":43.26208,"lon":5.3744,"is_reserved":false,"is_disabled":false,"rental_uris":{"android":"levelo://app?vid=cbb8789e-fb44-4e38-9fe9-fa8542b0f69b","ios":"levelo://app?vid=cbb8789e-fb44-4e38-9fe9-fa8542b0f69b"},"vehicle_type_id":"4","last_reported":1747242567,"current_range_meters":14000,"station_id":"ce4bhgp2rcd13ifvqfc0","pricing_plan_id":"cebpf4jnsgd1na2vs0mg"},{"bike_id":"17d57f58-ffb0-4d77-bbe5-7f462887ac74","system_id":"levelo_inurba_marseille","lat":43.24176,"lon":5.39709,"is_reserved":false,"is_disabled":false,"rental_uris":{"android":"levelo://app?vid=17d57f58-ffb0-4d77-bbe5-7f462887ac74","ios":"levelo://app?vid=17d57f58-ffb0-4d77-bbe5-7f462887ac74"},"vehicle_type_id":"4","last_reported":1747242567,"current_range_meters":14000,"station_id":"ce4bhn12rcd13ifvqgpg","pricing_plan_id":"cebpf4jnsgd1na2vs0mg"},{"bike_id":"af76b2e8-67fd-4ab4-84f2-6336f643664b","system_id":"levelo_inurba_marseille","lat":43.27992,"lon":5.4001,"is_reserved":false,"is_disabled":false,"rental_uris":{"android":"levelo://app?vid=af76b2e8-67fd-4ab4-84f2-6336f643664b","ios":"levelo://app?vid=af76b2e8-67fd-4ab4-84f2-6336f643664b"},"vehicle_type_id":"4","last_reported":1747242567,"current_range_meters":14000,"station_id":"ce4bho92rcd13ifvqh4g","pricing_plan_id":"cebpf4jnsgd1na2vs0mg"},{"bike_id":"9650bfac-92df-4917-8d5c-45edbeb7a77f","system_id":"levelo_inurba_marseille","lat":43.34134,"lon":5.40903,"is_reserved":false,"is_disabled":false,"rental_uris":{"android":"levelo://app?vid=9650bfac-92df-4917-8d5c-45edbeb7a77f","ios":"levelo://app?vid=9650bfac-92df-4917-8d5c-45edbeb7a77f"},"vehicle_type_id":"4","last_reported":1747242567,"current_range_meters":14000,"station_id":"ce4bhqh2rcd13ifvqhlg","pricing_plan_id":"cebpf4jnsgd1na2vs0mg"},{"bike_id":"68c9698d-e0b2-4d47-8e15-6546ae22877b","system_id":"levelo_inurba_marseille","lat":43.29417,"lon":5.38626,"is_reserved":false,"is_disabled":false,"rental_uris":{"android":"levelo://app?vid=68c9698d-e0b2-4d47-8e15-6546ae22877b","ios":"levelo://app?vid=68c9698d-e0b2-4d47-8e15-6546ae22877b"},"vehicle_type_id":"4","last_reported":1747242567,"current_range_meters":14400,"station_id":"ce4bh2h2rcd13ifvqdh0","pricing_plan_id":"cebpf4jnsgd1na2vs0mg"},{"bike_id":"f760859f-7fe4-4a0d-bae7-5e5cef845656","system_id":"levelo_inurba_marseille","lat":43.29414,"lon":5.38622,"is_reserved":false,"is_disabled":false,"rental_uris":{"android":"levelo://app?vid=f760859f-7fe4-4a0d-bae7-5e5cef845656","ios":"levelo://app?vid=f760859f-7fe4-4a0d-bae7-5e5cef845656"},"vehicle_type_id":"4","last_reported":1747242567,"current_range_meters":14800,"station_id":"ce4bh2h2rcd13ifvqdh0","pricing_plan_id":"cebpf4jnsgd1na2vs0mg"},{"bike_id":"aa4c1b32-e054-412d-bc5d-7262105d78c6","system_id":"levelo_inurba_marseille","lat":43.289368,"lon":5.366383,"is_reserved":false,"is_disabled":false,"rental_uris":{"android":"levelo://app?vid=aa4c1b32-e054-412d-bc5d-7262105d78c6","ios":"levelo://app?vid=aa4c1b32-e054-412d-bc5d-7262105d78c6"},"vehicle_type_id":"4","last_reported":1747242567,"current_range_meters":14800,"station_id":"ce4bhap2rcd13ifvqek0","pricing_plan_id":"cebpf4jnsgd1na2vs0mg"},{"bike_id":"3e91b56b-1970-48dc-abe1-ac5b4803f987","system_id":"levelo_inurba_marseille","lat":43.30644,"lon":5.40094,"is_reserved":false,"is_disabled":false,"rental_uris":{"android":"levelo://app?vid=3e91b56b-1970-48dc-abe1-ac5b4803f987","ios":"levelo://app?vid=3e91b56b-1970-48dc-abe1-ac5b4803f987"},"vehicle_type_id":"4","last_reported":1747242567,"current_range_meters":15200,"station_id":"ce4bh112rcd13ifvqda0","pricing_plan_id":"cebpf4jnsgd1na2vs0mg"},{"bike_id":"9d5afb3c-f65b-448d-87c7-27ca74bb18df","system_id":"levelo_inurba_marseille","lat":43.28999,"lon":5.35612,"is_reserved":false,"is_disabled":false,"rental_uris":{"android":"levelo://app?vid=9d5afb3c-f65b-448d-87c7-27ca74bb18df","ios":"levelo://app?vid=9d5afb3c-f65b-448d-87c7-27ca74bb18df"},"vehicle_type_id":"4","last_reported":1747242567,"current_range_meters":15200,"station_id":"ce4bhb92rcd13ifvqen0","pricing_plan_id":"cebpf4jnsgd1na2vs0mg"},{"bike_id":"ee4dd521-48ef-43e0-bb1a-2227825128ea","system_id":"levelo_inurba_marseille","lat":43.262082,"lon":5.374443,"is_reserved":false,"is_disabled":false,"rental_uris":{"android":"levelo://app?vid=ee4dd521-48ef-43e0-bb1a-2227825128ea","ios":"levelo://app?vid=ee4dd521-48ef-43e0-bb1a-2227825128ea"},"vehicle_type_id":"4","last_reported":1747242567,"current_range_meters":15200,"station_id":"ce4bhgp2rcd13ifvqfc0","pricing_plan_id":"cebpf4jnsgd1na2vs0mg"},{"bike_id":"7c16b07f-bb48-454e-8132-be553ff23ab6","system_id":"levelo_inurba_marseille","lat":43.24179,"lon":5.39734,"is_reserved":false,"is_disabled":false,"rental_uris":{"android":"levelo://app?vid=7c16b07f-bb48-454e-8132-be553ff23ab6","ios":"levelo://app?vid=7c16b07f-bb48-454e-8132-be553ff23ab6"},"vehicle_type_id":"4","last_reported":1747242567,"current_range_meters":15200,"station_id":"ce4bhn12rcd13ifvqgpg","pricing_plan_id":"cebpf4jnsgd1na2vs0mg"},{"bike_id":"839899bd-e07f-486a-9972-9ce6397a4fef","system_id":"levelo_inurba_marseille","lat":43.31714,"lon":5.437048,"is_reserved":false,"is_disabled":false,"rental_uris":{"android":"levelo://app?vid=839899bd-e07f-486a-9972-9ce6397a4fef","ios":"levelo://app?vid=839899bd-e07f-486a-9972-9ce6397a4fef"},"vehicle_type_id":"4","last_reported":1747242567,"current_range_meters":16000,"station_id":"","pricing_plan_id":"cebpf4jnsgd1na2vs0mg"},{"bike_id":"15a52ebb-aee3-4960-87bf-b2626b4a2dd3","system_id":"levelo_inurba_marseille","lat":43.310797,"lon":5.383476,"is_reserved":false,"is_disabled":false,"rental_uris":{"android":"levelo://app?vid=15a52ebb-aee3-4960-87bf-b2626b4a2dd3","ios":"levelo://app?vid=15a52ebb-aee3-4960-87bf-b2626b4a2dd3"},"vehicle_type_id":"4","last_reported":1747242567,"current_range_meters":16000,"station_id":"ce4bgv92rcd13ifvqcr0","pricing_plan_id":"cebpf4jnsgd1na2vs0mg"},{"bike_id":"0f213e5b-983d-4f81-bcb2-215c1254986b","system_id":"levelo_inurba_marseille","lat":43.28701,"lon":5.3739,"is_reserved":false,"is_disabled":false,"rental_uris":{"android":"levelo://app?vid=0f213e5b-983d-4f81-bcb2-215c1254986b","ios":"levelo://app?vid=0f213e5b-983d-4f81-bcb2-215c1254986b"},"vehicle_type_id":"4","last_reported":1747242567,"current_range_meters":16000,"station_id":"ce4bh3p2rcd13ifvqdq0","pricing_plan_id":"cebpf4jnsgd1na2vs0mg"},{"bike_id":"87564659-31a1-4901-8874-e9a60012572e","system_id":"levelo_inurba_marseille","lat":43.24993,"lon":5.38936,"is_reserved":false,"is_disabled":false,"rental_uris":{"android":"levelo://app?vid=87564659-31a1-4901-8874-e9a60012572e","ios":"levelo://app?vid=87564659-31a1-4901-8874-e9a60012572e"},"vehicle_type_id":"4","last_reported":1747242567,"current_range_meters":16000,"station_id":"ce4bhgp2rcd13ifvqfd0","pricing_plan_id":"cebpf4jnsgd1na2vs0mg"},{"bike_id":"2c764e9f-3304-4a59-ad95-4ff7422f58c2","system_id":"levelo_inurba_marseille","lat":43.255893,"lon":5.382337,"is_reserved":false,"is_disabled":false,"rental_uris":{"android":"levelo://app?vid=2c764e9f-3304-4a59-ad95-4ff7422f58c2","ios":"levelo://app?vid=2c764e9f-3304-4a59-ad95-4ff7422f58c2"},"vehicle_type_id":"4","last_reported":1747242567,"current_range_meters":16000,"station_id":"ce4bhih2rcd13ifvqfs0","pricing_plan_id":"cebpf4jnsgd1na2vs0mg"},{"bike_id":"d57741af-4d60-432c-a00a-aad6eff2320c","system_id":"levelo_inurba_marseille","lat":43.27997,"lon":5.4001,"is_reserved":false,"is_disabled":false,"rental_uris":{"android":"levelo://app?vid=d57741af-4d60-432c-a00a-aad6eff2320c","ios":"levelo://app?vid=d57741af-4d60-432c-a00a-aad6eff2320c"},"vehicle_type_id":"4","last_reported":1747242567,"current_range_meters":16000,"station_id":"ce4bho92rcd13ifvqh4g","pricing_plan_id":"cebpf4jnsgd1na2vs0mg"},{"bike_id":"99ebd90f-9356-4dc4-b925-d86d7123afa7","system_id":"levelo_inurba_marseille","lat":43.29774,"lon":5.39341,"is_reserved":false,"is_disabled":false,"rental_uris":{"android":"levelo://app?vid=99ebd90f-9356-4dc4-b925-d86d7123afa7","ios":"levelo://app?vid=99ebd90f-9356-4dc4-b925-d86d7123afa7"},"vehicle_type_id":"4","last_reported":1747242567,"current_range_meters":16000,"station_id":"chh1huq6cuj3fo74tm60","pricing_plan_id":"cebpf4jnsgd1na2vs0mg"},{"bike_id":"60d240d5-60d7-4fdf-bbcf-d54c7a78cedf","system_id":"levelo_inurba_marseille","lat":43.29574,"lon":5.39959,"is_reserved":false,"is_disabled":false,"rental_uris":{"android":"levelo://app?vid=60d240d5-60d7-4fdf-bbcf-d54c7a78cedf","ios":"levelo://app?vid=60d240d5-60d7-4fdf-bbcf-d54c7a78cedf"},"vehicle_type_id":"4","last_reported":1747242567,"current_range_meters":16400,"station_id":"ce4bh312rcd13ifvqdj0","pricing_plan_id":"cebpf4jnsgd1na2vs0mg"},{"bike_id":"fe51c369-7485-4246-b729-44be8db6bd91","system_id":"levelo_inurba_marseille","lat":43.26939,"lon":5.38932,"is_reserved":false,"is_disabled":false,"rental_uris":{"android":"levelo://app?vid=fe51c369-7485-4246-b729-44be8db6bd91","ios":"levelo://app?vid=fe51c369-7485-4246-b729-44be8db6bd91"},"vehicle_type_id":"4","last_reported":1747242567,"current_range_meters":16400,"station_id":"ce4bhhh2rcd13ifvqfl0","pricing_plan_id":"cebpf4jnsgd1na2vs0mg"},{"bike_id":"77a29338-5556-4205-9db9-a624ab9d00e5","system_id":"levelo_inurba_marseille","lat":43.24534,"lon":5.39524,"is_reserved":false,"is_disabled":false,"rental_uris":{"android":"levelo://app?vid=77a29338-5556-4205-9db9-a624ab9d00e5","ios":"levelo://app?vid=77a29338-5556-4205-9db9-a624ab9d00e5"},"vehicle_type_id":"4","last_reported":1747242567,"current_range_meters":16400,"station_id":"ce4bhlp2rcd13ifvqgjg","pricing_plan_id":"cebpf4jnsgd1na2vs0mg"},{"bike_id":"94425245-09df-4108-9a30-610dbcaf2585","system_id":"levelo_inurba_marseille","lat":43.31716,"lon":5.42401,"is_reserved":false,"is_disabled":false,"rental_uris":{"android":"levelo://app?vid=94425245-09df-4108-9a30-610dbcaf2585","ios":"levelo://app?vid=94425245-09df-4108-9a30-610dbcaf2585"},"vehicle_type_id":"4","last_reported":1747242567,"current_range_meters":16400,"station_id":"ce4bhp92rcd13ifvqhbg","pricing_plan_id":"cebpf4jnsgd1na2vs0mg"},{"bike_id":"fc21f0fb-365a-44c4-981d-ed2262f30ba7","system_id":"levelo_inurba_marseille","lat":43.286167,"lon":5.350982,"is_reserved":false,"is_disabled":false,"rental_uris":{"android":"levelo://app?vid=fc21f0fb-365a-44c4-981d-ed2262f30ba7","ios":"levelo://app?vid=fc21f0fb-365a-44c4-981d-ed2262f30ba7"},"vehicle_type_id":"4","last_reported":1747242567,"current_range_meters":16800,"station_id":"ce4bhch2rcd13ifvqeug","pricing_plan_id":"cebpf4jnsgd1na2vs0mg"},{"bike_id":"21f5a1a4-43c5-4049-8a8d-3146c5c35157","system_id":"levelo_inurba_marseille","lat":43.22929,"lon":5.3538,"is_reserved":false,"is_disabled":false,"rental_uris":{"android":"levelo://app?vid=21f5a1a4-43c5-4049-8a8d-3146c5c35157","ios":"levelo://app?vid=21f5a1a4-43c5-4049-8a8d-3146c5c35157"},"vehicle_type_id":"4","last_reported":1747242567,"current_range_meters":16800,"station_id":"cpo3532slgdg3j2ikp40","pricing_plan_id":"cebpf4jnsgd1na2vs0mg"},{"bike_id":"51da9a62-2abd-4dd0-a435-d199befe1e2d","system_id":"levelo_inurba_marseille","lat":43.299787,"lon":5.371813,"is_reserved":false,"is_disabled":false,"rental_uris":{"android":"levelo://app?vid=51da9a62-2abd-4dd0-a435-d199befe1e2d","ios":"levelo://app?vid=51da9a62-2abd-4dd0-a435-d199befe1e2d"},"vehicle_type_id":"4","last_reported":1747242567,"current_range_meters":17200,"station_id":"ce4bgr92rcd13ifvqc7g","pricing_plan_id":"cebpf4jnsgd1na2vs0mg"},{"bike_id":"201598a9-d6f8-476b-96ae-500e2fa4b2f9","system_id":"levelo_inurba_marseille","lat":43.29045,"lon":5.35919,"is_reserved":false,"is_disabled":false,"rental_uris":{"android":"levelo://app?vid=201598a9-d6f8-476b-96ae-500e2fa4b2f9","ios":"levelo://app?vid=201598a9-d6f8-476b-96ae-500e2fa4b2f9"},"vehicle_type_id":"4","last_reported":1747242567,"current_range_meters":17200,"station_id":"ce4bha92rcd13ifvqeg0","pricing_plan_id":"cebpf4jnsgd1na2vs0mg"},{"bike_id":"ba2442b9-6796-454a-bef4-537bcc20a741","system_id":"levelo_inurba_marseille","lat":43.29178,"lon":5.35799,"is_reserved":false,"is_disabled":false,"rental_uris":{"android":"levelo://app?vid=ba2442b9-6796-454a-bef4-537bcc20a741","ios":"levelo://app?vid=ba2442b9-6796-454a-bef4-537bcc20a741"},"vehicle_type_id":"4","last_reported":1747242567,"current_range_meters":17200,"station_id":"ce4bhb12rcd13ifvqel0","pricing_plan_id":"cebpf4jnsgd1na2vs0mg"},{"bike_id":"4810f7bc-d24f-441b-8f93-109abc282ac8","system_id":"levelo_inurba_marseille","lat":43.27367,"lon":5.36248,"is_reserved":false,"is_disabled":false,"rental_uris":{"android":"levelo://app?vid=4810f7bc-d24f-441b-8f93-109abc282ac8","ios":"levelo://app?vid=4810f7bc-d24f-441b-8f93-109abc282ac8"},"vehicle_type_id":"4","last_reported":1747242567,"current_range_meters":17200,"station_id":"ce4bhbh2rcd13ifvqeo0","pricing_plan_id":"cebpf4jnsgd1na2vs0mg"},{"bike_id":"60af0a7f-4cfd-4f77-8f2f-31f09c58ccf0","system_id":"levelo_inurba_marseille","lat":43.21742,"lon":5.34607,"is_reserved":false,"is_disabled":true,"rental_uris":{"android":"levelo://app?vid=60af0a7f-4cfd-4f77-8f2f-31f09c58ccf0","ios":"levelo://app?vid=60af0a7f-4cfd-4f77-8f2f-31f09c58ccf0"},"vehicle_type_id":"4","last_reported":1747242567,"current_range_meters":17200,"station_id":"st_cvj6r9ubvosntc0bgbag","pricing_plan_id":"cebpf4jnsgd1na2vs0mg"},{"bike_id":"d74dda0c-2ae8-4a20-aee3-80ba3b692d64","system_id":"levelo_inurba_marseille","lat":43.30463,"lon":5.37194,"is_reserved":false,"is_disabled":false,"rental_uris":{"android":"levelo://app?vid=d74dda0c-2ae8-4a20-aee3-80ba3b692d64","ios":"levelo://app?vid=d74dda0c-2ae8-4a20-aee3-80ba3b692d64"},"vehicle_type_id":"4","last_reported":1747242567,"current_range_meters":17600,"station_id":"","pricing_plan_id":"cebpf4jnsgd1na2vs0mg"},{"bike_id":"07e09384-d2d1-4239-bc35-86e4fb350fa9","system_id":"levelo_inurba_marseille","lat":43.313617,"lon":5.384878,"is_reserved":false,"is_disabled":false,"rental_uris":{"android":"levelo://app?vid=07e09384-d2d1-4239-bc35-86e4fb350fa9","ios":"levelo://app?vid=07e09384-d2d1-4239-bc35-86e4fb350fa9"},"vehicle_type_id":"4","last_reported":1747242567,"current_range_meters":17600,"station_id":"ce4bgt92rcd13ifvqcf0","pricing_plan_id":"cebpf4jnsgd1na2vs0mg"},{"bike_id":"2d80e88c-90a0-489d-b648-ec27fcfc946a","system_id":"levelo_inurba_marseille","lat":43.31358,"lon":5.38492,"is_reserved":false,"is_disabled":false,"rental_uris":{"android":"levelo://app?vid=2d80e88c-90a0-489d-b648-ec27fcfc946a","ios":"levelo://app?vid=2d80e88c-90a0-489d-b648-ec27fcfc946a"},"vehicle_type_id":"4","last_reported":1747242567,"current_range_meters":17600,"station_id":"ce4bgt92rcd13ifvqcf0","pricing_plan_id":"cebpf4jnsgd1na2vs0mg"},{"bike_id":"48d48b06-9b10-4e38-9e87-f7a3247d1e0a","system_id":"levelo_inurba_marseille","lat":43.28663,"lon":5.36343,"is_reserved":false,"is_disabled":false,"rental_uris":{"android":"levelo://app?vid=48d48b06-9b10-4e38-9e87-f7a3247d1e0a","ios":"levelo://app?vid=48d48b06-9b10-4e38-9e87-f7a3247d1e0a"},"vehicle_type_id":"4","last_reported":1747242567,"current_range_meters":17600,"station_id":"ce4bhah2rcd13ifvqej0","pricing_plan_id":"cebpf4jnsgd1na2vs0mg"},{"bike_id":"05727195-e7fd-4b6f-8b83-f2b2dd198eb2","system_id":"levelo_inurba_marseille","lat":43.29224,"lon":5.36059,"is_reserved":false,"is_disabled":false,"rental_uris":{"android":"levelo://app?vid=05727195-e7fd-4b6f-8b83-f2b2dd198eb2","ios":"levelo://app?vid=05727195-e7fd-4b6f-8b83-f2b2dd198eb2"},"vehicle_type_id":"4","last_reported":1747242567,"current_range_meters":17600,"station_id":"ce4bhbh2rcd13ifvqeqg","pricing_plan_id":"cebpf4jnsgd1na2vs0mg"},{"bike_id":"7d5b2d7c-a1e7-4840-8612-fc7adb49eb71","system_id":"levelo_inurba_marseille","lat":43.32479,"lon":5.36559,"is_reserved":false,"is_disabled":false,"rental_uris":{"android":"levelo://app?vid=7d5b2d7c-a1e7-4840-8612-fc7adb49eb71","ios":"levelo://app?vid=7d5b2d7c-a1e7-4840-8612-fc7adb49eb71"},"vehicle_type_id":"4","last_reported":1747242567,"current_range_meters":17600,"station_id":"ce4bhs12rcd13ifvqhvg","pricing_plan_id":"cebpf4jnsgd1na2vs0mg"},{"bike_id":"6a64700c-6ae5-45bc-95f9-14b751859228","system_id":"levelo_inurba_marseille","lat":43.26929,"lon":5.38922,"is_reserved":false,"is_disabled":false,"rental_uris":{"android":"levelo://app?vid=6a64700c-6ae5-45bc-95f9-14b751859228","ios":"levelo://app?vid=6a64700c-6ae5-45bc-95f9-14b751859228"},"vehicle_type_id":"4","last_reported":1747242567,"current_range_meters":18000,"station_id":"ce4bhhh2rcd13ifvqfl0","pricing_plan_id":"cebpf4jnsgd1na2vs0mg"},{"bike_id":"fbdef315-2e6d-4876-802d-2826a2c1dba8","system_id":"levelo_inurba_marseille","lat":43.31756,"lon":5.39018,"is_reserved":false,"is_disabled":false,"rental_uris":{"android":"levelo://app?vid=fbdef315-2e6d-4876-802d-2826a2c1dba8","ios":"levelo://app?vid=fbdef315-2e6d-4876-802d-2826a2c1dba8"},"vehicle_type_id":"4","last_reported":1747242567,"current_range_meters":18000,"station_id":"ce4bhqp2rcd13ifvqhng","pricing_plan_id":"cebpf4jnsgd1na2vs0mg"},{"bike_id":"c682a571-1b8e-42c7-82ff-72c8d128bd01","system_id":"levelo_inurba_marseille","lat":43.29895,"lon":5.38315,"is_reserved":false,"is_disabled":false,"rental_uris":{"android":"levelo://app?vid=c682a571-1b8e-42c7-82ff-72c8d128bd01","ios":"levelo://app?vid=c682a571-1b8e-42c7-82ff-72c8d128bd01"},"vehicle_type_id":"4","last_reported":1747242567,"current_range_meters":18800,"station_id":"","pricing_plan_id":"cebpf4jnsgd1na2vs0mg"},{"bike_id":"1def4d9e-ba54-4554-8279-72b57c0de750","system_id":"levelo_inurba_marseille","lat":43.337444,"lon":5.374475,"is_reserved":false,"is_disabled":false,"rental_uris":{"android":"levelo://app?vid=1def4d9e-ba54-4554-8279-72b57c0de750","ios":"levelo://app?vid=1def4d9e-ba54-4554-8279-72b57c0de750"},"vehicle_type_id":"4","last_reported":1747242567,"current_range_meters":18800,"station_id":"","pricing_plan_id":"cebpf4jnsgd1na2vs0mg"},{"bike_id":"626aadcd-e7e8-4d31-b946-14e0f15076dd","system_id":"levelo_inurba_marseille","lat":43.29529,"lon":5.39042,"is_reserved":false,"is_disabled":false,"rental_uris":{"android":"levelo://app?vid=626aadcd-e7e8-4d31-b946-14e0f15076dd","ios":"levelo://app?vid=626aadcd-e7e8-4d31-b946-14e0f15076dd"},"vehicle_type_id":"4","last_reported":1747242567,"current_range_meters":18800,"station_id":"","pricing_plan_id":"cebpf4jnsgd1na2vs0mg"},{"bike_id":"993f2a6a-5af9-42db-b77a-a5b785e3e768","system_id":"levelo_inurba_marseille","lat":43.31358,"lon":5.38504,"is_reserved":false,"is_disabled":false,"rental_uris":{"android":"levelo://app?vid=993f2a6a-5af9-42db-b77a-a5b785e3e768","ios":"levelo://app?vid=993f2a6a-5af9-42db-b77a-a5b785e3e768"},"vehicle_type_id":"4","last_reported":1747242567,"current_range_meters":18800,"station_id":"ce4bgt92rcd13ifvqcf0","pricing_plan_id":"cebpf4jnsgd1na2vs0mg"},{"bike_id":"41e288b6-be16-4387-a171-d4ca21b5868d","system_id":"levelo_inurba_marseille","lat":43.30215,"lon":5.39467,"is_reserved":false,"is_disabled":false,"rental_uris":{"android":"levelo://app?vid=41e288b6-be16-4387-a171-d4ca21b5868d","ios":"levelo://app?vid=41e288b6-be16-4387-a171-d4ca21b5868d"},"vehicle_type_id":"4","last_reported":1747242567,"current_range_meters":18800,"station_id":"ce4bh0p2rcd13ifvqd70","pricing_plan_id":"cebpf4jnsgd1na2vs0mg"},{"bike_id":"3a86f4cd-5042-4072-a9d2-5960ff67c0d9","system_id":"levelo_inurba_marseille","lat":43.29435,"lon":5.39761,"is_reserved":false,"is_disabled":false,"rental_uris":{"android":"levelo://app?vid=3a86f4cd-5042-4072-a9d2-5960ff67c0d9","ios":"levelo://app?vid=3a86f4cd-5042-4072-a9d2-5960ff67c0d9"},"vehicle_type_id":"4","last_reported":1747242567,"current_range_meters":18800,"station_id":"ce4bh3h2rcd13ifvqdo0","pricing_plan_id":"cebpf4jnsgd1na2vs0mg"},{"bike_id":"1bfbecd1-e2b4-4449-846a-8b38cff6b3fe","system_id":"levelo_inurba_marseille","lat":43.29191,"lon":5.358,"is_reserved":false,"is_disabled":false,"rental_uris":{"android":"levelo://app?vid=1bfbecd1-e2b4-4449-846a-8b38cff6b3fe","ios":"levelo://app?vid=1bfbecd1-e2b4-4449-846a-8b38cff6b3fe"},"vehicle_type_id":"4","last_reported":1747242567,"current_range_meters":18800,"station_id":"ce4bhb12rcd13ifvqel0","pricing_plan_id":"cebpf4jnsgd1na2vs0mg"},{"bike_id":"2327d0fb-2f37-464d-97d4-8dbd4a6cea60","system_id":"levelo_inurba_marseille","lat":43.27392,"lon":5.36275,"is_reserved":false,"is_disabled":false,"rental_uris":{"android":"levelo://app?vid=2327d0fb-2f37-464d-97d4-8dbd4a6cea60","ios":"levelo://app?vid=2327d0fb-2f37-464d-97d4-8dbd4a6cea60"},"vehicle_type_id":"4","last_reported":1747242567,"current_range_meters":18800,"station_id":"ce4bhbh2rcd13ifvqeo0","pricing_plan_id":"cebpf4jnsgd1na2vs0mg"},{"bike_id":"1b8cb79e-5647-4fa4-810c-710c7a644ed1","system_id":"levelo_inurba_marseille","lat":43.26184,"lon":5.37472,"is_reserved":false,"is_disabled":false,"rental_uris":{"android":"levelo://app?vid=1b8cb79e-5647-4fa4-810c-710c7a644ed1","ios":"levelo://app?vid=1b8cb79e-5647-4fa4-810c-710c7a644ed1"},"vehicle_type_id":"4","last_reported":1747242567,"current_range_meters":18800,"station_id":"ce4bhgp2rcd13ifvqfc0","pricing_plan_id":"cebpf4jnsgd1na2vs0mg"},{"bike_id":"d6f2d0ba-3e2c-4472-b813-cfe0ba2f990f","system_id":"levelo_inurba_marseille","lat":43.25495,"lon":5.37651,"is_reserved":false,"is_disabled":false,"rental_uris":{"android":"levelo://app?vid=d6f2d0ba-3e2c-4472-b813-cfe0ba2f990f","ios":"levelo://app?vid=d6f2d0ba-3e2c-4472-b813-cfe0ba2f990f"},"vehicle_type_id":"4","last_reported":1747242567,"current_range_meters":18800,"station_id":"ce4bhh12rcd13ifvqff0","pricing_plan_id":"cebpf4jnsgd1na2vs0mg"},{"bike_id":"07c2956b-46e0-412e-badb-b0e591259455","system_id":"levelo_inurba_marseille","lat":43.23966,"lon":5.36629,"is_reserved":false,"is_disabled":false,"rental_uris":{"android":"levelo://app?vid=07c2956b-46e0-412e-badb-b0e591259455","ios":"levelo://app?vid=07c2956b-46e0-412e-badb-b0e591259455"},"vehicle_type_id":"4","last_reported":1747242567,"current_range_meters":18800,"station_id":"ce4bhi12rcd13ifvqfp0","pricing_plan_id":"cebpf4jnsgd1na2vs0mg"},{"bike_id":"c8a41c94-e2b0-4958-85c4-f8d81a837534","system_id":"levelo_inurba_marseille","lat":43.24554,"lon":5.39512,"is_reserved":false,"is_disabled":false,"rental_uris":{"android":"levelo://app?vid=c8a41c94-e2b0-4958-85c4-f8d81a837534","ios":"levelo://app?vid=c8a41c94-e2b0-4958-85c4-f8d81a837534"},"vehicle_type_id":"4","last_reported":1747242567,"current_range_meters":18800,"station_id":"ce4bhlp2rcd13ifvqgjg","pricing_plan_id":"cebpf4jnsgd1na2vs0mg"},{"bike_id":"a97e7f2f-a4bd-43dc-a4a3-f47c4b150cbd","system_id":"levelo_inurba_marseille","lat":43.24177,"lon":5.39722,"is_reserved":false,"is_disabled":false,"rental_uris":{"android":"levelo://app?vid=a97e7f2f-a4bd-43dc-a4a3-f47c4b150cbd","ios":"levelo://app?vid=a97e7f2f-a4bd-43dc-a4a3-f47c4b150cbd"},"vehicle_type_id":"4","last_reported":1747242567,"current_range_meters":19200,"station_id":"ce4bhn12rcd13ifvqgpg","pricing_plan_id":"cebpf4jnsgd1na2vs0mg"},{"bike_id":"fd03d86f-7860-42a9-af8f-686fd40fd31c","system_id":"levelo_inurba_marseille","lat":43.28723,"lon":5.36087,"is_reserved":false,"is_disabled":false,"rental_uris":{"android":"levelo://app?vid=fd03d86f-7860-42a9-af8f-686fd40fd31c","ios":"levelo://app?vid=fd03d86f-7860-42a9-af8f-686fd40fd31c"},"vehicle_type_id":"4","last_reported":1747242567,"current_range_meters":19200,"station_id":"cki0cbj6b192h4jlfktg","pricing_plan_id":"cebpf4jnsgd1na2vs0mg"},{"bike_id":"59605dfb-d122-420a-a0a7-b4c0a52441ce","system_id":"levelo_inurba_marseille","lat":43.311859,"lon":5.387135,"is_reserved":false,"is_disabled":false,"rental_uris":{"android":"levelo://app?vid=59605dfb-d122-420a-a0a7-b4c0a52441ce","ios":"levelo://app?vid=59605dfb-d122-420a-a0a7-b4c0a52441ce"},"vehicle_type_id":"4","last_reported":1747242567,"current_range_meters":19600,"station_id":"ce4bgv12rcd13ifvqcp0","pricing_plan_id":"cebpf4jnsgd1na2vs0mg"},{"bike_id":"3510939f-7cd9-4aa4-b8cb-9520e70f17e7","system_id":"levelo_inurba_marseille","lat":43.284209,"lon":5.349891,"is_reserved":false,"is_disabled":false,"rental_uris":{"android":"levelo://app?vid=3510939f-7cd9-4aa4-b8cb-9520e70f17e7","ios":"levelo://app?vid=3510939f-7cd9-4aa4-b8cb-9520e70f17e7"},"vehicle_type_id":"4","last_reported":1747242567,"current_range_meters":19600,"station_id":"ce4bhbh2rcd13ifvqepg","pricing_plan_id":"cebpf4jnsgd1na2vs0mg"},{"bike_id":"1b647660-4d45-4234-8277-8149dfef04d1","system_id":"levelo_inurba_marseille","lat":43.26555,"lon":5.37285,"is_reserved":false,"is_disabled":false,"rental_uris":{"android":"levelo://app?vid=1b647660-4d45-4234-8277-8149dfef04d1","ios":"levelo://app?vid=1b647660-4d45-4234-8277-8149dfef04d1"},"vehicle_type_id":"4","last_reported":1747242567,"current_range_meters":19600,"station_id":"ce4bhg12rcd13ifvqf70","pricing_plan_id":"cebpf4jnsgd1na2vs0mg"},{"bike_id":"be44c651-ab2b-49d5-ba0f-888b7b58bdb4","system_id":"levelo_inurba_marseille","lat":43.262,"lon":5.37929,"is_reserved":false,"is_disabled":false,"rental_uris":{"android":"levelo://app?vid=be44c651-ab2b-49d5-ba0f-888b7b58bdb4","ios":"levelo://app?vid=be44c651-ab2b-49d5-ba0f-888b7b58bdb4"},"vehicle_type_id":"4","last_reported":1747242567,"current_range_meters":19600,"station_id":"ce4bhjp2rcd13ifvqg90","pricing_plan_id":"cebpf4jnsgd1na2vs0mg"},{"bike_id":"b5dcfe0e-8818-407a-900e-96868b98b060","system_id":"levelo_inurba_marseille","lat":43.27191,"lon":5.40993,"is_reserved":false,"is_disabled":false,"rental_uris":{"android":"levelo://app?vid=b5dcfe0e-8818-407a-900e-96868b98b060","ios":"levelo://app?vid=b5dcfe0e-8818-407a-900e-96868b98b060"},"vehicle_type_id":"4","last_reported":1747242567,"current_range_meters":19600,"station_id":"ce4bhl12rcd13ifvqgf0","pricing_plan_id":"cebpf4jnsgd1na2vs0mg"},{"bike_id":"623fa48d-fb0d-4afe-9ed4-d142a50accde","system_id":"levelo_inurba_marseille","lat":43.25934,"lon":5.40905,"is_reserved":false,"is_disabled":false,"rental_uris":{"android":"levelo://app?vid=623fa48d-fb0d-4afe-9ed4-d142a50accde","ios":"levelo://app?vid=623fa48d-fb0d-4afe-9ed4-d142a50accde"},"vehicle_type_id":"4","last_reported":1747242567,"current_range_meters":19600,"station_id":"ce4bhm92rcd13ifvqglg","pricing_plan_id":"cebpf4jnsgd1na2vs0mg"},{"bike_id":"8c7308bf-84fd-4edb-9b86-07fbeaf5e51b","system_id":"levelo_inurba_marseille","lat":43.317221,"lon":5.423949,"is_reserved":false,"is_disabled":false,"rental_uris":{"android":"levelo://app?vid=8c7308bf-84fd-4edb-9b86-07fbeaf5e51b","ios":"levelo://app?vid=8c7308bf-84fd-4edb-9b86-07fbeaf5e51b"},"vehicle_type_id":"4","last_reported":1747242567,"current_range_meters":19600,"station_id":"ce4bhp92rcd13ifvqhbg","pricing_plan_id":"cebpf4jnsgd1na2vs0mg"},{"bike_id":"b5099346-9346-418e-8205-253fe95c652e","system_id":"levelo_inurba_marseille","lat":43.337145,"lon":5.39181,"is_reserved":false,"is_disabled":false,"rental_uris":{"android":"levelo://app?vid=b5099346-9346-418e-8205-253fe95c652e","ios":"levelo://app?vid=b5099346-9346-418e-8205-253fe95c652e"},"vehicle_type_id":"4","last_reported":1747242567,"current_range_meters":19600,"station_id":"ce4bhr92rcd13ifvqhsg","pricing_plan_id":"cebpf4jnsgd1na2vs0mg"},{"bike_id":"26dbddce-70fb-44ed-a844-53cf8aef39d4","system_id":"levelo_inurba_marseille","lat":43.297897,"lon":5.39339,"is_reserved":false,"is_disabled":false,"rental_uris":{"android":"levelo://app?vid=26dbddce-70fb-44ed-a844-53cf8aef39d4","ios":"levelo://app?vid=26dbddce-70fb-44ed-a844-53cf8aef39d4"},"vehicle_type_id":"4","last_reported":1747242567,"current_range_meters":19600,"station_id":"chh1huq6cuj3fo74tm60","pricing_plan_id":"cebpf4jnsgd1na2vs0mg"},{"bike_id":"8151d7f8-af3c-4093-b86f-b666c121a075","system_id":"levelo_inurba_marseille","lat":43.29774,"lon":5.39335,"is_reserved":false,"is_disabled":false,"rental_uris":{"android":"levelo://app?vid=8151d7f8-af3c-4093-b86f-b666c121a075","ios":"levelo://app?vid=8151d7f8-af3c-4093-b86f-b666c121a075"},"vehicle_type_id":"4","last_reported":1747242567,"current_range_meters":19600,"station_id":"chh1huq6cuj3fo74tm60","pricing_plan_id":"cebpf4jnsgd1na2vs0mg"},{"bike_id":"9a402898-f116-408b-8709-c62dd77d2b5d","system_id":"levelo_inurba_marseille","lat":43.29371,"lon":5.42822,"is_reserved":false,"is_disabled":false,"rental_uris":{"android":"levelo://app?vid=9a402898-f116-408b-8709-c62dd77d2b5d","ios":"levelo://app?vid=9a402898-f116-408b-8709-c62dd77d2b5d"},"vehicle_type_id":"4","last_reported":1747242567,"current_range_meters":20000,"station_id":"","pricing_plan_id":"cebpf4jnsgd1na2vs0mg"},