{"last_updated":1740708905,"ttl":60,"version":"2.2","data":{"bikes":[{"bike_id":"f98a804c-537c-41bb-9782-3da5bcf6e43a","system_id":"levelo_inurba_marseille","lat":43.27943,"lon":5.41038,"is_reserved":false,"is_disabled":false,"rental_uris":{"android":"levelo://app?vid=f98a804c-537c-41bb-9782-3da5bcf6e43a","ios":"levelo://app?vid=f98a804c-537c-41bb-9782-3da5bcf6e43a"},"vehicle_type_id":"4","last_reported":1740708905,"current_range_meters":2800,"station_id":"ce4bhnp2rcd13ifvqh0g","pricing_plan_id":"cebpf4jnsgd1na2vs0mg"},{"bike_id":"ae23d63f-1813-4ce3-9f00-de91edb6a690","system_id":"levelo_inurba_marseille","lat":43.29218,"lon":5.36061,"is_reserved":false,"is_disabled":false,"rental_uris":{"android":"levelo://app?vid=ae23d63f-1813-4ce3-9f00-de91edb6a690","ios":"levelo://app?vid=ae23d63f-1813-4ce3-9f00-de91edb6a690"},"vehicle_type_id":"4","last_reported":1740708905,"current_range_meters":3600,"station_id":"ce4bhbh2rcd13ifvqeqg","pricing_plan_id":"cebpf4jnsgd1na2vs0mg"},{"bike_id":"0cb11e86-cfab-45a8-8b58-db0ea4d88767","system_id":"levelo_inurba_marseille","lat":43.2321,"lon":5.39974,"is_reserved":false,"is_disabled":false,"rental_uris":{"android":"levelo://app?vid=0cb11e86-cfab-45a8-8b58-db0ea4d88767","ios":"levelo://app?vid=0cb11e86-cfab-45a8-8b58-db0ea4d88767"},"vehicle_type_id":"4","last_reported":1740708905,"current_range_meters":3600,"station_id":"ce4bhn12rcd13ifvqgqg","pricing_plan_id":"cebpf4jnsgd1na2vs0mg"},{"bike_id":"df3becdc-efe5-428b-ad3b-9a5b04af2ecf","system_id":"levelo_inurba_marseille","lat":43.28034,"lon":5.36943,"is_reserved":false,"is_disabled":false,"rental_uris":{"android":"levelo://app?vid=df3becdc-efe5-428b-ad3b-9a5b04af2ecf","ios":"levelo://app?vid=df3becdc-efe5-428b-ad3b-9a5b04af2ecf"},"vehicle_type_id":"4","last_reported":1740708905,"current_range_meters":3600,"station_id":"ce4bha12rcd13ifvqef0","pricing_plan_id":"cebpf4jnsgd1na2vs0mg"},{"bike_id":"72bb654d-c920-45b8-9a6a-d2fa34f83e45","system_id":"levelo_inurba_marseille","lat":43.29891,"lon":5.39736,"is_reserved":false,"is_disabled":false,"rental_uris":{"android":"levelo://app?vid=72bb654d-c920-45b8-9a6a-d2fa34f83e45","ios":"levelo://app?vid=72bb654d-c920-45b8-9a6a-d2fa34f83e45"},"vehicle_type_id":"4","last_reported":1740708905,"current_range_meters":4400,"station_id":"ce4bh0h2rcd13ifvqd50","pricing_plan_id":"cebpf4jnsgd1na2vs0mg"},{"bike_id":"9a856497-c934-4033-b63d-0ba70164c8c9","system_id":"levelo_inurba_marseille","lat":43.29575,"lon":5.39975,"is_reserved":false,"is_disabled":false,"rental_uris":{"android":"levelo://app?vid=9a856497-c934-4033-b63d-0ba70164c8c9","ios":"levelo://app?vid=9a856497-c934-4033-b63d-0ba70164c8c9"},"vehicle_type_id":"4","last_reported":1740708905,"current_range_meters":4000,"station_id":"ce4bh312rcd13ifvqdj0","pricing_plan_id":"cebpf4jnsgd1na2vs0mg"},{"bike_id":"27d8afbe-40d9-4464-a964-dcde203d2cc3","system_id":"levelo_inurba_marseille","lat":43.28422,"lon":5.37514,"is_reserved":false,"is_disabled":false,"rental_uris":{"android":"levelo://app?vid=27d8afbe-40d9-4464-a964-dcde203d2cc3","ios":"levelo://app?vid=27d8afbe-40d9-4464-a964-dcde203d2cc3"},"vehicle_type_id":"4","last_reported":1740708905,"current_range_meters":4400,"station_id":"ce4bh412rcd13ifvqds0","pricing_plan_id":"cebpf4jnsgd1na2vs0mg"},{"bike_id":"7560142c-45ea-4aa6-bd5b-a0c4eb95844b","system_id":"levelo_inurba_marseille","lat":43.270571,"lon":5.402604,"is_reserved":false,"is_disabled":true,"rental_uris":{"android":"levelo://app?vid=7560142c-45ea-4aa6-bd5b-a0c4eb95844b","ios":"levelo://app?vid=7560142c-45ea-4aa6-bd5b-a0c4eb95844b"},"vehicle_type_id":"4","last_reported":1740708905,"current_range_meters":4800,"station_id":"ce4bhk92rcd13ifvqgc0","pricing_plan_id":"cebpf4jnsgd1na2vs0mg"},{"bike_id":"efcdfe96-8261-42a6-9b17-32376c0bcb93","system_id":"levelo_inurba_marseille","lat":43.23186,"lon":5.39963,"is_reserved":false,"is_disabled":false,"rental_uris":{"android":"levelo://app?vid=efcdfe96-8261-42a6-9b17-32376c0bcb93","ios":"levelo://app?vid=efcdfe96-8261-42a6-9b17-32376c0bcb93"},"vehicle_type_id":"4","last_reported":1740708905,"current_range_meters":4800,"station_id":"ce4bhn12rcd13ifvqgqg","pricing_plan_id":"cebpf4jnsgd1na2vs0mg"},{"bike_id":"349c5580-a9fe-4317-a068-111838c4f071","system_id":"levelo_inurba_marseille","lat":43.25855,"lon":5.39893,"is_reserved":false,"is_disabled":false,"rental_uris":{"android":"levelo://app?vid=349c5580-a9fe-4317-a068-111838c4f071","ios":"levelo://app?vid=349c5580-a9fe-4317-a068-111838c4f071"},"vehicle_type_id":"4","last_reported":1740708905,"current_range_meters":4800,"station_id":"ce4bhl92rcd13ifvqghg","pricing_plan_id":"cebpf4jnsgd1na2vs0mg"},{"bike_id":"6c9f518e-bfe0-4cde-9178-00be7a58360c","system_id":"levelo_inurba_marseille","lat":43.28702,"lon":5.37379,"is_reserved":false,"is_disabled":false,"rental_uris":{"android":"levelo://app?vid=6c9f518e-bfe0-4cde-9178-00be7a58360c","ios":"levelo://app?vid=6c9f518e-bfe0-4cde-9178-00be7a58360c"},"vehicle_type_id":"4","last_reported":1740708905,"current_range_meters":5600,"station_id":"ce4bh3p2rcd13ifvqdq0","pricing_plan_id":"cebpf4jnsgd1na2vs0mg"},{"bike_id":"2f1620c1-4977-4286-9c6f-722ba5b8ffba","system_id":"levelo_inurba_marseille","lat":43.30458,"lon":5.37913,"is_reserved":false,"is_disabled":false,"rental_uris":{"android":"levelo://app?vid=2f1620c1-4977-4286-9c6f-722ba5b8ffba","ios":"levelo://app?vid=2f1620c1-4977-4286-9c6f-722ba5b8ffba"},"vehicle_type_id":"4","last_reported":1740708905,"current_range_meters":5600,"station_id":"ce4bgup2rcd13ifvqcn0","pricing_plan_id":"cebpf4jnsgd1na2vs0mg"},{"bike_id":"3aed6401-30fa-417b-b1f4-fed91c185d13","system_id":"levelo_inurba_marseille","lat":43.27936,"lon":5.41039,"is_reserved":false,"is_disabled":false,"rental_uris":{"android":"levelo://app?vid=3aed6401-30fa-417b-b1f4-fed91c185d13","ios":"levelo://app?vid=3aed6401-30fa-417b-b1f4-fed91c185d13"},"vehicle_type_id":"4","last_reported":1740708905,"current_range_meters":5600,"station_id":"ce4bhnp2rcd13ifvqh0g","pricing_plan_id":"cebpf4jnsgd1na2vs0mg"},{"bike_id":"6df9390a-5e58-4956-be28-22b5b6734565","system_id":"levelo_inurba_marseille","lat":43.25091,"lon":5.3952,"is_reserved":false,"is_disabled":false,"rental_uris":{"android":"levelo://app?vid=6df9390a-5e58-4956-be28-22b5b6734565","ios":"levelo://app?vid=6df9390a-5e58-4956-be28-22b5b6734565"},"vehicle_type_id":"4","last_reported":1740708905,"current_range_meters":6000,"station_id":"ce4bhm12rcd13ifvqgkg","pricing_plan_id":"cebpf4jnsgd1na2vs0mg"},{"bike_id":"9a84ba8d-6006-4d8f-b6f9-44b7d71c42c6","system_id":"levelo_inurba_marseille","lat":43.28699,"lon":5.37381,"is_reserved":false,"is_disabled":true,"rental_uris":{"android":"levelo://app?vid=9a84ba8d-6006-4d8f-b6f9-44b7d71c42c6","ios":"levelo://app?vid=9a84ba8d-6006-4d8f-b6f9-44b7d71c42c6"},"vehicle_type_id":"4","last_reported":1740708905,"current_range_meters":6000,"station_id":"ce4bh3p2rcd13ifvqdq0","pricing_plan_id":"cebpf4jnsgd1na2vs0mg"},{"bike_id":"f10f9796-7541-497b-b6e6-805f6c2689ac","system_id":"levelo_inurba_marseille","lat":43.24656,"lon":5.38149,"is_reserved":false,"is_disabled":false,"rental_uris":{"android":"levelo://app?vid=f10f9796-7541-497b-b6e6-805f6c2689ac","ios":"levelo://app?vid=f10f9796-7541-497b-b6e6-805f6c2689ac"},"vehicle_type_id":"4","last_reported":1740708905,"current_range_meters":6400,"station_id":"ce4bhih2rcd13ifvqfr0","pricing_plan_id":"cebpf4jnsgd1na2vs0mg"},{"bike_id":"55d98fc5-066e-4e9e-aaf7-5977c81a7397","system_id":"levelo_inurba_marseille","lat":43.27957,"lon":5.41028,"is_reserved":false,"is_disabled":false,"rental_uris":{"android":"levelo://app?vid=55d98fc5-066e-4e9e-aaf7-5977c81a7397","ios":"levelo://app?vid=55d98fc5-066e-4e9e-aaf7-5977c81a7397"},"vehicle_type_id":"4","last_reported":1740708905,"current_range_meters":6400,"station_id":"ce4bhnp2rcd13ifvqh0g","pricing_plan_id":"cebpf4jnsgd1na2vs0mg"},{"bike_id":"648c73d2-76f4-4b5a-ad73-ad931e5b2531","system_id":"levelo_inurba_marseille","lat":43.23962,"lon":5.36633,"is_reserved":false,"is_disabled":false,"rental_uris":{"android":"levelo://app?vid=648c73d2-76f4-4b5a-ad73-ad931e5b2531","ios":"levelo://app?vid=648c73d2-76f4-4b5a-ad73-ad931e5b2531"},"vehicle_type_id":"4","last_reported":1740708905,"current_range_meters":6800,"station_id":"ce4bhi12rcd13ifvqfp0","pricing_plan_id":"cebpf4jnsgd1na2vs0mg"},{"bike_id":"d791a742-4738-47cb-9fe6-27aeeea41532","system_id":"levelo_inurba_marseille","lat":43.30641,"lon":5.40083,"is_reserved":false,"is_disabled":false,"rental_uris":{"android":"levelo://app?vid=d791a742-4738-47cb-9fe6-27aeeea41532","ios":"levelo://app?vid=d791a742-4738-47cb-9fe6-27aeeea41532"},"vehicle_type_id":"4","last_reported":1740708905,"current_range_meters":6800,"station_id":"ce4bh112rcd13ifvqda0","pricing_plan_id":"cebpf4jnsgd1na2vs0mg"},{"bike_id":"8b12f042-66ff-4f72-8110-b87f1cf65c0b","system_id":"levelo_inurba_marseille","lat":43.334121,"lon":5.400236,"is_reserved":false,"is_disabled":false,"rental_uris":{"android":"levelo://app?vid=8b12f042-66ff-4f72-8110-b87f1cf65c0b","ios":"levelo://app?vid=8b12f042-66ff-4f72-8110-b87f1cf65c0b"},"vehicle_type_id":"4","last_reported":1740708905,"current_range_meters":6800,"station_id":"","pricing_plan_id":"cebpf4jnsgd1na2vs0mg"},{"bike_id":"e3adc843-e96a-459a-aa22-fea1af7ce873","system_id":"levelo_inurba_marseille","lat":43.279326,"lon":5.410459,"is_reserved":false,"is_disabled":false,"rental_uris":{"android":"levelo://app?vid=e3adc843-e96a-459a-aa22-fea1af7ce873","ios":"levelo://app?vid=e3adc843-e96a-459a-aa22-fea1af7ce873"},"vehicle_type_id":"4","last_reported":1740708905,"current_range_meters":6800,"station_id":"ce4bhnp2rcd13ifvqh0g","pricing_plan_id":"cebpf4jnsgd1na2vs0mg"},{"bike_id":"3a4c6c0b-a3ea-4e0d-8e18-11a05a543de9","system_id":"levelo_inurba_marseille","lat":43.27912,"lon":5.37976,"is_reserved":false,"is_disabled":false,"rental_uris":{"android":"levelo://app?vid=3a4c6c0b-a3ea-4e0d-8e18-11a05a543de9","ios":"levelo://app?vid=3a4c6c0b-a3ea-4e0d-8e18-11a05a543de9"},"vehicle_type_id":"4","last_reported":1740708905,"current_range_meters":6800,"station_id":"ce4bhf92rcd13ifvqf50","pricing_plan_id":"cebpf4jnsgd1na2vs0mg"},{"bike_id":"156d43f7-93cf-4af6-9cfe-5571ff46365a","system_id":"levelo_inurba_marseille","lat":43.30772,"lon":5.42815,"is_reserved":false,"is_disabled":false,"rental_uris":{"android":"levelo://app?vid=156d43f7-93cf-4af6-9cfe-5571ff46365a","ios":"levelo://app?vid=156d43f7-93cf-4af6-9cfe-5571ff46365a"},"vehicle_type_id":"4","last_reported":1740708905,"current_range_meters":7200,"station_id":"","pricing_plan_id":"cebpf4jnsgd1na2vs0mg"},{"bike_id":"6fdd59a0-9c6b-4ad2-9ef9-ddd09cdf5532","system_id":"levelo_inurba_marseille","lat":43.30603,"lon":5.39345,"is_reserved":false,"is_disabled":false,"rental_uris":{"android":"levelo://app?vid=6fdd59a0-9c6b-4ad2-9ef9-ddd09cdf5532","ios":"levelo://app?vid=6fdd59a0-9c6b-4ad2-9ef9-ddd09cdf5532"},"vehicle_type_id":"4","last_reported":1740708905,"current_range_meters":7200,"station_id":"ce4bh0p2rcd13ifvqd80","pricing_plan_id":"cebpf4jnsgd1na2vs0mg"},{"bike_id":"cca9eb23-5c2c-40fe-9866-9db09bf838b1","system_id":"levelo_inurba_marseille","lat":43.29227,"lon":5.36072,"is_reserved":false,"is_disabled":false,"rental_uris":{"android":"levelo://app?vid=cca9eb23-5c2c-40fe-9866-9db09bf838b1","ios":"levelo://app?vid=cca9eb23-5c2c-40fe-9866-9db09bf838b1"},"vehicle_type_id":"4","last_reported":1740708905,"current_range_meters":7200,"station_id":"ce4bhbh2rcd13ifvqeqg","pricing_plan_id":"cebpf4jnsgd1na2vs0mg"},{"bike_id":"8c9a3ee7-664d-49c8-a3ea-02dab608b060","system_id":"levelo_inurba_marseille","lat":43.31699,"lon":5.37743,"is_reserved":false,"is_disabled":false,"rental_uris":{"android":"levelo://app?vid=8c9a3ee7-664d-49c8-a3ea-02dab608b060","ios":"levelo://app?vid=8c9a3ee7-664d-49c8-a3ea-02dab608b060"},"vehicle_type_id":"4","last_reported":1740708905,"current_range_meters":7200,"station_id":"ce4bgth2rcd13ifvqch0","pricing_plan_id":"cebpf4jnsgd1na2vs0mg"},{"bike_id":"6ddd3b57-a8ac-48bb-9cf7-9a1f25693e2a","system_id":"levelo_inurba_marseille","lat":43.30322,"lon":5.40447,"is_reserved":false,"is_disabled":false,"rental_uris":{"android":"levelo://app?vid=6ddd3b57-a8ac-48bb-9cf7-9a1f25693e2a","ios":"levelo://app?vid=6ddd3b57-a8ac-48bb-9cf7-9a1f25693e2a"},"vehicle_type_id":"4","last_reported":1740708905,"current_range_meters":7200,"station_id":"ce4bh012rcd13ifvqd10","pricing_plan_id":"cebpf4jnsgd1na2vs0mg"},{"bike_id":"39369c67-b6b1-4351-9f37-e16f04ac94c9","system_id":"levelo_inurba_marseille","lat":43.23191,"lon":5.35558,"is_reserved":false,"is_disabled":false,"rental_uris":{"android":"levelo://app?vid=39369c67-b6b1-4351-9f37-e16f04ac94c9","ios":"levelo://app?vid=39369c67-b6b1-4351-9f37-e16f04ac94c9"},"vehicle_type_id":"4","last_reported":1740708905,"current_range_meters":7200,"station_id":"ce4bhu92rcd13ifvqi70","pricing_plan_id":"cebpf4jnsgd1na2vs0mg"},{"bike_id":"ea8cb564-d405-42e3-911c-0afdd772ee76","system_id":"levelo_inurba_marseille","lat":43.327733,"lon":5.392064,"is_reserved":false,"is_disabled":false,"rental_uris":{"android":"levelo://app?vid=ea8cb564-d405-42e3-911c-0afdd772ee76","ios":"levelo://app?vid=ea8cb564-d405-42e3-911c-0afdd772ee76"},"vehicle_type_id":"4","last_reported":1740708905,"current_range_meters":7200,"station_id":"","pricing_plan_id":"cebpf4jnsgd1na2vs0mg"},{"bike_id":"d9fbfe98-de68-48fc-a6ac-6e6eaeb5062a","system_id":"levelo_inurba_marseille","lat":43.24828,"lon":5.37436,"is_reserved":false,"is_disabled":false,"rental_uris":{"android":"levelo://app?vid=d9fbfe98-de68-48fc-a6ac-6e6eaeb5062a","ios":"levelo://app?vid=d9fbfe98-de68-48fc-a6ac-6e6eaeb5062a"},"vehicle_type_id":"4","last_reported":1740708905,"current_range_meters":7200,"station_id":"ce4bhgh2rcd13ifvqfb0","pricing_plan_id":"cebpf4jnsgd1na2vs0mg"},{"bike_id":"7602238f-050e-44bc-be85-4e78a6c8dee0","system_id":"levelo_inurba_marseille","lat":43.29981,"lon":5.41322,"is_reserved":false,"is_disabled":false,"rental_uris":{"android":"levelo://app?vid=7602238f-050e-44bc-be85-4e78a6c8dee0","ios":"levelo://app?vid=7602238f-050e-44bc-be85-4e78a6c8dee0"},"vehicle_type_id":"4","last_reported":1740708905,"current_range_meters":6800,"station_id":"ce4bhp12rcd13ifvqh9g","pricing_plan_id":"cebpf4jnsgd1na2vs0mg"},{"bike_id":"a8b0e7d0-7a65-4b99-ad9a-1cb63a777064","system_id":"levelo_inurba_marseille","lat":43.2842,"lon":5.37534,"is_reserved":false,"is_disabled":false,"rental_uris":{"android":"levelo://app?vid=a8b0e7d0-7a65-4b99-ad9a-1cb63a777064","ios":"levelo://app?vid=a8b0e7d0-7a65-4b99-ad9a-1cb63a777064"},"vehicle_type_id":"4","last_reported":1740708905,"current_range_meters":7200,"station_id":"ce4bh412rcd13ifvqds0","pricing_plan_id":"cebpf4jnsgd1na2vs0mg"},{"bike_id":"9647918c-d815-4482-8c45-927333bd2450","system_id":"levelo_inurba_marseille","lat":43.2782,"lon":5.40713,"is_reserved":false,"is_disabled":false,"rental_uris":{"android":"levelo://app?vid=9647918c-d815-4482-8c45-927333bd2450","ios":"levelo://app?vid=9647918c-d815-4482-8c45-927333bd2450"},"vehicle_type_id":"4","last_reported":1740708905,"current_range_meters":7200,"station_id":"ce4bhnh2rcd13ifvqgtg","pricing_plan_id":"cebpf4jnsgd1na2vs0mg"},{"bike_id":"91f909e9-358e-43ed-a45f-822af931a978","system_id":"levelo_inurba_marseille","lat":43.23206,"lon":5.40377,"is_reserved":false,"is_disabled":false,"rental_uris":{"android":"levelo://app?vid=91f909e9-358e-43ed-a45f-822af931a978","ios":"levelo://app?vid=91f909e9-358e-43ed-a45f-822af931a978"},"vehicle_type_id":"4","last_reported":1740708905,"current_range_meters":7200,"station_id":"","pricing_plan_id":"cebpf4jnsgd1na2vs0mg"},{"bike_id":"745c5d38-332d-426b-8e7b-acb525d1c540","system_id":"levelo_inurba_marseille","lat":43.25095,"lon":5.39523,"is_reserved":false,"is_disabled":false,"rental_uris":{"android":"levelo://app?vid=745c5d38-332d-426b-8e7b-acb525d1c540","ios":"levelo://app?vid=745c5d38-332d-426b-8e7b-acb525d1c540"},"vehicle_type_id":"4","last_reported":1740708905,"current_range_meters":8000,"station_id":"ce4bhm12rcd13ifvqgkg","pricing_plan_id":"cebpf4jnsgd1na2vs0mg"},{"bike_id":"8c666fd4-f386-4ea5-9d00-f90a3a7f8d51","system_id":"levelo_inurba_marseille","lat":43.28449,"lon":5.35889,"is_reserved":false,"is_disabled":false,"rental_uris":{"android":"levelo://app?vid=8c666fd4-f386-4ea5-9d00-f90a3a7f8d51","ios":"levelo://app?vid=8c666fd4-f386-4ea5-9d00-f90a3a7f8d51"},"vehicle_type_id":"4","last_reported":1740708905,"current_range_meters":8000,"station_id":"ce4bhah2rcd13ifvqei0","pricing_plan_id":"cebpf4jnsgd1na2vs0mg"},{"bike_id":"039ef6be-b708-42df-a6eb-d41656f1ce53","system_id":"levelo_inurba_marseille","lat":43.25133,"lon":5.40337,"is_reserved":false,"is_disabled":false,"rental_uris":{"android":"levelo://app?vid=039ef6be-b708-42df-a6eb-d41656f1ce53","ios":"levelo://app?vid=039ef6be-b708-42df-a6eb-d41656f1ce53"},"vehicle_type_id":"4","last_reported":1740708905,"current_range_meters":8000,"station_id":"ce4bhlh2rcd13ifvqgig","pricing_plan_id":"cebpf4jnsgd1na2vs0mg"},{"bike_id":"a402dcb0-63b6-4569-b9e8-ad825500c3f8","system_id":"levelo_inurba_marseille","lat":43.29005,"lon":5.35915,"is_reserved":false,"is_disabled":false,"rental_uris":{"android":"levelo://app?vid=a402dcb0-63b6-4569-b9e8-ad825500c3f8","ios":"levelo://app?vid=a402dcb0-63b6-4569-b9e8-ad825500c3f8"},"vehicle_type_id":"4","last_reported":1740708905,"current_range_meters":8000,"station_id":"","pricing_plan_id":"cebpf4jnsgd1na2vs0mg"},{"bike_id":"c997b30a-bd84-4943-809c-ccf6d5b32c4f","system_id":"levelo_inurba_marseille","lat":43.27617,"lon":5.36108,"is_reserved":false,"is_disabled":false,"rental_uris":{"android":"levelo://app?vid=c997b30a-bd84-4943-809c-ccf6d5b32c4f","ios":"levelo://app?vid=c997b30a-bd84-4943-809c-ccf6d5b32c4f"},"vehicle_type_id":"4","last_reported":1740708905,"current_range_meters":8000,"station_id":"ce4bgj92rcd13ifvqbe0","pricing_plan_id":"cebpf4jnsgd1na2vs0mg"},{"bike_id":"3f0907b3-da2b-41a5-8662-a0489e1a0f25","system_id":"levelo_inurba_marseille","lat":43.32118,"lon":5.36785,"is_reserved":false,"is_disabled":false,"rental_uris":{"android":"levelo://app?vid=3f0907b3-da2b-41a5-8662-a0489e1a0f25","ios":"levelo://app?vid=3f0907b3-da2b-41a5-8662-a0489e1a0f25"},"vehicle_type_id":"4","last_reported":1740708905,"current_range_meters":8000,"station_id":"ce4bhrh2rcd13ifvqhug","pricing_plan_id":"cebpf4jnsgd1na2vs0mg"},{"bike_id":"834de115-fc42-4d89-8dc7-9daa2fe9d37a","system_id":"levelo_inurba_marseille","lat":43.28104,"lon":5.37845,"is_reserved":false,"is_disabled":false,"rental_uris":{"android":"levelo://app?vid=834de115-fc42-4d89-8dc7-9daa2fe9d37a","ios":"levelo://app?vid=834de115-fc42-4d89-8dc7-9daa2fe9d37a"},"vehicle_type_id":"4","last_reported":1740708905,"current_range_meters":8000,"station_id":"ce4bha12rcd13ifvqee0","pricing_plan_id":"cebpf4jnsgd1na2vs0mg"},{"bike_id":"cdadd5b7-aa38-42ba-81f9-20f1c304fdfc","system_id":"levelo_inurba_marseille","lat":43.28454,"lon":5.35879,"is_reserved":false,"is_disabled":false,"rental_uris":{"android":"levelo://app?vid=cdadd5b7-aa38-42ba-81f9-20f1c304fdfc","ios":"levelo://app?vid=cdadd5b7-aa38-42ba-81f9-20f1c304fdfc"},"vehicle_type_id":"4","last_reported":1740708905,"current_range_meters":8000,"station_id":"ce4bhah2rcd13ifvqei0","pricing_plan_id":"cebpf4jnsgd1na2vs0mg"},{"bike_id":"272efc7d-3f8b-435c-a06e-c8bd069b8f82","system_id":"levelo_inurba_marseille","lat":43.27608,"lon":5.36116,"is_reserved":false,"is_disabled":false,"rental_uris":{"android":"levelo://app?vid=272efc7d-3f8b-435c-a06e-c8bd069b8f82","ios":"levelo://app?vid=272efc7d-3f8b-435c-a06e-c8bd069b8f82"},"vehicle_type_id":"4","last_reported":1740708905,"current_range_meters":8000,"station_id":"ce4bgj92rcd13ifvqbe0","pricing_plan_id":"cebpf4jnsgd1na2vs0mg"},{"bike_id":"8d759611-ebae-4f1e-9324-47e399cf8324","system_id":"levelo_inurba_marseille","lat":43.28711,"lon":5.37412,"is_reserved":false,"is_disabled":false,"rental_uris":{"android":"levelo://app?vid=8d759611-ebae-4f1e-9324-47e399cf8324","ios":"levelo://app?vid=8d759611-ebae-4f1e-9324-47e399cf8324"},"vehicle_type_id":"4","last_reported":1740708905,"current_range_meters":8000,"station_id":"ce4bh3p2rcd13ifvqdq0","pricing_plan_id":"cebpf4jnsgd1na2vs0mg"},{"bike_id":"21dee236-81fd-4d4e-8f79-66ef06e4d991","system_id":"levelo_inurba_marseille","lat":43.30595,"lon":5.393452,"is_reserved":false,"is_disabled":false,"rental_uris":{"android":"levelo://app?vid=21dee236-81fd-4d4e-8f79-66ef06e4d991","ios":"levelo://app?vid=21dee236-81fd-4d4e-8f79-66ef06e4d991"},"vehicle_type_id":"4","last_reported":1740708905,"current_range_meters":8400,"station_id":"ce4bh0p2rcd13ifvqd80","pricing_plan_id":"cebpf4jnsgd1na2vs0mg"},{"bike_id":"ea3487ed-d7b8-4023-bb22-d2dd44155fb1","system_id":"levelo_inurba_marseille","lat":43.2834,"lon":5.38111,"is_reserved":false,"is_disabled":false,"rental_uris":{"android":"levelo://app?vid=ea3487ed-d7b8-4023-bb22-d2dd44155fb1","ios":"levelo://app?vid=ea3487ed-d7b8-4023-bb22-d2dd44155fb1"},"vehicle_type_id":"4","last_reported":1740708905,"current_range_meters":8400,"station_id":"ce4bh412rcd13ifvqdr0","pricing_plan_id":"cebpf4jnsgd1na2vs0mg"},{"bike_id":"ab41809d-0839-4146-9c11-f9e1d5038ec6","system_id":"levelo_inurba_marseille","lat":43.255786,"lon":5.382364,"is_reserved":false,"is_disabled":false,"rental_uris":{"android":"levelo://app?vid=ab41809d-0839-4146-9c11-f9e1d5038ec6","ios":"levelo://app?vid=ab41809d-0839-4146-9c11-f9e1d5038ec6"},"vehicle_type_id":"4","last_reported":1740708905,"current_range_meters":8400,"station_id":"ce4bhih2rcd13ifvqfs0","pricing_plan_id":"cebpf4jnsgd1na2vs0mg"},{"bike_id":"7ff4872f-411d-4ae5-b61d-139efb7bc87f","system_id":"levelo_inurba_marseille","lat":43.31318,"lon":5.39706,"is_reserved":false,"is_disabled":false,"rental_uris":{"android":"levelo://app?vid=7ff4872f-411d-4ae5-b61d-139efb7bc87f","ios":"levelo://app?vid=7ff4872f-411d-4ae5-b61d-139efb7bc87f"},"vehicle_type_id":"4","last_reported":1740708905,"current_range_meters":8400,"station_id":"ce4bgvp2rcd13ifvqcu0","pricing_plan_id":"cebpf4jnsgd1na2vs0mg"},{"bike_id":"38c79992-9d7b-4253-801d-21731130e0e1","system_id":"levelo_inurba_marseille","lat":43.28083,"lon":5.39659,"is_reserved":false,"is_disabled":false,"rental_uris":{"android":"levelo://app?vid=38c79992-9d7b-4253-801d-21731130e0e1","ios":"levelo://app?vid=38c79992-9d7b-4253-801d-21731130e0e1"},"vehicle_type_id":"4","last_reported":1740708905,"current_range_meters":8400,"station_id":"ce4bho12rcd13ifvqh2g","pricing_plan_id":"cebpf4jnsgd1na2vs0mg"},{"bike_id":"c6b23046-3dbb-4c24-b439-362e9ad2c23a","system_id":"levelo_inurba_marseille","lat":43.24998,"lon":5.3892,"is_reserved":false,"is_disabled":false,"rental_uris":{"android":"levelo://app?vid=c6b23046-3dbb-4c24-b439-362e9ad2c23a","ios":"levelo://app?vid=c6b23046-3dbb-4c24-b439-362e9ad2c23a"},"vehicle_type_id":"4","last_reported":1740708905,"current_range_meters":8400,"station_id":"ce4bhgp2rcd13ifvqfd0","pricing_plan_id":"cebpf4jnsgd1na2vs0mg"},{"bike_id":"8c48f52a-a87f-4b10-9bad-48a387153477","system_id":"levelo_inurba_marseille","lat":43.32364,"lon":5.38864,"is_reserved":false,"is_disabled":false,"rental_uris":{"android":"levelo://app?vid=8c48f52a-a87f-4b10-9bad-48a387153477","ios":"levelo://app?vid=8c48f52a-a87f-4b10-9bad-48a387153477"},"vehicle_type_id":"4","last_reported":1740708905,"current_range_meters":8400,"station_id":"ce4bhqp2rcd13ifvqhog","pricing_plan_id":"cebpf4jnsgd1na2vs0mg"},{"bike_id":"4ce26a99-af03-483d-b48c-23c47fea208e","system_id":"levelo_inurba_marseille","lat":43.28843,"lon":5.35837,"is_reserved":false,"is_disabled":false,"rental_uris":{"android":"levelo://app?vid=4ce26a99-af03-483d-b48c-23c47fea208e","ios":"levelo://app?vid=4ce26a99-af03-483d-b48c-23c47fea208e"},"vehicle_type_id":"4","last_reported":1740708905,"current_range_meters":8800,"station_id":"ce4bhb12rcd13ifvqem0","pricing_plan_id":"cebpf4jnsgd1na2vs0mg"},{"bike_id":"74d4a88d-ad3a-4128-a926-23a749e3d79b","system_id":"levelo_inurba_marseille","lat":43.23195,"lon":5.35551,"is_reserved":false,"is_disabled":false,"rental_uris":{"android":"levelo://app?vid=74d4a88d-ad3a-4128-a926-23a749e3d79b","ios":"levelo://app?vid=74d4a88d-ad3a-4128-a926-23a749e3d79b"},"vehicle_type_id":"4","last_reported":1740708905,"current_range_meters":8800,"station_id":"ce4bhu92rcd13ifvqi70","pricing_plan_id":"cebpf4jnsgd1na2vs0mg"},{"bike_id":"5e0e22b0-e973-48d0-8bed-a771273f721a","system_id":"levelo_inurba_marseille","lat":43.27377,"lon":5.36259,"is_reserved":false,"is_disabled":false,"rental_uris":{"android":"levelo://app?vid=5e0e22b0-e973-48d0-8bed-a771273f721a","ios":"levelo://app?vid=5e0e22b0-e973-48d0-8bed-a771273f721a"},"vehicle_type_id":"4","last_reported":1740708905,"current_range_meters":8800,"station_id":"ce4bhbh2rcd13ifvqeo0","pricing_plan_id":"cebpf4jnsgd1na2vs0mg"},{"bike_id":"03ecd382-3850-4874-86ef-0467a1a8c988","system_id":"levelo_inurba_marseille","lat":43.2417,"lon":5.39715,"is_reserved":false,"is_disabled":true,"rental_uris":{"android":"levelo://app?vid=03ecd382-3850-4874-86ef-0467a1a8c988","ios":"levelo://app?vid=03ecd382-3850-4874-86ef-0467a1a8c988"},"vehicle_type_id":"4","last_reported":1740708905,"current_range_meters":8800,"station_id":"ce4bhn12rcd13ifvqgpg","pricing_plan_id":"cebpf4jnsgd1na2vs0mg"},{"bike_id":"e4127e72-139a-478c-bc8d-43f39e537533","system_id":"levelo_inurba_marseille","lat":43.29718,"lon":5.3658,"is_reserved":false,"is_disabled":false,"rental_uris":{"android":"levelo://app?vid=e4127e72-139a-478c-bc8d-43f39e537533","ios":"levelo://app?vid=e4127e72-139a-478c-bc8d-43f39e537533"},"vehicle_type_id":"4","last_reported":1740708905,"current_range_meters":8800,"station_id":"ce4bgn12rcd13ifvqbt0","pricing_plan_id":"cebpf4jnsgd1na2vs0mg"},{"bike_id":"c9450bb1-7080-428b-bbf9-1bb463818f4d","system_id":"levelo_inurba_marseille","lat":43.27619,"lon":5.36098,"is_reserved":false,"is_disabled":true,"rental_uris":{"android":"levelo://app?vid=c9450bb1-7080-428b-bbf9-1bb463818f4d","ios":"levelo://app?vid=c9450bb1-7080-428b-bbf9-1bb463818f4d"},"vehicle_type_id":"4","last_reported":1740708905,"current_range_meters":9200,"station_id":"ce4bgj92rcd13ifvqbe0","pricing_plan_id":"cebpf4jnsgd1na2vs0mg"},{"bike_id":"0684c9b8-68d1-4121-82b2-00c0eebe64db","system_id":"levelo_inurba_marseille","lat":43.27944,"lon":5.41035,"is_reserved":false,"is_disabled":false,"rental_uris":{"android":"levelo://app?vid=0684c9b8-68d1-4121-82b2-00c0eebe64db","ios":"levelo://app?vid=0684c9b8-68d1-4121-82b2-00c0eebe64db"},"vehicle_type_id":"4","last_reported":1740708905,"current_range_meters":8800,"station_id":"ce4bhnp2rcd13ifvqh0g","pricing_plan_id":"cebpf4jnsgd1na2vs0mg"},{"bike_id":"fb1fbfbc-642f-49ef-93d2-bb1277bc6eb4","system_id":"levelo_inurba_marseille","lat":43.28457,"lon":5.35879,"is_reserved":false,"is_disabled":false,"rental_uris":{"android":"levelo://app?vid=fb1fbfbc-642f-49ef-93d2-bb1277bc6eb4","ios":"levelo://app?vid=fb1fbfbc-642f-49ef-93d2-bb1277bc6eb4"},"vehicle_type_id":"4","last_reported":1740708905,"current_range_meters":8800,"station_id":"ce4bhah2rcd13ifvqei0","pricing_plan_id":"cebpf4jnsgd1na2vs0mg"},{"bike_id":"54d46a8b-8314-471a-98f9-6d86686fc605","system_id":"levelo_inurba_marseille","lat":43.25826,"lon":5.39422,"is_reserved":false,"is_disabled":false,"rental_uris":{"android":"levelo://app?vid=54d46a8b-8314-471a-98f9-6d86686fc605","ios":"levelo://app?vid=54d46a8b-8314-471a-98f9-6d86686fc605"},"vehicle_type_id":"4","last_reported":1740708905,"current_range_meters":8800,"station_id":"ce4bhip2rcd13ifvqft0","pricing_plan_id":"cebpf4jnsgd1na2vs0mg"},{"bike_id":"5cdf1157-258e-4dbe-9eac-97f9742be378","system_id":"levelo_inurba_marseille","lat":43.27383,"lon":5.36271,"is_reserved":false,"is_disabled":false,"rental_uris":{"android":"levelo://app?vid=5cdf1157-258e-4dbe-9eac-97f9742be378","ios":"levelo://app?vid=5cdf1157-258e-4dbe-9eac-97f9742be378"},"vehicle_type_id":"4","last_reported":1740708905,"current_range_meters":9200,"station_id":"ce4bhbh2rcd13ifvqeo0","pricing_plan_id":"cebpf4jnsgd1na2vs0mg"},{"bike_id":"ea1ae099-0cdb-45d1-bb30-a324d3bc542a","system_id":"levelo_inurba_marseille","lat":43.32368,"lon":5.36765,"is_reserved":false,"is_disabled":false,"rental_uris":{"android":"levelo://app?vid=ea1ae099-0cdb-45d1-bb30-a324d3bc542a","ios":"levelo://app?vid=ea1ae099-0cdb-45d1-bb30-a324d3bc542a"},"vehicle_type_id":"4","last_reported":1740708905,"current_range_meters":8800,"station_id":"ce4bhsh2rcd13ifvqi2g","pricing_plan_id":"cebpf4jnsgd1na2vs0mg"},{"bike_id":"f253ad35-7fb0-4c23-aeac-ca19d1eef71b","system_id":"levelo_inurba_marseille","lat":43.31366,"lon":5.38492,"is_reserved":false,"is_disabled":false,"rental_uris":{"android":"levelo://app?vid=f253ad35-7fb0-4c23-aeac-ca19d1eef71b","ios":"levelo://app?vid=f253ad35-7fb0-4c23-aeac-ca19d1eef71b"},"vehicle_type_id":"4","last_reported":1740708905,"current_range_meters":9200,"station_id":"ce4bgt92rcd13ifvqcf0","pricing_plan_id":"cebpf4jnsgd1na2vs0mg"},{"bike_id":"ed0ba16b-9fcb-480a-a371-99c8293b9d1b","system_id":"levelo_inurba_marseille","lat":43.298,"lon":5.39343,"is_reserved":false,"is_disabled":false,"rental_uris":{"android":"levelo://app?vid=ed0ba16b-9fcb-480a-a371-99c8293b9d1b","ios":"levelo://app?vid=ed0ba16b-9fcb-480a-a371-99c8293b9d1b"},"vehicle_type_id":"4","last_reported":1740708905,"current_range_meters":9200,"station_id":"chh1huq6cuj3fo74tm60","pricing_plan_id":"cebpf4jnsgd1na2vs0mg"},{"bike_id":"d8994050-39f7-4aaa-af77-5e87c12121df","system_id":"levelo_inurba_marseille","lat":43.29003,"lon":5.35612,"is_reserved":false,"is_disabled":false,"rental_uris":{"android":"levelo://app?vid=d8994050-39f7-4aaa-af77-5e87c12121df","ios":"levelo://app?vid=d8994050-39f7-4aaa-af77-5e87c12121df"},"vehicle_type_id":"4","last_reported":1740708905,"current_range_meters":9200,"station_id":"ce4bhb92rcd13ifvqen0","pricing_plan_id":"cebpf4jnsgd1na2vs0mg"},{"bike_id":"59bcd662-2616-41e6-a139-50625c1fd8a5","system_id":"levelo_inurba_marseille","lat":43.29308,"lon":5.40216,"is_reserved":false,"is_disabled":false,"rental_uris":{"android":"levelo://app?vid=59bcd662-2616-41e6-a139-50625c1fd8a5","ios":"levelo://app?vid=59bcd662-2616-41e6-a139-50625c1fd8a5"},"vehicle_type_id":"4","last_reported":1740708905,"current_range_meters":9200,"station_id":"","pricing_plan_id":"cebpf4jnsgd1na2vs0mg"},{"bike_id":"eea25fa1-2db0-4cb4-901f-2535ea4c664c","system_id":"levelo_inurba_marseille","lat":43.30324,"lon":5.40444,"is_reserved":false,"is_disabled":false,"rental_uris":{"android":"levelo://app?vid=eea25fa1-2db0-4cb4-901f-2535ea4c664c","ios":"levelo://app?vid=eea25fa1-2db0-4cb4-901f-2535ea4c664c"},"vehicle_type_id":"4","last_reported":1740708905,"current_range_meters":9600,"station_id":"ce4bh012rcd13ifvqd10","pricing_plan_id":"cebpf4jnsgd1na2vs0mg"},{"bike_id":"e1aad595-260c-42b5-8d2a-68a190ab60a4","system_id":"levelo_inurba_marseille","lat":43.30325,"lon":5.40437,"is_reserved":false,"is_disabled":false,"rental_uris":{"android":"levelo://app?vid=e1aad595-260c-42b5-8d2a-68a190ab60a4","ios":"levelo://app?vid=e1aad595-260c-42b5-8d2a-68a190ab60a4"},"vehicle_type_id":"4","last_reported":1740708905,"current_range_meters":9600,"station_id":"ce4bh012rcd13ifvqd10","pricing_plan_id":"cebpf4jnsgd1na2vs0mg"},{"bike_id":"09a1e742-3b90-459c-b1c5-6b5cd8006c89","system_id":"levelo_inurba_marseille","lat":43.25576,"lon":5.38244,"is_reserved":false,"is_disabled":false,"rental_uris":{"android":"levelo://app?vid=09a1e742-3b90-459c-b1c5-6b5cd8006c89","ios":"levelo://app?vid=09a1e742-3b90-459c-b1c5-6b5cd8006c89"},"vehicle_type_id":"4","last_reported":1740708905,"current_range_meters":9600,"station_id":"ce4bhih2rcd13ifvqfs0","pricing_plan_id":"cebpf4jnsgd1na2vs0mg"},{"bike_id":"2f218cd9-6dc2-4509-acc5-b6e8dd4cef8b","system_id":"levelo_inurba_marseille","lat":43.28453,"lon":5.35887,"is_reserved":false,"is_disabled":false,"rental_uris":{"android":"levelo://app?vid=2f218cd9-6dc2-4509-acc5-b6e8dd4cef8b","ios":"levelo://app?vid=2f218cd9-6dc2-4509-acc5-b6e8dd4cef8b"},"vehicle_type_id":"4","last_reported":1740708905,"current_range_meters":9600,"station_id":"ce4bhah2rcd13ifvqei0","pricing_plan_id":"cebpf4jnsgd1na2vs0mg"},{"bike_id":"83100333-e221-4abb-8bc0-3b6dd416a491","system_id":"levelo_inurba_marseille","lat":43.25087,"lon":5.39515,"is_reserved":false,"is_disabled":false,"rental_uris":{"android":"levelo://app?vid=83100333-e221-4abb-8bc0-3b6dd416a491","ios":"levelo://app?vid=83100333-e221-4abb-8bc0-3b6dd416a491"},"vehicle_type_id":"4","last_reported":1740708905,"current_range_meters":9600,"station_id":"ce4bhm12rcd13ifvqgkg","pricing_plan_id":"cebpf4jnsgd1na2vs0mg"},{"bike_id":"9c16f73b-d883-4318-9d54-d8eb1fe44c91","system_id":"levelo_inurba_marseille","lat":43.27815,"lon":5.40714,"is_reserved":false,"is_disabled":false,"rental_uris":{"android":"levelo://app?vid=9c16f73b-d883-4318-9d54-d8eb1fe44c91","ios":"levelo://app?vid=9c16f73b-d883-4318-9d54-d8eb1fe44c91"},"vehicle_type_id":"4","last_reported":1740708905,"current_range_meters":9600,"station_id":"ce4bhnh2rcd13ifvqgtg","pricing_plan_id":"cebpf4jnsgd1na2vs0mg"},{"bike_id":"e1839438-5cc9-49f1-938d-6270b07fb94a","system_id":"levelo_inurba_marseille","lat":43.2846,"lon":5.35883,"is_reserved":false,"is_disabled":false,"rental_uris":{"android":"levelo://app?vid=e1839438-5cc9-49f1-938d-6270b07fb94a","ios":"levelo://app?vid=e1839438-5cc9-49f1-938d-6270b07fb94a"},"vehicle_type_id":"4","last_reported":1740708905,"current_range_meters":9600,"station_id":"ce4bhah2rcd13ifvqei0","pricing_plan_id":"cebpf4jnsgd1na2vs0mg"},{"bike_id":"eae9f6fe-b943-4452-9f29-bf696f5c4ed4","system_id":"levelo_inurba_marseille","lat":43.31072,"lon":5.38369,"is_reserved":false,"is_disabled":false,"rental_uris":{"android":"levelo://app?vid=eae9f6fe-b943-4452-9f29-bf696f5c4ed4","ios":"levelo://app?vid=eae9f6fe-b943-4452-9f29-bf696f5c4ed4"},"vehicle_type_id":"4","last_reported":1740708905,"current_range_meters":9600,"station_id":"ce4bgv92rcd13ifvqcr0","pricing_plan_id":"cebpf4jnsgd1na2vs0mg"},{"bike_id":"2d713e86-84c1-414d-8586-0104afd3a051","system_id":"levelo_inurba_marseille","lat":43.26494,"lon":5.39539,"is_reserved":false,"is_disabled":true,"rental_uris":{"android":"levelo://app?vid=2d713e86-84c1-414d-8586-0104afd3a051","ios":"levelo://app?vid=2d713e86-84c1-414d-8586-0104afd3a051"},"vehicle_type_id":"4","last_reported":1740708905,"current_range_meters":9600,"station_id":"ce4bhi12rcd13ifvqfq0","pricing_plan_id":"cebpf4jnsgd1na2vs0mg"},{"bike_id":"e0036d1f-51ac-4c4a-ba4e-96d412b945c0","system_id":"levelo_inurba_marseille","lat":43.28026,"lon":5.36941,"is_reserved":false,"is_disabled":false,"rental_uris":{"android":"levelo://app?vid=e0036d1f-51ac-4c4a-ba4e-96d412b945c0","ios":"levelo://app?vid=e0036d1f-51ac-4c4a-ba4e-96d412b945c0"},"vehicle_type_id":"4","last_reported":1740708905,"current_range_meters":9600,"station_id":"ce4bha12rcd13ifvqef0","pricing_plan_id":"cebpf4jnsgd1na2vs0mg"},{"bike_id":"c6579477-6690-44a6-b7de-b88123a0b241","system_id":"levelo_inurba_marseille","lat":43.28703,"lon":5.36095,"is_reserved":false,"is_disabled":false,"rental_uris":{"android":"levelo://app?vid=c6579477-6690-44a6-b7de-b88123a0b241","ios":"levelo://app?vid=c6579477-6690-44a6-b7de-b88123a0b241"},"vehicle_type_id":"4","last_reported":1740708905,"current_range_meters":9600,"station_id":"cki0cbj6b192h4jlfktg","pricing_plan_id":"cebpf4jnsgd1na2vs0mg"},{"bike_id":"42b3a08a-26d9-4763-bcc4-8ee9e75a45c4","system_id":"levelo_inurba_marseille","lat":43.28924,"lon":5.36621,"is_reserved":false,"is_disabled":false,"rental_uris":{"android":"levelo://app?vid=42b3a08a-26d9-4763-bcc4-8ee9e75a45c4","ios":"levelo://app?vid=42b3a08a-26d9-4763-bcc4-8ee9e75a45c4"},"vehicle_type_id":"4","last_reported":1740708905,"current_range_meters":9600,"station_id":"ce4bhap2rcd13ifvqek0","pricing_plan_id":"cebpf4jnsgd1na2vs0mg"},{"bike_id":"907b990b-0a8a-4924-acec-37622f347ce1","system_id":"levelo_inurba_marseille","lat":43.286178,"lon":5.35108,"is_reserved":false,"is_disabled":false,"rental_uris":{"android":"levelo://app?vid=907b990b-0a8a-4924-acec-37622f347ce1","ios":"levelo://app?vid=907b990b-0a8a-4924-acec-37622f347ce1"},"vehicle_type_id":"4","last_reported":1740708905,"current_range_meters":10000,"station_id":"ce4bhch2rcd13ifvqeug","pricing_plan_id":"cebpf4jnsgd1na2vs0mg"},{"bike_id":"ab3ae644-bc74-4779-9d00-afaab1721981","system_id":"levelo_inurba_marseille","lat":43.26199,"lon":5.37915,"is_reserved":false,"is_disabled":false,"rental_uris":{"android":"levelo://app?vid=ab3ae644-bc74-4779-9d00-afaab1721981","ios":"levelo://app?vid=ab3ae644-bc74-4779-9d00-afaab1721981"},"vehicle_type_id":"4","last_reported":1740708905,"current_range_meters":9600,"station_id":"ce4bhjp2rcd13ifvqg90","pricing_plan_id":"cebpf4jnsgd1na2vs0mg"},{"bike_id":"3d40c7de-ae33-4f47-a9ec-ad6761202c40","system_id":"levelo_inurba_marseille","lat":43.28407,"lon":5.37521,"is_reserved":false,"is_disabled":false,"rental_uris":{"android":"levelo://app?vid=3d40c7de-ae33-4f47-a9ec-ad6761202c40","ios":"levelo://app?vid=3d40c7de-ae33-4f47-a9ec-ad6761202c40"},"vehicle_type_id":"4","last_reported":1740708905,"current_range_meters":10000,"station_id":"ce4bh412rcd13ifvqds0","pricing_plan_id":"cebpf4jnsgd1na2vs0mg"},{"bike_id":"026e178e-412a-49e0-9772-e5f6d0abaab4","system_id":"levelo_inurba_marseille","lat":43.30871,"lon":5.37091,"is_reserved":false,"is_disabled":false,"rental_uris":{"android":"levelo://app?vid=026e178e-412a-49e0-9772-e5f6d0abaab4","ios":"levelo://app?vid=026e178e-412a-49e0-9772-e5f6d0abaab4"},"vehicle_type_id":"4","last_reported":1740708905,"current_range_meters":10000,"station_id":"","pricing_plan_id":"cebpf4jnsgd1na2vs0mg"},{"bike_id":"7de8066b-1c87-4190-8fd2-555f7014d460","system_id":"levelo_inurba_marseille","lat":43.28846,"lon":5.35843,"is_reserved":false,"is_disabled":false,"rental_uris":{"android":"levelo://app?vid=7de8066b-1c87-4190-8fd2-555f7014d460","ios":"levelo://app?vid=7de8066b-1c87-4190-8fd2-555f7014d460"},"vehicle_type_id":"4","last_reported":1740708905,"current_range_meters":10000,"station_id":"ce4bhb12rcd13ifvqem0","pricing_plan_id":"cebpf4jnsgd1na2vs0mg"},{"bike_id":"443370dd-f8b8-457a-b6f8-389b804ff6fc","system_id":"levelo_inurba_marseille","lat":43.32365,"lon":5.38886,"is_reserved":false,"is_disabled":false,"rental_uris":{"android":"levelo://app?vid=443370dd-f8b8-457a-b6f8-389b804ff6fc","ios":"levelo://app?vid=443370dd-f8b8-457a-b6f8-389b804ff6fc"},"vehicle_type_id":"4","last_reported":1740708905,"current_range_meters":10000,"station_id":"ce4bhqp2rcd13ifvqhog","pricing_plan_id":"cebpf4jnsgd1na2vs0mg"},{"bike_id":"6413670b-3591-4dd6-8654-2e6512f93b7b","system_id":"levelo_inurba_marseille","lat":43.27943,"lon":5.41038,"is_reserved":false,"is_disabled":false,"rental_uris":{"android":"levelo://app?vid=6413670b-3591-4dd6-8654-2e6512f93b7b","ios":"levelo://app?vid=6413670b-3591-4dd6-8654-2e6512f93b7b"},"vehicle_type_id":"4","last_reported":1740708905,"current_range_meters":10000,"station_id":"ce4bhnp2rcd13ifvqh0g","pricing_plan_id":"cebpf4jnsgd1na2vs0mg"},{"bike_id":"a7a49217-b3d4-4933-8273-9dda3c403bf1","system_id":"levelo_inurba_marseille","lat":43.316531,"lon":5.396029,"is_reserved":false,"is_disabled":false,"rental_uris":{"android":"levelo://app?vid=a7a49217-b3d4-4933-8273-9dda3c403bf1","ios":"levelo://app?vid=a7a49217-b3d4-4933-8273-9dda3c403bf1"},"vehicle_type_id":"4","last_reported":1740708905,"current_range_meters":10000,"station_id":"","pricing_plan_id":"cebpf4jnsgd1na2vs0mg"},{"bike_id":"c1dbecc1-be02-4f39-a1c7-b7d9d3390b63","system_id":"levelo_inurba_marseille","lat":43.30805,"lon":5.381426,"is_reserved":false,"is_disabled":false,"rental_uris":{"android":"levelo://app?vid=c1dbecc1-be02-4f39-a1c7-b7d9d3390b63","ios":"levelo://app?vid=c1dbecc1-be02-4f39-a1c7-b7d9d3390b63"},"vehicle_type_id":"4","last_reported":1740708905,"current_range_meters":10800,"station_id":"ce4bgt12rcd13ifvqce0","pricing_plan_id":"cebpf4jnsgd1na2vs0mg"},{"bike_id":"f4a973f4-48ad-42d5-8cb7-e6702d5b40e9","system_id":"levelo_inurba_marseille","lat":43.31759,"lon":5.39013,"is_reserved":false,"is_disabled":false,"rental_uris":{"android":"levelo://app?vid=f4a973f4-48ad-42d5-8cb7-e6702d5b40e9","ios":"levelo://app?vid=f4a973f4-48ad-42d5-8cb7-e6702d5b40e9"},"vehicle_type_id":"4","last_reported":1740708905,"current_range_meters":10800,"station_id":"ce4bhqp2rcd13ifvqhng","pricing_plan_id":"cebpf4jnsgd1na2vs0mg"},{"bike_id":"3b6dd1b5-e623-4810-88e8-770e0e1da2ae","system_id":"levelo_inurba_marseille","lat":43.28937,"lon":5.36411,"is_reserved":false,"is_disabled":false,"rental_uris":{"android":"levelo://app?vid=3b6dd1b5-e623-4810-88e8-770e0e1da2ae","ios":"levelo://app?vid=3b6dd1b5-e623-4810-88e8-770e0e1da2ae"},"vehicle_type_id":"4","last_reported":1740708905,"current_range_meters":10800,"station_id":"ce4bhc92rcd13ifvqetg","pricing_plan_id":"cebpf4jnsgd1na2vs0mg"},{"bike_id":"30a99d9d-9669-40cb-9767-ea8842f50645","system_id":"levelo_inurba_marseille","lat":43.29705,"lon":5.36612,"is_reserved":false,"is_disabled":false,"rental_uris":{"android":"levelo://app?vid=30a99d9d-9669-40cb-9767-ea8842f50645","ios":"levelo://app?vid=30a99d9d-9669-40cb-9767-ea8842f50645"},"vehicle_type_id":"4","last_reported":1740708905,"current_range_meters":10800,"station_id":"ce4bgn12rcd13ifvqbt0","pricing_plan_id":"cebpf4jnsgd1na2vs0mg"},{"bike_id":"d5993554-0cf9-4011-b623-59aa562e81b3","system_id":"levelo_inurba_marseille","lat":43.28108,"lon":5.37828,"is_reserved":false,"is_disabled":false,"rental_uris":{"android":"levelo://app?vid=d5993554-0cf9-4011-b623-59aa562e81b3","ios":"levelo://app?vid=d5993554-0cf9-4011-b623-59aa562e81b3"},"vehicle_type_id":"4","last_reported":1740708905,"current_range_meters":10800,"station_id":"ce4bha12rcd13ifvqee0","pricing_plan_id":"cebpf4jnsgd1na2vs0mg"},{"bike_id":"f84d7596-4c47-4c18-a4f9-ba218eafea6d","system_id":"levelo_inurba_marseille","lat":43.28411,"lon":5.37512,"is_reserved":false,"is_disabled":false,"rental_uris":{"android":"levelo://app?vid=f84d7596-4c47-4c18-a4f9-ba218eafea6d","ios":"levelo://app?vid=f84d7596-4c47-4c18-a4f9-ba218eafea6d"},"vehicle_type_id":"4","last_reported":1740708905,"current_range_meters":10800,"station_id":"ce4bh412rcd13ifvqds0","pricing_plan_id":"cebpf4jnsgd1na2vs0mg"},{"bike_id":"e89404bc-b67d-4aa0-b5b9-0d5adc52fc30","system_id":"levelo_inurba_marseille","lat":43.2864,"lon":5.35078,"is_reserved":false,"is_disabled":false,"rental_uris":{"android":"levelo://app?vid=e89404bc-b67d-4aa0-b5b9-0d5adc52fc30","ios":"levelo://app?vid=e89404bc-b67d-4aa0-b5b9-0d5adc52fc30"},"vehicle_type_id":"4","last_reported":1740708905,"current_range_meters":10800,"station_id":"ce4bhch2rcd13ifvqeug","pricing_plan_id":"cebpf4jnsgd1na2vs0mg"},{"bike_id":"28e124c7-0ed2-4b28-bc13-a865ea8a4d97","system_id":"levelo_inurba_marseille","lat":43.28346,"lon":5.38113,"is_reserved":false,"is_disabled":false,"rental_uris":{"android":"levelo://app?vid=28e124c7-0ed2-4b28-bc13-a865ea8a4d97","ios":"levelo://app?vid=28e124c7-0ed2-4b28-bc13-a865ea8a4d97"},"vehicle_type_id":"4","last_reported":1740708905,"current_range_meters":10800,"station_id":"ce4bh412rcd13ifvqdr0","pricing_plan_id":"cebpf4jnsgd1na2vs0mg"},{"bike_id":"a88e9d61-7e15-4bbe-ab9c-aba0a66dcc50","system_id":"levelo_inurba_marseille","lat":43.248071,"lon":5.374534,"is_reserved":false,"is_disabled":false,"rental_uris":{"android":"levelo://app?vid=a88e9d61-7e15-4bbe-ab9c-aba0a66dcc50","ios":"levelo://app?vid=a88e9d61-7e15-4bbe-ab9c-aba0a66dcc50"},"vehicle_type_id":"4","last_reported":1740708905,"current_range_meters":10800,"station_id":"ce4bhgh2rcd13ifvqfb0","pricing_plan_id":"cebpf4jnsgd1na2vs0mg"},{"bike_id":"c4f35467-c66d-4409-b242-5489ec57542e","system_id":"levelo_inurba_marseille","lat":43.30471,"lon":5.37895,"is_reserved":false,"is_disabled":false,"rental_uris":{"android":"levelo://app?vid=c4f35467-c66d-4409-b242-5489ec57542e","ios":"levelo://app?vid=c4f35467-c66d-4409-b242-5489ec57542e"},"vehicle_type_id":"4","last_reported":1740708905,"current_range_meters":10800,"station_id":"ce4bgup2rcd13ifvqcn0","pricing_plan_id":"cebpf4jnsgd1na2vs0mg"},{"bike_id":"3de9aeda-1f9a-4bbc-8b90-e02a49e56ca9","system_id":"levelo_inurba_marseille","lat":43.231918,"lon":5.355555,"is_reserved":false,"is_disabled":false,"rental_uris":{"android":"levelo://app?vid=3de9aeda-1f9a-4bbc-8b90-e02a49e56ca9","ios":"levelo://app?vid=3de9aeda-1f9a-4bbc-8b90-e02a49e56ca9"},"vehicle_type_id":"4","last_reported":1740708905,"current_range_meters":10800,"station_id":"ce4bhu92rcd13ifvqi70","pricing_plan_id":"cebpf4jnsgd1na2vs0mg"},{"bike_id":"45bcdd61-a600-4686-95d9-f2003a49bdbc","system_id":"levelo_inurba_marseille","lat":43.29927,"lon":5.3656,"is_reserved":false,"is_disabled":false,"rental_uris":{"android":"levelo://app?vid=45bcdd61-a600-4686-95d9-f2003a49bdbc","ios":"levelo://app?vid=45bcdd61-a600-4686-95d9-f2003a49bdbc"},"vehicle_type_id":"4","last_reported":1740708905,"current_range_meters":10800,"station_id":"ce4bgm92rcd13ifvqbr0","pricing_plan_id":"cebpf4jnsgd1na2vs0mg"},{"bike_id":"4e2e11f8-e9a3-4f3a-9372-23488c564b9c","system_id":"levelo_inurba_marseille","lat":43.28454,"lon":5.35898,"is_reserved":false,"is_disabled":false,"rental_uris":{"android":"levelo://app?vid=4e2e11f8-e9a3-4f3a-9372-23488c564b9c","ios":"levelo://app?vid=4e2e11f8-e9a3-4f3a-9372-23488c564b9c"},"vehicle_type_id":"4","last_reported":1740708905,"current_range_meters":11200,"station_id":"ce4bhah2rcd13ifvqei0","pricing_plan_id":"cebpf4jnsgd1na2vs0mg"},{"bike_id":"1393e48a-5096-48c2-8ef4-ef737b7b43ae","system_id":"levelo_inurba_marseille","lat":43.25105,"lon":5.39503,"is_reserved":false,"is_disabled":false,"rental_uris":{"android":"levelo://app?vid=1393e48a-5096-48c2-8ef4-ef737b7b43ae","ios":"levelo://app?vid=1393e48a-5096-48c2-8ef4-ef737b7b43ae"},"vehicle_type_id":"4","last_reported":1740708905,"current_range_meters":11200,"station_id":"ce4bhm12rcd13ifvqgkg","pricing_plan_id":"cebpf4jnsgd1na2vs0mg"},{"bike_id":"7470ebdf-96fe-4da7-b039-5ca23f630bc0","system_id":"levelo_inurba_marseille","lat":43.31765,"lon":5.39019,"is_reserved":false,"is_disabled":false,"rental_uris":{"android":"levelo://app?vid=7470ebdf-96fe-4da7-b039-5ca23f630bc0","ios":"levelo://app?vid=7470ebdf-96fe-4da7-b039-5ca23f630bc0"},"vehicle_type_id":"4","last_reported":1740708905,"current_range_meters":11200,"station_id":"ce4bhqp2rcd13ifvqhng","pricing_plan_id":"cebpf4jnsgd1na2vs0mg"},{"bike_id":"6f28d17e-fa28-4cd3-91a2-81abc0f7ea2a","system_id":"levelo_inurba_marseille","lat":43.28451,"lon":5.35886,"is_reserved":false,"is_disabled":false,"rental_uris":{"android":"levelo://app?vid=6f28d17e-fa28-4cd3-91a2-81abc0f7ea2a","ios":"levelo://app?vid=6f28d17e-fa28-4cd3-91a2-81abc0f7ea2a"},"vehicle_type_id":"4","last_reported":1740708905,"current_range_meters":11600,"station_id":"ce4bhah2rcd13ifvqei0","pricing_plan_id":"cebpf4jnsgd1na2vs0mg"},{"bike_id":"409a385b-f084-4a05-a438-87b0c694f773","system_id":"levelo_inurba_marseille","lat":43.31331,"lon":5.39715,"is_reserved":false,"is_disabled":false,"rental_uris":{"android":"levelo://app?vid=409a385b-f084-4a05-a438-87b0c694f773","ios":"levelo://app?vid=409a385b-f084-4a05-a438-87b0c694f773"},"vehicle_type_id":"4","last_reported":1740708905,"current_range_meters":11200,"station_id":"ce4bgvp2rcd13ifvqcu0","pricing_plan_id":"cebpf4jnsgd1na2vs0mg"},{"bike_id":"06f46088-86dd-4f85-a76e-b4e1ebe0acc7","system_id":"levelo_inurba_marseille","lat":43.28619,"lon":5.35098,"is_reserved":false,"is_disabled":false,"rental_uris":{"android":"levelo://app?vid=06f46088-86dd-4f85-a76e-b4e1ebe0acc7","ios":"levelo://app?vid=06f46088-86dd-4f85-a76e-b4e1ebe0acc7"},"vehicle_type_id":"4","last_reported":1740708905,"current_range_meters":11200,"station_id":"ce4bhch2rcd13ifvqeug","pricing_plan_id":"cebpf4jnsgd1na2vs0mg"},{"bike_id":"f5f48efb-c302-4717-a06e-d5b51623d051","system_id":"levelo_inurba_marseille","lat":43.292597,"lon":5.376163,"is_reserved":false,"is_disabled":false,"rental_uris":{"android":"levelo://app?vid=f5f48efb-c302-4717-a06e-d5b51623d051","ios":"levelo://app?vid=f5f48efb-c302-4717-a06e-d5b51623d051"},"vehicle_type_id":"4","last_reported":1740708905,"current_range_meters":11200,"station_id":"ce4bgi12rcd13ifvqb80","pricing_plan_id":"cebpf4jnsgd1na2vs0mg"},{"bike_id":"6fde5522-ed5d-4656-8fae-ea5333057e7b","system_id":"levelo_inurba_marseille","lat":43.31265,"lon":5.40159,"is_reserved":false,"is_disabled":false,"rental_uris":{"android":"levelo://app?vid=6fde5522-ed5d-4656-8fae-ea5333057e7b","ios":"levelo://app?vid=6fde5522-ed5d-4656-8fae-ea5333057e7b"},"vehicle_type_id":"4","last_reported":1740708905,"current_range_meters":11600,"station_id":"ce4bh092rcd13ifvqd30","pricing_plan_id":"cebpf4jnsgd1na2vs0mg"},{"bike_id":"430b8c8b-9ffb-4b03-929c-7b5604171a6d","system_id":"levelo_inurba_marseille","lat":43.27826,"lon":5.40709,"is_reserved":false,"is_disabled":false,"rental_uris":{"android":"levelo://app?vid=430b8c8b-9ffb-4b03-929c-7b5604171a6d","ios":"levelo://app?vid=430b8c8b-9ffb-4b03-929c-7b5604171a6d"},"vehicle_type_id":"4","last_reported":1740708905,"current_range_meters":11600,"station_id":"ce4bhnh2rcd13ifvqgtg","pricing_plan_id":"cebpf4jnsgd1na2vs0mg"},{"bike_id":"646237b3-6009-4be9-8f00-e87434ea9fa4","system_id":"levelo_inurba_marseille","lat":43.24079,"lon":5.37746,"is_reserved":false,"is_disabled":false,"rental_uris":{"android":"levelo://app?vid=646237b3-6009-4be9-8f00-e87434ea9fa4","ios":"levelo://app?vid=646237b3-6009-4be9-8f00-e87434ea9fa4"},"vehicle_type_id":"4","last_reported":1740708905,"current_range_meters":11600,"station_id":"ce4bhnp2rcd13ifvqgvg","pricing_plan_id":"cebpf4jnsgd1na2vs0mg"},{"bike_id":"3d06ad03-608d-41a3-9db1-86aaa1692ce2","system_id":"levelo_inurba_marseille","lat":43.29715,"lon":5.36599,"is_reserved":false,"is_disabled":false,"rental_uris":{"android":"levelo://app?vid=3d06ad03-608d-41a3-9db1-86aaa1692ce2","ios":"levelo://app?vid=3d06ad03-608d-41a3-9db1-86aaa1692ce2"},"vehicle_type_id":"4","last_reported":1740708905,"current_range_meters":11600,"station_id":"ce4bgn12rcd13ifvqbt0","pricing_plan_id":"cebpf4jnsgd1na2vs0mg"},{"bike_id":"6bf62df5-9f2c-4676-be2e-3425368f3119","system_id":"levelo_inurba_marseille","lat":43.2933,"lon":5.38243,"is_reserved":false,"is_disabled":false,"rental_uris":{"android":"levelo://app?vid=6bf62df5-9f2c-4676-be2e-3425368f3119","ios":"levelo://app?vid=6bf62df5-9f2c-4676-be2e-3425368f3119"},"vehicle_type_id":"4","last_reported":1740708905,"current_range_meters":11600,"station_id":"","pricing_plan_id":"cebpf4jnsgd1na2vs0mg"},{"bike_id":"07a70f40-d064-434b-83aa-228acdf7dd53","system_id":"levelo_inurba_marseille","lat":43.23187,"lon":5.39973,"is_reserved":false,"is_disabled":false,"rental_uris":{"android":"levelo://app?vid=07a70f40-d064-434b-83aa-228acdf7dd53","ios":"levelo://app?vid=07a70f40-d064-434b-83aa-228acdf7dd53"},"vehicle_type_id":"4","last_reported":1740708905,"current_range_meters":12000,"station_id":"ce4bhn12rcd13ifvqgqg","pricing_plan_id":"cebpf4jnsgd1na2vs0mg"},{"bike_id":"4faa25b2-6d20-4258-a63e-5adea7aec14e","system_id":"levelo_inurba_marseille","lat":43.28448,"lon":5.35891,"is_reserved":false,"is_disabled":true,"rental_uris":{"android":"levelo://app?vid=4faa25b2-6d20-4258-a63e-5adea7aec14e","ios":"levelo://app?vid=4faa25b2-6d20-4258-a63e-5adea7aec14e"},"vehicle_type_id":"4","last_reported":1740708905,"current_range_meters":12000,"station_id":"ce4bhah2rcd13ifvqei0","pricing_plan_id":"cebpf4jnsgd1na2vs0mg"},{"bike_id":"d4918d6a-5525-4be8-b0c4-7af64b54343d","system_id":"levelo_inurba_marseille","lat":43.24172,"lon":5.36396,"is_reserved":false,"is_disabled":false,"rental_uris":{"android":"levelo://app?vid=d4918d6a-5525-4be8-b0c4-7af64b54343d","ios":"levelo://app?vid=d4918d6a-5525-4be8-b0c4-7af64b54343d"},"vehicle_type_id":"4","last_reported":1740708905,"current_range_meters":12000,"station_id":"cpo36qri1sfpv3e86is0","pricing_plan_id":"cebpf4jnsgd1na2vs0mg"},{"bike_id":"10b6c0d0-a3ef-460e-ad30-22fe050ad6b8","system_id":"levelo_inurba_marseille","lat":43.28841,"lon":5.35842,"is_reserved":false,"is_disabled":false,"rental_uris":{"android":"levelo://app?vid=10b6c0d0-a3ef-460e-ad30-22fe050ad6b8","ios":"levelo://app?vid=10b6c0d0-a3ef-460e-ad30-22fe050ad6b8"},"vehicle_type_id":"4","last_reported":1740708905,"current_range_meters":12000,"station_id":"ce4bhb12rcd13ifvqem0","pricing_plan_id":"cebpf4jnsgd1na2vs0mg"},{"bike_id":"f540f286-fecb-4f6a-9c19-c13822b5df23","system_id":"levelo_inurba_marseille","lat":43.286153,"lon":5.351022,"is_reserved":false,"is_disabled":false,"rental_uris":{"android":"levelo://app?vid=f540f286-fecb-4f6a-9c19-c13822b5df23","ios":"levelo://app?vid=f540f286-fecb-4f6a-9c19-c13822b5df23"},"vehicle_type_id":"4","last_reported":1740708905,"current_range_meters":12000,"station_id":"ce4bhch2rcd13ifvqeug","pricing_plan_id":"cebpf4jnsgd1na2vs0mg"},{"bike_id":"20d08730-d04f-482a-9ed2-1d3e29b92784","system_id":"levelo_inurba_marseille","lat":43.3237,"lon":5.38863,"is_reserved":false,"is_disabled":false,"rental_uris":{"android":"levelo://app?vid=20d08730-d04f-482a-9ed2-1d3e29b92784","ios":"levelo://app?vid=20d08730-d04f-482a-9ed2-1d3e29b92784"},"vehicle_type_id":"4","last_reported":1740708905,"current_range_meters":12000,"station_id":"ce4bhqp2rcd13ifvqhog","pricing_plan_id":"cebpf4jnsgd1na2vs0mg"},{"bike_id":"464da985-0d18-414e-a22b-ee83e6a7dbce","system_id":"levelo_inurba_marseille","lat":43.30884,"lon":5.39646,"is_reserved":false,"is_disabled":false,"rental_uris":{"android":"levelo://app?vid=464da985-0d18-414e-a22b-ee83e6a7dbce","ios":"levelo://app?vid=464da985-0d18-414e-a22b-ee83e6a7dbce"},"vehicle_type_id":"4","last_reported":1740708905,"current_range_meters":12000,"station_id":"ce4bh012rcd13ifvqcv0","pricing_plan_id":"cebpf4jnsgd1na2vs0mg"},{"bike_id":"ef77bf7f-5b88-41c9-8d3b-c8c9c0447dd9","system_id":"levelo_inurba_marseille","lat":43.28025,"lon":5.35084,"is_reserved":false,"is_disabled":false,"rental_uris":{"android":"levelo://app?vid=ef77bf7f-5b88-41c9-8d3b-c8c9c0447dd9","ios":"levelo://app?vid=ef77bf7f-5b88-41c9-8d3b-c8c9c0447dd9"},"vehicle_type_id":"4","last_reported":1740708905,"current_range_meters":12000,"station_id":"","pricing_plan_id":"cebpf4jnsgd1na2vs0mg"},{"bike_id":"e66402c8-5bb0-4c22-aca7-d219f414d36d","system_id":"levelo_inurba_marseille","lat":43.31129,"lon":5.37763,"is_reserved":false,"is_disabled":false,"rental_uris":{"android":"levelo://app?vid=e66402c8-5bb0-4c22-aca7-d219f414d36d","ios":"levelo://app?vid=e66402c8-5bb0-4c22-aca7-d219f414d36d"},"vehicle_type_id":"4","last_reported":1740708905,"current_range_meters":12000,"station_id":"ce4bgt92rcd13ifvqcg0","pricing_plan_id":"cebpf4jnsgd1na2vs0mg"},{"bike_id":"11c3bb28-0881-4ad9-8c9c-f86e73594432","system_id":"levelo_inurba_marseille","lat":43.28433,"lon":5.35881,"is_reserved":false,"is_disabled":false,"rental_uris":{"android":"levelo://app?vid=11c3bb28-0881-4ad9-8c9c-f86e73594432","ios":"levelo://app?vid=11c3bb28-0881-4ad9-8c9c-f86e73594432"},"vehicle_type_id":"4","last_reported":1740708905,"current_range_meters":12000,"station_id":"ce4bhah2rcd13ifvqei0","pricing_plan_id":"cebpf4jnsgd1na2vs0mg"},{"bike_id":"2807c557-df2a-45cd-a759-8bca5a0e0361","system_id":"levelo_inurba_marseille","lat":43.3095,"lon":5.39029,"is_reserved":false,"is_disabled":false,"rental_uris":{"android":"levelo://app?vid=2807c557-df2a-45cd-a759-8bca5a0e0361","ios":"levelo://app?vid=2807c557-df2a-45cd-a759-8bca5a0e0361"},"vehicle_type_id":"4","last_reported":1740708905,"current_range_meters":12000,"station_id":"ce4bgup2rcd13ifvqco0","pricing_plan_id":"cebpf4jnsgd1na2vs0mg"},{"bike_id":"0771be02-e3e2-47da-b3c9-86df7888c832","system_id":"levelo_inurba_marseille","lat":43.29207,"lon":5.36086,"is_reserved":false,"is_disabled":false,"rental_uris":{"android":"levelo://app?vid=0771be02-e3e2-47da-b3c9-86df7888c832","ios":"levelo://app?vid=0771be02-e3e2-47da-b3c9-86df7888c832"},"vehicle_type_id":"4","last_reported":1740708905,"current_range_meters":12400,"station_id":"ce4bhbh2rcd13ifvqeqg","pricing_plan_id":"cebpf4jnsgd1na2vs0mg"},{"bike_id":"21d163b0-76d6-433d-af00-7c1303f28c95","system_id":"levelo_inurba_marseille","lat":43.28413,"lon":5.37519,"is_reserved":false,"is_disabled":false,"rental_uris":{"android":"levelo://app?vid=21d163b0-76d6-433d-af00-7c1303f28c95","ios":"levelo://app?vid=21d163b0-76d6-433d-af00-7c1303f28c95"},"vehicle_type_id":"4","last_reported":1740708905,"current_range_meters":12400,"station_id":"ce4bh412rcd13ifvqds0","pricing_plan_id":"cebpf4jnsgd1na2vs0mg"},{"bike_id":"149f1135-346c-41b3-b1dc-319c0851d633","system_id":"levelo_inurba_marseille","lat":43.28728,"lon":5.36093,"is_reserved":false,"is_disabled":false,"rental_uris":{"android":"levelo://app?vid=149f1135-346c-41b3-b1dc-319c0851d633","ios":"levelo://app?vid=149f1135-346c-41b3-b1dc-319c0851d633"},"vehicle_type_id":"4","last_reported":1740708905,"current_range_meters":12000,"station_id":"cki0cbj6b192h4jlfktg","pricing_plan_id":"cebpf4jnsgd1na2vs0mg"},{"bike_id":"87f4694a-7002-40c0-9a0e-2123fd36309b","system_id":"levelo_inurba_marseille","lat":43.29016,"lon":5.35606,"is_reserved":false,"is_disabled":false,"rental_uris":{"android":"levelo://app?vid=87f4694a-7002-40c0-9a0e-2123fd36309b","ios":"levelo://app?vid=87f4694a-7002-40c0-9a0e-2123fd36309b"},"vehicle_type_id":"4","last_reported":1740708905,"current_range_meters":12400,"station_id":"ce4bhb92rcd13ifvqen0","pricing_plan_id":"cebpf4jnsgd1na2vs0mg"},{"bike_id":"a4c22857-6480-465b-b474-1cc963b1061a","system_id":"levelo_inurba_marseille","lat":43.26049,"lon":5.39402,"is_reserved":false,"is_disabled":false,"rental_uris":{"android":"levelo://app?vid=a4c22857-6480-465b-b474-1cc963b1061a","ios":"levelo://app?vid=a4c22857-6480-465b-b474-1cc963b1061a"},"vehicle_type_id":"4","last_reported":1740708905,"current_range_meters":12400,"station_id":"ce4bhh92rcd13ifvqfj0","pricing_plan_id":"cebpf4jnsgd1na2vs0mg"},{"bike_id":"6f08793c-0e13-4755-8250-eb14e46e9c0b","system_id":"levelo_inurba_marseille","lat":43.23192,"lon":5.39978,"is_reserved":false,"is_disabled":false,"rental_uris":{"android":"levelo://app?vid=6f08793c-0e13-4755-8250-eb14e46e9c0b","ios":"levelo://app?vid=6f08793c-0e13-4755-8250-eb14e46e9c0b"},"vehicle_type_id":"4","last_reported":1740708905,"current_range_meters":12400,"station_id":"ce4bhn12rcd13ifvqgqg","pricing_plan_id":"cebpf4jnsgd1na2vs0mg"},{"bike_id":"5b28cd77-a409-482f-8702-f764eef9151e","system_id":"levelo_inurba_marseille","lat":43.25928,"lon":5.40916,"is_reserved":false,"is_disabled":true,"rental_uris":{"android":"levelo://app?vid=5b28cd77-a409-482f-8702-f764eef9151e","ios":"levelo://app?vid=5b28cd77-a409-482f-8702-f764eef9151e"},"vehicle_type_id":"4","last_reported":1740708905,"current_range_meters":12400,"station_id":"ce4bhm92rcd13ifvqglg","pricing_plan_id":"cebpf4jnsgd1na2vs0mg"},{"bike_id":"07e562af-4bef-47f8-a85e-d84ded116372","system_id":"levelo_inurba_marseille","lat":43.28087,"lon":5.39663,"is_reserved":false,"is_disabled":false,"rental_uris":{"android":"levelo://app?vid=07e562af-4bef-47f8-a85e-d84ded116372","ios":"levelo://app?vid=07e562af-4bef-47f8-a85e-d84ded116372"},"vehicle_type_id":"4","last_reported":1740708905,"current_range_meters":12400,"station_id":"ce4bho12rcd13ifvqh2g","pricing_plan_id":"cebpf4jnsgd1na2vs0mg"},{"bike_id":"2f9f99a2-13fd-4e67-b6f6-cde754ec372e","system_id":"levelo_inurba_marseille","lat":43.29016,"lon":5.35592,"is_reserved":false,"is_disabled":false,"rental_uris":{"android":"levelo://app?vid=2f9f99a2-13fd-4e67-b6f6-cde754ec372e","ios":"levelo://app?vid=2f9f99a2-13fd-4e67-b6f6-cde754ec372e"},"vehicle_type_id":"4","last_reported":1740708905,"current_range_meters":12800,"station_id":"ce4bhb92rcd13ifvqen0","pricing_plan_id":"cebpf4jnsgd1na2vs0mg"},{"bike_id":"7562303f-eb2b-41bb-be54-db23a576d5e8","system_id":"levelo_inurba_marseille","lat":43.28606,"lon":5.35132,"is_reserved":false,"is_disabled":false,"rental_uris":{"android":"levelo://app?vid=7562303f-eb2b-41bb-be54-db23a576d5e8","ios":"levelo://app?vid=7562303f-eb2b-41bb-be54-db23a576d5e8"},"vehicle_type_id":"4","last_reported":1740708905,"current_range_meters":13600,"station_id":"ce4bhch2rcd13ifvqeug","pricing_plan_id":"cebpf4jnsgd1na2vs0mg"},{"bike_id":"199d096e-ca37-47f9-963f-1f0656cac9e4","system_id":"levelo_inurba_marseille","lat":43.25824,"lon":5.39442,"is_reserved":false,"is_disabled":false,"rental_uris":{"android":"levelo://app?vid=199d096e-ca37-47f9-963f-1f0656cac9e4","ios":"levelo://app?vid=199d096e-ca37-47f9-963f-1f0656cac9e4"},"vehicle_type_id":"4","last_reported":1740708905,"current_range_meters":12800,"station_id":"ce4bhip2rcd13ifvqft0","pricing_plan_id":"cebpf4jnsgd1na2vs0mg"},{"bike_id":"7f061ae0-de9a-4df5-a252-56d0d6196e2b","system_id":"levelo_inurba_marseille","lat":43.32002,"lon":5.38151,"is_reserved":false,"is_disabled":false,"rental_uris":{"android":"levelo://app?vid=7f061ae0-de9a-4df5-a252-56d0d6196e2b","ios":"levelo://app?vid=7f061ae0-de9a-4df5-a252-56d0d6196e2b"},"vehicle_type_id":"4","last_reported":1740708905,"current_range_meters":12800,"station_id":"ce4bhr12rcd13ifvqhpg","pricing_plan_id":"cebpf4jnsgd1na2vs0mg"},{"bike_id":"8f678c7f-cb2d-4b02-939d-384b0cfded7e","system_id":"levelo_inurba_marseille","lat":43.28708,"lon":5.37398,"is_reserved":false,"is_disabled":false,"rental_uris":{"android":"levelo://app?vid=8f678c7f-cb2d-4b02-939d-384b0cfded7e","ios":"levelo://app?vid=8f678c7f-cb2d-4b02-939d-384b0cfded7e"},"vehicle_type_id":"4","last_reported":1740708905,"current_range_meters":12800,"station_id":"ce4bh3p2rcd13ifvqdq0","pricing_plan_id":"cebpf4jnsgd1na2vs0mg"},{"bike_id":"dc6b2481-a65a-4538-8596-db342d3e5a57","system_id":"levelo_inurba_marseille","lat":43.2992,"lon":5.36526,"is_reserved":false,"is_disabled":false,"rental_uris":{"android":"levelo://app?vid=dc6b2481-a65a-4538-8596-db342d3e5a57","ios":"levelo://app?vid=dc6b2481-a65a-4538-8596-db342d3e5a57"},"vehicle_type_id":"4","last_reported":1740708905,"current_range_meters":13600,"station_id":"ce4bgm92rcd13ifvqbr0","pricing_plan_id":"cebpf4jnsgd1na2vs0mg"},{"bike_id":"d6eac1e4-94c7-4b0a-b122-2daa16ebae64","system_id":"levelo_inurba_marseille","lat":43.32354,"lon":5.38884,"is_reserved":false,"is_disabled":false,"rental_uris":{"android":"levelo://app?vid=d6eac1e4-94c7-4b0a-b122-2daa16ebae64","ios":"levelo://app?vid=d6eac1e4-94c7-4b0a-b122-2daa16ebae64"},"vehicle_type_id":"4","last_reported":1740708905,"current_range_meters":13600,"station_id":"ce4bhqp2rcd13ifvqhog","pricing_plan_id":"cebpf4jnsgd1na2vs0mg"},{"bike_id":"6ef6678e-7644-412c-bff0-e64827deac31","system_id":"levelo_inurba_marseille","lat":43.28409,"lon":5.37526,"is_reserved":false,"is_disabled":false,"rental_uris":{"android":"levelo://app?vid=6ef6678e-7644-412c-bff0-e64827deac31","ios":"levelo://app?vid=6ef6678e-7644-412c-bff0-e64827deac31"},"vehicle_type_id":"4","last_reported":1740708905,"current_range_meters":13600,"station_id":"ce4bh412rcd13ifvqds0","pricing_plan_id":"cebpf4jnsgd1na2vs0mg"},{"bike_id":"1330b958-b6d2-49bf-a381-4306479aa4e8","system_id":"levelo_inurba_marseille","lat":43.28689,"lon":5.39985,"is_reserved":false,"is_disabled":false,"rental_uris":{"android":"levelo://app?vid=1330b958-b6d2-49bf-a381-4306479aa4e8","ios":"levelo://app?vid=1330b958-b6d2-49bf-a381-4306479aa4e8"},"vehicle_type_id":"4","last_reported":1740708905,"current_range_meters":13600,"station_id":"ce4bho92rcd13ifvqh3g","pricing_plan_id":"cebpf4jnsgd1na2vs0mg"},{"bike_id":"7b2168bf-cc79-4f74-99d5-2d042a76e474","system_id":"levelo_inurba_marseille","lat":43.305845,"lon":5.393638,"is_reserved":false,"is_disabled":false,"rental_uris":{"android":"levelo://app?vid=7b2168bf-cc79-4f74-99d5-2d042a76e474","ios":"levelo://app?vid=7b2168bf-cc79-4f74-99d5-2d042a76e474"},"vehicle_type_id":"4","last_reported":1740708905,"current_range_meters":13600,"station_id":"ce4bh0p2rcd13ifvqd80","pricing_plan_id":"cebpf4jnsgd1na2vs0mg"},{"bike_id":"c6b5f9f2-a258-4f07-9a3b-85dd6cf998c0","system_id":"levelo_inurba_marseille","lat":43.306443,"lon":5.40078,"is_reserved":false,"is_disabled":false,"rental_uris":{"android":"levelo://app?vid=c6b5f9f2-a258-4f07-9a3b-85dd6cf998c0","ios":"levelo://app?vid=c6b5f9f2-a258-4f07-9a3b-85dd6cf998c0"},"vehicle_type_id":"4","last_reported":1740708905,"current_range_meters":13600,"station_id":"ce4bh112rcd13ifvqda0","pricing_plan_id":"cebpf4jnsgd1na2vs0mg"},{"bike_id":"ed0a7ddd-a0d0-4e14-93e4-4a5540c1f9fd","system_id":"levelo_inurba_marseille","lat":43.308011,"lon":5.435282,"is_reserved":false,"is_disabled":false,"rental_uris":{"android":"levelo://app?vid=ed0a7ddd-a0d0-4e14-93e4-4a5540c1f9fd","ios":"levelo://app?vid=ed0a7ddd-a0d0-4e14-93e4-4a5540c1f9fd"},"vehicle_type_id":"4","last_reported":1740708905,"current_range_meters":14000,"station_id":"ce4bgl92rcd13ifvqbq0","pricing_plan_id":"cebpf4jnsgd1na2vs0mg"},{"bike_id":"43d6aa6f-20c7-4a1b-bcb8-31b660876567","system_id":"levelo_inurba_marseille","lat":43.26549,"lon":5.37266,"is_reserved":false,"is_disabled":false,"rental_uris":{"android":"levelo://app?vid=43d6aa6f-20c7-4a1b-bcb8-31b660876567","ios":"levelo://app?vid=43d6aa6f-20c7-4a1b-bcb8-31b660876567"},"vehicle_type_id":"4","last_reported":1740708905,"current_range_meters":14000,"station_id":"ce4bhg12rcd13ifvqf70","pricing_plan_id":"cebpf4jnsgd1na2vs0mg"},{"bike_id":"3f5e4c77-943b-4a46-b257-614bf13afec4","system_id":"levelo_inurba_marseille","lat":43.241654,"lon":5.364003,"is_reserved":false,"is_disabled":false,"rental_uris":{"android":"levelo://app?vid=3f5e4c77-943b-4a46-b257-614bf13afec4","ios":"levelo://app?vid=3f5e4c77-943b-4a46-b257-614bf13afec4"},"vehicle_type_id":"4","last_reported":1740708905,"current_range_meters":14000,"station_id":"cpo36qri1sfpv3e86is0","pricing_plan_id":"cebpf4jnsgd1na2vs0mg"},{"bike_id":"e8326ac1-e393-42b4-a549-cbf690b51fc4","system_id":"levelo_inurba_marseille","lat":43.30608,"lon":5.37186,"is_reserved":false,"is_disabled":false,"rental_uris":{"android":"levelo://app?vid=e8326ac1-e393-42b4-a549-cbf690b51fc4","ios":"levelo://app?vid=e8326ac1-e393-42b4-a549-cbf690b51fc4"},"vehicle_type_id":"4","last_reported":1740708905,"current_range_meters":14000,"station_id":"ce4bgqh2rcd13ifvqc4g","pricing_plan_id":"cebpf4jnsgd1na2vs0mg"},{"bike_id":"f7fe6e63-0b18-4c93-be1b-f5ad9a7c4609","system_id":"levelo_inurba_marseille","lat":43.2885,"lon":5.35839,"is_reserved":false,"is_disabled":false,"rental_uris":{"android":"levelo://app?vid=f7fe6e63-0b18-4c93-be1b-f5ad9a7c4609","ios":"levelo://app?vid=f7fe6e63-0b18-4c93-be1b-f5ad9a7c4609"},"vehicle_type_id":"4","last_reported":1740708905,"current_range_meters":14000,"station_id":"ce4bhb12rcd13ifvqem0","pricing_plan_id":"cebpf4jnsgd1na2vs0mg"},{"bike_id":"7e9d22d9-ba51-4803-b02f-7c33cef12f33","system_id":"levelo_inurba_marseille","lat":43.28417,"lon":5.37514,"is_reserved":false,"is_disabled":false,"rental_uris":{"android":"levelo://app?vid=7e9d22d9-ba51-4803-b02f-7c33cef12f33","ios":"levelo://app?vid=7e9d22d9-ba51-4803-b02f-7c33cef12f33"},"vehicle_type_id":"4","last_reported":1740708905,"current_range_meters":14000,"station_id":"ce4bh412rcd13ifvqds0","pricing_plan_id":"cebpf4jnsgd1na2vs0mg"},{"bike_id":"07716cd5-aa06-4ec2-be21-a681b685518f","system_id":"levelo_inurba_marseille","lat":43.26182,"lon":5.42073,"is_reserved":false,"is_disabled":false,"rental_uris":{"android":"levelo://app?vid=07716cd5-aa06-4ec2-be21-a681b685518f","ios":"levelo://app?vid=07716cd5-aa06-4ec2-be21-a681b685518f"},"vehicle_type_id":"4","last_reported":1740708905,"current_range_meters":14400,"station_id":"","pricing_plan_id":"cebpf4jnsgd1na2vs0mg"},{"bike_id":"94fc79a4-4884-4101-8aeb-357625bbbbad","system_id":"levelo_inurba_marseille","lat":43.27812,"lon":5.40724,"is_reserved":false,"is_disabled":false,"rental_uris":{"android":"levelo://app?vid=94fc79a4-4884-4101-8aeb-357625bbbbad","ios":"levelo://app?vid=94fc79a4-4884-4101-8aeb-357625bbbbad"},"vehicle_type_id":"4","last_reported":1740708905,"current_range_meters":14400,"station_id":"ce4bhnh2rcd13ifvqgtg","pricing_plan_id":"cebpf4jnsgd1na2vs0mg"},{"bike_id":"aec0cf5e-069a-4464-b600-20f371062b7e","system_id":"levelo_inurba_marseille","lat":43.31712,"lon":5.37772,"is_reserved":false,"is_disabled":false,"rental_uris":{"android":"levelo://app?vid=aec0cf5e-069a-4464-b600-20f371062b7e","ios":"levelo://app?vid=aec0cf5e-069a-4464-b600-20f371062b7e"},"vehicle_type_id":"4","last_reported":1740708905,"current_range_meters":14400,"station_id":"ce4bgth2rcd13ifvqch0","pricing_plan_id":"cebpf4jnsgd1na2vs0mg"},{"bike_id":"0bee8aaa-9e8d-41f7-ad52-a5c85a6364c9","system_id":"levelo_inurba_marseille","lat":43.27624,"lon":5.36111,"is_reserved":false,"is_disabled":false,"rental_uris":{"android":"levelo://app?vid=0bee8aaa-9e8d-41f7-ad52-a5c85a6364c9","ios":"levelo://app?vid=0bee8aaa-9e8d-41f7-ad52-a5c85a6364c9"},"vehicle_type_id":"4","last_reported":1740708905,"current_range_meters":14400,"station_id":"ce4bgj92rcd13ifvqbe0","pricing_plan_id":"cebpf4jnsgd1na2vs0mg"},{"bike_id":"1da63227-255e-41d7-9093-c8c2ef6a9f2a","system_id":"levelo_inurba_marseille","lat":43.27983,"lon":5.41652,"is_reserved":false,"is_disabled":false,"rental_uris":{"android":"levelo://app?vid=1da63227-255e-41d7-9093-c8c2ef6a9f2a","ios":"levelo://app?vid=1da63227-255e-41d7-9093-c8c2ef6a9f2a"},"vehicle_type_id":"4","last_reported":1740708905,"current_range_meters":14800,"station_id":"ce4bho12rcd13ifvqh1g","pricing_plan_id":"cebpf4jnsgd1na2vs0mg"},{"bike_id":"6d428432-8be2-47ad-b84d-a58bf7f395bd","system_id":"levelo_inurba_marseille","lat":43.28952,"lon":5.36399,"is_reserved":false,"is_disabled":false,"rental_uris":{"android":"levelo://app?vid=6d428432-8be2-47ad-b84d-a58bf7f395bd","ios":"levelo://app?vid=6d428432-8be2-47ad-b84d-a58bf7f395bd"},"vehicle_type_id":"4","last_reported":1740708905,"current_range_meters":14800,"station_id":"ce4bhc92rcd13ifvqetg","pricing_plan_id":"cebpf4jnsgd1na2vs0mg"},{"bike_id":"aadc1ee2-57a4-4830-b2ab-210fa9fbbbc5","system_id":"levelo_inurba_marseille","lat":43.29265,"lon":5.40147,"is_reserved":false,"is_disabled":false,"rental_uris":{"android":"levelo://app?vid=aadc1ee2-57a4-4830-b2ab-210fa9fbbbc5","ios":"levelo://app?vid=aadc1ee2-57a4-4830-b2ab-210fa9fbbbc5"},"vehicle_type_id":"4","last_reported":1740708905,"current_range_meters":14800,"station_id":"ce4bh312rcd13ifvqdk0","pricing_plan_id":"cebpf4jnsgd1na2vs0mg"},{"bike_id":"0ebffcee-3697-4987-8cfd-ce56c427abfe","system_id":"levelo_inurba_marseille","lat":43.28457,"lon":5.35882,"is_reserved":false,"is_disabled":false,"rental_uris":{"android":"levelo://app?vid=0ebffcee-3697-4987-8cfd-ce56c427abfe","ios":"levelo://app?vid=0ebffcee-3697-4987-8cfd-ce56c427abfe"},"vehicle_type_id":"4","last_reported":1740708905,"current_range_meters":14800,"station_id":"ce4bhah2rcd13ifvqei0","pricing_plan_id":"cebpf4jnsgd1na2vs0mg"},{"bike_id":"6c03af07-43d6-40b5-b0cf-7c33497afc57","system_id":"levelo_inurba_marseille","lat":43.28634,"lon":5.35087,"is_reserved":false,"is_disabled":false,"rental_uris":{"android":"levelo://app?vid=6c03af07-43d6-40b5-b0cf-7c33497afc57","ios":"levelo://app?vid=6c03af07-43d6-40b5-b0cf-7c33497afc57"},"vehicle_type_id":"4","last_reported":1740708905,"current_range_meters":14800,"station_id":"ce4bhch2rcd13ifvqeug","pricing_plan_id":"cebpf4jnsgd1na2vs0mg"},{"bike_id":"4f28057b-959a-4300-9ae2-dd5630013219","system_id":"levelo_inurba_marseille","lat":43.30141,"lon":5.39884,"is_reserved":false,"is_disabled":false,"rental_uris":{"android":"levelo://app?vid=4f28057b-959a-4300-9ae2-dd5630013219","ios":"levelo://app?vid=4f28057b-959a-4300-9ae2-dd5630013219"},"vehicle_type_id":"4","last_reported":1740708905,"current_range_meters":15200,"station_id":"ce4bh0h2rcd13ifvqd40","pricing_plan_id":"cebpf4jnsgd1na2vs0mg"},{"bike_id":"64d5bd85-58b2-4b54-b93c-4a6aef9a8da8","system_id":"levelo_inurba_marseille","lat":43.3054,"lon":5.36537,"is_reserved":false,"is_disabled":true,"rental_uris":{"android":"levelo://app?vid=64d5bd85-58b2-4b54-b93c-4a6aef9a8da8","ios":"levelo://app?vid=64d5bd85-58b2-4b54-b93c-4a6aef9a8da8"},"vehicle_type_id":"4","last_reported":1740708905,"current_range_meters":15200,"station_id":"ce4bgs12rcd13ifvqcag","pricing_plan_id":"cebpf4jnsgd1na2vs0mg"},{"bike_id":"15204670-483e-4adc-adc6-2fb8bc37754c","system_id":"levelo_inurba_marseille","lat":43.2582,"lon":5.39422,"is_reserved":false,"is_disabled":false,"rental_uris":{"android":"levelo://app?vid=15204670-483e-4adc-adc6-2fb8bc37754c","ios":"levelo://app?vid=15204670-483e-4adc-adc6-2fb8bc37754c"},"vehicle_type_id":"4","last_reported":1740708905,"current_range_meters":15200,"station_id":"ce4bhip2rcd13ifvqft0","pricing_plan_id":"cebpf4jnsgd1na2vs0mg"},{"bike_id":"a9757b2e-0188-4e2f-9062-079c74f7d4d4","system_id":"levelo_inurba_marseille","lat":43.25587,"lon":5.38243,"is_reserved":false,"is_disabled":false,"rental_uris":{"android":"levelo://app?vid=a9757b2e-0188-4e2f-9062-079c74f7d4d4","ios":"levelo://app?vid=a9757b2e-0188-4e2f-9062-079c74f7d4d4"},"vehicle_type_id":"4","last_reported":1740708905,"current_range_meters":15200,"station_id":"ce4bhih2rcd13ifvqfs0","pricing_plan_id":"cebpf4jnsgd1na2vs0mg"},{"bike_id":"41ae3cba-df90-47eb-9185-828aeb3d2ccd","system_id":"levelo_inurba_marseille","lat":43.25575,"lon":5.38245,"is_reserved":false,"is_disabled":false,"rental_uris":{"android":"levelo://app?vid=41ae3cba-df90-47eb-9185-828aeb3d2ccd","ios":"levelo://app?vid=41ae3cba-df90-47eb-9185-828aeb3d2ccd"},"vehicle_type_id":"4","last_reported":1740708905,"current_range_meters":15200,"station_id":"ce4bhih2rcd13ifvqfs0","pricing_plan_id":"cebpf4jnsgd1na2vs0mg"},{"bike_id":"6aecb31f-da07-4ed5-9147-fb36735747bd","system_id":"levelo_inurba_marseille","lat":43.2952,"lon":5.39413,"is_reserved":false,"is_disabled":true,"rental_uris":{"android":"levelo://app?vid=6aecb31f-da07-4ed5-9147-fb36735747bd","ios":"levelo://app?vid=6aecb31f-da07-4ed5-9147-fb36735747bd"},"vehicle_type_id":"4","last_reported":1740708905,"current_range_meters":15200,"station_id":"ce4bh292rcd13ifvqdf0","pricing_plan_id":"cebpf4jnsgd1na2vs0mg"},{"bike_id":"7a49f9e1-5ffc-4171-97d7-e500777d1c5f","system_id":"levelo_inurba_marseille","lat":43.28724,"lon":5.36089,"is_reserved":false,"is_disabled":false,"rental_uris":{"android":"levelo://app?vid=7a49f9e1-5ffc-4171-97d7-e500777d1c5f","ios":"levelo://app?vid=7a49f9e1-5ffc-4171-97d7-e500777d1c5f"},"vehicle_type_id":"4","last_reported":1740708905,"current_range_meters":15200,"station_id":"cki0cbj6b192h4jlfktg","pricing_plan_id":"cebpf4jnsgd1na2vs0mg"},{"bike_id":"3044cc31-8a62-4be9-ab09-4205e4b45362","system_id":"levelo_inurba_marseille","lat":43.2439,"lon":5.3706,"is_reserved":false,"is_disabled":false,"rental_uris":{"android":"levelo://app?vid=3044cc31-8a62-4be9-ab09-4205e4b45362","ios":"levelo://app?vid=3044cc31-8a62-4be9-ab09-4205e4b45362"},"vehicle_type_id":"4","last_reported":1740708905,"current_range_meters":14800,"station_id":"ce4bhhh2rcd13ifvqfk0","pricing_plan_id":"cebpf4jnsgd1na2vs0mg"},{"bike_id":"1aea0dde-a7bb-4730-8e2c-695419b49399","system_id":"levelo_inurba_marseille","lat":43.323644,"lon":5.388885,"is_reserved":false,"is_disabled":false,"rental_uris":{"android":"levelo://app?vid=1aea0dde-a7bb-4730-8e2c-695419b49399","ios":"levelo://app?vid=1aea0dde-a7bb-4730-8e2c-695419b49399"},"vehicle_type_id":"4","last_reported":1740708905,"current_range_meters":16000,"station_id":"ce4bhqp2rcd13ifvqhog","pricing_plan_id":"cebpf4jnsgd1na2vs0mg"},{"bike_id":"24476cb6-9c12-4997-ab8d-8cfe9d8b4bb4","system_id":"levelo_inurba_marseille","lat":43.28637,"lon":5.35084,"is_reserved":false,"is_disabled":false,"rental_uris":{"android":"levelo://app?vid=24476cb6-9c12-4997-ab8d-8cfe9d8b4bb4","ios":"levelo://app?vid=24476cb6-9c12-4997-ab8d-8cfe9d8b4bb4"},"vehicle_type_id":"4","last_reported":1740708905,"current_range_meters":16000,"station_id":"ce4bhch2rcd13ifvqeug","pricing_plan_id":"cebpf4jnsgd1na2vs0mg"},{"bike_id":"1ec95ae8-47b1-46be-ab6f-633627e7d180","system_id":"levelo_inurba_marseille","lat":43.25089,"lon":5.39523,"is_reserved":false,"is_disabled":false,"rental_uris":{"android":"levelo://app?vid=1ec95ae8-47b1-46be-ab6f-633627e7d180","ios":"levelo://app?vid=1ec95ae8-47b1-46be-ab6f-633627e7d180"},"vehicle_type_id":"4","last_reported":1740708905,"current_range_meters":16000,"station_id":"ce4bhm12rcd13ifvqgkg","pricing_plan_id":"cebpf4jnsgd1na2vs0mg"},{"bike_id":"86a46856-8658-4d19-82f6-6211c233c775","system_id":"levelo_inurba_marseille","lat":43.30084,"lon":5.39082,"is_reserved":false,"is_disabled":false,"rental_uris":{"android":"levelo://app?vid=86a46856-8658-4d19-82f6-6211c233c775","ios":"levelo://app?vid=86a46856-8658-4d19-82f6-6211c233c775"},"vehicle_type_id":"4","last_reported":1740708905,"current_range_meters":15200,"station_id":"ce4bh192rcd13ifvqdb0","pricing_plan_id":"cebpf4jnsgd1na2vs0mg"},{"bike_id":"cb3707bf-5ae0-4061-b6c8-982588f84b39","system_id":"levelo_inurba_marseille","lat":43.2743,"lon":5.3938,"is_reserved":false,"is_disabled":true,"rental_uris":{"android":"levelo://app?vid=cb3707bf-5ae0-4061-b6c8-982588f84b39","ios":"levelo://app?vid=cb3707bf-5ae0-4061-b6c8-982588f84b39"},"vehicle_type_id":"4","last_reported":1740708905,"current_range_meters":16400,"station_id":"ce4bhdp2rcd13ifvqf20","pricing_plan_id":"cebpf4jnsgd1na2vs0mg"},{"bike_id":"e7da0d3a-eb3a-4247-b32a-301e2c05d327","system_id":"levelo_inurba_marseille","lat":43.30302,"lon":5.39207,"is_reserved":false,"is_disabled":false,"rental_uris":{"android":"levelo://app?vid=e7da0d3a-eb3a-4247-b32a-301e2c05d327","ios":"levelo://app?vid=e7da0d3a-eb3a-4247-b32a-301e2c05d327"},"vehicle_type_id":"4","last_reported":1740708905,"current_range_meters":16000,"station_id":"ce4bgkh2rcd13ifvqbk0","pricing_plan_id":"cebpf4jnsgd1na2vs0mg"},{"bike_id":"8a314266-b160-4d5d-8350-1d44f6212640","system_id":"levelo_inurba_marseille","lat":43.28645,"lon":5.36318,"is_reserved":false,"is_disabled":false,"rental_uris":{"android":"levelo://app?vid=8a314266-b160-4d5d-8350-1d44f6212640","ios":"levelo://app?vid=8a314266-b160-4d5d-8350-1d44f6212640"},"vehicle_type_id":"4","last_reported":1740708905,"current_range_meters":16000,"station_id":"ce4bhah2rcd13ifvqej0","pricing_plan_id":"cebpf4jnsgd1na2vs0mg"},{"bike_id":"799db38b-d1ec-4880-9ea0-bfc34870244b","system_id":"levelo_inurba_marseille","lat":43.287039,"lon":5.39982,"is_reserved":false,"is_disabled":false,"rental_uris":{"android":"levelo://app?vid=799db38b-d1ec-4880-9ea0-bfc34870244b","ios":"levelo://app?vid=799db38b-d1ec-4880-9ea0-bfc34870244b"},"vehicle_type_id":"4","last_reported":1740708905,"current_range_meters":16000,"station_id":"ce4bho92rcd13ifvqh3g","pricing_plan_id":"cebpf4jnsgd1na2vs0mg"},{"bike_id":"3ef19255-5c1c-4038-9633-81456dc4addd","system_id":"levelo_inurba_marseille","lat":43.28717,"lon":5.39988,"is_reserved":false,"is_disabled":false,"rental_uris":{"android":"levelo://app?vid=3ef19255-5c1c-4038-9633-81456dc4addd","ios":"levelo://app?vid=3ef19255-5c1c-4038-9633-81456dc4addd"},"vehicle_type_id":"4","last_reported":1740708905,"current_range_meters":16000,"station_id":"ce4bho92rcd13ifvqh3g","pricing_plan_id":"cebpf4jnsgd1na2vs0mg"},{"bike_id":"b4f1c498-5c3f-4907-bdfa-6b4e5dbdb3b3","system_id":"levelo_inurba_marseille","lat":43.28462,"lon":5.35887,"is_reserved":false,"is_disabled":false,"rental_uris":{"android":"levelo://app?vid=b4f1c498-5c3f-4907-bdfa-6b4e5dbdb3b3","ios":"levelo://app?vid=b4f1c498-5c3f-4907-bdfa-6b4e5dbdb3b3"},"vehicle_type_id":"4","last_reported":1740708905,"current_range_meters":16400,"station_id":"ce4bhah2rcd13ifvqei0","pricing_plan_id":"cebpf4jnsgd1na2vs0mg"},{"bike_id":"befe9faa-0acf-4473-ac2e-b1a82faba46c","system_id":"levelo_inurba_marseille","lat":43.28928,"lon":5.36389,"is_reserved":false,"is_disabled":false,"rental_uris":{"android":"levelo://app?vid=befe9faa-0acf-4473-ac2e-b1a82faba46c","ios":"levelo://app?vid=befe9faa-0acf-4473-ac2e-b1a82faba46c"},"vehicle_type_id":"4","last_reported":1740708905,"current_range_meters":16400,"station_id":"ce4bhc92rcd13ifvqetg","pricing_plan_id":"cebpf4jnsgd1na2vs0mg"},{"bike_id":"e62e4c2a-07e3-41ea-af00-47fec24e19ec","system_id":"levelo_inurba_marseille","lat":43.28842,"lon":5.35839,"is_reserved":false,"is_disabled":false,"rental_uris":{"android":"levelo://app?vid=e62e4c2a-07e3-41ea-af00-47fec24e19ec","ios":"levelo://app?vid=e62e4c2a-07e3-41ea-af00-47fec24e19ec"},"vehicle_type_id":"4","last_reported":1740708905,"current_range_meters":16800,"station_id":"ce4bhb12rcd13ifvqem0","pricing_plan_id":"cebpf4jnsgd1na2vs0mg"},{"bike_id":"28aa6b62-1966-499c-9c1f-09f1e20fdff5","system_id":"levelo_inurba_marseille","lat":43.29252,"lon":5.38438,"is_reserved":false,"is_disabled":true,"rental_uris":{"android":"levelo://app?vid=28aa6b62-1966-499c-9c1f-09f1e20fdff5","ios":"levelo://app?vid=28aa6b62-1966-499c-9c1f-09f1e20fdff5"},"vehicle_type_id":"4","last_reported":1740708905,"current_range_meters":16400,"station_id":"ce4bh692rcd13ifvqea0","pricing_plan_id":"cebpf4jnsgd1na2vs0mg"},{"bike_id":"8257347b-29cc-4d11-a952-5c3b319819e9","system_id":"levelo_inurba_marseille","lat":43.30322,"lon":5.40449,"is_reserved":false,"is_disabled":false,"rental_uris":{"android":"levelo://app?vid=8257347b-29cc-4d11-a952-5c3b319819e9","ios":"levelo://app?vid=8257347b-29cc-4d11-a952-5c3b319819e9"},"vehicle_type_id":"4","last_reported":1740708905,"current_range_meters":16800,"station_id":"ce4bh012rcd13ifvqd10","pricing_plan_id":"cebpf4jnsgd1na2vs0mg"},{"bike_id":"e3ff3318-d5f4-4580-b4df-8b7641ceb68c","system_id":"levelo_inurba_marseille","lat":43.30428,"lon":5.41275,"is_reserved":false,"is_disabled":false,"rental_uris":{"android":"levelo://app?vid=e3ff3318-d5f4-4580-b4df-8b7641ceb68c","ios":"levelo://app?vid=e3ff3318-d5f4-4580-b4df-8b7641ceb68c"},"vehicle_type_id":"4","last_reported":1740708905,"current_range_meters":16400,"station_id":"ce4bhop2rcd13ifvqh8g","pricing_plan_id":"cebpf4jnsgd1na2vs0mg"},{"bike_id":"7c373590-3fd6-44dc-a774-01671497b545","system_id":"levelo_inurba_marseille","lat":43.28633,"lon":5.35096,"is_reserved":false,"is_disabled":false,"rental_uris":{"android":"levelo://app?vid=7c373590-3fd6-44dc-a774-01671497b545","ios":"levelo://app?vid=7c373590-3fd6-44dc-a774-01671497b545"},"vehicle_type_id":"4","last_reported":1740708905,"current_range_meters":16400,"station_id":"ce4bhch2rcd13ifvqeug","pricing_plan_id":"cebpf4jnsgd1na2vs0mg"},{"bike_id":"513648a8-4857-4a1e-ac21-b4d51535a801","system_id":"levelo_inurba_marseille","lat":43.31731,"lon":5.42399,"is_reserved":false,"is_disabled":false,"rental_uris":{"android":"levelo://app?vid=513648a8-4857-4a1e-ac21-b4d51535a801","ios":"levelo://app?vid=513648a8-4857-4a1e-ac21-b4d51535a801"},"vehicle_type_id":"4","last_reported":1740708905,"current_range_meters":16400,"station_id":"ce4bhp92rcd13ifvqhbg","pricing_plan_id":"cebpf4jnsgd1na2vs0mg"},{"bike_id":"628d4724-b075-47e2-9b24-d38c2a4b1c4e","system_id":"levelo_inurba_marseille","lat":43.26938,"lon":5.40255,"is_reserved":false,"is_disabled":false,"rental_uris":{"android":"levelo://app?vid=628d4724-b075-47e2-9b24-d38c2a4b1c4e","ios":"levelo://app?vid=628d4724-b075-47e2-9b24-d38c2a4b1c4e"},"vehicle_type_id":"4","last_reported":1740708905,"current_range_meters":16400,"station_id":"cjm6bp8fraef2m0cb0m0","pricing_plan_id":"cebpf4jnsgd1na2vs0mg"},{"bike_id":"382d557d-8024-4f45-8140-482a40d06b19","system_id":"levelo_inurba_marseille","lat":43.278149,"lon":5.407221,"is_reserved":false,"is_disabled":false,"rental_uris":{"android":"levelo://app?vid=382d557d-8024-4f45-8140-482a40d06b19","ios":"levelo://app?vid=382d557d-8024-4f45-8140-482a40d06b19"},"vehicle_type_id":"4","last_reported":1740708905,"current_range_meters":16400,"station_id":"ce4bhnh2rcd13ifvqgtg","pricing_plan_id":"cebpf4jnsgd1na2vs0mg"},{"bike_id":"3e4abcf6-ec74-4d4d-8722-1baf5799169b","system_id":"levelo_inurba_marseille","lat":43.28403,"lon":5.37521,"is_reserved":false,"is_disabled":false,"rental_uris":{"android":"levelo://app?vid=3e4abcf6-ec74-4d4d-8722-1baf5799169b","ios":"levelo://app?vid=3e4abcf6-ec74-4d4d-8722-1baf5799169b"},"vehicle_type_id":"4","last_reported":1740708905,"current_range_meters":16400,"station_id":"ce4bh412rcd13ifvqds0","pricing_plan_id":"cebpf4jnsgd1na2vs0mg"},{"bike_id":"b17d2017-bcd6-4e8a-aeab-0388faac15b9","system_id":"levelo_inurba_marseille","lat":43.28462,"lon":5.35879,"is_reserved":false,"is_disabled":false,"rental_uris":{"android":"levelo://app?vid=b17d2017-bcd6-4e8a-aeab-0388faac15b9","ios":"levelo://app?vid=b17d2017-bcd6-4e8a-aeab-0388faac15b9"},"vehicle_type_id":"4","last_reported":1740708905,"current_range_meters":16400,"station_id":"ce4bhah2rcd13ifvqei0","pricing_plan_id":"cebpf4jnsgd1na2vs0mg"},{"bike_id":"a5f1ee78-5247-45ac-aa15-5a0c5dfda3b0","system_id":"levelo_inurba_marseille","lat":43.3056,"lon":5.36697,"is_reserved":false,"is_disabled":false,"rental_uris":{"android":"levelo://app?vid=a5f1ee78-5247-45ac-aa15-5a0c5dfda3b0","ios":"levelo://app?vid=a5f1ee78-5247-45ac-aa15-5a0c5dfda3b0"},"vehicle_type_id":"4","last_reported":1740708905,"current_range_meters":16800,"station_id":"ce4bgrp2rcd13ifvqc9g","pricing_plan_id":"cebpf4jnsgd1na2vs0mg"},{"bike_id":"c002e01b-ff75-4dc7-9d9b-ec32f49c6141","system_id":"levelo_inurba_marseille","lat":43.30324,"lon":5.40438,"is_reserved":false,"is_disabled":false,"rental_uris":{"android":"levelo://app?vid=c002e01b-ff75-4dc7-9d9b-ec32f49c6141","ios":"levelo://app?vid=c002e01b-ff75-4dc7-9d9b-ec32f49c6141"},"vehicle_type_id":"4","last_reported":1740708905,"current_range_meters":16800,"station_id":"ce4bh012rcd13ifvqd10","pricing_plan_id":"cebpf4jnsgd1na2vs0mg"},{"bike_id":"f919809d-dd9d-4e14-85ef-be2db1b8dd2e","system_id":"levelo_inurba_marseille","lat":43.2844,"lon":5.358,"is_reserved":false,"is_disabled":false,"rental_uris":{"android":"levelo://app?vid=f919809d-dd9d-4e14-85ef-be2db1b8dd2e","ios":"levelo://app?vid=f919809d-dd9d-4e14-85ef-be2db1b8dd2e"},"vehicle_type_id":"4","last_reported":1740708905,"current_range_meters":16800,"station_id":"","pricing_plan_id":"cebpf4jnsgd1na2vs0mg"},{"bike_id":"5cb28ae6-b2d9-484c-bcbb-844107a08012","system_id":"levelo_inurba_marseille","lat":43.32141,"lon":5.36727,"is_reserved":false,"is_disabled":false,"rental_uris":{"android":"levelo://app?vid=5cb28ae6-b2d9-484c-bcbb-844107a08012","ios":"levelo://app?vid=5cb28ae6-b2d9-484c-bcbb-844107a08012"},"vehicle_type_id":"4","last_reported":1740708905,"current_range_meters":16800,"station_id":"ce4bhrh2rcd13ifvqhug","pricing_plan_id":"cebpf4jnsgd1na2vs0mg"},{"bike_id":"ee641f6b-b968-4ac7-8422-c096dd19cc13","system_id":"levelo_inurba_marseille","lat":43.31702,"lon":5.37762,"is_reserved":false,"is_disabled":false,"rental_uris":{"android":"levelo://app?vid=ee641f6b-b968-4ac7-8422-c096dd19cc13","ios":"levelo://app?vid=ee641f6b-b968-4ac7-8422-c096dd19cc13"},"vehicle_type_id":"4","last_reported":1740708905,"current_range_meters":16800,"station_id":"ce4bgth2rcd13ifvqch0","pricing_plan_id":"cebpf4jnsgd1na2vs0mg"},{"bike_id":"364b209e-752e-45ea-b26c-06b2552c1833","system_id":"levelo_inurba_marseille","lat":43.23191,"lon":5.35567,"is_reserved":false,"is_disabled":false,"rental_uris":{"android":"levelo://app?vid=364b209e-752e-45ea-b26c-06b2552c1833","ios":"levelo://app?vid=364b209e-752e-45ea-b26c-06b2552c1833"},"vehicle_type_id":"4","last_reported":1740708905,"current_range_meters":16800,"station_id":"ce4bhu92rcd13ifvqi70","pricing_plan_id":"cebpf4jnsgd1na2vs0mg"},{"bike_id":"b6257854-dfce-4abd-917d-92853ffc6f1e","system_id":"levelo_inurba_marseille","lat":43.27618,"lon":5.36107,"is_reserved":false,"is_disabled":false,"rental_uris":{"android":"levelo://app?vid=b6257854-dfce-4abd-917d-92853ffc6f1e","ios":"levelo://app?vid=b6257854-dfce-4abd-917d-92853ffc6f1e"},"vehicle_type_id":"4","last_reported":1740708905,"current_range_meters":16800,"station_id":"ce4bgj92rcd13ifvqbe0","pricing_plan_id":"cebpf4jnsgd1na2vs0mg"},{"bike_id":"d79774a6-7426-41ac-b7c6-85789974d608","system_id":"levelo_inurba_marseille","lat":43.25592,"lon":5.38251,"is_reserved":false,"is_disabled":false,"rental_uris":{"android":"levelo://app?vid=d79774a6-7426-41ac-b7c6-85789974d608","ios":"levelo://app?vid=d79774a6-7426-41ac-b7c6-85789974d608"},"vehicle_type_id":"4","last_reported":1740708905,"current_range_meters":16800,"station_id":"ce4bhih2rcd13ifvqfs0","pricing_plan_id":"cebpf4jnsgd1na2vs0mg"},{"bike_id":"49e9cdc7-76a5-4b66-ae2d-61c73beb73a8","system_id":"levelo_inurba_marseille","lat":43.24172,"lon":5.36401,"is_reserved":false,"is_disabled":false,"rental_uris":{"android":"levelo://app?vid=49e9cdc7-76a5-4b66-ae2d-61c73beb73a8","ios":"levelo://app?vid=49e9cdc7-76a5-4b66-ae2d-61c73beb73a8"},"vehicle_type_id":"4","last_reported":1740708905,"current_range_meters":16800,"station_id":"cpo36qri1sfpv3e86is0","pricing_plan_id":"cebpf4jnsgd1na2vs0mg"},{"bike_id":"ee137681-0010-4a60-9633-c2b6b9d43f5a","system_id":"levelo_inurba_marseille","lat":43.29009,"lon":5.35609,"is_reserved":false,"is_disabled":false,"rental_uris":{"android":"levelo://app?vid=ee137681-0010-4a60-9633-c2b6b9d43f5a","ios":"levelo://app?vid=ee137681-0010-4a60-9633-c2b6b9d43f5a"},"vehicle_type_id":"4","last_reported":1740708905,"current_range_meters":16800,"station_id":"ce4bhb92rcd13ifvqen0","pricing_plan_id":"cebpf4jnsgd1na2vs0mg"},{"bike_id":"7cb5f9ac-368b-45e9-8b10-ae7e339a0f63","system_id":"levelo_inurba_marseille","lat":43.28748,"lon":5.39976,"is_reserved":false,"is_disabled":false,"rental_uris":{"android":"levelo://app?vid=7cb5f9ac-368b-45e9-8b10-ae7e339a0f63","ios":"levelo://app?vid=7cb5f9ac-368b-45e9-8b10-ae7e339a0f63"},"vehicle_type_id":"4","last_reported":1740708905,"current_range_meters":17200,"station_id":"ce4bho92rcd13ifvqh3g","pricing_plan_id":"cebpf4jnsgd1na2vs0mg"},{"bike_id":"b61f0806-190c-4a93-a7f8-261fe3a6d0c4","system_id":"levelo_inurba_marseille","lat":43.26553,"lon":5.37295,"is_reserved":false,"is_disabled":true,"rental_uris":{"android":"levelo://app?vid=b61f0806-190c-4a93-a7f8-261fe3a6d0c4","ios":"levelo://app?vid=b61f0806-190c-4a93-a7f8-261fe3a6d0c4"},"vehicle_type_id":"4","last_reported":1740708905,"current_range_meters":17200,"station_id":"ce4bhg12rcd13ifvqf70","pricing_plan_id":"cebpf4jnsgd1na2vs0mg"},{"bike_id":"df486f79-aee1-43f3-87ca-6609b23a51df","system_id":"levelo_inurba_marseille","lat":43.29427,"lon":5.38617,"is_reserved":false,"is_disabled":false,"rental_uris":{"android":"levelo://app?vid=df486f79-aee1-43f3-87ca-6609b23a51df","ios":"levelo://app?vid=df486f79-aee1-43f3-87ca-6609b23a51df"},"vehicle_type_id":"4","last_reported":1740708905,"current_range_meters":16800,"station_id":"ce4bh2h2rcd13ifvqdh0","pricing_plan_id":"cebpf4jnsgd1na2vs0mg"},{"bike_id":"304f543e-35b0-4c9c-9eea-6331cc081879","system_id":"levelo_inurba_marseille","lat":43.28443,"lon":5.35888,"is_reserved":false,"is_disabled":false,"rental_uris":{"android":"levelo://app?vid=304f543e-35b0-4c9c-9eea-6331cc081879","ios":"levelo://app?vid=304f543e-35b0-4c9c-9eea-6331cc081879"},"vehicle_type_id":"4","last_reported":1740708905,"current_range_meters":17200,"station_id":"ce4bhah2rcd13ifvqei0","pricing_plan_id":"cebpf4jnsgd1na2vs0mg"},{"bike_id":"26867775-6abb-4a91-a339-9f9c81f54a40","system_id":"levelo_inurba_marseille","lat":43.24668,"lon":5.38155,"is_reserved":false,"is_disabled":false,"rental_uris":{"android":"levelo://app?vid=26867775-6abb-4a91-a339-9f9c81f54a40","ios":"levelo://app?vid=26867775-6abb-4a91-a339-9f9c81f54a40"},"vehicle_type_id":"4","last_reported":1740708905,"current_range_meters":17200,"station_id":"ce4bhih2rcd13ifvqfr0","pricing_plan_id":"cebpf4jnsgd1na2vs0mg"},{"bike_id":"5bc4067b-edf1-4b5e-ae1a-c4e4a4b4741b","system_id":"levelo_inurba_marseille","lat":43.31105,"lon":5.37766,"is_reserved":false,"is_disabled":false,"rental_uris":{"android":"levelo://app?vid=5bc4067b-edf1-4b5e-ae1a-c4e4a4b4741b","ios":"levelo://app?vid=5bc4067b-edf1-4b5e-ae1a-c4e4a4b4741b"},"vehicle_type_id":"4","last_reported":1740708905,"current_range_meters":17200,"station_id":"ce4bgt92rcd13ifvqcg0","pricing_plan_id":"cebpf4jnsgd1na2vs0mg"},{"bike_id":"f5fe4361-1d3d-4314-a7e8-95ca49fcf6f9","system_id":"levelo_inurba_marseille","lat":43.31582,"lon":5.36944,"is_reserved":false,"is_disabled":false,"rental_uris":{"android":"levelo://app?vid=f5fe4361-1d3d-4314-a7e8-95ca49fcf6f9","ios":"levelo://app?vid=f5fe4361-1d3d-4314-a7e8-95ca49fcf6f9"},"vehicle_type_id":"4","last_reported":1740708905,"current_range_meters":17200,"station_id":"","pricing_plan_id":"cebpf4jnsgd1na2vs0mg"},{"bike_id":"09b9b1ba-a68b-4280-a86f-7f7da4e66a6c","system_id":"levelo_inurba_marseille","lat":43.30879,"lon":5.39644,"is_reserved":false,"is_disabled":false,"rental_uris":{"android":"levelo://app?vid=09b9b1ba-a68b-4280-a86f-7f7da4e66a6c","ios":"levelo://app?vid=09b9b1ba-a68b-4280-a86f-7f7da4e66a6c"},"vehicle_type_id":"4","last_reported":1740708905,"current_range_meters":17200,"station_id":"ce4bh012rcd13ifvqcv0","pricing_plan_id":"cebpf4jnsgd1na2vs0mg"},{"bike_id":"7f460228-eaa7-4070-8c4f-3c84b0229773","system_id":"levelo_inurba_marseille","lat":43.25581,"lon":5.3824,"is_reserved":false,"is_disabled":false,"rental_uris":{"android":"levelo://app?vid=7f460228-eaa7-4070-8c4f-3c84b0229773","ios":"levelo://app?vid=7f460228-eaa7-4070-8c4f-3c84b0229773"},"vehicle_type_id":"4","last_reported":1740708905,"current_range_meters":17600,"station_id":"ce4bhih2rcd13ifvqfs0","pricing_plan_id":"cebpf4jnsgd1na2vs0mg"},{"bike_id":"299e1ac3-a9aa-4f9b-9e64-de9b8db0b77a","system_id":"levelo_inurba_marseille","lat":43.31075,"lon":5.38354,"is_reserved":false,"is_disabled":false,"rental_uris":{"android":"levelo://app?vid=299e1ac3-a9aa-4f9b-9e64-de9b8db0b77a","ios":"levelo://app?vid=299e1ac3-a9aa-4f9b-9e64-de9b8db0b77a"},"vehicle_type_id":"4","last_reported":1740708905,"current_range_meters":17200,"station_id":"ce4bgv92rcd13ifvqcr0","pricing_plan_id":"cebpf4jnsgd1na2vs0mg"},{"bike_id":"ab2cbdfd-18e8-4816-aeda-22028e876c64","system_id":"levelo_inurba_marseille","lat":43.28597,"lon":5.35112,"is_reserved":false,"is_disabled":false,"rental_uris":{"android":"levelo://app?vid=ab2cbdfd-18e8-4816-aeda-22028e876c64","ios":"levelo://app?vid=ab2cbdfd-18e8-4816-aeda-22028e876c64"},"vehicle_type_id":"4","last_reported":1740708905,"current_range_meters":17600,"station_id":"ce4bhch2rcd13ifvqeug","pricing_plan_id":"cebpf4jnsgd1na2vs0mg"},{"bike_id":"9062ad42-18cc-4880-abfa-5d4e6bf94241","system_id":"levelo_inurba_marseille","lat":43.23197,"lon":5.39989,"is_reserved":false,"is_disabled":false,"rental_uris":{"android":"levelo://app?vid=9062ad42-18cc-4880-abfa-5d4e6bf94241","ios":"levelo://app?vid=9062ad42-18cc-4880-abfa-5d4e6bf94241"},"vehicle_type_id":"4","last_reported":1740708905,"current_range_meters":17600,"station_id":"ce4bhn12rcd13ifvqgqg","pricing_plan_id":"cebpf4jnsgd1na2vs0mg"},{"bike_id":"d2ac4d2e-12aa-408e-b9cb-5c4de498c58f","system_id":"levelo_inurba_marseille","lat":43.30956,"lon":5.39053,"is_reserved":false,"is_disabled":false,"rental_uris":{"android":"levelo://app?vid=d2ac4d2e-12aa-408e-b9cb-5c4de498c58f","ios":"levelo://app?vid=d2ac4d2e-12aa-408e-b9cb-5c4de498c58f"},"vehicle_type_id":"4","last_reported":1740708905,"current_range_meters":17200,"station_id":"ce4bgup2rcd13ifvqco0","pricing_plan_id":"cebpf4jnsgd1na2vs0mg"},{"bike_id":"e77274da-0eb8-435b-8d04-8170a0e91a50","system_id":"levelo_inurba_marseille","lat":43.282583,"lon":5.350639,"is_reserved":false,"is_disabled":false,"rental_uris":{"android":"levelo://app?vid=e77274da-0eb8-435b-8d04-8170a0e91a50","ios":"levelo://app?vid=e77274da-0eb8-435b-8d04-8170a0e91a50"},"vehicle_type_id":"4","last_reported":1740708905,"current_range_meters":17600,"station_id":"ce4bh0h2rcd13ifvqd50","pricing_plan_id":"cebpf4jnsgd1na2vs0mg"},{"bike_id":"59bfc5c2-9802-4e90-9e47-6a2dd0b6f273","system_id":"levelo_inurba_marseille","lat":43.29003,"lon":5.35613,"is_reserved":false,"is_disabled":false,"rental_uris":{"android":"levelo://app?vid=59bfc5c2-9802-4e90-9e47-6a2dd0b6f273","ios":"levelo://app?vid=59bfc5c2-9802-4e90-9e47-6a2dd0b6f273"},"vehicle_type_id":"4","last_reported":1740708905,"current_range_meters":17600,"station_id":"ce4bhb92rcd13ifvqen0","pricing_plan_id":"cebpf4jnsgd1na2vs0mg"},{"bike_id":"597c78d8-1097-48db-b3be-fafc8754eab9","system_id":"levelo_inurba_marseille","lat":43.2417,"lon":5.36399,"is_reserved":false,"is_disabled":false,"rental_uris":{"android":"levelo://app?vid=597c78d8-1097-48db-b3be-fafc8754eab9","ios":"levelo://app?vid=597c78d8-1097-48db-b3be-fafc8754eab9"},"vehicle_type_id":"4","last_reported":1740708905,"current_range_meters":17200,"station_id":"cpo36qri1sfpv3e86is0","pricing_plan_id":"cebpf4jnsgd1na2vs0mg"},{"bike_id":"737315e8-e42f-478d-8994-74c9331bd58d","system_id":"levelo_inurba_marseille","lat":43.30816,"lon":5.43518,"is_reserved":false,"is_disabled":false,"rental_uris":{"android":"levelo://app?vid=737315e8-e42f-478d-8994-74c9331bd58d","ios":"levelo://app?vid=737315e8-e42f-478d-8994-74c9331bd58d"},"vehicle_type_id":"4","last_reported":1740708905,"current_range_meters":18000,"station_id":"ce4bhph2rcd13ifvqheg","pricing_plan_id":"cebpf4jnsgd1na2vs0mg"},{"bike_id":"695e9a27-d903-4bbc-b050-bcc463be80aa","system_id":"levelo_inurba_marseille","lat":43.24161,"lon":5.3641,"is_reserved":false,"is_disabled":false,"rental_uris":{"android":"levelo://app?vid=695e9a27-d903-4bbc-b050-bcc463be80aa","ios":"levelo://app?vid=695e9a27-d903-4bbc-b050-bcc463be80aa"},"vehicle_type_id":"4","last_reported":1740708905,"current_range_meters":18800,"station_id":"cpo36qri1sfpv3e86is0","pricing_plan_id":"cebpf4jnsgd1na2vs0mg"},{"bike_id":"71c0f791-2aad-4f9b-889c-be02530b3e5c","system_id":"levelo_inurba_marseille","lat":43.30605,"lon":5.37233,"is_reserved":false,"is_disabled":false,"rental_uris":{"android":"levelo://app?vid=71c0f791-2aad-4f9b-889c-be02530b3e5c","ios":"levelo://app?vid=71c0f791-2aad-4f9b-889c-be02530b3e5c"},"vehicle_type_id":"4","last_reported":1740708905,"current_range_meters":18000,"station_id":"ce4bgqh2rcd13ifvqc4g","pricing_plan_id":"cebpf4jnsgd1na2vs0mg"},{"bike_id":"35e20382-3e4a-4066-8dc3-35e0fff5cef5","system_id":"levelo_inurba_marseille","lat":43.286204,"lon":5.35105,"is_reserved":false,"is_disabled":false,"rental_uris":{"android":"levelo://app?vid=35e20382-3e4a-4066-8dc3-35e0fff5cef5","ios":"levelo://app?vid=35e20382-3e4a-4066-8dc3-35e0fff5cef5"},"vehicle_type_id":"4","last_reported":1740708905,"current_range_meters":18000,"station_id":"ce4bhch2rcd13ifvqeug","pricing_plan_id":"cebpf4jnsgd1na2vs0mg"},{"bike_id":"1c6f1a05-e07e-43ca-a432-8be71aba1655","system_id":"levelo_inurba_marseille","lat":43.30654,"lon":5.40061,"is_reserved":false,"is_disabled":false,"rental_uris":{"android":"levelo://app?vid=1c6f1a05-e07e-43ca-a432-8be71aba1655","ios":"levelo://app?vid=1c6f1a05-e07e-43ca-a432-8be71aba1655"},"vehicle_type_id":"4","last_reported":1740708905,"current_range_meters":18000,"station_id":"ce4bh112rcd13ifvqda0","pricing_plan_id":"cebpf4jnsgd1na2vs0mg"},{"bike_id":"0693b9d6-4a9d-4e38-bfa2-80f934bcc2e3","system_id":"levelo_inurba_marseille","lat":43.241703,"lon":5.364039,"is_reserved":false,"is_disabled":false,"rental_uris":{"android":"levelo://app?vid=0693b9d6-4a9d-4e38-bfa2-80f934bcc2e3","ios":"levelo://app?vid=0693b9d6-4a9d-4e38-bfa2-80f934bcc2e3"},"vehicle_type_id":"4","last_reported":1740708905,"current_range_meters":18800,"station_id":"cpo36qri1sfpv3e86is0","pricing_plan_id":"cebpf4jnsgd1na2vs0mg"},{"bike_id":"f5083189-9b8f-4bde-b344-dcf2540c65c5","system_id":"levelo_inurba_marseille","lat":43.29008,"lon":5.35596,"is_reserved":false,"is_disabled":false,"rental_uris":{"android":"levelo://app?vid=f5083189-9b8f-4bde-b344-dcf2540c65c5","ios":"levelo://app?vid=f5083189-9b8f-4bde-b344-dcf2540c65c5"},"vehicle_type_id":"4","last_reported":1740708905,"current_range_meters":18800,"station_id":"ce4bhb92rcd13ifvqen0","pricing_plan_id":"cebpf4jnsgd1na2vs0mg"},{"bike_id":"c900f52e-7398-40d9-ba3d-b815d362d001","system_id":"levelo_inurba_marseille","lat":43.31122,"lon":5.37763,"is_reserved":false,"is_disabled":false,"rental_uris":{"android":"levelo://app?vid=c900f52e-7398-40d9-ba3d-b815d362d001","ios":"levelo://app?vid=c900f52e-7398-40d9-ba3d-b815d362d001"},"vehicle_type_id":"4","last_reported":1740708905,"current_range_meters":18800,"station_id":"ce4bgt92rcd13ifvqcg0","pricing_plan_id":"cebpf4jnsgd1na2vs0mg"},{"bike_id":"a43d23d2-0d6e-4cf7-8691-8ab079a8ff69","system_id":"levelo_inurba_marseille","lat":43.299,"lon":5.43653,"is_reserved":false,"is_disabled":false,"rental_uris":{"android":"levelo://app?vid=a43d23d2-0d6e-4cf7-8691-8ab079a8ff69","ios":"levelo://app?vid=a43d23d2-0d6e-4cf7-8691-8ab079a8ff69"},"vehicle_type_id":"4","last_reported":1740708905,"current_range_meters":18800,"station_id":"ce4bhpp2rcd13ifvqhfg","pricing_plan_id":"cebpf4jnsgd1na2vs0mg"},