{"last_updated":1744982336,"ttl":60,"version":"2.2","data":{"bikes":[{"bike_id":"2d4a83cc-9f6c-4bfa-bbbd-9484107eab84","system_id":"levelo_inurba_marseille","lat":43.29283,"lon":5.40147,"is_reserved":false,"is_disabled":false,"rental_uris":{"android":"levelo://app?vid=2d4a83cc-9f6c-4bfa-bbbd-9484107eab84","ios":"levelo://app?vid=2d4a83cc-9f6c-4bfa-bbbd-9484107eab84"},"vehicle_type_id":"4","last_reported":1744982336,"current_range_meters":2800,"station_id":"ce4bh312rcd13ifvqdk0","pricing_plan_id":"cebpf4jnsgd1na2vs0mg"},{"bike_id":"264f486a-bdc5-49f1-b791-cf1177dde2f8","system_id":"levelo_inurba_marseille","lat":43.28269,"lon":5.35065,"is_reserved":false,"is_disabled":false,"rental_uris":{"android":"levelo://app?vid=264f486a-bdc5-49f1-b791-cf1177dde2f8","ios":"levelo://app?vid=264f486a-bdc5-49f1-b791-cf1177dde2f8"},"vehicle_type_id":"4","last_reported":1744982336,"current_range_meters":2800,"station_id":"ce4bhbp2rcd13ifvqerg","pricing_plan_id":"cebpf4jnsgd1na2vs0mg"},{"bike_id":"6a723fa8-e310-4aa2-83f3-ad38fccfe431","system_id":"levelo_inurba_marseille","lat":43.3014,"lon":5.37425,"is_reserved":false,"is_disabled":false,"rental_uris":{"android":"levelo://app?vid=6a723fa8-e310-4aa2-83f3-ad38fccfe431","ios":"levelo://app?vid=6a723fa8-e310-4aa2-83f3-ad38fccfe431"},"vehicle_type_id":"4","last_reported":1744982336,"current_range_meters":2800,"station_id":"ce4bgs92rcd13ifvqcc0","pricing_plan_id":"cebpf4jnsgd1na2vs0mg"},{"bike_id":"cd7c0f3c-bf7b-4237-95c9-bf55d78fccb8","system_id":"levelo_inurba_marseille","lat":43.27378,"lon":5.3625,"is_reserved":false,"is_disabled":false,"rental_uris":{"android":"levelo://app?vid=cd7c0f3c-bf7b-4237-95c9-bf55d78fccb8","ios":"levelo://app?vid=cd7c0f3c-bf7b-4237-95c9-bf55d78fccb8"},"vehicle_type_id":"4","last_reported":1744982336,"current_range_meters":3200,"station_id":"ce4bhbh2rcd13ifvqeo0","pricing_plan_id":"cebpf4jnsgd1na2vs0mg"},{"bike_id":"10102e70-9bba-46be-a07c-30a3bb710f0e","system_id":"levelo_inurba_marseille","lat":43.24392,"lon":5.37061,"is_reserved":false,"is_disabled":false,"rental_uris":{"android":"levelo://app?vid=10102e70-9bba-46be-a07c-30a3bb710f0e","ios":"levelo://app?vid=10102e70-9bba-46be-a07c-30a3bb710f0e"},"vehicle_type_id":"4","last_reported":1744982336,"current_range_meters":3200,"station_id":"ce4bhhh2rcd13ifvqfk0","pricing_plan_id":"cebpf4jnsgd1na2vs0mg"},{"bike_id":"e38d8de0-10fb-4427-8900-38f10d34aac4","system_id":"levelo_inurba_marseille","lat":43.249903,"lon":5.389265,"is_reserved":false,"is_disabled":false,"rental_uris":{"android":"levelo://app?vid=e38d8de0-10fb-4427-8900-38f10d34aac4","ios":"levelo://app?vid=e38d8de0-10fb-4427-8900-38f10d34aac4"},"vehicle_type_id":"4","last_reported":1744982336,"current_range_meters":3200,"station_id":"ce4bhg12rcd13ifvqf80","pricing_plan_id":"cebpf4jnsgd1na2vs0mg"},{"bike_id":"e0d24ab0-14f1-4297-b8ae-6563bfdafbba","system_id":"levelo_inurba_marseille","lat":43.27875,"lon":5.38056,"is_reserved":false,"is_disabled":false,"rental_uris":{"android":"levelo://app?vid=e0d24ab0-14f1-4297-b8ae-6563bfdafbba","ios":"levelo://app?vid=e0d24ab0-14f1-4297-b8ae-6563bfdafbba"},"vehicle_type_id":"4","last_reported":1744982336,"current_range_meters":3600,"station_id":"","pricing_plan_id":"cebpf4jnsgd1na2vs0mg"},{"bike_id":"6dc0e360-6e9e-4d79-bf9e-abf3d9028b79","system_id":"levelo_inurba_marseille","lat":43.23192,"lon":5.35556,"is_reserved":false,"is_disabled":false,"rental_uris":{"android":"levelo://app?vid=6dc0e360-6e9e-4d79-bf9e-abf3d9028b79","ios":"levelo://app?vid=6dc0e360-6e9e-4d79-bf9e-abf3d9028b79"},"vehicle_type_id":"4","last_reported":1744982336,"current_range_meters":3600,"station_id":"ce4bhu92rcd13ifvqi70","pricing_plan_id":"cebpf4jnsgd1na2vs0mg"},{"bike_id":"722df620-9f7d-4771-904c-8b595ec9d7bb","system_id":"levelo_inurba_marseille","lat":43.30954,"lon":5.390373,"is_reserved":false,"is_disabled":false,"rental_uris":{"android":"levelo://app?vid=722df620-9f7d-4771-904c-8b595ec9d7bb","ios":"levelo://app?vid=722df620-9f7d-4771-904c-8b595ec9d7bb"},"vehicle_type_id":"4","last_reported":1744982336,"current_range_meters":3600,"station_id":"ce4bh092rcd13ifvqd20","pricing_plan_id":"cebpf4jnsgd1na2vs0mg"},{"bike_id":"593f200f-acc6-4515-9b2c-377663e6c433","system_id":"levelo_inurba_marseille","lat":43.21722,"lon":5.346073,"is_reserved":false,"is_disabled":true,"rental_uris":{"android":"levelo://app?vid=593f200f-acc6-4515-9b2c-377663e6c433","ios":"levelo://app?vid=593f200f-acc6-4515-9b2c-377663e6c433"},"vehicle_type_id":"4","last_reported":1744982336,"current_range_meters":3600,"station_id":"st_cvj6r9ubvosntc0bgbag","pricing_plan_id":"cebpf4jnsgd1na2vs0mg"},{"bike_id":"e7661a49-e91c-47d3-b5d9-e1b70f140fb5","system_id":"levelo_inurba_marseille","lat":43.24163,"lon":5.3639,"is_reserved":false,"is_disabled":false,"rental_uris":{"android":"levelo://app?vid=e7661a49-e91c-47d3-b5d9-e1b70f140fb5","ios":"levelo://app?vid=e7661a49-e91c-47d3-b5d9-e1b70f140fb5"},"vehicle_type_id":"4","last_reported":1744982336,"current_range_meters":3600,"station_id":"cpo36qri1sfpv3e86is0","pricing_plan_id":"cebpf4jnsgd1na2vs0mg"},{"bike_id":"cfb7ffc7-bcdd-4a4e-974d-a5fcb646f6d1","system_id":"levelo_inurba_marseille","lat":43.23067,"lon":5.35488,"is_reserved":false,"is_disabled":false,"rental_uris":{"android":"levelo://app?vid=cfb7ffc7-bcdd-4a4e-974d-a5fcb646f6d1","ios":"levelo://app?vid=cfb7ffc7-bcdd-4a4e-974d-a5fcb646f6d1"},"vehicle_type_id":"4","last_reported":1744982336,"current_range_meters":4000,"station_id":"cpo3342slgdg3j2ifvpg","pricing_plan_id":"cebpf4jnsgd1na2vs0mg"},{"bike_id":"a5ee9300-dd1e-4b4e-9a9c-c270f0ef8d34","system_id":"levelo_inurba_marseille","lat":43.28166,"lon":5.42634,"is_reserved":false,"is_disabled":false,"rental_uris":{"android":"levelo://app?vid=a5ee9300-dd1e-4b4e-9a9c-c270f0ef8d34","ios":"levelo://app?vid=a5ee9300-dd1e-4b4e-9a9c-c270f0ef8d34"},"vehicle_type_id":"4","last_reported":1744982336,"current_range_meters":4000,"station_id":"ce4bhnh2rcd13ifvqgug","pricing_plan_id":"cebpf4jnsgd1na2vs0mg"},{"bike_id":"2e93ca96-4d48-4800-ba61-feaf760b88c5","system_id":"levelo_inurba_marseille","lat":43.21748,"lon":5.34606,"is_reserved":false,"is_disabled":false,"rental_uris":{"android":"levelo://app?vid=2e93ca96-4d48-4800-ba61-feaf760b88c5","ios":"levelo://app?vid=2e93ca96-4d48-4800-ba61-feaf760b88c5"},"vehicle_type_id":"4","last_reported":1744982336,"current_range_meters":4000,"station_id":"st_cvj6r9ubvosntc0bgbag","pricing_plan_id":"cebpf4jnsgd1na2vs0mg"},{"bike_id":"b710fbb1-b765-492e-8cff-58a86822a607","system_id":"levelo_inurba_marseille","lat":43.23192,"lon":5.35552,"is_reserved":false,"is_disabled":false,"rental_uris":{"android":"levelo://app?vid=b710fbb1-b765-492e-8cff-58a86822a607","ios":"levelo://app?vid=b710fbb1-b765-492e-8cff-58a86822a607"},"vehicle_type_id":"4","last_reported":1744982336,"current_range_meters":4000,"station_id":"ce4bhu92rcd13ifvqi70","pricing_plan_id":"cebpf4jnsgd1na2vs0mg"},{"bike_id":"a5e58252-45fa-40f1-9561-09ffeaa1841b","system_id":"levelo_inurba_marseille","lat":43.23196,"lon":5.35548,"is_reserved":false,"is_disabled":false,"rental_uris":{"android":"levelo://app?vid=a5e58252-45fa-40f1-9561-09ffeaa1841b","ios":"levelo://app?vid=a5e58252-45fa-40f1-9561-09ffeaa1841b"},"vehicle_type_id":"4","last_reported":1744982336,"current_range_meters":3600,"station_id":"ce4bhu92rcd13ifvqi70","pricing_plan_id":"cebpf4jnsgd1na2vs0mg"},{"bike_id":"c0451e1b-1cf3-43eb-9b44-7b096752bbb6","system_id":"levelo_inurba_marseille","lat":43.26208,"lon":5.37442,"is_reserved":false,"is_disabled":false,"rental_uris":{"android":"levelo://app?vid=c0451e1b-1cf3-43eb-9b44-7b096752bbb6","ios":"levelo://app?vid=c0451e1b-1cf3-43eb-9b44-7b096752bbb6"},"vehicle_type_id":"4","last_reported":1744982336,"current_range_meters":4000,"station_id":"ce4bhgp2rcd13ifvqfc0","pricing_plan_id":"cebpf4jnsgd1na2vs0mg"},{"bike_id":"206e6eed-90ee-4177-ab5a-4bcb1810ce02","system_id":"levelo_inurba_marseille","lat":43.323613,"lon":5.367635,"is_reserved":false,"is_disabled":false,"rental_uris":{"android":"levelo://app?vid=206e6eed-90ee-4177-ab5a-4bcb1810ce02","ios":"levelo://app?vid=206e6eed-90ee-4177-ab5a-4bcb1810ce02"},"vehicle_type_id":"4","last_reported":1744982336,"current_range_meters":4400,"station_id":"ce4bhsh2rcd13ifvqi2g","pricing_plan_id":"cebpf4jnsgd1na2vs0mg"},{"bike_id":"50dc23ed-5e19-46ee-92cf-f2ca4c445852","system_id":"levelo_inurba_marseille","lat":43.3372,"lon":5.39153,"is_reserved":false,"is_disabled":false,"rental_uris":{"android":"levelo://app?vid=50dc23ed-5e19-46ee-92cf-f2ca4c445852","ios":"levelo://app?vid=50dc23ed-5e19-46ee-92cf-f2ca4c445852"},"vehicle_type_id":"4","last_reported":1744982336,"current_range_meters":4400,"station_id":"ce4bhr92rcd13ifvqhsg","pricing_plan_id":"cebpf4jnsgd1na2vs0mg"},{"bike_id":"d3455303-ad12-477a-98fb-6b1ea11029e4","system_id":"levelo_inurba_marseille","lat":43.3039,"lon":5.4246,"is_reserved":false,"is_disabled":false,"rental_uris":{"android":"levelo://app?vid=d3455303-ad12-477a-98fb-6b1ea11029e4","ios":"levelo://app?vid=d3455303-ad12-477a-98fb-6b1ea11029e4"},"vehicle_type_id":"4","last_reported":1744982336,"current_range_meters":4800,"station_id":"ce4bhoh2rcd13ifvqh6g","pricing_plan_id":"cebpf4jnsgd1na2vs0mg"},{"bike_id":"822cb734-614e-452b-82b3-e2bd9e0dd401","system_id":"levelo_inurba_marseille","lat":43.30379,"lon":5.42484,"is_reserved":false,"is_disabled":false,"rental_uris":{"android":"levelo://app?vid=822cb734-614e-452b-82b3-e2bd9e0dd401","ios":"levelo://app?vid=822cb734-614e-452b-82b3-e2bd9e0dd401"},"vehicle_type_id":"4","last_reported":1744982336,"current_range_meters":4800,"station_id":"ce4bhoh2rcd13ifvqh6g","pricing_plan_id":"cebpf4jnsgd1na2vs0mg"},{"bike_id":"91cbc6af-d17d-46eb-9b9d-7fd15a6c1bcb","system_id":"levelo_inurba_marseille","lat":43.28269,"lon":5.35084,"is_reserved":false,"is_disabled":false,"rental_uris":{"android":"levelo://app?vid=91cbc6af-d17d-46eb-9b9d-7fd15a6c1bcb","ios":"levelo://app?vid=91cbc6af-d17d-46eb-9b9d-7fd15a6c1bcb"},"vehicle_type_id":"4","last_reported":1744982336,"current_range_meters":5600,"station_id":"ce4bhbp2rcd13ifvqerg","pricing_plan_id":"cebpf4jnsgd1na2vs0mg"},{"bike_id":"f4379c6c-5366-4845-838a-d74bd27939c9","system_id":"levelo_inurba_marseille","lat":43.2971,"lon":5.37672,"is_reserved":false,"is_disabled":false,"rental_uris":{"android":"levelo://app?vid=f4379c6c-5366-4845-838a-d74bd27939c9","ios":"levelo://app?vid=f4379c6c-5366-4845-838a-d74bd27939c9"},"vehicle_type_id":"4","last_reported":1744982336,"current_range_meters":5600,"station_id":"ce4bgkh2rcd13ifvqbl0","pricing_plan_id":"cebpf4jnsgd1na2vs0mg"},{"bike_id":"e0bc62aa-4f8e-4c8a-b5f5-1cc6e14a29a0","system_id":"levelo_inurba_marseille","lat":43.298676,"lon":5.397255,"is_reserved":false,"is_disabled":false,"rental_uris":{"android":"levelo://app?vid=e0bc62aa-4f8e-4c8a-b5f5-1cc6e14a29a0","ios":"levelo://app?vid=e0bc62aa-4f8e-4c8a-b5f5-1cc6e14a29a0"},"vehicle_type_id":"4","last_reported":1744982336,"current_range_meters":6000,"station_id":"ce4bh192rcd13ifvqdd0","pricing_plan_id":"cebpf4jnsgd1na2vs0mg"},{"bike_id":"d93b4063-7d98-4134-9679-73c3063abe26","system_id":"levelo_inurba_marseille","lat":43.30301,"lon":5.39208,"is_reserved":false,"is_disabled":false,"rental_uris":{"android":"levelo://app?vid=d93b4063-7d98-4134-9679-73c3063abe26","ios":"levelo://app?vid=d93b4063-7d98-4134-9679-73c3063abe26"},"vehicle_type_id":"4","last_reported":1744982336,"current_range_meters":6000,"station_id":"ce4bgkh2rcd13ifvqbk0","pricing_plan_id":"cebpf4jnsgd1na2vs0mg"},{"bike_id":"2df22311-bac1-4b8f-abff-11893969de63","system_id":"levelo_inurba_marseille","lat":43.31092,"lon":5.37836,"is_reserved":false,"is_disabled":false,"rental_uris":{"android":"levelo://app?vid=2df22311-bac1-4b8f-abff-11893969de63","ios":"levelo://app?vid=2df22311-bac1-4b8f-abff-11893969de63"},"vehicle_type_id":"4","last_reported":1744982336,"current_range_meters":6000,"station_id":"","pricing_plan_id":"cebpf4jnsgd1na2vs0mg"},{"bike_id":"46d9e359-47ea-41c6-adcf-d807b766ba69","system_id":"levelo_inurba_marseille","lat":43.24075,"lon":5.37741,"is_reserved":false,"is_disabled":false,"rental_uris":{"android":"levelo://app?vid=46d9e359-47ea-41c6-adcf-d807b766ba69","ios":"levelo://app?vid=46d9e359-47ea-41c6-adcf-d807b766ba69"},"vehicle_type_id":"4","last_reported":1744982336,"current_range_meters":6000,"station_id":"ce4bhnp2rcd13ifvqgvg","pricing_plan_id":"cebpf4jnsgd1na2vs0mg"},{"bike_id":"2a297b53-e6c9-4a44-8832-a1535085da75","system_id":"levelo_inurba_marseille","lat":43.319899,"lon":5.38142,"is_reserved":false,"is_disabled":true,"rental_uris":{"android":"levelo://app?vid=2a297b53-e6c9-4a44-8832-a1535085da75","ios":"levelo://app?vid=2a297b53-e6c9-4a44-8832-a1535085da75"},"vehicle_type_id":"4","last_reported":1744982336,"current_range_meters":6400,"station_id":"ce4bhr12rcd13ifvqhpg","pricing_plan_id":"cebpf4jnsgd1na2vs0mg"},{"bike_id":"a5cc93c8-ec6f-4dcb-aec5-73cb2eb9d4a1","system_id":"levelo_inurba_marseille","lat":43.31441,"lon":5.37382,"is_reserved":false,"is_disabled":false,"rental_uris":{"android":"levelo://app?vid=a5cc93c8-ec6f-4dcb-aec5-73cb2eb9d4a1","ios":"levelo://app?vid=a5cc93c8-ec6f-4dcb-aec5-73cb2eb9d4a1"},"vehicle_type_id":"4","last_reported":1744982336,"current_range_meters":6400,"station_id":"","pricing_plan_id":"cebpf4jnsgd1na2vs0mg"},{"bike_id":"8a0b69bf-789f-43ce-8ba1-8d4f5baba3e4","system_id":"levelo_inurba_marseille","lat":43.27204,"lon":5.39185,"is_reserved":false,"is_disabled":false,"rental_uris":{"android":"levelo://app?vid=8a0b69bf-789f-43ce-8ba1-8d4f5baba3e4","ios":"levelo://app?vid=8a0b69bf-789f-43ce-8ba1-8d4f5baba3e4"},"vehicle_type_id":"4","last_reported":1744982336,"current_range_meters":6000,"station_id":"ce4bhhp2rcd13ifvqfm0","pricing_plan_id":"cebpf4jnsgd1na2vs0mg"},{"bike_id":"3c0de5fe-f054-4419-a554-a4bf0b8e0fa9","system_id":"levelo_inurba_marseille","lat":43.23055,"lon":5.35495,"is_reserved":false,"is_disabled":false,"rental_uris":{"android":"levelo://app?vid=3c0de5fe-f054-4419-a554-a4bf0b8e0fa9","ios":"levelo://app?vid=3c0de5fe-f054-4419-a554-a4bf0b8e0fa9"},"vehicle_type_id":"4","last_reported":1744982336,"current_range_meters":6400,"station_id":"cpo3342slgdg3j2ifvpg","pricing_plan_id":"cebpf4jnsgd1na2vs0mg"},{"bike_id":"683727aa-af5c-4a30-b620-923da0da034b","system_id":"levelo_inurba_marseille","lat":43.268509,"lon":5.404703,"is_reserved":false,"is_disabled":false,"rental_uris":{"android":"levelo://app?vid=683727aa-af5c-4a30-b620-923da0da034b","ios":"levelo://app?vid=683727aa-af5c-4a30-b620-923da0da034b"},"vehicle_type_id":"4","last_reported":1744982336,"current_range_meters":6400,"station_id":"cjm6bp8fraef2m0cb0m0","pricing_plan_id":"cebpf4jnsgd1na2vs0mg"},{"bike_id":"78c9f646-91fc-4110-b962-0fd81971f348","system_id":"levelo_inurba_marseille","lat":43.26499,"lon":5.39544,"is_reserved":false,"is_disabled":true,"rental_uris":{"android":"levelo://app?vid=78c9f646-91fc-4110-b962-0fd81971f348","ios":"levelo://app?vid=78c9f646-91fc-4110-b962-0fd81971f348"},"vehicle_type_id":"4","last_reported":1744982336,"current_range_meters":6400,"station_id":"ce4bhi12rcd13ifvqfq0","pricing_plan_id":"cebpf4jnsgd1na2vs0mg"},{"bike_id":"a95f5b70-fc3a-4f2f-83c3-82dea2a9ffc6","system_id":"levelo_inurba_marseille","lat":43.2293,"lon":5.35379,"is_reserved":false,"is_disabled":false,"rental_uris":{"android":"levelo://app?vid=a95f5b70-fc3a-4f2f-83c3-82dea2a9ffc6","ios":"levelo://app?vid=a95f5b70-fc3a-4f2f-83c3-82dea2a9ffc6"},"vehicle_type_id":"4","last_reported":1744982336,"current_range_meters":7200,"station_id":"cpo3532slgdg3j2ikp40","pricing_plan_id":"cebpf4jnsgd1na2vs0mg"},{"bike_id":"700e7958-1052-4518-a473-bcad7c4155a9","system_id":"levelo_inurba_marseille","lat":43.2174,"lon":5.34601,"is_reserved":false,"is_disabled":false,"rental_uris":{"android":"levelo://app?vid=700e7958-1052-4518-a473-bcad7c4155a9","ios":"levelo://app?vid=700e7958-1052-4518-a473-bcad7c4155a9"},"vehicle_type_id":"4","last_reported":1744982336,"current_range_meters":7200,"station_id":"st_cvj6r9ubvosntc0bgbag","pricing_plan_id":"cebpf4jnsgd1na2vs0mg"},{"bike_id":"2a6778e5-b24f-45c2-8c27-88ab7cc09f95","system_id":"levelo_inurba_marseille","lat":43.30544,"lon":5.3653,"is_reserved":false,"is_disabled":false,"rental_uris":{"android":"levelo://app?vid=2a6778e5-b24f-45c2-8c27-88ab7cc09f95","ios":"levelo://app?vid=2a6778e5-b24f-45c2-8c27-88ab7cc09f95"},"vehicle_type_id":"4","last_reported":1744982336,"current_range_meters":7200,"station_id":"ce4bgs12rcd13ifvqcag","pricing_plan_id":"cebpf4jnsgd1na2vs0mg"},{"bike_id":"35c0761b-13d0-491a-9c54-a6b1f28f69bf","system_id":"levelo_inurba_marseille","lat":43.28037,"lon":5.36947,"is_reserved":false,"is_disabled":false,"rental_uris":{"android":"levelo://app?vid=35c0761b-13d0-491a-9c54-a6b1f28f69bf","ios":"levelo://app?vid=35c0761b-13d0-491a-9c54-a6b1f28f69bf"},"vehicle_type_id":"4","last_reported":1744982336,"current_range_meters":7200,"station_id":"ce4bha12rcd13ifvqef0","pricing_plan_id":"cebpf4jnsgd1na2vs0mg"},{"bike_id":"16385660-c7a8-48b1-be0f-96ab5bfb145d","system_id":"levelo_inurba_marseille","lat":43.21184,"lon":5.35068,"is_reserved":false,"is_disabled":false,"rental_uris":{"android":"levelo://app?vid=16385660-c7a8-48b1-be0f-96ab5bfb145d","ios":"levelo://app?vid=16385660-c7a8-48b1-be0f-96ab5bfb145d"},"vehicle_type_id":"4","last_reported":1744982336,"current_range_meters":7200,"station_id":"st_cvj6sg6p6f1abm77japg","pricing_plan_id":"cebpf4jnsgd1na2vs0mg"},{"bike_id":"5916c32c-64ac-4b7a-9497-ec28d11f36b9","system_id":"levelo_inurba_marseille","lat":43.27381,"lon":5.36256,"is_reserved":false,"is_disabled":false,"rental_uris":{"android":"levelo://app?vid=5916c32c-64ac-4b7a-9497-ec28d11f36b9","ios":"levelo://app?vid=5916c32c-64ac-4b7a-9497-ec28d11f36b9"},"vehicle_type_id":"4","last_reported":1744982336,"current_range_meters":7200,"station_id":"ce4bhbh2rcd13ifvqeo0","pricing_plan_id":"cebpf4jnsgd1na2vs0mg"},{"bike_id":"8938629f-c334-4cb8-ac48-f2d1fc1d408d","system_id":"levelo_inurba_marseille","lat":43.32491,"lon":5.36589,"is_reserved":false,"is_disabled":false,"rental_uris":{"android":"levelo://app?vid=8938629f-c334-4cb8-ac48-f2d1fc1d408d","ios":"levelo://app?vid=8938629f-c334-4cb8-ac48-f2d1fc1d408d"},"vehicle_type_id":"4","last_reported":1744982336,"current_range_meters":8000,"station_id":"ce4bhs12rcd13ifvqhvg","pricing_plan_id":"cebpf4jnsgd1na2vs0mg"},{"bike_id":"9d8b11c2-1c63-4ecc-889b-73c59fedb4b8","system_id":"levelo_inurba_marseille","lat":43.27617,"lon":5.36123,"is_reserved":false,"is_disabled":false,"rental_uris":{"android":"levelo://app?vid=9d8b11c2-1c63-4ecc-889b-73c59fedb4b8","ios":"levelo://app?vid=9d8b11c2-1c63-4ecc-889b-73c59fedb4b8"},"vehicle_type_id":"4","last_reported":1744982336,"current_range_meters":8000,"station_id":"ce4bgj92rcd13ifvqbe0","pricing_plan_id":"cebpf4jnsgd1na2vs0mg"},{"bike_id":"e7297ce2-45fb-455d-9646-6cbf89e7679b","system_id":"levelo_inurba_marseille","lat":43.28269,"lon":5.35068,"is_reserved":false,"is_disabled":false,"rental_uris":{"android":"levelo://app?vid=e7297ce2-45fb-455d-9646-6cbf89e7679b","ios":"levelo://app?vid=e7297ce2-45fb-455d-9646-6cbf89e7679b"},"vehicle_type_id":"4","last_reported":1744982336,"current_range_meters":8000,"station_id":"ce4bhbp2rcd13ifvqerg","pricing_plan_id":"cebpf4jnsgd1na2vs0mg"},{"bike_id":"b361a576-a884-40ac-b4a6-c377ac571f1f","system_id":"levelo_inurba_marseille","lat":43.26554,"lon":5.37296,"is_reserved":false,"is_disabled":false,"rental_uris":{"android":"levelo://app?vid=b361a576-a884-40ac-b4a6-c377ac571f1f","ios":"levelo://app?vid=b361a576-a884-40ac-b4a6-c377ac571f1f"},"vehicle_type_id":"4","last_reported":1744982336,"current_range_meters":8400,"station_id":"ce4bhg12rcd13ifvqf70","pricing_plan_id":"cebpf4jnsgd1na2vs0mg"},{"bike_id":"76483e71-7d28-401c-8e0b-de284cbe4cb8","system_id":"levelo_inurba_marseille","lat":43.25498,"lon":5.37652,"is_reserved":false,"is_disabled":false,"rental_uris":{"android":"levelo://app?vid=76483e71-7d28-401c-8e0b-de284cbe4cb8","ios":"levelo://app?vid=76483e71-7d28-401c-8e0b-de284cbe4cb8"},"vehicle_type_id":"4","last_reported":1744982336,"current_range_meters":8400,"station_id":"ce4bhh12rcd13ifvqff0","pricing_plan_id":"cebpf4jnsgd1na2vs0mg"},{"bike_id":"8fce602a-e37c-4b4b-8a62-a94e2e9442f0","system_id":"levelo_inurba_marseille","lat":43.2926,"lon":5.40902,"is_reserved":false,"is_disabled":false,"rental_uris":{"android":"levelo://app?vid=8fce602a-e37c-4b4b-8a62-a94e2e9442f0","ios":"levelo://app?vid=8fce602a-e37c-4b4b-8a62-a94e2e9442f0"},"vehicle_type_id":"4","last_reported":1744982336,"current_range_meters":8000,"station_id":"ce4bh192rcd13ifvqdc0","pricing_plan_id":"cebpf4jnsgd1na2vs0mg"},{"bike_id":"73cfe0cd-75ff-4398-b286-6e0191b2ebce","system_id":"levelo_inurba_marseille","lat":43.24081,"lon":5.37748,"is_reserved":false,"is_disabled":false,"rental_uris":{"android":"levelo://app?vid=73cfe0cd-75ff-4398-b286-6e0191b2ebce","ios":"levelo://app?vid=73cfe0cd-75ff-4398-b286-6e0191b2ebce"},"vehicle_type_id":"4","last_reported":1744982336,"current_range_meters":8400,"station_id":"ce4bhnp2rcd13ifvqgvg","pricing_plan_id":"cebpf4jnsgd1na2vs0mg"},{"bike_id":"1a2eea39-a419-498b-8340-174c0c51a46e","system_id":"levelo_inurba_marseille","lat":43.23074,"lon":5.35495,"is_reserved":false,"is_disabled":false,"rental_uris":{"android":"levelo://app?vid=1a2eea39-a419-498b-8340-174c0c51a46e","ios":"levelo://app?vid=1a2eea39-a419-498b-8340-174c0c51a46e"},"vehicle_type_id":"4","last_reported":1744982336,"current_range_meters":8400,"station_id":"cpo3342slgdg3j2ifvpg","pricing_plan_id":"cebpf4jnsgd1na2vs0mg"},{"bike_id":"9593d08c-e08a-4387-aac0-6b72b39b1257","system_id":"levelo_inurba_marseille","lat":43.30949,"lon":5.39035,"is_reserved":false,"is_disabled":false,"rental_uris":{"android":"levelo://app?vid=9593d08c-e08a-4387-aac0-6b72b39b1257","ios":"levelo://app?vid=9593d08c-e08a-4387-aac0-6b72b39b1257"},"vehicle_type_id":"4","last_reported":1744982336,"current_range_meters":8000,"station_id":"ce4bgup2rcd13ifvqco0","pricing_plan_id":"cebpf4jnsgd1na2vs0mg"},{"bike_id":"13a888b2-ba72-47a9-8509-165486ea33d8","system_id":"levelo_inurba_marseille","lat":43.259407,"lon":5.409073,"is_reserved":false,"is_disabled":false,"rental_uris":{"android":"levelo://app?vid=13a888b2-ba72-47a9-8509-165486ea33d8","ios":"levelo://app?vid=13a888b2-ba72-47a9-8509-165486ea33d8"},"vehicle_type_id":"4","last_reported":1744982336,"current_range_meters":8400,"station_id":"ce4bhm92rcd13ifvqglg","pricing_plan_id":"cebpf4jnsgd1na2vs0mg"},{"bike_id":"a1154554-337a-4ed4-8119-6b5ab87331b5","system_id":"levelo_inurba_marseille","lat":43.29011,"lon":5.35613,"is_reserved":false,"is_disabled":false,"rental_uris":{"android":"levelo://app?vid=a1154554-337a-4ed4-8119-6b5ab87331b5","ios":"levelo://app?vid=a1154554-337a-4ed4-8119-6b5ab87331b5"},"vehicle_type_id":"4","last_reported":1744982336,"current_range_meters":8400,"station_id":"ce4bhb92rcd13ifvqen0","pricing_plan_id":"cebpf4jnsgd1na2vs0mg"},{"bike_id":"e5427d14-43ac-4ef5-982f-03a71a85c47c","system_id":"levelo_inurba_marseille","lat":43.30535,"lon":5.3843,"is_reserved":false,"is_disabled":false,"rental_uris":{"android":"levelo://app?vid=e5427d14-43ac-4ef5-982f-03a71a85c47c","ios":"levelo://app?vid=e5427d14-43ac-4ef5-982f-03a71a85c47c"},"vehicle_type_id":"4","last_reported":1744982336,"current_range_meters":8400,"station_id":"ce4bgg92rcd13ifvqb30","pricing_plan_id":"cebpf4jnsgd1na2vs0mg"},{"bike_id":"155042ca-eb72-4b0c-aea4-7785320521ab","system_id":"levelo_inurba_marseille","lat":43.29029,"lon":5.3813,"is_reserved":false,"is_disabled":false,"rental_uris":{"android":"levelo://app?vid=155042ca-eb72-4b0c-aea4-7785320521ab","ios":"levelo://app?vid=155042ca-eb72-4b0c-aea4-7785320521ab"},"vehicle_type_id":"4","last_reported":1744982336,"current_range_meters":8400,"station_id":"ce4bh4p2rcd13ifvqe1g","pricing_plan_id":"cebpf4jnsgd1na2vs0mg"},{"bike_id":"48136566-cbc4-4e20-9e92-33693c402e17","system_id":"levelo_inurba_marseille","lat":43.28431,"lon":5.34992,"is_reserved":false,"is_disabled":false,"rental_uris":{"android":"levelo://app?vid=48136566-cbc4-4e20-9e92-33693c402e17","ios":"levelo://app?vid=48136566-cbc4-4e20-9e92-33693c402e17"},"vehicle_type_id":"4","last_reported":1744982336,"current_range_meters":8400,"station_id":"ce4bhbh2rcd13ifvqepg","pricing_plan_id":"cebpf4jnsgd1na2vs0mg"},{"bike_id":"271c8c79-7ca6-4367-80fb-8a0efc84181c","system_id":"levelo_inurba_marseille","lat":43.23195,"lon":5.35557,"is_reserved":false,"is_disabled":false,"rental_uris":{"android":"levelo://app?vid=271c8c79-7ca6-4367-80fb-8a0efc84181c","ios":"levelo://app?vid=271c8c79-7ca6-4367-80fb-8a0efc84181c"},"vehicle_type_id":"4","last_reported":1744982336,"current_range_meters":8400,"station_id":"ce4bhu92rcd13ifvqi70","pricing_plan_id":"cebpf4jnsgd1na2vs0mg"},{"bike_id":"da897a22-62f2-4630-9309-184afb0ebc6f","system_id":"levelo_inurba_marseille","lat":43.2902,"lon":5.37836,"is_reserved":false,"is_disabled":false,"rental_uris":{"android":"levelo://app?vid=da897a22-62f2-4630-9309-184afb0ebc6f","ios":"levelo://app?vid=da897a22-62f2-4630-9309-184afb0ebc6f"},"vehicle_type_id":"4","last_reported":1744982336,"current_range_meters":8400,"station_id":"ce4bh512rcd13ifvqe2g","pricing_plan_id":"cebpf4jnsgd1na2vs0mg"},{"bike_id":"41fb0398-f2fe-4abb-ae37-a38f47615ea9","system_id":"levelo_inurba_marseille","lat":43.32357,"lon":5.36753,"is_reserved":false,"is_disabled":false,"rental_uris":{"android":"levelo://app?vid=41fb0398-f2fe-4abb-ae37-a38f47615ea9","ios":"levelo://app?vid=41fb0398-f2fe-4abb-ae37-a38f47615ea9"},"vehicle_type_id":"4","last_reported":1744982336,"current_range_meters":8800,"station_id":"ce4bhsh2rcd13ifvqi2g","pricing_plan_id":"cebpf4jnsgd1na2vs0mg"},{"bike_id":"9a44116f-7992-446e-8b1b-67199d0b9b60","system_id":"levelo_inurba_marseille","lat":43.27376,"lon":5.36253,"is_reserved":false,"is_disabled":false,"rental_uris":{"android":"levelo://app?vid=9a44116f-7992-446e-8b1b-67199d0b9b60","ios":"levelo://app?vid=9a44116f-7992-446e-8b1b-67199d0b9b60"},"vehicle_type_id":"4","last_reported":1744982336,"current_range_meters":8800,"station_id":"ce4bhbh2rcd13ifvqeo0","pricing_plan_id":"cebpf4jnsgd1na2vs0mg"},{"bike_id":"379b2d5b-0533-4837-b93d-586a3a73b77a","system_id":"levelo_inurba_marseille","lat":43.24663,"lon":5.38167,"is_reserved":false,"is_disabled":false,"rental_uris":{"android":"levelo://app?vid=379b2d5b-0533-4837-b93d-586a3a73b77a","ios":"levelo://app?vid=379b2d5b-0533-4837-b93d-586a3a73b77a"},"vehicle_type_id":"4","last_reported":1744982336,"current_range_meters":8800,"station_id":"ce4bhih2rcd13ifvqfr0","pricing_plan_id":"cebpf4jnsgd1na2vs0mg"},{"bike_id":"db061632-7316-444a-9e29-c107f20a7d3f","system_id":"levelo_inurba_marseille","lat":43.28719,"lon":5.37938,"is_reserved":false,"is_disabled":false,"rental_uris":{"android":"levelo://app?vid=db061632-7316-444a-9e29-c107f20a7d3f","ios":"levelo://app?vid=db061632-7316-444a-9e29-c107f20a7d3f"},"vehicle_type_id":"4","last_reported":1744982336,"current_range_meters":8800,"station_id":"ce4bh9p2rcd13ifvqec0","pricing_plan_id":"cebpf4jnsgd1na2vs0mg"},{"bike_id":"47e2ebc2-bd03-4b22-9f94-c60de55e1641","system_id":"levelo_inurba_marseille","lat":43.23962,"lon":5.36625,"is_reserved":false,"is_disabled":false,"rental_uris":{"android":"levelo://app?vid=47e2ebc2-bd03-4b22-9f94-c60de55e1641","ios":"levelo://app?vid=47e2ebc2-bd03-4b22-9f94-c60de55e1641"},"vehicle_type_id":"4","last_reported":1744982336,"current_range_meters":8800,"station_id":"ce4bhi12rcd13ifvqfp0","pricing_plan_id":"cebpf4jnsgd1na2vs0mg"},{"bike_id":"58cd0355-f1b1-4aa8-9b43-a558bc405aca","system_id":"levelo_inurba_marseille","lat":43.299649,"lon":5.401039,"is_reserved":false,"is_disabled":false,"rental_uris":{"android":"levelo://app?vid=58cd0355-f1b1-4aa8-9b43-a558bc405aca","ios":"levelo://app?vid=58cd0355-f1b1-4aa8-9b43-a558bc405aca"},"vehicle_type_id":"4","last_reported":1744982336,"current_range_meters":9200,"station_id":"ce4bh312rcd13ifvqdk0","pricing_plan_id":"cebpf4jnsgd1na2vs0mg"},{"bike_id":"22209dda-afa5-4a31-9c25-a5d94a331926","system_id":"levelo_inurba_marseille","lat":43.24086,"lon":5.37753,"is_reserved":false,"is_disabled":true,"rental_uris":{"android":"levelo://app?vid=22209dda-afa5-4a31-9c25-a5d94a331926","ios":"levelo://app?vid=22209dda-afa5-4a31-9c25-a5d94a331926"},"vehicle_type_id":"4","last_reported":1744982336,"current_range_meters":9200,"station_id":"ce4bhnp2rcd13ifvqgvg","pricing_plan_id":"cebpf4jnsgd1na2vs0mg"},{"bike_id":"11d5d2ee-7536-4140-8ae6-d9304850463a","system_id":"levelo_inurba_marseille","lat":43.29257,"lon":5.40908,"is_reserved":false,"is_disabled":false,"rental_uris":{"android":"levelo://app?vid=11d5d2ee-7536-4140-8ae6-d9304850463a","ios":"levelo://app?vid=11d5d2ee-7536-4140-8ae6-d9304850463a"},"vehicle_type_id":"4","last_reported":1744982336,"current_range_meters":9200,"station_id":"ce4bh192rcd13ifvqdc0","pricing_plan_id":"cebpf4jnsgd1na2vs0mg"},{"bike_id":"2f10d732-9534-46d1-96fa-941117787f89","system_id":"levelo_inurba_marseille","lat":43.23145,"lon":5.43706,"is_reserved":false,"is_disabled":false,"rental_uris":{"android":"levelo://app?vid=2f10d732-9534-46d1-96fa-941117787f89","ios":"levelo://app?vid=2f10d732-9534-46d1-96fa-941117787f89"},"vehicle_type_id":"4","last_reported":1744982336,"current_range_meters":9200,"station_id":"ce4bhmp2rcd13ifvqgog","pricing_plan_id":"cebpf4jnsgd1na2vs0mg"},{"bike_id":"7cf2e4a9-2c82-45e7-90e2-f540a96bde53","system_id":"levelo_inurba_marseille","lat":43.24388,"lon":5.37059,"is_reserved":false,"is_disabled":false,"rental_uris":{"android":"levelo://app?vid=7cf2e4a9-2c82-45e7-90e2-f540a96bde53","ios":"levelo://app?vid=7cf2e4a9-2c82-45e7-90e2-f540a96bde53"},"vehicle_type_id":"4","last_reported":1744982336,"current_range_meters":9200,"station_id":"ce4bhhh2rcd13ifvqfk0","pricing_plan_id":"cebpf4jnsgd1na2vs0mg"},{"bike_id":"a836461e-46f5-444f-889b-59666986b6a7","system_id":"levelo_inurba_marseille","lat":43.32343,"lon":5.36734,"is_reserved":false,"is_disabled":false,"rental_uris":{"android":"levelo://app?vid=a836461e-46f5-444f-889b-59666986b6a7","ios":"levelo://app?vid=a836461e-46f5-444f-889b-59666986b6a7"},"vehicle_type_id":"4","last_reported":1744982336,"current_range_meters":9200,"station_id":"ce4bhsh2rcd13ifvqi2g","pricing_plan_id":"cebpf4jnsgd1na2vs0mg"},{"bike_id":"67525b75-3855-4677-9ed8-889da1b15e89","system_id":"levelo_inurba_marseille","lat":43.31484,"lon":5.373,"is_reserved":false,"is_disabled":false,"rental_uris":{"android":"levelo://app?vid=67525b75-3855-4677-9ed8-889da1b15e89","ios":"levelo://app?vid=67525b75-3855-4677-9ed8-889da1b15e89"},"vehicle_type_id":"4","last_reported":1744982336,"current_range_meters":9200,"station_id":"ce4bgt12rcd13ifvqcd0","pricing_plan_id":"cebpf4jnsgd1na2vs0mg"},{"bike_id":"84e21080-60ba-403c-bbc7-dc051dcc2e3f","system_id":"levelo_inurba_marseille","lat":43.28447,"lon":5.35893,"is_reserved":false,"is_disabled":false,"rental_uris":{"android":"levelo://app?vid=84e21080-60ba-403c-bbc7-dc051dcc2e3f","ios":"levelo://app?vid=84e21080-60ba-403c-bbc7-dc051dcc2e3f"},"vehicle_type_id":"4","last_reported":1744982336,"current_range_meters":9200,"station_id":"ce4bhah2rcd13ifvqei0","pricing_plan_id":"cebpf4jnsgd1na2vs0mg"},{"bike_id":"ec8c9ac7-1e95-4171-97f3-226ce1e3c951","system_id":"levelo_inurba_marseille","lat":43.321065,"lon":5.367775,"is_reserved":false,"is_disabled":false,"rental_uris":{"android":"levelo://app?vid=ec8c9ac7-1e95-4171-97f3-226ce1e3c951","ios":"levelo://app?vid=ec8c9ac7-1e95-4171-97f3-226ce1e3c951"},"vehicle_type_id":"4","last_reported":1744982336,"current_range_meters":9600,"station_id":"ce4bhrh2rcd13ifvqhug","pricing_plan_id":"cebpf4jnsgd1na2vs0mg"},{"bike_id":"70b6b133-6705-4dfd-b4a7-6e88067904e8","system_id":"levelo_inurba_marseille","lat":43.241713,"lon":5.363987,"is_reserved":false,"is_disabled":false,"rental_uris":{"android":"levelo://app?vid=70b6b133-6705-4dfd-b4a7-6e88067904e8","ios":"levelo://app?vid=70b6b133-6705-4dfd-b4a7-6e88067904e8"},"vehicle_type_id":"4","last_reported":1744982336,"current_range_meters":9600,"station_id":"cpo36qri1sfpv3e86is0","pricing_plan_id":"cebpf4jnsgd1na2vs0mg"},{"bike_id":"4fa7469b-0735-40af-8574-6dc2541bdb30","system_id":"levelo_inurba_marseille","lat":43.23961,"lon":5.36633,"is_reserved":false,"is_disabled":false,"rental_uris":{"android":"levelo://app?vid=4fa7469b-0735-40af-8574-6dc2541bdb30","ios":"levelo://app?vid=4fa7469b-0735-40af-8574-6dc2541bdb30"},"vehicle_type_id":"4","last_reported":1744982336,"current_range_meters":10000,"station_id":"ce4bhi12rcd13ifvqfp0","pricing_plan_id":"cebpf4jnsgd1na2vs0mg"},{"bike_id":"5fddd535-ab4d-402f-9080-0ad0b96c0735","system_id":"levelo_inurba_marseille","lat":43.30912,"lon":5.36731,"is_reserved":false,"is_disabled":false,"rental_uris":{"android":"levelo://app?vid=5fddd535-ab4d-402f-9080-0ad0b96c0735","ios":"levelo://app?vid=5fddd535-ab4d-402f-9080-0ad0b96c0735"},"vehicle_type_id":"4","last_reported":1744982336,"current_range_meters":10000,"station_id":"","pricing_plan_id":"cebpf4jnsgd1na2vs0mg"},{"bike_id":"a92afccc-dbd7-42a4-84d8-f71e1f68eaa9","system_id":"levelo_inurba_marseille","lat":43.25107,"lon":5.40313,"is_reserved":false,"is_disabled":false,"rental_uris":{"android":"levelo://app?vid=a92afccc-dbd7-42a4-84d8-f71e1f68eaa9","ios":"levelo://app?vid=a92afccc-dbd7-42a4-84d8-f71e1f68eaa9"},"vehicle_type_id":"4","last_reported":1744982336,"current_range_meters":10000,"station_id":"ce4bhlh2rcd13ifvqgig","pricing_plan_id":"cebpf4jnsgd1na2vs0mg"},{"bike_id":"7c06da4f-f480-401d-adc9-2b092d1806dc","system_id":"levelo_inurba_marseille","lat":43.31113,"lon":5.37761,"is_reserved":false,"is_disabled":false,"rental_uris":{"android":"levelo://app?vid=7c06da4f-f480-401d-adc9-2b092d1806dc","ios":"levelo://app?vid=7c06da4f-f480-401d-adc9-2b092d1806dc"},"vehicle_type_id":"4","last_reported":1744982336,"current_range_meters":10000,"station_id":"ce4bgt92rcd13ifvqcg0","pricing_plan_id":"cebpf4jnsgd1na2vs0mg"},{"bike_id":"6edae6e8-68d1-447b-bc9a-f33f449be267","system_id":"levelo_inurba_marseille","lat":43.23957,"lon":5.36632,"is_reserved":false,"is_disabled":false,"rental_uris":{"android":"levelo://app?vid=6edae6e8-68d1-447b-bc9a-f33f449be267","ios":"levelo://app?vid=6edae6e8-68d1-447b-bc9a-f33f449be267"},"vehicle_type_id":"4","last_reported":1744982336,"current_range_meters":10000,"station_id":"ce4bhi12rcd13ifvqfp0","pricing_plan_id":"cebpf4jnsgd1na2vs0mg"},{"bike_id":"65afc6da-d428-4026-85a1-bd2eb25d68cd","system_id":"levelo_inurba_marseille","lat":43.218628,"lon":5.345618,"is_reserved":false,"is_disabled":false,"rental_uris":{"android":"levelo://app?vid=65afc6da-d428-4026-85a1-bd2eb25d68cd","ios":"levelo://app?vid=65afc6da-d428-4026-85a1-bd2eb25d68cd"},"vehicle_type_id":"4","last_reported":1744982336,"current_range_meters":10800,"station_id":"ce4bhbp2rcd13ifvqerg","pricing_plan_id":"cebpf4jnsgd1na2vs0mg"},{"bike_id":"faf6f6f9-3884-46b8-87cd-5a5e53e99bef","system_id":"levelo_inurba_marseille","lat":43.21193,"lon":5.35061,"is_reserved":false,"is_disabled":false,"rental_uris":{"android":"levelo://app?vid=faf6f6f9-3884-46b8-87cd-5a5e53e99bef","ios":"levelo://app?vid=faf6f6f9-3884-46b8-87cd-5a5e53e99bef"},"vehicle_type_id":"4","last_reported":1744982336,"current_range_meters":10800,"station_id":"st_cvj6sg6p6f1abm77japg","pricing_plan_id":"cebpf4jnsgd1na2vs0mg"},{"bike_id":"3737cb74-761b-429f-9d2d-1c31624faab3","system_id":"levelo_inurba_marseille","lat":43.22929,"lon":5.35367,"is_reserved":false,"is_disabled":false,"rental_uris":{"android":"levelo://app?vid=3737cb74-761b-429f-9d2d-1c31624faab3","ios":"levelo://app?vid=3737cb74-761b-429f-9d2d-1c31624faab3"},"vehicle_type_id":"4","last_reported":1744982336,"current_range_meters":10800,"station_id":"cpo3532slgdg3j2ikp40","pricing_plan_id":"cebpf4jnsgd1na2vs0mg"},{"bike_id":"1e954ebd-6f87-4cd4-8c0c-e1f08423f7c4","system_id":"levelo_inurba_marseille","lat":43.299366,"lon":5.365607,"is_reserved":false,"is_disabled":false,"rental_uris":{"android":"levelo://app?vid=1e954ebd-6f87-4cd4-8c0c-e1f08423f7c4","ios":"levelo://app?vid=1e954ebd-6f87-4cd4-8c0c-e1f08423f7c4"},"vehicle_type_id":"4","last_reported":1744982336,"current_range_meters":10800,"station_id":"ce4bgm92rcd13ifvqbr0","pricing_plan_id":"cebpf4jnsgd1na2vs0mg"},{"bike_id":"39b5b4aa-6c47-459d-9238-64c2a2c0914f","system_id":"levelo_inurba_marseille","lat":43.26234,"lon":5.40451,"is_reserved":false,"is_disabled":false,"rental_uris":{"android":"levelo://app?vid=39b5b4aa-6c47-459d-9238-64c2a2c0914f","ios":"levelo://app?vid=39b5b4aa-6c47-459d-9238-64c2a2c0914f"},"vehicle_type_id":"4","last_reported":1744982336,"current_range_meters":10800,"station_id":"ce4bhmh2rcd13ifvqgmg","pricing_plan_id":"cebpf4jnsgd1na2vs0mg"},{"bike_id":"cf4db056-d3f7-4001-aa54-c43d57090a49","system_id":"levelo_inurba_marseille","lat":43.231918,"lon":5.35556,"is_reserved":false,"is_disabled":false,"rental_uris":{"android":"levelo://app?vid=cf4db056-d3f7-4001-aa54-c43d57090a49","ios":"levelo://app?vid=cf4db056-d3f7-4001-aa54-c43d57090a49"},"vehicle_type_id":"4","last_reported":1744982336,"current_range_meters":10800,"station_id":"ce4bhu92rcd13ifvqi70","pricing_plan_id":"cebpf4jnsgd1na2vs0mg"},{"bike_id":"2296faea-c5b2-4872-8407-005edd2d071e","system_id":"levelo_inurba_marseille","lat":43.26499,"lon":5.39541,"is_reserved":false,"is_disabled":false,"rental_uris":{"android":"levelo://app?vid=2296faea-c5b2-4872-8407-005edd2d071e","ios":"levelo://app?vid=2296faea-c5b2-4872-8407-005edd2d071e"},"vehicle_type_id":"4","last_reported":1744982336,"current_range_meters":10800,"station_id":"ce4bhi12rcd13ifvqfq0","pricing_plan_id":"cebpf4jnsgd1na2vs0mg"},{"bike_id":"4bc41d9b-514e-4000-9eae-6ce45a535ece","system_id":"levelo_inurba_marseille","lat":43.27614,"lon":5.3611,"is_reserved":false,"is_disabled":false,"rental_uris":{"android":"levelo://app?vid=4bc41d9b-514e-4000-9eae-6ce45a535ece","ios":"levelo://app?vid=4bc41d9b-514e-4000-9eae-6ce45a535ece"},"vehicle_type_id":"4","last_reported":1744982336,"current_range_meters":10800,"station_id":"ce4bgj92rcd13ifvqbe0","pricing_plan_id":"cebpf4jnsgd1na2vs0mg"},{"bike_id":"2c27d945-5866-4ee0-a0f0-0ea7bf601690","system_id":"levelo_inurba_marseille","lat":43.23965,"lon":5.36631,"is_reserved":false,"is_disabled":false,"rental_uris":{"android":"levelo://app?vid=2c27d945-5866-4ee0-a0f0-0ea7bf601690","ios":"levelo://app?vid=2c27d945-5866-4ee0-a0f0-0ea7bf601690"},"vehicle_type_id":"4","last_reported":1744982336,"current_range_meters":10800,"station_id":"ce4bhi12rcd13ifvqfp0","pricing_plan_id":"cebpf4jnsgd1na2vs0mg"},{"bike_id":"3dd437ae-8bd8-42e5-bc81-8fa6ac95e444","system_id":"levelo_inurba_marseille","lat":43.27376,"lon":5.36256,"is_reserved":false,"is_disabled":false,"rental_uris":{"android":"levelo://app?vid=3dd437ae-8bd8-42e5-bc81-8fa6ac95e444","ios":"levelo://app?vid=3dd437ae-8bd8-42e5-bc81-8fa6ac95e444"},"vehicle_type_id":"4","last_reported":1744982336,"current_range_meters":10800,"station_id":"ce4bhbh2rcd13ifvqeo0","pricing_plan_id":"cebpf4jnsgd1na2vs0mg"},{"bike_id":"8af9083f-40cd-4479-9aff-b06462b56f05","system_id":"levelo_inurba_marseille","lat":43.28412,"lon":5.34987,"is_reserved":false,"is_disabled":false,"rental_uris":{"android":"levelo://app?vid=8af9083f-40cd-4479-9aff-b06462b56f05","ios":"levelo://app?vid=8af9083f-40cd-4479-9aff-b06462b56f05"},"vehicle_type_id":"4","last_reported":1744982336,"current_range_meters":11600,"station_id":"ce4bhbh2rcd13ifvqepg","pricing_plan_id":"cebpf4jnsgd1na2vs0mg"},{"bike_id":"1210dc72-37b8-49f7-b249-6faa54daba28","system_id":"levelo_inurba_marseille","lat":43.323596,"lon":5.367676,"is_reserved":false,"is_disabled":false,"rental_uris":{"android":"levelo://app?vid=1210dc72-37b8-49f7-b249-6faa54daba28","ios":"levelo://app?vid=1210dc72-37b8-49f7-b249-6faa54daba28"},"vehicle_type_id":"4","last_reported":1744982336,"current_range_meters":11200,"station_id":"ce4bhsh2rcd13ifvqi2g","pricing_plan_id":"cebpf4jnsgd1na2vs0mg"},{"bike_id":"91b0f96d-1a6e-4e28-98b9-2c86f2485aee","system_id":"levelo_inurba_marseille","lat":43.32416,"lon":5.39048,"is_reserved":false,"is_disabled":false,"rental_uris":{"android":"levelo://app?vid=91b0f96d-1a6e-4e28-98b9-2c86f2485aee","ios":"levelo://app?vid=91b0f96d-1a6e-4e28-98b9-2c86f2485aee"},"vehicle_type_id":"4","last_reported":1744982336,"current_range_meters":11200,"station_id":"","pricing_plan_id":"cebpf4jnsgd1na2vs0mg"},{"bike_id":"b6449b60-5c4c-410c-8521-97242bacf8f2","system_id":"levelo_inurba_marseille","lat":43.27375,"lon":5.36247,"is_reserved":false,"is_disabled":false,"rental_uris":{"android":"levelo://app?vid=b6449b60-5c4c-410c-8521-97242bacf8f2","ios":"levelo://app?vid=b6449b60-5c4c-410c-8521-97242bacf8f2"},"vehicle_type_id":"4","last_reported":1744982336,"current_range_meters":11200,"station_id":"ce4bhbh2rcd13ifvqeo0","pricing_plan_id":"cebpf4jnsgd1na2vs0mg"},{"bike_id":"7ed91d22-3d5b-4254-83bf-64eb2a7d5481","system_id":"levelo_inurba_marseille","lat":43.22499,"lon":5.34781,"is_reserved":false,"is_disabled":false,"rental_uris":{"android":"levelo://app?vid=7ed91d22-3d5b-4254-83bf-64eb2a7d5481","ios":"levelo://app?vid=7ed91d22-3d5b-4254-83bf-64eb2a7d5481"},"vehicle_type_id":"4","last_reported":1744982336,"current_range_meters":11600,"station_id":"","pricing_plan_id":"cebpf4jnsgd1na2vs0mg"},{"bike_id":"06036738-e25b-4788-93ff-f5b8ac554e13","system_id":"levelo_inurba_marseille","lat":43.28615,"lon":5.35105,"is_reserved":false,"is_disabled":false,"rental_uris":{"android":"levelo://app?vid=06036738-e25b-4788-93ff-f5b8ac554e13","ios":"levelo://app?vid=06036738-e25b-4788-93ff-f5b8ac554e13"},"vehicle_type_id":"4","last_reported":1744982336,"current_range_meters":11600,"station_id":"ce4bhch2rcd13ifvqeug","pricing_plan_id":"cebpf4jnsgd1na2vs0mg"},{"bike_id":"9ccc1250-0ff6-4acc-bd2f-67431ef76582","system_id":"levelo_inurba_marseille","lat":43.28415,"lon":5.34985,"is_reserved":false,"is_disabled":false,"rental_uris":{"android":"levelo://app?vid=9ccc1250-0ff6-4acc-bd2f-67431ef76582","ios":"levelo://app?vid=9ccc1250-0ff6-4acc-bd2f-67431ef76582"},"vehicle_type_id":"4","last_reported":1744982336,"current_range_meters":11600,"station_id":"ce4bhbh2rcd13ifvqepg","pricing_plan_id":"cebpf4jnsgd1na2vs0mg"},{"bike_id":"397aa98a-9e95-44d5-b872-9acc43faf340","system_id":"levelo_inurba_marseille","lat":43.28617,"lon":5.35117,"is_reserved":false,"is_disabled":false,"rental_uris":{"android":"levelo://app?vid=397aa98a-9e95-44d5-b872-9acc43faf340","ios":"levelo://app?vid=397aa98a-9e95-44d5-b872-9acc43faf340"},"vehicle_type_id":"4","last_reported":1744982336,"current_range_meters":11600,"station_id":"ce4bhch2rcd13ifvqeug","pricing_plan_id":"cebpf4jnsgd1na2vs0mg"},{"bike_id":"e282939b-78df-47a6-92af-3b0c3fe9bc56","system_id":"levelo_inurba_marseille","lat":43.23149,"lon":5.43713,"is_reserved":false,"is_disabled":false,"rental_uris":{"android":"levelo://app?vid=e282939b-78df-47a6-92af-3b0c3fe9bc56","ios":"levelo://app?vid=e282939b-78df-47a6-92af-3b0c3fe9bc56"},"vehicle_type_id":"4","last_reported":1744982336,"current_range_meters":12000,"station_id":"ce4bhmp2rcd13ifvqgog","pricing_plan_id":"cebpf4jnsgd1na2vs0mg"},{"bike_id":"effb955a-fc18-4ef6-a97e-9417186c15b9","system_id":"levelo_inurba_marseille","lat":43.21748,"lon":5.34605,"is_reserved":false,"is_disabled":false,"rental_uris":{"android":"levelo://app?vid=effb955a-fc18-4ef6-a97e-9417186c15b9","ios":"levelo://app?vid=effb955a-fc18-4ef6-a97e-9417186c15b9"},"vehicle_type_id":"4","last_reported":1744982336,"current_range_meters":12000,"station_id":"st_cvj6r9ubvosntc0bgbag","pricing_plan_id":"cebpf4jnsgd1na2vs0mg"},{"bike_id":"691fc563-2043-48e3-bcb0-0c950507c3af","system_id":"levelo_inurba_marseille","lat":43.2762,"lon":5.36104,"is_reserved":false,"is_disabled":false,"rental_uris":{"android":"levelo://app?vid=691fc563-2043-48e3-bcb0-0c950507c3af","ios":"levelo://app?vid=691fc563-2043-48e3-bcb0-0c950507c3af"},"vehicle_type_id":"4","last_reported":1744982336,"current_range_meters":12000,"station_id":"ce4bgj92rcd13ifvqbe0","pricing_plan_id":"cebpf4jnsgd1na2vs0mg"},{"bike_id":"39843635-d466-48cd-8a44-d280094ee433","system_id":"levelo_inurba_marseille","lat":43.29007,"lon":5.35605,"is_reserved":false,"is_disabled":false,"rental_uris":{"android":"levelo://app?vid=39843635-d466-48cd-8a44-d280094ee433","ios":"levelo://app?vid=39843635-d466-48cd-8a44-d280094ee433"},"vehicle_type_id":"4","last_reported":1744982336,"current_range_meters":12000,"station_id":"ce4bhb92rcd13ifvqen0","pricing_plan_id":"cebpf4jnsgd1na2vs0mg"},{"bike_id":"1eaca8f5-0017-418a-9bfc-52185bf67513","system_id":"levelo_inurba_marseille","lat":43.33743,"lon":5.39167,"is_reserved":false,"is_disabled":false,"rental_uris":{"android":"levelo://app?vid=1eaca8f5-0017-418a-9bfc-52185bf67513","ios":"levelo://app?vid=1eaca8f5-0017-418a-9bfc-52185bf67513"},"vehicle_type_id":"4","last_reported":1744982336,"current_range_meters":12400,"station_id":"ce4bhr92rcd13ifvqhsg","pricing_plan_id":"cebpf4jnsgd1na2vs0mg"},{"bike_id":"0f2c595e-9b43-4607-8378-f0d8fca51133","system_id":"levelo_inurba_marseille","lat":43.299,"lon":5.43672,"is_reserved":false,"is_disabled":false,"rental_uris":{"android":"levelo://app?vid=0f2c595e-9b43-4607-8378-f0d8fca51133","ios":"levelo://app?vid=0f2c595e-9b43-4607-8378-f0d8fca51133"},"vehicle_type_id":"4","last_reported":1744982336,"current_range_meters":12400,"station_id":"ce4bhpp2rcd13ifvqhfg","pricing_plan_id":"cebpf4jnsgd1na2vs0mg"},{"bike_id":"bbb1c662-cc65-4c72-8489-de78d2f0f12f","system_id":"levelo_inurba_marseille","lat":43.23058,"lon":5.35492,"is_reserved":false,"is_disabled":false,"rental_uris":{"android":"levelo://app?vid=bbb1c662-cc65-4c72-8489-de78d2f0f12f","ios":"levelo://app?vid=bbb1c662-cc65-4c72-8489-de78d2f0f12f"},"vehicle_type_id":"4","last_reported":1744982336,"current_range_meters":12800,"station_id":"cpo3342slgdg3j2ifvpg","pricing_plan_id":"cebpf4jnsgd1na2vs0mg"},{"bike_id":"4cfc19b3-98eb-4307-944e-3c9fb84e2652","system_id":"levelo_inurba_marseille","lat":43.28843,"lon":5.35839,"is_reserved":false,"is_disabled":false,"rental_uris":{"android":"levelo://app?vid=4cfc19b3-98eb-4307-944e-3c9fb84e2652","ios":"levelo://app?vid=4cfc19b3-98eb-4307-944e-3c9fb84e2652"},"vehicle_type_id":"4","last_reported":1744982336,"current_range_meters":12800,"station_id":"ce4bhb12rcd13ifvqem0","pricing_plan_id":"cebpf4jnsgd1na2vs0mg"},{"bike_id":"875aa746-9da9-4769-990b-463510bc6916","system_id":"levelo_inurba_marseille","lat":43.21193,"lon":5.35077,"is_reserved":false,"is_disabled":false,"rental_uris":{"android":"levelo://app?vid=875aa746-9da9-4769-990b-463510bc6916","ios":"levelo://app?vid=875aa746-9da9-4769-990b-463510bc6916"},"vehicle_type_id":"4","last_reported":1744982336,"current_range_meters":12800,"station_id":"st_cvj6sg6p6f1abm77japg","pricing_plan_id":"cebpf4jnsgd1na2vs0mg"},{"bike_id":"934a8fc0-98f8-4aaf-a145-d485dee937c7","system_id":"levelo_inurba_marseille","lat":43.32362,"lon":5.36769,"is_reserved":false,"is_disabled":false,"rental_uris":{"android":"levelo://app?vid=934a8fc0-98f8-4aaf-a145-d485dee937c7","ios":"levelo://app?vid=934a8fc0-98f8-4aaf-a145-d485dee937c7"},"vehicle_type_id":"4","last_reported":1744982336,"current_range_meters":12800,"station_id":"ce4bhsh2rcd13ifvqi2g","pricing_plan_id":"cebpf4jnsgd1na2vs0mg"},{"bike_id":"a0ddb0a5-f7f0-4281-aa27-9e82747cc573","system_id":"levelo_inurba_marseille","lat":43.33754,"lon":5.37491,"is_reserved":false,"is_disabled":false,"rental_uris":{"android":"levelo://app?vid=a0ddb0a5-f7f0-4281-aa27-9e82747cc573","ios":"levelo://app?vid=a0ddb0a5-f7f0-4281-aa27-9e82747cc573"},"vehicle_type_id":"4","last_reported":1744982336,"current_range_meters":12800,"station_id":"","pricing_plan_id":"cebpf4jnsgd1na2vs0mg"},{"bike_id":"3d48f6f2-161b-4037-9ca6-b1a220e72e09","system_id":"levelo_inurba_marseille","lat":43.27369,"lon":5.36254,"is_reserved":false,"is_disabled":false,"rental_uris":{"android":"levelo://app?vid=3d48f6f2-161b-4037-9ca6-b1a220e72e09","ios":"levelo://app?vid=3d48f6f2-161b-4037-9ca6-b1a220e72e09"},"vehicle_type_id":"4","last_reported":1744982336,"current_range_meters":13600,"station_id":"ce4bhbh2rcd13ifvqeo0","pricing_plan_id":"cebpf4jnsgd1na2vs0mg"},{"bike_id":"bd492354-2d79-4427-82ee-84e4a12dea30","system_id":"levelo_inurba_marseille","lat":43.21189,"lon":5.35069,"is_reserved":false,"is_disabled":false,"rental_uris":{"android":"levelo://app?vid=bd492354-2d79-4427-82ee-84e4a12dea30","ios":"levelo://app?vid=bd492354-2d79-4427-82ee-84e4a12dea30"},"vehicle_type_id":"4","last_reported":1744982336,"current_range_meters":13600,"station_id":"st_cvj6sg6p6f1abm77japg","pricing_plan_id":"cebpf4jnsgd1na2vs0mg"},{"bike_id":"4cc47366-1a3e-4dde-b2f8-f27895fe8d90","system_id":"levelo_inurba_marseille","lat":43.24178,"lon":5.39721,"is_reserved":false,"is_disabled":false,"rental_uris":{"android":"levelo://app?vid=4cc47366-1a3e-4dde-b2f8-f27895fe8d90","ios":"levelo://app?vid=4cc47366-1a3e-4dde-b2f8-f27895fe8d90"},"vehicle_type_id":"4","last_reported":1744982336,"current_range_meters":13600,"station_id":"ce4bhn12rcd13ifvqgpg","pricing_plan_id":"cebpf4jnsgd1na2vs0mg"},{"bike_id":"1cea5ba0-6958-4cd2-bd38-e64cc3131a08","system_id":"levelo_inurba_marseille","lat":43.28473,"lon":5.3854,"is_reserved":false,"is_disabled":false,"rental_uris":{"android":"levelo://app?vid=1cea5ba0-6958-4cd2-bd38-e64cc3131a08","ios":"levelo://app?vid=1cea5ba0-6958-4cd2-bd38-e64cc3131a08"},"vehicle_type_id":"4","last_reported":1744982336,"current_range_meters":13600,"station_id":"ce4bh8p2rcd13ifvqeb0","pricing_plan_id":"cebpf4jnsgd1na2vs0mg"},{"bike_id":"0412a1ca-4def-4ac7-bfaa-effc8cbb5510","system_id":"levelo_inurba_marseille","lat":43.22929,"lon":5.3536,"is_reserved":false,"is_disabled":false,"rental_uris":{"android":"levelo://app?vid=0412a1ca-4def-4ac7-bfaa-effc8cbb5510","ios":"levelo://app?vid=0412a1ca-4def-4ac7-bfaa-effc8cbb5510"},"vehicle_type_id":"4","last_reported":1744982336,"current_range_meters":13600,"station_id":"cpo3532slgdg3j2ikp40","pricing_plan_id":"cebpf4jnsgd1na2vs0mg"},{"bike_id":"428840cf-f9d5-43b5-bebd-8b80aaad3ce3","system_id":"levelo_inurba_marseille","lat":43.28665,"lon":5.36352,"is_reserved":false,"is_disabled":false,"rental_uris":{"android":"levelo://app?vid=428840cf-f9d5-43b5-bebd-8b80aaad3ce3","ios":"levelo://app?vid=428840cf-f9d5-43b5-bebd-8b80aaad3ce3"},"vehicle_type_id":"4","last_reported":1744982336,"current_range_meters":12800,"station_id":"ce4bhah2rcd13ifvqej0","pricing_plan_id":"cebpf4jnsgd1na2vs0mg"},{"bike_id":"4c2621dd-d0f9-483c-ac9e-25f78824d1cf","system_id":"levelo_inurba_marseille","lat":43.322871,"lon":5.382721,"is_reserved":false,"is_disabled":false,"rental_uris":{"android":"levelo://app?vid=4c2621dd-d0f9-483c-ac9e-25f78824d1cf","ios":"levelo://app?vid=4c2621dd-d0f9-483c-ac9e-25f78824d1cf"},"vehicle_type_id":"4","last_reported":1744982336,"current_range_meters":12800,"station_id":"ce4bhr12rcd13ifvqhqg","pricing_plan_id":"cebpf4jnsgd1na2vs0mg"},{"bike_id":"f284ff8f-c2c8-4a75-ac03-ff164ffed701","system_id":"levelo_inurba_marseille","lat":43.30587,"lon":5.3935,"is_reserved":false,"is_disabled":false,"rental_uris":{"android":"levelo://app?vid=f284ff8f-c2c8-4a75-ac03-ff164ffed701","ios":"levelo://app?vid=f284ff8f-c2c8-4a75-ac03-ff164ffed701"},"vehicle_type_id":"4","last_reported":1744982336,"current_range_meters":14000,"station_id":"ce4bh0p2rcd13ifvqd80","pricing_plan_id":"cebpf4jnsgd1na2vs0mg"},{"bike_id":"4a0f415a-7167-481b-a8a8-3a14ba8204d4","system_id":"levelo_inurba_marseille","lat":43.28469,"lon":5.35871,"is_reserved":false,"is_disabled":false,"rental_uris":{"android":"levelo://app?vid=4a0f415a-7167-481b-a8a8-3a14ba8204d4","ios":"levelo://app?vid=4a0f415a-7167-481b-a8a8-3a14ba8204d4"},"vehicle_type_id":"4","last_reported":1744982336,"current_range_meters":14000,"station_id":"ce4bhah2rcd13ifvqei0","pricing_plan_id":"cebpf4jnsgd1na2vs0mg"},{"bike_id":"cefca3db-e11e-448e-8388-9a03413ddae4","system_id":"levelo_inurba_marseille","lat":43.29936,"lon":5.36554,"is_reserved":false,"is_disabled":false,"rental_uris":{"android":"levelo://app?vid=cefca3db-e11e-448e-8388-9a03413ddae4","ios":"levelo://app?vid=cefca3db-e11e-448e-8388-9a03413ddae4"},"vehicle_type_id":"4","last_reported":1744982336,"current_range_meters":14000,"station_id":"ce4bgm92rcd13ifvqbr0","pricing_plan_id":"cebpf4jnsgd1na2vs0mg"},{"bike_id":"5ca5adc1-2d56-4b58-bcb6-38802c89aa6c","system_id":"levelo_inurba_marseille","lat":43.28619,"lon":5.351059,"is_reserved":false,"is_disabled":false,"rental_uris":{"android":"levelo://app?vid=5ca5adc1-2d56-4b58-bcb6-38802c89aa6c","ios":"levelo://app?vid=5ca5adc1-2d56-4b58-bcb6-38802c89aa6c"},"vehicle_type_id":"4","last_reported":1744982336,"current_range_meters":14400,"station_id":"","pricing_plan_id":"cebpf4jnsgd1na2vs0mg"},{"bike_id":"612baf89-cd52-4ee6-ba65-b56e6ca2e02a","system_id":"levelo_inurba_marseille","lat":43.26804,"lon":5.40271,"is_reserved":false,"is_disabled":false,"rental_uris":{"android":"levelo://app?vid=612baf89-cd52-4ee6-ba65-b56e6ca2e02a","ios":"levelo://app?vid=612baf89-cd52-4ee6-ba65-b56e6ca2e02a"},"vehicle_type_id":"4","last_reported":1744982336,"current_range_meters":14400,"station_id":"ce501612rcd8frsf0b60","pricing_plan_id":"cebpf4jnsgd1na2vs0mg"},{"bike_id":"50d4a2c6-4a96-473e-8d34-d513024f852d","system_id":"levelo_inurba_marseille","lat":43.23966,"lon":5.36664,"is_reserved":false,"is_disabled":false,"rental_uris":{"android":"levelo://app?vid=50d4a2c6-4a96-473e-8d34-d513024f852d","ios":"levelo://app?vid=50d4a2c6-4a96-473e-8d34-d513024f852d"},"vehicle_type_id":"4","last_reported":1744982336,"current_range_meters":14400,"station_id":"ce4bhi12rcd13ifvqfp0","pricing_plan_id":"cebpf4jnsgd1na2vs0mg"},{"bike_id":"ef6e9c6f-8f69-4fcf-9727-b556a001e5bc","system_id":"levelo_inurba_marseille","lat":43.2955,"lon":5.42269,"is_reserved":false,"is_disabled":false,"rental_uris":{"android":"levelo://app?vid=ef6e9c6f-8f69-4fcf-9727-b556a001e5bc","ios":"levelo://app?vid=ef6e9c6f-8f69-4fcf-9727-b556a001e5bc"},"vehicle_type_id":"4","last_reported":1744982336,"current_range_meters":14400,"station_id":"ce4bhph2rcd13ifvqhdg","pricing_plan_id":"cebpf4jnsgd1na2vs0mg"},{"bike_id":"0d5d7404-98dd-4d53-8fde-1b51985dd2d0","system_id":"levelo_inurba_marseille","lat":43.21754,"lon":5.34589,"is_reserved":false,"is_disabled":false,"rental_uris":{"android":"levelo://app?vid=0d5d7404-98dd-4d53-8fde-1b51985dd2d0","ios":"levelo://app?vid=0d5d7404-98dd-4d53-8fde-1b51985dd2d0"},"vehicle_type_id":"4","last_reported":1744982336,"current_range_meters":14400,"station_id":"st_cvj6r9ubvosntc0bgbag","pricing_plan_id":"cebpf4jnsgd1na2vs0mg"},{"bike_id":"33efbe4e-e642-4271-be29-4926b421ca5b","system_id":"levelo_inurba_marseille","lat":43.241681,"lon":5.364001,"is_reserved":false,"is_disabled":false,"rental_uris":{"android":"levelo://app?vid=33efbe4e-e642-4271-be29-4926b421ca5b","ios":"levelo://app?vid=33efbe4e-e642-4271-be29-4926b421ca5b"},"vehicle_type_id":"4","last_reported":1744982336,"current_range_meters":14400,"station_id":"cpo36qri1sfpv3e86is0","pricing_plan_id":"cebpf4jnsgd1na2vs0mg"},{"bike_id":"e4e3b38d-6a05-4651-9b02-52c7201e11e2","system_id":"levelo_inurba_marseille","lat":43.27377,"lon":5.36247,"is_reserved":false,"is_disabled":false,"rental_uris":{"android":"levelo://app?vid=e4e3b38d-6a05-4651-9b02-52c7201e11e2","ios":"levelo://app?vid=e4e3b38d-6a05-4651-9b02-52c7201e11e2"},"vehicle_type_id":"4","last_reported":1744982336,"current_range_meters":14400,"station_id":"","pricing_plan_id":"cebpf4jnsgd1na2vs0mg"},{"bike_id":"e81d0e01-d93b-4029-afba-25d1b81a1851","system_id":"levelo_inurba_marseille","lat":43.23152,"lon":5.43715,"is_reserved":false,"is_disabled":false,"rental_uris":{"android":"levelo://app?vid=e81d0e01-d93b-4029-afba-25d1b81a1851","ios":"levelo://app?vid=e81d0e01-d93b-4029-afba-25d1b81a1851"},"vehicle_type_id":"4","last_reported":1744982336,"current_range_meters":14800,"station_id":"ce4bhmp2rcd13ifvqgog","pricing_plan_id":"cebpf4jnsgd1na2vs0mg"},{"bike_id":"36ab45f2-4fe6-46ca-be07-c254b02b64ef","system_id":"levelo_inurba_marseille","lat":43.28417,"lon":5.3499,"is_reserved":false,"is_disabled":false,"rental_uris":{"android":"levelo://app?vid=36ab45f2-4fe6-46ca-be07-c254b02b64ef","ios":"levelo://app?vid=36ab45f2-4fe6-46ca-be07-c254b02b64ef"},"vehicle_type_id":"4","last_reported":1744982336,"current_range_meters":14800,"station_id":"ce4bhbh2rcd13ifvqepg","pricing_plan_id":"cebpf4jnsgd1na2vs0mg"},{"bike_id":"168c3876-9335-43bf-bce2-0560f915aedf","system_id":"levelo_inurba_marseille","lat":43.2885,"lon":5.35843,"is_reserved":false,"is_disabled":false,"rental_uris":{"android":"levelo://app?vid=168c3876-9335-43bf-bce2-0560f915aedf","ios":"levelo://app?vid=168c3876-9335-43bf-bce2-0560f915aedf"},"vehicle_type_id":"4","last_reported":1744982336,"current_range_meters":14800,"station_id":"ce4bhb12rcd13ifvqem0","pricing_plan_id":"cebpf4jnsgd1na2vs0mg"},{"bike_id":"68342d9f-f0b6-47e7-b690-b27078e67a77","system_id":"levelo_inurba_marseille","lat":43.24177,"lon":5.36382,"is_reserved":false,"is_disabled":false,"rental_uris":{"android":"levelo://app?vid=68342d9f-f0b6-47e7-b690-b27078e67a77","ios":"levelo://app?vid=68342d9f-f0b6-47e7-b690-b27078e67a77"},"vehicle_type_id":"4","last_reported":1744982336,"current_range_meters":14800,"station_id":"cpo36qri1sfpv3e86is0","pricing_plan_id":"cebpf4jnsgd1na2vs0mg"},{"bike_id":"7f985137-6007-436e-b51c-dc1eae85eba1","system_id":"levelo_inurba_marseille","lat":43.28718,"lon":5.37948,"is_reserved":false,"is_disabled":false,"rental_uris":{"android":"levelo://app?vid=7f985137-6007-436e-b51c-dc1eae85eba1","ios":"levelo://app?vid=7f985137-6007-436e-b51c-dc1eae85eba1"},"vehicle_type_id":"4","last_reported":1744982336,"current_range_meters":14800,"station_id":"ce4bh9p2rcd13ifvqec0","pricing_plan_id":"cebpf4jnsgd1na2vs0mg"},{"bike_id":"32114de9-c526-480f-98c0-6ffe2345af1c","system_id":"levelo_inurba_marseille","lat":43.29005,"lon":5.35606,"is_reserved":false,"is_disabled":false,"rental_uris":{"android":"levelo://app?vid=32114de9-c526-480f-98c0-6ffe2345af1c","ios":"levelo://app?vid=32114de9-c526-480f-98c0-6ffe2345af1c"},"vehicle_type_id":"4","last_reported":1744982336,"current_range_meters":14800,"station_id":"ce4bhb92rcd13ifvqen0","pricing_plan_id":"cebpf4jnsgd1na2vs0mg"},{"bike_id":"7eb8853e-3665-40f5-8308-1299f0674652","system_id":"levelo_inurba_marseille","lat":43.30373,"lon":5.42492,"is_reserved":false,"is_disabled":false,"rental_uris":{"android":"levelo://app?vid=7eb8853e-3665-40f5-8308-1299f0674652","ios":"levelo://app?vid=7eb8853e-3665-40f5-8308-1299f0674652"},"vehicle_type_id":"4","last_reported":1744982336,"current_range_meters":14800,"station_id":"ce4bhoh2rcd13ifvqh6g","pricing_plan_id":"cebpf4jnsgd1na2vs0mg"},{"bike_id":"bc055e00-b918-4eab-a71c-78be20e394cf","system_id":"levelo_inurba_marseille","lat":43.28082,"lon":5.39661,"is_reserved":false,"is_disabled":false,"rental_uris":{"android":"levelo://app?vid=bc055e00-b918-4eab-a71c-78be20e394cf","ios":"levelo://app?vid=bc055e00-b918-4eab-a71c-78be20e394cf"},"vehicle_type_id":"4","last_reported":1744982336,"current_range_meters":14800,"station_id":"ce4bho12rcd13ifvqh2g","pricing_plan_id":"cebpf4jnsgd1na2vs0mg"},{"bike_id":"f9d3fbe6-73e5-424e-af02-f446d5b07152","system_id":"levelo_inurba_marseille","lat":43.21751,"lon":5.34593,"is_reserved":false,"is_disabled":false,"rental_uris":{"android":"levelo://app?vid=f9d3fbe6-73e5-424e-af02-f446d5b07152","ios":"levelo://app?vid=f9d3fbe6-73e5-424e-af02-f446d5b07152"},"vehicle_type_id":"4","last_reported":1744982336,"current_range_meters":14800,"station_id":"st_cvj6r9ubvosntc0bgbag","pricing_plan_id":"cebpf4jnsgd1na2vs0mg"},{"bike_id":"4e8b253b-decb-4b63-9c28-1277f13435db","system_id":"levelo_inurba_marseille","lat":43.28459,"lon":5.35879,"is_reserved":false,"is_disabled":false,"rental_uris":{"android":"levelo://app?vid=4e8b253b-decb-4b63-9c28-1277f13435db","ios":"levelo://app?vid=4e8b253b-decb-4b63-9c28-1277f13435db"},"vehicle_type_id":"4","last_reported":1744982336,"current_range_meters":15200,"station_id":"ce4bhah2rcd13ifvqei0","pricing_plan_id":"cebpf4jnsgd1na2vs0mg"},{"bike_id":"a2562a3b-5bd0-479e-8a28-7f395f57bf2e","system_id":"levelo_inurba_marseille","lat":43.31724,"lon":5.42393,"is_reserved":false,"is_disabled":false,"rental_uris":{"android":"levelo://app?vid=a2562a3b-5bd0-479e-8a28-7f395f57bf2e","ios":"levelo://app?vid=a2562a3b-5bd0-479e-8a28-7f395f57bf2e"},"vehicle_type_id":"4","last_reported":1744982336,"current_range_meters":15200,"station_id":"ce4bhp92rcd13ifvqhbg","pricing_plan_id":"cebpf4jnsgd1na2vs0mg"},{"bike_id":"110c4abb-ffb8-4fd0-ba35-0e68e73379e5","system_id":"levelo_inurba_marseille","lat":43.22936,"lon":5.35372,"is_reserved":false,"is_disabled":false,"rental_uris":{"android":"levelo://app?vid=110c4abb-ffb8-4fd0-ba35-0e68e73379e5","ios":"levelo://app?vid=110c4abb-ffb8-4fd0-ba35-0e68e73379e5"},"vehicle_type_id":"4","last_reported":1744982336,"current_range_meters":15200,"station_id":"cpo3532slgdg3j2ikp40","pricing_plan_id":"cebpf4jnsgd1na2vs0mg"},{"bike_id":"be09bd14-33f4-4a56-b848-6c34e19dbf40","system_id":"levelo_inurba_marseille","lat":43.24387,"lon":5.37062,"is_reserved":false,"is_disabled":false,"rental_uris":{"android":"levelo://app?vid=be09bd14-33f4-4a56-b848-6c34e19dbf40","ios":"levelo://app?vid=be09bd14-33f4-4a56-b848-6c34e19dbf40"},"vehicle_type_id":"4","last_reported":1744982336,"current_range_meters":15200,"station_id":"ce4bhhh2rcd13ifvqfk0","pricing_plan_id":"cebpf4jnsgd1na2vs0mg"},{"bike_id":"621a9d07-94b9-4b7b-b659-37a38e5c71b1","system_id":"levelo_inurba_marseille","lat":43.26491,"lon":5.39554,"is_reserved":false,"is_disabled":false,"rental_uris":{"android":"levelo://app?vid=621a9d07-94b9-4b7b-b659-37a38e5c71b1","ios":"levelo://app?vid=621a9d07-94b9-4b7b-b659-37a38e5c71b1"},"vehicle_type_id":"4","last_reported":1744982336,"current_range_meters":16000,"station_id":"ce4bhi12rcd13ifvqfq0","pricing_plan_id":"cebpf4jnsgd1na2vs0mg"},{"bike_id":"9776a6d4-37ff-4386-8e57-03ce88f11eb0","system_id":"levelo_inurba_marseille","lat":43.28266,"lon":5.35069,"is_reserved":false,"is_disabled":false,"rental_uris":{"android":"levelo://app?vid=9776a6d4-37ff-4386-8e57-03ce88f11eb0","ios":"levelo://app?vid=9776a6d4-37ff-4386-8e57-03ce88f11eb0"},"vehicle_type_id":"4","last_reported":1744982336,"current_range_meters":16000,"station_id":"ce4bhbp2rcd13ifvqerg","pricing_plan_id":"cebpf4jnsgd1na2vs0mg"},{"bike_id":"079180a4-17a3-46c3-80d9-fe5f8b091fda","system_id":"levelo_inurba_marseille","lat":43.24166,"lon":5.36391,"is_reserved":false,"is_disabled":false,"rental_uris":{"android":"levelo://app?vid=079180a4-17a3-46c3-80d9-fe5f8b091fda","ios":"levelo://app?vid=079180a4-17a3-46c3-80d9-fe5f8b091fda"},"vehicle_type_id":"4","last_reported":1744982336,"current_range_meters":16000,"station_id":"cpo36qri1sfpv3e86is0","pricing_plan_id":"cebpf4jnsgd1na2vs0mg"},{"bike_id":"8627d52f-439d-47ce-8081-b578a2c92496","system_id":"levelo_inurba_marseille","lat":43.28284,"lon":5.35076,"is_reserved":false,"is_disabled":false,"rental_uris":{"android":"levelo://app?vid=8627d52f-439d-47ce-8081-b578a2c92496","ios":"levelo://app?vid=8627d52f-439d-47ce-8081-b578a2c92496"},"vehicle_type_id":"4","last_reported":1744982336,"current_range_meters":16000,"station_id":"ce4bhbp2rcd13ifvqerg","pricing_plan_id":"cebpf4jnsgd1na2vs0mg"},{"bike_id":"51b95633-670a-4c09-bc14-2b0f1e6f6a22","system_id":"levelo_inurba_marseille","lat":43.288572,"lon":5.35847,"is_reserved":false,"is_disabled":false,"rental_uris":{"android":"levelo://app?vid=51b95633-670a-4c09-bc14-2b0f1e6f6a22","ios":"levelo://app?vid=51b95633-670a-4c09-bc14-2b0f1e6f6a22"},"vehicle_type_id":"4","last_reported":1744982336,"current_range_meters":16000,"station_id":"ce4bhb12rcd13ifvqem0","pricing_plan_id":"cebpf4jnsgd1na2vs0mg"},{"bike_id":"7271a266-f55c-4cab-9128-a29d7738e047","system_id":"levelo_inurba_marseille","lat":43.29442,"lon":5.39745,"is_reserved":false,"is_disabled":false,"rental_uris":{"android":"levelo://app?vid=7271a266-f55c-4cab-9128-a29d7738e047","ios":"levelo://app?vid=7271a266-f55c-4cab-9128-a29d7738e047"},"vehicle_type_id":"4","last_reported":1744982336,"current_range_meters":15200,"station_id":"ce4bh3h2rcd13ifvqdo0","pricing_plan_id":"cebpf4jnsgd1na2vs0mg"},{"bike_id":"a1183122-2c11-405c-8c55-e035bd8761a2","system_id":"levelo_inurba_marseille","lat":43.27384,"lon":5.36264,"is_reserved":false,"is_disabled":false,"rental_uris":{"android":"levelo://app?vid=a1183122-2c11-405c-8c55-e035bd8761a2","ios":"levelo://app?vid=a1183122-2c11-405c-8c55-e035bd8761a2"},"vehicle_type_id":"4","last_reported":1744982336,"current_range_meters":16000,"station_id":"ce4bhbh2rcd13ifvqeo0","pricing_plan_id":"cebpf4jnsgd1na2vs0mg"},{"bike_id":"c37b0b9c-e5c8-4ed3-adc1-75cbfffc481a","system_id":"levelo_inurba_marseille","lat":43.28613,"lon":5.35109,"is_reserved":false,"is_disabled":false,"rental_uris":{"android":"levelo://app?vid=c37b0b9c-e5c8-4ed3-adc1-75cbfffc481a","ios":"levelo://app?vid=c37b0b9c-e5c8-4ed3-adc1-75cbfffc481a"},"vehicle_type_id":"4","last_reported":1744982336,"current_range_meters":16000,"station_id":"ce4bhch2rcd13ifvqeug","pricing_plan_id":"cebpf4jnsgd1na2vs0mg"},{"bike_id":"782db3f8-bdab-4544-8575-27ef42251d0b","system_id":"levelo_inurba_marseille","lat":43.24168,"lon":5.363942,"is_reserved":false,"is_disabled":false,"rental_uris":{"android":"levelo://app?vid=782db3f8-bdab-4544-8575-27ef42251d0b","ios":"levelo://app?vid=782db3f8-bdab-4544-8575-27ef42251d0b"},"vehicle_type_id":"4","last_reported":1744982336,"current_range_meters":16000,"station_id":"cpo36qri1sfpv3e86is0","pricing_plan_id":"cebpf4jnsgd1na2vs0mg"},{"bike_id":"ccdb4e68-33f8-4e97-a274-d95e24776304","system_id":"levelo_inurba_marseille","lat":43.30546,"lon":5.36526,"is_reserved":false,"is_disabled":false,"rental_uris":{"android":"levelo://app?vid=ccdb4e68-33f8-4e97-a274-d95e24776304","ios":"levelo://app?vid=ccdb4e68-33f8-4e97-a274-d95e24776304"},"vehicle_type_id":"4","last_reported":1744982336,"current_range_meters":16000,"station_id":"ce4bgs12rcd13ifvqcag","pricing_plan_id":"cebpf4jnsgd1na2vs0mg"},{"bike_id":"95f47770-ac56-432a-bd84-47ac81cf6574","system_id":"levelo_inurba_marseille","lat":43.2987,"lon":5.39738,"is_reserved":false,"is_disabled":false,"rental_uris":{"android":"levelo://app?vid=95f47770-ac56-432a-bd84-47ac81cf6574","ios":"levelo://app?vid=95f47770-ac56-432a-bd84-47ac81cf6574"},"vehicle_type_id":"4","last_reported":1744982336,"current_range_meters":15200,"station_id":"ce4bh0h2rcd13ifvqd50","pricing_plan_id":"cebpf4jnsgd1na2vs0mg"},{"bike_id":"f11c1877-2531-4187-8a4e-82f9bf9c66d8","system_id":"levelo_inurba_marseille","lat":43.25,"lon":5.38916,"is_reserved":false,"is_disabled":false,"rental_uris":{"android":"levelo://app?vid=f11c1877-2531-4187-8a4e-82f9bf9c66d8","ios":"levelo://app?vid=f11c1877-2531-4187-8a4e-82f9bf9c66d8"},"vehicle_type_id":"4","last_reported":1744982336,"current_range_meters":16400,"station_id":"ce4bhgp2rcd13ifvqfd0","pricing_plan_id":"cebpf4jnsgd1na2vs0mg"},{"bike_id":"9f45b2bf-53d1-4e39-9a64-fb391bdbd395","system_id":"levelo_inurba_marseille","lat":43.33726,"lon":5.39176,"is_reserved":false,"is_disabled":false,"rental_uris":{"android":"levelo://app?vid=9f45b2bf-53d1-4e39-9a64-fb391bdbd395","ios":"levelo://app?vid=9f45b2bf-53d1-4e39-9a64-fb391bdbd395"},"vehicle_type_id":"4","last_reported":1744982336,"current_range_meters":16400,"station_id":"ce4bhr92rcd13ifvqhsg","pricing_plan_id":"cebpf4jnsgd1na2vs0mg"},{"bike_id":"789c3822-56ca-4769-bcd4-8845bdea2fda","system_id":"levelo_inurba_marseille","lat":43.24171,"lon":5.36387,"is_reserved":false,"is_disabled":false,"rental_uris":{"android":"levelo://app?vid=789c3822-56ca-4769-bcd4-8845bdea2fda","ios":"levelo://app?vid=789c3822-56ca-4769-bcd4-8845bdea2fda"},"vehicle_type_id":"4","last_reported":1744982336,"current_range_meters":16400,"station_id":"cpo36qri1sfpv3e86is0","pricing_plan_id":"cebpf4jnsgd1na2vs0mg"},{"bike_id":"a404f4f8-cd04-4314-86e5-5b2fba6934e0","system_id":"levelo_inurba_marseille","lat":43.289347,"lon":5.366389,"is_reserved":false,"is_disabled":false,"rental_uris":{"android":"levelo://app?vid=a404f4f8-cd04-4314-86e5-5b2fba6934e0","ios":"levelo://app?vid=a404f4f8-cd04-4314-86e5-5b2fba6934e0"},"vehicle_type_id":"4","last_reported":1744982336,"current_range_meters":16000,"station_id":"ce4bhap2rcd13ifvqek0","pricing_plan_id":"cebpf4jnsgd1na2vs0mg"},{"bike_id":"bc711c05-bdbf-436a-8787-7f896f5e5f87","system_id":"levelo_inurba_marseille","lat":43.31371,"lon":5.36674,"is_reserved":false,"is_disabled":false,"rental_uris":{"android":"levelo://app?vid=bc711c05-bdbf-436a-8787-7f896f5e5f87","ios":"levelo://app?vid=bc711c05-bdbf-436a-8787-7f896f5e5f87"},"vehicle_type_id":"4","last_reported":1744982336,"current_range_meters":16000,"station_id":"ce4bgr92rcd13ifvqc6g","pricing_plan_id":"cebpf4jnsgd1na2vs0mg"},{"bike_id":"d1b20516-9afa-49cd-a5ca-7e9cb704eab0","system_id":"levelo_inurba_marseille","lat":43.28268,"lon":5.35062,"is_reserved":false,"is_disabled":false,"rental_uris":{"android":"levelo://app?vid=d1b20516-9afa-49cd-a5ca-7e9cb704eab0","ios":"levelo://app?vid=d1b20516-9afa-49cd-a5ca-7e9cb704eab0"},"vehicle_type_id":"4","last_reported":1744982336,"current_range_meters":16400,"station_id":"ce4bhbp2rcd13ifvqerg","pricing_plan_id":"cebpf4jnsgd1na2vs0mg"},{"bike_id":"b3db7714-dbf3-4bc4-a6f1-64ff1086c08f","system_id":"levelo_inurba_marseille","lat":43.21734,"lon":5.34609,"is_reserved":false,"is_disabled":false,"rental_uris":{"android":"levelo://app?vid=b3db7714-dbf3-4bc4-a6f1-64ff1086c08f","ios":"levelo://app?vid=b3db7714-dbf3-4bc4-a6f1-64ff1086c08f"},"vehicle_type_id":"4","last_reported":1744982336,"current_range_meters":16400,"station_id":"st_cvj6r9ubvosntc0bgbag","pricing_plan_id":"cebpf4jnsgd1na2vs0mg"},{"bike_id":"210d3669-e710-4cfb-bac4-2059f4fa7eea","system_id":"levelo_inurba_marseille","lat":43.30785,"lon":5.39621,"is_reserved":false,"is_disabled":false,"rental_uris":{"android":"levelo://app?vid=210d3669-e710-4cfb-bac4-2059f4fa7eea","ios":"levelo://app?vid=210d3669-e710-4cfb-bac4-2059f4fa7eea"},"vehicle_type_id":"4","last_reported":1744982336,"current_range_meters":16800,"station_id":"ce4bh2h2rcd13ifvqdh0","pricing_plan_id":"cebpf4jnsgd1na2vs0mg"},{"bike_id":"8bffca6c-7751-4f66-ab59-ab6c8e60b419","system_id":"levelo_inurba_marseille","lat":43.21198,"lon":5.35075,"is_reserved":false,"is_disabled":false,"rental_uris":{"android":"levelo://app?vid=8bffca6c-7751-4f66-ab59-ab6c8e60b419","ios":"levelo://app?vid=8bffca6c-7751-4f66-ab59-ab6c8e60b419"},"vehicle_type_id":"4","last_reported":1744982336,"current_range_meters":16800,"station_id":"st_cvj6sg6p6f1abm77japg","pricing_plan_id":"cebpf4jnsgd1na2vs0mg"},{"bike_id":"73d349a3-8a77-4d4a-b28b-f340f5d4413e","system_id":"levelo_inurba_marseille","lat":43.33724,"lon":5.39176,"is_reserved":false,"is_disabled":false,"rental_uris":{"android":"levelo://app?vid=73d349a3-8a77-4d4a-b28b-f340f5d4413e","ios":"levelo://app?vid=73d349a3-8a77-4d4a-b28b-f340f5d4413e"},"vehicle_type_id":"4","last_reported":1744982336,"current_range_meters":16800,"station_id":"ce4bhr92rcd13ifvqhsg","pricing_plan_id":"cebpf4jnsgd1na2vs0mg"},{"bike_id":"513dd5db-c825-4fd9-955c-abfc3bdd0253","system_id":"levelo_inurba_marseille","lat":43.304185,"lon":5.412822,"is_reserved":false,"is_disabled":false,"rental_uris":{"android":"levelo://app?vid=513dd5db-c825-4fd9-955c-abfc3bdd0253","ios":"levelo://app?vid=513dd5db-c825-4fd9-955c-abfc3bdd0253"},"vehicle_type_id":"4","last_reported":1744982336,"current_range_meters":16800,"station_id":"ce4bh392rcd13ifvqdl0","pricing_plan_id":"cebpf4jnsgd1na2vs0mg"},{"bike_id":"97f7f97b-4342-42db-b794-2cd4af07a7f5","system_id":"levelo_inurba_marseille","lat":43.29706,"lon":5.37701,"is_reserved":false,"is_disabled":false,"rental_uris":{"android":"levelo://app?vid=97f7f97b-4342-42db-b794-2cd4af07a7f5","ios":"levelo://app?vid=97f7f97b-4342-42db-b794-2cd4af07a7f5"},"vehicle_type_id":"4","last_reported":1744982336,"current_range_meters":16800,"station_id":"ce4bgkh2rcd13ifvqbl0","pricing_plan_id":"cebpf4jnsgd1na2vs0mg"},{"bike_id":"82ccb6ba-b577-4bf4-8cbe-8aa14bb95c87","system_id":"levelo_inurba_marseille","lat":43.27367,"lon":5.36239,"is_reserved":false,"is_disabled":false,"rental_uris":{"android":"levelo://app?vid=82ccb6ba-b577-4bf4-8cbe-8aa14bb95c87","ios":"levelo://app?vid=82ccb6ba-b577-4bf4-8cbe-8aa14bb95c87"},"vehicle_type_id":"4","last_reported":1744982336,"current_range_meters":16800,"station_id":"ce4bhbh2rcd13ifvqeo0","pricing_plan_id":"cebpf4jnsgd1na2vs0mg"},{"bike_id":"f1d513e7-93f2-472b-b840-4c42490aad95","system_id":"levelo_inurba_marseille","lat":43.24164,"lon":5.36401,"is_reserved":false,"is_disabled":false,"rental_uris":{"android":"levelo://app?vid=f1d513e7-93f2-472b-b840-4c42490aad95","ios":"levelo://app?vid=f1d513e7-93f2-472b-b840-4c42490aad95"},"vehicle_type_id":"4","last_reported":1744982336,"current_range_meters":16800,"station_id":"cpo36qri1sfpv3e86is0","pricing_plan_id":"cebpf4jnsgd1na2vs0mg"},{"bike_id":"186380b9-3dab-457b-b648-71d123fa0368","system_id":"levelo_inurba_marseille","lat":43.25111,"lon":5.40319,"is_reserved":false,"is_disabled":true,"rental_uris":{"android":"levelo://app?vid=186380b9-3dab-457b-b648-71d123fa0368","ios":"levelo://app?vid=186380b9-3dab-457b-b648-71d123fa0368"},"vehicle_type_id":"4","last_reported":1744982336,"current_range_meters":16800,"station_id":"ce4bhlh2rcd13ifvqgig","pricing_plan_id":"cebpf4jnsgd1na2vs0mg"},{"bike_id":"132ff306-e92b-4b03-aa73-a77f243accbe","system_id":"levelo_inurba_marseille","lat":43.290075,"lon":5.356151,"is_reserved":false,"is_disabled":false,"rental_uris":{"android":"levelo://app?vid=132ff306-e92b-4b03-aa73-a77f243accbe","ios":"levelo://app?vid=132ff306-e92b-4b03-aa73-a77f243accbe"},"vehicle_type_id":"4","last_reported":1744982336,"current_range_meters":16800,"station_id":"ce4bhb92rcd13ifvqen0","pricing_plan_id":"cebpf4jnsgd1na2vs0mg"},{"bike_id":"738e5624-557c-427e-ba1e-49a888b447e3","system_id":"levelo_inurba_marseille","lat":43.28272,"lon":5.3508,"is_reserved":false,"is_disabled":false,"rental_uris":{"android":"levelo://app?vid=738e5624-557c-427e-ba1e-49a888b447e3","ios":"levelo://app?vid=738e5624-557c-427e-ba1e-49a888b447e3"},"vehicle_type_id":"4","last_reported":1744982336,"current_range_meters":16800,"station_id":"ce4bhbp2rcd13ifvqerg","pricing_plan_id":"cebpf4jnsgd1na2vs0mg"},{"bike_id":"1c6b405e-a6e9-4388-9a5d-d49acd0edafe","system_id":"levelo_inurba_marseille","lat":43.28617,"lon":5.351017,"is_reserved":false,"is_disabled":false,"rental_uris":{"android":"levelo://app?vid=1c6b405e-a6e9-4388-9a5d-d49acd0edafe","ios":"levelo://app?vid=1c6b405e-a6e9-4388-9a5d-d49acd0edafe"},"vehicle_type_id":"4","last_reported":1744982336,"current_range_meters":16800,"station_id":"ce4bhch2rcd13ifvqeug","pricing_plan_id":"cebpf4jnsgd1na2vs0mg"},{"bike_id":"3f8d35cb-e5b3-46bd-8521-6e1f2005085d","system_id":"levelo_inurba_marseille","lat":43.28259,"lon":5.35073,"is_reserved":false,"is_disabled":false,"rental_uris":{"android":"levelo://app?vid=3f8d35cb-e5b3-46bd-8521-6e1f2005085d","ios":"levelo://app?vid=3f8d35cb-e5b3-46bd-8521-6e1f2005085d"},"vehicle_type_id":"4","last_reported":1744982336,"current_range_meters":17200,"station_id":"ce4bhbp2rcd13ifvqerg","pricing_plan_id":"cebpf4jnsgd1na2vs0mg"},{"bike_id":"91aa591a-3e56-4092-a295-ecb6aebe69eb","system_id":"levelo_inurba_marseille","lat":43.22498,"lon":5.34799,"is_reserved":false,"is_disabled":false,"rental_uris":{"android":"levelo://app?vid=91aa591a-3e56-4092-a295-ecb6aebe69eb","ios":"levelo://app?vid=91aa591a-3e56-4092-a295-ecb6aebe69eb"},"vehicle_type_id":"4","last_reported":1744982336,"current_range_meters":17200,"station_id":"st_cvj5dfep6f1abm77gieg","pricing_plan_id":"cebpf4jnsgd1na2vs0mg"},{"bike_id":"3b4b2fa0-18dd-4f1b-a170-9839751538d5","system_id":"levelo_inurba_marseille","lat":43.27378,"lon":5.36245,"is_reserved":false,"is_disabled":false,"rental_uris":{"android":"levelo://app?vid=3b4b2fa0-18dd-4f1b-a170-9839751538d5","ios":"levelo://app?vid=3b4b2fa0-18dd-4f1b-a170-9839751538d5"},"vehicle_type_id":"4","last_reported":1744982336,"current_range_meters":17200,"station_id":"ce4bhbh2rcd13ifvqeo0","pricing_plan_id":"cebpf4jnsgd1na2vs0mg"},{"bike_id":"f9481180-59ce-4a3e-a150-d1d156522483","system_id":"levelo_inurba_marseille","lat":43.28411,"lon":5.34996,"is_reserved":false,"is_disabled":false,"rental_uris":{"android":"levelo://app?vid=f9481180-59ce-4a3e-a150-d1d156522483","ios":"levelo://app?vid=f9481180-59ce-4a3e-a150-d1d156522483"},"vehicle_type_id":"4","last_reported":1744982336,"current_range_meters":17200,"station_id":"ce4bhbh2rcd13ifvqepg","pricing_plan_id":"cebpf4jnsgd1na2vs0mg"},{"bike_id":"00180857-beb7-4386-8dbc-c6d7377a56a8","system_id":"levelo_inurba_marseille","lat":43.27376,"lon":5.36251,"is_reserved":false,"is_disabled":false,"rental_uris":{"android":"levelo://app?vid=00180857-beb7-4386-8dbc-c6d7377a56a8","ios":"levelo://app?vid=00180857-beb7-4386-8dbc-c6d7377a56a8"},"vehicle_type_id":"4","last_reported":1744982336,"current_range_meters":17200,"station_id":"ce4bhbh2rcd13ifvqeo0","pricing_plan_id":"cebpf4jnsgd1na2vs0mg"},{"bike_id":"beae55ab-1a39-49d3-9e51-9498979f641f","system_id":"levelo_inurba_marseille","lat":43.29914,"lon":5.36492,"is_reserved":false,"is_disabled":false,"rental_uris":{"android":"levelo://app?vid=beae55ab-1a39-49d3-9e51-9498979f641f","ios":"levelo://app?vid=beae55ab-1a39-49d3-9e51-9498979f641f"},"vehicle_type_id":"4","last_reported":1744982336,"current_range_meters":17200,"station_id":"ce4bgm92rcd13ifvqbr0","pricing_plan_id":"cebpf4jnsgd1na2vs0mg"},{"bike_id":"9eb6738d-486c-4d0a-88f4-70b8d81983d1","system_id":"levelo_inurba_marseille","lat":43.21742,"lon":5.34599,"is_reserved":false,"is_disabled":false,"rental_uris":{"android":"levelo://app?vid=9eb6738d-486c-4d0a-88f4-70b8d81983d1","ios":"levelo://app?vid=9eb6738d-486c-4d0a-88f4-70b8d81983d1"},"vehicle_type_id":"4","last_reported":1744982336,"current_range_meters":17200,"station_id":"st_cvj6r9ubvosntc0bgbag","pricing_plan_id":"cebpf4jnsgd1na2vs0mg"},{"bike_id":"0513d50a-d6e4-4093-a8cf-4d32d2c45b4c","system_id":"levelo_inurba_marseille","lat":43.32482,"lon":5.36569,"is_reserved":false,"is_disabled":false,"rental_uris":{"android":"levelo://app?vid=0513d50a-d6e4-4093-a8cf-4d32d2c45b4c","ios":"levelo://app?vid=0513d50a-d6e4-4093-a8cf-4d32d2c45b4c"},"vehicle_type_id":"4","last_reported":1744982336,"current_range_meters":17200,"station_id":"ce4bhs12rcd13ifvqhvg","pricing_plan_id":"cebpf4jnsgd1na2vs0mg"},{"bike_id":"23cc3c21-39d5-401a-998d-6365ef24751a","system_id":"levelo_inurba_marseille","lat":43.22937,"lon":5.35382,"is_reserved":false,"is_disabled":false,"rental_uris":{"android":"levelo://app?vid=23cc3c21-39d5-401a-998d-6365ef24751a","ios":"levelo://app?vid=23cc3c21-39d5-401a-998d-6365ef24751a"},"vehicle_type_id":"4","last_reported":1744982336,"current_range_meters":17200,"station_id":"cpo3532slgdg3j2ikp40","pricing_plan_id":"cebpf4jnsgd1na2vs0mg"},{"bike_id":"2e8c9149-ad79-49f9-910c-c050240cb746","system_id":"levelo_inurba_marseille","lat":43.28269,"lon":5.35062,"is_reserved":false,"is_disabled":false,"rental_uris":{"android":"levelo://app?vid=2e8c9149-ad79-49f9-910c-c050240cb746","ios":"levelo://app?vid=2e8c9149-ad79-49f9-910c-c050240cb746"},"vehicle_type_id":"4","last_reported":1744982336,"current_range_meters":17600,"station_id":"ce4bhbp2rcd13ifvqerg","pricing_plan_id":"cebpf4jnsgd1na2vs0mg"},{"bike_id":"addbbe39-aa0d-4899-ac26-a436a72f2d32","system_id":"levelo_inurba_marseille","lat":43.21753,"lon":5.34614,"is_reserved":false,"is_disabled":false,"rental_uris":{"android":"levelo://app?vid=addbbe39-aa0d-4899-ac26-a436a72f2d32","ios":"levelo://app?vid=addbbe39-aa0d-4899-ac26-a436a72f2d32"},"vehicle_type_id":"4","last_reported":1744982336,"current_range_meters":17600,"station_id":"st_cvj6r9ubvosntc0bgbag","pricing_plan_id":"cebpf4jnsgd1na2vs0mg"},{"bike_id":"aea2afb6-112e-4c3a-968a-5eb5aa77e9be","system_id":"levelo_inurba_marseille","lat":43.21184,"lon":5.35075,"is_reserved":false,"is_disabled":false,"rental_uris":{"android":"levelo://app?vid=aea2afb6-112e-4c3a-968a-5eb5aa77e9be","ios":"levelo://app?vid=aea2afb6-112e-4c3a-968a-5eb5aa77e9be"},"vehicle_type_id":"4","last_reported":1744982336,"current_range_meters":17600,"station_id":"st_cvj6sg6p6f1abm77japg","pricing_plan_id":"cebpf4jnsgd1na2vs0mg"},{"bike_id":"67c0b0cd-f131-4d5d-9d0e-d63372739479","system_id":"levelo_inurba_marseille","lat":43.24383,"lon":5.37049,"is_reserved":false,"is_disabled":false,"rental_uris":{"android":"levelo://app?vid=67c0b0cd-f131-4d5d-9d0e-d63372739479","ios":"levelo://app?vid=67c0b0cd-f131-4d5d-9d0e-d63372739479"},"vehicle_type_id":"4","last_reported":1744982336,"current_range_meters":17600,"station_id":"ce4bhhh2rcd13ifvqfk0","pricing_plan_id":"cebpf4jnsgd1na2vs0mg"},{"bike_id":"dd3319fe-b213-45b2-ae85-5bddcffadd92","system_id":"levelo_inurba_marseille","lat":43.30649,"lon":5.40078,"is_reserved":false,"is_disabled":false,"rental_uris":{"android":"levelo://app?vid=dd3319fe-b213-45b2-ae85-5bddcffadd92","ios":"levelo://app?vid=dd3319fe-b213-45b2-ae85-5bddcffadd92"},"vehicle_type_id":"4","last_reported":1744982336,"current_range_meters":17600,"station_id":"ce4bh112rcd13ifvqda0","pricing_plan_id":"cebpf4jnsgd1na2vs0mg"},{"bike_id":"82a001e1-327f-4a58-b355-bcf2e1a86bf6","system_id":"levelo_inurba_marseille","lat":43.30933,"lon":5.36699,"is_reserved":false,"is_disabled":false,"rental_uris":{"android":"levelo://app?vid=82a001e1-327f-4a58-b355-bcf2e1a86bf6","ios":"levelo://app?vid=82a001e1-327f-4a58-b355-bcf2e1a86bf6"},"vehicle_type_id":"4","last_reported":1744982336,"current_range_meters":17600,"station_id":"","pricing_plan_id":"cebpf4jnsgd1na2vs0mg"},{"bike_id":"6ecca453-4cca-466c-a5d3-b873c7cb9b9a","system_id":"levelo_inurba_marseille","lat":43.26566,"lon":5.37289,"is_reserved":false,"is_disabled":false,"rental_uris":{"android":"levelo://app?vid=6ecca453-4cca-466c-a5d3-b873c7cb9b9a","ios":"levelo://app?vid=6ecca453-4cca-466c-a5d3-b873c7cb9b9a"},"vehicle_type_id":"4","last_reported":1744982336,"current_range_meters":17600,"station_id":"ce4bhg12rcd13ifvqf70","pricing_plan_id":"cebpf4jnsgd1na2vs0mg"},{"bike_id":"96357127-b0ad-4277-b3db-0e4fcfc969aa","system_id":"levelo_inurba_marseille","lat":43.24386,"lon":5.37058,"is_reserved":false,"is_disabled":false,"rental_uris":{"android":"levelo://app?vid=96357127-b0ad-4277-b3db-0e4fcfc969aa","ios":"levelo://app?vid=96357127-b0ad-4277-b3db-0e4fcfc969aa"},"vehicle_type_id":"4","last_reported":1744982336,"current_range_meters":17600,"station_id":"ce4bhhh2rcd13ifvqfk0","pricing_plan_id":"cebpf4jnsgd1na2vs0mg"},{"bike_id":"5a006567-376a-4b87-a5f2-673369123e53","system_id":"levelo_inurba_marseille","lat":43.29004,"lon":5.35613,"is_reserved":false,"is_disabled":false,"rental_uris":{"android":"levelo://app?vid=5a006567-376a-4b87-a5f2-673369123e53","ios":"levelo://app?vid=5a006567-376a-4b87-a5f2-673369123e53"},"vehicle_type_id":"4","last_reported":1744982336,"current_range_meters":17600,"station_id":"ce4bhb92rcd13ifvqen0","pricing_plan_id":"cebpf4jnsgd1na2vs0mg"},{"bike_id":"846231f6-6953-4ff8-b8a5-3a085f1dbb55","system_id":"levelo_inurba_marseille","lat":43.29911,"lon":5.43668,"is_reserved":false,"is_disabled":false,"rental_uris":{"android":"levelo://app?vid=846231f6-6953-4ff8-b8a5-3a085f1dbb55","ios":"levelo://app?vid=846231f6-6953-4ff8-b8a5-3a085f1dbb55"},"vehicle_type_id":"4","last_reported":1744982336,"current_range_meters":17600,"station_id":"ce4bhpp2rcd13ifvqhfg","pricing_plan_id":"cebpf4jnsgd1na2vs0mg"},{"bike_id":"45d3a127-db90-42a8-ae04-34a544c52a79","system_id":"levelo_inurba_marseille","lat":43.21743,"lon":5.34594,"is_reserved":false,"is_disabled":false,"rental_uris":{"android":"levelo://app?vid=45d3a127-db90-42a8-ae04-34a544c52a79","ios":"levelo://app?vid=45d3a127-db90-42a8-ae04-34a544c52a79"},"vehicle_type_id":"4","last_reported":1744982336,"current_range_meters":17600,"station_id":"st_cvj6r9ubvosntc0bgbag","pricing_plan_id":"cebpf4jnsgd1na2vs0mg"},{"bike_id":"bb9cc5b6-0c7a-4871-8383-15ba04455dec","system_id":"levelo_inurba_marseille","lat":43.29899,"lon":5.43658,"is_reserved":false,"is_disabled":false,"rental_uris":{"android":"levelo://app?vid=bb9cc5b6-0c7a-4871-8383-15ba04455dec","ios":"levelo://app?vid=bb9cc5b6-0c7a-4871-8383-15ba04455dec"},"vehicle_type_id":"4","last_reported":1744982336,"current_range_meters":18000,"station_id":"ce4bhpp2rcd13ifvqhfg","pricing_plan_id":"cebpf4jnsgd1na2vs0mg"},{"bike_id":"8e3a627a-3446-48ab-b116-d405a8a4f38e","system_id":"levelo_inurba_marseille","lat":43.28416,"lon":5.34984,"is_reserved":false,"is_disabled":false,"rental_uris":{"android":"levelo://app?vid=8e3a627a-3446-48ab-b116-d405a8a4f38e","ios":"levelo://app?vid=8e3a627a-3446-48ab-b116-d405a8a4f38e"},"vehicle_type_id":"4","last_reported":1744982336,"current_range_meters":18000,"station_id":"ce4bhbh2rcd13ifvqepg","pricing_plan_id":"cebpf4jnsgd1na2vs0mg"},{"bike_id":"41b12d2c-478b-4c00-b3fe-3ef6ef9c6a05","system_id":"levelo_inurba_marseille","lat":43.27372,"lon":5.36258,"is_reserved":false,"is_disabled":false,"rental_uris":{"android":"levelo://app?vid=41b12d2c-478b-4c00-b3fe-3ef6ef9c6a05","ios":"levelo://app?vid=41b12d2c-478b-4c00-b3fe-3ef6ef9c6a05"},"vehicle_type_id":"4","last_reported":1744982336,"current_range_meters":18000,"station_id":"ce4bhbh2rcd13ifvqeo0","pricing_plan_id":"cebpf4jnsgd1na2vs0mg"},{"bike_id":"2d07e26f-68c0-4c7e-8d52-31fa4ba7d21e","system_id":"levelo_inurba_marseille","lat":43.275653,"lon":5.384209,"is_reserved":false,"is_disabled":false,"rental_uris":{"android":"levelo://app?vid=2d07e26f-68c0-4c7e-8d52-31fa4ba7d21e","ios":"levelo://app?vid=2d07e26f-68c0-4c7e-8d52-31fa4ba7d21e"},"vehicle_type_id":"4","last_reported":1744982336,"current_range_meters":17600,"station_id":"ce4bhh92rcd13ifvqfi0","pricing_plan_id":"cebpf4jnsgd1na2vs0mg"},{"bike_id":"5c87a66e-a468-4c06-bf6a-016059f2b476","system_id":"levelo_inurba_marseille","lat":43.22927,"lon":5.35378,"is_reserved":false,"is_disabled":false,"rental_uris":{"android":"levelo://app?vid=5c87a66e-a468-4c06-bf6a-016059f2b476","ios":"levelo://app?vid=5c87a66e-a468-4c06-bf6a-016059f2b476"},"vehicle_type_id":"4","last_reported":1744982336,"current_range_meters":18000,"station_id":"cpo3532slgdg3j2ikp40","pricing_plan_id":"cebpf4jnsgd1na2vs0mg"},{"bike_id":"56245833-1889-47c8-b335-2694c7bb296d","system_id":"levelo_inurba_marseille","lat":43.26229,"lon":5.40454,"is_reserved":false,"is_disabled":false,"rental_uris":{"android":"levelo://app?vid=56245833-1889-47c8-b335-2694c7bb296d","ios":"levelo://app?vid=56245833-1889-47c8-b335-2694c7bb296d"},"vehicle_type_id":"4","last_reported":1744982336,"current_range_meters":18000,"station_id":"ce4bhmh2rcd13ifvqgmg","pricing_plan_id":"cebpf4jnsgd1na2vs0mg"},{"bike_id":"cff98f10-8900-43c2-afc7-a576c1aaace6","system_id":"levelo_inurba_marseille","lat":43.26556,"lon":5.37281,"is_reserved":false,"is_disabled":false,"rental_uris":{"android":"levelo://app?vid=cff98f10-8900-43c2-afc7-a576c1aaace6","ios":"levelo://app?vid=cff98f10-8900-43c2-afc7-a576c1aaace6"},"vehicle_type_id":"4","last_reported":1744982336,"current_range_meters":18000,"station_id":"ce4bhg12rcd13ifvqf70","pricing_plan_id":"cebpf4jnsgd1na2vs0mg"},{"bike_id":"47ac335a-36e2-49e7-abe4-1428c8083e35","system_id":"levelo_inurba_marseille","lat":43.22919,"lon":5.35384,"is_reserved":false,"is_disabled":false,"rental_uris":{"android":"levelo://app?vid=47ac335a-36e2-49e7-abe4-1428c8083e35","ios":"levelo://app?vid=47ac335a-36e2-49e7-abe4-1428c8083e35"},"vehicle_type_id":"4","last_reported":1744982336,"current_range_meters":18000,"station_id":"cpo3532slgdg3j2ikp40","pricing_plan_id":"cebpf4jnsgd1na2vs0mg"},{"bike_id":"e8c35f53-33e9-4cc6-90e3-4f5913565f51","system_id":"levelo_inurba_marseille","lat":43.23139,"lon":5.43756,"is_reserved":false,"is_disabled":false,"rental_uris":{"android":"levelo://app?vid=e8c35f53-33e9-4cc6-90e3-4f5913565f51","ios":"levelo://app?vid=e8c35f53-33e9-4cc6-90e3-4f5913565f51"},"vehicle_type_id":"4","last_reported":1744982336,"current_range_meters":18800,"station_id":"","pricing_plan_id":"cebpf4jnsgd1na2vs0mg"},{"bike_id":"d05b7cc4-f88b-4d02-ae6c-c344f22c0e5c","system_id":"levelo_inurba_marseille","lat":43.29778,"lon":5.36522,"is_reserved":false,"is_disabled":false,"rental_uris":{"android":"levelo://app?vid=d05b7cc4-f88b-4d02-ae6c-c344f22c0e5c","ios":"levelo://app?vid=d05b7cc4-f88b-4d02-ae6c-c344f22c0e5c"},"vehicle_type_id":"4","last_reported":1744982336,"current_range_meters":18800,"station_id":"","pricing_plan_id":"cebpf4jnsgd1na2vs0mg"},{"bike_id":"4648ad19-5d58-4ce4-8696-d79d0bf833f5","system_id":"levelo_inurba_marseille","lat":43.27377,"lon":5.36256,"is_reserved":false,"is_disabled":false,"rental_uris":{"android":"levelo://app?vid=4648ad19-5d58-4ce4-8696-d79d0bf833f5","ios":"levelo://app?vid=4648ad19-5d58-4ce4-8696-d79d0bf833f5"},"vehicle_type_id":"4","last_reported":1744982336,"current_range_meters":18800,"station_id":"ce4bhbh2rcd13ifvqeo0","pricing_plan_id":"cebpf4jnsgd1na2vs0mg"},{"bike_id":"343406d9-08d9-46fe-b35a-6f875b542c07","system_id":"levelo_inurba_marseille","lat":43.2305,"lon":5.35492,"is_reserved":false,"is_disabled":true,"rental_uris":{"android":"levelo://app?vid=343406d9-08d9-46fe-b35a-6f875b542c07","ios":"levelo://app?vid=343406d9-08d9-46fe-b35a-6f875b542c07"},"vehicle_type_id":"4","last_reported":1744982336,"current_range_meters":18800,"station_id":"cpo3342slgdg3j2ifvpg","pricing_plan_id":"cebpf4jnsgd1na2vs0mg"},{"bike_id":"24213b37-b766-4d9c-a174-f6bf34920497","system_id":"levelo_inurba_marseille","lat":43.28469,"lon":5.384178,"is_reserved":false,"is_disabled":false,"rental_uris":{"android":"levelo://app?vid=24213b37-b766-4d9c-a174-f6bf34920497","ios":"levelo://app?vid=24213b37-b766-4d9c-a174-f6bf34920497"},"vehicle_type_id":"4","last_reported":1744982336,"current_range_meters":18800,"station_id":"ce4bh512rcd13ifvqe3g","pricing_plan_id":"cebpf4jnsgd1na2vs0mg"},{"bike_id":"17de6571-3c1c-4621-995b-d445cb9c6f14","system_id":"levelo_inurba_marseille","lat":43.21189,"lon":5.35077,"is_reserved":false,"is_disabled":false,"rental_uris":{"android":"levelo://app?vid=17de6571-3c1c-4621-995b-d445cb9c6f14","ios":"levelo://app?vid=17de6571-3c1c-4621-995b-d445cb9c6f14"},"vehicle_type_id":"4","last_reported":1744982336,"current_range_meters":18800,"station_id":"st_cvj6sg6p6f1abm77japg","pricing_plan_id":"cebpf4jnsgd1na2vs0mg"},{"bike_id":"6ce2e515-c691-46e2-8c17-702e7f9ba4c7","system_id":"levelo_inurba_marseille","lat":43.27618,"lon":5.36109,"is_reserved":false,"is_disabled":false,"rental_uris":{"android":"levelo://app?vid=6ce2e515-c691-46e2-8c17-702e7f9ba4c7","ios":"levelo://app?vid=6ce2e515-c691-46e2-8c17-702e7f9ba4c7"},"vehicle_type_id":"4","last_reported":1744982336,"current_range_meters":18800,"station_id":"ce4bgj92rcd13ifvqbe0","pricing_plan_id":"cebpf4jnsgd1na2vs0mg"},{"bike_id":"0009d68c-300c-4d8e-adac-40771c97c774","system_id":"levelo_inurba_marseille","lat":43.24815,"lon":5.3745,"is_reserved":false,"is_disabled":false,"rental_uris":{"android":"levelo://app?vid=0009d68c-300c-4d8e-adac-40771c97c774","ios":"levelo://app?vid=0009d68c-300c-4d8e-adac-40771c97c774"},"vehicle_type_id":"4","last_reported":1744982336,"current_range_meters":18800,"station_id":"ce4bhgh2rcd13ifvqfb0","pricing_plan_id":"cebpf4jnsgd1na2vs0mg"},{"bike_id":"57e4bf49-afd3-40be-be28-f9c625a8dbad","system_id":"levelo_inurba_marseille","lat":43.273546,"lon":5.362418,"is_reserved":false,"is_disabled":true,"rental_uris":{"android":"levelo://app?vid=57e4bf49-afd3-40be-be28-f9c625a8dbad","ios":"levelo://app?vid=57e4bf49-afd3-40be-be28-f9c625a8dbad"},"vehicle_type_id":"4","last_reported":1744982336,"current_range_meters":19200,"station_id":"ce4bhbh2rcd13ifvqeo0","pricing_plan_id":"cebpf4jnsgd1na2vs0mg"},{"bike_id":"95843000-b16d-4522-bbcb-6a71b4f5d124","system_id":"levelo_inurba_marseille","lat":43.27374,"lon":5.36254,"is_reserved":false,"is_disabled":false,"rental_uris":{"android":"levelo://app?vid=95843000-b16d-4522-bbcb-6a71b4f5d124","ios":"levelo://app?vid=95843000-b16d-4522-bbcb-6a71b4f5d124"},"vehicle_type_id":"4","last_reported":1744982336,"current_range_meters":19200,"station_id":"ce4bhbh2rcd13ifvqeo0","pricing_plan_id":"cebpf4jnsgd1na2vs0mg"},{"bike_id":"88496e6b-cfa4-4ddc-b645-3bcc8f22447e","system_id":"levelo_inurba_marseille","lat":43.30533,"lon":5.36546,"is_reserved":false,"is_disabled":false,"rental_uris":{"android":"levelo://app?vid=88496e6b-cfa4-4ddc-b645-3bcc8f22447e","ios":"levelo://app?vid=88496e6b-cfa4-4ddc-b645-3bcc8f22447e"},"vehicle_type_id":"4","last_reported":1744982336,"current_range_meters":18800,"station_id":"ce4bgs12rcd13ifvqcag","pricing_plan_id":"cebpf4jnsgd1na2vs0mg"},{"bike_id":"78558f54-6a69-4897-89aa-fb2354a7c673","system_id":"levelo_inurba_marseille","lat":43.21749,"lon":5.34613,"is_reserved":false,"is_disabled":true,"rental_uris":{"android":"levelo://app?vid=78558f54-6a69-4897-89aa-fb2354a7c673","ios":"levelo://app?vid=78558f54-6a69-4897-89aa-fb2354a7c673"},"vehicle_type_id":"4","last_reported":1744982336,"current_range_meters":19200,"station_id":"","pricing_plan_id":"cebpf4jnsgd1na2vs0mg"},{"bike_id":"b33684da-bdb6-4167-881c-c0efb54c3348","system_id":"levelo_inurba_marseille","lat":43.27624,"lon":5.36112,"is_reserved":false,"is_disabled":false,"rental_uris":{"android":"levelo://app?vid=b33684da-bdb6-4167-881c-c0efb54c3348","ios":"levelo://app?vid=b33684da-bdb6-4167-881c-c0efb54c3348"},"vehicle_type_id":"4","last_reported":1744982336,"current_range_meters":19200,"station_id":"ce4bgj92rcd13ifvqbe0","pricing_plan_id":"cebpf4jnsgd1na2vs0mg"},{"bike_id":"ce02d5f0-6da3-49fd-98f5-0a7ac8ed6787","system_id":"levelo_inurba_marseille","lat":43.21189,"lon":5.35071,"is_reserved":false,"is_disabled":false,"rental_uris":{"android":"levelo://app?vid=ce02d5f0-6da3-49fd-98f5-0a7ac8ed6787","ios":"levelo://app?vid=ce02d5f0-6da3-49fd-98f5-0a7ac8ed6787"},"vehicle_type_id":"4","last_reported":1744982336,"current_range_meters":19200,"station_id":"st_cvj6sg6p6f1abm77japg","pricing_plan_id":"cebpf4jnsgd1na2vs0mg"},{"bike_id":"495ec7dc-d3f4-41e4-bf12-3060fa793f35","system_id":"levelo_inurba_marseille","lat":43.28408,"lon":5.34989,"is_reserved":false,"is_disabled":false,"rental_uris":{"android":"levelo://app?vid=495ec7dc-d3f4-41e4-bf12-3060fa793f35","ios":"levelo://app?vid=495ec7dc-d3f4-41e4-bf12-3060fa793f35"},"vehicle_type_id":"4","last_reported":1744982336,"current_range_meters":19200,"station_id":"ce4bhbh2rcd13ifvqepg","pricing_plan_id":"cebpf4jnsgd1na2vs0mg"},{"bike_id":"930ccce5-3c57-489f-923b-39f15d023791","system_id":"levelo_inurba_marseille","lat":43.30793,"lon":5.38167,"is_reserved":false,"is_disabled":false,"rental_uris":{"android":"levelo://app?vid=930ccce5-3c57-489f-923b-39f15d023791","ios":"levelo://app?vid=930ccce5-3c57-489f-923b-39f15d023791"},"vehicle_type_id":"4","last_reported":1744982336,"current_range_meters":19200,"station_id":"ce4bgt12rcd13ifvqce0","pricing_plan_id":"cebpf4jnsgd1na2vs0mg"},{"bike_id":"9e38ee41-cf3d-4654-aebc-49568905aa8a","system_id":"levelo_inurba_marseille","lat":43.28461,"lon":5.35897,"is_reserved":false,"is_disabled":false,"rental_uris":{"android":"levelo://app?vid=9e38ee41-cf3d-4654-aebc-49568905aa8a","ios":"levelo://app?vid=9e38ee41-cf3d-4654-aebc-49568905aa8a"},"vehicle_type_id":"4","last_reported":1744982336,"current_range_meters":19200,"station_id":"ce4bhah2rcd13ifvqei0","pricing_plan_id":"cebpf4jnsgd1na2vs0mg"},{"bike_id":"9fae2fe9-41f2-4764-b79f-dc7ef3bc540c","system_id":"levelo_inurba_marseille","lat":43.28418,"lon":5.34993,"is_reserved":false,"is_disabled":false,"rental_uris":{"android":"levelo://app?vid=9fae2fe9-41f2-4764-b79f-dc7ef3bc540c","ios":"levelo://app?vid=9fae2fe9-41f2-4764-b79f-dc7ef3bc540c"},"vehicle_type_id":"4","last_reported":1744982336,"current_range_meters":19600,"station_id":"ce4bhbh2rcd13ifvqepg","pricing_plan_id":"cebpf4jnsgd1na2vs0mg"},{"bike_id":"fba57ab6-1513-424c-82d1-02949a465d4a","system_id":"levelo_inurba_marseille","lat":43.28414,"lon":5.34989,"is_reserved":false,"is_disabled":false,"rental_uris":{"android":"levelo://app?vid=fba57ab6-1513-424c-82d1-02949a465d4a","ios":"levelo://app?vid=fba57ab6-1513-424c-82d1-02949a465d4a"},"vehicle_type_id":"4","last_reported":1744982336,"current_range_meters":19600,"station_id":"ce4bhbh2rcd13ifvqepg","pricing_plan_id":"cebpf4jnsgd1na2vs0mg"},{"bike_id":"1fad1949-da2d-4b93-9386-de1f3dc78d1f","system_id":"levelo_inurba_marseille","lat":43.30621,"lon":5.39309,"is_reserved":false,"is_disabled":true,"rental_uris":{"android":"levelo://app?vid=1fad1949-da2d-4b93-9386-de1f3dc78d1f","ios":"levelo://app?vid=1fad1949-da2d-4b93-9386-de1f3dc78d1f"},"vehicle_type_id":"4","last_reported":1744982336,"current_range_meters":19600,"station_id":"ce4bh0p2rcd13ifvqd80","pricing_plan_id":"cebpf4jnsgd1na2vs0mg"},{"bike_id":"bbeb5cd8-8578-49c0-b3df-3af6ea88f078","system_id":"levelo_inurba_marseille","lat":43.24164,"lon":5.36413,"is_reserved":false,"is_disabled":false,"rental_uris":{"android":"levelo://app?vid=bbeb5cd8-8578-49c0-b3df-3af6ea88f078","ios":"levelo://app?vid=bbeb5cd8-8578-49c0-b3df-3af6ea88f078"},"vehicle_type_id":"4","last_reported":1744982336,"current_range_meters":19600,"station_id":"cpo36qri1sfpv3e86is0","pricing_plan_id":"cebpf4jnsgd1na2vs0mg"},{"bike_id":"f6429501-f630-413f-af1a-5d98476b29fa","system_id":"levelo_inurba_marseille","lat":43.29874,"lon":5.39735,"is_reserved":false,"is_disabled":false,"rental_uris":{"android":"levelo://app?vid=f6429501-f630-413f-af1a-5d98476b29fa","ios":"levelo://app?vid=f6429501-f630-413f-af1a-5d98476b29fa"},"vehicle_type_id":"4","last_reported":1744982336,"current_range_meters":19600,"station_id":"ce4bh0h2rcd13ifvqd50","pricing_plan_id":"cebpf4jnsgd1na2vs0mg"},{"bike_id":"f964bc07-c566-46c7-9da2-b8cb74ddbf4d","system_id":"levelo_inurba_marseille","lat":43.23959,"lon":5.36636,"is_reserved":false,"is_disabled":false,"rental_uris":{"android":"levelo://app?vid=f964bc07-c566-46c7-9da2-b8cb74ddbf4d","ios":"levelo://app?vid=f964bc07-c566-46c7-9da2-b8cb74ddbf4d"},"vehicle_type_id":"4","last_reported":1744982336,"current_range_meters":19600,"station_id":"ce4bhi12rcd13ifvqfp0","pricing_plan_id":"cebpf4jnsgd1na2vs0mg"},{"bike_id":"4d43fa23-f7db-4e36-b743-b0b96888746f","system_id":"levelo_inurba_marseille","lat":43.25499,"lon":5.37649,"is_reserved":false,"is_disabled":false,"rental_uris":{"android":"levelo://app?vid=4d43fa23-f7db-4e36-b743-b0b96888746f","ios":"levelo://app?vid=4d43fa23-f7db-4e36-b743-b0b96888746f"},"vehicle_type_id":"4","last_reported":1744982336,"current_range_meters":20000,"station_id":"ce4bhh12rcd13ifvqff0","pricing_plan_id":"cebpf4jnsgd1na2vs0mg"},{"bike_id":"9eaa40d0-4e97-422e-8330-ce22f5baa5d7","system_id":"levelo_inurba_marseille","lat":43.306454,"lon":5.400881,"is_reserved":false,"is_disabled":false,"rental_uris":{"android":"levelo://app?vid=9eaa40d0-4e97-422e-8330-ce22f5baa5d7","ios":"levelo://app?vid=9eaa40d0-4e97-422e-8330-ce22f5baa5d7"},"vehicle_type_id":"4","last_reported":1744982336,"current_range_meters":20000,"station_id":"ce4bh112rcd13ifvqda0","pricing_plan_id":"cebpf4jnsgd1na2vs0mg"},{"bike_id":"fcad5b93-ab2f-4704-9653-3d8c68efdea6","system_id":"levelo_inurba_marseille","lat":43.30555,"lon":5.36537,"is_reserved":false,"is_disabled":false,"rental_uris":{"android":"levelo://app?vid=fcad5b93-ab2f-4704-9653-3d8c68efdea6","ios":"levelo://app?vid=fcad5b93-ab2f-4704-9653-3d8c68efdea6"},"vehicle_type_id":"4","last_reported":1744982336,"current_range_meters":19600,"station_id":"ce4bgs12rcd13ifvqcag","pricing_plan_id":"cebpf4jnsgd1na2vs0mg"},{"bike_id":"3eab262d-44bd-47f2-8450-1e74c612cfc9","system_id":"levelo_inurba_marseille","lat":43.243946,"lon":5.370574,"is_reserved":false,"is_disabled":false,"rental_uris":{"android":"levelo://app?vid=3eab262d-44bd-47f2-8450-1e74c612cfc9","ios":"levelo://app?vid=3eab262d-44bd-47f2-8450-1e74c612cfc9"},"vehicle_type_id":"4","last_reported":1744982336,"current_range_meters":20000,"station_id":"ce4bhhh2rcd13ifvqfk0","pricing_plan_id":"cebpf4jnsgd1na2vs0mg"},{"bike_id":"f3619ad9-cd39-48c2-b871-3d7f58f7cff5","system_id":"levelo_inurba_marseille","lat":43.28849,"lon":5.35839,"is_reserved":false,"is_disabled":false,"rental_uris":{"android":"levelo://app?vid=f3619ad9-cd39-48c2-b871-3d7f58f7cff5","ios":"levelo://app?vid=f3619ad9-cd39-48c2-b871-3d7f58f7cff5"},"vehicle_type_id":"4","last_reported":1744982336,"current_range_meters":20000,"station_id":"ce4bhb12rcd13ifvqem0","pricing_plan_id":"cebpf4jnsgd1na2vs0mg"},