{"last_updated":1762791237,"ttl":60,"version":"2.2","data":{"bikes":[{"bike_id":"a22621ed-dce3-441e-82fa-0978db9d5cc0","system_id":"levelo_inurba_marseille","lat":43.337444,"lon":5.374475,"is_reserved":false,"is_disabled":false,"rental_uris":{"android":"levelo://app?vid=a22621ed-dce3-441e-82fa-0978db9d5cc0","ios":"levelo://app?vid=a22621ed-dce3-441e-82fa-0978db9d5cc0"},"vehicle_type_id":"4","last_reported":1762791237,"current_range_meters":0,"station_id":"","pricing_plan_id":"cebpf4jnsgd1na2vs0mg"},{"bike_id":"2e3811f7-2b86-44f6-abc4-b2ec6ce2d70a","system_id":"levelo_inurba_marseille","lat":43.24952,"lon":5.40497,"is_reserved":false,"is_disabled":false,"rental_uris":{"android":"levelo://app?vid=2e3811f7-2b86-44f6-abc4-b2ec6ce2d70a","ios":"levelo://app?vid=2e3811f7-2b86-44f6-abc4-b2ec6ce2d70a"},"vehicle_type_id":"4","last_reported":1762791237,"current_range_meters":2800,"station_id":"st_d2ngiaodas8pm72gd1h0","pricing_plan_id":"cebpf4jnsgd1na2vs0mg"},{"bike_id":"1f16a406-88b9-4d69-8192-c6b52d90efd6","system_id":"levelo_inurba_marseille","lat":43.23179,"lon":5.39989,"is_reserved":false,"is_disabled":false,"rental_uris":{"android":"levelo://app?vid=1f16a406-88b9-4d69-8192-c6b52d90efd6","ios":"levelo://app?vid=1f16a406-88b9-4d69-8192-c6b52d90efd6"},"vehicle_type_id":"4","last_reported":1762791237,"current_range_meters":3200,"station_id":"ce4bhn12rcd13ifvqgqg","pricing_plan_id":"cebpf4jnsgd1na2vs0mg"},{"bike_id":"6e5385ec-b386-4310-9c74-294f09fda7d7","system_id":"levelo_inurba_marseille","lat":43.263488,"lon":5.373994,"is_reserved":false,"is_disabled":false,"rental_uris":{"android":"levelo://app?vid=6e5385ec-b386-4310-9c74-294f09fda7d7","ios":"levelo://app?vid=6e5385ec-b386-4310-9c74-294f09fda7d7"},"vehicle_type_id":"4","last_reported":1762791237,"current_range_meters":3200,"station_id":"ce4bh9p2rcd13ifvqec0","pricing_plan_id":"cebpf4jnsgd1na2vs0mg"},{"bike_id":"9d1caecf-6802-4557-82e1-0916328ca949","system_id":"levelo_inurba_marseille","lat":43.21747,"lon":5.34603,"is_reserved":false,"is_disabled":false,"rental_uris":{"android":"levelo://app?vid=9d1caecf-6802-4557-82e1-0916328ca949","ios":"levelo://app?vid=9d1caecf-6802-4557-82e1-0916328ca949"},"vehicle_type_id":"4","last_reported":1762791237,"current_range_meters":3200,"station_id":"st_cvj6r9ubvosntc0bgbag","pricing_plan_id":"cebpf4jnsgd1na2vs0mg"},{"bike_id":"710b0c71-c4e2-457d-8377-51a74b47b4a6","system_id":"levelo_inurba_marseille","lat":43.28405,"lon":5.37516,"is_reserved":false,"is_disabled":false,"rental_uris":{"android":"levelo://app?vid=710b0c71-c4e2-457d-8377-51a74b47b4a6","ios":"levelo://app?vid=710b0c71-c4e2-457d-8377-51a74b47b4a6"},"vehicle_type_id":"4","last_reported":1762791237,"current_range_meters":3200,"station_id":"ce4bh412rcd13ifvqds0","pricing_plan_id":"cebpf4jnsgd1na2vs0mg"},{"bike_id":"2f602379-4210-4e54-8d42-10da20120d27","system_id":"levelo_inurba_marseille","lat":43.279438,"lon":5.410426,"is_reserved":false,"is_disabled":false,"rental_uris":{"android":"levelo://app?vid=2f602379-4210-4e54-8d42-10da20120d27","ios":"levelo://app?vid=2f602379-4210-4e54-8d42-10da20120d27"},"vehicle_type_id":"4","last_reported":1762791237,"current_range_meters":3200,"station_id":"ce4bhnp2rcd13ifvqh0g","pricing_plan_id":"cebpf4jnsgd1na2vs0mg"},{"bike_id":"5a7c036e-1745-4e6b-961e-457db3b5c067","system_id":"levelo_inurba_marseille","lat":43.25933,"lon":5.40911,"is_reserved":false,"is_disabled":false,"rental_uris":{"android":"levelo://app?vid=5a7c036e-1745-4e6b-961e-457db3b5c067","ios":"levelo://app?vid=5a7c036e-1745-4e6b-961e-457db3b5c067"},"vehicle_type_id":"4","last_reported":1762791237,"current_range_meters":3200,"station_id":"ce4bhm92rcd13ifvqglg","pricing_plan_id":"cebpf4jnsgd1na2vs0mg"},{"bike_id":"4c0f1d44-0a71-4e7d-803b-1f7c728c3973","system_id":"levelo_inurba_marseille","lat":43.27681,"lon":5.38871,"is_reserved":false,"is_disabled":false,"rental_uris":{"android":"levelo://app?vid=4c0f1d44-0a71-4e7d-803b-1f7c728c3973","ios":"levelo://app?vid=4c0f1d44-0a71-4e7d-803b-1f7c728c3973"},"vehicle_type_id":"4","last_reported":1762791237,"current_range_meters":3600,"station_id":"ce4bhi12rcd13ifvqfo0","pricing_plan_id":"cebpf4jnsgd1na2vs0mg"},{"bike_id":"54e2ed58-c233-41d3-8834-a0203b803155","system_id":"levelo_inurba_marseille","lat":43.28662,"lon":5.36353,"is_reserved":false,"is_disabled":false,"rental_uris":{"android":"levelo://app?vid=54e2ed58-c233-41d3-8834-a0203b803155","ios":"levelo://app?vid=54e2ed58-c233-41d3-8834-a0203b803155"},"vehicle_type_id":"4","last_reported":1762791237,"current_range_meters":3600,"station_id":"ce4bhah2rcd13ifvqej0","pricing_plan_id":"cebpf4jnsgd1na2vs0mg"},{"bike_id":"d58162db-574a-44f0-b573-b59c9312a09d","system_id":"levelo_inurba_marseille","lat":43.28274,"lon":5.35072,"is_reserved":false,"is_disabled":true,"rental_uris":{"android":"levelo://app?vid=d58162db-574a-44f0-b573-b59c9312a09d","ios":"levelo://app?vid=d58162db-574a-44f0-b573-b59c9312a09d"},"vehicle_type_id":"4","last_reported":1762791237,"current_range_meters":3600,"station_id":"ce4bhbp2rcd13ifvqerg","pricing_plan_id":"cebpf4jnsgd1na2vs0mg"},{"bike_id":"aad73c23-d47c-47cc-a64b-f1d0c6e788d2","system_id":"levelo_inurba_marseille","lat":43.30418,"lon":5.4128,"is_reserved":false,"is_disabled":false,"rental_uris":{"android":"levelo://app?vid=aad73c23-d47c-47cc-a64b-f1d0c6e788d2","ios":"levelo://app?vid=aad73c23-d47c-47cc-a64b-f1d0c6e788d2"},"vehicle_type_id":"4","last_reported":1762791237,"current_range_meters":3600,"station_id":"ce4bhop2rcd13ifvqh8g","pricing_plan_id":"cebpf4jnsgd1na2vs0mg"},{"bike_id":"870a9ad1-db35-4ab0-bc9a-84476efc6571","system_id":"levelo_inurba_marseille","lat":43.32796,"lon":5.42651,"is_reserved":false,"is_disabled":false,"rental_uris":{"android":"levelo://app?vid=870a9ad1-db35-4ab0-bc9a-84476efc6571","ios":"levelo://app?vid=870a9ad1-db35-4ab0-bc9a-84476efc6571"},"vehicle_type_id":"4","last_reported":1762791237,"current_range_meters":3600,"station_id":"","pricing_plan_id":"cebpf4jnsgd1na2vs0mg"},{"bike_id":"5ed2aa9f-b070-46ba-8bdc-ca0b86079902","system_id":"levelo_inurba_marseille","lat":43.31192,"lon":5.36869,"is_reserved":false,"is_disabled":false,"rental_uris":{"android":"levelo://app?vid=5ed2aa9f-b070-46ba-8bdc-ca0b86079902","ios":"levelo://app?vid=5ed2aa9f-b070-46ba-8bdc-ca0b86079902"},"vehicle_type_id":"4","last_reported":1762791237,"current_range_meters":4000,"station_id":"ce4bgl92rcd13ifvqbq0","pricing_plan_id":"cebpf4jnsgd1na2vs0mg"},{"bike_id":"b05048b6-3636-4628-97b9-678771374061","system_id":"levelo_inurba_marseille","lat":43.3026,"lon":5.36905,"is_reserved":false,"is_disabled":false,"rental_uris":{"android":"levelo://app?vid=b05048b6-3636-4628-97b9-678771374061","ios":"levelo://app?vid=b05048b6-3636-4628-97b9-678771374061"},"vehicle_type_id":"4","last_reported":1762791237,"current_range_meters":4000,"station_id":"ce4bgqh2rcd13ifvqc5g","pricing_plan_id":"cebpf4jnsgd1na2vs0mg"},{"bike_id":"a3b87c2d-2db1-4073-97f0-1a56f58e1b2e","system_id":"levelo_inurba_marseille","lat":43.27919,"lon":5.3958,"is_reserved":false,"is_disabled":false,"rental_uris":{"android":"levelo://app?vid=a3b87c2d-2db1-4073-97f0-1a56f58e1b2e","ios":"levelo://app?vid=a3b87c2d-2db1-4073-97f0-1a56f58e1b2e"},"vehicle_type_id":"4","last_reported":1762791237,"current_range_meters":4000,"station_id":"ce4bhf92rcd13ifvqf40","pricing_plan_id":"cebpf4jnsgd1na2vs0mg"},{"bike_id":"ed39ff6e-5e64-489f-905e-9bc21753168f","system_id":"levelo_inurba_marseille","lat":43.29194,"lon":5.39316,"is_reserved":false,"is_disabled":false,"rental_uris":{"android":"levelo://app?vid=ed39ff6e-5e64-489f-905e-9bc21753168f","ios":"levelo://app?vid=ed39ff6e-5e64-489f-905e-9bc21753168f"},"vehicle_type_id":"4","last_reported":1762791237,"current_range_meters":4000,"station_id":"ce4bh192rcd13ifvqdd0","pricing_plan_id":"cebpf4jnsgd1na2vs0mg"},{"bike_id":"8040d437-b793-4c7c-83dd-8a60b4a68d3a","system_id":"levelo_inurba_marseille","lat":43.25901,"lon":5.40845,"is_reserved":false,"is_disabled":true,"rental_uris":{"android":"levelo://app?vid=8040d437-b793-4c7c-83dd-8a60b4a68d3a","ios":"levelo://app?vid=8040d437-b793-4c7c-83dd-8a60b4a68d3a"},"vehicle_type_id":"4","last_reported":1762791237,"current_range_meters":4000,"station_id":"ce4bhm92rcd13ifvqglg","pricing_plan_id":"cebpf4jnsgd1na2vs0mg"},{"bike_id":"42de55aa-e84b-4217-b226-46bd246ceb5e","system_id":"levelo_inurba_marseille","lat":43.29006,"lon":5.35607,"is_reserved":false,"is_disabled":false,"rental_uris":{"android":"levelo://app?vid=42de55aa-e84b-4217-b226-46bd246ceb5e","ios":"levelo://app?vid=42de55aa-e84b-4217-b226-46bd246ceb5e"},"vehicle_type_id":"4","last_reported":1762791237,"current_range_meters":4000,"station_id":"ce4bhb92rcd13ifvqen0","pricing_plan_id":"cebpf4jnsgd1na2vs0mg"},{"bike_id":"10ee1ee9-a18a-4c49-a2d9-bf393d25186f","system_id":"levelo_inurba_marseille","lat":43.2861,"lon":5.37061,"is_reserved":false,"is_disabled":false,"rental_uris":{"android":"levelo://app?vid=10ee1ee9-a18a-4c49-a2d9-bf393d25186f","ios":"levelo://app?vid=10ee1ee9-a18a-4c49-a2d9-bf393d25186f"},"vehicle_type_id":"4","last_reported":1762791237,"current_range_meters":4400,"station_id":"ce4bht12rcd13ifvqi60","pricing_plan_id":"cebpf4jnsgd1na2vs0mg"},{"bike_id":"1d60c185-dcc1-4ad5-8367-5012e8d72794","system_id":"levelo_inurba_marseille","lat":43.2957,"lon":5.37526,"is_reserved":false,"is_disabled":false,"rental_uris":{"android":"levelo://app?vid=1d60c185-dcc1-4ad5-8367-5012e8d72794","ios":"levelo://app?vid=1d60c185-dcc1-4ad5-8367-5012e8d72794"},"vehicle_type_id":"4","last_reported":1762791237,"current_range_meters":4400,"station_id":"ce4bgh92rcd13ifvqb50","pricing_plan_id":"cebpf4jnsgd1na2vs0mg"},{"bike_id":"9a31649c-edcd-4f1b-a37e-6c41f562cb27","system_id":"levelo_inurba_marseille","lat":43.29017,"lon":5.3561,"is_reserved":false,"is_disabled":false,"rental_uris":{"android":"levelo://app?vid=9a31649c-edcd-4f1b-a37e-6c41f562cb27","ios":"levelo://app?vid=9a31649c-edcd-4f1b-a37e-6c41f562cb27"},"vehicle_type_id":"4","last_reported":1762791237,"current_range_meters":4400,"station_id":"ce4bhb92rcd13ifvqen0","pricing_plan_id":"cebpf4jnsgd1na2vs0mg"},{"bike_id":"4a3b633d-c6bd-4c38-b0af-c0502cf0cf33","system_id":"levelo_inurba_marseille","lat":43.29281,"lon":5.38468,"is_reserved":false,"is_disabled":false,"rental_uris":{"android":"levelo://app?vid=4a3b633d-c6bd-4c38-b0af-c0502cf0cf33","ios":"levelo://app?vid=4a3b633d-c6bd-4c38-b0af-c0502cf0cf33"},"vehicle_type_id":"4","last_reported":1762791237,"current_range_meters":4800,"station_id":"ce4bh692rcd13ifvqea0","pricing_plan_id":"cebpf4jnsgd1na2vs0mg"},{"bike_id":"14503f5c-da40-4fa0-843e-c2f22173d8f4","system_id":"levelo_inurba_marseille","lat":43.28616,"lon":5.351,"is_reserved":false,"is_disabled":false,"rental_uris":{"android":"levelo://app?vid=14503f5c-da40-4fa0-843e-c2f22173d8f4","ios":"levelo://app?vid=14503f5c-da40-4fa0-843e-c2f22173d8f4"},"vehicle_type_id":"4","last_reported":1762791237,"current_range_meters":4800,"station_id":"ce4bhch2rcd13ifvqeug","pricing_plan_id":"cebpf4jnsgd1na2vs0mg"},{"bike_id":"6a5cb119-1a64-415c-a949-ec0bb54d8799","system_id":"levelo_inurba_marseille","lat":43.33174,"lon":5.37675,"is_reserved":false,"is_disabled":false,"rental_uris":{"android":"levelo://app?vid=6a5cb119-1a64-415c-a949-ec0bb54d8799","ios":"levelo://app?vid=6a5cb119-1a64-415c-a949-ec0bb54d8799"},"vehicle_type_id":"4","last_reported":1762791237,"current_range_meters":4800,"station_id":"st_d46cu089ee8s73dldbu0","pricing_plan_id":"cebpf4jnsgd1na2vs0mg"},{"bike_id":"401e84db-77ef-4759-a634-891c397e2bca","system_id":"levelo_inurba_marseille","lat":43.319933,"lon":5.381688,"is_reserved":false,"is_disabled":false,"rental_uris":{"android":"levelo://app?vid=401e84db-77ef-4759-a634-891c397e2bca","ios":"levelo://app?vid=401e84db-77ef-4759-a634-891c397e2bca"},"vehicle_type_id":"4","last_reported":1762791237,"current_range_meters":4800,"station_id":"ce4bhr12rcd13ifvqhpg","pricing_plan_id":"cebpf4jnsgd1na2vs0mg"},{"bike_id":"856de4e1-7815-4aad-b194-03b93106b688","system_id":"levelo_inurba_marseille","lat":43.28939,"lon":5.36639,"is_reserved":false,"is_disabled":false,"rental_uris":{"android":"levelo://app?vid=856de4e1-7815-4aad-b194-03b93106b688","ios":"levelo://app?vid=856de4e1-7815-4aad-b194-03b93106b688"},"vehicle_type_id":"4","last_reported":1762791237,"current_range_meters":4800,"station_id":"ce4bhap2rcd13ifvqek0","pricing_plan_id":"cebpf4jnsgd1na2vs0mg"},{"bike_id":"4ee47e05-1c09-43f6-b3d4-29ab03cbb79b","system_id":"levelo_inurba_marseille","lat":43.30885,"lon":5.39638,"is_reserved":false,"is_disabled":false,"rental_uris":{"android":"levelo://app?vid=4ee47e05-1c09-43f6-b3d4-29ab03cbb79b","ios":"levelo://app?vid=4ee47e05-1c09-43f6-b3d4-29ab03cbb79b"},"vehicle_type_id":"4","last_reported":1762791237,"current_range_meters":5600,"station_id":"ce4bh012rcd13ifvqcv0","pricing_plan_id":"cebpf4jnsgd1na2vs0mg"},{"bike_id":"15db09df-59b0-446a-87c5-e354a3319258","system_id":"levelo_inurba_marseille","lat":43.2848,"lon":5.48383,"is_reserved":false,"is_disabled":false,"rental_uris":{"android":"levelo://app?vid=15db09df-59b0-446a-87c5-e354a3319258","ios":"levelo://app?vid=15db09df-59b0-446a-87c5-e354a3319258"},"vehicle_type_id":"4","last_reported":1762791237,"current_range_meters":5600,"station_id":"","pricing_plan_id":"cebpf4jnsgd1na2vs0mg"},{"bike_id":"6f98b7a7-ae98-40be-aded-6fe2b547bfca","system_id":"levelo_inurba_marseille","lat":43.28478,"lon":5.48403,"is_reserved":false,"is_disabled":false,"rental_uris":{"android":"levelo://app?vid=6f98b7a7-ae98-40be-aded-6fe2b547bfca","ios":"levelo://app?vid=6f98b7a7-ae98-40be-aded-6fe2b547bfca"},"vehicle_type_id":"4","last_reported":1762791237,"current_range_meters":5600,"station_id":"","pricing_plan_id":"cebpf4jnsgd1na2vs0mg"},{"bike_id":"9c4afee9-1cf3-4be5-85db-835e16ba0247","system_id":"levelo_inurba_marseille","lat":43.231809,"lon":5.39989,"is_reserved":false,"is_disabled":false,"rental_uris":{"android":"levelo://app?vid=9c4afee9-1cf3-4be5-85db-835e16ba0247","ios":"levelo://app?vid=9c4afee9-1cf3-4be5-85db-835e16ba0247"},"vehicle_type_id":"4","last_reported":1762791237,"current_range_meters":6000,"station_id":"ce4bhn12rcd13ifvqgqg","pricing_plan_id":"cebpf4jnsgd1na2vs0mg"},{"bike_id":"e2fd3445-1d9d-4265-b811-6729e1498b1b","system_id":"levelo_inurba_marseille","lat":43.31357,"lon":5.38493,"is_reserved":false,"is_disabled":false,"rental_uris":{"android":"levelo://app?vid=e2fd3445-1d9d-4265-b811-6729e1498b1b","ios":"levelo://app?vid=e2fd3445-1d9d-4265-b811-6729e1498b1b"},"vehicle_type_id":"4","last_reported":1762791237,"current_range_meters":6000,"station_id":"ce4bgt92rcd13ifvqcf0","pricing_plan_id":"cebpf4jnsgd1na2vs0mg"},{"bike_id":"7b3e5c05-24d7-425e-aa93-ceb86a39350c","system_id":"levelo_inurba_marseille","lat":43.27996,"lon":5.40016,"is_reserved":false,"is_disabled":false,"rental_uris":{"android":"levelo://app?vid=7b3e5c05-24d7-425e-aa93-ceb86a39350c","ios":"levelo://app?vid=7b3e5c05-24d7-425e-aa93-ceb86a39350c"},"vehicle_type_id":"4","last_reported":1762791237,"current_range_meters":6000,"station_id":"ce4bho92rcd13ifvqh4g","pricing_plan_id":"cebpf4jnsgd1na2vs0mg"},{"bike_id":"abf18691-d35d-47e9-99a1-0522637a63d4","system_id":"levelo_inurba_marseille","lat":43.304232,"lon":5.412807,"is_reserved":false,"is_disabled":false,"rental_uris":{"android":"levelo://app?vid=abf18691-d35d-47e9-99a1-0522637a63d4","ios":"levelo://app?vid=abf18691-d35d-47e9-99a1-0522637a63d4"},"vehicle_type_id":"4","last_reported":1762791237,"current_range_meters":6000,"station_id":"ce4bhop2rcd13ifvqh8g","pricing_plan_id":"cebpf4jnsgd1na2vs0mg"},{"bike_id":"c46c9aaf-aa45-4026-8d9e-49c6b6e15cf5","system_id":"levelo_inurba_marseille","lat":43.28421,"lon":5.37506,"is_reserved":false,"is_disabled":false,"rental_uris":{"android":"levelo://app?vid=c46c9aaf-aa45-4026-8d9e-49c6b6e15cf5","ios":"levelo://app?vid=c46c9aaf-aa45-4026-8d9e-49c6b6e15cf5"},"vehicle_type_id":"4","last_reported":1762791237,"current_range_meters":6000,"station_id":"ce4bh412rcd13ifvqds0","pricing_plan_id":"cebpf4jnsgd1na2vs0mg"},{"bike_id":"c1a8951c-0b8b-4e04-9556-ddc347871e56","system_id":"levelo_inurba_marseille","lat":43.33591,"lon":5.35415,"is_reserved":false,"is_disabled":false,"rental_uris":{"android":"levelo://app?vid=c1a8951c-0b8b-4e04-9556-ddc347871e56","ios":"levelo://app?vid=c1a8951c-0b8b-4e04-9556-ddc347871e56"},"vehicle_type_id":"4","last_reported":1762791237,"current_range_meters":6000,"station_id":"","pricing_plan_id":"cebpf4jnsgd1na2vs0mg"},{"bike_id":"37046d5c-5e99-459d-805d-dfaf6fcb80d0","system_id":"levelo_inurba_marseille","lat":43.31337,"lon":5.39691,"is_reserved":false,"is_disabled":false,"rental_uris":{"android":"levelo://app?vid=37046d5c-5e99-459d-805d-dfaf6fcb80d0","ios":"levelo://app?vid=37046d5c-5e99-459d-805d-dfaf6fcb80d0"},"vehicle_type_id":"4","last_reported":1762791237,"current_range_meters":6400,"station_id":"ce4bgvp2rcd13ifvqcu0","pricing_plan_id":"cebpf4jnsgd1na2vs0mg"},{"bike_id":"3a3f5a8d-2fdd-4244-85aa-e255b61adbe5","system_id":"levelo_inurba_marseille","lat":43.27972,"lon":5.38743,"is_reserved":false,"is_disabled":false,"rental_uris":{"android":"levelo://app?vid=3a3f5a8d-2fdd-4244-85aa-e255b61adbe5","ios":"levelo://app?vid=3a3f5a8d-2fdd-4244-85aa-e255b61adbe5"},"vehicle_type_id":"4","last_reported":1762791237,"current_range_meters":6400,"station_id":"ce4bhg12rcd13ifvqf80","pricing_plan_id":"cebpf4jnsgd1na2vs0mg"},{"bike_id":"a468abfc-41a1-4cf8-84ac-466c31dd44ec","system_id":"levelo_inurba_marseille","lat":43.26799,"lon":5.39027,"is_reserved":false,"is_disabled":false,"rental_uris":{"android":"levelo://app?vid=a468abfc-41a1-4cf8-84ac-466c31dd44ec","ios":"levelo://app?vid=a468abfc-41a1-4cf8-84ac-466c31dd44ec"},"vehicle_type_id":"4","last_reported":1762791237,"current_range_meters":6400,"station_id":"","pricing_plan_id":"cebpf4jnsgd1na2vs0mg"},{"bike_id":"d18ba9a0-64dc-4bbe-81b0-db95579946c6","system_id":"levelo_inurba_marseille","lat":43.301544,"lon":5.374218,"is_reserved":false,"is_disabled":false,"rental_uris":{"android":"levelo://app?vid=d18ba9a0-64dc-4bbe-81b0-db95579946c6","ios":"levelo://app?vid=d18ba9a0-64dc-4bbe-81b0-db95579946c6"},"vehicle_type_id":"4","last_reported":1762791237,"current_range_meters":6400,"station_id":"ce4bgs92rcd13ifvqcc0","pricing_plan_id":"cebpf4jnsgd1na2vs0mg"},{"bike_id":"93ba9444-7e6e-4cd5-9f4c-87040dca93c2","system_id":"levelo_inurba_marseille","lat":43.25586,"lon":5.38227,"is_reserved":false,"is_disabled":false,"rental_uris":{"android":"levelo://app?vid=93ba9444-7e6e-4cd5-9f4c-87040dca93c2","ios":"levelo://app?vid=93ba9444-7e6e-4cd5-9f4c-87040dca93c2"},"vehicle_type_id":"4","last_reported":1762791237,"current_range_meters":6800,"station_id":"ce4bhih2rcd13ifvqfs0","pricing_plan_id":"cebpf4jnsgd1na2vs0mg"},{"bike_id":"809b90b6-9486-481e-9c43-fd166b11ee7c","system_id":"levelo_inurba_marseille","lat":43.29487,"lon":5.43305,"is_reserved":false,"is_disabled":false,"rental_uris":{"android":"levelo://app?vid=809b90b6-9486-481e-9c43-fd166b11ee7c","ios":"levelo://app?vid=809b90b6-9486-481e-9c43-fd166b11ee7c"},"vehicle_type_id":"4","last_reported":1762791237,"current_range_meters":6800,"station_id":"st_d3j5ugp08ojc73fj9d10","pricing_plan_id":"cebpf4jnsgd1na2vs0mg"},{"bike_id":"9132ea9f-fbbb-47f4-9d33-1fe9d8f61779","system_id":"levelo_inurba_marseille","lat":43.31767,"lon":5.38993,"is_reserved":false,"is_disabled":false,"rental_uris":{"android":"levelo://app?vid=9132ea9f-fbbb-47f4-9d33-1fe9d8f61779","ios":"levelo://app?vid=9132ea9f-fbbb-47f4-9d33-1fe9d8f61779"},"vehicle_type_id":"4","last_reported":1762791237,"current_range_meters":7200,"station_id":"ce4bhqp2rcd13ifvqhng","pricing_plan_id":"cebpf4jnsgd1na2vs0mg"},{"bike_id":"f67f33ef-23fe-4ff5-8a43-7b241a0de7da","system_id":"levelo_inurba_marseille","lat":43.320865,"lon":5.368033,"is_reserved":false,"is_disabled":false,"rental_uris":{"android":"levelo://app?vid=f67f33ef-23fe-4ff5-8a43-7b241a0de7da","ios":"levelo://app?vid=f67f33ef-23fe-4ff5-8a43-7b241a0de7da"},"vehicle_type_id":"4","last_reported":1762791237,"current_range_meters":7200,"station_id":"ce4bhrh2rcd13ifvqhug","pricing_plan_id":"cebpf4jnsgd1na2vs0mg"},{"bike_id":"479269fa-f3ac-4a12-b1b6-a78f3a9c1148","system_id":"levelo_inurba_marseille","lat":43.258219,"lon":5.394402,"is_reserved":false,"is_disabled":false,"rental_uris":{"android":"levelo://app?vid=479269fa-f3ac-4a12-b1b6-a78f3a9c1148","ios":"levelo://app?vid=479269fa-f3ac-4a12-b1b6-a78f3a9c1148"},"vehicle_type_id":"4","last_reported":1762791237,"current_range_meters":7200,"station_id":"ce4bhip2rcd13ifvqft0","pricing_plan_id":"cebpf4jnsgd1na2vs0mg"},{"bike_id":"1f18a9ae-fcd1-4e89-9cba-db3ca8093919","system_id":"levelo_inurba_marseille","lat":43.27612,"lon":5.36107,"is_reserved":false,"is_disabled":false,"rental_uris":{"android":"levelo://app?vid=1f18a9ae-fcd1-4e89-9cba-db3ca8093919","ios":"levelo://app?vid=1f18a9ae-fcd1-4e89-9cba-db3ca8093919"},"vehicle_type_id":"4","last_reported":1762791237,"current_range_meters":7200,"station_id":"ce4bgj92rcd13ifvqbe0","pricing_plan_id":"cebpf4jnsgd1na2vs0mg"},{"bike_id":"cc64b289-643a-42f8-b480-750d1907471c","system_id":"levelo_inurba_marseille","lat":43.297068,"lon":5.366109,"is_reserved":false,"is_disabled":false,"rental_uris":{"android":"levelo://app?vid=cc64b289-643a-42f8-b480-750d1907471c","ios":"levelo://app?vid=cc64b289-643a-42f8-b480-750d1907471c"},"vehicle_type_id":"4","last_reported":1762791237,"current_range_meters":8000,"station_id":"ce4bgn12rcd13ifvqbt0","pricing_plan_id":"cebpf4jnsgd1na2vs0mg"},{"bike_id":"539a22d6-a2e1-4b21-9253-d86f3adc9e38","system_id":"levelo_inurba_marseille","lat":43.29701,"lon":5.36614,"is_reserved":false,"is_disabled":false,"rental_uris":{"android":"levelo://app?vid=539a22d6-a2e1-4b21-9253-d86f3adc9e38","ios":"levelo://app?vid=539a22d6-a2e1-4b21-9253-d86f3adc9e38"},"vehicle_type_id":"4","last_reported":1762791237,"current_range_meters":8000,"station_id":"ce4bgn12rcd13ifvqbt0","pricing_plan_id":"cebpf4jnsgd1na2vs0mg"},{"bike_id":"c9b84864-5af2-4bf6-844e-e38840c4851d","system_id":"levelo_inurba_marseille","lat":43.26216,"lon":5.37447,"is_reserved":false,"is_disabled":false,"rental_uris":{"android":"levelo://app?vid=c9b84864-5af2-4bf6-844e-e38840c4851d","ios":"levelo://app?vid=c9b84864-5af2-4bf6-844e-e38840c4851d"},"vehicle_type_id":"4","last_reported":1762791237,"current_range_meters":8000,"station_id":"ce4bhgp2rcd13ifvqfc0","pricing_plan_id":"cebpf4jnsgd1na2vs0mg"},{"bike_id":"bcb7664a-39c2-46f8-930f-41cebd3d0b86","system_id":"levelo_inurba_marseille","lat":43.21186,"lon":5.35073,"is_reserved":false,"is_disabled":true,"rental_uris":{"android":"levelo://app?vid=bcb7664a-39c2-46f8-930f-41cebd3d0b86","ios":"levelo://app?vid=bcb7664a-39c2-46f8-930f-41cebd3d0b86"},"vehicle_type_id":"4","last_reported":1762791237,"current_range_meters":8000,"station_id":"st_cvj6sg6p6f1abm77japg","pricing_plan_id":"cebpf4jnsgd1na2vs0mg"},{"bike_id":"5997c6b0-b0f4-4848-a8f1-63ca201df211","system_id":"levelo_inurba_marseille","lat":43.339348,"lon":5.41509,"is_reserved":false,"is_disabled":false,"rental_uris":{"android":"levelo://app?vid=5997c6b0-b0f4-4848-a8f1-63ca201df211","ios":"levelo://app?vid=5997c6b0-b0f4-4848-a8f1-63ca201df211"},"vehicle_type_id":"4","last_reported":1762791237,"current_range_meters":8000,"station_id":"","pricing_plan_id":"cebpf4jnsgd1na2vs0mg"},{"bike_id":"811fe57f-8aa4-46f0-b52f-130a25691f65","system_id":"levelo_inurba_marseille","lat":43.29005,"lon":5.35616,"is_reserved":false,"is_disabled":false,"rental_uris":{"android":"levelo://app?vid=811fe57f-8aa4-46f0-b52f-130a25691f65","ios":"levelo://app?vid=811fe57f-8aa4-46f0-b52f-130a25691f65"},"vehicle_type_id":"4","last_reported":1762791237,"current_range_meters":8400,"station_id":"ce4bhb92rcd13ifvqen0","pricing_plan_id":"cebpf4jnsgd1na2vs0mg"},{"bike_id":"c22e2e8e-d9be-4950-b41c-9e93dcca3af9","system_id":"levelo_inurba_marseille","lat":43.30377,"lon":5.42485,"is_reserved":false,"is_disabled":false,"rental_uris":{"android":"levelo://app?vid=c22e2e8e-d9be-4950-b41c-9e93dcca3af9","ios":"levelo://app?vid=c22e2e8e-d9be-4950-b41c-9e93dcca3af9"},"vehicle_type_id":"4","last_reported":1762791237,"current_range_meters":8400,"station_id":"ce4bhoh2rcd13ifvqh6g","pricing_plan_id":"cebpf4jnsgd1na2vs0mg"},{"bike_id":"a46223ec-e9b1-441d-9ec5-1853d61928e3","system_id":"levelo_inurba_marseille","lat":43.28785,"lon":5.36636,"is_reserved":false,"is_disabled":false,"rental_uris":{"android":"levelo://app?vid=a46223ec-e9b1-441d-9ec5-1853d61928e3","ios":"levelo://app?vid=a46223ec-e9b1-441d-9ec5-1853d61928e3"},"vehicle_type_id":"4","last_reported":1762791237,"current_range_meters":8400,"station_id":"","pricing_plan_id":"cebpf4jnsgd1na2vs0mg"},{"bike_id":"ddfd460a-db50-4bd2-8102-92d8af22ce3b","system_id":"levelo_inurba_marseille","lat":43.33025,"lon":5.39045,"is_reserved":false,"is_disabled":false,"rental_uris":{"android":"levelo://app?vid=ddfd460a-db50-4bd2-8102-92d8af22ce3b","ios":"levelo://app?vid=ddfd460a-db50-4bd2-8102-92d8af22ce3b"},"vehicle_type_id":"4","last_reported":1762791237,"current_range_meters":8400,"station_id":"ce4bhr92rcd13ifvqhrg","pricing_plan_id":"cebpf4jnsgd1na2vs0mg"},{"bike_id":"f4bc1d7f-757b-42f5-aa58-f310968238a8","system_id":"levelo_inurba_marseille","lat":43.27942,"lon":5.41049,"is_reserved":false,"is_disabled":false,"rental_uris":{"android":"levelo://app?vid=f4bc1d7f-757b-42f5-aa58-f310968238a8","ios":"levelo://app?vid=f4bc1d7f-757b-42f5-aa58-f310968238a8"},"vehicle_type_id":"4","last_reported":1762791237,"current_range_meters":8400,"station_id":"ce4bhnp2rcd13ifvqh0g","pricing_plan_id":"cebpf4jnsgd1na2vs0mg"},{"bike_id":"a5018ec1-5ccd-4448-8260-119f325f79b1","system_id":"levelo_inurba_marseille","lat":43.27627,"lon":5.36089,"is_reserved":false,"is_disabled":false,"rental_uris":{"android":"levelo://app?vid=a5018ec1-5ccd-4448-8260-119f325f79b1","ios":"levelo://app?vid=a5018ec1-5ccd-4448-8260-119f325f79b1"},"vehicle_type_id":"4","last_reported":1762791237,"current_range_meters":8400,"station_id":"ce4bgj92rcd13ifvqbe0","pricing_plan_id":"cebpf4jnsgd1na2vs0mg"},{"bike_id":"8097a919-db41-4ecf-8f32-046dc8093938","system_id":"levelo_inurba_marseille","lat":43.29706,"lon":5.36582,"is_reserved":false,"is_disabled":false,"rental_uris":{"android":"levelo://app?vid=8097a919-db41-4ecf-8f32-046dc8093938","ios":"levelo://app?vid=8097a919-db41-4ecf-8f32-046dc8093938"},"vehicle_type_id":"4","last_reported":1762791237,"current_range_meters":8400,"station_id":"ce4bgn12rcd13ifvqbt0","pricing_plan_id":"cebpf4jnsgd1na2vs0mg"},{"bike_id":"682b11c2-0068-485c-ba9c-f22193553504","system_id":"levelo_inurba_marseille","lat":43.30888,"lon":5.39623,"is_reserved":false,"is_disabled":false,"rental_uris":{"android":"levelo://app?vid=682b11c2-0068-485c-ba9c-f22193553504","ios":"levelo://app?vid=682b11c2-0068-485c-ba9c-f22193553504"},"vehicle_type_id":"4","last_reported":1762791237,"current_range_meters":8800,"station_id":"ce4bh012rcd13ifvqcv0","pricing_plan_id":"cebpf4jnsgd1na2vs0mg"},{"bike_id":"24f52fdf-4bb3-45c7-9abc-807b1796f731","system_id":"levelo_inurba_marseille","lat":43.289211,"lon":5.359431,"is_reserved":false,"is_disabled":false,"rental_uris":{"android":"levelo://app?vid=24f52fdf-4bb3-45c7-9abc-807b1796f731","ios":"levelo://app?vid=24f52fdf-4bb3-45c7-9abc-807b1796f731"},"vehicle_type_id":"4","last_reported":1762791237,"current_range_meters":8800,"station_id":"ce4bgvp2rcd13ifvqct0","pricing_plan_id":"cebpf4jnsgd1na2vs0mg"},{"bike_id":"74d88e42-29b9-4fc4-8b15-03c9440acf7a","system_id":"levelo_inurba_marseille","lat":43.28611,"lon":5.37073,"is_reserved":false,"is_disabled":false,"rental_uris":{"android":"levelo://app?vid=74d88e42-29b9-4fc4-8b15-03c9440acf7a","ios":"levelo://app?vid=74d88e42-29b9-4fc4-8b15-03c9440acf7a"},"vehicle_type_id":"4","last_reported":1762791237,"current_range_meters":8800,"station_id":"ce4bht12rcd13ifvqi60","pricing_plan_id":"cebpf4jnsgd1na2vs0mg"},{"bike_id":"4c5cffc5-d5af-4cbf-bc8a-fe4d10178e7c","system_id":"levelo_inurba_marseille","lat":43.29037,"lon":5.3997,"is_reserved":false,"is_disabled":false,"rental_uris":{"android":"levelo://app?vid=4c5cffc5-d5af-4cbf-bc8a-fe4d10178e7c","ios":"levelo://app?vid=4c5cffc5-d5af-4cbf-bc8a-fe4d10178e7c"},"vehicle_type_id":"4","last_reported":1762791237,"current_range_meters":8800,"station_id":"ce4bh392rcd13ifvqdm0","pricing_plan_id":"cebpf4jnsgd1na2vs0mg"},{"bike_id":"edc06472-fed8-4649-8aba-95c98f1d17ee","system_id":"levelo_inurba_marseille","lat":43.29622,"lon":5.37155,"is_reserved":false,"is_disabled":false,"rental_uris":{"android":"levelo://app?vid=edc06472-fed8-4649-8aba-95c98f1d17ee","ios":"levelo://app?vid=edc06472-fed8-4649-8aba-95c98f1d17ee"},"vehicle_type_id":"4","last_reported":1762791237,"current_range_meters":9200,"station_id":"ce4bgnh2rcd13ifvqc0g","pricing_plan_id":"cebpf4jnsgd1na2vs0mg"},{"bike_id":"09880af0-899c-427e-bfec-ab0fdb229c89","system_id":"levelo_inurba_marseille","lat":43.30612,"lon":5.36704,"is_reserved":false,"is_disabled":false,"rental_uris":{"android":"levelo://app?vid=09880af0-899c-427e-bfec-ab0fdb229c89","ios":"levelo://app?vid=09880af0-899c-427e-bfec-ab0fdb229c89"},"vehicle_type_id":"4","last_reported":1762791237,"current_range_meters":9200,"station_id":"","pricing_plan_id":"cebpf4jnsgd1na2vs0mg"},{"bike_id":"d32acf6f-21aa-4fbf-bed6-33d296ca0f9f","system_id":"levelo_inurba_marseille","lat":43.21752,"lon":5.34589,"is_reserved":false,"is_disabled":false,"rental_uris":{"android":"levelo://app?vid=d32acf6f-21aa-4fbf-bed6-33d296ca0f9f","ios":"levelo://app?vid=d32acf6f-21aa-4fbf-bed6-33d296ca0f9f"},"vehicle_type_id":"4","last_reported":1762791237,"current_range_meters":9200,"station_id":"st_cvj6r9ubvosntc0bgbag","pricing_plan_id":"cebpf4jnsgd1na2vs0mg"},{"bike_id":"418611bb-fbee-489b-aece-22e2d2389cca","system_id":"levelo_inurba_marseille","lat":43.29535,"lon":5.37503,"is_reserved":false,"is_disabled":false,"rental_uris":{"android":"levelo://app?vid=418611bb-fbee-489b-aece-22e2d2389cca","ios":"levelo://app?vid=418611bb-fbee-489b-aece-22e2d2389cca"},"vehicle_type_id":"4","last_reported":1762791237,"current_range_meters":9200,"station_id":"ce4bgkp2rcd13ifvqbmg","pricing_plan_id":"cebpf4jnsgd1na2vs0mg"},{"bike_id":"f08621f1-92b2-4985-8a3a-96dd283a7c2b","system_id":"levelo_inurba_marseille","lat":43.31354,"lon":5.37932,"is_reserved":false,"is_disabled":false,"rental_uris":{"android":"levelo://app?vid=f08621f1-92b2-4985-8a3a-96dd283a7c2b","ios":"levelo://app?vid=f08621f1-92b2-4985-8a3a-96dd283a7c2b"},"vehicle_type_id":"4","last_reported":1762791237,"current_range_meters":9200,"station_id":"","pricing_plan_id":"cebpf4jnsgd1na2vs0mg"},{"bike_id":"1c7710eb-5fe4-40b5-8279-c8e4c2043b50","system_id":"levelo_inurba_marseille","lat":43.308996,"lon":5.371843,"is_reserved":false,"is_disabled":false,"rental_uris":{"android":"levelo://app?vid=1c7710eb-5fe4-40b5-8279-c8e4c2043b50","ios":"levelo://app?vid=1c7710eb-5fe4-40b5-8279-c8e4c2043b50"},"vehicle_type_id":"4","last_reported":1762791237,"current_range_meters":9200,"station_id":"ce4bguh2rcd13ifvqckg","pricing_plan_id":"cebpf4jnsgd1na2vs0mg"},{"bike_id":"296b35f4-bf34-48bd-a614-0084f905815f","system_id":"levelo_inurba_marseille","lat":43.29924,"lon":5.36387,"is_reserved":false,"is_disabled":false,"rental_uris":{"android":"levelo://app?vid=296b35f4-bf34-48bd-a614-0084f905815f","ios":"levelo://app?vid=296b35f4-bf34-48bd-a614-0084f905815f"},"vehicle_type_id":"4","last_reported":1762791237,"current_range_meters":9200,"station_id":"","pricing_plan_id":"cebpf4jnsgd1na2vs0mg"},{"bike_id":"6fdf1d1d-f101-43c3-9a74-8885cd48ff1f","system_id":"levelo_inurba_marseille","lat":43.272095,"lon":5.391453,"is_reserved":false,"is_disabled":false,"rental_uris":{"android":"levelo://app?vid=6fdf1d1d-f101-43c3-9a74-8885cd48ff1f","ios":"levelo://app?vid=6fdf1d1d-f101-43c3-9a74-8885cd48ff1f"},"vehicle_type_id":"4","last_reported":1762791237,"current_range_meters":9600,"station_id":"","pricing_plan_id":"cebpf4jnsgd1na2vs0mg"},{"bike_id":"a80caae7-d766-44de-aa52-02ac991420e5","system_id":"levelo_inurba_marseille","lat":43.3153,"lon":5.38033,"is_reserved":false,"is_disabled":false,"rental_uris":{"android":"levelo://app?vid=a80caae7-d766-44de-aa52-02ac991420e5","ios":"levelo://app?vid=a80caae7-d766-44de-aa52-02ac991420e5"},"vehicle_type_id":"4","last_reported":1762791237,"current_range_meters":9600,"station_id":"ce4bhsp2rcd13ifvqi50","pricing_plan_id":"cebpf4jnsgd1na2vs0mg"},{"bike_id":"021877f8-2f18-4f85-a435-3b8afd6958ce","system_id":"levelo_inurba_marseille","lat":43.23182,"lon":5.39993,"is_reserved":false,"is_disabled":false,"rental_uris":{"android":"levelo://app?vid=021877f8-2f18-4f85-a435-3b8afd6958ce","ios":"levelo://app?vid=021877f8-2f18-4f85-a435-3b8afd6958ce"},"vehicle_type_id":"4","last_reported":1762791237,"current_range_meters":9600,"station_id":"ce4bhn12rcd13ifvqgqg","pricing_plan_id":"cebpf4jnsgd1na2vs0mg"},{"bike_id":"65939b32-9d96-4551-bdb8-8ae610bef72a","system_id":"levelo_inurba_marseille","lat":43.29803,"lon":5.38095,"is_reserved":false,"is_disabled":false,"rental_uris":{"android":"levelo://app?vid=65939b32-9d96-4551-bdb8-8ae610bef72a","ios":"levelo://app?vid=65939b32-9d96-4551-bdb8-8ae610bef72a"},"vehicle_type_id":"4","last_reported":1762791237,"current_range_meters":9600,"station_id":"ce4bgip2rcd13ifvqbb0","pricing_plan_id":"cebpf4jnsgd1na2vs0mg"},{"bike_id":"79f56105-774b-49df-8ff5-a7e11cb788ad","system_id":"levelo_inurba_marseille","lat":43.3033,"lon":5.40433,"is_reserved":false,"is_disabled":false,"rental_uris":{"android":"levelo://app?vid=79f56105-774b-49df-8ff5-a7e11cb788ad","ios":"levelo://app?vid=79f56105-774b-49df-8ff5-a7e11cb788ad"},"vehicle_type_id":"4","last_reported":1762791237,"current_range_meters":9600,"station_id":"ce4bh012rcd13ifvqd10","pricing_plan_id":"cebpf4jnsgd1na2vs0mg"},{"bike_id":"efbbbe52-08d0-4f35-a175-c5b6c37caafe","system_id":"levelo_inurba_marseille","lat":43.313244,"lon":5.396901,"is_reserved":false,"is_disabled":false,"rental_uris":{"android":"levelo://app?vid=efbbbe52-08d0-4f35-a175-c5b6c37caafe","ios":"levelo://app?vid=efbbbe52-08d0-4f35-a175-c5b6c37caafe"},"vehicle_type_id":"4","last_reported":1762791237,"current_range_meters":9600,"station_id":"ce4bgvp2rcd13ifvqcu0","pricing_plan_id":"cebpf4jnsgd1na2vs0mg"},{"bike_id":"0990e613-722b-4d11-bbb0-0dc112317933","system_id":"levelo_inurba_marseille","lat":43.260287,"lon":5.375681,"is_reserved":false,"is_disabled":false,"rental_uris":{"android":"levelo://app?vid=0990e613-722b-4d11-bbb0-0dc112317933","ios":"levelo://app?vid=0990e613-722b-4d11-bbb0-0dc112317933"},"vehicle_type_id":"4","last_reported":1762791237,"current_range_meters":9600,"station_id":"ce4bhgh2rcd13ifvqfa0","pricing_plan_id":"cebpf4jnsgd1na2vs0mg"},{"bike_id":"15ddb21d-519f-488e-9176-687e1cc9fa46","system_id":"levelo_inurba_marseille","lat":43.31203,"lon":5.36834,"is_reserved":false,"is_disabled":false,"rental_uris":{"android":"levelo://app?vid=15ddb21d-519f-488e-9176-687e1cc9fa46","ios":"levelo://app?vid=15ddb21d-519f-488e-9176-687e1cc9fa46"},"vehicle_type_id":"4","last_reported":1762791237,"current_range_meters":10000,"station_id":"ce4bgl92rcd13ifvqbq0","pricing_plan_id":"cebpf4jnsgd1na2vs0mg"},{"bike_id":"758997fc-6df1-4533-9646-bc49233bced1","system_id":"levelo_inurba_marseille","lat":43.27055,"lon":5.40263,"is_reserved":false,"is_disabled":false,"rental_uris":{"android":"levelo://app?vid=758997fc-6df1-4533-9646-bc49233bced1","ios":"levelo://app?vid=758997fc-6df1-4533-9646-bc49233bced1"},"vehicle_type_id":"4","last_reported":1762791237,"current_range_meters":10000,"station_id":"ce4bhk92rcd13ifvqgc0","pricing_plan_id":"cebpf4jnsgd1na2vs0mg"},{"bike_id":"77c5930d-7370-4f86-a390-ce2d376781ff","system_id":"levelo_inurba_marseille","lat":43.28852,"lon":5.35853,"is_reserved":false,"is_disabled":false,"rental_uris":{"android":"levelo://app?vid=77c5930d-7370-4f86-a390-ce2d376781ff","ios":"levelo://app?vid=77c5930d-7370-4f86-a390-ce2d376781ff"},"vehicle_type_id":"4","last_reported":1762791237,"current_range_meters":10000,"station_id":"ce4bhb12rcd13ifvqem0","pricing_plan_id":"cebpf4jnsgd1na2vs0mg"},{"bike_id":"46748178-17b8-4dc8-80b3-39159ff743e0","system_id":"levelo_inurba_marseille","lat":43.30044,"lon":5.38344,"is_reserved":false,"is_disabled":false,"rental_uris":{"android":"levelo://app?vid=46748178-17b8-4dc8-80b3-39159ff743e0","ios":"levelo://app?vid=46748178-17b8-4dc8-80b3-39159ff743e0"},"vehicle_type_id":"4","last_reported":1762791237,"current_range_meters":10000,"station_id":"","pricing_plan_id":"cebpf4jnsgd1na2vs0mg"},{"bike_id":"3ee00150-2086-4fc8-b9f8-742e8866e99d","system_id":"levelo_inurba_marseille","lat":43.3092,"lon":5.36852,"is_reserved":false,"is_disabled":false,"rental_uris":{"android":"levelo://app?vid=3ee00150-2086-4fc8-b9f8-742e8866e99d","ios":"levelo://app?vid=3ee00150-2086-4fc8-b9f8-742e8866e99d"},"vehicle_type_id":"4","last_reported":1762791237,"current_range_meters":10000,"station_id":"ce4bgn92rcd13ifvqbvg","pricing_plan_id":"cebpf4jnsgd1na2vs0mg"},{"bike_id":"4720db16-8b2a-4715-b38e-881890595c85","system_id":"levelo_inurba_marseille","lat":43.24634,"lon":5.43141,"is_reserved":false,"is_disabled":false,"rental_uris":{"android":"levelo://app?vid=4720db16-8b2a-4715-b38e-881890595c85","ios":"levelo://app?vid=4720db16-8b2a-4715-b38e-881890595c85"},"vehicle_type_id":"4","last_reported":1762791237,"current_range_meters":10000,"station_id":"st_d2m6c4gdas8pm72e190g","pricing_plan_id":"cebpf4jnsgd1na2vs0mg"},{"bike_id":"b4cb9bc3-2674-422b-8c74-5594292dd02e","system_id":"levelo_inurba_marseille","lat":43.27522,"lon":5.3751,"is_reserved":false,"is_disabled":false,"rental_uris":{"android":"levelo://app?vid=b4cb9bc3-2674-422b-8c74-5594292dd02e","ios":"levelo://app?vid=b4cb9bc3-2674-422b-8c74-5594292dd02e"},"vehicle_type_id":"4","last_reported":1762791237,"current_range_meters":10000,"station_id":"","pricing_plan_id":"cebpf4jnsgd1na2vs0mg"},{"bike_id":"83f89bbe-04b9-42b6-b50a-618034dc84d0","system_id":"levelo_inurba_marseille","lat":43.292704,"lon":5.36843,"is_reserved":false,"is_disabled":false,"rental_uris":{"android":"levelo://app?vid=83f89bbe-04b9-42b6-b50a-618034dc84d0","ios":"levelo://app?vid=83f89bbe-04b9-42b6-b50a-618034dc84d0"},"vehicle_type_id":"4","last_reported":1762791237,"current_range_meters":10000,"station_id":"ce4bhbp2rcd13ifvqesg","pricing_plan_id":"cebpf4jnsgd1na2vs0mg"},{"bike_id":"dc5d2bf3-2f91-4198-a117-7bbbb6fe898b","system_id":"levelo_inurba_marseille","lat":43.24651,"lon":5.3889,"is_reserved":false,"is_disabled":false,"rental_uris":{"android":"levelo://app?vid=dc5d2bf3-2f91-4198-a117-7bbbb6fe898b","ios":"levelo://app?vid=dc5d2bf3-2f91-4198-a117-7bbbb6fe898b"},"vehicle_type_id":"4","last_reported":1762791237,"current_range_meters":10000,"station_id":"ce4bhg12rcd13ifvqf60","pricing_plan_id":"cebpf4jnsgd1na2vs0mg"},{"bike_id":"e62ff3e5-c690-44d0-92da-65a99769ebb3","system_id":"levelo_inurba_marseille","lat":43.30419,"lon":5.4128,"is_reserved":false,"is_disabled":false,"rental_uris":{"android":"levelo://app?vid=e62ff3e5-c690-44d0-92da-65a99769ebb3","ios":"levelo://app?vid=e62ff3e5-c690-44d0-92da-65a99769ebb3"},"vehicle_type_id":"4","last_reported":1762791237,"current_range_meters":10000,"station_id":"ce4bhop2rcd13ifvqh8g","pricing_plan_id":"cebpf4jnsgd1na2vs0mg"},{"bike_id":"a2edf73b-294e-4e03-876a-1f2fcc69ddc3","system_id":"levelo_inurba_marseille","lat":43.329803,"lon":5.376149,"is_reserved":false,"is_disabled":false,"rental_uris":{"android":"levelo://app?vid=a2edf73b-294e-4e03-876a-1f2fcc69ddc3","ios":"levelo://app?vid=a2edf73b-294e-4e03-876a-1f2fcc69ddc3"},"vehicle_type_id":"4","last_reported":1762791237,"current_range_meters":10800,"station_id":"","pricing_plan_id":"cebpf4jnsgd1na2vs0mg"},{"bike_id":"8637fd7d-b6ff-4a8c-8fad-8de50f9a9f32","system_id":"levelo_inurba_marseille","lat":43.29728,"lon":5.37703,"is_reserved":false,"is_disabled":false,"rental_uris":{"android":"levelo://app?vid=8637fd7d-b6ff-4a8c-8fad-8de50f9a9f32","ios":"levelo://app?vid=8637fd7d-b6ff-4a8c-8fad-8de50f9a9f32"},"vehicle_type_id":"4","last_reported":1762791237,"current_range_meters":10800,"station_id":"ce4bgkh2rcd13ifvqbl0","pricing_plan_id":"cebpf4jnsgd1na2vs0mg"},{"bike_id":"87524a3f-48c2-4e95-9608-7652abaa9a53","system_id":"levelo_inurba_marseille","lat":43.30684,"lon":5.36758,"is_reserved":false,"is_disabled":false,"rental_uris":{"android":"levelo://app?vid=87524a3f-48c2-4e95-9608-7652abaa9a53","ios":"levelo://app?vid=87524a3f-48c2-4e95-9608-7652abaa9a53"},"vehicle_type_id":"4","last_reported":1762791237,"current_range_meters":10800,"station_id":"","pricing_plan_id":"cebpf4jnsgd1na2vs0mg"},{"bike_id":"ab4ac132-5519-4aac-ac12-8b8c2929bb7e","system_id":"levelo_inurba_marseille","lat":43.32302,"lon":5.38493,"is_reserved":false,"is_disabled":false,"rental_uris":{"android":"levelo://app?vid=ab4ac132-5519-4aac-ac12-8b8c2929bb7e","ios":"levelo://app?vid=ab4ac132-5519-4aac-ac12-8b8c2929bb7e"},"vehicle_type_id":"4","last_reported":1762791237,"current_range_meters":10800,"station_id":"st_d45171o9ee8s73djdqug","pricing_plan_id":"cebpf4jnsgd1na2vs0mg"},{"bike_id":"8113de5b-fb93-41cf-8478-589514e7a4cc","system_id":"levelo_inurba_marseille","lat":43.24074,"lon":5.3776,"is_reserved":false,"is_disabled":false,"rental_uris":{"android":"levelo://app?vid=8113de5b-fb93-41cf-8478-589514e7a4cc","ios":"levelo://app?vid=8113de5b-fb93-41cf-8478-589514e7a4cc"},"vehicle_type_id":"4","last_reported":1762791237,"current_range_meters":10800,"station_id":"ce4bhnp2rcd13ifvqgvg","pricing_plan_id":"cebpf4jnsgd1na2vs0mg"},{"bike_id":"07618fb4-fdf4-452a-a76e-4b0defae3541","system_id":"levelo_inurba_marseille","lat":43.225361,"lon":5.348313,"is_reserved":false,"is_disabled":false,"rental_uris":{"android":"levelo://app?vid=07618fb4-fdf4-452a-a76e-4b0defae3541","ios":"levelo://app?vid=07618fb4-fdf4-452a-a76e-4b0defae3541"},"vehicle_type_id":"4","last_reported":1762791237,"current_range_meters":10800,"station_id":"","pricing_plan_id":"cebpf4jnsgd1na2vs0mg"},{"bike_id":"be3d8650-9293-46bc-b0c9-a47bad563b96","system_id":"levelo_inurba_marseille","lat":43.2176,"lon":5.34593,"is_reserved":false,"is_disabled":false,"rental_uris":{"android":"levelo://app?vid=be3d8650-9293-46bc-b0c9-a47bad563b96","ios":"levelo://app?vid=be3d8650-9293-46bc-b0c9-a47bad563b96"},"vehicle_type_id":"4","last_reported":1762791237,"current_range_meters":10800,"station_id":"st_cvj6r9ubvosntc0bgbag","pricing_plan_id":"cebpf4jnsgd1na2vs0mg"},{"bike_id":"f0e63c7c-b962-450d-8ba5-9c902273ec67","system_id":"levelo_inurba_marseille","lat":43.29009,"lon":5.3561,"is_reserved":false,"is_disabled":false,"rental_uris":{"android":"levelo://app?vid=f0e63c7c-b962-450d-8ba5-9c902273ec67","ios":"levelo://app?vid=f0e63c7c-b962-450d-8ba5-9c902273ec67"},"vehicle_type_id":"4","last_reported":1762791237,"current_range_meters":10800,"station_id":"ce4bhb92rcd13ifvqen0","pricing_plan_id":"cebpf4jnsgd1na2vs0mg"},{"bike_id":"77dd386a-c491-4903-b512-c2486567c465","system_id":"levelo_inurba_marseille","lat":43.28951,"lon":5.36626,"is_reserved":false,"is_disabled":false,"rental_uris":{"android":"levelo://app?vid=77dd386a-c491-4903-b512-c2486567c465","ios":"levelo://app?vid=77dd386a-c491-4903-b512-c2486567c465"},"vehicle_type_id":"4","last_reported":1762791237,"current_range_meters":10800,"station_id":"ce4bhap2rcd13ifvqek0","pricing_plan_id":"cebpf4jnsgd1na2vs0mg"},{"bike_id":"fd513886-05bf-441a-8bc4-814625ad9695","system_id":"levelo_inurba_marseille","lat":43.289378,"lon":5.366407,"is_reserved":false,"is_disabled":false,"rental_uris":{"android":"levelo://app?vid=fd513886-05bf-441a-8bc4-814625ad9695","ios":"levelo://app?vid=fd513886-05bf-441a-8bc4-814625ad9695"},"vehicle_type_id":"4","last_reported":1762791237,"current_range_meters":11200,"station_id":"","pricing_plan_id":"cebpf4jnsgd1na2vs0mg"},{"bike_id":"a5543062-ea0f-4fe1-9b13-4c706607d49b","system_id":"levelo_inurba_marseille","lat":43.27946,"lon":5.41053,"is_reserved":false,"is_disabled":false,"rental_uris":{"android":"levelo://app?vid=a5543062-ea0f-4fe1-9b13-4c706607d49b","ios":"levelo://app?vid=a5543062-ea0f-4fe1-9b13-4c706607d49b"},"vehicle_type_id":"4","last_reported":1762791237,"current_range_meters":11200,"station_id":"ce4bhnp2rcd13ifvqh0g","pricing_plan_id":"cebpf4jnsgd1na2vs0mg"},{"bike_id":"402840c5-efaa-449d-82e9-c9d0d203896a","system_id":"levelo_inurba_marseille","lat":43.29199,"lon":5.35789,"is_reserved":false,"is_disabled":false,"rental_uris":{"android":"levelo://app?vid=402840c5-efaa-449d-82e9-c9d0d203896a","ios":"levelo://app?vid=402840c5-efaa-449d-82e9-c9d0d203896a"},"vehicle_type_id":"4","last_reported":1762791237,"current_range_meters":11200,"station_id":"ce4bhb12rcd13ifvqel0","pricing_plan_id":"cebpf4jnsgd1na2vs0mg"},{"bike_id":"39ff6a52-7c15-4e36-9056-950efe8be9ca","system_id":"levelo_inurba_marseille","lat":43.28489,"lon":5.48387,"is_reserved":false,"is_disabled":false,"rental_uris":{"android":"levelo://app?vid=39ff6a52-7c15-4e36-9056-950efe8be9ca","ios":"levelo://app?vid=39ff6a52-7c15-4e36-9056-950efe8be9ca"},"vehicle_type_id":"4","last_reported":1762791237,"current_range_meters":11200,"station_id":"","pricing_plan_id":"cebpf4jnsgd1na2vs0mg"},{"bike_id":"c0dc25a8-bdaa-44c4-b5e6-18fcce3b713f","system_id":"levelo_inurba_marseille","lat":43.301356,"lon":5.398608,"is_reserved":false,"is_disabled":false,"rental_uris":{"android":"levelo://app?vid=c0dc25a8-bdaa-44c4-b5e6-18fcce3b713f","ios":"levelo://app?vid=c0dc25a8-bdaa-44c4-b5e6-18fcce3b713f"},"vehicle_type_id":"4","last_reported":1762791237,"current_range_meters":11600,"station_id":"ce4bh0h2rcd13ifvqd40","pricing_plan_id":"cebpf4jnsgd1na2vs0mg"},{"bike_id":"b85ae06d-8211-45c1-91c3-6cd6434fe268","system_id":"levelo_inurba_marseille","lat":43.337444,"lon":5.374475,"is_reserved":false,"is_disabled":false,"rental_uris":{"android":"levelo://app?vid=b85ae06d-8211-45c1-91c3-6cd6434fe268","ios":"levelo://app?vid=b85ae06d-8211-45c1-91c3-6cd6434fe268"},"vehicle_type_id":"4","last_reported":1762791237,"current_range_meters":11600,"station_id":"","pricing_plan_id":"cebpf4jnsgd1na2vs0mg"},{"bike_id":"a906f7c6-e9b7-42af-8bd2-6e1feeb979a5","system_id":"levelo_inurba_marseille","lat":43.28834,"lon":5.39568,"is_reserved":false,"is_disabled":false,"rental_uris":{"android":"levelo://app?vid=a906f7c6-e9b7-42af-8bd2-6e1feeb979a5","ios":"levelo://app?vid=a906f7c6-e9b7-42af-8bd2-6e1feeb979a5"},"vehicle_type_id":"4","last_reported":1762791237,"current_range_meters":11600,"station_id":"","pricing_plan_id":"cebpf4jnsgd1na2vs0mg"},{"bike_id":"887191d7-5598-4945-87f9-798f28865afd","system_id":"levelo_inurba_marseille","lat":43.26551,"lon":5.37287,"is_reserved":false,"is_disabled":false,"rental_uris":{"android":"levelo://app?vid=887191d7-5598-4945-87f9-798f28865afd","ios":"levelo://app?vid=887191d7-5598-4945-87f9-798f28865afd"},"vehicle_type_id":"4","last_reported":1762791237,"current_range_meters":11600,"station_id":"ce4bhg12rcd13ifvqf70","pricing_plan_id":"cebpf4jnsgd1na2vs0mg"},{"bike_id":"db8c4640-874e-49d5-9963-97e086ff5bcc","system_id":"levelo_inurba_marseille","lat":43.21735,"lon":5.34622,"is_reserved":false,"is_disabled":false,"rental_uris":{"android":"levelo://app?vid=db8c4640-874e-49d5-9963-97e086ff5bcc","ios":"levelo://app?vid=db8c4640-874e-49d5-9963-97e086ff5bcc"},"vehicle_type_id":"4","last_reported":1762791237,"current_range_meters":11600,"station_id":"","pricing_plan_id":"cebpf4jnsgd1na2vs0mg"},{"bike_id":"5ac676b9-ce14-4abf-9995-004720982b02","system_id":"levelo_inurba_marseille","lat":43.280051,"lon":5.40009,"is_reserved":false,"is_disabled":false,"rental_uris":{"android":"levelo://app?vid=5ac676b9-ce14-4abf-9995-004720982b02","ios":"levelo://app?vid=5ac676b9-ce14-4abf-9995-004720982b02"},"vehicle_type_id":"4","last_reported":1762791237,"current_range_meters":11600,"station_id":"ce4bho92rcd13ifvqh4g","pricing_plan_id":"cebpf4jnsgd1na2vs0mg"},{"bike_id":"4a337640-ebfb-4249-8485-9d33670ace3a","system_id":"levelo_inurba_marseille","lat":43.25594,"lon":5.40049,"is_reserved":false,"is_disabled":false,"rental_uris":{"android":"levelo://app?vid=4a337640-ebfb-4249-8485-9d33670ace3a","ios":"levelo://app?vid=4a337640-ebfb-4249-8485-9d33670ace3a"},"vehicle_type_id":"4","last_reported":1762791237,"current_range_meters":11600,"station_id":"","pricing_plan_id":"cebpf4jnsgd1na2vs0mg"},{"bike_id":"bacd936f-3ebc-40a9-bea4-a6c07e2a15fb","system_id":"levelo_inurba_marseille","lat":43.29838,"lon":5.44036,"is_reserved":false,"is_disabled":false,"rental_uris":{"android":"levelo://app?vid=bacd936f-3ebc-40a9-bea4-a6c07e2a15fb","ios":"levelo://app?vid=bacd936f-3ebc-40a9-bea4-a6c07e2a15fb"},"vehicle_type_id":"4","last_reported":1762791237,"current_range_meters":11600,"station_id":"st_d3jp68qikq2c7381ktn0","pricing_plan_id":"cebpf4jnsgd1na2vs0mg"},{"bike_id":"d07a336d-fb3c-4acc-b386-14e8c0075042","system_id":"levelo_inurba_marseille","lat":43.27921,"lon":5.39579,"is_reserved":false,"is_disabled":false,"rental_uris":{"android":"levelo://app?vid=d07a336d-fb3c-4acc-b386-14e8c0075042","ios":"levelo://app?vid=d07a336d-fb3c-4acc-b386-14e8c0075042"},"vehicle_type_id":"4","last_reported":1762791237,"current_range_meters":11600,"station_id":"ce4bhf92rcd13ifvqf40","pricing_plan_id":"cebpf4jnsgd1na2vs0mg"},{"bike_id":"96807a8e-1b45-4a36-b7ed-92091f4bcaf6","system_id":"levelo_inurba_marseille","lat":43.309306,"lon":5.401424,"is_reserved":false,"is_disabled":false,"rental_uris":{"android":"levelo://app?vid=96807a8e-1b45-4a36-b7ed-92091f4bcaf6","ios":"levelo://app?vid=96807a8e-1b45-4a36-b7ed-92091f4bcaf6"},"vehicle_type_id":"4","last_reported":1762791237,"current_range_meters":12000,"station_id":"","pricing_plan_id":"cebpf4jnsgd1na2vs0mg"},{"bike_id":"cc5223b7-a0f3-494b-a98e-f5e6f3829f44","system_id":"levelo_inurba_marseille","lat":43.29743,"lon":5.42779,"is_reserved":false,"is_disabled":false,"rental_uris":{"android":"levelo://app?vid=cc5223b7-a0f3-494b-a98e-f5e6f3829f44","ios":"levelo://app?vid=cc5223b7-a0f3-494b-a98e-f5e6f3829f44"},"vehicle_type_id":"4","last_reported":1762791237,"current_range_meters":12000,"station_id":"st_d3md5207bmas73dh9klg","pricing_plan_id":"cebpf4jnsgd1na2vs0mg"},{"bike_id":"aa435d96-589b-4ee7-9e0d-3ddeaa974312","system_id":"levelo_inurba_marseille","lat":43.31387,"lon":5.38515,"is_reserved":false,"is_disabled":false,"rental_uris":{"android":"levelo://app?vid=aa435d96-589b-4ee7-9e0d-3ddeaa974312","ios":"levelo://app?vid=aa435d96-589b-4ee7-9e0d-3ddeaa974312"},"vehicle_type_id":"4","last_reported":1762791237,"current_range_meters":12000,"station_id":"ce4bgt92rcd13ifvqcf0","pricing_plan_id":"cebpf4jnsgd1na2vs0mg"},{"bike_id":"24de70df-9b80-4721-8771-f61cb7be1ef9","system_id":"levelo_inurba_marseille","lat":43.3192,"lon":5.38126,"is_reserved":false,"is_disabled":false,"rental_uris":{"android":"levelo://app?vid=24de70df-9b80-4721-8771-f61cb7be1ef9","ios":"levelo://app?vid=24de70df-9b80-4721-8771-f61cb7be1ef9"},"vehicle_type_id":"4","last_reported":1762791237,"current_range_meters":12000,"station_id":"","pricing_plan_id":"cebpf4jnsgd1na2vs0mg"},{"bike_id":"0cb07b59-f962-4d5d-9f6e-d039d2f3bfff","system_id":"levelo_inurba_marseille","lat":43.30436,"lon":5.38885,"is_reserved":false,"is_disabled":false,"rental_uris":{"android":"levelo://app?vid=0cb07b59-f962-4d5d-9f6e-d039d2f3bfff","ios":"levelo://app?vid=0cb07b59-f962-4d5d-9f6e-d039d2f3bfff"},"vehicle_type_id":"4","last_reported":1762791237,"current_range_meters":12000,"station_id":"ce4bgk12rcd13ifvqbi0","pricing_plan_id":"cebpf4jnsgd1na2vs0mg"},{"bike_id":"bb816589-0d32-45db-b2bc-85b9feb905a7","system_id":"levelo_inurba_marseille","lat":43.2176,"lon":5.3461,"is_reserved":false,"is_disabled":false,"rental_uris":{"android":"levelo://app?vid=bb816589-0d32-45db-b2bc-85b9feb905a7","ios":"levelo://app?vid=bb816589-0d32-45db-b2bc-85b9feb905a7"},"vehicle_type_id":"4","last_reported":1762791237,"current_range_meters":12000,"station_id":"","pricing_plan_id":"cebpf4jnsgd1na2vs0mg"},{"bike_id":"73646706-929c-4242-844b-a2a904a1f791","system_id":"levelo_inurba_marseille","lat":43.29622,"lon":5.37168,"is_reserved":false,"is_disabled":false,"rental_uris":{"android":"levelo://app?vid=73646706-929c-4242-844b-a2a904a1f791","ios":"levelo://app?vid=73646706-929c-4242-844b-a2a904a1f791"},"vehicle_type_id":"4","last_reported":1762791237,"current_range_meters":12000,"station_id":"ce4bgnh2rcd13ifvqc0g","pricing_plan_id":"cebpf4jnsgd1na2vs0mg"},{"bike_id":"93b49ebf-d9fa-49cd-9da3-22e867a810f3","system_id":"levelo_inurba_marseille","lat":43.2975,"lon":5.41102,"is_reserved":false,"is_disabled":false,"rental_uris":{"android":"levelo://app?vid=93b49ebf-d9fa-49cd-9da3-22e867a810f3","ios":"levelo://app?vid=93b49ebf-d9fa-49cd-9da3-22e867a810f3"},"vehicle_type_id":"4","last_reported":1762791237,"current_range_meters":12000,"station_id":"","pricing_plan_id":"cebpf4jnsgd1na2vs0mg"},{"bike_id":"ffe050e8-e964-43f0-affe-fdb013a22c0b","system_id":"levelo_inurba_marseille","lat":43.28505,"lon":5.4839,"is_reserved":false,"is_disabled":false,"rental_uris":{"android":"levelo://app?vid=ffe050e8-e964-43f0-affe-fdb013a22c0b","ios":"levelo://app?vid=ffe050e8-e964-43f0-affe-fdb013a22c0b"},"vehicle_type_id":"4","last_reported":1762791237,"current_range_meters":12000,"station_id":"","pricing_plan_id":"cebpf4jnsgd1na2vs0mg"},{"bike_id":"ac8a8750-1d87-4cf8-9c77-e78b99da5512","system_id":"levelo_inurba_marseille","lat":43.23605,"lon":5.361713,"is_reserved":false,"is_disabled":false,"rental_uris":{"android":"levelo://app?vid=ac8a8750-1d87-4cf8-9c77-e78b99da5512","ios":"levelo://app?vid=ac8a8750-1d87-4cf8-9c77-e78b99da5512"},"vehicle_type_id":"4","last_reported":1762791237,"current_range_meters":12400,"station_id":"","pricing_plan_id":"cebpf4jnsgd1na2vs0mg"},{"bike_id":"896a0fc4-e98e-425f-b646-7db4d5ace172","system_id":"levelo_inurba_marseille","lat":43.3199,"lon":5.38155,"is_reserved":false,"is_disabled":false,"rental_uris":{"android":"levelo://app?vid=896a0fc4-e98e-425f-b646-7db4d5ace172","ios":"levelo://app?vid=896a0fc4-e98e-425f-b646-7db4d5ace172"},"vehicle_type_id":"4","last_reported":1762791237,"current_range_meters":12400,"station_id":"ce4bhr12rcd13ifvqhpg","pricing_plan_id":"cebpf4jnsgd1na2vs0mg"},{"bike_id":"d331b58f-0754-4181-93f7-d4d5e2f8b496","system_id":"levelo_inurba_marseille","lat":43.225347,"lon":5.348291,"is_reserved":false,"is_disabled":false,"rental_uris":{"android":"levelo://app?vid=d331b58f-0754-4181-93f7-d4d5e2f8b496","ios":"levelo://app?vid=d331b58f-0754-4181-93f7-d4d5e2f8b496"},"vehicle_type_id":"4","last_reported":1762791237,"current_range_meters":12400,"station_id":"","pricing_plan_id":"cebpf4jnsgd1na2vs0mg"},{"bike_id":"cdecce72-ca47-4f5c-a812-a65bf4828eb1","system_id":"levelo_inurba_marseille","lat":43.21755,"lon":5.34607,"is_reserved":false,"is_disabled":false,"rental_uris":{"android":"levelo://app?vid=cdecce72-ca47-4f5c-a812-a65bf4828eb1","ios":"levelo://app?vid=cdecce72-ca47-4f5c-a812-a65bf4828eb1"},"vehicle_type_id":"4","last_reported":1762791237,"current_range_meters":12400,"station_id":"st_cvj6r9ubvosntc0bgbag","pricing_plan_id":"cebpf4jnsgd1na2vs0mg"},{"bike_id":"aa8fa0f8-ea5e-4193-b26c-027982143826","system_id":"levelo_inurba_marseille","lat":43.302126,"lon":5.429879,"is_reserved":false,"is_disabled":false,"rental_uris":{"android":"levelo://app?vid=aa8fa0f8-ea5e-4193-b26c-027982143826","ios":"levelo://app?vid=aa8fa0f8-ea5e-4193-b26c-027982143826"},"vehicle_type_id":"4","last_reported":1762791237,"current_range_meters":12400,"station_id":"st_d3js3co5814s73ftftug","pricing_plan_id":"cebpf4jnsgd1na2vs0mg"},{"bike_id":"67f2fa69-092b-4faa-9e71-60eb752f5dfb","system_id":"levelo_inurba_marseille","lat":43.30255,"lon":5.37746,"is_reserved":false,"is_disabled":false,"rental_uris":{"android":"levelo://app?vid=67f2fa69-092b-4faa-9e71-60eb752f5dfb","ios":"levelo://app?vid=67f2fa69-092b-4faa-9e71-60eb752f5dfb"},"vehicle_type_id":"4","last_reported":1762791237,"current_range_meters":12800,"station_id":"","pricing_plan_id":"cebpf4jnsgd1na2vs0mg"},{"bike_id":"2d003246-289e-4235-87e3-d86a55465f5e","system_id":"levelo_inurba_marseille","lat":43.29892,"lon":5.37537,"is_reserved":false,"is_disabled":false,"rental_uris":{"android":"levelo://app?vid=2d003246-289e-4235-87e3-d86a55465f5e","ios":"levelo://app?vid=2d003246-289e-4235-87e3-d86a55465f5e"},"vehicle_type_id":"4","last_reported":1762791237,"current_range_meters":12800,"station_id":"","pricing_plan_id":"cebpf4jnsgd1na2vs0mg"},{"bike_id":"a2261492-19dd-44fa-8c32-b4eeed495387","system_id":"levelo_inurba_marseille","lat":43.29857,"lon":5.36296,"is_reserved":false,"is_disabled":false,"rental_uris":{"android":"levelo://app?vid=a2261492-19dd-44fa-8c32-b4eeed495387","ios":"levelo://app?vid=a2261492-19dd-44fa-8c32-b4eeed495387"},"vehicle_type_id":"4","last_reported":1762791237,"current_range_meters":12800,"station_id":"ce4bgpp2rcd13ifvqc3g","pricing_plan_id":"cebpf4jnsgd1na2vs0mg"},{"bike_id":"d6b75172-a54d-43ca-b697-6718fd745d98","system_id":"levelo_inurba_marseille","lat":43.211877,"lon":5.350794,"is_reserved":false,"is_disabled":false,"rental_uris":{"android":"levelo://app?vid=d6b75172-a54d-43ca-b697-6718fd745d98","ios":"levelo://app?vid=d6b75172-a54d-43ca-b697-6718fd745d98"},"vehicle_type_id":"4","last_reported":1762791237,"current_range_meters":12800,"station_id":"st_cvj6sg6p6f1abm77japg","pricing_plan_id":"cebpf4jnsgd1na2vs0mg"},{"bike_id":"b322edd8-41b3-4c50-bb23-c3b346b1f0f1","system_id":"levelo_inurba_marseille","lat":43.31165,"lon":5.38721,"is_reserved":false,"is_disabled":false,"rental_uris":{"android":"levelo://app?vid=b322edd8-41b3-4c50-bb23-c3b346b1f0f1","ios":"levelo://app?vid=b322edd8-41b3-4c50-bb23-c3b346b1f0f1"},"vehicle_type_id":"4","last_reported":1762791237,"current_range_meters":13600,"station_id":"ce4bgv12rcd13ifvqcp0","pricing_plan_id":"cebpf4jnsgd1na2vs0mg"},{"bike_id":"6bee480e-c68e-46c7-b3b8-7f110436cc8a","system_id":"levelo_inurba_marseille","lat":43.21746,"lon":5.34615,"is_reserved":false,"is_disabled":false,"rental_uris":{"android":"levelo://app?vid=6bee480e-c68e-46c7-b3b8-7f110436cc8a","ios":"levelo://app?vid=6bee480e-c68e-46c7-b3b8-7f110436cc8a"},"vehicle_type_id":"4","last_reported":1762791237,"current_range_meters":13600,"station_id":"st_cvj6r9ubvosntc0bgbag","pricing_plan_id":"cebpf4jnsgd1na2vs0mg"},{"bike_id":"81ae76cc-b801-4759-b58f-2b51d812735a","system_id":"levelo_inurba_marseille","lat":43.21752,"lon":5.34602,"is_reserved":false,"is_disabled":false,"rental_uris":{"android":"levelo://app?vid=81ae76cc-b801-4759-b58f-2b51d812735a","ios":"levelo://app?vid=81ae76cc-b801-4759-b58f-2b51d812735a"},"vehicle_type_id":"4","last_reported":1762791237,"current_range_meters":13600,"station_id":"st_cvj6r9ubvosntc0bgbag","pricing_plan_id":"cebpf4jnsgd1na2vs0mg"},{"bike_id":"6c1421f5-c95f-4762-9c4b-bceffee32891","system_id":"levelo_inurba_marseille","lat":43.31265,"lon":5.40173,"is_reserved":false,"is_disabled":false,"rental_uris":{"android":"levelo://app?vid=6c1421f5-c95f-4762-9c4b-bceffee32891","ios":"levelo://app?vid=6c1421f5-c95f-4762-9c4b-bceffee32891"},"vehicle_type_id":"4","last_reported":1762791237,"current_range_meters":13600,"station_id":"ce4bh092rcd13ifvqd30","pricing_plan_id":"cebpf4jnsgd1na2vs0mg"},{"bike_id":"bb673994-b9ec-4ca4-a388-67c43209657a","system_id":"levelo_inurba_marseille","lat":43.30728,"lon":5.36846,"is_reserved":false,"is_disabled":false,"rental_uris":{"android":"levelo://app?vid=bb673994-b9ec-4ca4-a388-67c43209657a","ios":"levelo://app?vid=bb673994-b9ec-4ca4-a388-67c43209657a"},"vehicle_type_id":"4","last_reported":1762791237,"current_range_meters":13600,"station_id":"","pricing_plan_id":"cebpf4jnsgd1na2vs0mg"},{"bike_id":"9fc59d22-8e56-48e1-b7b6-6b21b0982bb9","system_id":"levelo_inurba_marseille","lat":43.23193,"lon":5.35549,"is_reserved":false,"is_disabled":false,"rental_uris":{"android":"levelo://app?vid=9fc59d22-8e56-48e1-b7b6-6b21b0982bb9","ios":"levelo://app?vid=9fc59d22-8e56-48e1-b7b6-6b21b0982bb9"},"vehicle_type_id":"4","last_reported":1762791237,"current_range_meters":13600,"station_id":"ce4bhu92rcd13ifvqi70","pricing_plan_id":"cebpf4jnsgd1na2vs0mg"},{"bike_id":"fb0e6bea-d078-4452-905b-07db49a4858c","system_id":"levelo_inurba_marseille","lat":43.28492,"lon":5.48424,"is_reserved":false,"is_disabled":false,"rental_uris":{"android":"levelo://app?vid=fb0e6bea-d078-4452-905b-07db49a4858c","ios":"levelo://app?vid=fb0e6bea-d078-4452-905b-07db49a4858c"},"vehicle_type_id":"4","last_reported":1762791237,"current_range_meters":13600,"station_id":"","pricing_plan_id":"cebpf4jnsgd1na2vs0mg"},{"bike_id":"3a04f9c7-e08e-4429-8b60-3f57df5d4f6c","system_id":"levelo_inurba_marseille","lat":43.33161,"lon":5.37691,"is_reserved":false,"is_disabled":false,"rental_uris":{"android":"levelo://app?vid=3a04f9c7-e08e-4429-8b60-3f57df5d4f6c","ios":"levelo://app?vid=3a04f9c7-e08e-4429-8b60-3f57df5d4f6c"},"vehicle_type_id":"4","last_reported":1762791237,"current_range_meters":13600,"station_id":"st_d46cu089ee8s73dldbu0","pricing_plan_id":"cebpf4jnsgd1na2vs0mg"},{"bike_id":"67c259b9-1cc9-4957-8775-70cc5161cad2","system_id":"levelo_inurba_marseille","lat":43.29036,"lon":5.35899,"is_reserved":false,"is_disabled":false,"rental_uris":{"android":"levelo://app?vid=67c259b9-1cc9-4957-8775-70cc5161cad2","ios":"levelo://app?vid=67c259b9-1cc9-4957-8775-70cc5161cad2"},"vehicle_type_id":"4","last_reported":1762791237,"current_range_meters":13600,"station_id":"ce4bha92rcd13ifvqeg0","pricing_plan_id":"cebpf4jnsgd1na2vs0mg"},{"bike_id":"d8dfdd66-a01d-4c55-9652-b437788bc1d1","system_id":"levelo_inurba_marseille","lat":43.30135,"lon":5.3878,"is_reserved":false,"is_disabled":false,"rental_uris":{"android":"levelo://app?vid=d8dfdd66-a01d-4c55-9652-b437788bc1d1","ios":"levelo://app?vid=d8dfdd66-a01d-4c55-9652-b437788bc1d1"},"vehicle_type_id":"4","last_reported":1762791237,"current_range_meters":13600,"station_id":"ce4bghh2rcd13ifvqb60","pricing_plan_id":"cebpf4jnsgd1na2vs0mg"},{"bike_id":"3bf04d76-8a3e-4747-a598-1c1f45ccf5d2","system_id":"levelo_inurba_marseille","lat":43.303511,"lon":5.418708,"is_reserved":false,"is_disabled":false,"rental_uris":{"android":"levelo://app?vid=3bf04d76-8a3e-4747-a598-1c1f45ccf5d2","ios":"levelo://app?vid=3bf04d76-8a3e-4747-a598-1c1f45ccf5d2"},"vehicle_type_id":"4","last_reported":1762791237,"current_range_meters":14000,"station_id":"ce4bhop2rcd13ifvqh7g","pricing_plan_id":"cebpf4jnsgd1na2vs0mg"},{"bike_id":"5af565ad-c9b8-481d-bb32-a7cb01ac4ae0","system_id":"levelo_inurba_marseille","lat":43.282246,"lon":5.39089,"is_reserved":false,"is_disabled":false,"rental_uris":{"android":"levelo://app?vid=5af565ad-c9b8-481d-bb32-a7cb01ac4ae0","ios":"levelo://app?vid=5af565ad-c9b8-481d-bb32-a7cb01ac4ae0"},"vehicle_type_id":"4","last_reported":1762791237,"current_range_meters":14000,"station_id":"ce4bhn92rcd13ifvqgsg","pricing_plan_id":"cebpf4jnsgd1na2vs0mg"},{"bike_id":"104a8ea7-8560-4c4c-a07e-3aba5ee7fc10","system_id":"levelo_inurba_marseille","lat":43.28847,"lon":5.35854,"is_reserved":false,"is_disabled":false,"rental_uris":{"android":"levelo://app?vid=104a8ea7-8560-4c4c-a07e-3aba5ee7fc10","ios":"levelo://app?vid=104a8ea7-8560-4c4c-a07e-3aba5ee7fc10"},"vehicle_type_id":"4","last_reported":1762791237,"current_range_meters":14000,"station_id":"ce4bhb12rcd13ifvqem0","pricing_plan_id":"cebpf4jnsgd1na2vs0mg"},{"bike_id":"159c4104-e089-4a2c-91f1-c59a05fd82f0","system_id":"levelo_inurba_marseille","lat":43.25487,"lon":5.37683,"is_reserved":false,"is_disabled":false,"rental_uris":{"android":"levelo://app?vid=159c4104-e089-4a2c-91f1-c59a05fd82f0","ios":"levelo://app?vid=159c4104-e089-4a2c-91f1-c59a05fd82f0"},"vehicle_type_id":"4","last_reported":1762791237,"current_range_meters":14000,"station_id":"ce4bhh12rcd13ifvqff0","pricing_plan_id":"cebpf4jnsgd1na2vs0mg"},{"bike_id":"e3ca31e7-8c60-464d-95fd-3aad12a4aaf3","system_id":"levelo_inurba_marseille","lat":43.30962,"lon":5.38294,"is_reserved":false,"is_disabled":false,"rental_uris":{"android":"levelo://app?vid=e3ca31e7-8c60-464d-95fd-3aad12a4aaf3","ios":"levelo://app?vid=e3ca31e7-8c60-464d-95fd-3aad12a4aaf3"},"vehicle_type_id":"4","last_reported":1762791237,"current_range_meters":14000,"station_id":"","pricing_plan_id":"cebpf4jnsgd1na2vs0mg"},{"bike_id":"9c241647-20ac-4941-8d18-01a6e3add973","system_id":"levelo_inurba_marseille","lat":43.24543,"lon":5.39514,"is_reserved":false,"is_disabled":true,"rental_uris":{"android":"levelo://app?vid=9c241647-20ac-4941-8d18-01a6e3add973","ios":"levelo://app?vid=9c241647-20ac-4941-8d18-01a6e3add973"},"vehicle_type_id":"4","last_reported":1762791237,"current_range_meters":14000,"station_id":"ce4bhlp2rcd13ifvqgjg","pricing_plan_id":"cebpf4jnsgd1na2vs0mg"},{"bike_id":"c3db6e6d-9046-481c-a6cf-d12221ddc069","system_id":"levelo_inurba_marseille","lat":43.2694,"lon":5.38922,"is_reserved":false,"is_disabled":false,"rental_uris":{"android":"levelo://app?vid=c3db6e6d-9046-481c-a6cf-d12221ddc069","ios":"levelo://app?vid=c3db6e6d-9046-481c-a6cf-d12221ddc069"},"vehicle_type_id":"4","last_reported":1762791237,"current_range_meters":14000,"station_id":"ce4bhhh2rcd13ifvqfl0","pricing_plan_id":"cebpf4jnsgd1na2vs0mg"},{"bike_id":"58a85a86-e839-4f79-a793-de6539b95499","system_id":"levelo_inurba_marseille","lat":43.21194,"lon":5.35077,"is_reserved":false,"is_disabled":false,"rental_uris":{"android":"levelo://app?vid=58a85a86-e839-4f79-a793-de6539b95499","ios":"levelo://app?vid=58a85a86-e839-4f79-a793-de6539b95499"},"vehicle_type_id":"4","last_reported":1762791237,"current_range_meters":14000,"station_id":"","pricing_plan_id":"cebpf4jnsgd1na2vs0mg"},{"bike_id":"75ff6b8b-a430-4977-b1df-df468c72e267","system_id":"levelo_inurba_marseille","lat":43.291737,"lon":5.371669,"is_reserved":false,"is_disabled":false,"rental_uris":{"android":"levelo://app?vid=75ff6b8b-a430-4977-b1df-df468c72e267","ios":"levelo://app?vid=75ff6b8b-a430-4977-b1df-df468c72e267"},"vehicle_type_id":"4","last_reported":1762791237,"current_range_meters":14400,"station_id":"ce4bha92rcd13ifvqeh0","pricing_plan_id":"cebpf4jnsgd1na2vs0mg"},{"bike_id":"d846811f-31c7-4330-933e-ea7ae3c932e9","system_id":"levelo_inurba_marseille","lat":43.27191,"lon":5.40995,"is_reserved":false,"is_disabled":false,"rental_uris":{"android":"levelo://app?vid=d846811f-31c7-4330-933e-ea7ae3c932e9","ios":"levelo://app?vid=d846811f-31c7-4330-933e-ea7ae3c932e9"},"vehicle_type_id":"4","last_reported":1762791237,"current_range_meters":14400,"station_id":"ce4bhl12rcd13ifvqgf0","pricing_plan_id":"cebpf4jnsgd1na2vs0mg"},{"bike_id":"14ae8280-220d-4b5f-b74a-98c3bf5b5927","system_id":"levelo_inurba_marseille","lat":43.29615,"lon":5.37722,"is_reserved":false,"is_disabled":true,"rental_uris":{"android":"levelo://app?vid=14ae8280-220d-4b5f-b74a-98c3bf5b5927","ios":"levelo://app?vid=14ae8280-220d-4b5f-b74a-98c3bf5b5927"},"vehicle_type_id":"4","last_reported":1762791237,"current_range_meters":14400,"station_id":"ce4bgi92rcd13ifvqb90","pricing_plan_id":"cebpf4jnsgd1na2vs0mg"},{"bike_id":"1086c95b-b74f-4e99-9e15-ae33be8101e5","system_id":"levelo_inurba_marseille","lat":43.30153,"lon":5.37633,"is_reserved":false,"is_disabled":false,"rental_uris":{"android":"levelo://app?vid=1086c95b-b74f-4e99-9e15-ae33be8101e5","ios":"levelo://app?vid=1086c95b-b74f-4e99-9e15-ae33be8101e5"},"vehicle_type_id":"4","last_reported":1762791237,"current_range_meters":14400,"station_id":"","pricing_plan_id":"cebpf4jnsgd1na2vs0mg"},{"bike_id":"58fb6238-6290-4ab6-adff-ce9b271870f4","system_id":"levelo_inurba_marseille","lat":43.29566,"lon":5.37523,"is_reserved":false,"is_disabled":false,"rental_uris":{"android":"levelo://app?vid=58fb6238-6290-4ab6-adff-ce9b271870f4","ios":"levelo://app?vid=58fb6238-6290-4ab6-adff-ce9b271870f4"},"vehicle_type_id":"4","last_reported":1762791237,"current_range_meters":14400,"station_id":"ce4bgh92rcd13ifvqb50","pricing_plan_id":"cebpf4jnsgd1na2vs0mg"},{"bike_id":"9e0a01a6-a037-44c8-9e6a-9fe856216f86","system_id":"levelo_inurba_marseille","lat":43.217475,"lon":5.346025,"is_reserved":false,"is_disabled":false,"rental_uris":{"android":"levelo://app?vid=9e0a01a6-a037-44c8-9e6a-9fe856216f86","ios":"levelo://app?vid=9e0a01a6-a037-44c8-9e6a-9fe856216f86"},"vehicle_type_id":"4","last_reported":1762791237,"current_range_meters":14400,"station_id":"st_cvj6r9ubvosntc0bgbag","pricing_plan_id":"cebpf4jnsgd1na2vs0mg"},{"bike_id":"a33005c1-f643-4adb-8bee-fa011c7be68c","system_id":"levelo_inurba_marseille","lat":43.22532,"lon":5.34831,"is_reserved":false,"is_disabled":false,"rental_uris":{"android":"levelo://app?vid=a33005c1-f643-4adb-8bee-fa011c7be68c","ios":"levelo://app?vid=a33005c1-f643-4adb-8bee-fa011c7be68c"},"vehicle_type_id":"4","last_reported":1762791237,"current_range_meters":14400,"station_id":"","pricing_plan_id":"cebpf4jnsgd1na2vs0mg"},{"bike_id":"e2b0c165-8514-4433-9a73-488c0c2dffa5","system_id":"levelo_inurba_marseille","lat":43.26554,"lon":5.37286,"is_reserved":false,"is_disabled":false,"rental_uris":{"android":"levelo://app?vid=e2b0c165-8514-4433-9a73-488c0c2dffa5","ios":"levelo://app?vid=e2b0c165-8514-4433-9a73-488c0c2dffa5"},"vehicle_type_id":"4","last_reported":1762791237,"current_range_meters":14400,"station_id":"ce4bhg12rcd13ifvqf70","pricing_plan_id":"cebpf4jnsgd1na2vs0mg"},{"bike_id":"1b075aea-0b10-440a-bbdf-54aed2926edf","system_id":"levelo_inurba_marseille","lat":43.24814,"lon":5.37462,"is_reserved":false,"is_disabled":false,"rental_uris":{"android":"levelo://app?vid=1b075aea-0b10-440a-bbdf-54aed2926edf","ios":"levelo://app?vid=1b075aea-0b10-440a-bbdf-54aed2926edf"},"vehicle_type_id":"4","last_reported":1762791237,"current_range_meters":14400,"station_id":"ce4bhgh2rcd13ifvqfb0","pricing_plan_id":"cebpf4jnsgd1na2vs0mg"},{"bike_id":"1ff0b17a-aa76-456a-909c-a9b5ead8f597","system_id":"levelo_inurba_marseille","lat":43.29687,"lon":5.37298,"is_reserved":false,"is_disabled":false,"rental_uris":{"android":"levelo://app?vid=1ff0b17a-aa76-456a-909c-a9b5ead8f597","ios":"levelo://app?vid=1ff0b17a-aa76-456a-909c-a9b5ead8f597"},"vehicle_type_id":"4","last_reported":1762791237,"current_range_meters":14400,"station_id":"ce4bgk12rcd13ifvqbj0","pricing_plan_id":"cebpf4jnsgd1na2vs0mg"},{"bike_id":"bab1d297-0aed-4c46-b021-bc1fc4ba390c","system_id":"levelo_inurba_marseille","lat":43.21757,"lon":5.34629,"is_reserved":false,"is_disabled":false,"rental_uris":{"android":"levelo://app?vid=bab1d297-0aed-4c46-b021-bc1fc4ba390c","ios":"levelo://app?vid=bab1d297-0aed-4c46-b021-bc1fc4ba390c"},"vehicle_type_id":"4","last_reported":1762791237,"current_range_meters":14400,"station_id":"st_cvj6r9ubvosntc0bgbag","pricing_plan_id":"cebpf4jnsgd1na2vs0mg"},{"bike_id":"98de6f58-4e25-4b08-9f16-f050e83a5404","system_id":"levelo_inurba_marseille","lat":43.3055,"lon":5.38428,"is_reserved":false,"is_disabled":false,"rental_uris":{"android":"levelo://app?vid=98de6f58-4e25-4b08-9f16-f050e83a5404","ios":"levelo://app?vid=98de6f58-4e25-4b08-9f16-f050e83a5404"},"vehicle_type_id":"4","last_reported":1762791237,"current_range_meters":14400,"station_id":"ce4bgg92rcd13ifvqb30","pricing_plan_id":"cebpf4jnsgd1na2vs0mg"},{"bike_id":"4ef56f27-b618-4191-843e-9c861890082c","system_id":"levelo_inurba_marseille","lat":43.285578,"lon":5.392522,"is_reserved":false,"is_disabled":true,"rental_uris":{"android":"levelo://app?vid=4ef56f27-b618-4191-843e-9c861890082c","ios":"levelo://app?vid=4ef56f27-b618-4191-843e-9c861890082c"},"vehicle_type_id":"4","last_reported":1762791237,"current_range_meters":14400,"station_id":"","pricing_plan_id":"cebpf4jnsgd1na2vs0mg"},{"bike_id":"9be94b56-15ef-463f-ba7e-e63df6171cb1","system_id":"levelo_inurba_marseille","lat":43.21762,"lon":5.34599,"is_reserved":false,"is_disabled":false,"rental_uris":{"android":"levelo://app?vid=9be94b56-15ef-463f-ba7e-e63df6171cb1","ios":"levelo://app?vid=9be94b56-15ef-463f-ba7e-e63df6171cb1"},"vehicle_type_id":"4","last_reported":1762791237,"current_range_meters":14400,"station_id":"st_cvj6r9ubvosntc0bgbag","pricing_plan_id":"cebpf4jnsgd1na2vs0mg"},{"bike_id":"b7589c36-c725-4ae0-a367-12f6a2c5f1ef","system_id":"levelo_inurba_marseille","lat":43.29832,"lon":5.44127,"is_reserved":false,"is_disabled":false,"rental_uris":{"android":"levelo://app?vid=b7589c36-c725-4ae0-a367-12f6a2c5f1ef","ios":"levelo://app?vid=b7589c36-c725-4ae0-a367-12f6a2c5f1ef"},"vehicle_type_id":"4","last_reported":1762791237,"current_range_meters":14800,"station_id":"st_d3jp68qikq2c7381ktn0","pricing_plan_id":"cebpf4jnsgd1na2vs0mg"},{"bike_id":"e1e9f0bd-4a15-4b7a-abb6-f1a053a60e6f","system_id":"levelo_inurba_marseille","lat":43.30509,"lon":5.36568,"is_reserved":false,"is_disabled":false,"rental_uris":{"android":"levelo://app?vid=e1e9f0bd-4a15-4b7a-abb6-f1a053a60e6f","ios":"levelo://app?vid=e1e9f0bd-4a15-4b7a-abb6-f1a053a60e6f"},"vehicle_type_id":"4","last_reported":1762791237,"current_range_meters":14800,"station_id":"","pricing_plan_id":"cebpf4jnsgd1na2vs0mg"},{"bike_id":"4d4366cf-0ebe-47b7-97d9-577dea27330e","system_id":"levelo_inurba_marseille","lat":43.31996,"lon":5.3815,"is_reserved":false,"is_disabled":false,"rental_uris":{"android":"levelo://app?vid=4d4366cf-0ebe-47b7-97d9-577dea27330e","ios":"levelo://app?vid=4d4366cf-0ebe-47b7-97d9-577dea27330e"},"vehicle_type_id":"4","last_reported":1762791237,"current_range_meters":14800,"station_id":"ce4bhr12rcd13ifvqhpg","pricing_plan_id":"cebpf4jnsgd1na2vs0mg"},{"bike_id":"57884861-8ae1-4d3e-b0a3-fc28a0a09aa3","system_id":"levelo_inurba_marseille","lat":43.289387,"lon":5.366412,"is_reserved":false,"is_disabled":false,"rental_uris":{"android":"levelo://app?vid=57884861-8ae1-4d3e-b0a3-fc28a0a09aa3","ios":"levelo://app?vid=57884861-8ae1-4d3e-b0a3-fc28a0a09aa3"},"vehicle_type_id":"4","last_reported":1762791237,"current_range_meters":14800,"station_id":"ce4bhap2rcd13ifvqek0","pricing_plan_id":"cebpf4jnsgd1na2vs0mg"},{"bike_id":"5673b59c-58a6-4ac5-a201-967cb72d726c","system_id":"levelo_inurba_marseille","lat":43.30542,"lon":5.36554,"is_reserved":false,"is_disabled":false,"rental_uris":{"android":"levelo://app?vid=5673b59c-58a6-4ac5-a201-967cb72d726c","ios":"levelo://app?vid=5673b59c-58a6-4ac5-a201-967cb72d726c"},"vehicle_type_id":"4","last_reported":1762791237,"current_range_meters":14800,"station_id":"ce4bgs12rcd13ifvqcag","pricing_plan_id":"cebpf4jnsgd1na2vs0mg"},{"bike_id":"a898f1e2-4945-45ff-987f-c215df688cac","system_id":"levelo_inurba_marseille","lat":43.24168,"lon":5.36391,"is_reserved":false,"is_disabled":false,"rental_uris":{"android":"levelo://app?vid=a898f1e2-4945-45ff-987f-c215df688cac","ios":"levelo://app?vid=a898f1e2-4945-45ff-987f-c215df688cac"},"vehicle_type_id":"4","last_reported":1762791237,"current_range_meters":15200,"station_id":"cpo36qri1sfpv3e86is0","pricing_plan_id":"cebpf4jnsgd1na2vs0mg"},{"bike_id":"c88172e6-9ca8-4917-9fec-dae0082b9849","system_id":"levelo_inurba_marseille","lat":43.23056,"lon":5.35493,"is_reserved":false,"is_disabled":false,"rental_uris":{"android":"levelo://app?vid=c88172e6-9ca8-4917-9fec-dae0082b9849","ios":"levelo://app?vid=c88172e6-9ca8-4917-9fec-dae0082b9849"},"vehicle_type_id":"4","last_reported":1762791237,"current_range_meters":15200,"station_id":"cpo3342slgdg3j2ifvpg","pricing_plan_id":"cebpf4jnsgd1na2vs0mg"},{"bike_id":"872853c9-5d73-4189-b734-b0ebe8477393","system_id":"levelo_inurba_marseille","lat":43.24651,"lon":5.38891,"is_reserved":false,"is_disabled":false,"rental_uris":{"android":"levelo://app?vid=872853c9-5d73-4189-b734-b0ebe8477393","ios":"levelo://app?vid=872853c9-5d73-4189-b734-b0ebe8477393"},"vehicle_type_id":"4","last_reported":1762791237,"current_range_meters":15200,"station_id":"ce4bhg12rcd13ifvqf60","pricing_plan_id":"cebpf4jnsgd1na2vs0mg"},{"bike_id":"be86220c-6cab-43c0-bc05-fd5e693109a4","system_id":"levelo_inurba_marseille","lat":43.295312,"lon":5.385407,"is_reserved":false,"is_disabled":false,"rental_uris":{"android":"levelo://app?vid=be86220c-6cab-43c0-bc05-fd5e693109a4","ios":"levelo://app?vid=be86220c-6cab-43c0-bc05-fd5e693109a4"},"vehicle_type_id":"4","last_reported":1762791237,"current_range_meters":15200,"station_id":"ce4bgih2rcd13ifvqba0","pricing_plan_id":"cebpf4jnsgd1na2vs0mg"},{"bike_id":"eedb423e-2fb5-4418-a04b-9619fd29043a","system_id":"levelo_inurba_marseille","lat":43.27995,"lon":5.41672,"is_reserved":false,"is_disabled":false,"rental_uris":{"android":"levelo://app?vid=eedb423e-2fb5-4418-a04b-9619fd29043a","ios":"levelo://app?vid=eedb423e-2fb5-4418-a04b-9619fd29043a"},"vehicle_type_id":"4","last_reported":1762791237,"current_range_meters":16000,"station_id":"ce4bho12rcd13ifvqh1g","pricing_plan_id":"cebpf4jnsgd1na2vs0mg"},{"bike_id":"8746ee26-c15a-4e99-a9a2-50ae618fccb0","system_id":"levelo_inurba_marseille","lat":43.279354,"lon":5.410356,"is_reserved":false,"is_disabled":false,"rental_uris":{"android":"levelo://app?vid=8746ee26-c15a-4e99-a9a2-50ae618fccb0","ios":"levelo://app?vid=8746ee26-c15a-4e99-a9a2-50ae618fccb0"},"vehicle_type_id":"4","last_reported":1762791237,"current_range_meters":16000,"station_id":"ce4bhnp2rcd13ifvqh0g","pricing_plan_id":"cebpf4jnsgd1na2vs0mg"},{"bike_id":"50bd906f-f66c-4773-8e69-65d41802e55d","system_id":"levelo_inurba_marseille","lat":43.22533,"lon":5.34834,"is_reserved":false,"is_disabled":false,"rental_uris":{"android":"levelo://app?vid=50bd906f-f66c-4773-8e69-65d41802e55d","ios":"levelo://app?vid=50bd906f-f66c-4773-8e69-65d41802e55d"},"vehicle_type_id":"4","last_reported":1762791237,"current_range_meters":16000,"station_id":"","pricing_plan_id":"cebpf4jnsgd1na2vs0mg"},{"bike_id":"1740e601-6169-4b0d-941c-5c00a3788f90","system_id":"levelo_inurba_marseille","lat":43.295156,"lon":5.374385,"is_reserved":false,"is_disabled":false,"rental_uris":{"android":"levelo://app?vid=1740e601-6169-4b0d-941c-5c00a3788f90","ios":"levelo://app?vid=1740e601-6169-4b0d-941c-5c00a3788f90"},"vehicle_type_id":"4","last_reported":1762791237,"current_range_meters":16000,"station_id":"ce4bhb92rcd13ifvqen0","pricing_plan_id":"cebpf4jnsgd1na2vs0mg"},{"bike_id":"99d9d76d-d94f-48e3-abc3-f50dd41e3269","system_id":"levelo_inurba_marseille","lat":43.311453,"lon":5.383403,"is_reserved":false,"is_disabled":false,"rental_uris":{"android":"levelo://app?vid=99d9d76d-d94f-48e3-abc3-f50dd41e3269","ios":"levelo://app?vid=99d9d76d-d94f-48e3-abc3-f50dd41e3269"},"vehicle_type_id":"4","last_reported":1762791237,"current_range_meters":16000,"station_id":"","pricing_plan_id":"cebpf4jnsgd1na2vs0mg"},{"bike_id":"7f14d21d-9e16-4961-9d70-b10fd067921a","system_id":"levelo_inurba_marseille","lat":43.217475,"lon":5.346026,"is_reserved":false,"is_disabled":false,"rental_uris":{"android":"levelo://app?vid=7f14d21d-9e16-4961-9d70-b10fd067921a","ios":"levelo://app?vid=7f14d21d-9e16-4961-9d70-b10fd067921a"},"vehicle_type_id":"4","last_reported":1762791237,"current_range_meters":16000,"station_id":"st_cvj6r9ubvosntc0bgbag","pricing_plan_id":"cebpf4jnsgd1na2vs0mg"},{"bike_id":"2004bb09-4882-4da5-9716-547c3e2bf4d2","system_id":"levelo_inurba_marseille","lat":43.2762,"lon":5.36103,"is_reserved":false,"is_disabled":false,"rental_uris":{"android":"levelo://app?vid=2004bb09-4882-4da5-9716-547c3e2bf4d2","ios":"levelo://app?vid=2004bb09-4882-4da5-9716-547c3e2bf4d2"},"vehicle_type_id":"4","last_reported":1762791237,"current_range_meters":16000,"station_id":"ce4bgj92rcd13ifvqbe0","pricing_plan_id":"cebpf4jnsgd1na2vs0mg"},{"bike_id":"4b68d13f-f5d9-4b23-871f-a9d0ced8871b","system_id":"levelo_inurba_marseille","lat":43.31279,"lon":5.37816,"is_reserved":false,"is_disabled":false,"rental_uris":{"android":"levelo://app?vid=4b68d13f-f5d9-4b23-871f-a9d0ced8871b","ios":"levelo://app?vid=4b68d13f-f5d9-4b23-871f-a9d0ced8871b"},"vehicle_type_id":"4","last_reported":1762791237,"current_range_meters":16400,"station_id":"","pricing_plan_id":"cebpf4jnsgd1na2vs0mg"},{"bike_id":"09a68a1b-a707-4a02-8604-bad23bcca73b","system_id":"levelo_inurba_marseille","lat":43.309322,"lon":5.401366,"is_reserved":false,"is_disabled":false,"rental_uris":{"android":"levelo://app?vid=09a68a1b-a707-4a02-8604-bad23bcca73b","ios":"levelo://app?vid=09a68a1b-a707-4a02-8604-bad23bcca73b"},"vehicle_type_id":"4","last_reported":1762791237,"current_range_meters":16400,"station_id":"","pricing_plan_id":"cebpf4jnsgd1na2vs0mg"},{"bike_id":"61a747b1-6615-4fc9-8f2d-4096f4a80dfb","system_id":"levelo_inurba_marseille","lat":43.27197,"lon":5.39183,"is_reserved":false,"is_disabled":false,"rental_uris":{"android":"levelo://app?vid=61a747b1-6615-4fc9-8f2d-4096f4a80dfb","ios":"levelo://app?vid=61a747b1-6615-4fc9-8f2d-4096f4a80dfb"},"vehicle_type_id":"4","last_reported":1762791237,"current_range_meters":16400,"station_id":"ce4bhhp2rcd13ifvqfm0","pricing_plan_id":"cebpf4jnsgd1na2vs0mg"},{"bike_id":"1016aac3-b163-4bd4-b914-896c361c935b","system_id":"levelo_inurba_marseille","lat":43.32135,"lon":5.3885,"is_reserved":false,"is_disabled":false,"rental_uris":{"android":"levelo://app?vid=1016aac3-b163-4bd4-b914-896c361c935b","ios":"levelo://app?vid=1016aac3-b163-4bd4-b914-896c361c935b"},"vehicle_type_id":"4","last_reported":1762791237,"current_range_meters":16400,"station_id":"","pricing_plan_id":"cebpf4jnsgd1na2vs0mg"},{"bike_id":"1e600738-4a2f-42a1-aca3-21c16d5340e8","system_id":"levelo_inurba_marseille","lat":43.22928,"lon":5.35387,"is_reserved":false,"is_disabled":false,"rental_uris":{"android":"levelo://app?vid=1e600738-4a2f-42a1-aca3-21c16d5340e8","ios":"levelo://app?vid=1e600738-4a2f-42a1-aca3-21c16d5340e8"},"vehicle_type_id":"4","last_reported":1762791237,"current_range_meters":16400,"station_id":"cpo3532slgdg3j2ikp40","pricing_plan_id":"cebpf4jnsgd1na2vs0mg"},{"bike_id":"0001f610-ee0b-4dfa-a101-19ef82b4afb7","system_id":"levelo_inurba_marseille","lat":43.29821,"lon":5.44074,"is_reserved":false,"is_disabled":false,"rental_uris":{"android":"levelo://app?vid=0001f610-ee0b-4dfa-a101-19ef82b4afb7","ios":"levelo://app?vid=0001f610-ee0b-4dfa-a101-19ef82b4afb7"},"vehicle_type_id":"4","last_reported":1762791237,"current_range_meters":16400,"station_id":"st_d3jp68qikq2c7381ktn0","pricing_plan_id":"cebpf4jnsgd1na2vs0mg"},{"bike_id":"c751869d-88d7-4ecc-ad3b-3b4fb67325a0","system_id":"levelo_inurba_marseille","lat":43.287176,"lon":5.360863,"is_reserved":false,"is_disabled":false,"rental_uris":{"android":"levelo://app?vid=c751869d-88d7-4ecc-ad3b-3b4fb67325a0","ios":"levelo://app?vid=c751869d-88d7-4ecc-ad3b-3b4fb67325a0"},"vehicle_type_id":"4","last_reported":1762791237,"current_range_meters":16400,"station_id":"cki0cbj6b192h4jlfktg","pricing_plan_id":"cebpf4jnsgd1na2vs0mg"},{"bike_id":"180a70a9-8924-4885-9ca3-10c578c02589","system_id":"levelo_inurba_marseille","lat":43.22532,"lon":5.34844,"is_reserved":false,"is_disabled":false,"rental_uris":{"android":"levelo://app?vid=180a70a9-8924-4885-9ca3-10c578c02589","ios":"levelo://app?vid=180a70a9-8924-4885-9ca3-10c578c02589"},"vehicle_type_id":"4","last_reported":1762791237,"current_range_meters":16400,"station_id":"","pricing_plan_id":"cebpf4jnsgd1na2vs0mg"},{"bike_id":"096cdd72-f6cf-4a1a-9fed-102492f9041f","system_id":"levelo_inurba_marseille","lat":43.23183,"lon":5.39975,"is_reserved":false,"is_disabled":false,"rental_uris":{"android":"levelo://app?vid=096cdd72-f6cf-4a1a-9fed-102492f9041f","ios":"levelo://app?vid=096cdd72-f6cf-4a1a-9fed-102492f9041f"},"vehicle_type_id":"4","last_reported":1762791237,"current_range_meters":16400,"station_id":"ce4bhn12rcd13ifvqgqg","pricing_plan_id":"cebpf4jnsgd1na2vs0mg"},{"bike_id":"a9e23042-3751-4d17-8dc5-bb53a4aac4d8","system_id":"levelo_inurba_marseille","lat":43.23964,"lon":5.36628,"is_reserved":false,"is_disabled":false,"rental_uris":{"android":"levelo://app?vid=a9e23042-3751-4d17-8dc5-bb53a4aac4d8","ios":"levelo://app?vid=a9e23042-3751-4d17-8dc5-bb53a4aac4d8"},"vehicle_type_id":"4","last_reported":1762791237,"current_range_meters":16400,"station_id":"ce4bhi12rcd13ifvqfp0","pricing_plan_id":"cebpf4jnsgd1na2vs0mg"},{"bike_id":"d0e6dca0-8cc2-4be5-a96f-8aec054f1569","system_id":"levelo_inurba_marseille","lat":43.29519,"lon":5.39025,"is_reserved":false,"is_disabled":false,"rental_uris":{"android":"levelo://app?vid=d0e6dca0-8cc2-4be5-a96f-8aec054f1569","ios":"levelo://app?vid=d0e6dca0-8cc2-4be5-a96f-8aec054f1569"},"vehicle_type_id":"4","last_reported":1762791237,"current_range_meters":16400,"station_id":"ce4bh3p2rcd13ifvqdp0","pricing_plan_id":"cebpf4jnsgd1na2vs0mg"},{"bike_id":"c8c47a30-36f3-441a-ad0a-9aa6659b9a9d","system_id":"levelo_inurba_marseille","lat":43.231832,"lon":5.39991,"is_reserved":false,"is_disabled":false,"rental_uris":{"android":"levelo://app?vid=c8c47a30-36f3-441a-ad0a-9aa6659b9a9d","ios":"levelo://app?vid=c8c47a30-36f3-441a-ad0a-9aa6659b9a9d"},"vehicle_type_id":"4","last_reported":1762791237,"current_range_meters":16400,"station_id":"","pricing_plan_id":"cebpf4jnsgd1na2vs0mg"},{"bike_id":"c80766a6-aa9a-4c09-88b6-397546065fcc","system_id":"levelo_inurba_marseille","lat":43.23198,"lon":5.35554,"is_reserved":false,"is_disabled":false,"rental_uris":{"android":"levelo://app?vid=c80766a6-aa9a-4c09-88b6-397546065fcc","ios":"levelo://app?vid=c80766a6-aa9a-4c09-88b6-397546065fcc"},"vehicle_type_id":"4","last_reported":1762791237,"current_range_meters":16800,"station_id":"ce4bhu92rcd13ifvqi70","pricing_plan_id":"cebpf4jnsgd1na2vs0mg"},{"bike_id":"6ae87b41-3981-4b69-b43c-0b6bde62265a","system_id":"levelo_inurba_marseille","lat":43.33777,"lon":5.37436,"is_reserved":false,"is_disabled":false,"rental_uris":{"android":"levelo://app?vid=6ae87b41-3981-4b69-b43c-0b6bde62265a","ios":"levelo://app?vid=6ae87b41-3981-4b69-b43c-0b6bde62265a"},"vehicle_type_id":"4","last_reported":1762791237,"current_range_meters":16800,"station_id":"","pricing_plan_id":"cebpf4jnsgd1na2vs0mg"},{"bike_id":"42bbdb4f-c9b7-4299-b4a6-0178a6a32bf3","system_id":"levelo_inurba_marseille","lat":43.3183,"lon":5.37427,"is_reserved":false,"is_disabled":false,"rental_uris":{"android":"levelo://app?vid=42bbdb4f-c9b7-4299-b4a6-0178a6a32bf3","ios":"levelo://app?vid=42bbdb4f-c9b7-4299-b4a6-0178a6a32bf3"},"vehicle_type_id":"4","last_reported":1762791237,"current_range_meters":16800,"station_id":"","pricing_plan_id":"cebpf4jnsgd1na2vs0mg"},{"bike_id":"0cd796a8-0c8c-478b-8200-5117948e80d5","system_id":"levelo_inurba_marseille","lat":43.28612,"lon":5.37058,"is_reserved":false,"is_disabled":false,"rental_uris":{"android":"levelo://app?vid=0cd796a8-0c8c-478b-8200-5117948e80d5","ios":"levelo://app?vid=0cd796a8-0c8c-478b-8200-5117948e80d5"},"vehicle_type_id":"4","last_reported":1762791237,"current_range_meters":16800,"station_id":"ce4bht12rcd13ifvqi60","pricing_plan_id":"cebpf4jnsgd1na2vs0mg"},{"bike_id":"59a1a26b-d636-4ff0-97a1-f787cd99dca6","system_id":"levelo_inurba_marseille","lat":43.27061,"lon":5.38311,"is_reserved":false,"is_disabled":false,"rental_uris":{"android":"levelo://app?vid=59a1a26b-d636-4ff0-97a1-f787cd99dca6","ios":"levelo://app?vid=59a1a26b-d636-4ff0-97a1-f787cd99dca6"},"vehicle_type_id":"4","last_reported":1762791237,"current_range_meters":16800,"station_id":"st_d3n2fo6cfp8s73cte1j0","pricing_plan_id":"cebpf4jnsgd1na2vs0mg"},{"bike_id":"b15275c6-e462-4a0a-8caf-77a2cc56d365","system_id":"levelo_inurba_marseille","lat":43.211904,"lon":5.350849,"is_reserved":false,"is_disabled":false,"rental_uris":{"android":"levelo://app?vid=b15275c6-e462-4a0a-8caf-77a2cc56d365","ios":"levelo://app?vid=b15275c6-e462-4a0a-8caf-77a2cc56d365"},"vehicle_type_id":"4","last_reported":1762791237,"current_range_meters":16800,"station_id":"st_cvj6sg6p6f1abm77japg","pricing_plan_id":"cebpf4jnsgd1na2vs0mg"},{"bike_id":"4cae9d5c-a24c-41f1-9f54-aaa487e732a6","system_id":"levelo_inurba_marseille","lat":43.29997,"lon":5.38207,"is_reserved":false,"is_disabled":false,"rental_uris":{"android":"levelo://app?vid=4cae9d5c-a24c-41f1-9f54-aaa487e732a6","ios":"levelo://app?vid=4cae9d5c-a24c-41f1-9f54-aaa487e732a6"},"vehicle_type_id":"4","last_reported":1762791237,"current_range_meters":17200,"station_id":"","pricing_plan_id":"cebpf4jnsgd1na2vs0mg"},{"bike_id":"1d9f04ee-30f9-48f5-813a-8111ae4f151e","system_id":"levelo_inurba_marseille","lat":43.258638,"lon":5.398972,"is_reserved":false,"is_disabled":false,"rental_uris":{"android":"levelo://app?vid=1d9f04ee-30f9-48f5-813a-8111ae4f151e","ios":"levelo://app?vid=1d9f04ee-30f9-48f5-813a-8111ae4f151e"},"vehicle_type_id":"4","last_reported":1762791237,"current_range_meters":17200,"station_id":"ce4bhl92rcd13ifvqghg","pricing_plan_id":"cebpf4jnsgd1na2vs0mg"},{"bike_id":"84c68c0c-55cc-46e6-80e1-a5e28872cbed","system_id":"levelo_inurba_marseille","lat":43.29852,"lon":5.362787,"is_reserved":false,"is_disabled":false,"rental_uris":{"android":"levelo://app?vid=84c68c0c-55cc-46e6-80e1-a5e28872cbed","ios":"levelo://app?vid=84c68c0c-55cc-46e6-80e1-a5e28872cbed"},"vehicle_type_id":"4","last_reported":1762791237,"current_range_meters":17200,"station_id":"ce4bgpp2rcd13ifvqc3g","pricing_plan_id":"cebpf4jnsgd1na2vs0mg"},{"bike_id":"dd8a2bc7-7cbf-47c6-95e5-bb9af31fc942","system_id":"levelo_inurba_marseille","lat":43.21751,"lon":5.3461,"is_reserved":false,"is_disabled":false,"rental_uris":{"android":"levelo://app?vid=dd8a2bc7-7cbf-47c6-95e5-bb9af31fc942","ios":"levelo://app?vid=dd8a2bc7-7cbf-47c6-95e5-bb9af31fc942"},"vehicle_type_id":"4","last_reported":1762791237,"current_range_meters":17200,"station_id":"st_cvj6r9ubvosntc0bgbag","pricing_plan_id":"cebpf4jnsgd1na2vs0mg"},{"bike_id":"a1841d02-b053-4f88-89ac-a2a3e0997d3f","system_id":"levelo_inurba_marseille","lat":43.217466,"lon":5.346179,"is_reserved":false,"is_disabled":false,"rental_uris":{"android":"levelo://app?vid=a1841d02-b053-4f88-89ac-a2a3e0997d3f","ios":"levelo://app?vid=a1841d02-b053-4f88-89ac-a2a3e0997d3f"},"vehicle_type_id":"4","last_reported":1762791237,"current_range_meters":17200,"station_id":"st_cvj6r9ubvosntc0bgbag","pricing_plan_id":"cebpf4jnsgd1na2vs0mg"},{"bike_id":"cd537f87-a22a-4644-8f1f-c513567fb988","system_id":"levelo_inurba_marseille","lat":43.29196,"lon":5.35805,"is_reserved":false,"is_disabled":false,"rental_uris":{"android":"levelo://app?vid=cd537f87-a22a-4644-8f1f-c513567fb988","ios":"levelo://app?vid=cd537f87-a22a-4644-8f1f-c513567fb988"},"vehicle_type_id":"4","last_reported":1762791237,"current_range_meters":17200,"station_id":"ce4bhb12rcd13ifvqel0","pricing_plan_id":"cebpf4jnsgd1na2vs0mg"},{"bike_id":"122bdab4-68f6-41de-a130-9cd3d01ccdfd","system_id":"levelo_inurba_marseille","lat":43.22533,"lon":5.34829,"is_reserved":false,"is_disabled":false,"rental_uris":{"android":"levelo://app?vid=122bdab4-68f6-41de-a130-9cd3d01ccdfd","ios":"levelo://app?vid=122bdab4-68f6-41de-a130-9cd3d01ccdfd"},"vehicle_type_id":"4","last_reported":1762791237,"current_range_meters":17200,"station_id":"","pricing_plan_id":"cebpf4jnsgd1na2vs0mg"},{"bike_id":"d6325b22-12a4-40c6-a321-c9bc53f03cca","system_id":"levelo_inurba_marseille","lat":43.27371,"lon":5.3626,"is_reserved":false,"is_disabled":false,"rental_uris":{"android":"levelo://app?vid=d6325b22-12a4-40c6-a321-c9bc53f03cca","ios":"levelo://app?vid=d6325b22-12a4-40c6-a321-c9bc53f03cca"},"vehicle_type_id":"4","last_reported":1762791237,"current_range_meters":17200,"station_id":"ce4bhbh2rcd13ifvqeo0","pricing_plan_id":"cebpf4jnsgd1na2vs0mg"},{"bike_id":"0149239e-4708-4d3d-bb19-9f5a80313f08","system_id":"levelo_inurba_marseille","lat":43.33158,"lon":5.37681,"is_reserved":false,"is_disabled":false,"rental_uris":{"android":"levelo://app?vid=0149239e-4708-4d3d-bb19-9f5a80313f08","ios":"levelo://app?vid=0149239e-4708-4d3d-bb19-9f5a80313f08"},"vehicle_type_id":"4","last_reported":1762791237,"current_range_meters":17200,"station_id":"st_d46cu089ee8s73dldbu0","pricing_plan_id":"cebpf4jnsgd1na2vs0mg"},{"bike_id":"3e7bbb98-77d7-4b96-995c-d3e56f12c51d","system_id":"levelo_inurba_marseille","lat":43.21751,"lon":5.34616,"is_reserved":false,"is_disabled":false,"rental_uris":{"android":"levelo://app?vid=3e7bbb98-77d7-4b96-995c-d3e56f12c51d","ios":"levelo://app?vid=3e7bbb98-77d7-4b96-995c-d3e56f12c51d"},"vehicle_type_id":"4","last_reported":1762791237,"current_range_meters":17200,"station_id":"st_cvj6r9ubvosntc0bgbag","pricing_plan_id":"cebpf4jnsgd1na2vs0mg"},{"bike_id":"5f390cff-b9cf-4b0f-ac36-2c78575e12b3","system_id":"levelo_inurba_marseille","lat":43.29279,"lon":5.36848,"is_reserved":false,"is_disabled":false,"rental_uris":{"android":"levelo://app?vid=5f390cff-b9cf-4b0f-ac36-2c78575e12b3","ios":"levelo://app?vid=5f390cff-b9cf-4b0f-ac36-2c78575e12b3"},"vehicle_type_id":"4","last_reported":1762791237,"current_range_meters":17200,"station_id":"ce4bhbp2rcd13ifvqesg","pricing_plan_id":"cebpf4jnsgd1na2vs0mg"},{"bike_id":"851e52a7-7701-41a2-9335-4b4a9404896b","system_id":"levelo_inurba_marseille","lat":43.29813,"lon":5.4409,"is_reserved":false,"is_disabled":false,"rental_uris":{"android":"levelo://app?vid=851e52a7-7701-41a2-9335-4b4a9404896b","ios":"levelo://app?vid=851e52a7-7701-41a2-9335-4b4a9404896b"},"vehicle_type_id":"4","last_reported":1762791237,"current_range_meters":17200,"station_id":"st_d3jp68qikq2c7381ktn0","pricing_plan_id":"cebpf4jnsgd1na2vs0mg"},{"bike_id":"092f12b4-a68e-45a8-869b-9a1c2d7f0d5a","system_id":"levelo_inurba_marseille","lat":43.27941,"lon":5.41044,"is_reserved":false,"is_disabled":false,"rental_uris":{"android":"levelo://app?vid=092f12b4-a68e-45a8-869b-9a1c2d7f0d5a","ios":"levelo://app?vid=092f12b4-a68e-45a8-869b-9a1c2d7f0d5a"},"vehicle_type_id":"4","last_reported":1762791237,"current_range_meters":17200,"station_id":"ce4bhnp2rcd13ifvqh0g","pricing_plan_id":"cebpf4jnsgd1na2vs0mg"},{"bike_id":"9b074fe4-3bb3-4006-bfd4-2e3156b0f4f1","system_id":"levelo_inurba_marseille","lat":43.29851,"lon":5.3628,"is_reserved":false,"is_disabled":false,"rental_uris":{"android":"levelo://app?vid=9b074fe4-3bb3-4006-bfd4-2e3156b0f4f1","ios":"levelo://app?vid=9b074fe4-3bb3-4006-bfd4-2e3156b0f4f1"},"vehicle_type_id":"4","last_reported":1762791237,"current_range_meters":17600,"station_id":"ce4bgpp2rcd13ifvqc3g","pricing_plan_id":"cebpf4jnsgd1na2vs0mg"},{"bike_id":"1f1382a2-ead7-4f8f-9dc8-a3443f47860c","system_id":"levelo_inurba_marseille","lat":43.31225,"lon":5.36853,"is_reserved":false,"is_disabled":false,"rental_uris":{"android":"levelo://app?vid=1f1382a2-ead7-4f8f-9dc8-a3443f47860c","ios":"levelo://app?vid=1f1382a2-ead7-4f8f-9dc8-a3443f47860c"},"vehicle_type_id":"4","last_reported":1762791237,"current_range_meters":17600,"station_id":"ce4bgl92rcd13ifvqbq0","pricing_plan_id":"cebpf4jnsgd1na2vs0mg"},{"bike_id":"d610cd16-c813-406e-bee7-295ec8ce6047","system_id":"levelo_inurba_marseille","lat":43.33777,"lon":5.37468,"is_reserved":false,"is_disabled":false,"rental_uris":{"android":"levelo://app?vid=d610cd16-c813-406e-bee7-295ec8ce6047","ios":"levelo://app?vid=d610cd16-c813-406e-bee7-295ec8ce6047"},"vehicle_type_id":"4","last_reported":1762791237,"current_range_meters":17600,"station_id":"","pricing_plan_id":"cebpf4jnsgd1na2vs0mg"},{"bike_id":"05a6e820-1b29-422b-8b91-8e664efc7459","system_id":"levelo_inurba_marseille","lat":43.29038,"lon":5.35918,"is_reserved":false,"is_disabled":false,"rental_uris":{"android":"levelo://app?vid=05a6e820-1b29-422b-8b91-8e664efc7459","ios":"levelo://app?vid=05a6e820-1b29-422b-8b91-8e664efc7459"},"vehicle_type_id":"4","last_reported":1762791237,"current_range_meters":17600,"station_id":"ce4bha92rcd13ifvqeg0","pricing_plan_id":"cebpf4jnsgd1na2vs0mg"},{"bike_id":"5eb28dc9-1056-4fe2-a3f0-4c13efc57df0","system_id":"levelo_inurba_marseille","lat":43.25942,"lon":5.40913,"is_reserved":false,"is_disabled":true,"rental_uris":{"android":"levelo://app?vid=5eb28dc9-1056-4fe2-a3f0-4c13efc57df0","ios":"levelo://app?vid=5eb28dc9-1056-4fe2-a3f0-4c13efc57df0"},"vehicle_type_id":"4","last_reported":1762791237,"current_range_meters":17600,"station_id":"ce4bhm92rcd13ifvqglg","pricing_plan_id":"cebpf4jnsgd1na2vs0mg"},{"bike_id":"de4fb62f-15d0-4855-81af-2915ded8491c","system_id":"levelo_inurba_marseille","lat":43.2954,"lon":5.393757,"is_reserved":false,"is_disabled":false,"rental_uris":{"android":"levelo://app?vid=de4fb62f-15d0-4855-81af-2915ded8491c","ios":"levelo://app?vid=de4fb62f-15d0-4855-81af-2915ded8491c"},"vehicle_type_id":"4","last_reported":1762791237,"current_range_meters":17600,"station_id":"ce4bh292rcd13ifvqdf0","pricing_plan_id":"cebpf4jnsgd1na2vs0mg"},{"bike_id":"e6ed990b-ffaa-4a85-8575-9f8dadcdc09c","system_id":"levelo_inurba_marseille","lat":43.26584,"lon":5.37279,"is_reserved":false,"is_disabled":false,"rental_uris":{"android":"levelo://app?vid=e6ed990b-ffaa-4a85-8575-9f8dadcdc09c","ios":"levelo://app?vid=e6ed990b-ffaa-4a85-8575-9f8dadcdc09c"},"vehicle_type_id":"4","last_reported":1762791237,"current_range_meters":17600,"station_id":"","pricing_plan_id":"cebpf4jnsgd1na2vs0mg"},{"bike_id":"b513caa2-608a-4ce7-9a91-40550a5dbf60","system_id":"levelo_inurba_marseille","lat":43.31075,"lon":5.38354,"is_reserved":false,"is_disabled":false,"rental_uris":{"android":"levelo://app?vid=b513caa2-608a-4ce7-9a91-40550a5dbf60","ios":"levelo://app?vid=b513caa2-608a-4ce7-9a91-40550a5dbf60"},"vehicle_type_id":"4","last_reported":1762791237,"current_range_meters":18000,"station_id":"ce4bgv92rcd13ifvqcr0","pricing_plan_id":"cebpf4jnsgd1na2vs0mg"},{"bike_id":"96d132e6-f9ce-4bce-a02d-cee681ed88c4","system_id":"levelo_inurba_marseille","lat":43.26229,"lon":5.4046,"is_reserved":false,"is_disabled":false,"rental_uris":{"android":"levelo://app?vid=96d132e6-f9ce-4bce-a02d-cee681ed88c4","ios":"levelo://app?vid=96d132e6-f9ce-4bce-a02d-cee681ed88c4"},"vehicle_type_id":"4","last_reported":1762791237,"current_range_meters":18000,"station_id":"ce4bhmh2rcd13ifvqgmg","pricing_plan_id":"cebpf4jnsgd1na2vs0mg"},{"bike_id":"df1b4fbf-8cd2-4206-a5fa-e2fe21a275d9","system_id":"levelo_inurba_marseille","lat":43.28447,"lon":5.39211,"is_reserved":false,"is_disabled":false,"rental_uris":{"android":"levelo://app?vid=df1b4fbf-8cd2-4206-a5fa-e2fe21a275d9","ios":"levelo://app?vid=df1b4fbf-8cd2-4206-a5fa-e2fe21a275d9"},"vehicle_type_id":"4","last_reported":1762791237,"current_range_meters":18000,"station_id":"ce4bhoh2rcd13ifvqh5g","pricing_plan_id":"cebpf4jnsgd1na2vs0mg"},{"bike_id":"bacbce03-277f-4b77-bb9c-fa027a96e003","system_id":"levelo_inurba_marseille","lat":43.2174,"lon":5.34608,"is_reserved":false,"is_disabled":false,"rental_uris":{"android":"levelo://app?vid=bacbce03-277f-4b77-bb9c-fa027a96e003","ios":"levelo://app?vid=bacbce03-277f-4b77-bb9c-fa027a96e003"},"vehicle_type_id":"4","last_reported":1762791237,"current_range_meters":18000,"station_id":"st_cvj6r9ubvosntc0bgbag","pricing_plan_id":"cebpf4jnsgd1na2vs0mg"},{"bike_id":"e2ae78b6-0e45-4d14-be67-9fe3a6a70a8e","system_id":"levelo_inurba_marseille","lat":43.28974,"lon":5.37837,"is_reserved":false,"is_disabled":true,"rental_uris":{"android":"levelo://app?vid=e2ae78b6-0e45-4d14-be67-9fe3a6a70a8e","ios":"levelo://app?vid=e2ae78b6-0e45-4d14-be67-9fe3a6a70a8e"},"vehicle_type_id":"4","last_reported":1762791237,"current_range_meters":18000,"station_id":"ce4bh9p2rcd13ifvqed0","pricing_plan_id":"cebpf4jnsgd1na2vs0mg"},{"bike_id":"d900c339-5489-4108-89e5-9b53f0f4d1db","system_id":"levelo_inurba_marseille","lat":43.225329,"lon":5.348353,"is_reserved":false,"is_disabled":false,"rental_uris":{"android":"levelo://app?vid=d900c339-5489-4108-89e5-9b53f0f4d1db","ios":"levelo://app?vid=d900c339-5489-4108-89e5-9b53f0f4d1db"},"vehicle_type_id":"4","last_reported":1762791237,"current_range_meters":18000,"station_id":"","pricing_plan_id":"cebpf4jnsgd1na2vs0mg"},{"bike_id":"e2104b6a-7e12-4a20-ae1b-cf4b446d5e26","system_id":"levelo_inurba_marseille","lat":43.28483,"lon":5.48393,"is_reserved":false,"is_disabled":false,"rental_uris":{"android":"levelo://app?vid=e2104b6a-7e12-4a20-ae1b-cf4b446d5e26","ios":"levelo://app?vid=e2104b6a-7e12-4a20-ae1b-cf4b446d5e26"},"vehicle_type_id":"4","last_reported":1762791237,"current_range_meters":18000,"station_id":"st_d3svhcjqgbts73a3dn0g","pricing_plan_id":"cebpf4jnsgd1na2vs0mg"},{"bike_id":"7bb20222-522b-46eb-a2bc-450ced48fb38","system_id":"levelo_inurba_marseille","lat":43.31498,"lon":5.37308,"is_reserved":false,"is_disabled":false,"rental_uris":{"android":"levelo://app?vid=7bb20222-522b-46eb-a2bc-450ced48fb38","ios":"levelo://app?vid=7bb20222-522b-46eb-a2bc-450ced48fb38"},"vehicle_type_id":"4","last_reported":1762791237,"current_range_meters":18000,"station_id":"ce4bgt12rcd13ifvqcd0","pricing_plan_id":"cebpf4jnsgd1na2vs0mg"},{"bike_id":"7fe07418-e0dd-4bb3-867b-0c4f334fdf32","system_id":"levelo_inurba_marseille","lat":43.289458,"lon":5.366331,"is_reserved":false,"is_disabled":false,"rental_uris":{"android":"levelo://app?vid=7fe07418-e0dd-4bb3-867b-0c4f334fdf32","ios":"levelo://app?vid=7fe07418-e0dd-4bb3-867b-0c4f334fdf32"},