{"last_updated":1686546427,"ttl":30,"version":"2.2","data":{"bikes":[{"bike_id":"42fd72e3-e676-494b-a841-ac0e9fa36a2a","system_id":"levelo_inurba_marseille","lat":43.312239,"lon":5.368562,"is_reserved":false,"is_disabled":false,"rental_uris":{"android":"levelo://app?vid=42fd72e3-e676-494b-a841-ac0e9fa36a2a","ios":"levelo://app?vid=42fd72e3-e676-494b-a841-ac0e9fa36a2a"},"vehicle_type_id":"4","last_reported":1686546427,"current_range_meters":28800,"station_id":"ce4bgl92rcd13ifvqbq0","pricing_plan_id":"free"},{"bike_id":"da2a6d95-af2c-4acc-abe2-27bc5e56a873","system_id":"levelo_inurba_marseille","lat":43.31238,"lon":5.36866,"is_reserved":false,"is_disabled":false,"rental_uris":{"android":"levelo://app?vid=da2a6d95-af2c-4acc-abe2-27bc5e56a873","ios":"levelo://app?vid=da2a6d95-af2c-4acc-abe2-27bc5e56a873"},"vehicle_type_id":"4","last_reported":1686546427,"current_range_meters":7200,"station_id":"ce4bgl92rcd13ifvqbq0","pricing_plan_id":"free"},{"bike_id":"e652f318-b240-41eb-9839-dfeca40698cc","system_id":"levelo_inurba_marseille","lat":43.31224,"lon":5.36867,"is_reserved":false,"is_disabled":false,"rental_uris":{"android":"levelo://app?vid=e652f318-b240-41eb-9839-dfeca40698cc","ios":"levelo://app?vid=e652f318-b240-41eb-9839-dfeca40698cc"},"vehicle_type_id":"4","last_reported":1686546427,"current_range_meters":22000,"station_id":"ce4bgl92rcd13ifvqbq0","pricing_plan_id":"free"},{"bike_id":"a903e194-e4e5-4060-8431-d70d0b22afa1","system_id":"levelo_inurba_marseille","lat":43.31235,"lon":5.36876,"is_reserved":false,"is_disabled":false,"rental_uris":{"android":"levelo://app?vid=a903e194-e4e5-4060-8431-d70d0b22afa1","ios":"levelo://app?vid=a903e194-e4e5-4060-8431-d70d0b22afa1"},"vehicle_type_id":"4","last_reported":1686546427,"current_range_meters":22400,"station_id":"ce4bgl92rcd13ifvqbq0","pricing_plan_id":"free"},{"bike_id":"e215e44b-264e-4626-ae88-2d3a12aefe09","system_id":"levelo_inurba_marseille","lat":43.309076,"lon":5.368465,"is_reserved":false,"is_disabled":false,"rental_uris":{"android":"levelo://app?vid=e215e44b-264e-4626-ae88-2d3a12aefe09","ios":"levelo://app?vid=e215e44b-264e-4626-ae88-2d3a12aefe09"},"vehicle_type_id":"4","last_reported":1686546427,"current_range_meters":7200,"station_id":"ce4bgn92rcd13ifvqbvg","pricing_plan_id":"free"},{"bike_id":"68fcecf5-cb2d-4112-b939-388fa613dfcc","system_id":"levelo_inurba_marseille","lat":43.309076,"lon":5.368465,"is_reserved":false,"is_disabled":false,"rental_uris":{"android":"levelo://app?vid=68fcecf5-cb2d-4112-b939-388fa613dfcc","ios":"levelo://app?vid=68fcecf5-cb2d-4112-b939-388fa613dfcc"},"vehicle_type_id":"4","last_reported":1686546427,"current_range_meters":25200,"station_id":"ce4bgn92rcd13ifvqbvg","pricing_plan_id":"free"},{"bike_id":"d5f1b9d5-1902-40d2-8e05-b8be5cec445d","system_id":"levelo_inurba_marseille","lat":43.314811,"lon":5.373103,"is_reserved":false,"is_disabled":false,"rental_uris":{"android":"levelo://app?vid=d5f1b9d5-1902-40d2-8e05-b8be5cec445d","ios":"levelo://app?vid=d5f1b9d5-1902-40d2-8e05-b8be5cec445d"},"vehicle_type_id":"4","last_reported":1686546427,"current_range_meters":28800,"station_id":"ce4bgt12rcd13ifvqcd0","pricing_plan_id":"free"},{"bike_id":"0f6317f0-b05e-42ee-95c7-24c23d5da900","system_id":"levelo_inurba_marseille","lat":43.314811,"lon":5.373103,"is_reserved":false,"is_disabled":false,"rental_uris":{"android":"levelo://app?vid=0f6317f0-b05e-42ee-95c7-24c23d5da900","ios":"levelo://app?vid=0f6317f0-b05e-42ee-95c7-24c23d5da900"},"vehicle_type_id":"4","last_reported":1686546427,"current_range_meters":31200,"station_id":"ce4bgt12rcd13ifvqcd0","pricing_plan_id":"free"},{"bike_id":"79ddb605-795f-41f3-bbc0-d81c69b3c355","system_id":"levelo_inurba_marseille","lat":43.314811,"lon":5.373103,"is_reserved":false,"is_disabled":false,"rental_uris":{"android":"levelo://app?vid=79ddb605-795f-41f3-bbc0-d81c69b3c355","ios":"levelo://app?vid=79ddb605-795f-41f3-bbc0-d81c69b3c355"},"vehicle_type_id":"4","last_reported":1686546427,"current_range_meters":29600,"station_id":"ce4bgt12rcd13ifvqcd0","pricing_plan_id":"free"},{"bike_id":"726e69fe-0789-44cc-8872-aafade0684ce","system_id":"levelo_inurba_marseille","lat":43.306,"lon":5.36574,"is_reserved":false,"is_disabled":false,"rental_uris":{"android":"levelo://app?vid=726e69fe-0789-44cc-8872-aafade0684ce","ios":"levelo://app?vid=726e69fe-0789-44cc-8872-aafade0684ce"},"vehicle_type_id":"4","last_reported":1686546427,"current_range_meters":1600,"station_id":"","pricing_plan_id":"free"},{"bike_id":"977d6bb3-5cfe-41d2-98b0-17f51df21cd7","system_id":"levelo_inurba_marseille","lat":43.31678,"lon":5.37534,"is_reserved":false,"is_disabled":false,"rental_uris":{"android":"levelo://app?vid=977d6bb3-5cfe-41d2-98b0-17f51df21cd7","ios":"levelo://app?vid=977d6bb3-5cfe-41d2-98b0-17f51df21cd7"},"vehicle_type_id":"4","last_reported":1686546427,"current_range_meters":30800,"station_id":"","pricing_plan_id":"free"},{"bike_id":"227ebda2-c9ec-4610-af00-b8a75027da5c","system_id":"levelo_inurba_marseille","lat":43.305368,"lon":5.367343,"is_reserved":false,"is_disabled":false,"rental_uris":{"android":"levelo://app?vid=227ebda2-c9ec-4610-af00-b8a75027da5c","ios":"levelo://app?vid=227ebda2-c9ec-4610-af00-b8a75027da5c"},"vehicle_type_id":"4","last_reported":1686546427,"current_range_meters":21600,"station_id":"ce4bgrp2rcd13ifvqc9g","pricing_plan_id":"free"},{"bike_id":"3b927f62-09f1-4390-87ee-7017de9a0e82","system_id":"levelo_inurba_marseille","lat":43.30536,"lon":5.36546,"is_reserved":false,"is_disabled":false,"rental_uris":{"android":"levelo://app?vid=3b927f62-09f1-4390-87ee-7017de9a0e82","ios":"levelo://app?vid=3b927f62-09f1-4390-87ee-7017de9a0e82"},"vehicle_type_id":"4","last_reported":1686546427,"current_range_meters":26400,"station_id":"ce4bgs12rcd13ifvqcag","pricing_plan_id":"free"},{"bike_id":"41ff9936-6c65-4ab9-bcb8-199baba10c15","system_id":"levelo_inurba_marseille","lat":43.305714,"lon":5.365633,"is_reserved":false,"is_disabled":false,"rental_uris":{"android":"levelo://app?vid=41ff9936-6c65-4ab9-bcb8-199baba10c15","ios":"levelo://app?vid=41ff9936-6c65-4ab9-bcb8-199baba10c15"},"vehicle_type_id":"4","last_reported":1686546427,"current_range_meters":27600,"station_id":"ce4bgs12rcd13ifvqcag","pricing_plan_id":"free"},{"bike_id":"aba7fc2e-ce87-49d8-b800-edb3c7bd435b","system_id":"levelo_inurba_marseille","lat":43.305706,"lon":5.365654,"is_reserved":false,"is_disabled":false,"rental_uris":{"android":"levelo://app?vid=aba7fc2e-ce87-49d8-b800-edb3c7bd435b","ios":"levelo://app?vid=aba7fc2e-ce87-49d8-b800-edb3c7bd435b"},"vehicle_type_id":"4","last_reported":1686546427,"current_range_meters":27200,"station_id":"ce4bgs12rcd13ifvqcag","pricing_plan_id":"free"},{"bike_id":"81e5d0f4-6a9d-44c1-af18-c820a401979d","system_id":"levelo_inurba_marseille","lat":43.305989,"lon":5.37225,"is_reserved":false,"is_disabled":false,"rental_uris":{"android":"levelo://app?vid=81e5d0f4-6a9d-44c1-af18-c820a401979d","ios":"levelo://app?vid=81e5d0f4-6a9d-44c1-af18-c820a401979d"},"vehicle_type_id":"4","last_reported":1686546427,"current_range_meters":28800,"station_id":"ce4bgqh2rcd13ifvqc4g","pricing_plan_id":"free"},{"bike_id":"7f21b4cf-0e1b-4264-9415-95acf6ab2fd3","system_id":"levelo_inurba_marseille","lat":43.305989,"lon":5.37225,"is_reserved":false,"is_disabled":false,"rental_uris":{"android":"levelo://app?vid=7f21b4cf-0e1b-4264-9415-95acf6ab2fd3","ios":"levelo://app?vid=7f21b4cf-0e1b-4264-9415-95acf6ab2fd3"},"vehicle_type_id":"4","last_reported":1686546427,"current_range_meters":24000,"station_id":"ce4bgqh2rcd13ifvqc4g","pricing_plan_id":"free"},{"bike_id":"29981544-e265-4305-aa94-577049afdfd3","system_id":"levelo_inurba_marseille","lat":43.311125,"lon":5.377624,"is_reserved":false,"is_disabled":false,"rental_uris":{"android":"levelo://app?vid=29981544-e265-4305-aa94-577049afdfd3","ios":"levelo://app?vid=29981544-e265-4305-aa94-577049afdfd3"},"vehicle_type_id":"4","last_reported":1686546427,"current_range_meters":30400,"station_id":"ce4bgt92rcd13ifvqcg0","pricing_plan_id":"free"},{"bike_id":"168d80a4-b068-4403-937f-1085c4b3ee73","system_id":"levelo_inurba_marseille","lat":43.311125,"lon":5.377624,"is_reserved":false,"is_disabled":false,"rental_uris":{"android":"levelo://app?vid=168d80a4-b068-4403-937f-1085c4b3ee73","ios":"levelo://app?vid=168d80a4-b068-4403-937f-1085c4b3ee73"},"vehicle_type_id":"4","last_reported":1686546427,"current_range_meters":5200,"station_id":"ce4bgt92rcd13ifvqcg0","pricing_plan_id":"free"},{"bike_id":"8ce4a15e-ff48-4be5-afac-689bbe3fe844","system_id":"levelo_inurba_marseille","lat":43.311125,"lon":5.377624,"is_reserved":false,"is_disabled":false,"rental_uris":{"android":"levelo://app?vid=8ce4a15e-ff48-4be5-afac-689bbe3fe844","ios":"levelo://app?vid=8ce4a15e-ff48-4be5-afac-689bbe3fe844"},"vehicle_type_id":"4","last_reported":1686546427,"current_range_meters":26400,"station_id":"ce4bgt92rcd13ifvqcg0","pricing_plan_id":"free"},{"bike_id":"491967b5-23e1-4d2a-99da-803dafb3fad7","system_id":"levelo_inurba_marseille","lat":43.30316,"lon":5.3691,"is_reserved":false,"is_disabled":false,"rental_uris":{"android":"levelo://app?vid=491967b5-23e1-4d2a-99da-803dafb3fad7","ios":"levelo://app?vid=491967b5-23e1-4d2a-99da-803dafb3fad7"},"vehicle_type_id":"4","last_reported":1686546427,"current_range_meters":30400,"station_id":"ce4bgqh2rcd13ifvqc5g","pricing_plan_id":"free"},{"bike_id":"bbd000e0-de5b-48f6-b16f-87983caa0253","system_id":"levelo_inurba_marseille","lat":43.315289,"lon":5.380349,"is_reserved":false,"is_disabled":false,"rental_uris":{"android":"levelo://app?vid=bbd000e0-de5b-48f6-b16f-87983caa0253","ios":"levelo://app?vid=bbd000e0-de5b-48f6-b16f-87983caa0253"},"vehicle_type_id":"4","last_reported":1686546427,"current_range_meters":6000,"station_id":"ce4bhsp2rcd13ifvqi50","pricing_plan_id":"free"},{"bike_id":"10faf9eb-8636-4a2a-a7a9-de6d14861f2a","system_id":"levelo_inurba_marseille","lat":43.301939,"lon":5.366286,"is_reserved":false,"is_disabled":false,"rental_uris":{"android":"levelo://app?vid=10faf9eb-8636-4a2a-a7a9-de6d14861f2a","ios":"levelo://app?vid=10faf9eb-8636-4a2a-a7a9-de6d14861f2a"},"vehicle_type_id":"4","last_reported":1686546427,"current_range_meters":28400,"station_id":"ce4bgrh2rcd13ifvqc8g","pricing_plan_id":"free"},{"bike_id":"6c79fc2c-4783-4f23-afe7-ed1ed6c56e33","system_id":"levelo_inurba_marseille","lat":43.301939,"lon":5.366286,"is_reserved":false,"is_disabled":false,"rental_uris":{"android":"levelo://app?vid=6c79fc2c-4783-4f23-afe7-ed1ed6c56e33","ios":"levelo://app?vid=6c79fc2c-4783-4f23-afe7-ed1ed6c56e33"},"vehicle_type_id":"4","last_reported":1686546427,"current_range_meters":0,"station_id":"ce4bgrh2rcd13ifvqc8g","pricing_plan_id":"free"},{"bike_id":"49d4710b-e398-487b-aa38-c952970ad537","system_id":"levelo_inurba_marseille","lat":43.304606,"lon":5.379026,"is_reserved":false,"is_disabled":false,"rental_uris":{"android":"levelo://app?vid=49d4710b-e398-487b-aa38-c952970ad537","ios":"levelo://app?vid=49d4710b-e398-487b-aa38-c952970ad537"},"vehicle_type_id":"4","last_reported":1686546427,"current_range_meters":18400,"station_id":"ce4bgup2rcd13ifvqcn0","pricing_plan_id":"free"},{"bike_id":"87ccd7c1-b803-424e-b753-bd0bc89da648","system_id":"levelo_inurba_marseille","lat":43.304606,"lon":5.379026,"is_reserved":false,"is_disabled":false,"rental_uris":{"android":"levelo://app?vid=87ccd7c1-b803-424e-b753-bd0bc89da648","ios":"levelo://app?vid=87ccd7c1-b803-424e-b753-bd0bc89da648"},"vehicle_type_id":"4","last_reported":1686546427,"current_range_meters":28800,"station_id":"ce4bgup2rcd13ifvqcn0","pricing_plan_id":"free"},{"bike_id":"512289ec-97f3-46a1-943a-59c331459c7f","system_id":"levelo_inurba_marseille","lat":43.304606,"lon":5.379026,"is_reserved":false,"is_disabled":false,"rental_uris":{"android":"levelo://app?vid=512289ec-97f3-46a1-943a-59c331459c7f","ios":"levelo://app?vid=512289ec-97f3-46a1-943a-59c331459c7f"},"vehicle_type_id":"4","last_reported":1686546427,"current_range_meters":24400,"station_id":"ce4bgup2rcd13ifvqcn0","pricing_plan_id":"free"},{"bike_id":"c9eded5b-bb8c-4112-95c5-de841934da9c","system_id":"levelo_inurba_marseille","lat":43.304606,"lon":5.379026,"is_reserved":false,"is_disabled":false,"rental_uris":{"android":"levelo://app?vid=c9eded5b-bb8c-4112-95c5-de841934da9c","ios":"levelo://app?vid=c9eded5b-bb8c-4112-95c5-de841934da9c"},"vehicle_type_id":"4","last_reported":1686546427,"current_range_meters":27600,"station_id":"ce4bgup2rcd13ifvqcn0","pricing_plan_id":"free"},{"bike_id":"4c1a63a3-ce60-4f9c-95b2-6757cec8e0c3","system_id":"levelo_inurba_marseille","lat":43.304606,"lon":5.379026,"is_reserved":false,"is_disabled":false,"rental_uris":{"android":"levelo://app?vid=4c1a63a3-ce60-4f9c-95b2-6757cec8e0c3","ios":"levelo://app?vid=4c1a63a3-ce60-4f9c-95b2-6757cec8e0c3"},"vehicle_type_id":"4","last_reported":1686546427,"current_range_meters":6400,"station_id":"ce4bgup2rcd13ifvqcn0","pricing_plan_id":"free"},{"bike_id":"ef747881-b6cd-4f70-bb69-fa78fae3d0d1","system_id":"levelo_inurba_marseille","lat":43.304606,"lon":5.379026,"is_reserved":false,"is_disabled":false,"rental_uris":{"android":"levelo://app?vid=ef747881-b6cd-4f70-bb69-fa78fae3d0d1","ios":"levelo://app?vid=ef747881-b6cd-4f70-bb69-fa78fae3d0d1"},"vehicle_type_id":"4","last_reported":1686546427,"current_range_meters":24800,"station_id":"ce4bgup2rcd13ifvqcn0","pricing_plan_id":"free"},{"bike_id":"63da93e6-8da0-4b2b-8b8a-6adad662117c","system_id":"levelo_inurba_marseille","lat":43.304606,"lon":5.379026,"is_reserved":false,"is_disabled":false,"rental_uris":{"android":"levelo://app?vid=63da93e6-8da0-4b2b-8b8a-6adad662117c","ios":"levelo://app?vid=63da93e6-8da0-4b2b-8b8a-6adad662117c"},"vehicle_type_id":"4","last_reported":1686546427,"current_range_meters":25600,"station_id":"ce4bgup2rcd13ifvqcn0","pricing_plan_id":"free"},{"bike_id":"c83bf27d-17cf-46d9-a497-7f09599c7ae6","system_id":"levelo_inurba_marseille","lat":43.304606,"lon":5.379026,"is_reserved":false,"is_disabled":false,"rental_uris":{"android":"levelo://app?vid=c83bf27d-17cf-46d9-a497-7f09599c7ae6","ios":"levelo://app?vid=c83bf27d-17cf-46d9-a497-7f09599c7ae6"},"vehicle_type_id":"4","last_reported":1686546427,"current_range_meters":22400,"station_id":"ce4bgup2rcd13ifvqcn0","pricing_plan_id":"free"},{"bike_id":"0326a25e-dfe5-4e1e-9ea2-115b54c49e69","system_id":"levelo_inurba_marseille","lat":43.304606,"lon":5.379026,"is_reserved":false,"is_disabled":false,"rental_uris":{"android":"levelo://app?vid=0326a25e-dfe5-4e1e-9ea2-115b54c49e69","ios":"levelo://app?vid=0326a25e-dfe5-4e1e-9ea2-115b54c49e69"},"vehicle_type_id":"4","last_reported":1686546427,"current_range_meters":24800,"station_id":"ce4bgup2rcd13ifvqcn0","pricing_plan_id":"free"},{"bike_id":"015da690-5c49-470f-96b7-50ad3c6968f1","system_id":"levelo_inurba_marseille","lat":43.304606,"lon":5.379026,"is_reserved":false,"is_disabled":false,"rental_uris":{"android":"levelo://app?vid=015da690-5c49-470f-96b7-50ad3c6968f1","ios":"levelo://app?vid=015da690-5c49-470f-96b7-50ad3c6968f1"},"vehicle_type_id":"4","last_reported":1686546427,"current_range_meters":24000,"station_id":"ce4bgup2rcd13ifvqcn0","pricing_plan_id":"free"},{"bike_id":"d1cd9d3d-be46-42ac-8558-5374e08b16f8","system_id":"levelo_inurba_marseille","lat":43.304606,"lon":5.379026,"is_reserved":false,"is_disabled":false,"rental_uris":{"android":"levelo://app?vid=d1cd9d3d-be46-42ac-8558-5374e08b16f8","ios":"levelo://app?vid=d1cd9d3d-be46-42ac-8558-5374e08b16f8"},"vehicle_type_id":"4","last_reported":1686546427,"current_range_meters":28000,"station_id":"ce4bgup2rcd13ifvqcn0","pricing_plan_id":"free"},{"bike_id":"5ca4df4b-8a49-4d20-b884-0af9786c4e1f","system_id":"levelo_inurba_marseille","lat":43.304606,"lon":5.379026,"is_reserved":false,"is_disabled":false,"rental_uris":{"android":"levelo://app?vid=5ca4df4b-8a49-4d20-b884-0af9786c4e1f","ios":"levelo://app?vid=5ca4df4b-8a49-4d20-b884-0af9786c4e1f"},"vehicle_type_id":"4","last_reported":1686546427,"current_range_meters":29600,"station_id":"ce4bgup2rcd13ifvqcn0","pricing_plan_id":"free"},{"bike_id":"aec6ccf0-e702-47df-b21d-4c588498dd4e","system_id":"levelo_inurba_marseille","lat":43.304606,"lon":5.379026,"is_reserved":false,"is_disabled":false,"rental_uris":{"android":"levelo://app?vid=aec6ccf0-e702-47df-b21d-4c588498dd4e","ios":"levelo://app?vid=aec6ccf0-e702-47df-b21d-4c588498dd4e"},"vehicle_type_id":"4","last_reported":1686546427,"current_range_meters":24400,"station_id":"ce4bgup2rcd13ifvqcn0","pricing_plan_id":"free"},{"bike_id":"43120926-6ff4-4597-b7a5-05be11b509ea","system_id":"levelo_inurba_marseille","lat":43.304606,"lon":5.379026,"is_reserved":false,"is_disabled":false,"rental_uris":{"android":"levelo://app?vid=43120926-6ff4-4597-b7a5-05be11b509ea","ios":"levelo://app?vid=43120926-6ff4-4597-b7a5-05be11b509ea"},"vehicle_type_id":"4","last_reported":1686546427,"current_range_meters":5600,"station_id":"ce4bgup2rcd13ifvqcn0","pricing_plan_id":"free"},{"bike_id":"0f1c72f3-c2bd-4853-a640-f4a9976e57e5","system_id":"levelo_inurba_marseille","lat":43.304606,"lon":5.379026,"is_reserved":false,"is_disabled":false,"rental_uris":{"android":"levelo://app?vid=0f1c72f3-c2bd-4853-a640-f4a9976e57e5","ios":"levelo://app?vid=0f1c72f3-c2bd-4853-a640-f4a9976e57e5"},"vehicle_type_id":"4","last_reported":1686546427,"current_range_meters":23200,"station_id":"ce4bgup2rcd13ifvqcn0","pricing_plan_id":"free"},{"bike_id":"8e3a40c4-28f8-4f17-b1d9-c52f41ea6234","system_id":"levelo_inurba_marseille","lat":43.304606,"lon":5.379026,"is_reserved":false,"is_disabled":false,"rental_uris":{"android":"levelo://app?vid=8e3a40c4-28f8-4f17-b1d9-c52f41ea6234","ios":"levelo://app?vid=8e3a40c4-28f8-4f17-b1d9-c52f41ea6234"},"vehicle_type_id":"4","last_reported":1686546427,"current_range_meters":30000,"station_id":"ce4bgup2rcd13ifvqcn0","pricing_plan_id":"free"},{"bike_id":"98a2578e-80c6-40df-8199-2dd9f386156c","system_id":"levelo_inurba_marseille","lat":43.30143,"lon":5.37413,"is_reserved":false,"is_disabled":false,"rental_uris":{"android":"levelo://app?vid=98a2578e-80c6-40df-8199-2dd9f386156c","ios":"levelo://app?vid=98a2578e-80c6-40df-8199-2dd9f386156c"},"vehicle_type_id":"4","last_reported":1686546427,"current_range_meters":24000,"station_id":"ce4bgs92rcd13ifvqcc0","pricing_plan_id":"free"},{"bike_id":"49297577-8021-4e87-b941-3e1b3aca19e6","system_id":"levelo_inurba_marseille","lat":43.30143,"lon":5.37413,"is_reserved":false,"is_disabled":false,"rental_uris":{"android":"levelo://app?vid=49297577-8021-4e87-b941-3e1b3aca19e6","ios":"levelo://app?vid=49297577-8021-4e87-b941-3e1b3aca19e6"},"vehicle_type_id":"4","last_reported":1686546427,"current_range_meters":23200,"station_id":"ce4bgs92rcd13ifvqcc0","pricing_plan_id":"free"},{"bike_id":"09ce752a-589f-4f3a-9aa9-f2cc0f472541","system_id":"levelo_inurba_marseille","lat":43.30143,"lon":5.37413,"is_reserved":false,"is_disabled":false,"rental_uris":{"android":"levelo://app?vid=09ce752a-589f-4f3a-9aa9-f2cc0f472541","ios":"levelo://app?vid=09ce752a-589f-4f3a-9aa9-f2cc0f472541"},"vehicle_type_id":"4","last_reported":1686546427,"current_range_meters":27600,"station_id":"ce4bgs92rcd13ifvqcc0","pricing_plan_id":"free"},{"bike_id":"cdf29e79-1bd3-4ea0-bb6d-cdb334ba031b","system_id":"levelo_inurba_marseille","lat":43.30143,"lon":5.37413,"is_reserved":false,"is_disabled":false,"rental_uris":{"android":"levelo://app?vid=cdf29e79-1bd3-4ea0-bb6d-cdb334ba031b","ios":"levelo://app?vid=cdf29e79-1bd3-4ea0-bb6d-cdb334ba031b"},"vehicle_type_id":"4","last_reported":1686546427,"current_range_meters":28800,"station_id":"ce4bgs92rcd13ifvqcc0","pricing_plan_id":"free"},{"bike_id":"9e74e532-4217-4529-a967-3a56862c9034","system_id":"levelo_inurba_marseille","lat":43.30143,"lon":5.37413,"is_reserved":false,"is_disabled":false,"rental_uris":{"android":"levelo://app?vid=9e74e532-4217-4529-a967-3a56862c9034","ios":"levelo://app?vid=9e74e532-4217-4529-a967-3a56862c9034"},"vehicle_type_id":"4","last_reported":1686546427,"current_range_meters":28000,"station_id":"ce4bgs92rcd13ifvqcc0","pricing_plan_id":"free"},{"bike_id":"18225ff6-59f4-4132-be73-a4a9e017916f","system_id":"levelo_inurba_marseille","lat":43.304606,"lon":5.379026,"is_reserved":false,"is_disabled":false,"rental_uris":{"android":"levelo://app?vid=18225ff6-59f4-4132-be73-a4a9e017916f","ios":"levelo://app?vid=18225ff6-59f4-4132-be73-a4a9e017916f"},"vehicle_type_id":"4","last_reported":1686546427,"current_range_meters":19200,"station_id":"ce4bgup2rcd13ifvqcn0","pricing_plan_id":"free"},{"bike_id":"36da0b6c-ec51-4841-8fb7-b8224118af45","system_id":"levelo_inurba_marseille","lat":43.31993,"lon":5.38141,"is_reserved":false,"is_disabled":false,"rental_uris":{"android":"levelo://app?vid=36da0b6c-ec51-4841-8fb7-b8224118af45","ios":"levelo://app?vid=36da0b6c-ec51-4841-8fb7-b8224118af45"},"vehicle_type_id":"4","last_reported":1686546427,"current_range_meters":29600,"station_id":"ce4bhr12rcd13ifvqhpg","pricing_plan_id":"free"},{"bike_id":"8bfc4f83-0eb1-499a-97e0-9c15c4a9de22","system_id":"levelo_inurba_marseille","lat":43.319935,"lon":5.381699,"is_reserved":false,"is_disabled":false,"rental_uris":{"android":"levelo://app?vid=8bfc4f83-0eb1-499a-97e0-9c15c4a9de22","ios":"levelo://app?vid=8bfc4f83-0eb1-499a-97e0-9c15c4a9de22"},"vehicle_type_id":"4","last_reported":1686546427,"current_range_meters":31200,"station_id":"ce4bhr12rcd13ifvqhpg","pricing_plan_id":"free"},{"bike_id":"5168a86d-cb7b-4891-9c87-2d4d17a6d6df","system_id":"levelo_inurba_marseille","lat":43.319935,"lon":5.381699,"is_reserved":false,"is_disabled":false,"rental_uris":{"android":"levelo://app?vid=5168a86d-cb7b-4891-9c87-2d4d17a6d6df","ios":"levelo://app?vid=5168a86d-cb7b-4891-9c87-2d4d17a6d6df"},"vehicle_type_id":"4","last_reported":1686546427,"current_range_meters":31200,"station_id":"ce4bhr12rcd13ifvqhpg","pricing_plan_id":"free"},{"bike_id":"4d029df3-8b8a-4106-8c7d-b4dc86062849","system_id":"levelo_inurba_marseille","lat":43.319935,"lon":5.381699,"is_reserved":false,"is_disabled":false,"rental_uris":{"android":"levelo://app?vid=4d029df3-8b8a-4106-8c7d-b4dc86062849","ios":"levelo://app?vid=4d029df3-8b8a-4106-8c7d-b4dc86062849"},"vehicle_type_id":"4","last_reported":1686546427,"current_range_meters":31200,"station_id":"ce4bhr12rcd13ifvqhpg","pricing_plan_id":"free"},{"bike_id":"148976dd-ee39-48ff-b28f-cd1ba32427ce","system_id":"levelo_inurba_marseille","lat":43.319935,"lon":5.381699,"is_reserved":false,"is_disabled":false,"rental_uris":{"android":"levelo://app?vid=148976dd-ee39-48ff-b28f-cd1ba32427ce","ios":"levelo://app?vid=148976dd-ee39-48ff-b28f-cd1ba32427ce"},"vehicle_type_id":"4","last_reported":1686546427,"current_range_meters":31200,"station_id":"ce4bhr12rcd13ifvqhpg","pricing_plan_id":"free"},{"bike_id":"e53edf61-2c97-47eb-8b5f-251197a038c0","system_id":"levelo_inurba_marseille","lat":43.319935,"lon":5.381699,"is_reserved":false,"is_disabled":false,"rental_uris":{"android":"levelo://app?vid=e53edf61-2c97-47eb-8b5f-251197a038c0","ios":"levelo://app?vid=e53edf61-2c97-47eb-8b5f-251197a038c0"},"vehicle_type_id":"4","last_reported":1686546427,"current_range_meters":14000,"station_id":"ce4bhr12rcd13ifvqhpg","pricing_plan_id":"free"},{"bike_id":"0a7e2abe-c4fc-44a9-ac07-899f9a130755","system_id":"levelo_inurba_marseille","lat":43.32119,"lon":5.3805,"is_reserved":false,"is_disabled":false,"rental_uris":{"android":"levelo://app?vid=0a7e2abe-c4fc-44a9-ac07-899f9a130755","ios":"levelo://app?vid=0a7e2abe-c4fc-44a9-ac07-899f9a130755"},"vehicle_type_id":"4","last_reported":1686546427,"current_range_meters":7200,"station_id":"","pricing_plan_id":"free"},{"bike_id":"096d50e9-3805-4169-a4ad-ed7420a634fe","system_id":"levelo_inurba_marseille","lat":43.299222,"lon":5.365554,"is_reserved":false,"is_disabled":false,"rental_uris":{"android":"levelo://app?vid=096d50e9-3805-4169-a4ad-ed7420a634fe","ios":"levelo://app?vid=096d50e9-3805-4169-a4ad-ed7420a634fe"},"vehicle_type_id":"4","last_reported":1686546427,"current_range_meters":0,"station_id":"ce4bgm92rcd13ifvqbr0","pricing_plan_id":"free"},{"bike_id":"7cae0126-0577-4d99-90c2-de0b92e207d0","system_id":"levelo_inurba_marseille","lat":43.298433,"lon":5.362774,"is_reserved":false,"is_disabled":false,"rental_uris":{"android":"levelo://app?vid=7cae0126-0577-4d99-90c2-de0b92e207d0","ios":"levelo://app?vid=7cae0126-0577-4d99-90c2-de0b92e207d0"},"vehicle_type_id":"4","last_reported":1686546427,"current_range_meters":28800,"station_id":"ce4bgpp2rcd13ifvqc3g","pricing_plan_id":"free"},{"bike_id":"553decff-9f48-46d2-9d83-dfff81edcd1e","system_id":"levelo_inurba_marseille","lat":43.298433,"lon":5.362774,"is_reserved":false,"is_disabled":false,"rental_uris":{"android":"levelo://app?vid=553decff-9f48-46d2-9d83-dfff81edcd1e","ios":"levelo://app?vid=553decff-9f48-46d2-9d83-dfff81edcd1e"},"vehicle_type_id":"4","last_reported":1686546427,"current_range_meters":23600,"station_id":"ce4bgpp2rcd13ifvqc3g","pricing_plan_id":"free"},{"bike_id":"42f8c916-419b-403f-ae1a-48a65800cd59","system_id":"levelo_inurba_marseille","lat":43.299243,"lon":5.37481,"is_reserved":false,"is_disabled":false,"rental_uris":{"android":"levelo://app?vid=42f8c916-419b-403f-ae1a-48a65800cd59","ios":"levelo://app?vid=42f8c916-419b-403f-ae1a-48a65800cd59"},"vehicle_type_id":"4","last_reported":1686546427,"current_range_meters":31200,"station_id":"ce4bgjh2rcd13ifvqbg0","pricing_plan_id":"free"},{"bike_id":"68e18a24-7875-427b-84be-6e17265e6359","system_id":"levelo_inurba_marseille","lat":43.30528,"lon":5.38436,"is_reserved":false,"is_disabled":false,"rental_uris":{"android":"levelo://app?vid=68e18a24-7875-427b-84be-6e17265e6359","ios":"levelo://app?vid=68e18a24-7875-427b-84be-6e17265e6359"},"vehicle_type_id":"4","last_reported":1686546427,"current_range_meters":22400,"station_id":"ce4bgg92rcd13ifvqb30","pricing_plan_id":"free"},{"bike_id":"29c73c83-d450-4f7f-afee-46a8607f42d2","system_id":"levelo_inurba_marseille","lat":43.311722,"lon":5.387247,"is_reserved":false,"is_disabled":false,"rental_uris":{"android":"levelo://app?vid=29c73c83-d450-4f7f-afee-46a8607f42d2","ios":"levelo://app?vid=29c73c83-d450-4f7f-afee-46a8607f42d2"},"vehicle_type_id":"4","last_reported":1686546427,"current_range_meters":28800,"station_id":"ce4bgv12rcd13ifvqcp0","pricing_plan_id":"free"},{"bike_id":"e8f5f004-d0de-42aa-bd88-8e58e7fd2099","system_id":"levelo_inurba_marseille","lat":43.299243,"lon":5.37481,"is_reserved":false,"is_disabled":false,"rental_uris":{"android":"levelo://app?vid=e8f5f004-d0de-42aa-bd88-8e58e7fd2099","ios":"levelo://app?vid=e8f5f004-d0de-42aa-bd88-8e58e7fd2099"},"vehicle_type_id":"4","last_reported":1686546427,"current_range_meters":31200,"station_id":"ce4bgjh2rcd13ifvqbg0","pricing_plan_id":"free"},{"bike_id":"a48a0674-3381-4e81-bf6e-b1e386cd427f","system_id":"levelo_inurba_marseille","lat":43.311722,"lon":5.387247,"is_reserved":false,"is_disabled":false,"rental_uris":{"android":"levelo://app?vid=a48a0674-3381-4e81-bf6e-b1e386cd427f","ios":"levelo://app?vid=a48a0674-3381-4e81-bf6e-b1e386cd427f"},"vehicle_type_id":"4","last_reported":1686546427,"current_range_meters":29200,"station_id":"ce4bgv12rcd13ifvqcp0","pricing_plan_id":"free"},{"bike_id":"c971f06e-b6a3-4dc2-b719-830a74d124f6","system_id":"levelo_inurba_marseille","lat":43.299243,"lon":5.37481,"is_reserved":false,"is_disabled":false,"rental_uris":{"android":"levelo://app?vid=c971f06e-b6a3-4dc2-b719-830a74d124f6","ios":"levelo://app?vid=c971f06e-b6a3-4dc2-b719-830a74d124f6"},"vehicle_type_id":"4","last_reported":1686546427,"current_range_meters":22800,"station_id":"ce4bgjh2rcd13ifvqbg0","pricing_plan_id":"free"},{"bike_id":"da3d5169-d42c-4a1e-ba0e-6f21c0c60cf2","system_id":"levelo_inurba_marseille","lat":43.297774,"lon":5.370875,"is_reserved":false,"is_disabled":false,"rental_uris":{"android":"levelo://app?vid=da3d5169-d42c-4a1e-ba0e-6f21c0c60cf2","ios":"levelo://app?vid=da3d5169-d42c-4a1e-ba0e-6f21c0c60cf2"},"vehicle_type_id":"4","last_reported":1686546427,"current_range_meters":20800,"station_id":"ce4bgop2rcd13ifvqc1g","pricing_plan_id":"free"},{"bike_id":"c1024345-305a-4a4f-83b7-5140c7eb194a","system_id":"levelo_inurba_marseille","lat":43.297794,"lon":5.370888,"is_reserved":false,"is_disabled":false,"rental_uris":{"android":"levelo://app?vid=c1024345-305a-4a4f-83b7-5140c7eb194a","ios":"levelo://app?vid=c1024345-305a-4a4f-83b7-5140c7eb194a"},"vehicle_type_id":"4","last_reported":1686546427,"current_range_meters":20400,"station_id":"ce4bgop2rcd13ifvqc1g","pricing_plan_id":"free"},{"bike_id":"4a6c7cc7-7253-4e2a-b188-c3fc33bbc279","system_id":"levelo_inurba_marseille","lat":43.297774,"lon":5.370875,"is_reserved":false,"is_disabled":false,"rental_uris":{"android":"levelo://app?vid=4a6c7cc7-7253-4e2a-b188-c3fc33bbc279","ios":"levelo://app?vid=4a6c7cc7-7253-4e2a-b188-c3fc33bbc279"},"vehicle_type_id":"4","last_reported":1686546427,"current_range_meters":22000,"station_id":"ce4bgop2rcd13ifvqc1g","pricing_plan_id":"free"},{"bike_id":"9cb98a96-fa45-4a3a-a507-aa7513f04871","system_id":"levelo_inurba_marseille","lat":43.29719,"lon":5.36608,"is_reserved":false,"is_disabled":false,"rental_uris":{"android":"levelo://app?vid=9cb98a96-fa45-4a3a-a507-aa7513f04871","ios":"levelo://app?vid=9cb98a96-fa45-4a3a-a507-aa7513f04871"},"vehicle_type_id":"4","last_reported":1686546427,"current_range_meters":21200,"station_id":"","pricing_plan_id":"free"},{"bike_id":"0971352d-e787-46ee-bda1-854b401b72c2","system_id":"levelo_inurba_marseille","lat":43.328371,"lon":5.366912,"is_reserved":false,"is_disabled":false,"rental_uris":{"android":"levelo://app?vid=0971352d-e787-46ee-bda1-854b401b72c2","ios":"levelo://app?vid=0971352d-e787-46ee-bda1-854b401b72c2"},"vehicle_type_id":"4","last_reported":1686546427,"current_range_meters":8800,"station_id":"ce4bhs92rcd13ifvqi0g","pricing_plan_id":"free"},{"bike_id":"af434387-c696-4711-bbb6-68d793cd7c40","system_id":"levelo_inurba_marseille","lat":43.328371,"lon":5.366912,"is_reserved":false,"is_disabled":false,"rental_uris":{"android":"levelo://app?vid=af434387-c696-4711-bbb6-68d793cd7c40","ios":"levelo://app?vid=af434387-c696-4711-bbb6-68d793cd7c40"},"vehicle_type_id":"4","last_reported":1686546427,"current_range_meters":16400,"station_id":"ce4bhs92rcd13ifvqi0g","pricing_plan_id":"free"},{"bike_id":"67997e51-406a-4ce8-a896-b4f9bb318142","system_id":"levelo_inurba_marseille","lat":43.2971,"lon":5.36609,"is_reserved":false,"is_disabled":false,"rental_uris":{"android":"levelo://app?vid=67997e51-406a-4ce8-a896-b4f9bb318142","ios":"levelo://app?vid=67997e51-406a-4ce8-a896-b4f9bb318142"},"vehicle_type_id":"4","last_reported":1686546427,"current_range_meters":28800,"station_id":"","pricing_plan_id":"free"},{"bike_id":"6e030adf-b716-4354-8b83-08c9110b5b95","system_id":"levelo_inurba_marseille","lat":43.29704,"lon":5.36592,"is_reserved":false,"is_disabled":false,"rental_uris":{"android":"levelo://app?vid=6e030adf-b716-4354-8b83-08c9110b5b95","ios":"levelo://app?vid=6e030adf-b716-4354-8b83-08c9110b5b95"},"vehicle_type_id":"4","last_reported":1686546427,"current_range_meters":2000,"station_id":"","pricing_plan_id":"free"},{"bike_id":"60e10cd8-23fb-4f53-8d5a-766885cbd47f","system_id":"levelo_inurba_marseille","lat":43.296131,"lon":5.370791,"is_reserved":false,"is_disabled":false,"rental_uris":{"android":"levelo://app?vid=60e10cd8-23fb-4f53-8d5a-766885cbd47f","ios":"levelo://app?vid=60e10cd8-23fb-4f53-8d5a-766885cbd47f"},"vehicle_type_id":"4","last_reported":1686546427,"current_range_meters":29200,"station_id":"ce4bgnh2rcd13ifvqc0g","pricing_plan_id":"free"},{"bike_id":"2c886502-9380-405e-b314-163955f3076f","system_id":"levelo_inurba_marseille","lat":43.296921,"lon":5.376579,"is_reserved":false,"is_disabled":false,"rental_uris":{"android":"levelo://app?vid=2c886502-9380-405e-b314-163955f3076f","ios":"levelo://app?vid=2c886502-9380-405e-b314-163955f3076f"},"vehicle_type_id":"4","last_reported":1686546427,"current_range_meters":31200,"station_id":"ce4bgkh2rcd13ifvqbl0","pricing_plan_id":"free"},{"bike_id":"53d8ea5a-b61f-4c4c-8b3a-3f671884d05a","system_id":"levelo_inurba_marseille","lat":43.296935,"lon":5.376544,"is_reserved":false,"is_disabled":false,"rental_uris":{"android":"levelo://app?vid=53d8ea5a-b61f-4c4c-8b3a-3f671884d05a","ios":"levelo://app?vid=53d8ea5a-b61f-4c4c-8b3a-3f671884d05a"},"vehicle_type_id":"4","last_reported":1686546427,"current_range_meters":29600,"station_id":"ce4bgkh2rcd13ifvqbl0","pricing_plan_id":"free"},{"bike_id":"206d1d96-3e12-462f-b258-f91ae81b585a","system_id":"levelo_inurba_marseille","lat":43.296921,"lon":5.376579,"is_reserved":false,"is_disabled":false,"rental_uris":{"android":"levelo://app?vid=206d1d96-3e12-462f-b258-f91ae81b585a","ios":"levelo://app?vid=206d1d96-3e12-462f-b258-f91ae81b585a"},"vehicle_type_id":"4","last_reported":1686546427,"current_range_meters":28400,"station_id":"ce4bgkh2rcd13ifvqbl0","pricing_plan_id":"free"},{"bike_id":"1e12a1c0-4901-4b6f-8c80-59583dba227c","system_id":"levelo_inurba_marseille","lat":43.296935,"lon":5.376544,"is_reserved":false,"is_disabled":false,"rental_uris":{"android":"levelo://app?vid=1e12a1c0-4901-4b6f-8c80-59583dba227c","ios":"levelo://app?vid=1e12a1c0-4901-4b6f-8c80-59583dba227c"},"vehicle_type_id":"4","last_reported":1686546427,"current_range_meters":28000,"station_id":"ce4bgkh2rcd13ifvqbl0","pricing_plan_id":"free"},{"bike_id":"cf2e01af-6d18-40f0-8039-351cdcb3f872","system_id":"levelo_inurba_marseille","lat":43.299028,"lon":5.381509,"is_reserved":false,"is_disabled":false,"rental_uris":{"android":"levelo://app?vid=cf2e01af-6d18-40f0-8039-351cdcb3f872","ios":"levelo://app?vid=cf2e01af-6d18-40f0-8039-351cdcb3f872"},"vehicle_type_id":"4","last_reported":1686546427,"current_range_meters":29200,"station_id":"ce4bgj12rcd13ifvqbc0","pricing_plan_id":"free"},{"bike_id":"d36fc053-88c4-4f44-8570-697733c0441e","system_id":"levelo_inurba_marseille","lat":43.296935,"lon":5.376544,"is_reserved":false,"is_disabled":false,"rental_uris":{"android":"levelo://app?vid=d36fc053-88c4-4f44-8570-697733c0441e","ios":"levelo://app?vid=d36fc053-88c4-4f44-8570-697733c0441e"},"vehicle_type_id":"4","last_reported":1686546427,"current_range_meters":28000,"station_id":"ce4bgkh2rcd13ifvqbl0","pricing_plan_id":"free"},{"bike_id":"2216c754-b7f1-43e7-99bb-f284fd856551","system_id":"levelo_inurba_marseille","lat":43.29898,"lon":5.38141,"is_reserved":false,"is_disabled":false,"rental_uris":{"android":"levelo://app?vid=2216c754-b7f1-43e7-99bb-f284fd856551","ios":"levelo://app?vid=2216c754-b7f1-43e7-99bb-f284fd856551"},"vehicle_type_id":"4","last_reported":1686546427,"current_range_meters":29600,"station_id":"ce4bgj12rcd13ifvqbc0","pricing_plan_id":"free"},{"bike_id":"c0dcb1e0-8b83-485b-991c-dbf28d68dc91","system_id":"levelo_inurba_marseille","lat":43.299028,"lon":5.381509,"is_reserved":false,"is_disabled":false,"rental_uris":{"android":"levelo://app?vid=c0dcb1e0-8b83-485b-991c-dbf28d68dc91","ios":"levelo://app?vid=c0dcb1e0-8b83-485b-991c-dbf28d68dc91"},"vehicle_type_id":"4","last_reported":1686546427,"current_range_meters":29200,"station_id":"ce4bgj12rcd13ifvqbc0","pricing_plan_id":"free"},{"bike_id":"20f5a1d0-ac9d-454e-9f19-4ff4a2cafa7d","system_id":"levelo_inurba_marseille","lat":43.309589,"lon":5.390258,"is_reserved":false,"is_disabled":false,"rental_uris":{"android":"levelo://app?vid=20f5a1d0-ac9d-454e-9f19-4ff4a2cafa7d","ios":"levelo://app?vid=20f5a1d0-ac9d-454e-9f19-4ff4a2cafa7d"},"vehicle_type_id":"4","last_reported":1686546427,"current_range_meters":23600,"station_id":"ce4bgup2rcd13ifvqco0","pricing_plan_id":"free"},{"bike_id":"a5b1438c-a8fa-4b64-82f0-cc465f815c91","system_id":"levelo_inurba_marseille","lat":43.317557,"lon":5.390173,"is_reserved":false,"is_disabled":false,"rental_uris":{"android":"levelo://app?vid=a5b1438c-a8fa-4b64-82f0-cc465f815c91","ios":"levelo://app?vid=a5b1438c-a8fa-4b64-82f0-cc465f815c91"},"vehicle_type_id":"4","last_reported":1686546427,"current_range_meters":31200,"station_id":"ce4bhqp2rcd13ifvqhng","pricing_plan_id":"free"},{"bike_id":"848acacb-4223-493a-90c5-b5b5aedbc57e","system_id":"levelo_inurba_marseille","lat":43.298037,"lon":5.381066,"is_reserved":false,"is_disabled":false,"rental_uris":{"android":"levelo://app?vid=848acacb-4223-493a-90c5-b5b5aedbc57e","ios":"levelo://app?vid=848acacb-4223-493a-90c5-b5b5aedbc57e"},"vehicle_type_id":"4","last_reported":1686546427,"current_range_meters":26800,"station_id":"ce4bgip2rcd13ifvqbb0","pricing_plan_id":"free"},{"bike_id":"084c660d-9152-4076-915d-36871226a1f2","system_id":"levelo_inurba_marseille","lat":43.295748,"lon":5.37522,"is_reserved":false,"is_disabled":false,"rental_uris":{"android":"levelo://app?vid=084c660d-9152-4076-915d-36871226a1f2","ios":"levelo://app?vid=084c660d-9152-4076-915d-36871226a1f2"},"vehicle_type_id":"4","last_reported":1686546427,"current_range_meters":28800,"station_id":"ce4bgh92rcd13ifvqb50","pricing_plan_id":"free"},{"bike_id":"87403989-0fc5-4f37-9d4c-227b65946eda","system_id":"levelo_inurba_marseille","lat":43.298037,"lon":5.381066,"is_reserved":false,"is_disabled":false,"rental_uris":{"android":"levelo://app?vid=87403989-0fc5-4f37-9d4c-227b65946eda","ios":"levelo://app?vid=87403989-0fc5-4f37-9d4c-227b65946eda"},"vehicle_type_id":"4","last_reported":1686546427,"current_range_meters":9600,"station_id":"ce4bgip2rcd13ifvqbb0","pricing_plan_id":"free"},{"bike_id":"20917141-c87f-4e25-8d1c-559cdd595c3a","system_id":"levelo_inurba_marseille","lat":43.295748,"lon":5.37522,"is_reserved":false,"is_disabled":false,"rental_uris":{"android":"levelo://app?vid=20917141-c87f-4e25-8d1c-559cdd595c3a","ios":"levelo://app?vid=20917141-c87f-4e25-8d1c-559cdd595c3a"},"vehicle_type_id":"4","last_reported":1686546427,"current_range_meters":30800,"station_id":"ce4bgh92rcd13ifvqb50","pricing_plan_id":"free"},{"bike_id":"8f6c5ba0-cceb-4de7-bd80-103ef1deb3cc","system_id":"levelo_inurba_marseille","lat":43.298037,"lon":5.381066,"is_reserved":false,"is_disabled":false,"rental_uris":{"android":"levelo://app?vid=8f6c5ba0-cceb-4de7-bd80-103ef1deb3cc","ios":"levelo://app?vid=8f6c5ba0-cceb-4de7-bd80-103ef1deb3cc"},"vehicle_type_id":"4","last_reported":1686546427,"current_range_meters":30400,"station_id":"ce4bgip2rcd13ifvqbb0","pricing_plan_id":"free"},{"bike_id":"a6dd81e3-0ae7-4056-a766-d92127a14999","system_id":"levelo_inurba_marseille","lat":43.29966,"lon":5.38494,"is_reserved":false,"is_disabled":false,"rental_uris":{"android":"levelo://app?vid=a6dd81e3-0ae7-4056-a766-d92127a14999","ios":"levelo://app?vid=a6dd81e3-0ae7-4056-a766-d92127a14999"},"vehicle_type_id":"4","last_reported":1686546427,"current_range_meters":0,"station_id":"ce4bgj92rcd13ifvqbd0","pricing_plan_id":"free"},{"bike_id":"13e09108-f76b-4db4-a479-7107c8a07973","system_id":"levelo_inurba_marseille","lat":43.29643,"lon":5.3794,"is_reserved":false,"is_disabled":false,"rental_uris":{"android":"levelo://app?vid=13e09108-f76b-4db4-a479-7107c8a07973","ios":"levelo://app?vid=13e09108-f76b-4db4-a479-7107c8a07973"},"vehicle_type_id":"4","last_reported":1686546427,"current_range_meters":25600,"station_id":"","pricing_plan_id":"free"},{"bike_id":"1a10afdd-816f-4230-96ad-e07afc80891a","system_id":"levelo_inurba_marseille","lat":43.29425,"lon":5.37401,"is_reserved":false,"is_disabled":false,"rental_uris":{"android":"levelo://app?vid=1a10afdd-816f-4230-96ad-e07afc80891a","ios":"levelo://app?vid=1a10afdd-816f-4230-96ad-e07afc80891a"},"vehicle_type_id":"4","last_reported":1686546427,"current_range_meters":13600,"station_id":"","pricing_plan_id":"free"},{"bike_id":"4d59d3e2-3e86-4cc5-8791-b409e05014fe","system_id":"levelo_inurba_marseille","lat":43.32363,"lon":5.38881,"is_reserved":false,"is_disabled":false,"rental_uris":{"android":"levelo://app?vid=4d59d3e2-3e86-4cc5-8791-b409e05014fe","ios":"levelo://app?vid=4d59d3e2-3e86-4cc5-8791-b409e05014fe"},"vehicle_type_id":"4","last_reported":1686546427,"current_range_meters":27600,"station_id":"ce4bhqp2rcd13ifvqhog","pricing_plan_id":"free"},{"bike_id":"9ecf5d6d-25b8-45ea-a6a0-82f183a95922","system_id":"levelo_inurba_marseille","lat":43.3236,"lon":5.3889,"is_reserved":false,"is_disabled":false,"rental_uris":{"android":"levelo://app?vid=9ecf5d6d-25b8-45ea-a6a0-82f183a95922","ios":"levelo://app?vid=9ecf5d6d-25b8-45ea-a6a0-82f183a95922"},"vehicle_type_id":"4","last_reported":1686546427,"current_range_meters":31200,"station_id":"ce4bhqp2rcd13ifvqhog","pricing_plan_id":"free"},{"bike_id":"424b1910-887e-47c5-b69b-4b7b4eea4aaf","system_id":"levelo_inurba_marseille","lat":43.32369,"lon":5.38883,"is_reserved":false,"is_disabled":false,"rental_uris":{"android":"levelo://app?vid=424b1910-887e-47c5-b69b-4b7b4eea4aaf","ios":"levelo://app?vid=424b1910-887e-47c5-b69b-4b7b4eea4aaf"},"vehicle_type_id":"4","last_reported":1686546427,"current_range_meters":9600,"station_id":"ce4bhqp2rcd13ifvqhog","pricing_plan_id":"free"},{"bike_id":"ca1165c3-c276-4a53-853f-0cccdd7796c9","system_id":"levelo_inurba_marseille","lat":43.3237,"lon":5.38884,"is_reserved":false,"is_disabled":false,"rental_uris":{"android":"levelo://app?vid=ca1165c3-c276-4a53-853f-0cccdd7796c9","ios":"levelo://app?vid=ca1165c3-c276-4a53-853f-0cccdd7796c9"},"vehicle_type_id":"4","last_reported":1686546427,"current_range_meters":26400,"station_id":"ce4bhqp2rcd13ifvqhog","pricing_plan_id":"free"},{"bike_id":"0c602125-8ff7-46a9-b462-bdbd1fc5c7a4","system_id":"levelo_inurba_marseille","lat":43.32371,"lon":5.38891,"is_reserved":false,"is_disabled":false,"rental_uris":{"android":"levelo://app?vid=0c602125-8ff7-46a9-b462-bdbd1fc5c7a4","ios":"levelo://app?vid=0c602125-8ff7-46a9-b462-bdbd1fc5c7a4"},"vehicle_type_id":"4","last_reported":1686546427,"current_range_meters":10400,"station_id":"ce4bhqp2rcd13ifvqhog","pricing_plan_id":"free"},{"bike_id":"d324b201-5668-4364-af86-36b42f4cfaf9","system_id":"levelo_inurba_marseille","lat":43.29599,"lon":5.38111,"is_reserved":false,"is_disabled":false,"rental_uris":{"android":"levelo://app?vid=d324b201-5668-4364-af86-36b42f4cfaf9","ios":"levelo://app?vid=d324b201-5668-4364-af86-36b42f4cfaf9"},"vehicle_type_id":"4","last_reported":1686546427,"current_range_meters":26400,"station_id":"ce4bgl12rcd13ifvqbo0","pricing_plan_id":"free"},{"bike_id":"a32327c3-8488-41ce-be67-8f24a4ab0df5","system_id":"levelo_inurba_marseille","lat":43.29602,"lon":5.381084,"is_reserved":false,"is_disabled":false,"rental_uris":{"android":"levelo://app?vid=a32327c3-8488-41ce-be67-8f24a4ab0df5","ios":"levelo://app?vid=a32327c3-8488-41ce-be67-8f24a4ab0df5"},"vehicle_type_id":"4","last_reported":1686546427,"current_range_meters":26000,"station_id":"ce4bgl12rcd13ifvqbo0","pricing_plan_id":"free"},{"bike_id":"845dabe2-b482-4830-a709-b01213728894","system_id":"levelo_inurba_marseille","lat":43.293009,"lon":5.374584,"is_reserved":false,"is_disabled":false,"rental_uris":{"android":"levelo://app?vid=845dabe2-b482-4830-a709-b01213728894","ios":"levelo://app?vid=845dabe2-b482-4830-a709-b01213728894"},"vehicle_type_id":"4","last_reported":1686546427,"current_range_meters":31200,"station_id":"ce4bgi12rcd13ifvqb70","pricing_plan_id":"free"},{"bike_id":"14747379-0e07-4925-90e4-e18d1215382a","system_id":"levelo_inurba_marseille","lat":43.293009,"lon":5.374584,"is_reserved":false,"is_disabled":false,"rental_uris":{"android":"levelo://app?vid=14747379-0e07-4925-90e4-e18d1215382a","ios":"levelo://app?vid=14747379-0e07-4925-90e4-e18d1215382a"},"vehicle_type_id":"4","last_reported":1686546427,"current_range_meters":27200,"station_id":"ce4bgi12rcd13ifvqb70","pricing_plan_id":"free"},{"bike_id":"44bb6a43-f340-41ae-a835-f292f390872d","system_id":"levelo_inurba_marseille","lat":43.302992,"lon":5.392136,"is_reserved":false,"is_disabled":false,"rental_uris":{"android":"levelo://app?vid=44bb6a43-f340-41ae-a835-f292f390872d","ios":"levelo://app?vid=44bb6a43-f340-41ae-a835-f292f390872d"},"vehicle_type_id":"4","last_reported":1686546427,"current_range_meters":31200,"station_id":"ce4bgkh2rcd13ifvqbk0","pricing_plan_id":"free"},{"bike_id":"3a9e926b-e2cc-41b8-9b76-007f9b80afe8","system_id":"levelo_inurba_marseille","lat":43.302992,"lon":5.392136,"is_reserved":false,"is_disabled":false,"rental_uris":{"android":"levelo://app?vid=3a9e926b-e2cc-41b8-9b76-007f9b80afe8","ios":"levelo://app?vid=3a9e926b-e2cc-41b8-9b76-007f9b80afe8"},"vehicle_type_id":"4","last_reported":1686546427,"current_range_meters":21200,"station_id":"ce4bgkh2rcd13ifvqbk0","pricing_plan_id":"free"},{"bike_id":"48b75b93-6f55-47ab-91ce-49b357ea3d26","system_id":"levelo_inurba_marseille","lat":43.300852,"lon":5.390859,"is_reserved":false,"is_disabled":false,"rental_uris":{"android":"levelo://app?vid=48b75b93-6f55-47ab-91ce-49b357ea3d26","ios":"levelo://app?vid=48b75b93-6f55-47ab-91ce-49b357ea3d26"},"vehicle_type_id":"4","last_reported":1686546427,"current_range_meters":26800,"station_id":"ce4bh192rcd13ifvqdb0","pricing_plan_id":"free"},{"bike_id":"9e16caf3-fc44-405c-a7d2-0e8e0cfc1fc0","system_id":"levelo_inurba_marseille","lat":43.29175,"lon":5.37144,"is_reserved":false,"is_disabled":false,"rental_uris":{"android":"levelo://app?vid=9e16caf3-fc44-405c-a7d2-0e8e0cfc1fc0","ios":"levelo://app?vid=9e16caf3-fc44-405c-a7d2-0e8e0cfc1fc0"},"vehicle_type_id":"4","last_reported":1686546427,"current_range_meters":31200,"station_id":"ce4bha92rcd13ifvqeh0","pricing_plan_id":"free"},{"bike_id":"6bfc31ae-ac46-4a1f-ad17-781824e44325","system_id":"levelo_inurba_marseille","lat":43.291671,"lon":5.371575,"is_reserved":false,"is_disabled":false,"rental_uris":{"android":"levelo://app?vid=6bfc31ae-ac46-4a1f-ad17-781824e44325","ios":"levelo://app?vid=6bfc31ae-ac46-4a1f-ad17-781824e44325"},"vehicle_type_id":"4","last_reported":1686546427,"current_range_meters":30800,"station_id":"ce4bha92rcd13ifvqeh0","pricing_plan_id":"free"},{"bike_id":"77c52f61-ba9f-4358-9c52-b7b70cdc0151","system_id":"levelo_inurba_marseille","lat":43.309038,"lon":5.396546,"is_reserved":false,"is_disabled":false,"rental_uris":{"android":"levelo://app?vid=77c52f61-ba9f-4358-9c52-b7b70cdc0151","ios":"levelo://app?vid=77c52f61-ba9f-4358-9c52-b7b70cdc0151"},"vehicle_type_id":"4","last_reported":1686546427,"current_range_meters":8800,"station_id":"ce4bh012rcd13ifvqcv0","pricing_plan_id":"free"},{"bike_id":"85932d7f-6955-4d52-959c-8583171beed7","system_id":"levelo_inurba_marseille","lat":43.309038,"lon":5.396546,"is_reserved":false,"is_disabled":false,"rental_uris":{"android":"levelo://app?vid=85932d7f-6955-4d52-959c-8583171beed7","ios":"levelo://app?vid=85932d7f-6955-4d52-959c-8583171beed7"},"vehicle_type_id":"4","last_reported":1686546427,"current_range_meters":22000,"station_id":"ce4bh012rcd13ifvqcv0","pricing_plan_id":"free"},{"bike_id":"fff87942-1739-4f26-9201-db8fe6dc54c8","system_id":"levelo_inurba_marseille","lat":43.309038,"lon":5.396546,"is_reserved":false,"is_disabled":false,"rental_uris":{"android":"levelo://app?vid=fff87942-1739-4f26-9201-db8fe6dc54c8","ios":"levelo://app?vid=fff87942-1739-4f26-9201-db8fe6dc54c8"},"vehicle_type_id":"4","last_reported":1686546427,"current_range_meters":14800,"station_id":"ce4bh012rcd13ifvqcv0","pricing_plan_id":"free"},{"bike_id":"8624ef43-f8b9-4a47-b4aa-462550cd9414","system_id":"levelo_inurba_marseille","lat":43.309038,"lon":5.396546,"is_reserved":false,"is_disabled":false,"rental_uris":{"android":"levelo://app?vid=8624ef43-f8b9-4a47-b4aa-462550cd9414","ios":"levelo://app?vid=8624ef43-f8b9-4a47-b4aa-462550cd9414"},"vehicle_type_id":"4","last_reported":1686546427,"current_range_meters":30400,"station_id":"ce4bh012rcd13ifvqcv0","pricing_plan_id":"free"},{"bike_id":"b738b30a-3a87-443c-90d2-c7762d4715c4","system_id":"levelo_inurba_marseille","lat":43.313291,"lon":5.396838,"is_reserved":false,"is_disabled":false,"rental_uris":{"android":"levelo://app?vid=b738b30a-3a87-443c-90d2-c7762d4715c4","ios":"levelo://app?vid=b738b30a-3a87-443c-90d2-c7762d4715c4"},"vehicle_type_id":"4","last_reported":1686546427,"current_range_meters":31200,"station_id":"ce4bgvp2rcd13ifvqcu0","pricing_plan_id":"free"},{"bike_id":"c5c1243b-2c44-46cc-bc2d-e2b057f292e9","system_id":"levelo_inurba_marseille","lat":43.309038,"lon":5.396546,"is_reserved":false,"is_disabled":false,"rental_uris":{"android":"levelo://app?vid=c5c1243b-2c44-46cc-bc2d-e2b057f292e9","ios":"levelo://app?vid=c5c1243b-2c44-46cc-bc2d-e2b057f292e9"},"vehicle_type_id":"4","last_reported":1686546427,"current_range_meters":18000,"station_id":"ce4bh012rcd13ifvqcv0","pricing_plan_id":"free"},{"bike_id":"324b84e4-563b-4688-a735-0613a795f3c9","system_id":"levelo_inurba_marseille","lat":43.309038,"lon":5.396546,"is_reserved":false,"is_disabled":false,"rental_uris":{"android":"levelo://app?vid=324b84e4-563b-4688-a735-0613a795f3c9","ios":"levelo://app?vid=324b84e4-563b-4688-a735-0613a795f3c9"},"vehicle_type_id":"4","last_reported":1686546427,"current_range_meters":17600,"station_id":"ce4bh012rcd13ifvqcv0","pricing_plan_id":"free"},{"bike_id":"e13c97b2-3d2f-4591-bf46-eaf5e3eaefac","system_id":"levelo_inurba_marseille","lat":43.313291,"lon":5.396838,"is_reserved":false,"is_disabled":false,"rental_uris":{"android":"levelo://app?vid=e13c97b2-3d2f-4591-bf46-eaf5e3eaefac","ios":"levelo://app?vid=e13c97b2-3d2f-4591-bf46-eaf5e3eaefac"},"vehicle_type_id":"4","last_reported":1686546427,"current_range_meters":7200,"station_id":"ce4bgvp2rcd13ifvqcu0","pricing_plan_id":"free"},{"bike_id":"65bd4cc9-991e-4d4e-83dc-b1e043274974","system_id":"levelo_inurba_marseille","lat":43.309038,"lon":5.396546,"is_reserved":false,"is_disabled":false,"rental_uris":{"android":"levelo://app?vid=65bd4cc9-991e-4d4e-83dc-b1e043274974","ios":"levelo://app?vid=65bd4cc9-991e-4d4e-83dc-b1e043274974"},"vehicle_type_id":"4","last_reported":1686546427,"current_range_meters":31200,"station_id":"ce4bh012rcd13ifvqcv0","pricing_plan_id":"free"},{"bike_id":"a2426796-ea4c-4707-9539-220d9b86d451","system_id":"levelo_inurba_marseille","lat":43.309038,"lon":5.396546,"is_reserved":false,"is_disabled":false,"rental_uris":{"android":"levelo://app?vid=a2426796-ea4c-4707-9539-220d9b86d451","ios":"levelo://app?vid=a2426796-ea4c-4707-9539-220d9b86d451"},"vehicle_type_id":"4","last_reported":1686546427,"current_range_meters":22400,"station_id":"ce4bh012rcd13ifvqcv0","pricing_plan_id":"free"},{"bike_id":"2a73c63c-cab5-49c7-9db5-235313d5ef72","system_id":"levelo_inurba_marseille","lat":43.31333,"lon":5.39694,"is_reserved":false,"is_disabled":false,"rental_uris":{"android":"levelo://app?vid=2a73c63c-cab5-49c7-9db5-235313d5ef72","ios":"levelo://app?vid=2a73c63c-cab5-49c7-9db5-235313d5ef72"},"vehicle_type_id":"4","last_reported":1686546427,"current_range_meters":27600,"station_id":"ce4bgvp2rcd13ifvqcu0","pricing_plan_id":"free"},{"bike_id":"e987764b-a620-4b25-a740-02dbead47660","system_id":"levelo_inurba_marseille","lat":43.31334,"lon":5.39696,"is_reserved":false,"is_disabled":false,"rental_uris":{"android":"levelo://app?vid=e987764b-a620-4b25-a740-02dbead47660","ios":"levelo://app?vid=e987764b-a620-4b25-a740-02dbead47660"},"vehicle_type_id":"4","last_reported":1686546427,"current_range_meters":10400,"station_id":"ce4bgvp2rcd13ifvqcu0","pricing_plan_id":"free"},{"bike_id":"c0c2bfca-88b0-4526-94c5-1e6fd750741b","system_id":"levelo_inurba_marseille","lat":43.309038,"lon":5.396546,"is_reserved":false,"is_disabled":false,"rental_uris":{"android":"levelo://app?vid=c0c2bfca-88b0-4526-94c5-1e6fd750741b","ios":"levelo://app?vid=c0c2bfca-88b0-4526-94c5-1e6fd750741b"},"vehicle_type_id":"4","last_reported":1686546427,"current_range_meters":6800,"station_id":"ce4bh012rcd13ifvqcv0","pricing_plan_id":"free"},{"bike_id":"5fe1ece1-1420-4a55-aa3d-2761ffcfd2ef","system_id":"levelo_inurba_marseille","lat":43.313291,"lon":5.396838,"is_reserved":false,"is_disabled":false,"rental_uris":{"android":"levelo://app?vid=5fe1ece1-1420-4a55-aa3d-2761ffcfd2ef","ios":"levelo://app?vid=5fe1ece1-1420-4a55-aa3d-2761ffcfd2ef"},"vehicle_type_id":"4","last_reported":1686546427,"current_range_meters":30000,"station_id":"ce4bgvp2rcd13ifvqcu0","pricing_plan_id":"free"},{"bike_id":"1c395332-c165-46ed-80a7-244a2b5be450","system_id":"levelo_inurba_marseille","lat":43.309038,"lon":5.396546,"is_reserved":false,"is_disabled":false,"rental_uris":{"android":"levelo://app?vid=1c395332-c165-46ed-80a7-244a2b5be450","ios":"levelo://app?vid=1c395332-c165-46ed-80a7-244a2b5be450"},"vehicle_type_id":"4","last_reported":1686546427,"current_range_meters":26000,"station_id":"ce4bh012rcd13ifvqcv0","pricing_plan_id":"free"},{"bike_id":"ec5e0823-5eb0-43c0-9a3c-f5f95280afd0","system_id":"levelo_inurba_marseille","lat":43.309038,"lon":5.396546,"is_reserved":false,"is_disabled":false,"rental_uris":{"android":"levelo://app?vid=ec5e0823-5eb0-43c0-9a3c-f5f95280afd0","ios":"levelo://app?vid=ec5e0823-5eb0-43c0-9a3c-f5f95280afd0"},"vehicle_type_id":"4","last_reported":1686546427,"current_range_meters":31200,"station_id":"ce4bh012rcd13ifvqcv0","pricing_plan_id":"free"},{"bike_id":"6f6814d4-1260-4142-8621-8b20798d61b5","system_id":"levelo_inurba_marseille","lat":43.290779,"lon":5.371482,"is_reserved":false,"is_disabled":false,"rental_uris":{"android":"levelo://app?vid=6f6814d4-1260-4142-8621-8b20798d61b5","ios":"levelo://app?vid=6f6814d4-1260-4142-8621-8b20798d61b5"},"vehicle_type_id":"4","last_reported":1686546427,"current_range_meters":30800,"station_id":"ce4bh5p2rcd13ifvqe4g","pricing_plan_id":"free"},{"bike_id":"1985c152-0618-4dd4-99c0-132a288e753c","system_id":"levelo_inurba_marseille","lat":43.290779,"lon":5.371482,"is_reserved":false,"is_disabled":false,"rental_uris":{"android":"levelo://app?vid=1985c152-0618-4dd4-99c0-132a288e753c","ios":"levelo://app?vid=1985c152-0618-4dd4-99c0-132a288e753c"},"vehicle_type_id":"4","last_reported":1686546427,"current_range_meters":31200,"station_id":"ce4bh5p2rcd13ifvqe4g","pricing_plan_id":"free"},{"bike_id":"fea94d92-2b1c-47c5-a55c-6119d2c3669a","system_id":"levelo_inurba_marseille","lat":43.290779,"lon":5.371482,"is_reserved":false,"is_disabled":false,"rental_uris":{"android":"levelo://app?vid=fea94d92-2b1c-47c5-a55c-6119d2c3669a","ios":"levelo://app?vid=fea94d92-2b1c-47c5-a55c-6119d2c3669a"},"vehicle_type_id":"4","last_reported":1686546427,"current_range_meters":26400,"station_id":"ce4bh5p2rcd13ifvqe4g","pricing_plan_id":"free"},{"bike_id":"894f2fc9-5a96-4349-899b-cc3d1effb72d","system_id":"levelo_inurba_marseille","lat":43.30204,"lon":5.39443,"is_reserved":false,"is_disabled":false,"rental_uris":{"android":"levelo://app?vid=894f2fc9-5a96-4349-899b-cc3d1effb72d","ios":"levelo://app?vid=894f2fc9-5a96-4349-899b-cc3d1effb72d"},"vehicle_type_id":"4","last_reported":1686546427,"current_range_meters":26400,"station_id":"ce4bh0p2rcd13ifvqd70","pricing_plan_id":"free"},{"bike_id":"baf6d304-02d1-4a7f-9531-a0a382199b48","system_id":"levelo_inurba_marseille","lat":43.290402,"lon":5.375662,"is_reserved":false,"is_disabled":false,"rental_uris":{"android":"levelo://app?vid=baf6d304-02d1-4a7f-9531-a0a382199b48","ios":"levelo://app?vid=baf6d304-02d1-4a7f-9531-a0a382199b48"},"vehicle_type_id":"4","last_reported":1686546427,"current_range_meters":27600,"station_id":"ce4bh692rcd13ifvqe90","pricing_plan_id":"free"},{"bike_id":"9c71dc8c-a0ca-4c82-a473-82a7b6d83eed","system_id":"levelo_inurba_marseille","lat":43.289184,"lon":5.366408,"is_reserved":false,"is_disabled":false,"rental_uris":{"android":"levelo://app?vid=9c71dc8c-a0ca-4c82-a473-82a7b6d83eed","ios":"levelo://app?vid=9c71dc8c-a0ca-4c82-a473-82a7b6d83eed"},"vehicle_type_id":"4","last_reported":1686546427,"current_range_meters":31200,"station_id":"ce4bhap2rcd13ifvqek0","pricing_plan_id":"free"},{"bike_id":"09cf85bf-ccb9-4e76-8459-4a03a62540a7","system_id":"levelo_inurba_marseille","lat":43.289184,"lon":5.366408,"is_reserved":false,"is_disabled":false,"rental_uris":{"android":"levelo://app?vid=09cf85bf-ccb9-4e76-8459-4a03a62540a7","ios":"levelo://app?vid=09cf85bf-ccb9-4e76-8459-4a03a62540a7"},"vehicle_type_id":"4","last_reported":1686546427,"current_range_meters":31200,"station_id":"ce4bhap2rcd13ifvqek0","pricing_plan_id":"free"},{"bike_id":"f84fa678-bcb8-4e49-8892-94b88e98e69b","system_id":"levelo_inurba_marseille","lat":43.290327,"lon":5.375711,"is_reserved":false,"is_disabled":false,"rental_uris":{"android":"levelo://app?vid=f84fa678-bcb8-4e49-8892-94b88e98e69b","ios":"levelo://app?vid=f84fa678-bcb8-4e49-8892-94b88e98e69b"},"vehicle_type_id":"4","last_reported":1686546427,"current_range_meters":0,"station_id":"ce4bh692rcd13ifvqe90","pricing_plan_id":"free"},{"bike_id":"752888ce-6995-44c0-85c2-592a62f66379","system_id":"levelo_inurba_marseille","lat":43.289468,"lon":5.363719,"is_reserved":false,"is_disabled":false,"rental_uris":{"android":"levelo://app?vid=752888ce-6995-44c0-85c2-592a62f66379","ios":"levelo://app?vid=752888ce-6995-44c0-85c2-592a62f66379"},"vehicle_type_id":"4","last_reported":1686546427,"current_range_meters":30800,"station_id":"ce4bhc92rcd13ifvqetg","pricing_plan_id":"free"},{"bike_id":"3759ef98-8698-4c69-8399-645be5be3b76","system_id":"levelo_inurba_marseille","lat":43.289468,"lon":5.363719,"is_reserved":false,"is_disabled":false,"rental_uris":{"android":"levelo://app?vid=3759ef98-8698-4c69-8399-645be5be3b76","ios":"levelo://app?vid=3759ef98-8698-4c69-8399-645be5be3b76"},"vehicle_type_id":"4","last_reported":1686546427,"current_range_meters":31200,"station_id":"ce4bhc92rcd13ifvqetg","pricing_plan_id":"free"},{"bike_id":"c9ed2382-d98c-4db1-a85f-1e095076b8a6","system_id":"levelo_inurba_marseille","lat":43.294032,"lon":5.386342,"is_reserved":false,"is_disabled":false,"rental_uris":{"android":"levelo://app?vid=c9ed2382-d98c-4db1-a85f-1e095076b8a6","ios":"levelo://app?vid=c9ed2382-d98c-4db1-a85f-1e095076b8a6"},"vehicle_type_id":"4","last_reported":1686546427,"current_range_meters":17200,"station_id":"","pricing_plan_id":"free"},{"bike_id":"0e51fe40-fed2-4e74-8750-1783a314d623","system_id":"levelo_inurba_marseille","lat":43.289468,"lon":5.363719,"is_reserved":false,"is_disabled":false,"rental_uris":{"android":"levelo://app?vid=0e51fe40-fed2-4e74-8750-1783a314d623","ios":"levelo://app?vid=0e51fe40-fed2-4e74-8750-1783a314d623"},"vehicle_type_id":"4","last_reported":1686546427,"current_range_meters":28800,"station_id":"ce4bhc92rcd13ifvqetg","pricing_plan_id":"free"},{"bike_id":"eddf0473-4b52-43f0-a471-10969edfb37e","system_id":"levelo_inurba_marseille","lat":43.289468,"lon":5.363719,"is_reserved":false,"is_disabled":false,"rental_uris":{"android":"levelo://app?vid=eddf0473-4b52-43f0-a471-10969edfb37e","ios":"levelo://app?vid=eddf0473-4b52-43f0-a471-10969edfb37e"},"vehicle_type_id":"4","last_reported":1686546427,"current_range_meters":30000,"station_id":"ce4bhc92rcd13ifvqetg","pricing_plan_id":"free"},{"bike_id":"fa0e872e-c495-466d-8fdf-4907ac0c68fd","system_id":"levelo_inurba_marseille","lat":43.289468,"lon":5.363719,"is_reserved":false,"is_disabled":false,"rental_uris":{"android":"levelo://app?vid=fa0e872e-c495-466d-8fdf-4907ac0c68fd","ios":"levelo://app?vid=fa0e872e-c495-466d-8fdf-4907ac0c68fd"},"vehicle_type_id":"4","last_reported":1686546427,"current_range_meters":29200,"station_id":"ce4bhc92rcd13ifvqetg","pricing_plan_id":"free"},{"bike_id":"286009f0-cd0c-4c26-821d-a389ec25962b","system_id":"levelo_inurba_marseille","lat":43.289468,"lon":5.363719,"is_reserved":false,"is_disabled":false,"rental_uris":{"android":"levelo://app?vid=286009f0-cd0c-4c26-821d-a389ec25962b","ios":"levelo://app?vid=286009f0-cd0c-4c26-821d-a389ec25962b"},"vehicle_type_id":"4","last_reported":1686546427,"current_range_meters":29200,"station_id":"ce4bhc92rcd13ifvqetg","pricing_plan_id":"free"},{"bike_id":"9692f3e4-f602-4784-8a32-5ebe41439108","system_id":"levelo_inurba_marseille","lat":43.289468,"lon":5.363719,"is_reserved":false,"is_disabled":false,"rental_uris":{"android":"levelo://app?vid=9692f3e4-f602-4784-8a32-5ebe41439108","ios":"levelo://app?vid=9692f3e4-f602-4784-8a32-5ebe41439108"},"vehicle_type_id":"4","last_reported":1686546427,"current_range_meters":31200,"station_id":"ce4bhc92rcd13ifvqetg","pricing_plan_id":"free"},{"bike_id":"12c95696-aaf4-4eb2-a4b2-dfb77791120f","system_id":"levelo_inurba_marseille","lat":43.304296,"lon":5.397513,"is_reserved":false,"is_disabled":false,"rental_uris":{"android":"levelo://app?vid=12c95696-aaf4-4eb2-a4b2-dfb77791120f","ios":"levelo://app?vid=12c95696-aaf4-4eb2-a4b2-dfb77791120f"},"vehicle_type_id":"4","last_reported":1686546427,"current_range_meters":10400,"station_id":"ce4bh092rcd13ifvqd20","pricing_plan_id":"free"},{"bike_id":"2ef26e96-df7f-49af-ad86-443130d8c6f5","system_id":"levelo_inurba_marseille","lat":43.304296,"lon":5.397513,"is_reserved":false,"is_disabled":false,"rental_uris":{"android":"levelo://app?vid=2ef26e96-df7f-49af-ad86-443130d8c6f5","ios":"levelo://app?vid=2ef26e96-df7f-49af-ad86-443130d8c6f5"},"vehicle_type_id":"4","last_reported":1686546427,"current_range_meters":28000,"station_id":"ce4bh092rcd13ifvqd20","pricing_plan_id":"free"},{"bike_id":"19be6cb0-feeb-4541-a7bd-cbdd3f5ec44f","system_id":"levelo_inurba_marseille","lat":43.290104,"lon":5.356111,"is_reserved":false,"is_disabled":false,"rental_uris":{"android":"levelo://app?vid=19be6cb0-feeb-4541-a7bd-cbdd3f5ec44f","ios":"levelo://app?vid=19be6cb0-feeb-4541-a7bd-cbdd3f5ec44f"},"vehicle_type_id":"4","last_reported":1686546427,"current_range_meters":27200,"station_id":"ce4bhb92rcd13ifvqen0","pricing_plan_id":"free"},{"bike_id":"3dbc7bc3-d7f4-4439-94be-185dacae3399","system_id":"levelo_inurba_marseille","lat":43.290104,"lon":5.356111,"is_reserved":false,"is_disabled":false,"rental_uris":{"android":"levelo://app?vid=3dbc7bc3-d7f4-4439-94be-185dacae3399","ios":"levelo://app?vid=3dbc7bc3-d7f4-4439-94be-185dacae3399"},"vehicle_type_id":"4","last_reported":1686546427,"current_range_meters":22000,"station_id":"ce4bhb92rcd13ifvqen0","pricing_plan_id":"free"},{"bike_id":"77f7f2a5-69d8-4453-821e-2177a72e61bd","system_id":"levelo_inurba_marseille","lat":43.289743,"lon":5.378304,"is_reserved":false,"is_disabled":false,"rental_uris":{"android":"levelo://app?vid=77f7f2a5-69d8-4453-821e-2177a72e61bd","ios":"levelo://app?vid=77f7f2a5-69d8-4453-821e-2177a72e61bd"},"vehicle_type_id":"4","last_reported":1686546427,"current_range_meters":6400,"station_id":"ce4bh9p2rcd13ifvqed0","pricing_plan_id":"free"},{"bike_id":"b9e2c1f1-618d-40a1-ab4f-f89ebe55e0a3","system_id":"levelo_inurba_marseille","lat":43.295169,"lon":5.390426,"is_reserved":false,"is_disabled":false,"rental_uris":{"android":"levelo://app?vid=b9e2c1f1-618d-40a1-ab4f-f89ebe55e0a3","ios":"levelo://app?vid=b9e2c1f1-618d-40a1-ab4f-f89ebe55e0a3"},"vehicle_type_id":"4","last_reported":1686546427,"current_range_meters":26000,"station_id":"ce4bh3p2rcd13ifvqdp0","pricing_plan_id":"free"},{"bike_id":"c3e4d426-8653-4e47-9150-f988ba7cb7e6","system_id":"levelo_inurba_marseille","lat":43.289743,"lon":5.378304,"is_reserved":false,"is_disabled":false,"rental_uris":{"android":"levelo://app?vid=c3e4d426-8653-4e47-9150-f988ba7cb7e6","ios":"levelo://app?vid=c3e4d426-8653-4e47-9150-f988ba7cb7e6"},"vehicle_type_id":"4","last_reported":1686546427,"current_range_meters":24800,"station_id":"ce4bh9p2rcd13ifvqed0","pricing_plan_id":"free"},{"bike_id":"f4647982-8836-4561-bf8e-42ad5ed4e993","system_id":"levelo_inurba_marseille","lat":43.289741,"lon":5.378306,"is_reserved":false,"is_disabled":false,"rental_uris":{"android":"levelo://app?vid=f4647982-8836-4561-bf8e-42ad5ed4e993","ios":"levelo://app?vid=f4647982-8836-4561-bf8e-42ad5ed4e993"},"vehicle_type_id":"4","last_reported":1686546427,"current_range_meters":28000,"station_id":"ce4bh9p2rcd13ifvqed0","pricing_plan_id":"free"},{"bike_id":"e877c975-006f-4c52-8766-3a6459d0e7a7","system_id":"levelo_inurba_marseille","lat":43.297814,"lon":5.393513,"is_reserved":false,"is_disabled":false,"rental_uris":{"android":"levelo://app?vid=e877c975-006f-4c52-8766-3a6459d0e7a7","ios":"levelo://app?vid=e877c975-006f-4c52-8766-3a6459d0e7a7"},"vehicle_type_id":"4","last_reported":1686546427,"current_range_meters":31200,"station_id":"chh1huq6cuj3fo74tm60","pricing_plan_id":"free"},{"bike_id":"d77fbbb4-e939-47e4-a2af-1ab9b58cd302","system_id":"levelo_inurba_marseille","lat":43.295169,"lon":5.390426,"is_reserved":false,"is_disabled":false,"rental_uris":{"android":"levelo://app?vid=d77fbbb4-e939-47e4-a2af-1ab9b58cd302","ios":"levelo://app?vid=d77fbbb4-e939-47e4-a2af-1ab9b58cd302"},"vehicle_type_id":"4","last_reported":1686546427,"current_range_meters":28800,"station_id":"ce4bh3p2rcd13ifvqdp0","pricing_plan_id":"free"},{"bike_id":"8056a26b-26f1-4612-9b7b-d784042774c7","system_id":"levelo_inurba_marseille","lat":43.28975,"lon":5.37845,"is_reserved":false,"is_disabled":false,"rental_uris":{"android":"levelo://app?vid=8056a26b-26f1-4612-9b7b-d784042774c7","ios":"levelo://app?vid=8056a26b-26f1-4612-9b7b-d784042774c7"},"vehicle_type_id":"4","last_reported":1686546427,"current_range_meters":0,"station_id":"ce4bh9p2rcd13ifvqed0","pricing_plan_id":"free"},{"bike_id":"ff4bc481-a7e4-4b0d-a7b3-f4df358c54b7","system_id":"levelo_inurba_marseille","lat":43.295169,"lon":5.390426,"is_reserved":false,"is_disabled":false,"rental_uris":{"android":"levelo://app?vid=ff4bc481-a7e4-4b0d-a7b3-f4df358c54b7","ios":"levelo://app?vid=ff4bc481-a7e4-4b0d-a7b3-f4df358c54b7"},"vehicle_type_id":"4","last_reported":1686546427,"current_range_meters":29600,"station_id":"ce4bh3p2rcd13ifvqdp0","pricing_plan_id":"free"},{"bike_id":"325662ae-f1ab-4bae-8e2e-d70aa4c546fc","system_id":"levelo_inurba_marseille","lat":43.28856,"lon":5.358371,"is_reserved":false,"is_disabled":false,"rental_uris":{"android":"levelo://app?vid=325662ae-f1ab-4bae-8e2e-d70aa4c546fc","ios":"levelo://app?vid=325662ae-f1ab-4bae-8e2e-d70aa4c546fc"},"vehicle_type_id":"4","last_reported":1686546427,"current_range_meters":28000,"station_id":"ce4bhb12rcd13ifvqem0","pricing_plan_id":"free"},{"bike_id":"95f42a37-bed6-4272-832f-97b2163f4d67","system_id":"levelo_inurba_marseille","lat":43.28856,"lon":5.358371,"is_reserved":false,"is_disabled":false,"rental_uris":{"android":"levelo://app?vid=95f42a37-bed6-4272-832f-97b2163f4d67","ios":"levelo://app?vid=95f42a37-bed6-4272-832f-97b2163f4d67"},"vehicle_type_id":"4","last_reported":1686546427,"current_range_meters":29600,"station_id":"ce4bhb12rcd13ifvqem0","pricing_plan_id":"free"},{"bike_id":"f2f1b969-4fa5-447d-b4ee-a03d738b9c73","system_id":"levelo_inurba_marseille","lat":43.28856,"lon":5.358371,"is_reserved":false,"is_disabled":false,"rental_uris":{"android":"levelo://app?vid=f2f1b969-4fa5-447d-b4ee-a03d738b9c73","ios":"levelo://app?vid=f2f1b969-4fa5-447d-b4ee-a03d738b9c73"},"vehicle_type_id":"4","last_reported":1686546427,"current_range_meters":31200,"station_id":"ce4bhb12rcd13ifvqem0","pricing_plan_id":"free"},{"bike_id":"61226208-50b8-400f-824b-f51381de7bb0","system_id":"levelo_inurba_marseille","lat":43.28856,"lon":5.358371,"is_reserved":false,"is_disabled":false,"rental_uris":{"android":"levelo://app?vid=61226208-50b8-400f-824b-f51381de7bb0","ios":"levelo://app?vid=61226208-50b8-400f-824b-f51381de7bb0"},"vehicle_type_id":"4","last_reported":1686546427,"current_range_meters":31200,"station_id":"ce4bhb12rcd13ifvqem0","pricing_plan_id":"free"},{"bike_id":"4bf3107e-b36b-4aa9-8ab1-f436cf31d24a","system_id":"levelo_inurba_marseille","lat":43.28856,"lon":5.358371,"is_reserved":false,"is_disabled":false,"rental_uris":{"android":"levelo://app?vid=4bf3107e-b36b-4aa9-8ab1-f436cf31d24a","ios":"levelo://app?vid=4bf3107e-b36b-4aa9-8ab1-f436cf31d24a"},"vehicle_type_id":"4","last_reported":1686546427,"current_range_meters":29600,"station_id":"ce4bhb12rcd13ifvqem0","pricing_plan_id":"free"},{"bike_id":"e3ad1319-1301-4b25-ac78-88989b1fb0f6","system_id":"levelo_inurba_marseille","lat":43.309371,"lon":5.401449,"is_reserved":false,"is_disabled":false,"rental_uris":{"android":"levelo://app?vid=e3ad1319-1301-4b25-ac78-88989b1fb0f6","ios":"levelo://app?vid=e3ad1319-1301-4b25-ac78-88989b1fb0f6"},"vehicle_type_id":"4","last_reported":1686546427,"current_range_meters":23200,"station_id":"ce4bgvp2rcd13ifvqct0","pricing_plan_id":"free"},{"bike_id":"a414d266-1773-49f2-a823-5803ee547281","system_id":"levelo_inurba_marseille","lat":43.30642,"lon":5.401031,"is_reserved":false,"is_disabled":false,"rental_uris":{"android":"levelo://app?vid=a414d266-1773-49f2-a823-5803ee547281","ios":"levelo://app?vid=a414d266-1773-49f2-a823-5803ee547281"},"vehicle_type_id":"4","last_reported":1686546427,"current_range_meters":25200,"station_id":"ce4bh112rcd13ifvqda0","pricing_plan_id":"free"},{"bike_id":"f221bd9e-dec8-4a21-b50e-a2100fe7358d","system_id":"levelo_inurba_marseille","lat":43.30642,"lon":5.401031,"is_reserved":false,"is_disabled":false,"rental_uris":{"android":"levelo://app?vid=f221bd9e-dec8-4a21-b50e-a2100fe7358d","ios":"levelo://app?vid=f221bd9e-dec8-4a21-b50e-a2100fe7358d"},"vehicle_type_id":"4","last_reported":1686546427,"current_range_meters":22400,"station_id":"ce4bh112rcd13ifvqda0","pricing_plan_id":"free"},{"bike_id":"5839f2c1-7e36-4dad-8357-bdc3de9aa136","system_id":"levelo_inurba_marseille","lat":43.30642,"lon":5.401031,"is_reserved":false,"is_disabled":false,"rental_uris":{"android":"levelo://app?vid=5839f2c1-7e36-4dad-8357-bdc3de9aa136","ios":"levelo://app?vid=5839f2c1-7e36-4dad-8357-bdc3de9aa136"},"vehicle_type_id":"4","last_reported":1686546427,"current_range_meters":23600,"station_id":"ce4bh112rcd13ifvqda0","pricing_plan_id":"free"},{"bike_id":"e32463fb-3430-46a2-869f-8def1c202bfd","system_id":"levelo_inurba_marseille","lat":43.30642,"lon":5.401031,"is_reserved":false,"is_disabled":false,"rental_uris":{"android":"levelo://app?vid=e32463fb-3430-46a2-869f-8def1c202bfd","ios":"levelo://app?vid=e32463fb-3430-46a2-869f-8def1c202bfd"},"vehicle_type_id":"4","last_reported":1686546427,"current_range_meters":23200,"station_id":"ce4bh112rcd13ifvqda0","pricing_plan_id":"free"},{"bike_id":"7d658a7e-496f-4f88-8dbd-c494f53f928b","system_id":"levelo_inurba_marseille","lat":43.33755,"lon":5.37465,"is_reserved":false,"is_disabled":false,"rental_uris":{"android":"levelo://app?vid=7d658a7e-496f-4f88-8dbd-c494f53f928b","ios":"levelo://app?vid=7d658a7e-496f-4f88-8dbd-c494f53f928b"},"vehicle_type_id":"4","last_reported":1686546427,"current_range_meters":0,"station_id":"","pricing_plan_id":"free"},{"bike_id":"265c0905-166c-408b-8d33-95a8e86424e1","system_id":"levelo_inurba_marseille","lat":43.337582,"lon":5.374483,"is_reserved":false,"is_disabled":false,"rental_uris":{"android":"levelo://app?vid=265c0905-166c-408b-8d33-95a8e86424e1","ios":"levelo://app?vid=265c0905-166c-408b-8d33-95a8e86424e1"},"vehicle_type_id":"4","last_reported":1686546427,"current_range_meters":10000,"station_id":"","pricing_plan_id":"free"},{"bike_id":"d2e6918d-4bca-4179-b82f-3c067ff99a7d","system_id":"levelo_inurba_marseille","lat":43.33761,"lon":5.3745,"is_reserved":false,"is_disabled":false,"rental_uris":{"android":"levelo://app?vid=d2e6918d-4bca-4179-b82f-3c067ff99a7d","ios":"levelo://app?vid=d2e6918d-4bca-4179-b82f-3c067ff99a7d"},"vehicle_type_id":"4","last_reported":1686546427,"current_range_meters":28000,"station_id":"","pricing_plan_id":"free"},{"bike_id":"a825d8e6-95fd-4e58-8bcd-079c8b477129","system_id":"levelo_inurba_marseille","lat":43.33766,"lon":5.37425,"is_reserved":false,"is_disabled":false,"rental_uris":{"android":"levelo://app?vid=a825d8e6-95fd-4e58-8bcd-079c8b477129","ios":"levelo://app?vid=a825d8e6-95fd-4e58-8bcd-079c8b477129"},"vehicle_type_id":"4","last_reported":1686546427,"current_range_meters":23200,"station_id":"","pricing_plan_id":"free"},{"bike_id":"fb041ec1-b611-46eb-9d8b-3229cfb3396a","system_id":"levelo_inurba_marseille","lat":43.33768,"lon":5.37459,"is_reserved":false,"is_disabled":false,"rental_uris":{"android":"levelo://app?vid=fb041ec1-b611-46eb-9d8b-3229cfb3396a","ios":"levelo://app?vid=fb041ec1-b611-46eb-9d8b-3229cfb3396a"},"vehicle_type_id":"4","last_reported":1686546427,"current_range_meters":17200,"station_id":"","pricing_plan_id":"free"},{"bike_id":"dc03ba51-5d22-4ed9-b3ed-9499a80f6bd0","system_id":"levelo_inurba_marseille","lat":43.3379,"lon":5.37445,"is_reserved":false,"is_disabled":false,"rental_uris":{"android":"levelo://app?vid=dc03ba51-5d22-4ed9-b3ed-9499a80f6bd0","ios":"levelo://app?vid=dc03ba51-5d22-4ed9-b3ed-9499a80f6bd0"},"vehicle_type_id":"4","last_reported":1686546427,"current_range_meters":30800,"station_id":"","pricing_plan_id":"free"},{"bike_id":"b946f61a-496e-415e-8e50-898e0391452a","system_id":"levelo_inurba_marseille","lat":43.286591,"lon":5.363346,"is_reserved":false,"is_disabled":false,"rental_uris":{"android":"levelo://app?vid=b946f61a-496e-415e-8e50-898e0391452a","ios":"levelo://app?vid=b946f61a-496e-415e-8e50-898e0391452a"},"vehicle_type_id":"4","last_reported":1686546427,"current_range_meters":31200,"station_id":"ce4bhah2rcd13ifvqej0","pricing_plan_id":"free"},{"bike_id":"cee6a2b6-2bdb-403c-afa4-51f4988d76ac","system_id":"levelo_inurba_marseille","lat":43.298681,"lon":5.397225,"is_reserved":false,"is_disabled":false,"rental_uris":{"android":"levelo://app?vid=cee6a2b6-2bdb-403c-afa4-51f4988d76ac","ios":"levelo://app?vid=cee6a2b6-2bdb-403c-afa4-51f4988d76ac"},"vehicle_type_id":"4","last_reported":1686546427,"current_range_meters":29600,"station_id":"ce4bh0h2rcd13ifvqd50","pricing_plan_id":"free"},{"bike_id":"e1bd7675-6035-41a4-858b-46d0140259b5","system_id":"levelo_inurba_marseille","lat":43.298681,"lon":5.397225,"is_reserved":false,"is_disabled":false,"rental_uris":{"android":"levelo://app?vid=e1bd7675-6035-41a4-858b-46d0140259b5","ios":"levelo://app?vid=e1bd7675-6035-41a4-858b-46d0140259b5"},"vehicle_type_id":"4","last_reported":1686546427,"current_range_meters":22400,"station_id":"ce4bh0h2rcd13ifvqd50","pricing_plan_id":"free"},{"bike_id":"d71fb954-4215-4045-a08d-82511da891c1","system_id":"levelo_inurba_marseille","lat":43.298681,"lon":5.397225,"is_reserved":false,"is_disabled":false,"rental_uris":{"android":"levelo://app?vid=d71fb954-4215-4045-a08d-82511da891c1","ios":"levelo://app?vid=d71fb954-4215-4045-a08d-82511da891c1"},"vehicle_type_id":"4","last_reported":1686546427,"current_range_meters":31200,"station_id":"ce4bh0h2rcd13ifvqd50","pricing_plan_id":"free"},{"bike_id":"beaec097-b72d-453a-9fdf-5554777042c4","system_id":"levelo_inurba_marseille","lat":43.298681,"lon":5.397225,"is_reserved":false,"is_disabled":false,"rental_uris":{"android":"levelo://app?vid=beaec097-b72d-453a-9fdf-5554777042c4","ios":"levelo://app?vid=beaec097-b72d-453a-9fdf-5554777042c4"},"vehicle_type_id":"4","last_reported":1686546427,"current_range_meters":31200,"station_id":"ce4bh0h2rcd13ifvqd50","pricing_plan_id":"free"},{"bike_id":"8ae1da75-3425-43a6-9d98-1c65d2fb02b8","system_id":"levelo_inurba_marseille","lat":43.298681,"lon":5.397225,"is_reserved":false,"is_disabled":false,"rental_uris":{"android":"levelo://app?vid=8ae1da75-3425-43a6-9d98-1c65d2fb02b8","ios":"levelo://app?vid=8ae1da75-3425-43a6-9d98-1c65d2fb02b8"},"vehicle_type_id":"4","last_reported":1686546427,"current_range_meters":23200,"station_id":"ce4bh0h2rcd13ifvqd50","pricing_plan_id":"free"},{"bike_id":"196f0f7c-1658-4549-876a-8972e262512c","system_id":"levelo_inurba_marseille","lat":43.298681,"lon":5.397225,"is_reserved":false,"is_disabled":false,"rental_uris":{"android":"levelo://app?vid=196f0f7c-1658-4549-876a-8972e262512c","ios":"levelo://app?vid=196f0f7c-1658-4549-876a-8972e262512c"},"vehicle_type_id":"4","last_reported":1686546427,"current_range_meters":28400,"station_id":"ce4bh0h2rcd13ifvqd50","pricing_plan_id":"free"},{"bike_id":"38997c24-6544-495c-a8e8-c803c4eb0275","system_id":"levelo_inurba_marseille","lat":43.286591,"lon":5.363346,"is_reserved":false,"is_disabled":false,"rental_uris":{"android":"levelo://app?vid=38997c24-6544-495c-a8e8-c803c4eb0275","ios":"levelo://app?vid=38997c24-6544-495c-a8e8-c803c4eb0275"},"vehicle_type_id":"4","last_reported":1686546427,"current_range_meters":31200,"station_id":"ce4bhah2rcd13ifvqej0","pricing_plan_id":"free"},{"bike_id":"0822e6cf-0c7f-46ce-b207-f3cd6d3dc93e","system_id":"levelo_inurba_marseille","lat":43.286593,"lon":5.363346,"is_reserved":false,"is_disabled":false,"rental_uris":{"android":"levelo://app?vid=0822e6cf-0c7f-46ce-b207-f3cd6d3dc93e","ios":"levelo://app?vid=0822e6cf-0c7f-46ce-b207-f3cd6d3dc93e"},"vehicle_type_id":"4","last_reported":1686546427,"current_range_meters":18800,"station_id":"ce4bhah2rcd13ifvqej0","pricing_plan_id":"free"},{"bike_id":"f23087f2-af1c-4684-b4e5-1ed856e5fff5","system_id":"levelo_inurba_marseille","lat":43.286593,"lon":5.363346,"is_reserved":false,"is_disabled":false,"rental_uris":{"android":"levelo://app?vid=f23087f2-af1c-4684-b4e5-1ed856e5fff5","ios":"levelo://app?vid=f23087f2-af1c-4684-b4e5-1ed856e5fff5"},"vehicle_type_id":"4","last_reported":1686546427,"current_range_meters":17200,"station_id":"ce4bhah2rcd13ifvqej0","pricing_plan_id":"free"},{"bike_id":"ba14619a-4444-4984-88fb-41a94bb769d2","system_id":"levelo_inurba_marseille","lat":43.295196,"lon":5.39397,"is_reserved":false,"is_disabled":false,"rental_uris":{"android":"levelo://app?vid=ba14619a-4444-4984-88fb-41a94bb769d2","ios":"levelo://app?vid=ba14619a-4444-4984-88fb-41a94bb769d2"},"vehicle_type_id":"4","last_reported":1686546427,"current_range_meters":30400,"station_id":"ce4bh292rcd13ifvqdf0","pricing_plan_id":"free"},{"bike_id":"8cbf3ba5-fca2-4799-a69a-212af1120239","system_id":"levelo_inurba_marseille","lat":43.29517,"lon":5.39406,"is_reserved":false,"is_disabled":false,"rental_uris":{"android":"levelo://app?vid=8cbf3ba5-fca2-4799-a69a-212af1120239","ios":"levelo://app?vid=8cbf3ba5-fca2-4799-a69a-212af1120239"},"vehicle_type_id":"4","last_reported":1686546427,"current_range_meters":26400,"station_id":"ce4bh292rcd13ifvqdf0","pricing_plan_id":"free"},{"bike_id":"f05ce419-04a0-459a-8f90-fe65c72fa6b4","system_id":"levelo_inurba_marseille","lat":43.29518,"lon":5.39409,"is_reserved":false,"is_disabled":false,"rental_uris":{"android":"levelo://app?vid=f05ce419-04a0-459a-8f90-fe65c72fa6b4","ios":"levelo://app?vid=f05ce419-04a0-459a-8f90-fe65c72fa6b4"},"vehicle_type_id":"4","last_reported":1686546427,"current_range_meters":29600,"station_id":"ce4bh292rcd13ifvqdf0","pricing_plan_id":"free"},{"bike_id":"e72c255a-3e0d-461b-83ac-3a433a8f846c","system_id":"levelo_inurba_marseille","lat":43.295196,"lon":5.39397,"is_reserved":false,"is_disabled":false,"rental_uris":{"android":"levelo://app?vid=e72c255a-3e0d-461b-83ac-3a433a8f846c","ios":"levelo://app?vid=e72c255a-3e0d-461b-83ac-3a433a8f846c"},"vehicle_type_id":"4","last_reported":1686546427,"current_range_meters":25200,"station_id":"ce4bh292rcd13ifvqdf0","pricing_plan_id":"free"},{"bike_id":"e8eb823b-4b5a-4cb7-9e9d-f199167b2fc0","system_id":"levelo_inurba_marseille","lat":43.290345,"lon":5.38646,"is_reserved":false,"is_disabled":false,"rental_uris":{"android":"levelo://app?vid=e8eb823b-4b5a-4cb7-9e9d-f199167b2fc0","ios":"levelo://app?vid=e8eb823b-4b5a-4cb7-9e9d-f199167b2fc0"},"vehicle_type_id":"4","last_reported":1686546427,"current_range_meters":31200,"station_id":"ce4bh4p2rcd13ifvqe0g","pricing_plan_id":"free"},{"bike_id":"ec18723a-3bf3-4e8d-9647-e206f6766b97","system_id":"levelo_inurba_marseille","lat":43.290345,"lon":5.38646,"is_reserved":false,"is_disabled":false,"rental_uris":{"android":"levelo://app?vid=ec18723a-3bf3-4e8d-9647-e206f6766b97","ios":"levelo://app?vid=ec18723a-3bf3-4e8d-9647-e206f6766b97"},"vehicle_type_id":"4","last_reported":1686546427,"current_range_meters":31200,"station_id":"ce4bh4p2rcd13ifvqe0g","pricing_plan_id":"free"},{"bike_id":"321d5476-d79d-4a64-8243-6845b8bf765d","system_id":"levelo_inurba_marseille","lat":43.3024,"lon":5.4008,"is_reserved":false,"is_disabled":false,"rental_uris":{"android":"levelo://app?vid=321d5476-d79d-4a64-8243-6845b8bf765d","ios":"levelo://app?vid=321d5476-d79d-4a64-8243-6845b8bf765d"},"vehicle_type_id":"4","last_reported":1686546427,"current_range_meters":9200,"station_id":"ce4bgvh2rcd13ifvqcs0","pricing_plan_id":"free"},{"bike_id":"a0cc65f0-9002-4abe-9019-a3cda17b7779","system_id":"levelo_inurba_marseille","lat":43.286039,"lon":5.370681,"is_reserved":false,"is_disabled":false,"rental_uris":{"android":"levelo://app?vid=a0cc65f0-9002-4abe-9019-a3cda17b7779","ios":"levelo://app?vid=a0cc65f0-9002-4abe-9019-a3cda17b7779"},"vehicle_type_id":"4","last_reported":1686546427,"current_range_meters":31200,"station_id":"ce4bht12rcd13ifvqi60","pricing_plan_id":"free"},{"bike_id":"fd1637d2-7295-4e7d-aa3e-8d834fd6f4dd","system_id":"levelo_inurba_marseille","lat":43.30248,"lon":5.40086,"is_reserved":false,"is_disabled":false,"rental_uris":{"android":"levelo://app?vid=fd1637d2-7295-4e7d-aa3e-8d834fd6f4dd","ios":"levelo://app?vid=fd1637d2-7295-4e7d-aa3e-8d834fd6f4dd"},"vehicle_type_id":"4","last_reported":1686546427,"current_range_meters":30800,"station_id":"","pricing_plan_id":"free"},{"bike_id":"94dabbc2-ef3a-4b4d-b318-1086417d66fe","system_id":"levelo_inurba_marseille","lat":43.30249,"lon":5.40087,"is_reserved":false,"is_disabled":false,"rental_uris":{"android":"levelo://app?vid=94dabbc2-ef3a-4b4d-b318-1086417d66fe","ios":"levelo://app?vid=94dabbc2-ef3a-4b4d-b318-1086417d66fe"},"vehicle_type_id":"4","last_reported":1686546427,"current_range_meters":24800,"station_id":"","pricing_plan_id":"free"},{"bike_id":"69d46377-eae1-4684-a11a-1325b99d8430","system_id":"levelo_inurba_marseille","lat":43.30253,"lon":5.40092,"is_reserved":false,"is_disabled":false,"rental_uris":{"android":"levelo://app?vid=69d46377-eae1-4684-a11a-1325b99d8430","ios":"levelo://app?vid=69d46377-eae1-4684-a11a-1325b99d8430"},"vehicle_type_id":"4","last_reported":1686546427,"current_range_meters":31200,"station_id":"","pricing_plan_id":"free"},{"bike_id":"5f7ee111-d0d7-4c6b-b1f5-21bd7faefa50","system_id":"levelo_inurba_marseille","lat":43.286039,"lon":5.370681,"is_reserved":false,"is_disabled":false,"rental_uris":{"android":"levelo://app?vid=5f7ee111-d0d7-4c6b-b1f5-21bd7faefa50","ios":"levelo://app?vid=5f7ee111-d0d7-4c6b-b1f5-21bd7faefa50"},"vehicle_type_id":"4","last_reported":1686546427,"current_range_meters":15600,"station_id":"ce4bht12rcd13ifvqi60","pricing_plan_id":"free"},{"bike_id":"435084b6-00ae-4eda-98bc-7129dc4a99d1","system_id":"levelo_inurba_marseille","lat":43.316517,"lon":5.404375,"is_reserved":false,"is_disabled":false,"rental_uris":{"android":"levelo://app?vid=435084b6-00ae-4eda-98bc-7129dc4a99d1","ios":"levelo://app?vid=435084b6-00ae-4eda-98bc-7129dc4a99d1"},"vehicle_type_id":"4","last_reported":1686546427,"current_range_meters":31200,"station_id":"ce4bh012rcd13ifvqd00","pricing_plan_id":"free"},{"bike_id":"01a1f4bf-4af3-48e7-95f8-b1b9cbe209e0","system_id":"levelo_inurba_marseille","lat":43.316517,"lon":5.404375,"is_reserved":false,"is_disabled":false,"rental_uris":{"android":"levelo://app?vid=01a1f4bf-4af3-48e7-95f8-b1b9cbe209e0","ios":"levelo://app?vid=01a1f4bf-4af3-48e7-95f8-b1b9cbe209e0"},"vehicle_type_id":"4","last_reported":1686546427,"current_range_meters":31200,"station_id":"ce4bh012rcd13ifvqd00","pricing_plan_id":"free"},{"bike_id":"92034b9e-4af3-4ded-9442-7a3640101bcd","system_id":"levelo_inurba_marseille","lat":43.291994,"lon":5.392907,"is_reserved":false,"is_disabled":false,"rental_uris":{"android":"levelo://app?vid=92034b9e-4af3-4ded-9442-7a3640101bcd","ios":"levelo://app?vid=92034b9e-4af3-4ded-9442-7a3640101bcd"},"vehicle_type_id":"4","last_reported":1686546427,"current_range_meters":26000,"station_id":"ce4bh192rcd13ifvqdd0","pricing_plan_id":"free"},{"bike_id":"5fef70ac-fec2-4de4-af00-27344f77db02","system_id":"levelo_inurba_marseille","lat":43.291994,"lon":5.392907,"is_reserved":false,"is_disabled":false,"rental_uris":{"android":"levelo://app?vid=5fef70ac-fec2-4de4-af00-27344f77db02","ios":"levelo://app?vid=5fef70ac-fec2-4de4-af00-27344f77db02"},"vehicle_type_id":"4","last_reported":1686546427,"current_range_meters":28800,"station_id":"ce4bh192rcd13ifvqdd0","pricing_plan_id":"free"},{"bike_id":"c9f07ace-c0a6-4e06-8f15-0d012c06f426","system_id":"levelo_inurba_marseille","lat":43.291994,"lon":5.392907,"is_reserved":false,"is_disabled":false,"rental_uris":{"android":"levelo://app?vid=c9f07ace-c0a6-4e06-8f15-0d012c06f426","ios":"levelo://app?vid=c9f07ace-c0a6-4e06-8f15-0d012c06f426"},"vehicle_type_id":"4","last_reported":1686546427,"current_range_meters":29200,"station_id":"ce4bh192rcd13ifvqdd0","pricing_plan_id":"free"},{"bike_id":"063ecac0-9b1b-481e-9d17-de6dff892e6e","system_id":"levelo_inurba_marseille","lat":43.291994,"lon":5.392907,"is_reserved":false,"is_disabled":false,"rental_uris":{"android":"levelo://app?vid=063ecac0-9b1b-481e-9d17-de6dff892e6e","ios":"levelo://app?vid=063ecac0-9b1b-481e-9d17-de6dff892e6e"},"vehicle_type_id":"4","last_reported":1686546427,"current_range_meters":30000,"station_id":"ce4bh192rcd13ifvqdd0","pricing_plan_id":"free"},{"bike_id":"fdc3ce31-78de-4df8-b1e0-8eb11dd7809c","system_id":"levelo_inurba_marseille","lat":43.284534,"lon":5.358662,"is_reserved":false,"is_disabled":false,"rental_uris":{"android":"levelo://app?vid=fdc3ce31-78de-4df8-b1e0-8eb11dd7809c","ios":"levelo://app?vid=fdc3ce31-78de-4df8-b1e0-8eb11dd7809c"},"vehicle_type_id":"4","last_reported":1686546427,"current_range_meters":23600,"station_id":"ce4bhah2rcd13ifvqei0","pricing_plan_id":"free"},{"bike_id":"e79f235c-d111-46de-b9b1-d31aa12b8f8a","system_id":"levelo_inurba_marseille","lat":43.284534,"lon":5.358662,"is_reserved":false,"is_disabled":false,"rental_uris":{"android":"levelo://app?vid=e79f235c-d111-46de-b9b1-d31aa12b8f8a","ios":"levelo://app?vid=e79f235c-d111-46de-b9b1-d31aa12b8f8a"},"vehicle_type_id":"4","last_reported":1686546427,"current_range_meters":18000,"station_id":"ce4bhah2rcd13ifvqei0","pricing_plan_id":"free"},{"bike_id":"dabace58-9c05-4d26-8f5c-2254b3f08b0d","system_id":"levelo_inurba_marseille","lat":43.284534,"lon":5.358662,"is_reserved":false,"is_disabled":false,"rental_uris":{"android":"levelo://app?vid=dabace58-9c05-4d26-8f5c-2254b3f08b0d","ios":"levelo://app?vid=dabace58-9c05-4d26-8f5c-2254b3f08b0d"},"vehicle_type_id":"4","last_reported":1686546427,"current_range_meters":20800,"station_id":"ce4bhah2rcd13ifvqei0","pricing_plan_id":"free"},{"bike_id":"ed415f97-b9c1-41e1-9702-54478e94155a","system_id":"levelo_inurba_marseille","lat":43.285856,"lon":5.350771,"is_reserved":false,"is_disabled":false,"rental_uris":{"android":"levelo://app?vid=ed415f97-b9c1-41e1-9702-54478e94155a","ios":"levelo://app?vid=ed415f97-b9c1-41e1-9702-54478e94155a"},"vehicle_type_id":"4","last_reported":1686546427,"current_range_meters":28800,"station_id":"ce4bhch2rcd13ifvqeug","pricing_plan_id":"free"},{"bike_id":"7e1ed17b-80bc-4679-acc1-1f5284d0a4f4","system_id":"levelo_inurba_marseille","lat":43.2842,"lon":5.37512,"is_reserved":false,"is_disabled":false,"rental_uris":{"android":"levelo://app?vid=7e1ed17b-80bc-4679-acc1-1f5284d0a4f4","ios":"levelo://app?vid=7e1ed17b-80bc-4679-acc1-1f5284d0a4f4"},"vehicle_type_id":"4","last_reported":1686546427,"current_range_meters":30400,"station_id":"","pricing_plan_id":"free"},{"bike_id":"a01757e3-df67-4b12-9ed1-b716c2fa2a4c","system_id":"levelo_inurba_marseille","lat":43.296263,"lon":5.40601,"is_reserved":false,"is_disabled":false,"rental_uris":{"android":"levelo://app?vid=a01757e3-df67-4b12-9ed1-b716c2fa2a4c","ios":"levelo://app?vid=a01757e3-df67-4b12-9ed1-b716c2fa2a4c"},"vehicle_type_id":"4","last_reported":1686546427,"current_range_meters":18400,"station_id":"ce4bh0h2rcd13ifvqd60","pricing_plan_id":"free"},{"bike_id":"c3f83837-eecc-46c0-9a15-80a5cdbe31b5","system_id":"levelo_inurba_marseille","lat":43.286595,"lon":5.386795,"is_reserved":false,"is_disabled":false,"rental_uris":{"android":"levelo://app?vid=c3f83837-eecc-46c0-9a15-80a5cdbe31b5","ios":"levelo://app?vid=c3f83837-eecc-46c0-9a15-80a5cdbe31b5"},"vehicle_type_id":"4","last_reported":1686546427,"current_range_meters":25600,"station_id":"ce4bh492rcd13ifvqdug","pricing_plan_id":"free"},{"bike_id":"94783ff9-d63f-4314-a42f-617e764a1b17","system_id":"levelo_inurba_marseille","lat":43.28515,"lon":5.35034,"is_reserved":false,"is_disabled":false,"rental_uris":{"android":"levelo://app?vid=94783ff9-d63f-4314-a42f-617e764a1b17","ios":"levelo://app?vid=94783ff9-d63f-4314-a42f-617e764a1b17"},"vehicle_type_id":"4","last_reported":1686546427,"current_range_meters":6400,"station_id":"ce4bhbh2rcd13ifvqepg","pricing_plan_id":"free"},{"bike_id":"ba019977-f266-49f9-b8c0-4ba8e8943bc1","system_id":"levelo_inurba_marseille","lat":43.323464,"lon":5.406297,"is_reserved":false,"is_disabled":false,"rental_uris":{"android":"levelo://app?vid=ba019977-f266-49f9-b8c0-4ba8e8943bc1","ios":"levelo://app?vid=ba019977-f266-49f9-b8c0-4ba8e8943bc1"},"vehicle_type_id":"4","last_reported":1686546427,"current_range_meters":31200,"station_id":"ce4bhq92rcd13ifvqhjg","pricing_plan_id":"free"},{"bike_id":"5d501cb1-669d-44db-8610-1e2383559f92","system_id":"levelo_inurba_marseille","lat":43.323464,"lon":5.406297,"is_reserved":false,"is_disabled":false,"rental_uris":{"android":"levelo://app?vid=5d501cb1-669d-44db-8610-1e2383559f92","ios":"levelo://app?vid=5d501cb1-669d-44db-8610-1e2383559f92"},"vehicle_type_id":"4","last_reported":1686546427,"current_range_meters":31200,"station_id":"ce4bhq92rcd13ifvqhjg","pricing_plan_id":"free"},{"bike_id":"27534a1e-2306-4f0f-ae01-c0f1f95acd1f","system_id":"levelo_inurba_marseille","lat":43.323464,"lon":5.406297,"is_reserved":false,"is_disabled":false,"rental_uris":{"android":"levelo://app?vid=27534a1e-2306-4f0f-ae01-c0f1f95acd1f","ios":"levelo://app?vid=27534a1e-2306-4f0f-ae01-c0f1f95acd1f"},"vehicle_type_id":"4","last_reported":1686546427,"current_range_meters":29600,"station_id":"ce4bhq92rcd13ifvqhjg","pricing_plan_id":"free"},{"bike_id":"7d89e3b5-958d-47f6-80fa-adc2175a1ff9","system_id":"levelo_inurba_marseille","lat":43.323464,"lon":5.406297,"is_reserved":false,"is_disabled":false,"rental_uris":{"android":"levelo://app?vid=7d89e3b5-958d-47f6-80fa-adc2175a1ff9","ios":"levelo://app?vid=7d89e3b5-958d-47f6-80fa-adc2175a1ff9"},"vehicle_type_id":"4","last_reported":1686546427,"current_range_meters":31200,"station_id":"ce4bhq92rcd13ifvqhjg","pricing_plan_id":"free"},{"bike_id":"ce7d7d16-8e17-44ee-b931-cc7720d1709d","system_id":"levelo_inurba_marseille","lat":43.288501,"lon":5.393087,"is_reserved":false,"is_disabled":false,"rental_uris":{"android":"levelo://app?vid=ce7d7d16-8e17-44ee-b931-cc7720d1709d","ios":"levelo://app?vid=ce7d7d16-8e17-44ee-b931-cc7720d1709d"},"vehicle_type_id":"4","last_reported":1686546427,"current_range_meters":29200,"station_id":"ce4bh2p2rcd13ifvqdi0","pricing_plan_id":"free"},{"bike_id":"53c1b286-daad-4a02-937a-5f113bdb8ed4","system_id":"levelo_inurba_marseille","lat":43.2894,"lon":5.39623,"is_reserved":false,"is_disabled":false,"rental_uris":{"android":"levelo://app?vid=53c1b286-daad-4a02-937a-5f113bdb8ed4","ios":"levelo://app?vid=53c1b286-daad-4a02-937a-5f113bdb8ed4"},"vehicle_type_id":"4","last_reported":1686546427,"current_range_meters":18400,"station_id":"ce4bh3h2rcd13ifvqdn0","pricing_plan_id":"free"},{"bike_id":"23f1916c-c279-4ac9-8afe-a6aa8ad20518","system_id":"levelo_inurba_marseille","lat":43.292724,"lon":5.401131,"is_reserved":false,"is_disabled":false,"rental_uris":{"android":"levelo://app?vid=23f1916c-c279-4ac9-8afe-a6aa8ad20518","ios":"levelo://app?vid=23f1916c-c279-4ac9-8afe-a6aa8ad20518"},"vehicle_type_id":"4","last_reported":1686546427,"current_range_meters":31200,"station_id":"ce4bh312rcd13ifvqdk0","pricing_plan_id":"free"},{"bike_id":"47788c64-f595-4a98-8661-9029406f1a42","system_id":"levelo_inurba_marseille","lat":43.28368,"lon":5.38635,"is_reserved":false,"is_disabled":false,"rental_uris":{"android":"levelo://app?vid=47788c64-f595-4a98-8661-9029406f1a42","ios":"levelo://app?vid=47788c64-f595-4a98-8661-9029406f1a42"},"vehicle_type_id":"4","last_reported":1686546427,"current_range_meters":29600,"station_id":"ce4bh492rcd13ifvqdvg","pricing_plan_id":"free"},{"bike_id":"21c36edc-8fe8-42f9-ba2f-f3e93f013406","system_id":"levelo_inurba_marseille","lat":43.283502,"lon":5.386471,"is_reserved":false,"is_disabled":false,"rental_uris":{"android":"levelo://app?vid=21c36edc-8fe8-42f9-ba2f-f3e93f013406","ios":"levelo://app?vid=21c36edc-8fe8-42f9-ba2f-f3e93f013406"},"vehicle_type_id":"4","last_reported":1686546427,"current_range_meters":30000,"station_id":"ce4bh492rcd13ifvqdvg","pricing_plan_id":"free"},{"bike_id":"2aa3d018-74ba-443c-9de1-a05abb9b542f","system_id":"levelo_inurba_marseille","lat":43.28357,"lon":5.38637,"is_reserved":false,"is_disabled":false,"rental_uris":{"android":"levelo://app?vid=2aa3d018-74ba-443c-9de1-a05abb9b542f","ios":"levelo://app?vid=2aa3d018-74ba-443c-9de1-a05abb9b542f"},"vehicle_type_id":"4","last_reported":1686546427,"current_range_meters":0,"station_id":"ce4bh492rcd13ifvqdvg","pricing_plan_id":"free"},{"bike_id":"b5d4ba5c-4df4-44a4-9b70-5309e1b993ba","system_id":"levelo_inurba_marseille","lat":43.29041,"lon":5.399634,"is_reserved":false,"is_disabled":false,"rental_uris":{"android":"levelo://app?vid=b5d4ba5c-4df4-44a4-9b70-5309e1b993ba","ios":"levelo://app?vid=b5d4ba5c-4df4-44a4-9b70-5309e1b993ba"},"vehicle_type_id":"4","last_reported":1686546427,"current_range_meters":30800,"station_id":"ce4bh392rcd13ifvqdm0","pricing_plan_id":"free"},{"bike_id":"a5d2705f-aeed-4c4a-a4ef-0aa2a5f6e157","system_id":"levelo_inurba_marseille","lat":43.29041,"lon":5.399634,"is_reserved":false,"is_disabled":false,"rental_uris":{"android":"levelo://app?vid=a5d2705f-aeed-4c4a-a4ef-0aa2a5f6e157","ios":"levelo://app?vid=a5d2705f-aeed-4c4a-a4ef-0aa2a5f6e157"},"vehicle_type_id":"4","last_reported":1686546427,"current_range_meters":28400,"station_id":"ce4bh392rcd13ifvqdm0","pricing_plan_id":"free"},{"bike_id":"8d956d6f-e46a-49a5-ae67-ae2ef943bab9","system_id":"levelo_inurba_marseille","lat":43.28104,"lon":5.37839,"is_reserved":false,"is_disabled":false,"rental_uris":{"android":"levelo://app?vid=8d956d6f-e46a-49a5-ae67-ae2ef943bab9","ios":"levelo://app?vid=8d956d6f-e46a-49a5-ae67-ae2ef943bab9"},"vehicle_type_id":"4","last_reported":1686546427,"current_range_meters":30400,"station_id":"ce4bha12rcd13ifvqee0","pricing_plan_id":"free"},{"bike_id":"72e98ba4-e917-48ac-b4ef-f67158fc5f6c","system_id":"levelo_inurba_marseille","lat":43.281044,"lon":5.378308,"is_reserved":false,"is_disabled":false,"rental_uris":{"android":"levelo://app?vid=72e98ba4-e917-48ac-b4ef-f67158fc5f6c","ios":"levelo://app?vid=72e98ba4-e917-48ac-b4ef-f67158fc5f6c"},"vehicle_type_id":"4","last_reported":1686546427,"current_range_meters":0,"station_id":"ce4bha12rcd13ifvqee0","pricing_plan_id":"free"},{"bike_id":"91c9a015-da13-4e7c-830e-7f5b1a4a4ef9","system_id":"levelo_inurba_marseille","lat":43.2844,"lon":5.3919,"is_reserved":false,"is_disabled":false,"rental_uris":{"android":"levelo://app?vid=91c9a015-da13-4e7c-830e-7f5b1a4a4ef9","ios":"levelo://app?vid=91c9a015-da13-4e7c-830e-7f5b1a4a4ef9"},"vehicle_type_id":"4","last_reported":1686546427,"current_range_meters":31200,"station_id":"","pricing_plan_id":"free"},{"bike_id":"7e0182f0-93c7-483b-a41b-4a0090426e98","system_id":"levelo_inurba_marseille","lat":43.284462,"lon":5.392121,"is_reserved":false,"is_disabled":false,"rental_uris":{"android":"levelo://app?vid=7e0182f0-93c7-483b-a41b-4a0090426e98","ios":"levelo://app?vid=7e0182f0-93c7-483b-a41b-4a0090426e98"},"vehicle_type_id":"4","last_reported":1686546427,"current_range_meters":30400,"station_id":"ce4bhoh2rcd13ifvqh5g","pricing_plan_id":"free"},{"bike_id":"bdcf492a-57ef-4c5b-8bd3-c41d9e6341cf","system_id":"levelo_inurba_marseille","lat":43.285742,"lon":5.395004,"is_reserved":false,"is_disabled":false,"rental_uris":{"android":"levelo://app?vid=bdcf492a-57ef-4c5b-8bd3-c41d9e6341cf","ios":"levelo://app?vid=bdcf492a-57ef-4c5b-8bd3-c41d9e6341cf"},"vehicle_type_id":"4","last_reported":1686546427,"current_range_meters":27600,"station_id":"ce4bh292rcd13ifvqdg0","pricing_plan_id":"free"},{"bike_id":"e96db04a-bb54-48d9-87b2-f5f3cc5dca6c","system_id":"levelo_inurba_marseille","lat":43.28565,"lon":5.39495,"is_reserved":false,"is_disabled":false,"rental_uris":{"android":"levelo://app?vid=e96db04a-bb54-48d9-87b2-f5f3cc5dca6c","ios":"levelo://app?vid=e96db04a-bb54-48d9-87b2-f5f3cc5dca6c"},"vehicle_type_id":"4","last_reported":1686546427,"current_range_meters":23600,"station_id":"ce4bh292rcd13ifvqdg0","pricing_plan_id":"free"},{"bike_id":"781c2ad0-7dbc-4aa8-a3c0-a9da4c633863","system_id":"levelo_inurba_marseille","lat":43.28422,"lon":5.3922,"is_reserved":false,"is_disabled":false,"rental_uris":{"android":"levelo://app?vid=781c2ad0-7dbc-4aa8-a3c0-a9da4c633863","ios":"levelo://app?vid=781c2ad0-7dbc-4aa8-a3c0-a9da4c633863"},"vehicle_type_id":"4","last_reported":1686546427,"current_range_meters":28800,"station_id":"","pricing_plan_id":"free"},{"bike_id":"ea4758d3-ae66-4a77-bf6f-b0cdd2d3be73","system_id":"levelo_inurba_marseille","lat":43.28573,"lon":5.394992,"is_reserved":false,"is_disabled":false,"rental_uris":{"android":"levelo://app?vid=ea4758d3-ae66-4a77-bf6f-b0cdd2d3be73","ios":"levelo://app?vid=ea4758d3-ae66-4a77-bf6f-b0cdd2d3be73"},"vehicle_type_id":"4","last_reported":1686546427,"current_range_meters":28800,"station_id":"ce4bh292rcd13ifvqdg0","pricing_plan_id":"free"},{"bike_id":"795b2a56-a1a0-4ff1-8750-6f763471d865","system_id":"levelo_inurba_marseille","lat":43.28573,"lon":5.394992,"is_reserved":false,"is_disabled":false,"rental_uris":{"android":"levelo://app?vid=795b2a56-a1a0-4ff1-8750-6f763471d865","ios":"levelo://app?vid=795b2a56-a1a0-4ff1-8750-6f763471d865"},"vehicle_type_id":"4","last_reported":1686546427,"current_range_meters":31200,"station_id":"ce4bh292rcd13ifvqdg0","pricing_plan_id":"free"},{"bike_id":"535f51cb-1438-4393-8e53-482cae9662ac","system_id":"levelo_inurba_marseille","lat":43.326605,"lon":5.409903,"is_reserved":false,"is_disabled":false,"rental_uris":{"android":"levelo://app?vid=535f51cb-1438-4393-8e53-482cae9662ac","ios":"levelo://app?vid=535f51cb-1438-4393-8e53-482cae9662ac"},"vehicle_type_id":"4","last_reported":1686546427,"current_range_meters":18400,"station_id":"ce4bhpp2rcd13ifvqhgg","pricing_plan_id":"free"},{"bike_id":"35bcdf80-841e-41d6-9ebd-b0b7cac693bc","system_id":"levelo_inurba_marseille","lat":43.326605,"lon":5.409903,"is_reserved":false,"is_disabled":false,"rental_uris":{"android":"levelo://app?vid=35bcdf80-841e-41d6-9ebd-b0b7cac693bc","ios":"levelo://app?vid=35bcdf80-841e-41d6-9ebd-b0b7cac693bc"},"vehicle_type_id":"4","last_reported":1686546427,"current_range_meters":22800,"station_id":"ce4bhpp2rcd13ifvqhgg","pricing_plan_id":"free"},{"bike_id":"71cb9da5-e6e7-4e5d-afa4-1fa9843bbabf","system_id":"levelo_inurba_marseille","lat":43.27911,"lon":5.38011,"is_reserved":false,"is_disabled":false,"rental_uris":{"android":"levelo://app?vid=71cb9da5-e6e7-4e5d-afa4-1fa9843bbabf","ios":"levelo://app?vid=71cb9da5-e6e7-4e5d-afa4-1fa9843bbabf"},"vehicle_type_id":"4","last_reported":1686546427,"current_range_meters":30400,"station_id":"","pricing_plan_id":"free"},{"bike_id":"96aa3288-24f1-42f8-bb5c-c40a0528ef12","system_id":"levelo_inurba_marseille","lat":43.27899,"lon":5.38011,"is_reserved":false,"is_disabled":false,"rental_uris":{"android":"levelo://app?vid=96aa3288-24f1-42f8-bb5c-c40a0528ef12","ios":"levelo://app?vid=96aa3288-24f1-42f8-bb5c-c40a0528ef12"},"vehicle_type_id":"4","last_reported":1686546427,"current_range_meters":30800,"station_id":"","pricing_plan_id":"free"},{"bike_id":"37a4af9c-22f1-4b57-bb29-2f9757a6b311","system_id":"levelo_inurba_marseille","lat":43.28706,"lon":5.3998,"is_reserved":false,"is_disabled":false,"rental_uris":{"android":"levelo://app?vid=37a4af9c-22f1-4b57-bb29-2f9757a6b311","ios":"levelo://app?vid=37a4af9c-22f1-4b57-bb29-2f9757a6b311"},"vehicle_type_id":"4","last_reported":1686546427,"current_range_meters":23200,"station_id":"ce4bho92rcd13ifvqh3g","pricing_plan_id":"free"},{"bike_id":"cc3fd156-3db7-4fb2-8f50-43760d3513ad","system_id":"levelo_inurba_marseille","lat":43.28702,"lon":5.39976,"is_reserved":false,"is_disabled":false,"rental_uris":{"android":"levelo://app?vid=cc3fd156-3db7-4fb2-8f50-43760d3513ad","ios":"levelo://app?vid=cc3fd156-3db7-4fb2-8f50-43760d3513ad"},"vehicle_type_id":"4","last_reported":1686546427,"current_range_meters":31200,"station_id":"ce4bho92rcd13ifvqh3g","pricing_plan_id":"free"},{"bike_id":"a5c69e38-3ac2-44a1-b299-ce8d4161887a","system_id":"levelo_inurba_marseille","lat":43.287154,"lon":5.399979,"is_reserved":false,"is_disabled":false,"rental_uris":{"android":"levelo://app?vid=a5c69e38-3ac2-44a1-b299-ce8d4161887a","ios":"levelo://app?vid=a5c69e38-3ac2-44a1-b299-ce8d4161887a"},"vehicle_type_id":"4","last_reported":1686546427,"current_range_meters":15200,"station_id":"ce4bho92rcd13ifvqh3g","pricing_plan_id":"free"},