{"last_updated":1750795928,"ttl":60,"version":"2.2","data":{"bikes":[{"bike_id":"3da29fb8-fc97-44c6-b9ac-31dd456b2fd4","system_id":"levelo_inurba_marseille","lat":43.33771,"lon":5.37424,"is_reserved":false,"is_disabled":true,"rental_uris":{"android":"levelo://app?vid=3da29fb8-fc97-44c6-b9ac-31dd456b2fd4","ios":"levelo://app?vid=3da29fb8-fc97-44c6-b9ac-31dd456b2fd4"},"vehicle_type_id":"4","last_reported":1750795928,"current_range_meters":0,"station_id":"","pricing_plan_id":"cebpf4jnsgd1na2vs0mg"},{"bike_id":"01861ad8-a8d7-4be6-816e-651927c87584","system_id":"levelo_inurba_marseille","lat":43.33751,"lon":5.37456,"is_reserved":false,"is_disabled":true,"rental_uris":{"android":"levelo://app?vid=01861ad8-a8d7-4be6-816e-651927c87584","ios":"levelo://app?vid=01861ad8-a8d7-4be6-816e-651927c87584"},"vehicle_type_id":"4","last_reported":1750795928,"current_range_meters":0,"station_id":"","pricing_plan_id":"cebpf4jnsgd1na2vs0mg"},{"bike_id":"f0a1d594-9817-42ab-a8d6-aea4947e8858","system_id":"levelo_inurba_marseille","lat":43.288329,"lon":5.434368,"is_reserved":false,"is_disabled":true,"rental_uris":{"android":"levelo://app?vid=f0a1d594-9817-42ab-a8d6-aea4947e8858","ios":"levelo://app?vid=f0a1d594-9817-42ab-a8d6-aea4947e8858"},"vehicle_type_id":"4","last_reported":1750795928,"current_range_meters":0,"station_id":"","pricing_plan_id":"cebpf4jnsgd1na2vs0mg"},{"bike_id":"763475c0-a5de-4444-b5fb-a67ccd172449","system_id":"levelo_inurba_marseille","lat":43.26525,"lon":5.3733,"is_reserved":false,"is_disabled":true,"rental_uris":{"android":"levelo://app?vid=763475c0-a5de-4444-b5fb-a67ccd172449","ios":"levelo://app?vid=763475c0-a5de-4444-b5fb-a67ccd172449"},"vehicle_type_id":"4","last_reported":1750795928,"current_range_meters":0,"station_id":"","pricing_plan_id":"cebpf4jnsgd1na2vs0mg"},{"bike_id":"62a493c7-4534-4419-ad43-0582de34a72a","system_id":"levelo_inurba_marseille","lat":43.21366,"lon":5.355183,"is_reserved":false,"is_disabled":true,"rental_uris":{"android":"levelo://app?vid=62a493c7-4534-4419-ad43-0582de34a72a","ios":"levelo://app?vid=62a493c7-4534-4419-ad43-0582de34a72a"},"vehicle_type_id":"4","last_reported":1750795928,"current_range_meters":0,"station_id":"","pricing_plan_id":"cebpf4jnsgd1na2vs0mg"},{"bike_id":"139d47bd-ff87-42d8-a4c6-89da4be6f80c","system_id":"levelo_inurba_marseille","lat":43.27962,"lon":5.44252,"is_reserved":false,"is_disabled":true,"rental_uris":{"android":"levelo://app?vid=139d47bd-ff87-42d8-a4c6-89da4be6f80c","ios":"levelo://app?vid=139d47bd-ff87-42d8-a4c6-89da4be6f80c"},"vehicle_type_id":"4","last_reported":1750795928,"current_range_meters":0,"station_id":"","pricing_plan_id":"cebpf4jnsgd1na2vs0mg"},{"bike_id":"b2bdbce0-514e-4feb-9f75-48ff1c68b9f3","system_id":"levelo_inurba_marseille","lat":43.305524,"lon":5.365573,"is_reserved":false,"is_disabled":true,"rental_uris":{"android":"levelo://app?vid=b2bdbce0-514e-4feb-9f75-48ff1c68b9f3","ios":"levelo://app?vid=b2bdbce0-514e-4feb-9f75-48ff1c68b9f3"},"vehicle_type_id":"4","last_reported":1750795928,"current_range_meters":0,"station_id":"","pricing_plan_id":"cebpf4jnsgd1na2vs0mg"},{"bike_id":"d07b07aa-5732-4368-b606-c642421b7603","system_id":"levelo_inurba_marseille","lat":43.33095,"lon":5.3606,"is_reserved":false,"is_disabled":true,"rental_uris":{"android":"levelo://app?vid=d07b07aa-5732-4368-b606-c642421b7603","ios":"levelo://app?vid=d07b07aa-5732-4368-b606-c642421b7603"},"vehicle_type_id":"4","last_reported":1750795928,"current_range_meters":0,"station_id":"","pricing_plan_id":"cebpf4jnsgd1na2vs0mg"},{"bike_id":"d6ce388f-ca76-4c7c-9e3f-e6b4d12862f1","system_id":"levelo_inurba_marseille","lat":43.24558,"lon":5.41458,"is_reserved":false,"is_disabled":true,"rental_uris":{"android":"levelo://app?vid=d6ce388f-ca76-4c7c-9e3f-e6b4d12862f1","ios":"levelo://app?vid=d6ce388f-ca76-4c7c-9e3f-e6b4d12862f1"},"vehicle_type_id":"4","last_reported":1750795928,"current_range_meters":0,"station_id":"","pricing_plan_id":"cebpf4jnsgd1na2vs0mg"},{"bike_id":"3a3a1818-f20a-442b-bfcf-0e0a18008f43","system_id":"levelo_inurba_marseille","lat":43.26612,"lon":5.37491,"is_reserved":false,"is_disabled":true,"rental_uris":{"android":"levelo://app?vid=3a3a1818-f20a-442b-bfcf-0e0a18008f43","ios":"levelo://app?vid=3a3a1818-f20a-442b-bfcf-0e0a18008f43"},"vehicle_type_id":"4","last_reported":1750795928,"current_range_meters":0,"station_id":"","pricing_plan_id":"cebpf4jnsgd1na2vs0mg"},{"bike_id":"a5885120-8d68-4c1c-8569-9665fdd6d3a4","system_id":"levelo_inurba_marseille","lat":43.26648,"lon":5.3948,"is_reserved":false,"is_disabled":true,"rental_uris":{"android":"levelo://app?vid=a5885120-8d68-4c1c-8569-9665fdd6d3a4","ios":"levelo://app?vid=a5885120-8d68-4c1c-8569-9665fdd6d3a4"},"vehicle_type_id":"4","last_reported":1750795928,"current_range_meters":0,"station_id":"","pricing_plan_id":"cebpf4jnsgd1na2vs0mg"},{"bike_id":"d6609b4f-333b-43c1-9ebe-8726f5e76e88","system_id":"levelo_inurba_marseille","lat":43.337444,"lon":5.374475,"is_reserved":false,"is_disabled":true,"rental_uris":{"android":"levelo://app?vid=d6609b4f-333b-43c1-9ebe-8726f5e76e88","ios":"levelo://app?vid=d6609b4f-333b-43c1-9ebe-8726f5e76e88"},"vehicle_type_id":"4","last_reported":1750795928,"current_range_meters":0,"station_id":"","pricing_plan_id":"cebpf4jnsgd1na2vs0mg"},{"bike_id":"9cb193d0-906b-4ac2-85c5-eea810b1d20f","system_id":"levelo_inurba_marseille","lat":43.29409,"lon":5.43198,"is_reserved":false,"is_disabled":true,"rental_uris":{"android":"levelo://app?vid=9cb193d0-906b-4ac2-85c5-eea810b1d20f","ios":"levelo://app?vid=9cb193d0-906b-4ac2-85c5-eea810b1d20f"},"vehicle_type_id":"4","last_reported":1750795928,"current_range_meters":0,"station_id":"","pricing_plan_id":"cebpf4jnsgd1na2vs0mg"},{"bike_id":"bd17737b-22d2-4e4f-88e8-4eb661d864c4","system_id":"levelo_inurba_marseille","lat":43.29164,"lon":5.46067,"is_reserved":false,"is_disabled":true,"rental_uris":{"android":"levelo://app?vid=bd17737b-22d2-4e4f-88e8-4eb661d864c4","ios":"levelo://app?vid=bd17737b-22d2-4e4f-88e8-4eb661d864c4"},"vehicle_type_id":"4","last_reported":1750795928,"current_range_meters":0,"station_id":"","pricing_plan_id":"cebpf4jnsgd1na2vs0mg"},{"bike_id":"3d07ef76-af52-42e0-81f1-5f4963c9ee29","system_id":"levelo_inurba_marseille","lat":43.294701,"lon":5.438349,"is_reserved":false,"is_disabled":true,"rental_uris":{"android":"levelo://app?vid=3d07ef76-af52-42e0-81f1-5f4963c9ee29","ios":"levelo://app?vid=3d07ef76-af52-42e0-81f1-5f4963c9ee29"},"vehicle_type_id":"4","last_reported":1750795928,"current_range_meters":0,"station_id":"","pricing_plan_id":"cebpf4jnsgd1na2vs0mg"},{"bike_id":"0c86cdad-b64a-47bf-ba91-5b398064181c","system_id":"levelo_inurba_marseille","lat":43.384196,"lon":5.358629,"is_reserved":false,"is_disabled":true,"rental_uris":{"android":"levelo://app?vid=0c86cdad-b64a-47bf-ba91-5b398064181c","ios":"levelo://app?vid=0c86cdad-b64a-47bf-ba91-5b398064181c"},"vehicle_type_id":"4","last_reported":1750795928,"current_range_meters":0,"station_id":"","pricing_plan_id":"cebpf4jnsgd1na2vs0mg"},{"bike_id":"a106f197-8c69-4133-9ce7-0fa73d26f64c","system_id":"levelo_inurba_marseille","lat":43.31171,"lon":5.38711,"is_reserved":false,"is_disabled":true,"rental_uris":{"android":"levelo://app?vid=a106f197-8c69-4133-9ce7-0fa73d26f64c","ios":"levelo://app?vid=a106f197-8c69-4133-9ce7-0fa73d26f64c"},"vehicle_type_id":"4","last_reported":1750795928,"current_range_meters":0,"station_id":"ce4bgv12rcd13ifvqcp0","pricing_plan_id":"cebpf4jnsgd1na2vs0mg"},{"bike_id":"4508af1e-ebd2-4e30-be57-b09d0911c3d6","system_id":"levelo_inurba_marseille","lat":43.3093,"lon":5.40141,"is_reserved":false,"is_disabled":true,"rental_uris":{"android":"levelo://app?vid=4508af1e-ebd2-4e30-be57-b09d0911c3d6","ios":"levelo://app?vid=4508af1e-ebd2-4e30-be57-b09d0911c3d6"},"vehicle_type_id":"4","last_reported":1750795928,"current_range_meters":0,"station_id":"ce4bgvp2rcd13ifvqct0","pricing_plan_id":"cebpf4jnsgd1na2vs0mg"},{"bike_id":"8c7228c4-5dc6-4b73-a273-3a46590df204","system_id":"levelo_inurba_marseille","lat":43.30887,"lon":5.39658,"is_reserved":false,"is_disabled":true,"rental_uris":{"android":"levelo://app?vid=8c7228c4-5dc6-4b73-a273-3a46590df204","ios":"levelo://app?vid=8c7228c4-5dc6-4b73-a273-3a46590df204"},"vehicle_type_id":"4","last_reported":1750795928,"current_range_meters":0,"station_id":"ce4bh012rcd13ifvqcv0","pricing_plan_id":"cebpf4jnsgd1na2vs0mg"},{"bike_id":"ff71047f-e153-4051-9522-96f0f2f80b0c","system_id":"levelo_inurba_marseille","lat":43.2942,"lon":5.38606,"is_reserved":false,"is_disabled":true,"rental_uris":{"android":"levelo://app?vid=ff71047f-e153-4051-9522-96f0f2f80b0c","ios":"levelo://app?vid=ff71047f-e153-4051-9522-96f0f2f80b0c"},"vehicle_type_id":"4","last_reported":1750795928,"current_range_meters":0,"station_id":"ce4bh2h2rcd13ifvqdh0","pricing_plan_id":"cebpf4jnsgd1na2vs0mg"},{"bike_id":"d7556dac-30f3-4bb0-8407-4eae2a890a85","system_id":"levelo_inurba_marseille","lat":43.28479,"lon":5.38564,"is_reserved":false,"is_disabled":true,"rental_uris":{"android":"levelo://app?vid=d7556dac-30f3-4bb0-8407-4eae2a890a85","ios":"levelo://app?vid=d7556dac-30f3-4bb0-8407-4eae2a890a85"},"vehicle_type_id":"4","last_reported":1750795928,"current_range_meters":0,"station_id":"ce4bh8p2rcd13ifvqeb0","pricing_plan_id":"cebpf4jnsgd1na2vs0mg"},{"bike_id":"daef9aa7-2fc9-4754-bedd-e5a42b148460","system_id":"levelo_inurba_marseille","lat":43.27902,"lon":5.38,"is_reserved":false,"is_disabled":true,"rental_uris":{"android":"levelo://app?vid=daef9aa7-2fc9-4754-bedd-e5a42b148460","ios":"levelo://app?vid=daef9aa7-2fc9-4754-bedd-e5a42b148460"},"vehicle_type_id":"4","last_reported":1750795928,"current_range_meters":0,"station_id":"ce4bhf92rcd13ifvqf50","pricing_plan_id":"cebpf4jnsgd1na2vs0mg"},{"bike_id":"70a98816-c3af-44bf-8d13-42c56f8fced9","system_id":"levelo_inurba_marseille","lat":43.25495,"lon":5.37648,"is_reserved":false,"is_disabled":true,"rental_uris":{"android":"levelo://app?vid=70a98816-c3af-44bf-8d13-42c56f8fced9","ios":"levelo://app?vid=70a98816-c3af-44bf-8d13-42c56f8fced9"},"vehicle_type_id":"4","last_reported":1750795928,"current_range_meters":0,"station_id":"ce4bhh12rcd13ifvqff0","pricing_plan_id":"cebpf4jnsgd1na2vs0mg"},{"bike_id":"42b96ff2-2bc2-4a20-97eb-6e977b6f5d1d","system_id":"levelo_inurba_marseille","lat":43.27019,"lon":5.42298,"is_reserved":false,"is_disabled":true,"rental_uris":{"android":"levelo://app?vid=42b96ff2-2bc2-4a20-97eb-6e977b6f5d1d","ios":"levelo://app?vid=42b96ff2-2bc2-4a20-97eb-6e977b6f5d1d"},"vehicle_type_id":"4","last_reported":1750795928,"current_range_meters":0,"station_id":"ce4bhk92rcd13ifvqgb0","pricing_plan_id":"cebpf4jnsgd1na2vs0mg"},{"bike_id":"237a4032-1366-425a-ae22-0fab33b8dab4","system_id":"levelo_inurba_marseille","lat":43.27053,"lon":5.40259,"is_reserved":false,"is_disabled":true,"rental_uris":{"android":"levelo://app?vid=237a4032-1366-425a-ae22-0fab33b8dab4","ios":"levelo://app?vid=237a4032-1366-425a-ae22-0fab33b8dab4"},"vehicle_type_id":"4","last_reported":1750795928,"current_range_meters":0,"station_id":"ce4bhk92rcd13ifvqgc0","pricing_plan_id":"cebpf4jnsgd1na2vs0mg"},{"bike_id":"48556009-06dd-49ac-8a4f-cf76e7b01916","system_id":"levelo_inurba_marseille","lat":43.251054,"lon":5.403212,"is_reserved":false,"is_disabled":true,"rental_uris":{"android":"levelo://app?vid=48556009-06dd-49ac-8a4f-cf76e7b01916","ios":"levelo://app?vid=48556009-06dd-49ac-8a4f-cf76e7b01916"},"vehicle_type_id":"4","last_reported":1750795928,"current_range_meters":0,"station_id":"ce4bhlh2rcd13ifvqgig","pricing_plan_id":"cebpf4jnsgd1na2vs0mg"},{"bike_id":"bc2bd49f-6335-4e69-95f2-7bc4b866bae6","system_id":"levelo_inurba_marseille","lat":43.31706,"lon":5.43703,"is_reserved":false,"is_disabled":true,"rental_uris":{"android":"levelo://app?vid=bc2bd49f-6335-4e69-95f2-7bc4b866bae6","ios":"levelo://app?vid=bc2bd49f-6335-4e69-95f2-7bc4b866bae6"},"vehicle_type_id":"4","last_reported":1750795928,"current_range_meters":0,"station_id":"ce4bhp92rcd13ifvqhcg","pricing_plan_id":"cebpf4jnsgd1na2vs0mg"},{"bike_id":"20d47005-cace-496a-b214-2d861decab4e","system_id":"levelo_inurba_marseille","lat":43.21759,"lon":5.34596,"is_reserved":false,"is_disabled":true,"rental_uris":{"android":"levelo://app?vid=20d47005-cace-496a-b214-2d861decab4e","ios":"levelo://app?vid=20d47005-cace-496a-b214-2d861decab4e"},"vehicle_type_id":"4","last_reported":1750795928,"current_range_meters":0,"station_id":"st_cvj6r9ubvosntc0bgbag","pricing_plan_id":"cebpf4jnsgd1na2vs0mg"},{"bike_id":"85c58f10-925d-4344-b389-09267487a6fc","system_id":"levelo_inurba_marseille","lat":43.21119,"lon":5.41918,"is_reserved":false,"is_disabled":true,"rental_uris":{"android":"levelo://app?vid=85c58f10-925d-4344-b389-09267487a6fc","ios":"levelo://app?vid=85c58f10-925d-4344-b389-09267487a6fc"},"vehicle_type_id":"4","last_reported":1750795928,"current_range_meters":400,"station_id":"","pricing_plan_id":"cebpf4jnsgd1na2vs0mg"},{"bike_id":"12975305-0310-4518-b233-c09e4056708f","system_id":"levelo_inurba_marseille","lat":43.27614,"lon":5.36105,"is_reserved":false,"is_disabled":true,"rental_uris":{"android":"levelo://app?vid=12975305-0310-4518-b233-c09e4056708f","ios":"levelo://app?vid=12975305-0310-4518-b233-c09e4056708f"},"vehicle_type_id":"4","last_reported":1750795928,"current_range_meters":400,"station_id":"ce4bgj92rcd13ifvqbe0","pricing_plan_id":"cebpf4jnsgd1na2vs0mg"},{"bike_id":"c3839461-5644-46d2-99cd-65d7c59d3c0d","system_id":"levelo_inurba_marseille","lat":43.25495,"lon":5.37646,"is_reserved":false,"is_disabled":true,"rental_uris":{"android":"levelo://app?vid=c3839461-5644-46d2-99cd-65d7c59d3c0d","ios":"levelo://app?vid=c3839461-5644-46d2-99cd-65d7c59d3c0d"},"vehicle_type_id":"4","last_reported":1750795928,"current_range_meters":400,"station_id":"ce4bhh12rcd13ifvqff0","pricing_plan_id":"cebpf4jnsgd1na2vs0mg"},{"bike_id":"1b6a8c71-8e5f-4f4f-a52d-1fff6ae059ba","system_id":"levelo_inurba_marseille","lat":43.25866,"lon":5.39885,"is_reserved":false,"is_disabled":true,"rental_uris":{"android":"levelo://app?vid=1b6a8c71-8e5f-4f4f-a52d-1fff6ae059ba","ios":"levelo://app?vid=1b6a8c71-8e5f-4f4f-a52d-1fff6ae059ba"},"vehicle_type_id":"4","last_reported":1750795928,"current_range_meters":400,"station_id":"ce4bhl92rcd13ifvqghg","pricing_plan_id":"cebpf4jnsgd1na2vs0mg"},{"bike_id":"d4a378f9-7f11-46d2-a095-b6dff621ec43","system_id":"levelo_inurba_marseille","lat":43.28733,"lon":5.38467,"is_reserved":false,"is_disabled":true,"rental_uris":{"android":"levelo://app?vid=d4a378f9-7f11-46d2-a095-b6dff621ec43","ios":"levelo://app?vid=d4a378f9-7f11-46d2-a095-b6dff621ec43"},"vehicle_type_id":"4","last_reported":1750795928,"current_range_meters":800,"station_id":"","pricing_plan_id":"cebpf4jnsgd1na2vs0mg"},{"bike_id":"bdc9389b-3ed4-4291-9133-da8b164ca413","system_id":"levelo_inurba_marseille","lat":43.29534,"lon":5.38542,"is_reserved":false,"is_disabled":true,"rental_uris":{"android":"levelo://app?vid=bdc9389b-3ed4-4291-9133-da8b164ca413","ios":"levelo://app?vid=bdc9389b-3ed4-4291-9133-da8b164ca413"},"vehicle_type_id":"4","last_reported":1750795928,"current_range_meters":800,"station_id":"ce4bgih2rcd13ifvqba0","pricing_plan_id":"cebpf4jnsgd1na2vs0mg"},{"bike_id":"fc1d5ff3-b880-44f1-b214-104c4e9f75ba","system_id":"levelo_inurba_marseille","lat":43.30928,"lon":5.40134,"is_reserved":false,"is_disabled":true,"rental_uris":{"android":"levelo://app?vid=fc1d5ff3-b880-44f1-b214-104c4e9f75ba","ios":"levelo://app?vid=fc1d5ff3-b880-44f1-b214-104c4e9f75ba"},"vehicle_type_id":"4","last_reported":1750795928,"current_range_meters":1200,"station_id":"ce4bgvp2rcd13ifvqct0","pricing_plan_id":"cebpf4jnsgd1na2vs0mg"},{"bike_id":"8f1b3c1e-25be-4eaf-a8ed-7dcfe08b566c","system_id":"levelo_inurba_marseille","lat":43.29408,"lon":5.38608,"is_reserved":false,"is_disabled":true,"rental_uris":{"android":"levelo://app?vid=8f1b3c1e-25be-4eaf-a8ed-7dcfe08b566c","ios":"levelo://app?vid=8f1b3c1e-25be-4eaf-a8ed-7dcfe08b566c"},"vehicle_type_id":"4","last_reported":1750795928,"current_range_meters":1200,"station_id":"ce4bh2h2rcd13ifvqdh0","pricing_plan_id":"cebpf4jnsgd1na2vs0mg"},{"bike_id":"bc5e9a2c-ec29-4f84-90bc-a33c00a72071","system_id":"levelo_inurba_marseille","lat":43.29278,"lon":5.3684,"is_reserved":false,"is_disabled":true,"rental_uris":{"android":"levelo://app?vid=bc5e9a2c-ec29-4f84-90bc-a33c00a72071","ios":"levelo://app?vid=bc5e9a2c-ec29-4f84-90bc-a33c00a72071"},"vehicle_type_id":"4","last_reported":1750795928,"current_range_meters":1200,"station_id":"ce4bhbp2rcd13ifvqesg","pricing_plan_id":"cebpf4jnsgd1na2vs0mg"},{"bike_id":"c4e118b9-2855-489d-805a-16cfabd3e344","system_id":"levelo_inurba_marseille","lat":43.28433,"lon":5.391992,"is_reserved":false,"is_disabled":true,"rental_uris":{"android":"levelo://app?vid=c4e118b9-2855-489d-805a-16cfabd3e344","ios":"levelo://app?vid=c4e118b9-2855-489d-805a-16cfabd3e344"},"vehicle_type_id":"4","last_reported":1750795928,"current_range_meters":1200,"station_id":"ce4bhoh2rcd13ifvqh5g","pricing_plan_id":"cebpf4jnsgd1na2vs0mg"},{"bike_id":"eb149bc8-c19c-455a-ab80-fd17c3a44e05","system_id":"levelo_inurba_marseille","lat":43.31124,"lon":5.37764,"is_reserved":false,"is_disabled":true,"rental_uris":{"android":"levelo://app?vid=eb149bc8-c19c-455a-ab80-fd17c3a44e05","ios":"levelo://app?vid=eb149bc8-c19c-455a-ab80-fd17c3a44e05"},"vehicle_type_id":"4","last_reported":1750795928,"current_range_meters":1600,"station_id":"ce4bgt92rcd13ifvqcg0","pricing_plan_id":"cebpf4jnsgd1na2vs0mg"},{"bike_id":"17ee8d6c-5f8e-425c-9ae9-259b72c90af7","system_id":"levelo_inurba_marseille","lat":43.30955,"lon":5.39039,"is_reserved":false,"is_disabled":true,"rental_uris":{"android":"levelo://app?vid=17ee8d6c-5f8e-425c-9ae9-259b72c90af7","ios":"levelo://app?vid=17ee8d6c-5f8e-425c-9ae9-259b72c90af7"},"vehicle_type_id":"4","last_reported":1750795928,"current_range_meters":1600,"station_id":"ce4bgup2rcd13ifvqco0","pricing_plan_id":"cebpf4jnsgd1na2vs0mg"},{"bike_id":"8a45368b-4c8c-4661-96bd-6ce75898e519","system_id":"levelo_inurba_marseille","lat":43.27917,"lon":5.39579,"is_reserved":false,"is_disabled":true,"rental_uris":{"android":"levelo://app?vid=8a45368b-4c8c-4661-96bd-6ce75898e519","ios":"levelo://app?vid=8a45368b-4c8c-4661-96bd-6ce75898e519"},"vehicle_type_id":"4","last_reported":1750795928,"current_range_meters":1600,"station_id":"ce4bhf92rcd13ifvqf40","pricing_plan_id":"cebpf4jnsgd1na2vs0mg"},{"bike_id":"8c6de0c1-9eaf-4c18-8155-d956789067ae","system_id":"levelo_inurba_marseille","lat":43.27944,"lon":5.44239,"is_reserved":false,"is_disabled":true,"rental_uris":{"android":"levelo://app?vid=8c6de0c1-9eaf-4c18-8155-d956789067ae","ios":"levelo://app?vid=8c6de0c1-9eaf-4c18-8155-d956789067ae"},"vehicle_type_id":"4","last_reported":1750795928,"current_range_meters":2000,"station_id":"","pricing_plan_id":"cebpf4jnsgd1na2vs0mg"},{"bike_id":"4b51865d-7689-4312-90ec-3578d1f30155","system_id":"levelo_inurba_marseille","lat":43.31388,"lon":5.3918,"is_reserved":false,"is_disabled":true,"rental_uris":{"android":"levelo://app?vid=4b51865d-7689-4312-90ec-3578d1f30155","ios":"levelo://app?vid=4b51865d-7689-4312-90ec-3578d1f30155"},"vehicle_type_id":"4","last_reported":1750795928,"current_range_meters":2000,"station_id":"","pricing_plan_id":"cebpf4jnsgd1na2vs0mg"},{"bike_id":"f1253d5c-fe9c-4862-a914-3c9b7f161f4d","system_id":"levelo_inurba_marseille","lat":43.29036,"lon":5.39959,"is_reserved":false,"is_disabled":true,"rental_uris":{"android":"levelo://app?vid=f1253d5c-fe9c-4862-a914-3c9b7f161f4d","ios":"levelo://app?vid=f1253d5c-fe9c-4862-a914-3c9b7f161f4d"},"vehicle_type_id":"4","last_reported":1750795928,"current_range_meters":2000,"station_id":"ce4bh392rcd13ifvqdm0","pricing_plan_id":"cebpf4jnsgd1na2vs0mg"},{"bike_id":"a9e5e555-fdaf-49c0-b286-f0f2659b17d0","system_id":"levelo_inurba_marseille","lat":43.283159,"lon":5.4325,"is_reserved":false,"is_disabled":false,"rental_uris":{"android":"levelo://app?vid=a9e5e555-fdaf-49c0-b286-f0f2659b17d0","ios":"levelo://app?vid=a9e5e555-fdaf-49c0-b286-f0f2659b17d0"},"vehicle_type_id":"4","last_reported":1750795928,"current_range_meters":2800,"station_id":"","pricing_plan_id":"cebpf4jnsgd1na2vs0mg"},{"bike_id":"c2c8c858-7fce-42ad-976f-0dff2672ae9d","system_id":"levelo_inurba_marseille","lat":43.29367,"lon":5.37837,"is_reserved":false,"is_disabled":false,"rental_uris":{"android":"levelo://app?vid=c2c8c858-7fce-42ad-976f-0dff2672ae9d","ios":"levelo://app?vid=c2c8c858-7fce-42ad-976f-0dff2672ae9d"},"vehicle_type_id":"4","last_reported":1750795928,"current_range_meters":2800,"station_id":"ce4bgjh2rcd13ifvqbf0","pricing_plan_id":"cebpf4jnsgd1na2vs0mg"},{"bike_id":"eff6fb7b-392a-43ad-ad68-4a8a5a32fc1d","system_id":"levelo_inurba_marseille","lat":43.299865,"lon":5.371848,"is_reserved":false,"is_disabled":false,"rental_uris":{"android":"levelo://app?vid=eff6fb7b-392a-43ad-ad68-4a8a5a32fc1d","ios":"levelo://app?vid=eff6fb7b-392a-43ad-ad68-4a8a5a32fc1d"},"vehicle_type_id":"4","last_reported":1750795928,"current_range_meters":2800,"station_id":"ce4bgr92rcd13ifvqc7g","pricing_plan_id":"cebpf4jnsgd1na2vs0mg"},{"bike_id":"ede76aa8-63f9-4a52-8317-6e5914daa84c","system_id":"levelo_inurba_marseille","lat":43.30429,"lon":5.39753,"is_reserved":false,"is_disabled":false,"rental_uris":{"android":"levelo://app?vid=ede76aa8-63f9-4a52-8317-6e5914daa84c","ios":"levelo://app?vid=ede76aa8-63f9-4a52-8317-6e5914daa84c"},"vehicle_type_id":"4","last_reported":1750795928,"current_range_meters":2800,"station_id":"ce4bh092rcd13ifvqd20","pricing_plan_id":"cebpf4jnsgd1na2vs0mg"},{"bike_id":"b60dd5b5-ecaf-4a80-a73e-44a590c5b275","system_id":"levelo_inurba_marseille","lat":43.294086,"lon":5.386702,"is_reserved":false,"is_disabled":true,"rental_uris":{"android":"levelo://app?vid=b60dd5b5-ecaf-4a80-a73e-44a590c5b275","ios":"levelo://app?vid=b60dd5b5-ecaf-4a80-a73e-44a590c5b275"},"vehicle_type_id":"4","last_reported":1750795928,"current_range_meters":2800,"station_id":"ce4bh292rcd13ifvqdf0","pricing_plan_id":"cebpf4jnsgd1na2vs0mg"},{"bike_id":"17d0afaa-6951-4dde-a43d-60017e75021c","system_id":"levelo_inurba_marseille","lat":43.291681,"lon":5.421175,"is_reserved":false,"is_disabled":false,"rental_uris":{"android":"levelo://app?vid=17d0afaa-6951-4dde-a43d-60017e75021c","ios":"levelo://app?vid=17d0afaa-6951-4dde-a43d-60017e75021c"},"vehicle_type_id":"4","last_reported":1750795928,"current_range_meters":4000,"station_id":"","pricing_plan_id":"cebpf4jnsgd1na2vs0mg"},{"bike_id":"73dfba19-aabd-447b-b2fe-0a16241d8cf4","system_id":"levelo_inurba_marseille","lat":43.29274,"lon":5.40113,"is_reserved":false,"is_disabled":false,"rental_uris":{"android":"levelo://app?vid=73dfba19-aabd-447b-b2fe-0a16241d8cf4","ios":"levelo://app?vid=73dfba19-aabd-447b-b2fe-0a16241d8cf4"},"vehicle_type_id":"4","last_reported":1750795928,"current_range_meters":4000,"station_id":"ce4bh312rcd13ifvqdk0","pricing_plan_id":"cebpf4jnsgd1na2vs0mg"},{"bike_id":"a77c160c-a981-433e-9584-aa7473f05944","system_id":"levelo_inurba_marseille","lat":43.3038,"lon":5.42484,"is_reserved":false,"is_disabled":false,"rental_uris":{"android":"levelo://app?vid=a77c160c-a981-433e-9584-aa7473f05944","ios":"levelo://app?vid=a77c160c-a981-433e-9584-aa7473f05944"},"vehicle_type_id":"4","last_reported":1750795928,"current_range_meters":4000,"station_id":"ce4bhoh2rcd13ifvqh6g","pricing_plan_id":"cebpf4jnsgd1na2vs0mg"},{"bike_id":"a830b077-ccde-490e-b05a-3fb7a2275c48","system_id":"levelo_inurba_marseille","lat":43.287193,"lon":5.37937,"is_reserved":false,"is_disabled":false,"rental_uris":{"android":"levelo://app?vid=a830b077-ccde-490e-b05a-3fb7a2275c48","ios":"levelo://app?vid=a830b077-ccde-490e-b05a-3fb7a2275c48"},"vehicle_type_id":"4","last_reported":1750795928,"current_range_meters":4800,"station_id":"ce4bh9p2rcd13ifvqec0","pricing_plan_id":"cebpf4jnsgd1na2vs0mg"},{"bike_id":"0bd49d60-1bff-4e34-af87-4e657a3eaddc","system_id":"levelo_inurba_marseille","lat":43.30552,"lon":5.36558,"is_reserved":false,"is_disabled":false,"rental_uris":{"android":"levelo://app?vid=0bd49d60-1bff-4e34-af87-4e657a3eaddc","ios":"levelo://app?vid=0bd49d60-1bff-4e34-af87-4e657a3eaddc"},"vehicle_type_id":"4","last_reported":1750795928,"current_range_meters":5600,"station_id":"ce4bgs12rcd13ifvqcag","pricing_plan_id":"cebpf4jnsgd1na2vs0mg"},{"bike_id":"c2b72fe0-bae6-4c7b-ad48-9e771b203dc8","system_id":"levelo_inurba_marseille","lat":43.31371,"lon":5.38449,"is_reserved":false,"is_disabled":false,"rental_uris":{"android":"levelo://app?vid=c2b72fe0-bae6-4c7b-ad48-9e771b203dc8","ios":"levelo://app?vid=c2b72fe0-bae6-4c7b-ad48-9e771b203dc8"},"vehicle_type_id":"4","last_reported":1750795928,"current_range_meters":5600,"station_id":"ce4bgt92rcd13ifvqcf0","pricing_plan_id":"cebpf4jnsgd1na2vs0mg"},{"bike_id":"26cd5459-7342-448c-805a-bc364ee5eafb","system_id":"levelo_inurba_marseille","lat":43.29195,"lon":5.39318,"is_reserved":false,"is_disabled":false,"rental_uris":{"android":"levelo://app?vid=26cd5459-7342-448c-805a-bc364ee5eafb","ios":"levelo://app?vid=26cd5459-7342-448c-805a-bc364ee5eafb"},"vehicle_type_id":"4","last_reported":1750795928,"current_range_meters":5600,"station_id":"ce4bh192rcd13ifvqdd0","pricing_plan_id":"cebpf4jnsgd1na2vs0mg"},{"bike_id":"e2fd929d-7377-40e2-a6dc-342384f13ad3","system_id":"levelo_inurba_marseille","lat":43.28849,"lon":5.39314,"is_reserved":false,"is_disabled":false,"rental_uris":{"android":"levelo://app?vid=e2fd929d-7377-40e2-a6dc-342384f13ad3","ios":"levelo://app?vid=e2fd929d-7377-40e2-a6dc-342384f13ad3"},"vehicle_type_id":"4","last_reported":1750795928,"current_range_meters":5600,"station_id":"ce4bh2p2rcd13ifvqdi0","pricing_plan_id":"cebpf4jnsgd1na2vs0mg"},{"bike_id":"c35d82da-9d7c-4c32-9608-ac193d9f267a","system_id":"levelo_inurba_marseille","lat":43.30341,"lon":5.39753,"is_reserved":false,"is_disabled":false,"rental_uris":{"android":"levelo://app?vid=c35d82da-9d7c-4c32-9608-ac193d9f267a","ios":"levelo://app?vid=c35d82da-9d7c-4c32-9608-ac193d9f267a"},"vehicle_type_id":"4","last_reported":1750795928,"current_range_meters":6000,"station_id":"","pricing_plan_id":"cebpf4jnsgd1na2vs0mg"},{"bike_id":"278d6864-1701-4bed-b219-782b85732544","system_id":"levelo_inurba_marseille","lat":43.29314,"lon":5.37458,"is_reserved":false,"is_disabled":false,"rental_uris":{"android":"levelo://app?vid=278d6864-1701-4bed-b219-782b85732544","ios":"levelo://app?vid=278d6864-1701-4bed-b219-782b85732544"},"vehicle_type_id":"4","last_reported":1750795928,"current_range_meters":6000,"station_id":"ce4bgi12rcd13ifvqb70","pricing_plan_id":"cebpf4jnsgd1na2vs0mg"},{"bike_id":"710e7460-052a-4813-a049-ede10e62c7db","system_id":"levelo_inurba_marseille","lat":43.29108,"lon":5.38131,"is_reserved":false,"is_disabled":false,"rental_uris":{"android":"levelo://app?vid=710e7460-052a-4813-a049-ede10e62c7db","ios":"levelo://app?vid=710e7460-052a-4813-a049-ede10e62c7db"},"vehicle_type_id":"4","last_reported":1750795928,"current_range_meters":6000,"station_id":"ce4bh512rcd13ifvqe2g","pricing_plan_id":"cebpf4jnsgd1na2vs0mg"},{"bike_id":"c2d5894d-5486-45c2-920b-295c7ed467fd","system_id":"levelo_inurba_marseille","lat":43.29265,"lon":5.3844,"is_reserved":false,"is_disabled":false,"rental_uris":{"android":"levelo://app?vid=c2d5894d-5486-45c2-920b-295c7ed467fd","ios":"levelo://app?vid=c2d5894d-5486-45c2-920b-295c7ed467fd"},"vehicle_type_id":"4","last_reported":1750795928,"current_range_meters":6000,"station_id":"ce4bh692rcd13ifvqea0","pricing_plan_id":"cebpf4jnsgd1na2vs0mg"},{"bike_id":"db216eec-d10d-4f96-854e-7db0ce34c55a","system_id":"levelo_inurba_marseille","lat":43.28437,"lon":5.39174,"is_reserved":false,"is_disabled":false,"rental_uris":{"android":"levelo://app?vid=db216eec-d10d-4f96-854e-7db0ce34c55a","ios":"levelo://app?vid=db216eec-d10d-4f96-854e-7db0ce34c55a"},"vehicle_type_id":"4","last_reported":1750795928,"current_range_meters":6000,"station_id":"ce4bhoh2rcd13ifvqh5g","pricing_plan_id":"cebpf4jnsgd1na2vs0mg"},{"bike_id":"04a5bd35-4f45-42b3-b548-84f2b660f644","system_id":"levelo_inurba_marseille","lat":43.29257,"lon":5.40906,"is_reserved":false,"is_disabled":false,"rental_uris":{"android":"levelo://app?vid=04a5bd35-4f45-42b3-b548-84f2b660f644","ios":"levelo://app?vid=04a5bd35-4f45-42b3-b548-84f2b660f644"},"vehicle_type_id":"4","last_reported":1750795928,"current_range_meters":6400,"station_id":"ce4bh192rcd13ifvqdc0","pricing_plan_id":"cebpf4jnsgd1na2vs0mg"},{"bike_id":"cfe4988d-16b8-482a-ac95-9d5b351e2e50","system_id":"levelo_inurba_marseille","lat":43.28675,"lon":5.38651,"is_reserved":false,"is_disabled":false,"rental_uris":{"android":"levelo://app?vid=cfe4988d-16b8-482a-ac95-9d5b351e2e50","ios":"levelo://app?vid=cfe4988d-16b8-482a-ac95-9d5b351e2e50"},"vehicle_type_id":"4","last_reported":1750795928,"current_range_meters":6400,"station_id":"ce4bh492rcd13ifvqdug","pricing_plan_id":"cebpf4jnsgd1na2vs0mg"},{"bike_id":"b9da23c4-bc51-4e74-8240-bdbc642de0b9","system_id":"levelo_inurba_marseille","lat":43.28944,"lon":5.36386,"is_reserved":false,"is_disabled":false,"rental_uris":{"android":"levelo://app?vid=b9da23c4-bc51-4e74-8240-bdbc642de0b9","ios":"levelo://app?vid=b9da23c4-bc51-4e74-8240-bdbc642de0b9"},"vehicle_type_id":"4","last_reported":1750795928,"current_range_meters":6400,"station_id":"ce4bhc92rcd13ifvqetg","pricing_plan_id":"cebpf4jnsgd1na2vs0mg"},{"bike_id":"16ebc5bd-7879-48b3-911f-b2c5963705e8","system_id":"levelo_inurba_marseille","lat":43.279374,"lon":5.410404,"is_reserved":false,"is_disabled":false,"rental_uris":{"android":"levelo://app?vid=16ebc5bd-7879-48b3-911f-b2c5963705e8","ios":"levelo://app?vid=16ebc5bd-7879-48b3-911f-b2c5963705e8"},"vehicle_type_id":"4","last_reported":1750795928,"current_range_meters":6400,"station_id":"ce4bhf92rcd13ifvqf40","pricing_plan_id":"cebpf4jnsgd1na2vs0mg"},{"bike_id":"10432400-d7eb-4017-9fe1-78e661c7b559","system_id":"levelo_inurba_marseille","lat":43.255,"lon":5.37648,"is_reserved":false,"is_disabled":false,"rental_uris":{"android":"levelo://app?vid=10432400-d7eb-4017-9fe1-78e661c7b559","ios":"levelo://app?vid=10432400-d7eb-4017-9fe1-78e661c7b559"},"vehicle_type_id":"4","last_reported":1750795928,"current_range_meters":6400,"station_id":"ce4bhh12rcd13ifvqff0","pricing_plan_id":"cebpf4jnsgd1na2vs0mg"},{"bike_id":"46b56d56-be92-4b92-bbbf-8e1072e4b47b","system_id":"levelo_inurba_marseille","lat":43.2511,"lon":5.40322,"is_reserved":false,"is_disabled":false,"rental_uris":{"android":"levelo://app?vid=46b56d56-be92-4b92-bbbf-8e1072e4b47b","ios":"levelo://app?vid=46b56d56-be92-4b92-bbbf-8e1072e4b47b"},"vehicle_type_id":"4","last_reported":1750795928,"current_range_meters":6400,"station_id":"ce4bhlh2rcd13ifvqgig","pricing_plan_id":"cebpf4jnsgd1na2vs0mg"},{"bike_id":"04cf85f0-a2fb-4129-a187-b1d19c885248","system_id":"levelo_inurba_marseille","lat":43.25114,"lon":5.40318,"is_reserved":false,"is_disabled":false,"rental_uris":{"android":"levelo://app?vid=04cf85f0-a2fb-4129-a187-b1d19c885248","ios":"levelo://app?vid=04cf85f0-a2fb-4129-a187-b1d19c885248"},"vehicle_type_id":"4","last_reported":1750795928,"current_range_meters":6400,"station_id":"ce4bhlh2rcd13ifvqgig","pricing_plan_id":"cebpf4jnsgd1na2vs0mg"},{"bike_id":"cefdae61-1436-48ce-b01d-d862e85d738d","system_id":"levelo_inurba_marseille","lat":43.24544,"lon":5.39522,"is_reserved":false,"is_disabled":false,"rental_uris":{"android":"levelo://app?vid=cefdae61-1436-48ce-b01d-d862e85d738d","ios":"levelo://app?vid=cefdae61-1436-48ce-b01d-d862e85d738d"},"vehicle_type_id":"4","last_reported":1750795928,"current_range_meters":6400,"station_id":"ce4bhlp2rcd13ifvqgjg","pricing_plan_id":"cebpf4jnsgd1na2vs0mg"},{"bike_id":"0ebdbb91-6ba8-4c27-a331-82606a6ed8f9","system_id":"levelo_inurba_marseille","lat":43.27538,"lon":5.39575,"is_reserved":false,"is_disabled":false,"rental_uris":{"android":"levelo://app?vid=0ebdbb91-6ba8-4c27-a331-82606a6ed8f9","ios":"levelo://app?vid=0ebdbb91-6ba8-4c27-a331-82606a6ed8f9"},"vehicle_type_id":"4","last_reported":1750795928,"current_range_meters":6400,"station_id":"ce4bhnh2rcd13ifvqgtg","pricing_plan_id":"cebpf4jnsgd1na2vs0mg"},{"bike_id":"34d55f23-45c1-4cee-888d-8f51f3b0ae80","system_id":"levelo_inurba_marseille","lat":43.32526,"lon":5.43365,"is_reserved":false,"is_disabled":false,"rental_uris":{"android":"levelo://app?vid=34d55f23-45c1-4cee-888d-8f51f3b0ae80","ios":"levelo://app?vid=34d55f23-45c1-4cee-888d-8f51f3b0ae80"},"vehicle_type_id":"4","last_reported":1750795928,"current_range_meters":6800,"station_id":"","pricing_plan_id":"cebpf4jnsgd1na2vs0mg"},{"bike_id":"98df2074-c34a-4487-9132-cb2239bb59c4","system_id":"levelo_inurba_marseille","lat":43.33402,"lon":5.4289,"is_reserved":false,"is_disabled":false,"rental_uris":{"android":"levelo://app?vid=98df2074-c34a-4487-9132-cb2239bb59c4","ios":"levelo://app?vid=98df2074-c34a-4487-9132-cb2239bb59c4"},"vehicle_type_id":"4","last_reported":1750795928,"current_range_meters":6800,"station_id":"","pricing_plan_id":"cebpf4jnsgd1na2vs0mg"},{"bike_id":"f81287b0-ee19-4727-9864-d0303aa159c5","system_id":"levelo_inurba_marseille","lat":43.31224,"lon":5.36845,"is_reserved":false,"is_disabled":false,"rental_uris":{"android":"levelo://app?vid=f81287b0-ee19-4727-9864-d0303aa159c5","ios":"levelo://app?vid=f81287b0-ee19-4727-9864-d0303aa159c5"},"vehicle_type_id":"4","last_reported":1750795928,"current_range_meters":6800,"station_id":"ce4bgl92rcd13ifvqbq0","pricing_plan_id":"cebpf4jnsgd1na2vs0mg"},{"bike_id":"0b6455cb-38cb-4edc-83aa-17ebe22a74f4","system_id":"levelo_inurba_marseille","lat":43.27369,"lon":5.36249,"is_reserved":false,"is_disabled":false,"rental_uris":{"android":"levelo://app?vid=0b6455cb-38cb-4edc-83aa-17ebe22a74f4","ios":"levelo://app?vid=0b6455cb-38cb-4edc-83aa-17ebe22a74f4"},"vehicle_type_id":"4","last_reported":1750795928,"current_range_meters":6800,"station_id":"ce4bhbh2rcd13ifvqeo0","pricing_plan_id":"cebpf4jnsgd1na2vs0mg"},{"bike_id":"cb2eb46e-9bff-4868-80ba-f19c97f460d0","system_id":"levelo_inurba_marseille","lat":43.27378,"lon":5.36262,"is_reserved":false,"is_disabled":false,"rental_uris":{"android":"levelo://app?vid=cb2eb46e-9bff-4868-80ba-f19c97f460d0","ios":"levelo://app?vid=cb2eb46e-9bff-4868-80ba-f19c97f460d0"},"vehicle_type_id":"4","last_reported":1750795928,"current_range_meters":6800,"station_id":"ce4bhbh2rcd13ifvqeo0","pricing_plan_id":"cebpf4jnsgd1na2vs0mg"},{"bike_id":"2fbb2382-0e85-43fd-9e49-a7f99053f862","system_id":"levelo_inurba_marseille","lat":43.27949,"lon":5.41024,"is_reserved":false,"is_disabled":false,"rental_uris":{"android":"levelo://app?vid=2fbb2382-0e85-43fd-9e49-a7f99053f862","ios":"levelo://app?vid=2fbb2382-0e85-43fd-9e49-a7f99053f862"},"vehicle_type_id":"4","last_reported":1750795928,"current_range_meters":6800,"station_id":"ce4bhnp2rcd13ifvqh0g","pricing_plan_id":"cebpf4jnsgd1na2vs0mg"},{"bike_id":"37e8e3d7-9693-4634-86f1-20f2a3fbbf68","system_id":"levelo_inurba_marseille","lat":43.298977,"lon":5.43667,"is_reserved":false,"is_disabled":false,"rental_uris":{"android":"levelo://app?vid=37e8e3d7-9693-4634-86f1-20f2a3fbbf68","ios":"levelo://app?vid=37e8e3d7-9693-4634-86f1-20f2a3fbbf68"},"vehicle_type_id":"4","last_reported":1750795928,"current_range_meters":6800,"station_id":"ce4bhpp2rcd13ifvqhfg","pricing_plan_id":"cebpf4jnsgd1na2vs0mg"},{"bike_id":"465d2323-f97d-48b0-a820-bc5fa54ae0fa","system_id":"levelo_inurba_marseille","lat":43.28396,"lon":5.45991,"is_reserved":false,"is_disabled":false,"rental_uris":{"android":"levelo://app?vid=465d2323-f97d-48b0-a820-bc5fa54ae0fa","ios":"levelo://app?vid=465d2323-f97d-48b0-a820-bc5fa54ae0fa"},"vehicle_type_id":"4","last_reported":1750795928,"current_range_meters":7200,"station_id":"","pricing_plan_id":"cebpf4jnsgd1na2vs0mg"},{"bike_id":"113b198a-6e1b-46eb-8e6f-7d0d14639408","system_id":"levelo_inurba_marseille","lat":43.28763,"lon":5.36379,"is_reserved":false,"is_disabled":false,"rental_uris":{"android":"levelo://app?vid=113b198a-6e1b-46eb-8e6f-7d0d14639408","ios":"levelo://app?vid=113b198a-6e1b-46eb-8e6f-7d0d14639408"},"vehicle_type_id":"4","last_reported":1750795928,"current_range_meters":8000,"station_id":"","pricing_plan_id":"cebpf4jnsgd1na2vs0mg"},{"bike_id":"4ec8c5cd-0d24-40e5-b5f8-6fc50d3199c5","system_id":"levelo_inurba_marseille","lat":43.23966,"lon":5.36634,"is_reserved":false,"is_disabled":false,"rental_uris":{"android":"levelo://app?vid=4ec8c5cd-0d24-40e5-b5f8-6fc50d3199c5","ios":"levelo://app?vid=4ec8c5cd-0d24-40e5-b5f8-6fc50d3199c5"},"vehicle_type_id":"4","last_reported":1750795928,"current_range_meters":8000,"station_id":"ce4bhi12rcd13ifvqfp0","pricing_plan_id":"cebpf4jnsgd1na2vs0mg"},{"bike_id":"fc0d558c-3b2c-476d-80f2-347dadd2da15","system_id":"levelo_inurba_marseille","lat":43.26223,"lon":5.40448,"is_reserved":false,"is_disabled":false,"rental_uris":{"android":"levelo://app?vid=fc0d558c-3b2c-476d-80f2-347dadd2da15","ios":"levelo://app?vid=fc0d558c-3b2c-476d-80f2-347dadd2da15"},"vehicle_type_id":"4","last_reported":1750795928,"current_range_meters":8000,"station_id":"ce4bhmh2rcd13ifvqgmg","pricing_plan_id":"cebpf4jnsgd1na2vs0mg"},{"bike_id":"a092c41c-0118-4d86-b43e-981a2615e33e","system_id":"levelo_inurba_marseille","lat":43.34699,"lon":5.34483,"is_reserved":false,"is_disabled":false,"rental_uris":{"android":"levelo://app?vid=a092c41c-0118-4d86-b43e-981a2615e33e","ios":"levelo://app?vid=a092c41c-0118-4d86-b43e-981a2615e33e"},"vehicle_type_id":"4","last_reported":1750795928,"current_range_meters":8400,"station_id":"","pricing_plan_id":"cebpf4jnsgd1na2vs0mg"},{"bike_id":"e127ef7e-24d3-4248-81fa-66c5e7c3e582","system_id":"levelo_inurba_marseille","lat":43.29625,"lon":5.37944,"is_reserved":false,"is_disabled":false,"rental_uris":{"android":"levelo://app?vid=e127ef7e-24d3-4248-81fa-66c5e7c3e582","ios":"levelo://app?vid=e127ef7e-24d3-4248-81fa-66c5e7c3e582"},"vehicle_type_id":"4","last_reported":1750795928,"current_range_meters":8400,"station_id":"","pricing_plan_id":"cebpf4jnsgd1na2vs0mg"},{"bike_id":"acd434f3-3f6e-48fe-bc8e-1cf13e1d5eeb","system_id":"levelo_inurba_marseille","lat":43.28104,"lon":5.3783,"is_reserved":false,"is_disabled":false,"rental_uris":{"android":"levelo://app?vid=acd434f3-3f6e-48fe-bc8e-1cf13e1d5eeb","ios":"levelo://app?vid=acd434f3-3f6e-48fe-bc8e-1cf13e1d5eeb"},"vehicle_type_id":"4","last_reported":1750795928,"current_range_meters":8400,"station_id":"ce4bha12rcd13ifvqee0","pricing_plan_id":"cebpf4jnsgd1na2vs0mg"},{"bike_id":"36621d0d-2761-45b0-843b-33760d9c29b0","system_id":"levelo_inurba_marseille","lat":43.26026,"lon":5.37548,"is_reserved":false,"is_disabled":false,"rental_uris":{"android":"levelo://app?vid=36621d0d-2761-45b0-843b-33760d9c29b0","ios":"levelo://app?vid=36621d0d-2761-45b0-843b-33760d9c29b0"},"vehicle_type_id":"4","last_reported":1750795928,"current_range_meters":8400,"station_id":"ce4bhgh2rcd13ifvqfa0","pricing_plan_id":"cebpf4jnsgd1na2vs0mg"},{"bike_id":"015808d8-568f-4966-8afb-a7b0622d5fd2","system_id":"levelo_inurba_marseille","lat":43.28078,"lon":5.39658,"is_reserved":false,"is_disabled":false,"rental_uris":{"android":"levelo://app?vid=015808d8-568f-4966-8afb-a7b0622d5fd2","ios":"levelo://app?vid=015808d8-568f-4966-8afb-a7b0622d5fd2"},"vehicle_type_id":"4","last_reported":1750795928,"current_range_meters":8400,"station_id":"ce4bho12rcd13ifvqh2g","pricing_plan_id":"cebpf4jnsgd1na2vs0mg"},{"bike_id":"f333bcb3-17e0-43f1-847f-eb3d745e3e41","system_id":"levelo_inurba_marseille","lat":43.29373,"lon":5.42799,"is_reserved":false,"is_disabled":false,"rental_uris":{"android":"levelo://app?vid=f333bcb3-17e0-43f1-847f-eb3d745e3e41","ios":"levelo://app?vid=f333bcb3-17e0-43f1-847f-eb3d745e3e41"},"vehicle_type_id":"4","last_reported":1750795928,"current_range_meters":8800,"station_id":"","pricing_plan_id":"cebpf4jnsgd1na2vs0mg"},{"bike_id":"d647d82e-58fb-4efa-913b-7b5c87759cda","system_id":"levelo_inurba_marseille","lat":43.26996,"lon":5.39884,"is_reserved":false,"is_disabled":false,"rental_uris":{"android":"levelo://app?vid=d647d82e-58fb-4efa-913b-7b5c87759cda","ios":"levelo://app?vid=d647d82e-58fb-4efa-913b-7b5c87759cda"},"vehicle_type_id":"4","last_reported":1750795928,"current_range_meters":8800,"station_id":"","pricing_plan_id":"cebpf4jnsgd1na2vs0mg"},{"bike_id":"2ee0f703-efa5-42a1-adc9-6301a4b68f6c","system_id":"levelo_inurba_marseille","lat":43.3132,"lon":5.39691,"is_reserved":false,"is_disabled":false,"rental_uris":{"android":"levelo://app?vid=2ee0f703-efa5-42a1-adc9-6301a4b68f6c","ios":"levelo://app?vid=2ee0f703-efa5-42a1-adc9-6301a4b68f6c"},"vehicle_type_id":"4","last_reported":1750795928,"current_range_meters":8800,"station_id":"ce4bgvp2rcd13ifvqcu0","pricing_plan_id":"cebpf4jnsgd1na2vs0mg"},{"bike_id":"82daa609-66e4-4b91-8a1c-a20f4b557675","system_id":"levelo_inurba_marseille","lat":43.30336,"lon":5.36691,"is_reserved":false,"is_disabled":false,"rental_uris":{"android":"levelo://app?vid=82daa609-66e4-4b91-8a1c-a20f4b557675","ios":"levelo://app?vid=82daa609-66e4-4b91-8a1c-a20f4b557675"},"vehicle_type_id":"4","last_reported":1750795928,"current_range_meters":9200,"station_id":"","pricing_plan_id":"cebpf4jnsgd1na2vs0mg"},{"bike_id":"7b4846bf-44b4-4bc9-b181-418993440136","system_id":"levelo_inurba_marseille","lat":43.2996,"lon":5.38504,"is_reserved":false,"is_disabled":false,"rental_uris":{"android":"levelo://app?vid=7b4846bf-44b4-4bc9-b181-418993440136","ios":"levelo://app?vid=7b4846bf-44b4-4bc9-b181-418993440136"},"vehicle_type_id":"4","last_reported":1750795928,"current_range_meters":9200,"station_id":"ce4bgj92rcd13ifvqbd0","pricing_plan_id":"cebpf4jnsgd1na2vs0mg"},{"bike_id":"e6d2dbfe-828a-4d7a-9ff3-4c8d943f82bb","system_id":"levelo_inurba_marseille","lat":43.27941,"lon":5.41043,"is_reserved":false,"is_disabled":false,"rental_uris":{"android":"levelo://app?vid=e6d2dbfe-828a-4d7a-9ff3-4c8d943f82bb","ios":"levelo://app?vid=e6d2dbfe-828a-4d7a-9ff3-4c8d943f82bb"},"vehicle_type_id":"4","last_reported":1750795928,"current_range_meters":9200,"station_id":"ce4bhnp2rcd13ifvqh0g","pricing_plan_id":"cebpf4jnsgd1na2vs0mg"},{"bike_id":"da78d82b-1de1-4689-bc03-9febf6bc5912","system_id":"levelo_inurba_marseille","lat":43.28005,"lon":5.4166,"is_reserved":false,"is_disabled":false,"rental_uris":{"android":"levelo://app?vid=da78d82b-1de1-4689-bc03-9febf6bc5912","ios":"levelo://app?vid=da78d82b-1de1-4689-bc03-9febf6bc5912"},"vehicle_type_id":"4","last_reported":1750795928,"current_range_meters":9200,"station_id":"ce4bho12rcd13ifvqh1g","pricing_plan_id":"cebpf4jnsgd1na2vs0mg"},{"bike_id":"e12d25ad-6a34-4f7d-a8b9-169850127fad","system_id":"levelo_inurba_marseille","lat":43.32698,"lon":5.40277,"is_reserved":false,"is_disabled":false,"rental_uris":{"android":"levelo://app?vid=e12d25ad-6a34-4f7d-a8b9-169850127fad","ios":"levelo://app?vid=e12d25ad-6a34-4f7d-a8b9-169850127fad"},"vehicle_type_id":"4","last_reported":1750795928,"current_range_meters":9600,"station_id":"","pricing_plan_id":"cebpf4jnsgd1na2vs0mg"},{"bike_id":"1e0c9fad-8c42-4a59-ad77-6922ab27e72f","system_id":"levelo_inurba_marseille","lat":43.29709,"lon":5.37693,"is_reserved":false,"is_disabled":false,"rental_uris":{"android":"levelo://app?vid=1e0c9fad-8c42-4a59-ad77-6922ab27e72f","ios":"levelo://app?vid=1e0c9fad-8c42-4a59-ad77-6922ab27e72f"},"vehicle_type_id":"4","last_reported":1750795928,"current_range_meters":9600,"station_id":"ce4bgkh2rcd13ifvqbl0","pricing_plan_id":"cebpf4jnsgd1na2vs0mg"},{"bike_id":"23fd56a3-eba5-4fd1-8841-ebb9ba2acbb7","system_id":"levelo_inurba_marseille","lat":43.30875,"lon":5.39629,"is_reserved":false,"is_disabled":false,"rental_uris":{"android":"levelo://app?vid=23fd56a3-eba5-4fd1-8841-ebb9ba2acbb7","ios":"levelo://app?vid=23fd56a3-eba5-4fd1-8841-ebb9ba2acbb7"},"vehicle_type_id":"4","last_reported":1750795928,"current_range_meters":9600,"station_id":"ce4bh012rcd13ifvqcv0","pricing_plan_id":"cebpf4jnsgd1na2vs0mg"},{"bike_id":"0cfead56-a66e-418d-93eb-ece8853dc567","system_id":"levelo_inurba_marseille","lat":43.291949,"lon":5.383057,"is_reserved":false,"is_disabled":false,"rental_uris":{"android":"levelo://app?vid=0cfead56-a66e-418d-93eb-ece8853dc567","ios":"levelo://app?vid=0cfead56-a66e-418d-93eb-ece8853dc567"},"vehicle_type_id":"4","last_reported":1750795928,"current_range_meters":9600,"station_id":"ce4bh2h2rcd13ifvqdh0","pricing_plan_id":"cebpf4jnsgd1na2vs0mg"},{"bike_id":"51dcb3e1-2b07-4a2e-9a2b-e4ec75156f6c","system_id":"levelo_inurba_marseille","lat":43.22951,"lon":5.35394,"is_reserved":false,"is_disabled":false,"rental_uris":{"android":"levelo://app?vid=51dcb3e1-2b07-4a2e-9a2b-e4ec75156f6c","ios":"levelo://app?vid=51dcb3e1-2b07-4a2e-9a2b-e4ec75156f6c"},"vehicle_type_id":"4","last_reported":1750795928,"current_range_meters":9600,"station_id":"cpo3532slgdg3j2ikp40","pricing_plan_id":"cebpf4jnsgd1na2vs0mg"},{"bike_id":"b7d27408-8db6-4d78-be1b-d4ad1c3f5edb","system_id":"levelo_inurba_marseille","lat":43.30738,"lon":5.42432,"is_reserved":false,"is_disabled":false,"rental_uris":{"android":"levelo://app?vid=b7d27408-8db6-4d78-be1b-d4ad1c3f5edb","ios":"levelo://app?vid=b7d27408-8db6-4d78-be1b-d4ad1c3f5edb"},"vehicle_type_id":"4","last_reported":1750795928,"current_range_meters":9600,"station_id":"st_cvj6ca6bvosntc0bfgr0","pricing_plan_id":"cebpf4jnsgd1na2vs0mg"},{"bike_id":"16f44276-26f4-4deb-929c-9b796d6e12dd","system_id":"levelo_inurba_marseille","lat":43.29569,"lon":5.37516,"is_reserved":false,"is_disabled":false,"rental_uris":{"android":"levelo://app?vid=16f44276-26f4-4deb-929c-9b796d6e12dd","ios":"levelo://app?vid=16f44276-26f4-4deb-929c-9b796d6e12dd"},"vehicle_type_id":"4","last_reported":1750795928,"current_range_meters":10000,"station_id":"ce4bgh92rcd13ifvqb50","pricing_plan_id":"cebpf4jnsgd1na2vs0mg"},{"bike_id":"fa8f813d-7489-437c-808b-c5fa811b464d","system_id":"levelo_inurba_marseille","lat":43.30608,"lon":5.37224,"is_reserved":false,"is_disabled":false,"rental_uris":{"android":"levelo://app?vid=fa8f813d-7489-437c-808b-c5fa811b464d","ios":"levelo://app?vid=fa8f813d-7489-437c-808b-c5fa811b464d"},"vehicle_type_id":"4","last_reported":1750795928,"current_range_meters":10000,"station_id":"ce4bgqh2rcd13ifvqc4g","pricing_plan_id":"cebpf4jnsgd1na2vs0mg"},{"bike_id":"08106a11-3eab-44f2-96cd-43a3a4f45303","system_id":"levelo_inurba_marseille","lat":43.29261,"lon":5.38438,"is_reserved":false,"is_disabled":false,"rental_uris":{"android":"levelo://app?vid=08106a11-3eab-44f2-96cd-43a3a4f45303","ios":"levelo://app?vid=08106a11-3eab-44f2-96cd-43a3a4f45303"},"vehicle_type_id":"4","last_reported":1750795928,"current_range_meters":10000,"station_id":"ce4bh692rcd13ifvqea0","pricing_plan_id":"cebpf4jnsgd1na2vs0mg"},{"bike_id":"c940cda6-f203-4a99-88c0-6637ff62e74b","system_id":"levelo_inurba_marseille","lat":43.27371,"lon":5.36241,"is_reserved":false,"is_disabled":false,"rental_uris":{"android":"levelo://app?vid=c940cda6-f203-4a99-88c0-6637ff62e74b","ios":"levelo://app?vid=c940cda6-f203-4a99-88c0-6637ff62e74b"},"vehicle_type_id":"4","last_reported":1750795928,"current_range_meters":10000,"station_id":"ce4bhbh2rcd13ifvqeo0","pricing_plan_id":"cebpf4jnsgd1na2vs0mg"},{"bike_id":"ad8983d0-708a-4a7a-8c29-0ef2f9680065","system_id":"levelo_inurba_marseille","lat":43.2794,"lon":5.41027,"is_reserved":false,"is_disabled":false,"rental_uris":{"android":"levelo://app?vid=ad8983d0-708a-4a7a-8c29-0ef2f9680065","ios":"levelo://app?vid=ad8983d0-708a-4a7a-8c29-0ef2f9680065"},"vehicle_type_id":"4","last_reported":1750795928,"current_range_meters":10000,"station_id":"ce4bhnp2rcd13ifvqh0g","pricing_plan_id":"cebpf4jnsgd1na2vs0mg"},{"bike_id":"e6d01d38-b664-4e40-8847-1ea26a66eccc","system_id":"levelo_inurba_marseille","lat":43.27997,"lon":5.40037,"is_reserved":false,"is_disabled":false,"rental_uris":{"android":"levelo://app?vid=e6d01d38-b664-4e40-8847-1ea26a66eccc","ios":"levelo://app?vid=e6d01d38-b664-4e40-8847-1ea26a66eccc"},"vehicle_type_id":"4","last_reported":1750795928,"current_range_meters":10000,"station_id":"ce4bho92rcd13ifvqh4g","pricing_plan_id":"cebpf4jnsgd1na2vs0mg"},{"bike_id":"0bdc1b8b-0389-413c-8772-4a4383d2a142","system_id":"levelo_inurba_marseille","lat":43.31321,"lon":5.39698,"is_reserved":false,"is_disabled":false,"rental_uris":{"android":"levelo://app?vid=0bdc1b8b-0389-413c-8772-4a4383d2a142","ios":"levelo://app?vid=0bdc1b8b-0389-413c-8772-4a4383d2a142"},"vehicle_type_id":"4","last_reported":1750795928,"current_range_meters":10800,"station_id":"ce4bgvp2rcd13ifvqcu0","pricing_plan_id":"cebpf4jnsgd1na2vs0mg"},{"bike_id":"89811300-3944-4766-9028-9791f3a30089","system_id":"levelo_inurba_marseille","lat":43.29571,"lon":5.39981,"is_reserved":false,"is_disabled":false,"rental_uris":{"android":"levelo://app?vid=89811300-3944-4766-9028-9791f3a30089","ios":"levelo://app?vid=89811300-3944-4766-9028-9791f3a30089"},"vehicle_type_id":"4","last_reported":1750795928,"current_range_meters":10800,"station_id":"ce4bh312rcd13ifvqdj0","pricing_plan_id":"cebpf4jnsgd1na2vs0mg"},{"bike_id":"c8c91ec5-9b0f-4787-bb36-72669a336b37","system_id":"levelo_inurba_marseille","lat":43.27378,"lon":5.36279,"is_reserved":false,"is_disabled":false,"rental_uris":{"android":"levelo://app?vid=c8c91ec5-9b0f-4787-bb36-72669a336b37","ios":"levelo://app?vid=c8c91ec5-9b0f-4787-bb36-72669a336b37"},"vehicle_type_id":"4","last_reported":1750795928,"current_range_meters":10800,"station_id":"ce4bhbh2rcd13ifvqeo0","pricing_plan_id":"cebpf4jnsgd1na2vs0mg"},{"bike_id":"88230a78-9fbf-4e6f-8358-9006acfaa40c","system_id":"levelo_inurba_marseille","lat":43.25003,"lon":5.38919,"is_reserved":false,"is_disabled":false,"rental_uris":{"android":"levelo://app?vid=88230a78-9fbf-4e6f-8358-9006acfaa40c","ios":"levelo://app?vid=88230a78-9fbf-4e6f-8358-9006acfaa40c"},"vehicle_type_id":"4","last_reported":1750795928,"current_range_meters":10800,"station_id":"ce4bhgp2rcd13ifvqfd0","pricing_plan_id":"cebpf4jnsgd1na2vs0mg"},{"bike_id":"095eabd1-5dcf-4106-9219-bdac4470d970","system_id":"levelo_inurba_marseille","lat":43.328328,"lon":5.433642,"is_reserved":false,"is_disabled":false,"rental_uris":{"android":"levelo://app?vid=095eabd1-5dcf-4106-9219-bdac4470d970","ios":"levelo://app?vid=095eabd1-5dcf-4106-9219-bdac4470d970"},"vehicle_type_id":"4","last_reported":1750795928,"current_range_meters":11200,"station_id":"","pricing_plan_id":"cebpf4jnsgd1na2vs0mg"},{"bike_id":"ea58c5af-7e24-472a-9042-4626112e91cb","system_id":"levelo_inurba_marseille","lat":43.291979,"lon":5.358054,"is_reserved":false,"is_disabled":false,"rental_uris":{"android":"levelo://app?vid=ea58c5af-7e24-472a-9042-4626112e91cb","ios":"levelo://app?vid=ea58c5af-7e24-472a-9042-4626112e91cb"},"vehicle_type_id":"4","last_reported":1750795928,"current_range_meters":11200,"station_id":"","pricing_plan_id":"cebpf4jnsgd1na2vs0mg"},{"bike_id":"7c3f6852-4f29-42a9-a8c1-e2b82bb43fcf","system_id":"levelo_inurba_marseille","lat":43.29259,"lon":5.42651,"is_reserved":false,"is_disabled":false,"rental_uris":{"android":"levelo://app?vid=7c3f6852-4f29-42a9-a8c1-e2b82bb43fcf","ios":"levelo://app?vid=7c3f6852-4f29-42a9-a8c1-e2b82bb43fcf"},"vehicle_type_id":"4","last_reported":1750795928,"current_range_meters":11200,"station_id":"","pricing_plan_id":"cebpf4jnsgd1na2vs0mg"},{"bike_id":"ac395451-660c-4273-b441-e1fbc8f6e0f3","system_id":"levelo_inurba_marseille","lat":43.2953,"lon":5.38545,"is_reserved":false,"is_disabled":false,"rental_uris":{"android":"levelo://app?vid=ac395451-660c-4273-b441-e1fbc8f6e0f3","ios":"levelo://app?vid=ac395451-660c-4273-b441-e1fbc8f6e0f3"},"vehicle_type_id":"4","last_reported":1750795928,"current_range_meters":11200,"station_id":"ce4bgih2rcd13ifvqba0","pricing_plan_id":"cebpf4jnsgd1na2vs0mg"},{"bike_id":"57bc96de-fc33-48c7-805f-a14ba69968cc","system_id":"levelo_inurba_marseille","lat":43.29594,"lon":5.38082,"is_reserved":false,"is_disabled":false,"rental_uris":{"android":"levelo://app?vid=57bc96de-fc33-48c7-805f-a14ba69968cc","ios":"levelo://app?vid=57bc96de-fc33-48c7-805f-a14ba69968cc"},"vehicle_type_id":"4","last_reported":1750795928,"current_range_meters":11200,"station_id":"ce4bgl12rcd13ifvqbo0","pricing_plan_id":"cebpf4jnsgd1na2vs0mg"},{"bike_id":"1376b68d-cd91-4f88-880b-03e19d014cc4","system_id":"levelo_inurba_marseille","lat":43.304427,"lon":5.367583,"is_reserved":false,"is_disabled":false,"rental_uris":{"android":"levelo://app?vid=1376b68d-cd91-4f88-880b-03e19d014cc4","ios":"levelo://app?vid=1376b68d-cd91-4f88-880b-03e19d014cc4"},"vehicle_type_id":"4","last_reported":1750795928,"current_range_meters":11200,"station_id":"ce4bgqh2rcd13ifvqc5g","pricing_plan_id":"cebpf4jnsgd1na2vs0mg"},{"bike_id":"309269fe-0df4-46a3-9402-15127d4087aa","system_id":"levelo_inurba_marseille","lat":43.292236,"lon":5.394999,"is_reserved":false,"is_disabled":false,"rental_uris":{"android":"levelo://app?vid=309269fe-0df4-46a3-9402-15127d4087aa","ios":"levelo://app?vid=309269fe-0df4-46a3-9402-15127d4087aa"},"vehicle_type_id":"4","last_reported":1750795928,"current_range_meters":11200,"station_id":"ce4bh392rcd13ifvqdm0","pricing_plan_id":"cebpf4jnsgd1na2vs0mg"},{"bike_id":"8afc47c4-ef41-4809-ad6d-c7dc41e6cca7","system_id":"levelo_inurba_marseille","lat":43.29519,"lon":5.39035,"is_reserved":false,"is_disabled":false,"rental_uris":{"android":"levelo://app?vid=8afc47c4-ef41-4809-ad6d-c7dc41e6cca7","ios":"levelo://app?vid=8afc47c4-ef41-4809-ad6d-c7dc41e6cca7"},"vehicle_type_id":"4","last_reported":1750795928,"current_range_meters":11200,"station_id":"ce4bh3p2rcd13ifvqdp0","pricing_plan_id":"cebpf4jnsgd1na2vs0mg"},{"bike_id":"2c692c15-8652-4224-8bad-6043597b7089","system_id":"levelo_inurba_marseille","lat":43.295257,"lon":5.390343,"is_reserved":false,"is_disabled":false,"rental_uris":{"android":"levelo://app?vid=2c692c15-8652-4224-8bad-6043597b7089","ios":"levelo://app?vid=2c692c15-8652-4224-8bad-6043597b7089"},"vehicle_type_id":"4","last_reported":1750795928,"current_range_meters":11200,"station_id":"ce4bh3p2rcd13ifvqdp0","pricing_plan_id":"cebpf4jnsgd1na2vs0mg"},{"bike_id":"967a18eb-73a2-4d7c-8301-86d2c880fed8","system_id":"levelo_inurba_marseille","lat":43.28439,"lon":5.39193,"is_reserved":false,"is_disabled":false,"rental_uris":{"android":"levelo://app?vid=967a18eb-73a2-4d7c-8301-86d2c880fed8","ios":"levelo://app?vid=967a18eb-73a2-4d7c-8301-86d2c880fed8"},"vehicle_type_id":"4","last_reported":1750795928,"current_range_meters":11200,"station_id":"ce4bhoh2rcd13ifvqh5g","pricing_plan_id":"cebpf4jnsgd1na2vs0mg"},{"bike_id":"50ead7e5-8038-4782-87c7-aa1c790b33de","system_id":"levelo_inurba_marseille","lat":43.2724,"lon":5.40038,"is_reserved":false,"is_disabled":false,"rental_uris":{"android":"levelo://app?vid=50ead7e5-8038-4782-87c7-aa1c790b33de","ios":"levelo://app?vid=50ead7e5-8038-4782-87c7-aa1c790b33de"},"vehicle_type_id":"4","last_reported":1750795928,"current_range_meters":11600,"station_id":"","pricing_plan_id":"cebpf4jnsgd1na2vs0mg"},{"bike_id":"3e0f5345-cfae-479a-9b41-9237c8726756","system_id":"levelo_inurba_marseille","lat":43.29682,"lon":5.36331,"is_reserved":false,"is_disabled":false,"rental_uris":{"android":"levelo://app?vid=3e0f5345-cfae-479a-9b41-9237c8726756","ios":"levelo://app?vid=3e0f5345-cfae-479a-9b41-9237c8726756"},"vehicle_type_id":"4","last_reported":1750795928,"current_range_meters":11600,"station_id":"","pricing_plan_id":"cebpf4jnsgd1na2vs0mg"},{"bike_id":"7c648d78-3ef2-412b-8402-3f65ad3e99e2","system_id":"levelo_inurba_marseille","lat":43.29871,"lon":5.38907,"is_reserved":false,"is_disabled":false,"rental_uris":{"android":"levelo://app?vid=7c648d78-3ef2-412b-8402-3f65ad3e99e2","ios":"levelo://app?vid=7c648d78-3ef2-412b-8402-3f65ad3e99e2"},"vehicle_type_id":"4","last_reported":1750795928,"current_range_meters":11600,"station_id":"ce4bh392rcd13ifvqdl0","pricing_plan_id":"cebpf4jnsgd1na2vs0mg"},{"bike_id":"b6b861fa-fd27-43ad-89fb-4be1a264be92","system_id":"levelo_inurba_marseille","lat":43.25307,"lon":5.37497,"is_reserved":false,"is_disabled":false,"rental_uris":{"android":"levelo://app?vid=b6b861fa-fd27-43ad-89fb-4be1a264be92","ios":"levelo://app?vid=b6b861fa-fd27-43ad-89fb-4be1a264be92"},"vehicle_type_id":"4","last_reported":1750795928,"current_range_meters":12000,"station_id":"","pricing_plan_id":"cebpf4jnsgd1na2vs0mg"},{"bike_id":"11ebf4fb-e752-44af-81e3-7d28e8eee9cc","system_id":"levelo_inurba_marseille","lat":43.28111,"lon":5.43201,"is_reserved":false,"is_disabled":false,"rental_uris":{"android":"levelo://app?vid=11ebf4fb-e752-44af-81e3-7d28e8eee9cc","ios":"levelo://app?vid=11ebf4fb-e752-44af-81e3-7d28e8eee9cc"},"vehicle_type_id":"4","last_reported":1750795928,"current_range_meters":12000,"station_id":"","pricing_plan_id":"cebpf4jnsgd1na2vs0mg"},{"bike_id":"d73e9bbc-c090-470a-8032-f86234a90165","system_id":"levelo_inurba_marseille","lat":43.28909,"lon":5.3632,"is_reserved":false,"is_disabled":false,"rental_uris":{"android":"levelo://app?vid=d73e9bbc-c090-470a-8032-f86234a90165","ios":"levelo://app?vid=d73e9bbc-c090-470a-8032-f86234a90165"},"vehicle_type_id":"4","last_reported":1750795928,"current_range_meters":12000,"station_id":"","pricing_plan_id":"cebpf4jnsgd1na2vs0mg"},{"bike_id":"409e5edb-4fe0-450d-98ba-fab1181a8b9f","system_id":"levelo_inurba_marseille","lat":43.309287,"lon":5.401337,"is_reserved":false,"is_disabled":false,"rental_uris":{"android":"levelo://app?vid=409e5edb-4fe0-450d-98ba-fab1181a8b9f","ios":"levelo://app?vid=409e5edb-4fe0-450d-98ba-fab1181a8b9f"},"vehicle_type_id":"4","last_reported":1750795928,"current_range_meters":12000,"station_id":"ce4bgvp2rcd13ifvqct0","pricing_plan_id":"cebpf4jnsgd1na2vs0mg"},{"bike_id":"3bc148eb-e0de-4f5f-8a9a-011ae89691bb","system_id":"levelo_inurba_marseille","lat":43.3064,"lon":5.40053,"is_reserved":false,"is_disabled":false,"rental_uris":{"android":"levelo://app?vid=3bc148eb-e0de-4f5f-8a9a-011ae89691bb","ios":"levelo://app?vid=3bc148eb-e0de-4f5f-8a9a-011ae89691bb"},"vehicle_type_id":"4","last_reported":1750795928,"current_range_meters":12000,"station_id":"ce4bh112rcd13ifvqda0","pricing_plan_id":"cebpf4jnsgd1na2vs0mg"},{"bike_id":"28469a25-a560-4b7e-9eb4-545d066d5efc","system_id":"levelo_inurba_marseille","lat":43.28853,"lon":5.3585,"is_reserved":false,"is_disabled":false,"rental_uris":{"android":"levelo://app?vid=28469a25-a560-4b7e-9eb4-545d066d5efc","ios":"levelo://app?vid=28469a25-a560-4b7e-9eb4-545d066d5efc"},"vehicle_type_id":"4","last_reported":1750795928,"current_range_meters":12000,"station_id":"ce4bhb12rcd13ifvqem0","pricing_plan_id":"cebpf4jnsgd1na2vs0mg"},{"bike_id":"759b6eb5-4f42-4cf1-9618-bf7013ec73ee","system_id":"levelo_inurba_marseille","lat":43.2743,"lon":5.3942,"is_reserved":false,"is_disabled":false,"rental_uris":{"android":"levelo://app?vid=759b6eb5-4f42-4cf1-9618-bf7013ec73ee","ios":"levelo://app?vid=759b6eb5-4f42-4cf1-9618-bf7013ec73ee"},"vehicle_type_id":"4","last_reported":1750795928,"current_range_meters":12000,"station_id":"ce4bhdp2rcd13ifvqf20","pricing_plan_id":"cebpf4jnsgd1na2vs0mg"},{"bike_id":"ba92484d-06a5-4bae-b4c8-fbd2c7d2f9b4","system_id":"levelo_inurba_marseille","lat":43.2707,"lon":5.42281,"is_reserved":false,"is_disabled":false,"rental_uris":{"android":"levelo://app?vid=ba92484d-06a5-4bae-b4c8-fbd2c7d2f9b4","ios":"levelo://app?vid=ba92484d-06a5-4bae-b4c8-fbd2c7d2f9b4"},"vehicle_type_id":"4","last_reported":1750795928,"current_range_meters":12000,"station_id":"ce4bhk92rcd13ifvqgb0","pricing_plan_id":"cebpf4jnsgd1na2vs0mg"},{"bike_id":"3f29bc4a-e294-4aca-91af-a4eb5f7b985e","system_id":"levelo_inurba_marseille","lat":43.22932,"lon":5.35378,"is_reserved":false,"is_disabled":false,"rental_uris":{"android":"levelo://app?vid=3f29bc4a-e294-4aca-91af-a4eb5f7b985e","ios":"levelo://app?vid=3f29bc4a-e294-4aca-91af-a4eb5f7b985e"},"vehicle_type_id":"4","last_reported":1750795928,"current_range_meters":12000,"station_id":"cpo3532slgdg3j2ikp40","pricing_plan_id":"cebpf4jnsgd1na2vs0mg"},{"bike_id":"8ffc8e05-fe8e-4e4a-b325-3ed2c32321a1","system_id":"levelo_inurba_marseille","lat":43.28845,"lon":5.39304,"is_reserved":false,"is_disabled":false,"rental_uris":{"android":"levelo://app?vid=8ffc8e05-fe8e-4e4a-b325-3ed2c32321a1","ios":"levelo://app?vid=8ffc8e05-fe8e-4e4a-b325-3ed2c32321a1"},"vehicle_type_id":"4","last_reported":1750795928,"current_range_meters":12400,"station_id":"ce4bh2p2rcd13ifvqdi0","pricing_plan_id":"cebpf4jnsgd1na2vs0mg"},{"bike_id":"6ca83aa0-0d23-46b4-b60b-956a9d3bfc66","system_id":"levelo_inurba_marseille","lat":43.25503,"lon":5.37649,"is_reserved":false,"is_disabled":false,"rental_uris":{"android":"levelo://app?vid=6ca83aa0-0d23-46b4-b60b-956a9d3bfc66","ios":"levelo://app?vid=6ca83aa0-0d23-46b4-b60b-956a9d3bfc66"},"vehicle_type_id":"4","last_reported":1750795928,"current_range_meters":12400,"station_id":"ce4bhh12rcd13ifvqff0","pricing_plan_id":"cebpf4jnsgd1na2vs0mg"},{"bike_id":"cef721fd-afe4-48d0-89b0-0777a634e87f","system_id":"levelo_inurba_marseille","lat":43.244,"lon":5.37109,"is_reserved":false,"is_disabled":false,"rental_uris":{"android":"levelo://app?vid=cef721fd-afe4-48d0-89b0-0777a634e87f","ios":"levelo://app?vid=cef721fd-afe4-48d0-89b0-0777a634e87f"},"vehicle_type_id":"4","last_reported":1750795928,"current_range_meters":12400,"station_id":"ce4bhhh2rcd13ifvqfk0","pricing_plan_id":"cebpf4jnsgd1na2vs0mg"},{"bike_id":"ba13c327-b544-419c-8e97-97c8db7710d5","system_id":"levelo_inurba_marseille","lat":43.286908,"lon":5.399877,"is_reserved":false,"is_disabled":false,"rental_uris":{"android":"levelo://app?vid=ba13c327-b544-419c-8e97-97c8db7710d5","ios":"levelo://app?vid=ba13c327-b544-419c-8e97-97c8db7710d5"},"vehicle_type_id":"4","last_reported":1750795928,"current_range_meters":12400,"station_id":"ce4bho92rcd13ifvqh3g","pricing_plan_id":"cebpf4jnsgd1na2vs0mg"},{"bike_id":"78d4a468-1a2b-4c2c-a0b2-451a1d63d1ce","system_id":"levelo_inurba_marseille","lat":43.32046,"lon":5.4157,"is_reserved":false,"is_disabled":false,"rental_uris":{"android":"levelo://app?vid=78d4a468-1a2b-4c2c-a0b2-451a1d63d1ce","ios":"levelo://app?vid=78d4a468-1a2b-4c2c-a0b2-451a1d63d1ce"},"vehicle_type_id":"4","last_reported":1750795928,"current_range_meters":12400,"station_id":"ce4bhq92rcd13ifvqhkg","pricing_plan_id":"cebpf4jnsgd1na2vs0mg"},{"bike_id":"1e61807a-8606-4dea-a2de-731ddc3f4412","system_id":"levelo_inurba_marseille","lat":43.31526,"lon":5.38033,"is_reserved":false,"is_disabled":false,"rental_uris":{"android":"levelo://app?vid=1e61807a-8606-4dea-a2de-731ddc3f4412","ios":"levelo://app?vid=1e61807a-8606-4dea-a2de-731ddc3f4412"},"vehicle_type_id":"4","last_reported":1750795928,"current_range_meters":12400,"station_id":"ce4bhsp2rcd13ifvqi50","pricing_plan_id":"cebpf4jnsgd1na2vs0mg"},{"bike_id":"ac8ac770-c171-4257-a14a-0f44ff9be05c","system_id":"levelo_inurba_marseille","lat":43.269377,"lon":5.402576,"is_reserved":false,"is_disabled":false,"rental_uris":{"android":"levelo://app?vid=ac8ac770-c171-4257-a14a-0f44ff9be05c","ios":"levelo://app?vid=ac8ac770-c171-4257-a14a-0f44ff9be05c"},"vehicle_type_id":"4","last_reported":1750795928,"current_range_meters":12400,"station_id":"cjm6bp8fraef2m0cb0m0","pricing_plan_id":"cebpf4jnsgd1na2vs0mg"},{"bike_id":"22e37a58-8773-44e6-8991-070d33c4ec2e","system_id":"levelo_inurba_marseille","lat":43.29783,"lon":5.38105,"is_reserved":false,"is_disabled":false,"rental_uris":{"android":"levelo://app?vid=22e37a58-8773-44e6-8991-070d33c4ec2e","ios":"levelo://app?vid=22e37a58-8773-44e6-8991-070d33c4ec2e"},"vehicle_type_id":"4","last_reported":1750795928,"current_range_meters":13600,"station_id":"ce4bgip2rcd13ifvqbb0","pricing_plan_id":"cebpf4jnsgd1na2vs0mg"},{"bike_id":"4408d740-08e7-48f8-8432-813e37db7e68","system_id":"levelo_inurba_marseille","lat":43.26679,"lon":5.38273,"is_reserved":false,"is_disabled":false,"rental_uris":{"android":"levelo://app?vid=4408d740-08e7-48f8-8432-813e37db7e68","ios":"levelo://app?vid=4408d740-08e7-48f8-8432-813e37db7e68"},"vehicle_type_id":"4","last_reported":1750795928,"current_range_meters":13600,"station_id":"ce4bhg92rcd13ifvqf90","pricing_plan_id":"cebpf4jnsgd1na2vs0mg"},{"bike_id":"b0ff0609-f2ae-4ae1-ab06-63023fb09784","system_id":"levelo_inurba_marseille","lat":43.279907,"lon":5.416627,"is_reserved":false,"is_disabled":false,"rental_uris":{"android":"levelo://app?vid=b0ff0609-f2ae-4ae1-ab06-63023fb09784","ios":"levelo://app?vid=b0ff0609-f2ae-4ae1-ab06-63023fb09784"},"vehicle_type_id":"4","last_reported":1750795928,"current_range_meters":13600,"station_id":"ce4bho12rcd13ifvqh1g","pricing_plan_id":"cebpf4jnsgd1na2vs0mg"},{"bike_id":"51b217be-9488-41c1-b083-6d728251b280","system_id":"levelo_inurba_marseille","lat":43.243418,"lon":5.368781,"is_reserved":false,"is_disabled":false,"rental_uris":{"android":"levelo://app?vid=51b217be-9488-41c1-b083-6d728251b280","ios":"levelo://app?vid=51b217be-9488-41c1-b083-6d728251b280"},"vehicle_type_id":"4","last_reported":1750795928,"current_range_meters":14000,"station_id":"","pricing_plan_id":"cebpf4jnsgd1na2vs0mg"},{"bike_id":"13d21f5f-4b75-4cab-bbcd-ad4b068bb6e9","system_id":"levelo_inurba_marseille","lat":43.308248,"lon":5.395869,"is_reserved":false,"is_disabled":false,"rental_uris":{"android":"levelo://app?vid=13d21f5f-4b75-4cab-bbcd-ad4b068bb6e9","ios":"levelo://app?vid=13d21f5f-4b75-4cab-bbcd-ad4b068bb6e9"},"vehicle_type_id":"4","last_reported":1750795928,"current_range_meters":14000,"station_id":"ce4bh012rcd13ifvqcv0","pricing_plan_id":"cebpf4jnsgd1na2vs0mg"},{"bike_id":"a5e64019-2958-44c2-85b7-076f0b5b78db","system_id":"levelo_inurba_marseille","lat":43.3088,"lon":5.39646,"is_reserved":false,"is_disabled":false,"rental_uris":{"android":"levelo://app?vid=a5e64019-2958-44c2-85b7-076f0b5b78db","ios":"levelo://app?vid=a5e64019-2958-44c2-85b7-076f0b5b78db"},"vehicle_type_id":"4","last_reported":1750795928,"current_range_meters":14000,"station_id":"ce4bh012rcd13ifvqcv0","pricing_plan_id":"cebpf4jnsgd1na2vs0mg"},{"bike_id":"f55f66a0-8687-4306-acc5-2d96cf799a52","system_id":"levelo_inurba_marseille","lat":43.3059,"lon":5.39355,"is_reserved":false,"is_disabled":false,"rental_uris":{"android":"levelo://app?vid=f55f66a0-8687-4306-acc5-2d96cf799a52","ios":"levelo://app?vid=f55f66a0-8687-4306-acc5-2d96cf799a52"},"vehicle_type_id":"4","last_reported":1750795928,"current_range_meters":14000,"station_id":"ce4bh0p2rcd13ifvqd80","pricing_plan_id":"cebpf4jnsgd1na2vs0mg"},{"bike_id":"00317fdd-1ecb-4bed-827e-4c611cfa5f8b","system_id":"levelo_inurba_marseille","lat":43.27076,"lon":5.42281,"is_reserved":false,"is_disabled":false,"rental_uris":{"android":"levelo://app?vid=00317fdd-1ecb-4bed-827e-4c611cfa5f8b","ios":"levelo://app?vid=00317fdd-1ecb-4bed-827e-4c611cfa5f8b"},"vehicle_type_id":"4","last_reported":1750795928,"current_range_meters":14000,"station_id":"ce4bhk92rcd13ifvqgb0","pricing_plan_id":"cebpf4jnsgd1na2vs0mg"},{"bike_id":"863e6bda-4ba3-49a0-9cbb-614ef148667d","system_id":"levelo_inurba_marseille","lat":43.33603,"lon":5.41034,"is_reserved":false,"is_disabled":false,"rental_uris":{"android":"levelo://app?vid=863e6bda-4ba3-49a0-9cbb-614ef148667d","ios":"levelo://app?vid=863e6bda-4ba3-49a0-9cbb-614ef148667d"},"vehicle_type_id":"4","last_reported":1750795928,"current_range_meters":14000,"station_id":"ce4bhqh2rcd13ifvqhmg","pricing_plan_id":"cebpf4jnsgd1na2vs0mg"},{"bike_id":"37639598-87cb-49f2-bb28-e8116a49605f","system_id":"levelo_inurba_marseille","lat":43.22502,"lon":5.34792,"is_reserved":false,"is_disabled":false,"rental_uris":{"android":"levelo://app?vid=37639598-87cb-49f2-bb28-e8116a49605f","ios":"levelo://app?vid=37639598-87cb-49f2-bb28-e8116a49605f"},"vehicle_type_id":"4","last_reported":1750795928,"current_range_meters":14000,"station_id":"st_cvj5dfep6f1abm77gieg","pricing_plan_id":"cebpf4jnsgd1na2vs0mg"},{"bike_id":"f5a82c5c-9614-4b58-996f-30f600abfa2a","system_id":"levelo_inurba_marseille","lat":43.29422,"lon":5.38606,"is_reserved":false,"is_disabled":false,"rental_uris":{"android":"levelo://app?vid=f5a82c5c-9614-4b58-996f-30f600abfa2a","ios":"levelo://app?vid=f5a82c5c-9614-4b58-996f-30f600abfa2a"},"vehicle_type_id":"4","last_reported":1750795928,"current_range_meters":14400,"station_id":"ce4bh2h2rcd13ifvqdh0","pricing_plan_id":"cebpf4jnsgd1na2vs0mg"},{"bike_id":"2a682f58-1ec4-40ea-bf39-caa7e4b772c5","system_id":"levelo_inurba_marseille","lat":43.2971,"lon":5.36614,"is_reserved":false,"is_disabled":false,"rental_uris":{"android":"levelo://app?vid=2a682f58-1ec4-40ea-bf39-caa7e4b772c5","ios":"levelo://app?vid=2a682f58-1ec4-40ea-bf39-caa7e4b772c5"},"vehicle_type_id":"4","last_reported":1750795928,"current_range_meters":14800,"station_id":"ce4bgn12rcd13ifvqbt0","pricing_plan_id":"cebpf4jnsgd1na2vs0mg"},{"bike_id":"6972aa7b-4542-4460-ba39-d9924fd32a5c","system_id":"levelo_inurba_marseille","lat":43.30642,"lon":5.40068,"is_reserved":false,"is_disabled":false,"rental_uris":{"android":"levelo://app?vid=6972aa7b-4542-4460-ba39-d9924fd32a5c","ios":"levelo://app?vid=6972aa7b-4542-4460-ba39-d9924fd32a5c"},"vehicle_type_id":"4","last_reported":1750795928,"current_range_meters":14800,"station_id":"ce4bh112rcd13ifvqda0","pricing_plan_id":"cebpf4jnsgd1na2vs0mg"},{"bike_id":"ee635704-4150-4c93-862a-1a8b7d5d7c5c","system_id":"levelo_inurba_marseille","lat":43.28351,"lon":5.38099,"is_reserved":false,"is_disabled":false,"rental_uris":{"android":"levelo://app?vid=ee635704-4150-4c93-862a-1a8b7d5d7c5c","ios":"levelo://app?vid=ee635704-4150-4c93-862a-1a8b7d5d7c5c"},"vehicle_type_id":"4","last_reported":1750795928,"current_range_meters":14800,"station_id":"ce4bh412rcd13ifvqdr0","pricing_plan_id":"cebpf4jnsgd1na2vs0mg"},{"bike_id":"7ea3c9bd-f9bd-438e-b9e1-cdbe4f91c60d","system_id":"levelo_inurba_marseille","lat":43.22889,"lon":5.35259,"is_reserved":false,"is_disabled":false,"rental_uris":{"android":"levelo://app?vid=7ea3c9bd-f9bd-438e-b9e1-cdbe4f91c60d","ios":"levelo://app?vid=7ea3c9bd-f9bd-438e-b9e1-cdbe4f91c60d"},"vehicle_type_id":"4","last_reported":1750795928,"current_range_meters":15200,"station_id":"","pricing_plan_id":"cebpf4jnsgd1na2vs0mg"},{"bike_id":"24bec0ac-4c6c-4842-80e7-9983c2b33e58","system_id":"levelo_inurba_marseille","lat":43.21195,"lon":5.35073,"is_reserved":false,"is_disabled":false,"rental_uris":{"android":"levelo://app?vid=24bec0ac-4c6c-4842-80e7-9983c2b33e58","ios":"levelo://app?vid=24bec0ac-4c6c-4842-80e7-9983c2b33e58"},"vehicle_type_id":"4","last_reported":1750795928,"current_range_meters":15200,"station_id":"","pricing_plan_id":"cebpf4jnsgd1na2vs0mg"},{"bike_id":"af112b62-19de-41d4-b8d7-e14d0172315d","system_id":"levelo_inurba_marseille","lat":43.327228,"lon":5.392046,"is_reserved":false,"is_disabled":false,"rental_uris":{"android":"levelo://app?vid=af112b62-19de-41d4-b8d7-e14d0172315d","ios":"levelo://app?vid=af112b62-19de-41d4-b8d7-e14d0172315d"},"vehicle_type_id":"4","last_reported":1750795928,"current_range_meters":15200,"station_id":"","pricing_plan_id":"cebpf4jnsgd1na2vs0mg"},{"bike_id":"ea29cbbf-cefa-4747-a512-68ad770fe79c","system_id":"levelo_inurba_marseille","lat":43.29194,"lon":5.39317,"is_reserved":false,"is_disabled":false,"rental_uris":{"android":"levelo://app?vid=ea29cbbf-cefa-4747-a512-68ad770fe79c","ios":"levelo://app?vid=ea29cbbf-cefa-4747-a512-68ad770fe79c"},"vehicle_type_id":"4","last_reported":1750795928,"current_range_meters":15200,"station_id":"ce4bh192rcd13ifvqdd0","pricing_plan_id":"cebpf4jnsgd1na2vs0mg"},{"bike_id":"daef40d6-62e4-4b70-acb6-efb3bfc782ed","system_id":"levelo_inurba_marseille","lat":43.28664,"lon":5.38671,"is_reserved":false,"is_disabled":false,"rental_uris":{"android":"levelo://app?vid=daef40d6-62e4-4b70-acb6-efb3bfc782ed","ios":"levelo://app?vid=daef40d6-62e4-4b70-acb6-efb3bfc782ed"},"vehicle_type_id":"4","last_reported":1750795928,"current_range_meters":15200,"station_id":"ce4bh492rcd13ifvqdug","pricing_plan_id":"cebpf4jnsgd1na2vs0mg"},{"bike_id":"174e7fa0-9b71-44bc-b4a6-f23297486536","system_id":"levelo_inurba_marseille","lat":43.28079,"lon":5.39659,"is_reserved":false,"is_disabled":false,"rental_uris":{"android":"levelo://app?vid=174e7fa0-9b71-44bc-b4a6-f23297486536","ios":"levelo://app?vid=174e7fa0-9b71-44bc-b4a6-f23297486536"},"vehicle_type_id":"4","last_reported":1750795928,"current_range_meters":15200,"station_id":"ce4bho12rcd13ifvqh2g","pricing_plan_id":"cebpf4jnsgd1na2vs0mg"},{"bike_id":"f6422610-889a-4081-9074-5578d68c4cc1","system_id":"levelo_inurba_marseille","lat":43.33607,"lon":5.41006,"is_reserved":false,"is_disabled":false,"rental_uris":{"android":"levelo://app?vid=f6422610-889a-4081-9074-5578d68c4cc1","ios":"levelo://app?vid=f6422610-889a-4081-9074-5578d68c4cc1"},"vehicle_type_id":"4","last_reported":1750795928,"current_range_meters":15200,"station_id":"ce4bhqh2rcd13ifvqhmg","pricing_plan_id":"cebpf4jnsgd1na2vs0mg"},{"bike_id":"26a14eba-87a9-47b8-9607-30bd0042d428","system_id":"levelo_inurba_marseille","lat":43.31465,"lon":5.39419,"is_reserved":false,"is_disabled":false,"rental_uris":{"android":"levelo://app?vid=26a14eba-87a9-47b8-9607-30bd0042d428","ios":"levelo://app?vid=26a14eba-87a9-47b8-9607-30bd0042d428"},"vehicle_type_id":"4","last_reported":1750795928,"current_range_meters":16000,"station_id":"","pricing_plan_id":"cebpf4jnsgd1na2vs0mg"},{"bike_id":"1f1bebc9-ba72-4f02-a7dd-9cb8cdc94e79","system_id":"levelo_inurba_marseille","lat":43.29618,"lon":5.37151,"is_reserved":false,"is_disabled":false,"rental_uris":{"android":"levelo://app?vid=1f1bebc9-ba72-4f02-a7dd-9cb8cdc94e79","ios":"levelo://app?vid=1f1bebc9-ba72-4f02-a7dd-9cb8cdc94e79"},"vehicle_type_id":"4","last_reported":1750795928,"current_range_meters":16000,"station_id":"ce4bgnh2rcd13ifvqc0g","pricing_plan_id":"cebpf4jnsgd1na2vs0mg"},{"bike_id":"1acfc60c-b275-46ea-bf3e-6f086b7f1496","system_id":"levelo_inurba_marseille","lat":43.30091,"lon":5.39059,"is_reserved":false,"is_disabled":false,"rental_uris":{"android":"levelo://app?vid=1acfc60c-b275-46ea-bf3e-6f086b7f1496","ios":"levelo://app?vid=1acfc60c-b275-46ea-bf3e-6f086b7f1496"},"vehicle_type_id":"4","last_reported":1750795928,"current_range_meters":16000,"station_id":"ce4bh192rcd13ifvqdb0","pricing_plan_id":"cebpf4jnsgd1na2vs0mg"},{"bike_id":"bb8ec565-1203-49fc-9e26-37fcabf5a3dd","system_id":"levelo_inurba_marseille","lat":43.29422,"lon":5.38595,"is_reserved":false,"is_disabled":false,"rental_uris":{"android":"levelo://app?vid=bb8ec565-1203-49fc-9e26-37fcabf5a3dd","ios":"levelo://app?vid=bb8ec565-1203-49fc-9e26-37fcabf5a3dd"},"vehicle_type_id":"4","last_reported":1750795928,"current_range_meters":16000,"station_id":"ce4bh2h2rcd13ifvqdh0","pricing_plan_id":"cebpf4jnsgd1na2vs0mg"},{"bike_id":"2387a87f-8f73-4df6-8d2d-167779ba5792","system_id":"levelo_inurba_marseille","lat":43.2867,"lon":5.38625,"is_reserved":false,"is_disabled":false,"rental_uris":{"android":"levelo://app?vid=2387a87f-8f73-4df6-8d2d-167779ba5792","ios":"levelo://app?vid=2387a87f-8f73-4df6-8d2d-167779ba5792"},"vehicle_type_id":"4","last_reported":1750795928,"current_range_meters":16000,"station_id":"ce4bh492rcd13ifvqdug","pricing_plan_id":"cebpf4jnsgd1na2vs0mg"},{"bike_id":"85aebb63-1277-49af-91e5-22f2d655e266","system_id":"levelo_inurba_marseille","lat":43.29898,"lon":5.43659,"is_reserved":false,"is_disabled":false,"rental_uris":{"android":"levelo://app?vid=85aebb63-1277-49af-91e5-22f2d655e266","ios":"levelo://app?vid=85aebb63-1277-49af-91e5-22f2d655e266"},"vehicle_type_id":"4","last_reported":1750795928,"current_range_meters":16000,"station_id":"ce4bhpp2rcd13ifvqhfg","pricing_plan_id":"cebpf4jnsgd1na2vs0mg"},{"bike_id":"bb992666-e378-41dd-a997-d63d1daca419","system_id":"levelo_inurba_marseille","lat":43.28149,"lon":5.44213,"is_reserved":false,"is_disabled":false,"rental_uris":{"android":"levelo://app?vid=bb992666-e378-41dd-a997-d63d1daca419","ios":"levelo://app?vid=bb992666-e378-41dd-a997-d63d1daca419"},"vehicle_type_id":"4","last_reported":1750795928,"current_range_meters":16400,"station_id":"","pricing_plan_id":"cebpf4jnsgd1na2vs0mg"},{"bike_id":"5eee8925-0941-460b-a942-18fcb70bac7c","system_id":"levelo_inurba_marseille","lat":43.2723,"lon":5.40039,"is_reserved":false,"is_disabled":false,"rental_uris":{"android":"levelo://app?vid=5eee8925-0941-460b-a942-18fcb70bac7c","ios":"levelo://app?vid=5eee8925-0941-460b-a942-18fcb70bac7c"},"vehicle_type_id":"4","last_reported":1750795928,"current_range_meters":16400,"station_id":"","pricing_plan_id":"cebpf4jnsgd1na2vs0mg"},{"bike_id":"61d28d72-858b-4c33-97fa-f145927963dd","system_id":"levelo_inurba_marseille","lat":43.2954,"lon":5.3939,"is_reserved":false,"is_disabled":false,"rental_uris":{"android":"levelo://app?vid=61d28d72-858b-4c33-97fa-f145927963dd","ios":"levelo://app?vid=61d28d72-858b-4c33-97fa-f145927963dd"},"vehicle_type_id":"4","last_reported":1750795928,"current_range_meters":16400,"station_id":"ce4bh292rcd13ifvqdf0","pricing_plan_id":"cebpf4jnsgd1na2vs0mg"},{"bike_id":"2cb960e4-6929-441e-a7c2-3bf3ff399bd5","system_id":"levelo_inurba_marseille","lat":43.28861,"lon":5.39309,"is_reserved":false,"is_disabled":false,"rental_uris":{"android":"levelo://app?vid=2cb960e4-6929-441e-a7c2-3bf3ff399bd5","ios":"levelo://app?vid=2cb960e4-6929-441e-a7c2-3bf3ff399bd5"},"vehicle_type_id":"4","last_reported":1750795928,"current_range_meters":16400,"station_id":"ce4bh2p2rcd13ifvqdi0","pricing_plan_id":"cebpf4jnsgd1na2vs0mg"},{"bike_id":"07173090-ca8b-4584-a6dc-6fdef3f6e6e2","system_id":"levelo_inurba_marseille","lat":43.28851,"lon":5.393,"is_reserved":false,"is_disabled":false,"rental_uris":{"android":"levelo://app?vid=07173090-ca8b-4584-a6dc-6fdef3f6e6e2","ios":"levelo://app?vid=07173090-ca8b-4584-a6dc-6fdef3f6e6e2"},"vehicle_type_id":"4","last_reported":1750795928,"current_range_meters":16400,"station_id":"ce4bh2p2rcd13ifvqdi0","pricing_plan_id":"cebpf4jnsgd1na2vs0mg"},{"bike_id":"abb6409c-7f79-4788-895e-fee01b6635d0","system_id":"levelo_inurba_marseille","lat":43.28934,"lon":5.39612,"is_reserved":false,"is_disabled":false,"rental_uris":{"android":"levelo://app?vid=abb6409c-7f79-4788-895e-fee01b6635d0","ios":"levelo://app?vid=abb6409c-7f79-4788-895e-fee01b6635d0"},"vehicle_type_id":"4","last_reported":1750795928,"current_range_meters":16400,"station_id":"ce4bh3h2rcd13ifvqdn0","pricing_plan_id":"cebpf4jnsgd1na2vs0mg"},{"bike_id":"33456f9d-1156-444e-a56f-2420a7556e02","system_id":"levelo_inurba_marseille","lat":43.26954,"lon":5.38627,"is_reserved":false,"is_disabled":false,"rental_uris":{"android":"levelo://app?vid=33456f9d-1156-444e-a56f-2420a7556e02","ios":"levelo://app?vid=33456f9d-1156-444e-a56f-2420a7556e02"},"vehicle_type_id":"4","last_reported":1750795928,"current_range_meters":16400,"station_id":"ce4bhh92rcd13ifvqfh0","pricing_plan_id":"cebpf4jnsgd1na2vs0mg"},{"bike_id":"d15c8810-0a93-46cd-9a65-7eabef92df0f","system_id":"levelo_inurba_marseille","lat":43.31993,"lon":5.38143,"is_reserved":false,"is_disabled":false,"rental_uris":{"android":"levelo://app?vid=d15c8810-0a93-46cd-9a65-7eabef92df0f","ios":"levelo://app?vid=d15c8810-0a93-46cd-9a65-7eabef92df0f"},"vehicle_type_id":"4","last_reported":1750795928,"current_range_meters":16400,"station_id":"ce4bhr12rcd13ifvqhpg","pricing_plan_id":"cebpf4jnsgd1na2vs0mg"},{"bike_id":"07dead3e-fced-4a36-b1c0-dda7dd873caf","system_id":"levelo_inurba_marseille","lat":43.23199,"lon":5.35546,"is_reserved":false,"is_disabled":false,"rental_uris":{"android":"levelo://app?vid=07dead3e-fced-4a36-b1c0-dda7dd873caf","ios":"levelo://app?vid=07dead3e-fced-4a36-b1c0-dda7dd873caf"},"vehicle_type_id":"4","last_reported":1750795928,"current_range_meters":16400,"station_id":"ce4bhu92rcd13ifvqi70","pricing_plan_id":"cebpf4jnsgd1na2vs0mg"},{"bike_id":"6d66f760-917a-49b1-b200-d585832e6166","system_id":"levelo_inurba_marseille","lat":43.2292,"lon":5.3539,"is_reserved":false,"is_disabled":false,"rental_uris":{"android":"levelo://app?vid=6d66f760-917a-49b1-b200-d585832e6166","ios":"levelo://app?vid=6d66f760-917a-49b1-b200-d585832e6166"},"vehicle_type_id":"4","last_reported":1750795928,"current_range_meters":16400,"station_id":"cpo3532slgdg3j2ikp40","pricing_plan_id":"cebpf4jnsgd1na2vs0mg"},{"bike_id":"73003e5e-1157-4cf0-aafe-d13c75118280","system_id":"levelo_inurba_marseille","lat":43.33423,"lon":5.3965,"is_reserved":false,"is_disabled":false,"rental_uris":{"android":"levelo://app?vid=73003e5e-1157-4cf0-aafe-d13c75118280","ios":"levelo://app?vid=73003e5e-1157-4cf0-aafe-d13c75118280"},"vehicle_type_id":"4","last_reported":1750795928,"current_range_meters":16800,"station_id":"","pricing_plan_id":"cebpf4jnsgd1na2vs0mg"},{"bike_id":"3b951d47-daef-4f47-9b11-1cb55583c0cc","system_id":"levelo_inurba_marseille","lat":43.21238,"lon":5.35053,"is_reserved":false,"is_disabled":false,"rental_uris":{"android":"levelo://app?vid=3b951d47-daef-4f47-9b11-1cb55583c0cc","ios":"levelo://app?vid=3b951d47-daef-4f47-9b11-1cb55583c0cc"},"vehicle_type_id":"4","last_reported":1750795928,"current_range_meters":16800,"station_id":"","pricing_plan_id":"cebpf4jnsgd1na2vs0mg"},{"bike_id":"5ea21571-4117-413e-b8e7-3eaf4891bb45","system_id":"levelo_inurba_marseille","lat":43.29325,"lon":5.37488,"is_reserved":false,"is_disabled":false,"rental_uris":{"android":"levelo://app?vid=5ea21571-4117-413e-b8e7-3eaf4891bb45","ios":"levelo://app?vid=5ea21571-4117-413e-b8e7-3eaf4891bb45"},"vehicle_type_id":"4","last_reported":1750795928,"current_range_meters":16800,"station_id":"ce4bgi12rcd13ifvqb70","pricing_plan_id":"cebpf4jnsgd1na2vs0mg"},{"bike_id":"970ee99d-d3b5-4ae0-a45f-42abf0ba89a2","system_id":"levelo_inurba_marseille","lat":43.30787,"lon":5.37642,"is_reserved":false,"is_disabled":false,"rental_uris":{"android":"levelo://app?vid=970ee99d-d3b5-4ae0-a45f-42abf0ba89a2","ios":"levelo://app?vid=970ee99d-d3b5-4ae0-a45f-42abf0ba89a2"},"vehicle_type_id":"4","last_reported":1750795928,"current_range_meters":16800,"station_id":"ce4bgv92rcd13ifvqcq0","pricing_plan_id":"cebpf4jnsgd1na2vs0mg"},{"bike_id":"44f01031-bcd9-423c-a1ab-6f17bd4b5af8","system_id":"levelo_inurba_marseille","lat":43.3088,"lon":5.3962,"is_reserved":false,"is_disabled":false,"rental_uris":{"android":"levelo://app?vid=44f01031-bcd9-423c-a1ab-6f17bd4b5af8","ios":"levelo://app?vid=44f01031-bcd9-423c-a1ab-6f17bd4b5af8"},"vehicle_type_id":"4","last_reported":1750795928,"current_range_meters":16800,"station_id":"ce4bh012rcd13ifvqcv0","pricing_plan_id":"cebpf4jnsgd1na2vs0mg"},{"bike_id":"d736b98d-bcdf-4a9a-9bf0-21b6a4b89e96","system_id":"levelo_inurba_marseille","lat":43.28938,"lon":5.39619,"is_reserved":false,"is_disabled":false,"rental_uris":{"android":"levelo://app?vid=d736b98d-bcdf-4a9a-9bf0-21b6a4b89e96","ios":"levelo://app?vid=d736b98d-bcdf-4a9a-9bf0-21b6a4b89e96"},"vehicle_type_id":"4","last_reported":1750795928,"current_range_meters":16800,"station_id":"ce4bh3h2rcd13ifvqdn0","pricing_plan_id":"cebpf4jnsgd1na2vs0mg"},{"bike_id":"231f3f15-8a12-499e-aa76-e88fe07e72e4","system_id":"levelo_inurba_marseille","lat":43.29438,"lon":5.39754,"is_reserved":false,"is_disabled":false,"rental_uris":{"android":"levelo://app?vid=231f3f15-8a12-499e-aa76-e88fe07e72e4","ios":"levelo://app?vid=231f3f15-8a12-499e-aa76-e88fe07e72e4"},"vehicle_type_id":"4","last_reported":1750795928,"current_range_meters":16800,"station_id":"ce4bh3h2rcd13ifvqdo0","pricing_plan_id":"cebpf4jnsgd1na2vs0mg"},{"bike_id":"7a09704f-9c85-4057-8208-d84f23973f20","system_id":"levelo_inurba_marseille","lat":43.28717,"lon":5.37935,"is_reserved":false,"is_disabled":false,"rental_uris":{"android":"levelo://app?vid=7a09704f-9c85-4057-8208-d84f23973f20","ios":"levelo://app?vid=7a09704f-9c85-4057-8208-d84f23973f20"},"vehicle_type_id":"4","last_reported":1750795928,"current_range_meters":16800,"station_id":"ce4bh9p2rcd13ifvqec0","pricing_plan_id":"cebpf4jnsgd1na2vs0mg"},{"bike_id":"1620ae26-dff9-4f16-82b2-5d8c53975dce","system_id":"levelo_inurba_marseille","lat":43.27905,"lon":5.37999,"is_reserved":false,"is_disabled":false,"rental_uris":{"android":"levelo://app?vid=1620ae26-dff9-4f16-82b2-5d8c53975dce","ios":"levelo://app?vid=1620ae26-dff9-4f16-82b2-5d8c53975dce"},"vehicle_type_id":"4","last_reported":1750795928,"current_range_meters":16800,"station_id":"ce4bhf92rcd13ifvqf50","pricing_plan_id":"cebpf4jnsgd1na2vs0mg"},{"bike_id":"e3cbe31d-3f2f-4c4c-a959-3bdba55d2dad","system_id":"levelo_inurba_marseille","lat":43.22927,"lon":5.35374,"is_reserved":false,"is_disabled":false,"rental_uris":{"android":"levelo://app?vid=e3cbe31d-3f2f-4c4c-a959-3bdba55d2dad","ios":"levelo://app?vid=e3cbe31d-3f2f-4c4c-a959-3bdba55d2dad"},"vehicle_type_id":"4","last_reported":1750795928,"current_range_meters":16800,"station_id":"cpo3532slgdg3j2ikp40","pricing_plan_id":"cebpf4jnsgd1na2vs0mg"},{"bike_id":"e8f01134-9211-4fca-8c64-adf9bc370934","system_id":"levelo_inurba_marseille","lat":43.27631,"lon":5.361,"is_reserved":false,"is_disabled":false,"rental_uris":{"android":"levelo://app?vid=e8f01134-9211-4fca-8c64-adf9bc370934","ios":"levelo://app?vid=e8f01134-9211-4fca-8c64-adf9bc370934"},"vehicle_type_id":"4","last_reported":1750795928,"current_range_meters":17200,"station_id":"ce4bgj92rcd13ifvqbe0","pricing_plan_id":"cebpf4jnsgd1na2vs0mg"},{"bike_id":"602fa7cd-040f-47c4-b5be-5b4d5f9bb83a","system_id":"levelo_inurba_marseille","lat":43.26211,"lon":5.37447,"is_reserved":false,"is_disabled":false,"rental_uris":{"android":"levelo://app?vid=602fa7cd-040f-47c4-b5be-5b4d5f9bb83a","ios":"levelo://app?vid=602fa7cd-040f-47c4-b5be-5b4d5f9bb83a"},"vehicle_type_id":"4","last_reported":1750795928,"current_range_meters":17200,"station_id":"ce4bhgp2rcd13ifvqfc0","pricing_plan_id":"cebpf4jnsgd1na2vs0mg"},{"bike_id":"e2f5b300-4a63-4778-aada-c29a8a0ea1e8","system_id":"levelo_inurba_marseille","lat":43.32833,"lon":5.3914,"is_reserved":false,"is_disabled":false,"rental_uris":{"android":"levelo://app?vid=e2f5b300-4a63-4778-aada-c29a8a0ea1e8","ios":"levelo://app?vid=e2f5b300-4a63-4778-aada-c29a8a0ea1e8"},"vehicle_type_id":"4","last_reported":1750795928,"current_range_meters":17600,"station_id":"","pricing_plan_id":"cebpf4jnsgd1na2vs0mg"},{"bike_id":"5b0059f2-5a2a-41ce-b903-1f956adfdd24","system_id":"levelo_inurba_marseille","lat":43.2978,"lon":5.43569,"is_reserved":false,"is_disabled":false,"rental_uris":{"android":"levelo://app?vid=5b0059f2-5a2a-41ce-b903-1f956adfdd24","ios":"levelo://app?vid=5b0059f2-5a2a-41ce-b903-1f956adfdd24"},"vehicle_type_id":"4","last_reported":1750795928,"current_range_meters":17600,"station_id":"","pricing_plan_id":"cebpf4jnsgd1na2vs0mg"},{"bike_id":"ba7eb518-3985-44e6-92c6-c64f783f9dd8","system_id":"levelo_inurba_marseille","lat":43.30525,"lon":5.36529,"is_reserved":false,"is_disabled":false,"rental_uris":{"android":"levelo://app?vid=ba7eb518-3985-44e6-92c6-c64f783f9dd8","ios":"levelo://app?vid=ba7eb518-3985-44e6-92c6-c64f783f9dd8"},"vehicle_type_id":"4","last_reported":1750795928,"current_range_meters":17600,"station_id":"ce4bgs12rcd13ifvqcag","pricing_plan_id":"cebpf4jnsgd1na2vs0mg"},{"bike_id":"e57b1119-e610-43a9-b2a6-1c70f604e779","system_id":"levelo_inurba_marseille","lat":43.31175,"lon":5.38711,"is_reserved":false,"is_disabled":false,"rental_uris":{"android":"levelo://app?vid=e57b1119-e610-43a9-b2a6-1c70f604e779","ios":"levelo://app?vid=e57b1119-e610-43a9-b2a6-1c70f604e779"},"vehicle_type_id":"4","last_reported":1750795928,"current_range_meters":17600,"station_id":"ce4bgv12rcd13ifvqcp0","pricing_plan_id":"cebpf4jnsgd1na2vs0mg"},{"bike_id":"a2e6f951-ddab-43ef-a973-ecd1a14fc733","system_id":"levelo_inurba_marseille","lat":43.3065,"lon":5.40098,"is_reserved":false,"is_disabled":false,"rental_uris":{"android":"levelo://app?vid=a2e6f951-ddab-43ef-a973-ecd1a14fc733","ios":"levelo://app?vid=a2e6f951-ddab-43ef-a973-ecd1a14fc733"},"vehicle_type_id":"4","last_reported":1750795928,"current_range_meters":17600,"station_id":"ce4bh112rcd13ifvqda0","pricing_plan_id":"cebpf4jnsgd1na2vs0mg"},{"bike_id":"32a3a33e-dc3c-4e3c-b72d-cb51d0f4bab3","system_id":"levelo_inurba_marseille","lat":43.2867,"lon":5.38669,"is_reserved":false,"is_disabled":false,"rental_uris":{"android":"levelo://app?vid=32a3a33e-dc3c-4e3c-b72d-cb51d0f4bab3","ios":"levelo://app?vid=32a3a33e-dc3c-4e3c-b72d-cb51d0f4bab3"},"vehicle_type_id":"4","last_reported":1750795928,"current_range_meters":17600,"station_id":"ce4bh492rcd13ifvqdug","pricing_plan_id":"cebpf4jnsgd1na2vs0mg"},{"bike_id":"72efb48e-22ff-412b-900f-0aa1d851f98e","system_id":"levelo_inurba_marseille","lat":43.29264,"lon":5.38433,"is_reserved":false,"is_disabled":false,"rental_uris":{"android":"levelo://app?vid=72efb48e-22ff-412b-900f-0aa1d851f98e","ios":"levelo://app?vid=72efb48e-22ff-412b-900f-0aa1d851f98e"},"vehicle_type_id":"4","last_reported":1750795928,"current_range_meters":17600,"station_id":"ce4bh692rcd13ifvqea0","pricing_plan_id":"cebpf4jnsgd1na2vs0mg"},{"bike_id":"95e82904-5316-4c7c-a02c-b8a63d0894c2","system_id":"levelo_inurba_marseille","lat":43.29265,"lon":5.38432,"is_reserved":false,"is_disabled":false,"rental_uris":{"android":"levelo://app?vid=95e82904-5316-4c7c-a02c-b8a63d0894c2","ios":"levelo://app?vid=95e82904-5316-4c7c-a02c-b8a63d0894c2"},"vehicle_type_id":"4","last_reported":1750795928,"current_range_meters":17600,"station_id":"ce4bh692rcd13ifvqea0","pricing_plan_id":"cebpf4jnsgd1na2vs0mg"},{"bike_id":"92a9dcd9-3d2e-4b06-a957-288834a3cf35","system_id":"levelo_inurba_marseille","lat":43.27361,"lon":5.36259,"is_reserved":false,"is_disabled":false,"rental_uris":{"android":"levelo://app?vid=92a9dcd9-3d2e-4b06-a957-288834a3cf35","ios":"levelo://app?vid=92a9dcd9-3d2e-4b06-a957-288834a3cf35"},"vehicle_type_id":"4","last_reported":1750795928,"current_range_meters":17600,"station_id":"ce4bhbh2rcd13ifvqeo0","pricing_plan_id":"cebpf4jnsgd1na2vs0mg"},{"bike_id":"96b32c13-46ac-4d54-b10f-69d47dc8ef8f","system_id":"levelo_inurba_marseille","lat":43.25932,"lon":5.40909,"is_reserved":false,"is_disabled":false,"rental_uris":{"android":"levelo://app?vid=96b32c13-46ac-4d54-b10f-69d47dc8ef8f","ios":"levelo://app?vid=96b32c13-46ac-4d54-b10f-69d47dc8ef8f"},"vehicle_type_id":"4","last_reported":1750795928,"current_range_meters":17600,"station_id":"ce4bhm92rcd13ifvqglg","pricing_plan_id":"cebpf4jnsgd1na2vs0mg"},{"bike_id":"abe2ab02-8ea2-4a4f-9505-ac31c591545a","system_id":"levelo_inurba_marseille","lat":43.32065,"lon":5.41531,"is_reserved":false,"is_disabled":false,"rental_uris":{"android":"levelo://app?vid=abe2ab02-8ea2-4a4f-9505-ac31c591545a","ios":"levelo://app?vid=abe2ab02-8ea2-4a4f-9505-ac31c591545a"},"vehicle_type_id":"4","last_reported":1750795928,"current_range_meters":17600,"station_id":"ce4bhq92rcd13ifvqhkg","pricing_plan_id":"cebpf4jnsgd1na2vs0mg"},{"bike_id":"18028507-ab03-4edb-86b7-ab7704d2c26f","system_id":"levelo_inurba_marseille","lat":43.211967,"lon":5.350808,"is_reserved":false,"is_disabled":false,"rental_uris":{"android":"levelo://app?vid=18028507-ab03-4edb-86b7-ab7704d2c26f","ios":"levelo://app?vid=18028507-ab03-4edb-86b7-ab7704d2c26f"},"vehicle_type_id":"4","last_reported":1750795928,"current_range_meters":17600,"station_id":"st_cvj6sg6p6f1abm77japg","pricing_plan_id":"cebpf4jnsgd1na2vs0mg"},{"bike_id":"8fc36912-d7a7-4c5e-bf3c-ae03694d6ba3","system_id":"levelo_inurba_marseille","lat":43.21193,"lon":5.35085,"is_reserved":false,"is_disabled":false,"rental_uris":{"android":"levelo://app?vid=8fc36912-d7a7-4c5e-bf3c-ae03694d6ba3","ios":"levelo://app?vid=8fc36912-d7a7-4c5e-bf3c-ae03694d6ba3"},"vehicle_type_id":"4","last_reported":1750795928,"current_range_meters":17600,"station_id":"st_cvj6sg6p6f1abm77japg","pricing_plan_id":"cebpf4jnsgd1na2vs0mg"},{"bike_id":"e35b4986-2987-4872-b061-bb637ab134be","system_id":"levelo_inurba_marseille","lat":43.29532,"lon":5.38538,"is_reserved":false,"is_disabled":false,"rental_uris":{"android":"levelo://app?vid=e35b4986-2987-4872-b061-bb637ab134be","ios":"levelo://app?vid=e35b4986-2987-4872-b061-bb637ab134be"},"vehicle_type_id":"4","last_reported":1750795928,"current_range_meters":18000,"station_id":"ce4bgih2rcd13ifvqba0","pricing_plan_id":"cebpf4jnsgd1na2vs0mg"},{"bike_id":"fd5a75ba-2344-46bb-a8f4-57cc27af5ba3","system_id":"levelo_inurba_marseille","lat":43.28465,"lon":5.3842,"is_reserved":false,"is_disabled":false,"rental_uris":{"android":"levelo://app?vid=fd5a75ba-2344-46bb-a8f4-57cc27af5ba3","ios":"levelo://app?vid=fd5a75ba-2344-46bb-a8f4-57cc27af5ba3"},"vehicle_type_id":"4","last_reported":1750795928,"current_range_meters":18000,"station_id":"ce4bh512rcd13ifvqe3g","pricing_plan_id":"cebpf4jnsgd1na2vs0mg"},{"bike_id":"42c42be2-c4d5-491b-888d-9cd9e367e6b5","system_id":"levelo_inurba_marseille","lat":43.29255,"lon":5.38434,"is_reserved":false,"is_disabled":false,"rental_uris":{"android":"levelo://app?vid=42c42be2-c4d5-491b-888d-9cd9e367e6b5","ios":"levelo://app?vid=42c42be2-c4d5-491b-888d-9cd9e367e6b5"},"vehicle_type_id":"4","last_reported":1750795928,"current_range_meters":18000,"station_id":"ce4bh692rcd13ifvqea0","pricing_plan_id":"cebpf4jnsgd1na2vs0mg"},{"bike_id":"55120179-28de-4686-ab14-32811c502cc6","system_id":"levelo_inurba_marseille","lat":43.27362,"lon":5.36265,"is_reserved":false,"is_disabled":false,"rental_uris":{"android":"levelo://app?vid=55120179-28de-4686-ab14-32811c502cc6","ios":"levelo://app?vid=55120179-28de-4686-ab14-32811c502cc6"},"vehicle_type_id":"4","last_reported":1750795928,"current_range_meters":18000,"station_id":"ce4bhbh2rcd13ifvqeo0","pricing_plan_id":"cebpf4jnsgd1na2vs0mg"},{"bike_id":"83d64502-1fc6-4760-a2e0-8853a567ee49","system_id":"levelo_inurba_marseille","lat":43.33183,"lon":5.41039,"is_reserved":false,"is_disabled":false,"rental_uris":{"android":"levelo://app?vid=83d64502-1fc6-4760-a2e0-8853a567ee49","ios":"levelo://app?vid=83d64502-1fc6-4760-a2e0-8853a567ee49"},"vehicle_type_id":"4","last_reported":1750795928,"current_range_meters":18800,"station_id":"","pricing_plan_id":"cebpf4jnsgd1na2vs0mg"},{"bike_id":"c036be5b-7cce-41a2-8ecc-a5bd69a1b1ac","system_id":"levelo_inurba_marseille","lat":43.30885,"lon":5.39645,"is_reserved":false,"is_disabled":false,"rental_uris":{"android":"levelo://app?vid=c036be5b-7cce-41a2-8ecc-a5bd69a1b1ac","ios":"levelo://app?vid=c036be5b-7cce-41a2-8ecc-a5bd69a1b1ac"},"vehicle_type_id":"4","last_reported":1750795928,"current_range_meters":18800,"station_id":"ce4bh012rcd13ifvqcv0","pricing_plan_id":"cebpf4jnsgd1na2vs0mg"},{"bike_id":"405f21c6-0e99-40f5-9f43-25c6da7021cc","system_id":"levelo_inurba_marseille","lat":43.29256,"lon":5.38422,"is_reserved":false,"is_disabled":false,"rental_uris":{"android":"levelo://app?vid=405f21c6-0e99-40f5-9f43-25c6da7021cc","ios":"levelo://app?vid=405f21c6-0e99-40f5-9f43-25c6da7021cc"},"vehicle_type_id":"4","last_reported":1750795928,"current_range_meters":18800,"station_id":"ce4bh692rcd13ifvqea0","pricing_plan_id":"cebpf4jnsgd1na2vs0mg"},{"bike_id":"e8348b60-c157-4fe2-9618-e9acb71ca733","system_id":"levelo_inurba_marseille","lat":43.27911,"lon":5.39578,"is_reserved":false,"is_disabled":false,"rental_uris":{"android":"levelo://app?vid=e8348b60-c157-4fe2-9618-e9acb71ca733","ios":"levelo://app?vid=e8348b60-c157-4fe2-9618-e9acb71ca733"},"vehicle_type_id":"4","last_reported":1750795928,"current_range_meters":18800,"station_id":"ce4bhf92rcd13ifvqf40","pricing_plan_id":"cebpf4jnsgd1na2vs0mg"},{"bike_id":"9088cec0-7aba-4efe-8a6a-37a5b65ee9b5","system_id":"levelo_inurba_marseille","lat":43.24654,"lon":5.38156,"is_reserved":false,"is_disabled":false,"rental_uris":{"android":"levelo://app?vid=9088cec0-7aba-4efe-8a6a-37a5b65ee9b5","ios":"levelo://app?vid=9088cec0-7aba-4efe-8a6a-37a5b65ee9b5"},"vehicle_type_id":"4","last_reported":1750795928,"current_range_meters":18800,"station_id":"ce4bhih2rcd13ifvqfr0","pricing_plan_id":"cebpf4jnsgd1na2vs0mg"},{"bike_id":"44febead-ae79-4c5a-858a-2c56d4728c3b","system_id":"levelo_inurba_marseille","lat":43.311493,"lon":5.383185,"is_reserved":false,"is_disabled":false,"rental_uris":{"android":"levelo://app?vid=44febead-ae79-4c5a-858a-2c56d4728c3b","ios":"levelo://app?vid=44febead-ae79-4c5a-858a-2c56d4728c3b"},"vehicle_type_id":"4","last_reported":1750795928,"current_range_meters":19200,"station_id":"","pricing_plan_id":"cebpf4jnsgd1na2vs0mg"},{"bike_id":"9d52ae7c-3bfc-4879-b169-67c07cec03d9","system_id":"levelo_inurba_marseille","lat":43.284468,"lon":5.368089,"is_reserved":false,"is_disabled":false,"rental_uris":{"android":"levelo://app?vid=9d52ae7c-3bfc-4879-b169-67c07cec03d9","ios":"levelo://app?vid=9d52ae7c-3bfc-4879-b169-67c07cec03d9"},"vehicle_type_id":"4","last_reported":1750795928,"current_range_meters":19200,"station_id":"","pricing_plan_id":"cebpf4jnsgd1na2vs0mg"},{"bike_id":"a15fed96-cb71-4a62-a856-0b8c445ea9f0","system_id":"levelo_inurba_marseille","lat":43.29556,"lon":5.37489,"is_reserved":false,"is_disabled":false,"rental_uris":{"android":"levelo://app?vid=a15fed96-cb71-4a62-a856-0b8c445ea9f0","ios":"levelo://app?vid=a15fed96-cb71-4a62-a856-0b8c445ea9f0"},"vehicle_type_id":"4","last_reported":1750795928,"current_range_meters":19200,"station_id":"ce4bgkp2rcd13ifvqbmg","pricing_plan_id":"cebpf4jnsgd1na2vs0mg"},{"bike_id":"8229ddb1-b7f0-4493-9f3d-8ea2d815bab6","system_id":"levelo_inurba_marseille","lat":43.300845,"lon":5.390192,"is_reserved":false,"is_disabled":false,"rental_uris":{"android":"levelo://app?vid=8229ddb1-b7f0-4493-9f3d-8ea2d815bab6","ios":"levelo://app?vid=8229ddb1-b7f0-4493-9f3d-8ea2d815bab6"},"vehicle_type_id":"4","last_reported":1750795928,"current_range_meters":19200,"station_id":"ce4bh192rcd13ifvqdb0","pricing_plan_id":"cebpf4jnsgd1na2vs0mg"},{"bike_id":"94360770-dcb0-464f-a019-c5e8df9de9f8","system_id":"levelo_inurba_marseille","lat":43.29277,"lon":5.40123,"is_reserved":false,"is_disabled":false,"rental_uris":{"android":"levelo://app?vid=94360770-dcb0-464f-a019-c5e8df9de9f8","ios":"levelo://app?vid=94360770-dcb0-464f-a019-c5e8df9de9f8"},"vehicle_type_id":"4","last_reported":1750795928,"current_range_meters":19200,"station_id":"ce4bh312rcd13ifvqdk0","pricing_plan_id":"cebpf4jnsgd1na2vs0mg"},{"bike_id":"0da6cc6c-49fd-4994-b7ce-cc90d775f8bf","system_id":"levelo_inurba_marseille","lat":43.29267,"lon":5.38429,"is_reserved":false,"is_disabled":false,"rental_uris":{"android":"levelo://app?vid=0da6cc6c-49fd-4994-b7ce-cc90d775f8bf","ios":"levelo://app?vid=0da6cc6c-49fd-4994-b7ce-cc90d775f8bf"},"vehicle_type_id":"4","last_reported":1750795928,"current_range_meters":19200,"station_id":"ce4bh692rcd13ifvqea0","pricing_plan_id":"cebpf4jnsgd1na2vs0mg"},{"bike_id":"f03dd4d4-d1d4-4a9b-90f9-7afa0fa24ffa","system_id":"levelo_inurba_marseille","lat":43.29254,"lon":5.38444,"is_reserved":false,"is_disabled":false,"rental_uris":{"android":"levelo://app?vid=f03dd4d4-d1d4-4a9b-90f9-7afa0fa24ffa","ios":"levelo://app?vid=f03dd4d4-d1d4-4a9b-90f9-7afa0fa24ffa"},"vehicle_type_id":"4","last_reported":1750795928,"current_range_meters":19200,"station_id":"ce4bh692rcd13ifvqea0","pricing_plan_id":"cebpf4jnsgd1na2vs0mg"},{"bike_id":"84308bc3-8ab6-46f1-b3fe-c675f213c74b","system_id":"levelo_inurba_marseille","lat":43.28038,"lon":5.36936,"is_reserved":false,"is_disabled":false,"rental_uris":{"android":"levelo://app?vid=84308bc3-8ab6-46f1-b3fe-c675f213c74b","ios":"levelo://app?vid=84308bc3-8ab6-46f1-b3fe-c675f213c74b"},"vehicle_type_id":"4","last_reported":1750795928,"current_range_meters":19200,"station_id":"ce4bha12rcd13ifvqef0","pricing_plan_id":"cebpf4jnsgd1na2vs0mg"},{"bike_id":"b27a0914-4e17-4774-8756-93e17c2c0c5a","system_id":"levelo_inurba_marseille","lat":43.28703,"lon":5.39985,"is_reserved":false,"is_disabled":false,"rental_uris":{"android":"levelo://app?vid=b27a0914-4e17-4774-8756-93e17c2c0c5a","ios":"levelo://app?vid=b27a0914-4e17-4774-8756-93e17c2c0c5a"},"vehicle_type_id":"4","last_reported":1750795928,"current_range_meters":19200,"station_id":"ce4bho92rcd13ifvqh3g","pricing_plan_id":"cebpf4jnsgd1na2vs0mg"},{"bike_id":"c7a9637d-870f-47e6-a2ee-39d6c8f77e8c","system_id":"levelo_inurba_marseille","lat":43.322157,"lon":5.407606,"is_reserved":false,"is_disabled":false,"rental_uris":{"android":"levelo://app?vid=c7a9637d-870f-47e6-a2ee-39d6c8f77e8c","ios":"levelo://app?vid=c7a9637d-870f-47e6-a2ee-39d6c8f77e8c"},"vehicle_type_id":"4","last_reported":1750795928,"current_range_meters":19200,"station_id":"ce4bhq92rcd13ifvqhjg","pricing_plan_id":"cebpf4jnsgd1na2vs0mg"},{"bike_id":"af7e48e6-fbdf-4349-a125-3dd196c6dee3","system_id":"levelo_inurba_marseille","lat":43.29532,"lon":5.3854,"is_reserved":false,"is_disabled":false,"rental_uris":{"android":"levelo://app?vid=af7e48e6-fbdf-4349-a125-3dd196c6dee3","ios":"levelo://app?vid=af7e48e6-fbdf-4349-a125-3dd196c6dee3"},"vehicle_type_id":"4","last_reported":1750795928,"current_range_meters":19600,"station_id":"ce4bgih2rcd13ifvqba0","pricing_plan_id":"cebpf4jnsgd1na2vs0mg"},