{"last_updated":1746771319,"ttl":60,"version":"2.2","data":{"bikes":[{"bike_id":"9a6ade89-4f60-42e6-a700-86eba259379a","system_id":"levelo_inurba_marseille","lat":43.28451,"lon":5.38426,"is_reserved":false,"is_disabled":false,"rental_uris":{"android":"levelo://app?vid=9a6ade89-4f60-42e6-a700-86eba259379a","ios":"levelo://app?vid=9a6ade89-4f60-42e6-a700-86eba259379a"},"vehicle_type_id":"4","last_reported":1746771319,"current_range_meters":3200,"station_id":"ce4bh512rcd13ifvqe3g","pricing_plan_id":"cebpf4jnsgd1na2vs0mg"},{"bike_id":"14e638c3-6ba0-4ad0-8ab0-153f53fa1fbe","system_id":"levelo_inurba_marseille","lat":43.22939,"lon":5.35385,"is_reserved":false,"is_disabled":false,"rental_uris":{"android":"levelo://app?vid=14e638c3-6ba0-4ad0-8ab0-153f53fa1fbe","ios":"levelo://app?vid=14e638c3-6ba0-4ad0-8ab0-153f53fa1fbe"},"vehicle_type_id":"4","last_reported":1746771319,"current_range_meters":3600,"station_id":"cpo3532slgdg3j2ikp40","pricing_plan_id":"cebpf4jnsgd1na2vs0mg"},{"bike_id":"472e3c1a-d6e1-4dbb-b1ce-cd54ea716381","system_id":"levelo_inurba_marseille","lat":43.24591,"lon":5.40187,"is_reserved":false,"is_disabled":false,"rental_uris":{"android":"levelo://app?vid=472e3c1a-d6e1-4dbb-b1ce-cd54ea716381","ios":"levelo://app?vid=472e3c1a-d6e1-4dbb-b1ce-cd54ea716381"},"vehicle_type_id":"4","last_reported":1746771319,"current_range_meters":3600,"station_id":"","pricing_plan_id":"cebpf4jnsgd1na2vs0mg"},{"bike_id":"2c71efa8-6cc2-421a-b5c5-0d69dbea440e","system_id":"levelo_inurba_marseille","lat":43.28338,"lon":5.38102,"is_reserved":false,"is_disabled":false,"rental_uris":{"android":"levelo://app?vid=2c71efa8-6cc2-421a-b5c5-0d69dbea440e","ios":"levelo://app?vid=2c71efa8-6cc2-421a-b5c5-0d69dbea440e"},"vehicle_type_id":"4","last_reported":1746771319,"current_range_meters":3600,"station_id":"ce4bh412rcd13ifvqdr0","pricing_plan_id":"cebpf4jnsgd1na2vs0mg"},{"bike_id":"daf63d6d-e8d2-4eba-9d77-1cefd6519d05","system_id":"levelo_inurba_marseille","lat":43.28352,"lon":5.38092,"is_reserved":false,"is_disabled":false,"rental_uris":{"android":"levelo://app?vid=daf63d6d-e8d2-4eba-9d77-1cefd6519d05","ios":"levelo://app?vid=daf63d6d-e8d2-4eba-9d77-1cefd6519d05"},"vehicle_type_id":"4","last_reported":1746771319,"current_range_meters":4000,"station_id":"ce4bh412rcd13ifvqdr0","pricing_plan_id":"cebpf4jnsgd1na2vs0mg"},{"bike_id":"87566af3-ff08-4ceb-83c6-0614d0d24b87","system_id":"levelo_inurba_marseille","lat":43.28594,"lon":5.36771,"is_reserved":false,"is_disabled":true,"rental_uris":{"android":"levelo://app?vid=87566af3-ff08-4ceb-83c6-0614d0d24b87","ios":"levelo://app?vid=87566af3-ff08-4ceb-83c6-0614d0d24b87"},"vehicle_type_id":"4","last_reported":1746771319,"current_range_meters":4000,"station_id":"","pricing_plan_id":"cebpf4jnsgd1na2vs0mg"},{"bike_id":"dd310c88-d7ae-4904-ada5-cce7db337c4e","system_id":"levelo_inurba_marseille","lat":43.28357,"lon":5.38112,"is_reserved":false,"is_disabled":false,"rental_uris":{"android":"levelo://app?vid=dd310c88-d7ae-4904-ada5-cce7db337c4e","ios":"levelo://app?vid=dd310c88-d7ae-4904-ada5-cce7db337c4e"},"vehicle_type_id":"4","last_reported":1746771319,"current_range_meters":4400,"station_id":"ce4bh412rcd13ifvqdr0","pricing_plan_id":"cebpf4jnsgd1na2vs0mg"},{"bike_id":"9bc19e25-e404-4f60-873c-9fc1c17c7493","system_id":"levelo_inurba_marseille","lat":43.30797,"lon":5.38149,"is_reserved":false,"is_disabled":false,"rental_uris":{"android":"levelo://app?vid=9bc19e25-e404-4f60-873c-9fc1c17c7493","ios":"levelo://app?vid=9bc19e25-e404-4f60-873c-9fc1c17c7493"},"vehicle_type_id":"4","last_reported":1746771319,"current_range_meters":4400,"station_id":"ce4bgt12rcd13ifvqce0","pricing_plan_id":"cebpf4jnsgd1na2vs0mg"},{"bike_id":"0f6fa839-06fa-40e5-b0aa-d63d8c182216","system_id":"levelo_inurba_marseille","lat":43.28714,"lon":5.37933,"is_reserved":false,"is_disabled":false,"rental_uris":{"android":"levelo://app?vid=0f6fa839-06fa-40e5-b0aa-d63d8c182216","ios":"levelo://app?vid=0f6fa839-06fa-40e5-b0aa-d63d8c182216"},"vehicle_type_id":"4","last_reported":1746771319,"current_range_meters":4400,"station_id":"ce4bh9p2rcd13ifvqec0","pricing_plan_id":"cebpf4jnsgd1na2vs0mg"},{"bike_id":"30a57150-f7d3-44ff-a719-985e18fc9a3a","system_id":"levelo_inurba_marseille","lat":43.31111,"lon":5.37769,"is_reserved":false,"is_disabled":false,"rental_uris":{"android":"levelo://app?vid=30a57150-f7d3-44ff-a719-985e18fc9a3a","ios":"levelo://app?vid=30a57150-f7d3-44ff-a719-985e18fc9a3a"},"vehicle_type_id":"4","last_reported":1746771319,"current_range_meters":4800,"station_id":"ce4bgt92rcd13ifvqcg0","pricing_plan_id":"cebpf4jnsgd1na2vs0mg"},{"bike_id":"7db81975-0adf-4c40-87a0-13bd709a81fa","system_id":"levelo_inurba_marseille","lat":43.30459,"lon":5.37898,"is_reserved":false,"is_disabled":false,"rental_uris":{"android":"levelo://app?vid=7db81975-0adf-4c40-87a0-13bd709a81fa","ios":"levelo://app?vid=7db81975-0adf-4c40-87a0-13bd709a81fa"},"vehicle_type_id":"4","last_reported":1746771319,"current_range_meters":4800,"station_id":"ce4bgup2rcd13ifvqcn0","pricing_plan_id":"cebpf4jnsgd1na2vs0mg"},{"bike_id":"917cb131-ad6e-47d2-9c14-a703a1181d22","system_id":"levelo_inurba_marseille","lat":43.30653,"lon":5.40094,"is_reserved":false,"is_disabled":false,"rental_uris":{"android":"levelo://app?vid=917cb131-ad6e-47d2-9c14-a703a1181d22","ios":"levelo://app?vid=917cb131-ad6e-47d2-9c14-a703a1181d22"},"vehicle_type_id":"4","last_reported":1746771319,"current_range_meters":4800,"station_id":"ce4bh112rcd13ifvqda0","pricing_plan_id":"cebpf4jnsgd1na2vs0mg"},{"bike_id":"44fe0ebc-ac6f-4ca0-8427-6d28db5bee6c","system_id":"levelo_inurba_marseille","lat":43.2656,"lon":5.39021,"is_reserved":false,"is_disabled":false,"rental_uris":{"android":"levelo://app?vid=44fe0ebc-ac6f-4ca0-8427-6d28db5bee6c","ios":"levelo://app?vid=44fe0ebc-ac6f-4ca0-8427-6d28db5bee6c"},"vehicle_type_id":"4","last_reported":1746771319,"current_range_meters":4800,"station_id":"ce4bhe12rcd13ifvqf30","pricing_plan_id":"cebpf4jnsgd1na2vs0mg"},{"bike_id":"33e117f2-538f-49bf-8892-acc47b91dd92","system_id":"levelo_inurba_marseille","lat":43.32285,"lon":5.38267,"is_reserved":false,"is_disabled":false,"rental_uris":{"android":"levelo://app?vid=33e117f2-538f-49bf-8892-acc47b91dd92","ios":"levelo://app?vid=33e117f2-538f-49bf-8892-acc47b91dd92"},"vehicle_type_id":"4","last_reported":1746771319,"current_range_meters":5600,"station_id":"ce4bhr12rcd13ifvqhqg","pricing_plan_id":"cebpf4jnsgd1na2vs0mg"},{"bike_id":"341f6043-e914-44c4-896b-32102a500281","system_id":"levelo_inurba_marseille","lat":43.31496,"lon":5.37308,"is_reserved":false,"is_disabled":false,"rental_uris":{"android":"levelo://app?vid=341f6043-e914-44c4-896b-32102a500281","ios":"levelo://app?vid=341f6043-e914-44c4-896b-32102a500281"},"vehicle_type_id":"4","last_reported":1746771319,"current_range_meters":6000,"station_id":"ce4bgt12rcd13ifvqcd0","pricing_plan_id":"cebpf4jnsgd1na2vs0mg"},{"bike_id":"c91b378d-26a5-4ed8-99d4-6b3ec43dd75e","system_id":"levelo_inurba_marseille","lat":43.241,"lon":5.37709,"is_reserved":false,"is_disabled":false,"rental_uris":{"android":"levelo://app?vid=c91b378d-26a5-4ed8-99d4-6b3ec43dd75e","ios":"levelo://app?vid=c91b378d-26a5-4ed8-99d4-6b3ec43dd75e"},"vehicle_type_id":"4","last_reported":1746771319,"current_range_meters":6000,"station_id":"ce4bhnp2rcd13ifvqgvg","pricing_plan_id":"cebpf4jnsgd1na2vs0mg"},{"bike_id":"645c5e89-a6ce-4c06-bbaa-31dca4510601","system_id":"levelo_inurba_marseille","lat":43.31116,"lon":5.37777,"is_reserved":false,"is_disabled":false,"rental_uris":{"android":"levelo://app?vid=645c5e89-a6ce-4c06-bbaa-31dca4510601","ios":"levelo://app?vid=645c5e89-a6ce-4c06-bbaa-31dca4510601"},"vehicle_type_id":"4","last_reported":1746771319,"current_range_meters":6000,"station_id":"ce4bgt92rcd13ifvqcg0","pricing_plan_id":"cebpf4jnsgd1na2vs0mg"},{"bike_id":"417b734b-b6bd-43f4-acda-38af01e4e3e3","system_id":"levelo_inurba_marseille","lat":43.28376,"lon":5.38629,"is_reserved":false,"is_disabled":false,"rental_uris":{"android":"levelo://app?vid=417b734b-b6bd-43f4-acda-38af01e4e3e3","ios":"levelo://app?vid=417b734b-b6bd-43f4-acda-38af01e4e3e3"},"vehicle_type_id":"4","last_reported":1746771319,"current_range_meters":6000,"station_id":"ce4bh492rcd13ifvqdvg","pricing_plan_id":"cebpf4jnsgd1na2vs0mg"},{"bike_id":"63707718-642f-4e97-990d-b3182e27a6ae","system_id":"levelo_inurba_marseille","lat":43.27497,"lon":5.42466,"is_reserved":false,"is_disabled":false,"rental_uris":{"android":"levelo://app?vid=63707718-642f-4e97-990d-b3182e27a6ae","ios":"levelo://app?vid=63707718-642f-4e97-990d-b3182e27a6ae"},"vehicle_type_id":"4","last_reported":1746771319,"current_range_meters":6000,"station_id":"ce4bhn92rcd13ifvqgrg","pricing_plan_id":"cebpf4jnsgd1na2vs0mg"},{"bike_id":"e5430651-965d-4c3d-afbf-e277baef9d12","system_id":"levelo_inurba_marseille","lat":43.29586,"lon":5.38103,"is_reserved":false,"is_disabled":false,"rental_uris":{"android":"levelo://app?vid=e5430651-965d-4c3d-afbf-e277baef9d12","ios":"levelo://app?vid=e5430651-965d-4c3d-afbf-e277baef9d12"},"vehicle_type_id":"4","last_reported":1746771319,"current_range_meters":6000,"station_id":"ce4bgl12rcd13ifvqbo0","pricing_plan_id":"cebpf4jnsgd1na2vs0mg"},{"bike_id":"d50b3231-62ee-409a-84ed-694a06009124","system_id":"levelo_inurba_marseille","lat":43.24077,"lon":5.37761,"is_reserved":false,"is_disabled":false,"rental_uris":{"android":"levelo://app?vid=d50b3231-62ee-409a-84ed-694a06009124","ios":"levelo://app?vid=d50b3231-62ee-409a-84ed-694a06009124"},"vehicle_type_id":"4","last_reported":1746771319,"current_range_meters":6800,"station_id":"ce4bhnp2rcd13ifvqgvg","pricing_plan_id":"cebpf4jnsgd1na2vs0mg"},{"bike_id":"b6a4bdb2-31a2-432b-9697-0659b61f4f64","system_id":"levelo_inurba_marseille","lat":43.24071,"lon":5.37765,"is_reserved":false,"is_disabled":false,"rental_uris":{"android":"levelo://app?vid=b6a4bdb2-31a2-432b-9697-0659b61f4f64","ios":"levelo://app?vid=b6a4bdb2-31a2-432b-9697-0659b61f4f64"},"vehicle_type_id":"4","last_reported":1746771319,"current_range_meters":6800,"station_id":"ce4bhnp2rcd13ifvqgvg","pricing_plan_id":"cebpf4jnsgd1na2vs0mg"},{"bike_id":"1d8de8cd-13dc-4c82-8486-ad3c0692640a","system_id":"levelo_inurba_marseille","lat":43.32555,"lon":5.41514,"is_reserved":false,"is_disabled":true,"rental_uris":{"android":"levelo://app?vid=1d8de8cd-13dc-4c82-8486-ad3c0692640a","ios":"levelo://app?vid=1d8de8cd-13dc-4c82-8486-ad3c0692640a"},"vehicle_type_id":"4","last_reported":1746771319,"current_range_meters":6800,"station_id":"","pricing_plan_id":"cebpf4jnsgd1na2vs0mg"},{"bike_id":"b15fe93b-1059-4d75-abd3-040e349ce402","system_id":"levelo_inurba_marseille","lat":43.30101,"lon":5.36958,"is_reserved":false,"is_disabled":false,"rental_uris":{"android":"levelo://app?vid=b15fe93b-1059-4d75-abd3-040e349ce402","ios":"levelo://app?vid=b15fe93b-1059-4d75-abd3-040e349ce402"},"vehicle_type_id":"4","last_reported":1746771319,"current_range_meters":6800,"station_id":"","pricing_plan_id":"cebpf4jnsgd1na2vs0mg"},{"bike_id":"3380be41-5609-4f83-92ea-376897d27f4f","system_id":"levelo_inurba_marseille","lat":43.231872,"lon":5.399949,"is_reserved":false,"is_disabled":false,"rental_uris":{"android":"levelo://app?vid=3380be41-5609-4f83-92ea-376897d27f4f","ios":"levelo://app?vid=3380be41-5609-4f83-92ea-376897d27f4f"},"vehicle_type_id":"4","last_reported":1746771319,"current_range_meters":6800,"station_id":"ce4bhn12rcd13ifvqgqg","pricing_plan_id":"cebpf4jnsgd1na2vs0mg"},{"bike_id":"94548bbc-0565-40b2-9e19-d4d8f4a3e175","system_id":"levelo_inurba_marseille","lat":43.23189,"lon":5.35589,"is_reserved":false,"is_disabled":true,"rental_uris":{"android":"levelo://app?vid=94548bbc-0565-40b2-9e19-d4d8f4a3e175","ios":"levelo://app?vid=94548bbc-0565-40b2-9e19-d4d8f4a3e175"},"vehicle_type_id":"4","last_reported":1746771319,"current_range_meters":7200,"station_id":"ce4bhu92rcd13ifvqi70","pricing_plan_id":"cebpf4jnsgd1na2vs0mg"},{"bike_id":"8b698a34-fbf5-484e-9ecb-26e22393bc90","system_id":"levelo_inurba_marseille","lat":43.33045,"lon":5.39037,"is_reserved":false,"is_disabled":false,"rental_uris":{"android":"levelo://app?vid=8b698a34-fbf5-484e-9ecb-26e22393bc90","ios":"levelo://app?vid=8b698a34-fbf5-484e-9ecb-26e22393bc90"},"vehicle_type_id":"4","last_reported":1746771319,"current_range_meters":7200,"station_id":"ce4bhr92rcd13ifvqhrg","pricing_plan_id":"cebpf4jnsgd1na2vs0mg"},{"bike_id":"86cbee8c-2875-43a8-be38-4d6249c9142a","system_id":"levelo_inurba_marseille","lat":43.265612,"lon":5.390052,"is_reserved":false,"is_disabled":false,"rental_uris":{"android":"levelo://app?vid=86cbee8c-2875-43a8-be38-4d6249c9142a","ios":"levelo://app?vid=86cbee8c-2875-43a8-be38-4d6249c9142a"},"vehicle_type_id":"4","last_reported":1746771319,"current_range_meters":7200,"station_id":"ce4bhhp2rcd13ifvqfm0","pricing_plan_id":"cebpf4jnsgd1na2vs0mg"},{"bike_id":"1f281ed5-8e05-43ba-b583-cf4e73bd4cb4","system_id":"levelo_inurba_marseille","lat":43.32115,"lon":5.36788,"is_reserved":false,"is_disabled":false,"rental_uris":{"android":"levelo://app?vid=1f281ed5-8e05-43ba-b583-cf4e73bd4cb4","ios":"levelo://app?vid=1f281ed5-8e05-43ba-b583-cf4e73bd4cb4"},"vehicle_type_id":"4","last_reported":1746771319,"current_range_meters":7200,"station_id":"ce4bhrh2rcd13ifvqhug","pricing_plan_id":"cebpf4jnsgd1na2vs0mg"},{"bike_id":"916d67d8-ccd1-41b8-923b-e1ce6259ee20","system_id":"levelo_inurba_marseille","lat":43.30813,"lon":5.37435,"is_reserved":false,"is_disabled":false,"rental_uris":{"android":"levelo://app?vid=916d67d8-ccd1-41b8-923b-e1ce6259ee20","ios":"levelo://app?vid=916d67d8-ccd1-41b8-923b-e1ce6259ee20"},"vehicle_type_id":"4","last_reported":1746771319,"current_range_meters":7200,"station_id":"","pricing_plan_id":"cebpf4jnsgd1na2vs0mg"},{"bike_id":"c43ed3ca-340d-43d7-8ad5-7e6b2386ac59","system_id":"levelo_inurba_marseille","lat":43.298916,"lon":5.436671,"is_reserved":false,"is_disabled":false,"rental_uris":{"android":"levelo://app?vid=c43ed3ca-340d-43d7-8ad5-7e6b2386ac59","ios":"levelo://app?vid=c43ed3ca-340d-43d7-8ad5-7e6b2386ac59"},"vehicle_type_id":"4","last_reported":1746771319,"current_range_meters":7200,"station_id":"ce4bhpp2rcd13ifvqhfg","pricing_plan_id":"cebpf4jnsgd1na2vs0mg"},{"bike_id":"6fc06746-3c65-42ff-be7b-b3492d982359","system_id":"levelo_inurba_marseille","lat":43.27493,"lon":5.42454,"is_reserved":false,"is_disabled":false,"rental_uris":{"android":"levelo://app?vid=6fc06746-3c65-42ff-be7b-b3492d982359","ios":"levelo://app?vid=6fc06746-3c65-42ff-be7b-b3492d982359"},"vehicle_type_id":"4","last_reported":1746771319,"current_range_meters":7200,"station_id":"ce4bhn92rcd13ifvqgrg","pricing_plan_id":"cebpf4jnsgd1na2vs0mg"},{"bike_id":"00138ee9-dd3d-4b66-85a7-f8ff69dd7e90","system_id":"levelo_inurba_marseille","lat":43.28466,"lon":5.38565,"is_reserved":false,"is_disabled":true,"rental_uris":{"android":"levelo://app?vid=00138ee9-dd3d-4b66-85a7-f8ff69dd7e90","ios":"levelo://app?vid=00138ee9-dd3d-4b66-85a7-f8ff69dd7e90"},"vehicle_type_id":"4","last_reported":1746771319,"current_range_meters":7200,"station_id":"ce4bh8p2rcd13ifvqeb0","pricing_plan_id":"cebpf4jnsgd1na2vs0mg"},{"bike_id":"6d27cd6b-8227-4167-83ab-3a9b25df353a","system_id":"levelo_inurba_marseille","lat":43.309482,"lon":5.390253,"is_reserved":false,"is_disabled":false,"rental_uris":{"android":"levelo://app?vid=6d27cd6b-8227-4167-83ab-3a9b25df353a","ios":"levelo://app?vid=6d27cd6b-8227-4167-83ab-3a9b25df353a"},"vehicle_type_id":"4","last_reported":1746771319,"current_range_meters":7200,"station_id":"ce4bgup2rcd13ifvqco0","pricing_plan_id":"cebpf4jnsgd1na2vs0mg"},{"bike_id":"11f2f90e-07ea-45fc-bea7-59b140809475","system_id":"levelo_inurba_marseille","lat":43.284841,"lon":5.385848,"is_reserved":false,"is_disabled":false,"rental_uris":{"android":"levelo://app?vid=11f2f90e-07ea-45fc-bea7-59b140809475","ios":"levelo://app?vid=11f2f90e-07ea-45fc-bea7-59b140809475"},"vehicle_type_id":"4","last_reported":1746771319,"current_range_meters":7200,"station_id":"ce4bh8p2rcd13ifvqeb0","pricing_plan_id":"cebpf4jnsgd1na2vs0mg"},{"bike_id":"d1a0602d-cc96-4d4d-8203-9fc9dc600050","system_id":"levelo_inurba_marseille","lat":43.2866,"lon":5.39995,"is_reserved":false,"is_disabled":false,"rental_uris":{"android":"levelo://app?vid=d1a0602d-cc96-4d4d-8203-9fc9dc600050","ios":"levelo://app?vid=d1a0602d-cc96-4d4d-8203-9fc9dc600050"},"vehicle_type_id":"4","last_reported":1746771319,"current_range_meters":8000,"station_id":"","pricing_plan_id":"cebpf4jnsgd1na2vs0mg"},{"bike_id":"7047aaf7-5d58-4343-b8d8-a498bfaa03c7","system_id":"levelo_inurba_marseille","lat":43.27066,"lon":5.42282,"is_reserved":false,"is_disabled":false,"rental_uris":{"android":"levelo://app?vid=7047aaf7-5d58-4343-b8d8-a498bfaa03c7","ios":"levelo://app?vid=7047aaf7-5d58-4343-b8d8-a498bfaa03c7"},"vehicle_type_id":"4","last_reported":1746771319,"current_range_meters":8000,"station_id":"ce4bhk92rcd13ifvqgb0","pricing_plan_id":"cebpf4jnsgd1na2vs0mg"},{"bike_id":"35f36335-51c7-48bf-a321-437e1aea77da","system_id":"levelo_inurba_marseille","lat":43.32362,"lon":5.36755,"is_reserved":false,"is_disabled":false,"rental_uris":{"android":"levelo://app?vid=35f36335-51c7-48bf-a321-437e1aea77da","ios":"levelo://app?vid=35f36335-51c7-48bf-a321-437e1aea77da"},"vehicle_type_id":"4","last_reported":1746771319,"current_range_meters":8000,"station_id":"ce4bhsh2rcd13ifvqi2g","pricing_plan_id":"cebpf4jnsgd1na2vs0mg"},{"bike_id":"fd991be1-d3a7-48e9-af71-ab1504a07e0f","system_id":"levelo_inurba_marseille","lat":43.23188,"lon":5.3999,"is_reserved":false,"is_disabled":false,"rental_uris":{"android":"levelo://app?vid=fd991be1-d3a7-48e9-af71-ab1504a07e0f","ios":"levelo://app?vid=fd991be1-d3a7-48e9-af71-ab1504a07e0f"},"vehicle_type_id":"4","last_reported":1746771319,"current_range_meters":8000,"station_id":"ce4bhn12rcd13ifvqgqg","pricing_plan_id":"cebpf4jnsgd1na2vs0mg"},{"bike_id":"6fbfffee-b2a7-4e9e-b262-ecd5bb698acd","system_id":"levelo_inurba_marseille","lat":43.31037,"lon":5.37724,"is_reserved":false,"is_disabled":false,"rental_uris":{"android":"levelo://app?vid=6fbfffee-b2a7-4e9e-b262-ecd5bb698acd","ios":"levelo://app?vid=6fbfffee-b2a7-4e9e-b262-ecd5bb698acd"},"vehicle_type_id":"4","last_reported":1746771319,"current_range_meters":8000,"station_id":"","pricing_plan_id":"cebpf4jnsgd1na2vs0mg"},{"bike_id":"3daaa444-7f6b-4a71-955e-33ffa9cdc331","system_id":"levelo_inurba_marseille","lat":43.29794,"lon":5.38089,"is_reserved":false,"is_disabled":false,"rental_uris":{"android":"levelo://app?vid=3daaa444-7f6b-4a71-955e-33ffa9cdc331","ios":"levelo://app?vid=3daaa444-7f6b-4a71-955e-33ffa9cdc331"},"vehicle_type_id":"4","last_reported":1746771319,"current_range_meters":8000,"station_id":"ce4bgip2rcd13ifvqbb0","pricing_plan_id":"cebpf4jnsgd1na2vs0mg"},{"bike_id":"35e8d545-8f0a-4b08-81d3-1acb9b10f3ac","system_id":"levelo_inurba_marseille","lat":43.21748,"lon":5.346017,"is_reserved":false,"is_disabled":true,"rental_uris":{"android":"levelo://app?vid=35e8d545-8f0a-4b08-81d3-1acb9b10f3ac","ios":"levelo://app?vid=35e8d545-8f0a-4b08-81d3-1acb9b10f3ac"},"vehicle_type_id":"4","last_reported":1746771319,"current_range_meters":8400,"station_id":"","pricing_plan_id":"cebpf4jnsgd1na2vs0mg"},{"bike_id":"4ae7a83c-4508-4420-bdfc-fc011c19b67a","system_id":"levelo_inurba_marseille","lat":43.337622,"lon":5.374809,"is_reserved":false,"is_disabled":false,"rental_uris":{"android":"levelo://app?vid=4ae7a83c-4508-4420-bdfc-fc011c19b67a","ios":"levelo://app?vid=4ae7a83c-4508-4420-bdfc-fc011c19b67a"},"vehicle_type_id":"4","last_reported":1746771319,"current_range_meters":8400,"station_id":"","pricing_plan_id":"cebpf4jnsgd1na2vs0mg"},{"bike_id":"897f8669-0a3c-48d9-b576-75f7ac4ee3aa","system_id":"levelo_inurba_marseille","lat":43.305348,"lon":5.367213,"is_reserved":false,"is_disabled":false,"rental_uris":{"android":"levelo://app?vid=897f8669-0a3c-48d9-b576-75f7ac4ee3aa","ios":"levelo://app?vid=897f8669-0a3c-48d9-b576-75f7ac4ee3aa"},"vehicle_type_id":"4","last_reported":1746771319,"current_range_meters":8400,"station_id":"ce4bgn92rcd13ifvqbvg","pricing_plan_id":"cebpf4jnsgd1na2vs0mg"},{"bike_id":"f15322ee-a529-4d46-864c-ac4a3b18470c","system_id":"levelo_inurba_marseille","lat":43.296044,"lon":5.38099,"is_reserved":false,"is_disabled":false,"rental_uris":{"android":"levelo://app?vid=f15322ee-a529-4d46-864c-ac4a3b18470c","ios":"levelo://app?vid=f15322ee-a529-4d46-864c-ac4a3b18470c"},"vehicle_type_id":"4","last_reported":1746771319,"current_range_meters":8400,"station_id":"ce4bgl12rcd13ifvqbo0","pricing_plan_id":"cebpf4jnsgd1na2vs0mg"},{"bike_id":"6fccf782-c0bd-4c46-a14e-b6b5acb8bc55","system_id":"levelo_inurba_marseille","lat":43.25582,"lon":5.38236,"is_reserved":false,"is_disabled":false,"rental_uris":{"android":"levelo://app?vid=6fccf782-c0bd-4c46-a14e-b6b5acb8bc55","ios":"levelo://app?vid=6fccf782-c0bd-4c46-a14e-b6b5acb8bc55"},"vehicle_type_id":"4","last_reported":1746771319,"current_range_meters":8800,"station_id":"ce4bhih2rcd13ifvqfs0","pricing_plan_id":"cebpf4jnsgd1na2vs0mg"},{"bike_id":"3311c1f1-091b-4394-846c-138bab96fa5d","system_id":"levelo_inurba_marseille","lat":43.27912,"lon":5.38011,"is_reserved":false,"is_disabled":false,"rental_uris":{"android":"levelo://app?vid=3311c1f1-091b-4394-846c-138bab96fa5d","ios":"levelo://app?vid=3311c1f1-091b-4394-846c-138bab96fa5d"},"vehicle_type_id":"4","last_reported":1746771319,"current_range_meters":8800,"station_id":"ce4bhf92rcd13ifvqf50","pricing_plan_id":"cebpf4jnsgd1na2vs0mg"},{"bike_id":"5b1117b6-2b38-4a7f-bdce-77a7a8c24844","system_id":"levelo_inurba_marseille","lat":43.3092,"lon":5.36849,"is_reserved":false,"is_disabled":false,"rental_uris":{"android":"levelo://app?vid=5b1117b6-2b38-4a7f-bdce-77a7a8c24844","ios":"levelo://app?vid=5b1117b6-2b38-4a7f-bdce-77a7a8c24844"},"vehicle_type_id":"4","last_reported":1746771319,"current_range_meters":8800,"station_id":"ce4bgn92rcd13ifvqbvg","pricing_plan_id":"cebpf4jnsgd1na2vs0mg"},{"bike_id":"830dcc65-f4a2-400f-97e2-531187504587","system_id":"levelo_inurba_marseille","lat":43.28087,"lon":5.39657,"is_reserved":false,"is_disabled":false,"rental_uris":{"android":"levelo://app?vid=830dcc65-f4a2-400f-97e2-531187504587","ios":"levelo://app?vid=830dcc65-f4a2-400f-97e2-531187504587"},"vehicle_type_id":"4","last_reported":1746771319,"current_range_meters":8800,"station_id":"ce4bho12rcd13ifvqh2g","pricing_plan_id":"cebpf4jnsgd1na2vs0mg"},{"bike_id":"4b14352a-53e7-4880-8075-e4447fd87be0","system_id":"levelo_inurba_marseille","lat":43.29791,"lon":5.38107,"is_reserved":false,"is_disabled":false,"rental_uris":{"android":"levelo://app?vid=4b14352a-53e7-4880-8075-e4447fd87be0","ios":"levelo://app?vid=4b14352a-53e7-4880-8075-e4447fd87be0"},"vehicle_type_id":"4","last_reported":1746771319,"current_range_meters":8800,"station_id":"ce4bgip2rcd13ifvqbb0","pricing_plan_id":"cebpf4jnsgd1na2vs0mg"},{"bike_id":"809c8673-c032-46b9-aa07-62c38e26d44e","system_id":"levelo_inurba_marseille","lat":43.25048,"lon":5.38797,"is_reserved":false,"is_disabled":false,"rental_uris":{"android":"levelo://app?vid=809c8673-c032-46b9-aa07-62c38e26d44e","ios":"levelo://app?vid=809c8673-c032-46b9-aa07-62c38e26d44e"},"vehicle_type_id":"4","last_reported":1746771319,"current_range_meters":9200,"station_id":"","pricing_plan_id":"cebpf4jnsgd1na2vs0mg"},{"bike_id":"0c15ccb4-dd7c-4172-8764-a05afe9d1a34","system_id":"levelo_inurba_marseille","lat":43.28939,"lon":5.36628,"is_reserved":false,"is_disabled":true,"rental_uris":{"android":"levelo://app?vid=0c15ccb4-dd7c-4172-8764-a05afe9d1a34","ios":"levelo://app?vid=0c15ccb4-dd7c-4172-8764-a05afe9d1a34"},"vehicle_type_id":"4","last_reported":1746771319,"current_range_meters":9200,"station_id":"ce4bhap2rcd13ifvqek0","pricing_plan_id":"cebpf4jnsgd1na2vs0mg"},{"bike_id":"abfab5a1-f29f-49fc-9757-11916345b2ec","system_id":"levelo_inurba_marseille","lat":43.3054,"lon":5.3671,"is_reserved":false,"is_disabled":true,"rental_uris":{"android":"levelo://app?vid=abfab5a1-f29f-49fc-9757-11916345b2ec","ios":"levelo://app?vid=abfab5a1-f29f-49fc-9757-11916345b2ec"},"vehicle_type_id":"4","last_reported":1746771319,"current_range_meters":8800,"station_id":"ce4bgrp2rcd13ifvqc9g","pricing_plan_id":"cebpf4jnsgd1na2vs0mg"},{"bike_id":"6971f759-8594-489e-a8f6-9153c9a9c438","system_id":"levelo_inurba_marseille","lat":43.27688,"lon":5.41968,"is_reserved":false,"is_disabled":false,"rental_uris":{"android":"levelo://app?vid=6971f759-8594-489e-a8f6-9153c9a9c438","ios":"levelo://app?vid=6971f759-8594-489e-a8f6-9153c9a9c438"},"vehicle_type_id":"4","last_reported":1746771319,"current_range_meters":9200,"station_id":"","pricing_plan_id":"cebpf4jnsgd1na2vs0mg"},{"bike_id":"4eaa354f-1fac-4d49-a11c-60c55eefaa76","system_id":"levelo_inurba_marseille","lat":43.29016,"lon":5.38651,"is_reserved":false,"is_disabled":false,"rental_uris":{"android":"levelo://app?vid=4eaa354f-1fac-4d49-a11c-60c55eefaa76","ios":"levelo://app?vid=4eaa354f-1fac-4d49-a11c-60c55eefaa76"},"vehicle_type_id":"4","last_reported":1746771319,"current_range_meters":9200,"station_id":"ce4bh4p2rcd13ifvqe0g","pricing_plan_id":"cebpf4jnsgd1na2vs0mg"},{"bike_id":"47bb6f34-9c89-4a6c-b2ec-6a2d3e007f08","system_id":"levelo_inurba_marseille","lat":43.25703,"lon":5.41136,"is_reserved":false,"is_disabled":false,"rental_uris":{"android":"levelo://app?vid=47bb6f34-9c89-4a6c-b2ec-6a2d3e007f08","ios":"levelo://app?vid=47bb6f34-9c89-4a6c-b2ec-6a2d3e007f08"},"vehicle_type_id":"4","last_reported":1746771319,"current_range_meters":9600,"station_id":"ce4bhkp2rcd13ifvqgd0","pricing_plan_id":"cebpf4jnsgd1na2vs0mg"},{"bike_id":"caf9033d-5f00-49c3-b1ee-1328b62008dc","system_id":"levelo_inurba_marseille","lat":43.33585,"lon":5.42815,"is_reserved":false,"is_disabled":false,"rental_uris":{"android":"levelo://app?vid=caf9033d-5f00-49c3-b1ee-1328b62008dc","ios":"levelo://app?vid=caf9033d-5f00-49c3-b1ee-1328b62008dc"},"vehicle_type_id":"4","last_reported":1746771319,"current_range_meters":9600,"station_id":"","pricing_plan_id":"cebpf4jnsgd1na2vs0mg"},{"bike_id":"ef8bf495-473a-44ca-833b-0ad5cc8e9cb7","system_id":"levelo_inurba_marseille","lat":43.30487,"lon":5.37911,"is_reserved":false,"is_disabled":false,"rental_uris":{"android":"levelo://app?vid=ef8bf495-473a-44ca-833b-0ad5cc8e9cb7","ios":"levelo://app?vid=ef8bf495-473a-44ca-833b-0ad5cc8e9cb7"},"vehicle_type_id":"4","last_reported":1746771319,"current_range_meters":9200,"station_id":"ce4bgup2rcd13ifvqcn0","pricing_plan_id":"cebpf4jnsgd1na2vs0mg"},{"bike_id":"1a9fc9a9-b634-4678-af05-42c4ceaa73fa","system_id":"levelo_inurba_marseille","lat":43.30316,"lon":5.40436,"is_reserved":false,"is_disabled":true,"rental_uris":{"android":"levelo://app?vid=1a9fc9a9-b634-4678-af05-42c4ceaa73fa","ios":"levelo://app?vid=1a9fc9a9-b634-4678-af05-42c4ceaa73fa"},"vehicle_type_id":"4","last_reported":1746771319,"current_range_meters":9600,"station_id":"ce4bh012rcd13ifvqd10","pricing_plan_id":"cebpf4jnsgd1na2vs0mg"},{"bike_id":"d80ae184-6591-4f29-bf3c-787220c6389a","system_id":"levelo_inurba_marseille","lat":43.29283,"lon":5.40123,"is_reserved":false,"is_disabled":false,"rental_uris":{"android":"levelo://app?vid=d80ae184-6591-4f29-bf3c-787220c6389a","ios":"levelo://app?vid=d80ae184-6591-4f29-bf3c-787220c6389a"},"vehicle_type_id":"4","last_reported":1746771319,"current_range_meters":10000,"station_id":"ce4bh312rcd13ifvqdk0","pricing_plan_id":"cebpf4jnsgd1na2vs0mg"},{"bike_id":"5aaa5d52-7e74-432e-ad89-4c70047ce897","system_id":"levelo_inurba_marseille","lat":43.23177,"lon":5.399988,"is_reserved":false,"is_disabled":false,"rental_uris":{"android":"levelo://app?vid=5aaa5d52-7e74-432e-ad89-4c70047ce897","ios":"levelo://app?vid=5aaa5d52-7e74-432e-ad89-4c70047ce897"},"vehicle_type_id":"4","last_reported":1746771319,"current_range_meters":10000,"station_id":"ce4bhn12rcd13ifvqgqg","pricing_plan_id":"cebpf4jnsgd1na2vs0mg"},{"bike_id":"294e5e93-618a-4492-9bac-02c9b5b12a80","system_id":"levelo_inurba_marseille","lat":43.32109,"lon":5.36771,"is_reserved":false,"is_disabled":false,"rental_uris":{"android":"levelo://app?vid=294e5e93-618a-4492-9bac-02c9b5b12a80","ios":"levelo://app?vid=294e5e93-618a-4492-9bac-02c9b5b12a80"},"vehicle_type_id":"4","last_reported":1746771319,"current_range_meters":10000,"station_id":"ce4bhrh2rcd13ifvqhug","pricing_plan_id":"cebpf4jnsgd1na2vs0mg"},{"bike_id":"812e31b7-42f9-4d63-b220-e99af5c192ed","system_id":"levelo_inurba_marseille","lat":43.31171,"lon":5.41607,"is_reserved":false,"is_disabled":false,"rental_uris":{"android":"levelo://app?vid=812e31b7-42f9-4d63-b220-e99af5c192ed","ios":"levelo://app?vid=812e31b7-42f9-4d63-b220-e99af5c192ed"},"vehicle_type_id":"4","last_reported":1746771319,"current_range_meters":10000,"station_id":"","pricing_plan_id":"cebpf4jnsgd1na2vs0mg"},{"bike_id":"ff47c92b-db73-42bd-99d4-eeb774bdf3be","system_id":"levelo_inurba_marseille","lat":43.31046,"lon":5.38374,"is_reserved":false,"is_disabled":false,"rental_uris":{"android":"levelo://app?vid=ff47c92b-db73-42bd-99d4-eeb774bdf3be","ios":"levelo://app?vid=ff47c92b-db73-42bd-99d4-eeb774bdf3be"},"vehicle_type_id":"4","last_reported":1746771319,"current_range_meters":10000,"station_id":"ce4bgv92rcd13ifvqcr0","pricing_plan_id":"cebpf4jnsgd1na2vs0mg"},{"bike_id":"a2309e80-b2ba-42c9-9c60-147f0babf9f9","system_id":"levelo_inurba_marseille","lat":43.30866,"lon":5.37048,"is_reserved":false,"is_disabled":false,"rental_uris":{"android":"levelo://app?vid=a2309e80-b2ba-42c9-9c60-147f0babf9f9","ios":"levelo://app?vid=a2309e80-b2ba-42c9-9c60-147f0babf9f9"},"vehicle_type_id":"4","last_reported":1746771319,"current_range_meters":10800,"station_id":"","pricing_plan_id":"cebpf4jnsgd1na2vs0mg"},{"bike_id":"93126291-f22a-443c-8cc3-8510e6bc4581","system_id":"levelo_inurba_marseille","lat":43.25078,"lon":5.39518,"is_reserved":false,"is_disabled":true,"rental_uris":{"android":"levelo://app?vid=93126291-f22a-443c-8cc3-8510e6bc4581","ios":"levelo://app?vid=93126291-f22a-443c-8cc3-8510e6bc4581"},"vehicle_type_id":"4","last_reported":1746771319,"current_range_meters":10800,"station_id":"ce4bhm12rcd13ifvqgkg","pricing_plan_id":"cebpf4jnsgd1na2vs0mg"},{"bike_id":"caccb556-2ad0-45b8-84b8-819024dd44e6","system_id":"levelo_inurba_marseille","lat":43.298,"lon":5.3677,"is_reserved":false,"is_disabled":false,"rental_uris":{"android":"levelo://app?vid=caccb556-2ad0-45b8-84b8-819024dd44e6","ios":"levelo://app?vid=caccb556-2ad0-45b8-84b8-819024dd44e6"},"vehicle_type_id":"4","last_reported":1746771319,"current_range_meters":10800,"station_id":"","pricing_plan_id":"cebpf4jnsgd1na2vs0mg"},{"bike_id":"6fe4edd0-5f22-45d0-9b9f-de7ebc144107","system_id":"levelo_inurba_marseille","lat":43.28029,"lon":5.36958,"is_reserved":false,"is_disabled":true,"rental_uris":{"android":"levelo://app?vid=6fe4edd0-5f22-45d0-9b9f-de7ebc144107","ios":"levelo://app?vid=6fe4edd0-5f22-45d0-9b9f-de7ebc144107"},"vehicle_type_id":"4","last_reported":1746771319,"current_range_meters":10800,"station_id":"ce4bha12rcd13ifvqef0","pricing_plan_id":"cebpf4jnsgd1na2vs0mg"},{"bike_id":"c1b64d1c-a552-4a64-a0ac-027bcbe7552f","system_id":"levelo_inurba_marseille","lat":43.29187,"lon":5.39324,"is_reserved":false,"is_disabled":false,"rental_uris":{"android":"levelo://app?vid=c1b64d1c-a552-4a64-a0ac-027bcbe7552f","ios":"levelo://app?vid=c1b64d1c-a552-4a64-a0ac-027bcbe7552f"},"vehicle_type_id":"4","last_reported":1746771319,"current_range_meters":10800,"station_id":"ce4bh192rcd13ifvqdd0","pricing_plan_id":"cebpf4jnsgd1na2vs0mg"},{"bike_id":"6ab17557-bc8e-42bb-9b96-8fb089eb2a68","system_id":"levelo_inurba_marseille","lat":43.29093,"lon":5.38114,"is_reserved":false,"is_disabled":false,"rental_uris":{"android":"levelo://app?vid=6ab17557-bc8e-42bb-9b96-8fb089eb2a68","ios":"levelo://app?vid=6ab17557-bc8e-42bb-9b96-8fb089eb2a68"},"vehicle_type_id":"4","last_reported":1746771319,"current_range_meters":11200,"station_id":"ce4bh512rcd13ifvqe2g","pricing_plan_id":"cebpf4jnsgd1na2vs0mg"},{"bike_id":"e52bfd82-0d4c-4ec9-a63b-aa566ebda16e","system_id":"levelo_inurba_marseille","lat":43.31797,"lon":5.36827,"is_reserved":false,"is_disabled":false,"rental_uris":{"android":"levelo://app?vid=e52bfd82-0d4c-4ec9-a63b-aa566ebda16e","ios":"levelo://app?vid=e52bfd82-0d4c-4ec9-a63b-aa566ebda16e"},"vehicle_type_id":"4","last_reported":1746771319,"current_range_meters":11200,"station_id":"","pricing_plan_id":"cebpf4jnsgd1na2vs0mg"},{"bike_id":"b8b89f3d-06c4-4097-9dc9-c4ece5e928e6","system_id":"levelo_inurba_marseille","lat":43.31879,"lon":5.4074,"is_reserved":false,"is_disabled":false,"rental_uris":{"android":"levelo://app?vid=b8b89f3d-06c4-4097-9dc9-c4ece5e928e6","ios":"levelo://app?vid=b8b89f3d-06c4-4097-9dc9-c4ece5e928e6"},"vehicle_type_id":"4","last_reported":1746771319,"current_range_meters":11200,"station_id":"ce4bhq12rcd13ifvqhig","pricing_plan_id":"cebpf4jnsgd1na2vs0mg"},{"bike_id":"81e82e29-73fd-4ccc-84f7-33ae8a5a0fc5","system_id":"levelo_inurba_marseille","lat":43.29043,"lon":5.39971,"is_reserved":false,"is_disabled":false,"rental_uris":{"android":"levelo://app?vid=81e82e29-73fd-4ccc-84f7-33ae8a5a0fc5","ios":"levelo://app?vid=81e82e29-73fd-4ccc-84f7-33ae8a5a0fc5"},"vehicle_type_id":"4","last_reported":1746771319,"current_range_meters":11200,"station_id":"ce4bh392rcd13ifvqdm0","pricing_plan_id":"cebpf4jnsgd1na2vs0mg"},{"bike_id":"c7dd7461-4cde-4ff9-9c28-b73124f07bf4","system_id":"levelo_inurba_marseille","lat":43.25583,"lon":5.38233,"is_reserved":false,"is_disabled":false,"rental_uris":{"android":"levelo://app?vid=c7dd7461-4cde-4ff9-9c28-b73124f07bf4","ios":"levelo://app?vid=c7dd7461-4cde-4ff9-9c28-b73124f07bf4"},"vehicle_type_id":"4","last_reported":1746771319,"current_range_meters":11200,"station_id":"ce4bhih2rcd13ifvqfs0","pricing_plan_id":"cebpf4jnsgd1na2vs0mg"},{"bike_id":"102dcd7c-3f1d-4f36-82bb-4cb134e318bc","system_id":"levelo_inurba_marseille","lat":43.265821,"lon":5.390293,"is_reserved":false,"is_disabled":false,"rental_uris":{"android":"levelo://app?vid=102dcd7c-3f1d-4f36-82bb-4cb134e318bc","ios":"levelo://app?vid=102dcd7c-3f1d-4f36-82bb-4cb134e318bc"},"vehicle_type_id":"4","last_reported":1746771319,"current_range_meters":11200,"station_id":"ce4bhe12rcd13ifvqf30","pricing_plan_id":"cebpf4jnsgd1na2vs0mg"},{"bike_id":"cf91c94b-333a-46c5-905c-455e2fd196cf","system_id":"levelo_inurba_marseille","lat":43.24178,"lon":5.39737,"is_reserved":false,"is_disabled":false,"rental_uris":{"android":"levelo://app?vid=cf91c94b-333a-46c5-905c-455e2fd196cf","ios":"levelo://app?vid=cf91c94b-333a-46c5-905c-455e2fd196cf"},"vehicle_type_id":"4","last_reported":1746771319,"current_range_meters":11200,"station_id":"ce4bhn12rcd13ifvqgpg","pricing_plan_id":"cebpf4jnsgd1na2vs0mg"},{"bike_id":"ded8612e-711d-40ca-9ab1-869f52835937","system_id":"levelo_inurba_marseille","lat":43.32902,"lon":5.38045,"is_reserved":false,"is_disabled":false,"rental_uris":{"android":"levelo://app?vid=ded8612e-711d-40ca-9ab1-869f52835937","ios":"levelo://app?vid=ded8612e-711d-40ca-9ab1-869f52835937"},"vehicle_type_id":"4","last_reported":1746771319,"current_range_meters":11600,"station_id":"","pricing_plan_id":"cebpf4jnsgd1na2vs0mg"},{"bike_id":"0b8a58cc-84ce-4893-ace4-6001974b3519","system_id":"levelo_inurba_marseille","lat":43.30429,"lon":5.38915,"is_reserved":false,"is_disabled":true,"rental_uris":{"android":"levelo://app?vid=0b8a58cc-84ce-4893-ace4-6001974b3519","ios":"levelo://app?vid=0b8a58cc-84ce-4893-ace4-6001974b3519"},"vehicle_type_id":"4","last_reported":1746771319,"current_range_meters":11600,"station_id":"ce4bgk12rcd13ifvqbi0","pricing_plan_id":"cebpf4jnsgd1na2vs0mg"},{"bike_id":"95ce2447-8542-43fe-ab80-6b72ce59cb67","system_id":"levelo_inurba_marseille","lat":43.23153,"lon":5.43719,"is_reserved":false,"is_disabled":false,"rental_uris":{"android":"levelo://app?vid=95ce2447-8542-43fe-ab80-6b72ce59cb67","ios":"levelo://app?vid=95ce2447-8542-43fe-ab80-6b72ce59cb67"},"vehicle_type_id":"4","last_reported":1746771319,"current_range_meters":11600,"station_id":"ce4bhmp2rcd13ifvqgog","pricing_plan_id":"cebpf4jnsgd1na2vs0mg"},{"bike_id":"cacec4d0-2192-4d88-9d0c-fda2092e1840","system_id":"levelo_inurba_marseille","lat":43.28411,"lon":5.37525,"is_reserved":false,"is_disabled":false,"rental_uris":{"android":"levelo://app?vid=cacec4d0-2192-4d88-9d0c-fda2092e1840","ios":"levelo://app?vid=cacec4d0-2192-4d88-9d0c-fda2092e1840"},"vehicle_type_id":"4","last_reported":1746771319,"current_range_meters":11600,"station_id":"ce4bh412rcd13ifvqds0","pricing_plan_id":"cebpf4jnsgd1na2vs0mg"},{"bike_id":"049dee66-f320-4a39-90d5-cac240a0fc35","system_id":"levelo_inurba_marseille","lat":43.27073,"lon":5.42268,"is_reserved":false,"is_disabled":false,"rental_uris":{"android":"levelo://app?vid=049dee66-f320-4a39-90d5-cac240a0fc35","ios":"levelo://app?vid=049dee66-f320-4a39-90d5-cac240a0fc35"},"vehicle_type_id":"4","last_reported":1746771319,"current_range_meters":11600,"station_id":"ce4bhk92rcd13ifvqgb0","pricing_plan_id":"cebpf4jnsgd1na2vs0mg"},{"bike_id":"dacfd183-daf3-4b91-8e7d-dcfdcf21f9b3","system_id":"levelo_inurba_marseille","lat":43.30804,"lon":5.38145,"is_reserved":false,"is_disabled":false,"rental_uris":{"android":"levelo://app?vid=dacfd183-daf3-4b91-8e7d-dcfdcf21f9b3","ios":"levelo://app?vid=dacfd183-daf3-4b91-8e7d-dcfdcf21f9b3"},"vehicle_type_id":"4","last_reported":1746771319,"current_range_meters":11600,"station_id":"ce4bgt12rcd13ifvqce0","pricing_plan_id":"cebpf4jnsgd1na2vs0mg"},{"bike_id":"a112ba3c-1092-4a11-8ac5-534702e58335","system_id":"levelo_inurba_marseille","lat":43.31509,"lon":5.37322,"is_reserved":false,"is_disabled":false,"rental_uris":{"android":"levelo://app?vid=a112ba3c-1092-4a11-8ac5-534702e58335","ios":"levelo://app?vid=a112ba3c-1092-4a11-8ac5-534702e58335"},"vehicle_type_id":"4","last_reported":1746771319,"current_range_meters":11600,"station_id":"ce4bgt12rcd13ifvqcd0","pricing_plan_id":"cebpf4jnsgd1na2vs0mg"},{"bike_id":"c42d0137-01db-4e02-8a6e-f9af61ad1319","system_id":"levelo_inurba_marseille","lat":43.31456,"lon":5.373033,"is_reserved":false,"is_disabled":false,"rental_uris":{"android":"levelo://app?vid=c42d0137-01db-4e02-8a6e-f9af61ad1319","ios":"levelo://app?vid=c42d0137-01db-4e02-8a6e-f9af61ad1319"},"vehicle_type_id":"4","last_reported":1746771319,"current_range_meters":11600,"station_id":"ce4bgt12rcd13ifvqcd0","pricing_plan_id":"cebpf4jnsgd1na2vs0mg"},{"bike_id":"14f68caa-6d4f-4584-abdf-1143d9baf33f","system_id":"levelo_inurba_marseille","lat":43.275087,"lon":5.42465,"is_reserved":false,"is_disabled":false,"rental_uris":{"android":"levelo://app?vid=14f68caa-6d4f-4584-abdf-1143d9baf33f","ios":"levelo://app?vid=14f68caa-6d4f-4584-abdf-1143d9baf33f"},"vehicle_type_id":"4","last_reported":1746771319,"current_range_meters":12000,"station_id":"ce4bhn92rcd13ifvqgrg","pricing_plan_id":"cebpf4jnsgd1na2vs0mg"},{"bike_id":"cf0d66b8-59c2-49cf-9cce-98307478e10a","system_id":"levelo_inurba_marseille","lat":43.27966,"lon":5.38751,"is_reserved":false,"is_disabled":false,"rental_uris":{"android":"levelo://app?vid=cf0d66b8-59c2-49cf-9cce-98307478e10a","ios":"levelo://app?vid=cf0d66b8-59c2-49cf-9cce-98307478e10a"},"vehicle_type_id":"4","last_reported":1746771319,"current_range_meters":12000,"station_id":"ce4bhg12rcd13ifvqf80","pricing_plan_id":"cebpf4jnsgd1na2vs0mg"},{"bike_id":"044478cb-8194-4092-b984-4fc9c042ef68","system_id":"levelo_inurba_marseille","lat":43.2871,"lon":5.46574,"is_reserved":false,"is_disabled":false,"rental_uris":{"android":"levelo://app?vid=044478cb-8194-4092-b984-4fc9c042ef68","ios":"levelo://app?vid=044478cb-8194-4092-b984-4fc9c042ef68"},"vehicle_type_id":"4","last_reported":1746771319,"current_range_meters":12000,"station_id":"","pricing_plan_id":"cebpf4jnsgd1na2vs0mg"},{"bike_id":"9962b8cb-c94d-4a94-804b-a946a3138815","system_id":"levelo_inurba_marseille","lat":43.31304,"lon":5.37325,"is_reserved":false,"is_disabled":false,"rental_uris":{"android":"levelo://app?vid=9962b8cb-c94d-4a94-804b-a946a3138815","ios":"levelo://app?vid=9962b8cb-c94d-4a94-804b-a946a3138815"},"vehicle_type_id":"4","last_reported":1746771319,"current_range_meters":12000,"station_id":"","pricing_plan_id":"cebpf4jnsgd1na2vs0mg"},{"bike_id":"057fc800-9f9b-44e6-8681-ad898305eaf8","system_id":"levelo_inurba_marseille","lat":43.31999,"lon":5.3817,"is_reserved":false,"is_disabled":true,"rental_uris":{"android":"levelo://app?vid=057fc800-9f9b-44e6-8681-ad898305eaf8","ios":"levelo://app?vid=057fc800-9f9b-44e6-8681-ad898305eaf8"},"vehicle_type_id":"4","last_reported":1746771319,"current_range_meters":12000,"station_id":"ce4bhr12rcd13ifvqhpg","pricing_plan_id":"cebpf4jnsgd1na2vs0mg"},{"bike_id":"b0c54ead-2c9a-4d45-904a-5e1b9abf7338","system_id":"levelo_inurba_marseille","lat":43.27857,"lon":5.44088,"is_reserved":false,"is_disabled":false,"rental_uris":{"android":"levelo://app?vid=b0c54ead-2c9a-4d45-904a-5e1b9abf7338","ios":"levelo://app?vid=b0c54ead-2c9a-4d45-904a-5e1b9abf7338"},"vehicle_type_id":"4","last_reported":1746771319,"current_range_meters":12000,"station_id":"","pricing_plan_id":"cebpf4jnsgd1na2vs0mg"},{"bike_id":"cfb5f8ab-2814-4f4d-9d75-d10095b1f175","system_id":"levelo_inurba_marseille","lat":43.25933,"lon":5.40912,"is_reserved":false,"is_disabled":false,"rental_uris":{"android":"levelo://app?vid=cfb5f8ab-2814-4f4d-9d75-d10095b1f175","ios":"levelo://app?vid=cfb5f8ab-2814-4f4d-9d75-d10095b1f175"},"vehicle_type_id":"4","last_reported":1746771319,"current_range_meters":12400,"station_id":"ce4bhm92rcd13ifvqglg","pricing_plan_id":"cebpf4jnsgd1na2vs0mg"},{"bike_id":"9f5c2541-d2d5-4e18-9467-072453be38a2","system_id":"levelo_inurba_marseille","lat":43.23164,"lon":5.43724,"is_reserved":false,"is_disabled":false,"rental_uris":{"android":"levelo://app?vid=9f5c2541-d2d5-4e18-9467-072453be38a2","ios":"levelo://app?vid=9f5c2541-d2d5-4e18-9467-072453be38a2"},"vehicle_type_id":"4","last_reported":1746771319,"current_range_meters":12800,"station_id":"ce4bhmp2rcd13ifvqgog","pricing_plan_id":"cebpf4jnsgd1na2vs0mg"},{"bike_id":"3bcffddb-f495-4fde-ab59-c90c69f11bcc","system_id":"levelo_inurba_marseille","lat":43.26971,"lon":5.40282,"is_reserved":false,"is_disabled":true,"rental_uris":{"android":"levelo://app?vid=3bcffddb-f495-4fde-ab59-c90c69f11bcc","ios":"levelo://app?vid=3bcffddb-f495-4fde-ab59-c90c69f11bcc"},"vehicle_type_id":"4","last_reported":1746771319,"current_range_meters":12800,"station_id":"cjm6bp8fraef2m0cb0m0","pricing_plan_id":"cebpf4jnsgd1na2vs0mg"},{"bike_id":"40227de1-6c4c-4b18-a9d9-4b06dd6eb10a","system_id":"levelo_inurba_marseille","lat":43.28377,"lon":5.38643,"is_reserved":false,"is_disabled":false,"rental_uris":{"android":"levelo://app?vid=40227de1-6c4c-4b18-a9d9-4b06dd6eb10a","ios":"levelo://app?vid=40227de1-6c4c-4b18-a9d9-4b06dd6eb10a"},"vehicle_type_id":"4","last_reported":1746771319,"current_range_meters":12800,"station_id":"ce4bh492rcd13ifvqdvg","pricing_plan_id":"cebpf4jnsgd1na2vs0mg"},{"bike_id":"cc2b3a34-dcee-4140-98b5-6858e6510f6c","system_id":"levelo_inurba_marseille","lat":43.314822,"lon":5.372998,"is_reserved":false,"is_disabled":false,"rental_uris":{"android":"levelo://app?vid=cc2b3a34-dcee-4140-98b5-6858e6510f6c","ios":"levelo://app?vid=cc2b3a34-dcee-4140-98b5-6858e6510f6c"},"vehicle_type_id":"4","last_reported":1746771319,"current_range_meters":12800,"station_id":"ce4bgt12rcd13ifvqcd0","pricing_plan_id":"cebpf4jnsgd1na2vs0mg"},{"bike_id":"f673a50d-776a-4d4f-8bc2-0f75017ffb52","system_id":"levelo_inurba_marseille","lat":43.284499,"lon":5.358347,"is_reserved":false,"is_disabled":false,"rental_uris":{"android":"levelo://app?vid=f673a50d-776a-4d4f-8bc2-0f75017ffb52","ios":"levelo://app?vid=f673a50d-776a-4d4f-8bc2-0f75017ffb52"},"vehicle_type_id":"4","last_reported":1746771319,"current_range_meters":13600,"station_id":"","pricing_plan_id":"cebpf4jnsgd1na2vs0mg"},{"bike_id":"28cfacc9-1cdf-43eb-a95d-f45acb313b30","system_id":"levelo_inurba_marseille","lat":43.30456,"lon":5.37913,"is_reserved":false,"is_disabled":false,"rental_uris":{"android":"levelo://app?vid=28cfacc9-1cdf-43eb-a95d-f45acb313b30","ios":"levelo://app?vid=28cfacc9-1cdf-43eb-a95d-f45acb313b30"},"vehicle_type_id":"4","last_reported":1746771319,"current_range_meters":12800,"station_id":"ce4bgup2rcd13ifvqcn0","pricing_plan_id":"cebpf4jnsgd1na2vs0mg"},{"bike_id":"bf43ecf2-8fa8-40db-9f78-00302703cc3d","system_id":"levelo_inurba_marseille","lat":43.30471,"lon":5.37905,"is_reserved":false,"is_disabled":false,"rental_uris":{"android":"levelo://app?vid=bf43ecf2-8fa8-40db-9f78-00302703cc3d","ios":"levelo://app?vid=bf43ecf2-8fa8-40db-9f78-00302703cc3d"},"vehicle_type_id":"4","last_reported":1746771319,"current_range_meters":12800,"station_id":"ce4bgup2rcd13ifvqcn0","pricing_plan_id":"cebpf4jnsgd1na2vs0mg"},{"bike_id":"230ea7c8-1167-47e8-8df1-9058a67debcf","system_id":"levelo_inurba_marseille","lat":43.31351,"lon":5.36705,"is_reserved":false,"is_disabled":false,"rental_uris":{"android":"levelo://app?vid=230ea7c8-1167-47e8-8df1-9058a67debcf","ios":"levelo://app?vid=230ea7c8-1167-47e8-8df1-9058a67debcf"},"vehicle_type_id":"4","last_reported":1746771319,"current_range_meters":13600,"station_id":"ce4bgr92rcd13ifvqc6g","pricing_plan_id":"cebpf4jnsgd1na2vs0mg"},{"bike_id":"402cca02-6776-48c6-a579-6956606560b7","system_id":"levelo_inurba_marseille","lat":43.31701,"lon":5.37727,"is_reserved":false,"is_disabled":false,"rental_uris":{"android":"levelo://app?vid=402cca02-6776-48c6-a579-6956606560b7","ios":"levelo://app?vid=402cca02-6776-48c6-a579-6956606560b7"},"vehicle_type_id":"4","last_reported":1746771319,"current_range_meters":12800,"station_id":"ce4bgth2rcd13ifvqch0","pricing_plan_id":"cebpf4jnsgd1na2vs0mg"},{"bike_id":"8003133d-4f16-480b-a00f-f8b759ba4ae8","system_id":"levelo_inurba_marseille","lat":43.27571,"lon":5.3844,"is_reserved":false,"is_disabled":false,"rental_uris":{"android":"levelo://app?vid=8003133d-4f16-480b-a00f-f8b759ba4ae8","ios":"levelo://app?vid=8003133d-4f16-480b-a00f-f8b759ba4ae8"},"vehicle_type_id":"4","last_reported":1746771319,"current_range_meters":14000,"station_id":"ce4bhh92rcd13ifvqfi0","pricing_plan_id":"cebpf4jnsgd1na2vs0mg"},{"bike_id":"2e719a53-5bb7-4e06-8c27-2cf0eae6c9f7","system_id":"levelo_inurba_marseille","lat":43.29278,"lon":5.40155,"is_reserved":false,"is_disabled":true,"rental_uris":{"android":"levelo://app?vid=2e719a53-5bb7-4e06-8c27-2cf0eae6c9f7","ios":"levelo://app?vid=2e719a53-5bb7-4e06-8c27-2cf0eae6c9f7"},"vehicle_type_id":"4","last_reported":1746771319,"current_range_meters":14000,"station_id":"ce4bh312rcd13ifvqdk0","pricing_plan_id":"cebpf4jnsgd1na2vs0mg"},{"bike_id":"3032996a-f32c-4e36-8739-39873a15af8d","system_id":"levelo_inurba_marseille","lat":43.2868,"lon":5.40002,"is_reserved":false,"is_disabled":false,"rental_uris":{"android":"levelo://app?vid=3032996a-f32c-4e36-8739-39873a15af8d","ios":"levelo://app?vid=3032996a-f32c-4e36-8739-39873a15af8d"},"vehicle_type_id":"4","last_reported":1746771319,"current_range_meters":14000,"station_id":"ce4bho92rcd13ifvqh3g","pricing_plan_id":"cebpf4jnsgd1na2vs0mg"},{"bike_id":"f0e0ae6b-18c7-4fdd-b166-fc7e9a679cab","system_id":"levelo_inurba_marseille","lat":43.29035,"lon":5.3996,"is_reserved":false,"is_disabled":false,"rental_uris":{"android":"levelo://app?vid=f0e0ae6b-18c7-4fdd-b166-fc7e9a679cab","ios":"levelo://app?vid=f0e0ae6b-18c7-4fdd-b166-fc7e9a679cab"},"vehicle_type_id":"4","last_reported":1746771319,"current_range_meters":14000,"station_id":"ce4bh392rcd13ifvqdm0","pricing_plan_id":"cebpf4jnsgd1na2vs0mg"},{"bike_id":"131808ae-87d9-4310-81ed-8860baa9f295","system_id":"levelo_inurba_marseille","lat":43.26782,"lon":5.3941,"is_reserved":false,"is_disabled":false,"rental_uris":{"android":"levelo://app?vid=131808ae-87d9-4310-81ed-8860baa9f295","ios":"levelo://app?vid=131808ae-87d9-4310-81ed-8860baa9f295"},"vehicle_type_id":"4","last_reported":1746771319,"current_range_meters":14400,"station_id":"ce4bhh12rcd13ifvqfg0","pricing_plan_id":"cebpf4jnsgd1na2vs0mg"},{"bike_id":"94b1c6a7-a958-417d-853f-1e7583bcb7f5","system_id":"levelo_inurba_marseille","lat":43.32348,"lon":5.36755,"is_reserved":false,"is_disabled":false,"rental_uris":{"android":"levelo://app?vid=94b1c6a7-a958-417d-853f-1e7583bcb7f5","ios":"levelo://app?vid=94b1c6a7-a958-417d-853f-1e7583bcb7f5"},"vehicle_type_id":"4","last_reported":1746771319,"current_range_meters":14400,"station_id":"ce4bhsh2rcd13ifvqi2g","pricing_plan_id":"cebpf4jnsgd1na2vs0mg"},{"bike_id":"77177599-3355-4653-a49c-4fb952f4c4c1","system_id":"levelo_inurba_marseille","lat":43.273285,"lon":5.361809,"is_reserved":false,"is_disabled":true,"rental_uris":{"android":"levelo://app?vid=77177599-3355-4653-a49c-4fb952f4c4c1","ios":"levelo://app?vid=77177599-3355-4653-a49c-4fb952f4c4c1"},"vehicle_type_id":"4","last_reported":1746771319,"current_range_meters":14800,"station_id":"","pricing_plan_id":"cebpf4jnsgd1na2vs0mg"},{"bike_id":"6294889e-8d73-4042-8891-9c49e4c4a089","system_id":"levelo_inurba_marseille","lat":43.30466,"lon":5.37909,"is_reserved":false,"is_disabled":false,"rental_uris":{"android":"levelo://app?vid=6294889e-8d73-4042-8891-9c49e4c4a089","ios":"levelo://app?vid=6294889e-8d73-4042-8891-9c49e4c4a089"},"vehicle_type_id":"4","last_reported":1746771319,"current_range_meters":14800,"station_id":"ce4bgup2rcd13ifvqcn0","pricing_plan_id":"cebpf4jnsgd1na2vs0mg"},{"bike_id":"b5807c8e-7636-47d9-88f5-d7ef60eca3eb","system_id":"levelo_inurba_marseille","lat":43.21752,"lon":5.34605,"is_reserved":false,"is_disabled":true,"rental_uris":{"android":"levelo://app?vid=b5807c8e-7636-47d9-88f5-d7ef60eca3eb","ios":"levelo://app?vid=b5807c8e-7636-47d9-88f5-d7ef60eca3eb"},"vehicle_type_id":"4","last_reported":1746771319,"current_range_meters":14800,"station_id":"st_cvj6r9ubvosntc0bgbag","pricing_plan_id":"cebpf4jnsgd1na2vs0mg"},{"bike_id":"5a4bf01e-5d8b-44f7-99b0-41b8f402fd41","system_id":"levelo_inurba_marseille","lat":43.23187,"lon":5.400296,"is_reserved":false,"is_disabled":false,"rental_uris":{"android":"levelo://app?vid=5a4bf01e-5d8b-44f7-99b0-41b8f402fd41","ios":"levelo://app?vid=5a4bf01e-5d8b-44f7-99b0-41b8f402fd41"},"vehicle_type_id":"4","last_reported":1746771319,"current_range_meters":14400,"station_id":"ce4bhn12rcd13ifvqgqg","pricing_plan_id":"cebpf4jnsgd1na2vs0mg"},{"bike_id":"cdb08d94-433c-4ce4-b7fe-354732cb3e58","system_id":"levelo_inurba_marseille","lat":43.28696,"lon":5.3997,"is_reserved":false,"is_disabled":false,"rental_uris":{"android":"levelo://app?vid=cdb08d94-433c-4ce4-b7fe-354732cb3e58","ios":"levelo://app?vid=cdb08d94-433c-4ce4-b7fe-354732cb3e58"},"vehicle_type_id":"4","last_reported":1746771319,"current_range_meters":14800,"station_id":"ce4bho92rcd13ifvqh3g","pricing_plan_id":"cebpf4jnsgd1na2vs0mg"},{"bike_id":"59c9eee2-2711-40e5-ad57-f78d6a66b9e3","system_id":"levelo_inurba_marseille","lat":43.2595,"lon":5.40914,"is_reserved":false,"is_disabled":true,"rental_uris":{"android":"levelo://app?vid=59c9eee2-2711-40e5-ad57-f78d6a66b9e3","ios":"levelo://app?vid=59c9eee2-2711-40e5-ad57-f78d6a66b9e3"},"vehicle_type_id":"4","last_reported":1746771319,"current_range_meters":15200,"station_id":"ce4bhm92rcd13ifvqglg","pricing_plan_id":"cebpf4jnsgd1na2vs0mg"},{"bike_id":"d2c90b17-20ca-498c-8aee-47e91c305c55","system_id":"levelo_inurba_marseille","lat":43.23155,"lon":5.43706,"is_reserved":false,"is_disabled":false,"rental_uris":{"android":"levelo://app?vid=d2c90b17-20ca-498c-8aee-47e91c305c55","ios":"levelo://app?vid=d2c90b17-20ca-498c-8aee-47e91c305c55"},"vehicle_type_id":"4","last_reported":1746771319,"current_range_meters":15200,"station_id":"ce4bhmp2rcd13ifvqgog","pricing_plan_id":"cebpf4jnsgd1na2vs0mg"},{"bike_id":"1f226b66-b0a5-43c2-b2c5-0563e6e9e107","system_id":"levelo_inurba_marseille","lat":43.27481,"lon":5.4247,"is_reserved":false,"is_disabled":false,"rental_uris":{"android":"levelo://app?vid=1f226b66-b0a5-43c2-b2c5-0563e6e9e107","ios":"levelo://app?vid=1f226b66-b0a5-43c2-b2c5-0563e6e9e107"},"vehicle_type_id":"4","last_reported":1746771319,"current_range_meters":15200,"station_id":"ce4bhn92rcd13ifvqgrg","pricing_plan_id":"cebpf4jnsgd1na2vs0mg"},{"bike_id":"0c4cd874-6764-419b-8d5d-acb3bbe70dc0","system_id":"levelo_inurba_marseille","lat":43.2869,"lon":5.399959,"is_reserved":false,"is_disabled":false,"rental_uris":{"android":"levelo://app?vid=0c4cd874-6764-419b-8d5d-acb3bbe70dc0","ios":"levelo://app?vid=0c4cd874-6764-419b-8d5d-acb3bbe70dc0"},"vehicle_type_id":"4","last_reported":1746771319,"current_range_meters":15200,"station_id":"ce4bho92rcd13ifvqh3g","pricing_plan_id":"cebpf4jnsgd1na2vs0mg"},{"bike_id":"e6282093-23fb-41a9-859d-c0d9ad966535","system_id":"levelo_inurba_marseille","lat":43.31545,"lon":5.3823,"is_reserved":false,"is_disabled":false,"rental_uris":{"android":"levelo://app?vid=e6282093-23fb-41a9-859d-c0d9ad966535","ios":"levelo://app?vid=e6282093-23fb-41a9-859d-c0d9ad966535"},"vehicle_type_id":"4","last_reported":1746771319,"current_range_meters":15200,"station_id":"","pricing_plan_id":"cebpf4jnsgd1na2vs0mg"},{"bike_id":"4fa47000-be56-44cc-b0f2-d5896c9d72be","system_id":"levelo_inurba_marseille","lat":43.31691,"lon":5.40477,"is_reserved":false,"is_disabled":false,"rental_uris":{"android":"levelo://app?vid=4fa47000-be56-44cc-b0f2-d5896c9d72be","ios":"levelo://app?vid=4fa47000-be56-44cc-b0f2-d5896c9d72be"},"vehicle_type_id":"4","last_reported":1746771319,"current_range_meters":15200,"station_id":"ce4bh012rcd13ifvqd00","pricing_plan_id":"cebpf4jnsgd1na2vs0mg"},{"bike_id":"4fc2916e-fd8a-4057-add3-fd7205558b49","system_id":"levelo_inurba_marseille","lat":43.314622,"lon":5.390869,"is_reserved":false,"is_disabled":false,"rental_uris":{"android":"levelo://app?vid=4fc2916e-fd8a-4057-add3-fd7205558b49","ios":"levelo://app?vid=4fc2916e-fd8a-4057-add3-fd7205558b49"},"vehicle_type_id":"4","last_reported":1746771319,"current_range_meters":15200,"station_id":"","pricing_plan_id":"cebpf4jnsgd1na2vs0mg"},{"bike_id":"db01a8a4-fc6c-47b0-b62e-79d7358b734a","system_id":"levelo_inurba_marseille","lat":43.2829,"lon":5.43256,"is_reserved":false,"is_disabled":false,"rental_uris":{"android":"levelo://app?vid=db01a8a4-fc6c-47b0-b62e-79d7358b734a","ios":"levelo://app?vid=db01a8a4-fc6c-47b0-b62e-79d7358b734a"},"vehicle_type_id":"4","last_reported":1746771319,"current_range_meters":15200,"station_id":"","pricing_plan_id":"cebpf4jnsgd1na2vs0mg"},{"bike_id":"cbbe0265-23b2-48fc-94d9-172a989cda5b","system_id":"levelo_inurba_marseille","lat":43.274633,"lon":5.423017,"is_reserved":false,"is_disabled":false,"rental_uris":{"android":"levelo://app?vid=cbbe0265-23b2-48fc-94d9-172a989cda5b","ios":"levelo://app?vid=cbbe0265-23b2-48fc-94d9-172a989cda5b"},"vehicle_type_id":"4","last_reported":1746771319,"current_range_meters":15200,"station_id":"","pricing_plan_id":"cebpf4jnsgd1na2vs0mg"},{"bike_id":"5f977801-0540-4760-94af-914b99fd9a5d","system_id":"levelo_inurba_marseille","lat":43.30554,"lon":5.38441,"is_reserved":false,"is_disabled":false,"rental_uris":{"android":"levelo://app?vid=5f977801-0540-4760-94af-914b99fd9a5d","ios":"levelo://app?vid=5f977801-0540-4760-94af-914b99fd9a5d"},"vehicle_type_id":"4","last_reported":1746771319,"current_range_meters":16000,"station_id":"ce4bgg92rcd13ifvqb30","pricing_plan_id":"cebpf4jnsgd1na2vs0mg"},{"bike_id":"44355d28-d86b-44dd-a795-f92231357464","system_id":"levelo_inurba_marseille","lat":43.25941,"lon":5.40906,"is_reserved":false,"is_disabled":false,"rental_uris":{"android":"levelo://app?vid=44355d28-d86b-44dd-a795-f92231357464","ios":"levelo://app?vid=44355d28-d86b-44dd-a795-f92231357464"},"vehicle_type_id":"4","last_reported":1746771319,"current_range_meters":16000,"station_id":"ce4bhm92rcd13ifvqglg","pricing_plan_id":"cebpf4jnsgd1na2vs0mg"},{"bike_id":"1eae8875-97d6-4285-b520-c6c5b7bd55e5","system_id":"levelo_inurba_marseille","lat":43.29697,"lon":5.36609,"is_reserved":false,"is_disabled":true,"rental_uris":{"android":"levelo://app?vid=1eae8875-97d6-4285-b520-c6c5b7bd55e5","ios":"levelo://app?vid=1eae8875-97d6-4285-b520-c6c5b7bd55e5"},"vehicle_type_id":"4","last_reported":1746771319,"current_range_meters":16000,"station_id":"ce4bgn12rcd13ifvqbt0","pricing_plan_id":"cebpf4jnsgd1na2vs0mg"},{"bike_id":"0d658139-c144-4049-a576-27ff08a41fb1","system_id":"levelo_inurba_marseille","lat":43.32588,"lon":5.36414,"is_reserved":false,"is_disabled":false,"rental_uris":{"android":"levelo://app?vid=0d658139-c144-4049-a576-27ff08a41fb1","ios":"levelo://app?vid=0d658139-c144-4049-a576-27ff08a41fb1"},"vehicle_type_id":"4","last_reported":1746771319,"current_range_meters":16000,"station_id":"","pricing_plan_id":"cebpf4jnsgd1na2vs0mg"},{"bike_id":"d1f95632-6d5e-406f-a729-dddd76eef8cc","system_id":"levelo_inurba_marseille","lat":43.2749,"lon":5.42464,"is_reserved":false,"is_disabled":false,"rental_uris":{"android":"levelo://app?vid=d1f95632-6d5e-406f-a729-dddd76eef8cc","ios":"levelo://app?vid=d1f95632-6d5e-406f-a729-dddd76eef8cc"},"vehicle_type_id":"4","last_reported":1746771319,"current_range_meters":16000,"station_id":"ce4bhn92rcd13ifvqgrg","pricing_plan_id":"cebpf4jnsgd1na2vs0mg"},{"bike_id":"1496a41e-3b69-46ed-bd2c-93c9bc7bd271","system_id":"levelo_inurba_marseille","lat":43.24066,"lon":5.37746,"is_reserved":false,"is_disabled":false,"rental_uris":{"android":"levelo://app?vid=1496a41e-3b69-46ed-bd2c-93c9bc7bd271","ios":"levelo://app?vid=1496a41e-3b69-46ed-bd2c-93c9bc7bd271"},"vehicle_type_id":"4","last_reported":1746771319,"current_range_meters":16000,"station_id":"ce4bhnp2rcd13ifvqgvg","pricing_plan_id":"cebpf4jnsgd1na2vs0mg"},{"bike_id":"d4e825d6-11df-4dfe-b9f6-1d81c835a98c","system_id":"levelo_inurba_marseille","lat":43.28719,"lon":5.37957,"is_reserved":false,"is_disabled":false,"rental_uris":{"android":"levelo://app?vid=d4e825d6-11df-4dfe-b9f6-1d81c835a98c","ios":"levelo://app?vid=d4e825d6-11df-4dfe-b9f6-1d81c835a98c"},"vehicle_type_id":"4","last_reported":1746771319,"current_range_meters":16000,"station_id":"ce4bh9p2rcd13ifvqec0","pricing_plan_id":"cebpf4jnsgd1na2vs0mg"},{"bike_id":"88ab416e-5825-4b4c-ba3f-bbfa172c11a2","system_id":"levelo_inurba_marseille","lat":43.309557,"lon":5.390355,"is_reserved":false,"is_disabled":false,"rental_uris":{"android":"levelo://app?vid=88ab416e-5825-4b4c-ba3f-bbfa172c11a2","ios":"levelo://app?vid=88ab416e-5825-4b4c-ba3f-bbfa172c11a2"},"vehicle_type_id":"4","last_reported":1746771319,"current_range_meters":16400,"station_id":"ce4bgup2rcd13ifvqco0","pricing_plan_id":"cebpf4jnsgd1na2vs0mg"},{"bike_id":"ee53df7a-76e6-456f-988f-9e69970af25e","system_id":"levelo_inurba_marseille","lat":43.2835,"lon":5.38096,"is_reserved":false,"is_disabled":false,"rental_uris":{"android":"levelo://app?vid=ee53df7a-76e6-456f-988f-9e69970af25e","ios":"levelo://app?vid=ee53df7a-76e6-456f-988f-9e69970af25e"},"vehicle_type_id":"4","last_reported":1746771319,"current_range_meters":16400,"station_id":"ce4bh412rcd13ifvqdr0","pricing_plan_id":"cebpf4jnsgd1na2vs0mg"},{"bike_id":"eddc5826-cde2-4992-9127-8adddc5f6e68","system_id":"levelo_inurba_marseille","lat":43.3046,"lon":5.37912,"is_reserved":false,"is_disabled":false,"rental_uris":{"android":"levelo://app?vid=eddc5826-cde2-4992-9127-8adddc5f6e68","ios":"levelo://app?vid=eddc5826-cde2-4992-9127-8adddc5f6e68"},"vehicle_type_id":"4","last_reported":1746771319,"current_range_meters":16400,"station_id":"ce4bgup2rcd13ifvqcn0","pricing_plan_id":"cebpf4jnsgd1na2vs0mg"},{"bike_id":"0ddbc89d-17e4-426d-8539-f3af2b22f6e9","system_id":"levelo_inurba_marseille","lat":43.27499,"lon":5.42457,"is_reserved":false,"is_disabled":false,"rental_uris":{"android":"levelo://app?vid=0ddbc89d-17e4-426d-8539-f3af2b22f6e9","ios":"levelo://app?vid=0ddbc89d-17e4-426d-8539-f3af2b22f6e9"},"vehicle_type_id":"4","last_reported":1746771319,"current_range_meters":16800,"station_id":"ce4bhn92rcd13ifvqgrg","pricing_plan_id":"cebpf4jnsgd1na2vs0mg"},{"bike_id":"0cb542d0-661d-4a86-904d-249f6866850a","system_id":"levelo_inurba_marseille","lat":43.25716,"lon":5.41116,"is_reserved":false,"is_disabled":false,"rental_uris":{"android":"levelo://app?vid=0cb542d0-661d-4a86-904d-249f6866850a","ios":"levelo://app?vid=0cb542d0-661d-4a86-904d-249f6866850a"},"vehicle_type_id":"4","last_reported":1746771319,"current_range_meters":16800,"station_id":"ce4bhkp2rcd13ifvqgd0","pricing_plan_id":"cebpf4jnsgd1na2vs0mg"},{"bike_id":"32f6a443-9300-4a98-8d94-da328169d2f9","system_id":"levelo_inurba_marseille","lat":43.24074,"lon":5.37764,"is_reserved":false,"is_disabled":false,"rental_uris":{"android":"levelo://app?vid=32f6a443-9300-4a98-8d94-da328169d2f9","ios":"levelo://app?vid=32f6a443-9300-4a98-8d94-da328169d2f9"},"vehicle_type_id":"4","last_reported":1746771319,"current_range_meters":16800,"station_id":"ce4bhnp2rcd13ifvqgvg","pricing_plan_id":"cebpf4jnsgd1na2vs0mg"},{"bike_id":"f67736aa-fe78-43b4-88f3-cb130731b90b","system_id":"levelo_inurba_marseille","lat":43.33608,"lon":5.41006,"is_reserved":false,"is_disabled":false,"rental_uris":{"android":"levelo://app?vid=f67736aa-fe78-43b4-88f3-cb130731b90b","ios":"levelo://app?vid=f67736aa-fe78-43b4-88f3-cb130731b90b"},"vehicle_type_id":"4","last_reported":1746771319,"current_range_meters":16800,"station_id":"ce4bhqh2rcd13ifvqhmg","pricing_plan_id":"cebpf4jnsgd1na2vs0mg"},{"bike_id":"ab109ff5-4a25-4ab2-bb3a-551db0b57cb1","system_id":"levelo_inurba_marseille","lat":43.30421,"lon":5.38901,"is_reserved":false,"is_disabled":false,"rental_uris":{"android":"levelo://app?vid=ab109ff5-4a25-4ab2-bb3a-551db0b57cb1","ios":"levelo://app?vid=ab109ff5-4a25-4ab2-bb3a-551db0b57cb1"},"vehicle_type_id":"4","last_reported":1746771319,"current_range_meters":16800,"station_id":"ce4bgk12rcd13ifvqbi0","pricing_plan_id":"cebpf4jnsgd1na2vs0mg"},{"bike_id":"1bc71fc2-e553-4d46-a216-fcdcaea618f0","system_id":"levelo_inurba_marseille","lat":43.34145,"lon":5.4091,"is_reserved":false,"is_disabled":true,"rental_uris":{"android":"levelo://app?vid=1bc71fc2-e553-4d46-a216-fcdcaea618f0","ios":"levelo://app?vid=1bc71fc2-e553-4d46-a216-fcdcaea618f0"},"vehicle_type_id":"4","last_reported":1746771319,"current_range_meters":17200,"station_id":"ce4bhqh2rcd13ifvqhlg","pricing_plan_id":"cebpf4jnsgd1na2vs0mg"},{"bike_id":"0d7db551-b064-4c6d-a08e-11e38caeab54","system_id":"levelo_inurba_marseille","lat":43.3122,"lon":5.36863,"is_reserved":false,"is_disabled":false,"rental_uris":{"android":"levelo://app?vid=0d7db551-b064-4c6d-a08e-11e38caeab54","ios":"levelo://app?vid=0d7db551-b064-4c6d-a08e-11e38caeab54"},"vehicle_type_id":"4","last_reported":1746771319,"current_range_meters":17200,"station_id":"ce4bgl92rcd13ifvqbq0","pricing_plan_id":"cebpf4jnsgd1na2vs0mg"},{"bike_id":"c1041c9f-2085-470a-b13c-f88fd8323115","system_id":"levelo_inurba_marseille","lat":43.277428,"lon":5.387237,"is_reserved":false,"is_disabled":false,"rental_uris":{"android":"levelo://app?vid=c1041c9f-2085-470a-b13c-f88fd8323115","ios":"levelo://app?vid=c1041c9f-2085-470a-b13c-f88fd8323115"},"vehicle_type_id":"4","last_reported":1746771319,"current_range_meters":17600,"station_id":"","pricing_plan_id":"cebpf4jnsgd1na2vs0mg"},{"bike_id":"0bdcdff3-8294-49b9-80e9-145bbc1ad711","system_id":"levelo_inurba_marseille","lat":43.32248,"lon":5.36766,"is_reserved":false,"is_disabled":false,"rental_uris":{"android":"levelo://app?vid=0bdcdff3-8294-49b9-80e9-145bbc1ad711","ios":"levelo://app?vid=0bdcdff3-8294-49b9-80e9-145bbc1ad711"},"vehicle_type_id":"4","last_reported":1746771319,"current_range_meters":17600,"station_id":"","pricing_plan_id":"cebpf4jnsgd1na2vs0mg"},{"bike_id":"c10faa6f-1b04-4eed-a4a7-870b3add300e","system_id":"levelo_inurba_marseille","lat":43.24084,"lon":5.37776,"is_reserved":false,"is_disabled":false,"rental_uris":{"android":"levelo://app?vid=c10faa6f-1b04-4eed-a4a7-870b3add300e","ios":"levelo://app?vid=c10faa6f-1b04-4eed-a4a7-870b3add300e"},"vehicle_type_id":"4","last_reported":1746771319,"current_range_meters":17600,"station_id":"ce4bhnp2rcd13ifvqgvg","pricing_plan_id":"cebpf4jnsgd1na2vs0mg"},{"bike_id":"2a781898-733f-4cb8-9ad2-8dda03244433","system_id":"levelo_inurba_marseille","lat":43.30456,"lon":5.37908,"is_reserved":false,"is_disabled":false,"rental_uris":{"android":"levelo://app?vid=2a781898-733f-4cb8-9ad2-8dda03244433","ios":"levelo://app?vid=2a781898-733f-4cb8-9ad2-8dda03244433"},"vehicle_type_id":"4","last_reported":1746771319,"current_range_meters":17600,"station_id":"ce4bgup2rcd13ifvqcn0","pricing_plan_id":"cebpf4jnsgd1na2vs0mg"},{"bike_id":"577b6fa1-01aa-4b90-beb1-386dce7ef354","system_id":"levelo_inurba_marseille","lat":43.25918,"lon":5.40885,"is_reserved":false,"is_disabled":false,"rental_uris":{"android":"levelo://app?vid=577b6fa1-01aa-4b90-beb1-386dce7ef354","ios":"levelo://app?vid=577b6fa1-01aa-4b90-beb1-386dce7ef354"},"vehicle_type_id":"4","last_reported":1746771319,"current_range_meters":17600,"station_id":"ce4bhm92rcd13ifvqglg","pricing_plan_id":"cebpf4jnsgd1na2vs0mg"},{"bike_id":"3ddec5e8-9d48-4f1d-866c-2cb5c584adb4","system_id":"levelo_inurba_marseille","lat":43.28364,"lon":5.38624,"is_reserved":false,"is_disabled":false,"rental_uris":{"android":"levelo://app?vid=3ddec5e8-9d48-4f1d-866c-2cb5c584adb4","ios":"levelo://app?vid=3ddec5e8-9d48-4f1d-866c-2cb5c584adb4"},"vehicle_type_id":"4","last_reported":1746771319,"current_range_meters":17600,"station_id":"ce4bh492rcd13ifvqdvg","pricing_plan_id":"cebpf4jnsgd1na2vs0mg"},{"bike_id":"2f9f9bf5-b34e-46a2-9148-0b2e9056a0c5","system_id":"levelo_inurba_marseille","lat":43.26321,"lon":5.37852,"is_reserved":false,"is_disabled":true,"rental_uris":{"android":"levelo://app?vid=2f9f9bf5-b34e-46a2-9148-0b2e9056a0c5","ios":"levelo://app?vid=2f9f9bf5-b34e-46a2-9148-0b2e9056a0c5"},"vehicle_type_id":"4","last_reported":1746771319,"current_range_meters":18000,"station_id":"","pricing_plan_id":"cebpf4jnsgd1na2vs0mg"},{"bike_id":"adacd8df-3b25-46d2-856a-7b2a61aa2933","system_id":"levelo_inurba_marseille","lat":43.26787,"lon":5.39417,"is_reserved":false,"is_disabled":false,"rental_uris":{"android":"levelo://app?vid=adacd8df-3b25-46d2-856a-7b2a61aa2933","ios":"levelo://app?vid=adacd8df-3b25-46d2-856a-7b2a61aa2933"},"vehicle_type_id":"4","last_reported":1746771319,"current_range_meters":18000,"station_id":"ce4bhh12rcd13ifvqfg0","pricing_plan_id":"cebpf4jnsgd1na2vs0mg"},{"bike_id":"acbb9223-8b87-4bc3-9bc3-829335cce74f","system_id":"levelo_inurba_marseille","lat":43.26957,"lon":5.38637,"is_reserved":false,"is_disabled":false,"rental_uris":{"android":"levelo://app?vid=acbb9223-8b87-4bc3-9bc3-829335cce74f","ios":"levelo://app?vid=acbb9223-8b87-4bc3-9bc3-829335cce74f"},"vehicle_type_id":"4","last_reported":1746771319,"current_range_meters":18800,"station_id":"ce4bhh92rcd13ifvqfh0","pricing_plan_id":"cebpf4jnsgd1na2vs0mg"},{"bike_id":"71208cf3-8dbb-49c9-87db-440900c652fc","system_id":"levelo_inurba_marseille","lat":43.232284,"lon":5.436736,"is_reserved":false,"is_disabled":false,"rental_uris":{"android":"levelo://app?vid=71208cf3-8dbb-49c9-87db-440900c652fc","ios":"levelo://app?vid=71208cf3-8dbb-49c9-87db-440900c652fc"},"vehicle_type_id":"4","last_reported":1746771319,"current_range_meters":18000,"station_id":"ce4bhmp2rcd13ifvqgog","pricing_plan_id":"cebpf4jnsgd1na2vs0mg"},{"bike_id":"ed9faf3b-17f0-406c-9ef6-ba9124729479","system_id":"levelo_inurba_marseille","lat":43.314802,"lon":5.372981,"is_reserved":false,"is_disabled":false,"rental_uris":{"android":"levelo://app?vid=ed9faf3b-17f0-406c-9ef6-ba9124729479","ios":"levelo://app?vid=ed9faf3b-17f0-406c-9ef6-ba9124729479"},"vehicle_type_id":"4","last_reported":1746771319,"current_range_meters":18800,"station_id":"ce4bgt12rcd13ifvqcd0","pricing_plan_id":"cebpf4jnsgd1na2vs0mg"},{"bike_id":"1c0f3a6f-0fe7-464d-a2bd-71ca91dce7c4","system_id":"levelo_inurba_marseille","lat":43.29029,"lon":5.3864,"is_reserved":false,"is_disabled":false,"rental_uris":{"android":"levelo://app?vid=1c0f3a6f-0fe7-464d-a2bd-71ca91dce7c4","ios":"levelo://app?vid=1c0f3a6f-0fe7-464d-a2bd-71ca91dce7c4"},"vehicle_type_id":"4","last_reported":1746771319,"current_range_meters":18800,"station_id":"ce4bh4p2rcd13ifvqe0g","pricing_plan_id":"cebpf4jnsgd1na2vs0mg"},{"bike_id":"af07f2ba-567d-41f6-80a1-9b5cec286faf","system_id":"levelo_inurba_marseille","lat":43.22928,"lon":5.3537,"is_reserved":false,"is_disabled":false,"rental_uris":{"android":"levelo://app?vid=af07f2ba-567d-41f6-80a1-9b5cec286faf","ios":"levelo://app?vid=af07f2ba-567d-41f6-80a1-9b5cec286faf"},"vehicle_type_id":"4","last_reported":1746771319,"current_range_meters":18800,"station_id":"cpo3532slgdg3j2ikp40","pricing_plan_id":"cebpf4jnsgd1na2vs0mg"},{"bike_id":"5ee48014-6b7e-42ac-8555-9310c89dd9ae","system_id":"levelo_inurba_marseille","lat":43.26596,"lon":5.39042,"is_reserved":false,"is_disabled":false,"rental_uris":{"android":"levelo://app?vid=5ee48014-6b7e-42ac-8555-9310c89dd9ae","ios":"levelo://app?vid=5ee48014-6b7e-42ac-8555-9310c89dd9ae"},"vehicle_type_id":"4","last_reported":1746771319,"current_range_meters":19200,"station_id":"ce4bhe12rcd13ifvqf30","pricing_plan_id":"cebpf4jnsgd1na2vs0mg"},{"bike_id":"9bd54771-ee3a-481a-b299-7b0ea8d8f66c","system_id":"levelo_inurba_marseille","lat":43.32066,"lon":5.41531,"is_reserved":false,"is_disabled":false,"rental_uris":{"android":"levelo://app?vid=9bd54771-ee3a-481a-b299-7b0ea8d8f66c","ios":"levelo://app?vid=9bd54771-ee3a-481a-b299-7b0ea8d8f66c"},"vehicle_type_id":"4","last_reported":1746771319,"current_range_meters":19200,"station_id":"ce4bhq92rcd13ifvqhkg","pricing_plan_id":"cebpf4jnsgd1na2vs0mg"},{"bike_id":"ad3d4413-ccdc-4524-b5df-0fb044e03fb2","system_id":"levelo_inurba_marseille","lat":43.29805,"lon":5.38105,"is_reserved":false,"is_disabled":false,"rental_uris":{"android":"levelo://app?vid=ad3d4413-ccdc-4524-b5df-0fb044e03fb2","ios":"levelo://app?vid=ad3d4413-ccdc-4524-b5df-0fb044e03fb2"},"vehicle_type_id":"4","last_reported":1746771319,"current_range_meters":19200,"station_id":"ce4bgip2rcd13ifvqbb0","pricing_plan_id":"cebpf4jnsgd1na2vs0mg"},{"bike_id":"ffb97e98-b63f-4c42-9b50-5f510ebcee9b","system_id":"levelo_inurba_marseille","lat":43.27498,"lon":5.42461,"is_reserved":false,"is_disabled":false,"rental_uris":{"android":"levelo://app?vid=ffb97e98-b63f-4c42-9b50-5f510ebcee9b","ios":"levelo://app?vid=ffb97e98-b63f-4c42-9b50-5f510ebcee9b"},"vehicle_type_id":"4","last_reported":1746771319,"current_range_meters":19200,"station_id":"ce4bhn92rcd13ifvqgrg","pricing_plan_id":"cebpf4jnsgd1na2vs0mg"},{"bike_id":"3e998cdf-83c1-4e75-8456-786ecd931a8f","system_id":"levelo_inurba_marseille","lat":43.28434,"lon":5.39193,"is_reserved":false,"is_disabled":false,"rental_uris":{"android":"levelo://app?vid=3e998cdf-83c1-4e75-8456-786ecd931a8f","ios":"levelo://app?vid=3e998cdf-83c1-4e75-8456-786ecd931a8f"},"vehicle_type_id":"4","last_reported":1746771319,"current_range_meters":19200,"station_id":"ce4bhoh2rcd13ifvqh5g","pricing_plan_id":"cebpf4jnsgd1na2vs0mg"},{"bike_id":"2216c489-9ce2-4c98-86b0-50e6f232bd46","system_id":"levelo_inurba_marseille","lat":43.26588,"lon":5.3899,"is_reserved":false,"is_disabled":false,"rental_uris":{"android":"levelo://app?vid=2216c489-9ce2-4c98-86b0-50e6f232bd46","ios":"levelo://app?vid=2216c489-9ce2-4c98-86b0-50e6f232bd46"},"vehicle_type_id":"4","last_reported":1746771319,"current_range_meters":19200,"station_id":"ce4bhe12rcd13ifvqf30","pricing_plan_id":"cebpf4jnsgd1na2vs0mg"},{"bike_id":"a4c6a415-a8d3-413a-ba85-7cdbf624eae6","system_id":"levelo_inurba_marseille","lat":43.29192,"lon":5.39333,"is_reserved":false,"is_disabled":true,"rental_uris":{"android":"levelo://app?vid=a4c6a415-a8d3-413a-ba85-7cdbf624eae6","ios":"levelo://app?vid=a4c6a415-a8d3-413a-ba85-7cdbf624eae6"},"vehicle_type_id":"4","last_reported":1746771319,"current_range_meters":19600,"station_id":"ce4bh192rcd13ifvqdd0","pricing_plan_id":"cebpf4jnsgd1na2vs0mg"},{"bike_id":"14627cc4-f356-4135-9618-f7b7e9a0230f","system_id":"levelo_inurba_marseille","lat":43.275,"lon":5.42459,"is_reserved":false,"is_disabled":true,"rental_uris":{"android":"levelo://app?vid=14627cc4-f356-4135-9618-f7b7e9a0230f","ios":"levelo://app?vid=14627cc4-f356-4135-9618-f7b7e9a0230f"},"vehicle_type_id":"4","last_reported":1746771319,"current_range_meters":19600,"station_id":"ce4bhn92rcd13ifvqgrg","pricing_plan_id":"cebpf4jnsgd1na2vs0mg"},{"bike_id":"3e7c6aae-b2bc-4dc1-ae18-e8b01d55045f","system_id":"levelo_inurba_marseille","lat":43.2465,"lon":5.43637,"is_reserved":false,"is_disabled":false,"rental_uris":{"android":"levelo://app?vid=3e7c6aae-b2bc-4dc1-ae18-e8b01d55045f","ios":"levelo://app?vid=3e7c6aae-b2bc-4dc1-ae18-e8b01d55045f"},"vehicle_type_id":"4","last_reported":1746771319,"current_range_meters":19600,"station_id":"","pricing_plan_id":"cebpf4jnsgd1na2vs0mg"},{"bike_id":"881c097a-b180-44f5-9d6b-1f54f714978b","system_id":"levelo_inurba_marseille","lat":43.270714,"lon":5.42283,"is_reserved":false,"is_disabled":false,"rental_uris":{"android":"levelo://app?vid=881c097a-b180-44f5-9d6b-1f54f714978b","ios":"levelo://app?vid=881c097a-b180-44f5-9d6b-1f54f714978b"},"vehicle_type_id":"4","last_reported":1746771319,"current_range_meters":19600,"station_id":"ce4bhk92rcd13ifvqgb0","pricing_plan_id":"cebpf4jnsgd1na2vs0mg"},{"bike_id":"4b55cb69-087f-4ac8-aec8-33ebaad80586","system_id":"levelo_inurba_marseille","lat":43.325402,"lon":5.414502,"is_reserved":false,"is_disabled":false,"rental_uris":{"android":"levelo://app?vid=4b55cb69-087f-4ac8-aec8-33ebaad80586","ios":"levelo://app?vid=4b55cb69-087f-4ac8-aec8-33ebaad80586"},"vehicle_type_id":"4","last_reported":1746771319,"current_range_meters":19600,"station_id":"ce4bhq12rcd13ifvqhhg","pricing_plan_id":"cebpf4jnsgd1na2vs0mg"},{"bike_id":"2b695556-5fdc-4725-a789-9b7b81b7a3a6","system_id":"levelo_inurba_marseille","lat":43.32357,"lon":5.36742,"is_reserved":false,"is_disabled":false,"rental_uris":{"android":"levelo://app?vid=2b695556-5fdc-4725-a789-9b7b81b7a3a6","ios":"levelo://app?vid=2b695556-5fdc-4725-a789-9b7b81b7a3a6"},"vehicle_type_id":"4","last_reported":1746771319,"current_range_meters":20000,"station_id":"ce4bhsh2rcd13ifvqi2g","pricing_plan_id":"cebpf4jnsgd1na2vs0mg"},{"bike_id":"f450e35b-8df9-497f-bac7-f50553cca1a1","system_id":"levelo_inurba_marseille","lat":43.21753,"lon":5.34602,"is_reserved":false,"is_disabled":false,"rental_uris":{"android":"levelo://app?vid=f450e35b-8df9-497f-bac7-f50553cca1a1","ios":"levelo://app?vid=f450e35b-8df9-497f-bac7-f50553cca1a1"},"vehicle_type_id":"4","last_reported":1746771319,"current_range_meters":20000,"station_id":"st_cvj6r9ubvosntc0bgbag","pricing_plan_id":"cebpf4jnsgd1na2vs0mg"},{"bike_id":"62229c65-46f3-4238-b480-5d0b68fcee5a","system_id":"levelo_inurba_marseille","lat":43.28699,"lon":5.39985,"is_reserved":false,"is_disabled":false,"rental_uris":{"android":"levelo://app?vid=62229c65-46f3-4238-b480-5d0b68fcee5a","ios":"levelo://app?vid=62229c65-46f3-4238-b480-5d0b68fcee5a"},"vehicle_type_id":"4","last_reported":1746771319,"current_range_meters":20000,"station_id":"ce4bho92rcd13ifvqh3g","pricing_plan_id":"cebpf4jnsgd1na2vs0mg"},{"bike_id":"fc2577e7-1497-425b-9d4f-ab8d7dc843c6","system_id":"levelo_inurba_marseille","lat":43.33771,"lon":5.37485,"is_reserved":false,"is_disabled":false,"rental_uris":{"android":"levelo://app?vid=fc2577e7-1497-425b-9d4f-ab8d7dc843c6","ios":"levelo://app?vid=fc2577e7-1497-425b-9d4f-ab8d7dc843c6"},"vehicle_type_id":"4","last_reported":1746771319,"current_range_meters":20400,"station_id":"","pricing_plan_id":"cebpf4jnsgd1na2vs0mg"},{"bike_id":"fa1b1f66-7519-42e8-92aa-be43cf3d9e34","system_id":"levelo_inurba_marseille","lat":43.22511,"lon":5.34785,"is_reserved":false,"is_disabled":true,"rental_uris":{"android":"levelo://app?vid=fa1b1f66-7519-42e8-92aa-be43cf3d9e34","ios":"levelo://app?vid=fa1b1f66-7519-42e8-92aa-be43cf3d9e34"},"vehicle_type_id":"4","last_reported":1746771319,"current_range_meters":20400,"station_id":"st_cvj5dfep6f1abm77gieg","pricing_plan_id":"cebpf4jnsgd1na2vs0mg"},{"bike_id":"7599a39e-48ba-48e2-8727-d94dfe664fcd","system_id":"levelo_inurba_marseille","lat":43.30532,"lon":5.36705,"is_reserved":false,"is_disabled":false,"rental_uris":{"android":"levelo://app?vid=7599a39e-48ba-48e2-8727-d94dfe664fcd","ios":"levelo://app?vid=7599a39e-48ba-48e2-8727-d94dfe664fcd"},"vehicle_type_id":"4","last_reported":1746771319,"current_range_meters":20000,"station_id":"ce4bgrp2rcd13ifvqc9g","pricing_plan_id":"cebpf4jnsgd1na2vs0mg"},{"bike_id":"a162c5f1-732c-44af-a1c0-c0cba2f75af8","system_id":"levelo_inurba_marseille","lat":43.28694,"lon":5.39996,"is_reserved":false,"is_disabled":false,"rental_uris":{"android":"levelo://app?vid=a162c5f1-732c-44af-a1c0-c0cba2f75af8","ios":"levelo://app?vid=a162c5f1-732c-44af-a1c0-c0cba2f75af8"},"vehicle_type_id":"4","last_reported":1746771319,"current_range_meters":20400,"station_id":"ce4bho92rcd13ifvqh3g","pricing_plan_id":"cebpf4jnsgd1na2vs0mg"},{"bike_id":"0c7a575c-81ab-437e-80ce-b35a8ee82e68","system_id":"levelo_inurba_marseille","lat":43.28722,"lon":5.3793,"is_reserved":false,"is_disabled":false,"rental_uris":{"android":"levelo://app?vid=0c7a575c-81ab-437e-80ce-b35a8ee82e68","ios":"levelo://app?vid=0c7a575c-81ab-437e-80ce-b35a8ee82e68"},"vehicle_type_id":"4","last_reported":1746771319,"current_range_meters":20400,"station_id":"ce4bh9p2rcd13ifvqec0","pricing_plan_id":"cebpf4jnsgd1na2vs0mg"},{"bike_id":"a927ecdf-bb51-4716-a332-a873c8c7d97c","system_id":"levelo_inurba_marseille","lat":43.30889,"lon":5.3719,"is_reserved":false,"is_disabled":false,"rental_uris":{"android":"levelo://app?vid=a927ecdf-bb51-4716-a332-a873c8c7d97c","ios":"levelo://app?vid=a927ecdf-bb51-4716-a332-a873c8c7d97c"},"vehicle_type_id":"4","last_reported":1746771319,"current_range_meters":20400,"station_id":"ce4bguh2rcd13ifvqckg","pricing_plan_id":"cebpf4jnsgd1na2vs0mg"},{"bike_id":"545e5687-b7df-4883-81be-75a8925d5f91","system_id":"levelo_inurba_marseille","lat":43.337444,"lon":5.374475,"is_reserved":false,"is_disabled":false,"rental_uris":{"android":"levelo://app?vid=545e5687-b7df-4883-81be-75a8925d5f91","ios":"levelo://app?vid=545e5687-b7df-4883-81be-75a8925d5f91"},"vehicle_type_id":"4","last_reported":1746771319,"current_range_meters":20400,"station_id":"","pricing_plan_id":"cebpf4jnsgd1na2vs0mg"},{"bike_id":"ef1a55f6-c435-4f36-a3fd-f0777a75d593","system_id":"levelo_inurba_marseille","lat":43.26225,"lon":5.40447,"is_reserved":false,"is_disabled":false,"rental_uris":{"android":"levelo://app?vid=ef1a55f6-c435-4f36-a3fd-f0777a75d593","ios":"levelo://app?vid=ef1a55f6-c435-4f36-a3fd-f0777a75d593"},"vehicle_type_id":"4","last_reported":1746771319,"current_range_meters":20800,"station_id":"ce4bhmh2rcd13ifvqgmg","pricing_plan_id":"cebpf4jnsgd1na2vs0mg"},{"bike_id":"ddda9be5-8495-4441-93b9-d1781506a90e","system_id":"levelo_inurba_marseille","lat":43.30799,"lon":5.38146,"is_reserved":false,"is_disabled":true,"rental_uris":{"android":"levelo://app?vid=ddda9be5-8495-4441-93b9-d1781506a90e","ios":"levelo://app?vid=ddda9be5-8495-4441-93b9-d1781506a90e"},"vehicle_type_id":"4","last_reported":1746771319,"current_range_meters":20800,"station_id":"ce4bgt12rcd13ifvqce0","pricing_plan_id":"cebpf4jnsgd1na2vs0mg"},{"bike_id":"f73861e1-d57d-4b62-9792-0fa3e435029c","system_id":"levelo_inurba_marseille","lat":43.2315,"lon":5.43709,"is_reserved":false,"is_disabled":true,"rental_uris":{"android":"levelo://app?vid=f73861e1-d57d-4b62-9792-0fa3e435029c","ios":"levelo://app?vid=f73861e1-d57d-4b62-9792-0fa3e435029c"},"vehicle_type_id":"4","last_reported":1746771319,"current_range_meters":20800,"station_id":"ce4bhmp2rcd13ifvqgog","pricing_plan_id":"cebpf4jnsgd1na2vs0mg"},{"bike_id":"7dbf7670-d1d0-4a80-8ac5-74bfe0c01954","system_id":"levelo_inurba_marseille","lat":43.23768,"lon":5.36177,"is_reserved":false,"is_disabled":false,"rental_uris":{"android":"levelo://app?vid=7dbf7670-d1d0-4a80-8ac5-74bfe0c01954","ios":"levelo://app?vid=7dbf7670-d1d0-4a80-8ac5-74bfe0c01954"},"vehicle_type_id":"4","last_reported":1746771319,"current_range_meters":20800,"station_id":"","pricing_plan_id":"cebpf4jnsgd1na2vs0mg"},{"bike_id":"b8cb4d18-4d08-496e-aee1-73af1b942b04","system_id":"levelo_inurba_marseille","lat":43.27491,"lon":5.42456,"is_reserved":false,"is_disabled":false,"rental_uris":{"android":"levelo://app?vid=b8cb4d18-4d08-496e-aee1-73af1b942b04","ios":"levelo://app?vid=b8cb4d18-4d08-496e-aee1-73af1b942b04"},"vehicle_type_id":"4","last_reported":1746771319,"current_range_meters":20800,"station_id":"ce4bhn92rcd13ifvqgrg","pricing_plan_id":"cebpf4jnsgd1na2vs0mg"},{"bike_id":"edd60f3c-8f20-43fd-b8a1-002c70da4042","system_id":"levelo_inurba_marseille","lat":43.24562,"lon":5.39534,"is_reserved":false,"is_disabled":false,"rental_uris":{"android":"levelo://app?vid=edd60f3c-8f20-43fd-b8a1-002c70da4042","ios":"levelo://app?vid=edd60f3c-8f20-43fd-b8a1-002c70da4042"},"vehicle_type_id":"4","last_reported":1746771319,"current_range_meters":20800,"station_id":"ce4bhlp2rcd13ifvqgjg","pricing_plan_id":"cebpf4jnsgd1na2vs0mg"},{"bike_id":"c989f169-93e2-4526-bbcb-7d094f818e01","system_id":"levelo_inurba_marseille","lat":43.24073,"lon":5.37764,"is_reserved":false,"is_disabled":true,"rental_uris":{"android":"levelo://app?vid=c989f169-93e2-4526-bbcb-7d094f818e01","ios":"levelo://app?vid=c989f169-93e2-4526-bbcb-7d094f818e01"},"vehicle_type_id":"4","last_reported":1746771319,"current_range_meters":21600,"station_id":"ce4bhnp2rcd13ifvqgvg","pricing_plan_id":"cebpf4jnsgd1na2vs0mg"},{"bike_id":"c410a750-c8f0-48c3-993b-6ff06aae5c52","system_id":"levelo_inurba_marseille","lat":43.26575,"lon":5.3903,"is_reserved":false,"is_disabled":false,"rental_uris":{"android":"levelo://app?vid=c410a750-c8f0-48c3-993b-6ff06aae5c52","ios":"levelo://app?vid=c410a750-c8f0-48c3-993b-6ff06aae5c52"},"vehicle_type_id":"4","last_reported":1746771319,"current_range_meters":21600,"station_id":"ce4bhe12rcd13ifvqf30","pricing_plan_id":"cebpf4jnsgd1na2vs0mg"},{"bike_id":"95dc5ac3-f9a8-4e4d-a9ba-a15ab0bdde00","system_id":"levelo_inurba_marseille","lat":43.24063,"lon":5.37769,"is_reserved":false,"is_disabled":false,"rental_uris":{"android":"levelo://app?vid=95dc5ac3-f9a8-4e4d-a9ba-a15ab0bdde00","ios":"levelo://app?vid=95dc5ac3-f9a8-4e4d-a9ba-a15ab0bdde00"},"vehicle_type_id":"4","last_reported":1746771319,"current_range_meters":21600,"station_id":"ce4bhnp2rcd13ifvqgvg","pricing_plan_id":"cebpf4jnsgd1na2vs0mg"},{"bike_id":"5f7823ee-002e-44f9-a03c-a3dd88620d36","system_id":"levelo_inurba_marseille","lat":43.32538,"lon":5.41425,"is_reserved":false,"is_disabled":false,"rental_uris":{"android":"levelo://app?vid=5f7823ee-002e-44f9-a03c-a3dd88620d36","ios":"levelo://app?vid=5f7823ee-002e-44f9-a03c-a3dd88620d36"},"vehicle_type_id":"4","last_reported":1746771319,"current_range_meters":21600,"station_id":"ce4bhq12rcd13ifvqhhg","pricing_plan_id":"cebpf4jnsgd1na2vs0mg"},{"bike_id":"66d39f5f-1aac-423b-9ea7-bf9c1b0e5079","system_id":"levelo_inurba_marseille","lat":43.27542,"lon":5.41124,"is_reserved":false,"is_disabled":false,"rental_uris":{"android":"levelo://app?vid=66d39f5f-1aac-423b-9ea7-bf9c1b0e5079","ios":"levelo://app?vid=66d39f5f-1aac-423b-9ea7-bf9c1b0e5079"},"vehicle_type_id":"4","last_reported":1746771319,"current_range_meters":21600,"station_id":"","pricing_plan_id":"cebpf4jnsgd1na2vs0mg"},{"bike_id":"9b84e65f-2424-4f8e-b51b-21355d123536","system_id":"levelo_inurba_marseille","lat":43.31508,"lon":5.37284,"is_reserved":false,"is_disabled":false,"rental_uris":{"android":"levelo://app?vid=9b84e65f-2424-4f8e-b51b-21355d123536","ios":"levelo://app?vid=9b84e65f-2424-4f8e-b51b-21355d123536"},"vehicle_type_id":"4","last_reported":1746771319,"current_range_meters":22000,"station_id":"ce4bgt12rcd13ifvqcd0","pricing_plan_id":"cebpf4jnsgd1na2vs0mg"},{"bike_id":"9a048a66-c104-4a9f-9be2-2e6e2e81b00a","system_id":"levelo_inurba_marseille","lat":43.31689,"lon":5.37746,"is_reserved":false,"is_disabled":false,"rental_uris":{"android":"levelo://app?vid=9a048a66-c104-4a9f-9be2-2e6e2e81b00a","ios":"levelo://app?vid=9a048a66-c104-4a9f-9be2-2e6e2e81b00a"},"vehicle_type_id":"4","last_reported":1746771319,"current_range_meters":22000,"station_id":"ce4bgth2rcd13ifvqch0","pricing_plan_id":"cebpf4jnsgd1na2vs0mg"},{"bike_id":"7f6abefc-2886-473d-9322-162797fa75b0","system_id":"levelo_inurba_marseille","lat":43.30305,"lon":5.36879,"is_reserved":false,"is_disabled":false,"rental_uris":{"android":"levelo://app?vid=7f6abefc-2886-473d-9322-162797fa75b0","ios":"levelo://app?vid=7f6abefc-2886-473d-9322-162797fa75b0"},"vehicle_type_id":"4","last_reported":1746771319,"current_range_meters":22000,"station_id":"ce4bgqh2rcd13ifvqc5g","pricing_plan_id":"cebpf4jnsgd1na2vs0mg"},{"bike_id":"bef5a1e9-3a53-4b79-8ee5-9b0c66f395e5","system_id":"levelo_inurba_marseille","lat":43.29846,"lon":5.36277,"is_reserved":false,"is_disabled":false,"rental_uris":{"android":"levelo://app?vid=bef5a1e9-3a53-4b79-8ee5-9b0c66f395e5","ios":"levelo://app?vid=bef5a1e9-3a53-4b79-8ee5-9b0c66f395e5"},"vehicle_type_id":"4","last_reported":1746771319,"current_range_meters":22400,"station_id":"ce4bgpp2rcd13ifvqc3g","pricing_plan_id":"cebpf4jnsgd1na2vs0mg"},{"bike_id":"cf1c615a-922a-4ca6-b662-d1b1b6732287","system_id":"levelo_inurba_marseille","lat":43.3053,"lon":5.38437,"is_reserved":false,"is_disabled":false,"rental_uris":{"android":"levelo://app?vid=cf1c615a-922a-4ca6-b662-d1b1b6732287","ios":"levelo://app?vid=cf1c615a-922a-4ca6-b662-d1b1b6732287"},"vehicle_type_id":"4","last_reported":1746771319,"current_range_meters":22400,"station_id":"ce4bgg92rcd13ifvqb30","pricing_plan_id":"cebpf4jnsgd1na2vs0mg"},{"bike_id":"a1121b36-b5cd-4dda-96ef-13a3dfaa55e1","system_id":"levelo_inurba_marseille","lat":43.301401,"lon":5.387791,"is_reserved":false,"is_disabled":false,"rental_uris":{"android":"levelo://app?vid=a1121b36-b5cd-4dda-96ef-13a3dfaa55e1","ios":"levelo://app?vid=a1121b36-b5cd-4dda-96ef-13a3dfaa55e1"},"vehicle_type_id":"4","last_reported":1746771319,"current_range_meters":22400,"station_id":"","pricing_plan_id":"cebpf4jnsgd1na2vs0mg"},{"bike_id":"75d6c7fe-be50-4776-b2fe-c2f3a935d28c","system_id":"levelo_inurba_marseille","lat":43.28561,"lon":5.39511,"is_reserved":false,"is_disabled":true,"rental_uris":{"android":"levelo://app?vid=75d6c7fe-be50-4776-b2fe-c2f3a935d28c","ios":"levelo://app?vid=75d6c7fe-be50-4776-b2fe-c2f3a935d28c"},"vehicle_type_id":"4","last_reported":1746771319,"current_range_meters":22400,"station_id":"ce4bh292rcd13ifvqdg0","pricing_plan_id":"cebpf4jnsgd1na2vs0mg"},{"bike_id":"00b696f5-db00-4fbc-ae65-04d1a5f4ae48","system_id":"levelo_inurba_marseille","lat":43.33033,"lon":5.39058,"is_reserved":false,"is_disabled":false,"rental_uris":{"android":"levelo://app?vid=00b696f5-db00-4fbc-ae65-04d1a5f4ae48","ios":"levelo://app?vid=00b696f5-db00-4fbc-ae65-04d1a5f4ae48"},"vehicle_type_id":"4","last_reported":1746771319,"current_range_meters":22400,"station_id":"ce4bhr92rcd13ifvqhrg","pricing_plan_id":"cebpf4jnsgd1na2vs0mg"},{"bike_id":"ec483099-582b-4705-812d-4f41b85527e0","system_id":"levelo_inurba_marseille","lat":43.32535,"lon":5.41434,"is_reserved":false,"is_disabled":false,"rental_uris":{"android":"levelo://app?vid=ec483099-582b-4705-812d-4f41b85527e0","ios":"levelo://app?vid=ec483099-582b-4705-812d-4f41b85527e0"},"vehicle_type_id":"4","last_reported":1746771319,"current_range_meters":22400,"station_id":"ce4bhq12rcd13ifvqhhg","pricing_plan_id":"cebpf4jnsgd1na2vs0mg"},{"bike_id":"4a12c727-da06-441a-affb-72d375ee09f8","system_id":"levelo_inurba_marseille","lat":43.31345,"lon":5.36726,"is_reserved":false,"is_disabled":false,"rental_uris":{"android":"levelo://app?vid=4a12c727-da06-441a-affb-72d375ee09f8","ios":"levelo://app?vid=4a12c727-da06-441a-affb-72d375ee09f8"},"vehicle_type_id":"4","last_reported":1746771319,"current_range_meters":22800,"station_id":"ce4bgr92rcd13ifvqc6g","pricing_plan_id":"cebpf4jnsgd1na2vs0mg"},{"bike_id":"6c036e22-2880-4ca3-8ec2-3c1c93aa2e22","system_id":"levelo_inurba_marseille","lat":43.3303,"lon":5.39047,"is_reserved":false,"is_disabled":false,"rental_uris":{"android":"levelo://app?vid=6c036e22-2880-4ca3-8ec2-3c1c93aa2e22","ios":"levelo://app?vid=6c036e22-2880-4ca3-8ec2-3c1c93aa2e22"},"vehicle_type_id":"4","last_reported":1746771319,"current_range_meters":22800,"station_id":"ce4bhr92rcd13ifvqhrg","pricing_plan_id":"cebpf4jnsgd1na2vs0mg"},{"bike_id":"bf3c2987-1afc-49a8-82dc-b158828729b4","system_id":"levelo_inurba_marseille","lat":43.28723,"lon":5.39988,"is_reserved":false,"is_disabled":false,"rental_uris":{"android":"levelo://app?vid=bf3c2987-1afc-49a8-82dc-b158828729b4","ios":"levelo://app?vid=bf3c2987-1afc-49a8-82dc-b158828729b4"},"vehicle_type_id":"4","last_reported":1746771319,"current_range_meters":22800,"station_id":"ce4bho92rcd13ifvqh3g","pricing_plan_id":"cebpf4jnsgd1na2vs0mg"},{"bike_id":"5d2b7d32-3398-4e85-9947-c5b202c86379","system_id":"levelo_inurba_marseille","lat":43.285707,"lon":5.394887,"is_reserved":false,"is_disabled":true,"rental_uris":{"android":"levelo://app?vid=5d2b7d32-3398-4e85-9947-c5b202c86379","ios":"levelo://app?vid=5d2b7d32-3398-4e85-9947-c5b202c86379"},"vehicle_type_id":"4","last_reported":1746771319,"current_range_meters":22800,"station_id":"","pricing_plan_id":"cebpf4jnsgd1na2vs0mg"},{"bike_id":"3682fdce-98f6-4639-89c7-d55f70e7d9a5","system_id":"levelo_inurba_marseille","lat":43.26597,"lon":5.39007,"is_reserved":false,"is_disabled":false,"rental_uris":{"android":"levelo://app?vid=3682fdce-98f6-4639-89c7-d55f70e7d9a5","ios":"levelo://app?vid=3682fdce-98f6-4639-89c7-d55f70e7d9a5"},"vehicle_type_id":"4","last_reported":1746771319,"current_range_meters":22800,"station_id":"ce4bhe12rcd13ifvqf30","pricing_plan_id":"cebpf4jnsgd1na2vs0mg"},{"bike_id":"6fd41433-8072-4307-9efc-7964e4d6a723","system_id":"levelo_inurba_marseille","lat":43.24068,"lon":5.37764,"is_reserved":false,"is_disabled":false,"rental_uris":{"android":"levelo://app?vid=6fd41433-8072-4307-9efc-7964e4d6a723","ios":"levelo://app?vid=6fd41433-8072-4307-9efc-7964e4d6a723"},"vehicle_type_id":"4","last_reported":1746771319,"current_range_meters":23200,"station_id":"ce4bhnp2rcd13ifvqgvg","pricing_plan_id":"cebpf4jnsgd1na2vs0mg"},{"bike_id":"8596e9f7-88dd-42f2-957f-59eb5bfbca2d","system_id":"levelo_inurba_marseille","lat":43.33588,"lon":5.41,"is_reserved":false,"is_disabled":false,"rental_uris":{"android":"levelo://app?vid=8596e9f7-88dd-42f2-957f-59eb5bfbca2d","ios":"levelo://app?vid=8596e9f7-88dd-42f2-957f-59eb5bfbca2d"},"vehicle_type_id":"4","last_reported":1746771319,"current_range_meters":23200,"station_id":"ce4bhqh2rcd13ifvqhmg","pricing_plan_id":"cebpf4jnsgd1na2vs0mg"},{"bike_id":"e31916b5-f6ec-41a9-97de-ec945a509ee6","system_id":"levelo_inurba_marseille","lat":43.3148,"lon":5.37309,"is_reserved":false,"is_disabled":true,"rental_uris":{"android":"levelo://app?vid=e31916b5-f6ec-41a9-97de-ec945a509ee6","ios":"levelo://app?vid=e31916b5-f6ec-41a9-97de-ec945a509ee6"},"vehicle_type_id":"4","last_reported":1746771319,"current_range_meters":23200,"station_id":"ce4bgt12rcd13ifvqcd0","pricing_plan_id":"cebpf4jnsgd1na2vs0mg"},{"bike_id":"c9d955c9-04d1-429a-9835-09a447da332e","system_id":"levelo_inurba_marseille","lat":43.29739,"lon":5.38103,"is_reserved":false,"is_disabled":false,"rental_uris":{"android":"levelo://app?vid=c9d955c9-04d1-429a-9835-09a447da332e","ios":"levelo://app?vid=c9d955c9-04d1-429a-9835-09a447da332e"},"vehicle_type_id":"4","last_reported":1746771319,"current_range_meters":23200,"station_id":"","pricing_plan_id":"cebpf4jnsgd1na2vs0mg"},{"bike_id":"ee364ed7-6a53-4c69-8e98-85ec528769fc","system_id":"levelo_inurba_marseille","lat":43.287262,"lon":5.379365,"is_reserved":false,"is_disabled":false,"rental_uris":{"android":"levelo://app?vid=ee364ed7-6a53-4c69-8e98-85ec528769fc","ios":"levelo://app?vid=ee364ed7-6a53-4c69-8e98-85ec528769fc"},"vehicle_type_id":"4","last_reported":1746771319,"current_range_meters":23200,"station_id":"ce4bh9p2rcd13ifvqec0","pricing_plan_id":"cebpf4jnsgd1na2vs0mg"},{"bike_id":"ad85f1e3-389f-4069-aac4-a6c8c44d54cf","system_id":"levelo_inurba_marseille","lat":43.24071,"lon":5.37766,"is_reserved":false,"is_disabled":false,"rental_uris":{"android":"levelo://app?vid=ad85f1e3-389f-4069-aac4-a6c8c44d54cf","ios":"levelo://app?vid=ad85f1e3-389f-4069-aac4-a6c8c44d54cf"},"vehicle_type_id":"4","last_reported":1746771319,"current_range_meters":23200,"station_id":"ce4bhnp2rcd13ifvqgvg","pricing_plan_id":"cebpf4jnsgd1na2vs0mg"},{"bike_id":"8d31bc96-a2a2-41f0-81d5-2e3e481e5b26","system_id":"levelo_inurba_marseille","lat":43.30465,"lon":5.37912,"is_reserved":false,"is_disabled":false,"rental_uris":{"android":"levelo://app?vid=8d31bc96-a2a2-41f0-81d5-2e3e481e5b26","ios":"levelo://app?vid=8d31bc96-a2a2-41f0-81d5-2e3e481e5b26"},"vehicle_type_id":"4","last_reported":1746771319,"current_range_meters":24000,"station_id":"ce4bgup2rcd13ifvqcn0","pricing_plan_id":"cebpf4jnsgd1na2vs0mg"},{"bike_id":"793d4e2f-b339-4668-8b6c-eebd24812209","system_id":"levelo_inurba_marseille","lat":43.34334,"lon":5.34837,"is_reserved":false,"is_disabled":false,"rental_uris":{"android":"levelo://app?vid=793d4e2f-b339-4668-8b6c-eebd24812209","ios":"levelo://app?vid=793d4e2f-b339-4668-8b6c-eebd24812209"},"vehicle_type_id":"4","last_reported":1746771319,"current_range_meters":24000,"station_id":"","pricing_plan_id":"cebpf4jnsgd1na2vs0mg"},{"bike_id":"8cf2b0fb-66d7-4ff9-abf1-463e4d528a2e","system_id":"levelo_inurba_marseille","lat":43.28708,"lon":5.39987,"is_reserved":false,"is_disabled":false,"rental_uris":{"android":"levelo://app?vid=8cf2b0fb-66d7-4ff9-abf1-463e4d528a2e","ios":"levelo://app?vid=8cf2b0fb-66d7-4ff9-abf1-463e4d528a2e"},"vehicle_type_id":"4","last_reported":1746771319,"current_range_meters":24000,"station_id":"ce4bho92rcd13ifvqh3g","pricing_plan_id":"cebpf4jnsgd1na2vs0mg"},{"bike_id":"db30dea5-d3d4-4a5a-ac3b-b242fd247e81","system_id":"levelo_inurba_marseille","lat":43.2583,"lon":5.39434,"is_reserved":false,"is_disabled":true,"rental_uris":{"android":"levelo://app?vid=db30dea5-d3d4-4a5a-ac3b-b242fd247e81","ios":"levelo://app?vid=db30dea5-d3d4-4a5a-ac3b-b242fd247e81"},"vehicle_type_id":"4","last_reported":1746771319,"current_range_meters":24000,"station_id":"ce4bhip2rcd13ifvqft0","pricing_plan_id":"cebpf4jnsgd1na2vs0mg"},{"bike_id":"f284dfc2-794e-4aa0-a445-d70f4465a91c","system_id":"levelo_inurba_marseille","lat":43.31225,"lon":5.36858,"is_reserved":false,"is_disabled":false,"rental_uris":{"android":"levelo://app?vid=f284dfc2-794e-4aa0-a445-d70f4465a91c","ios":"levelo://app?vid=f284dfc2-794e-4aa0-a445-d70f4465a91c"},"vehicle_type_id":"4","last_reported":1746771319,"current_range_meters":24000,"station_id":"ce4bgl92rcd13ifvqbq0","pricing_plan_id":"cebpf4jnsgd1na2vs0mg"},{"bike_id":"63382431-0120-44ce-bc56-d9182eb9e3b5","system_id":"levelo_inurba_marseille","lat":43.25726,"lon":5.41108,"is_reserved":false,"is_disabled":false,"rental_uris":{"android":"levelo://app?vid=63382431-0120-44ce-bc56-d9182eb9e3b5","ios":"levelo://app?vid=63382431-0120-44ce-bc56-d9182eb9e3b5"},"vehicle_type_id":"4","last_reported":1746771319,"current_range_meters":24000,"station_id":"ce4bhkp2rcd13ifvqgd0","pricing_plan_id":"cebpf4jnsgd1na2vs0mg"},{"bike_id":"b0af2943-ab5e-42a5-bbfc-0fe1e4dc3524","system_id":"levelo_inurba_marseille","lat":43.305933,"lon":5.393528,"is_reserved":false,"is_disabled":true,"rental_uris":{"android":"levelo://app?vid=b0af2943-ab5e-42a5-bbfc-0fe1e4dc3524","ios":"levelo://app?vid=b0af2943-ab5e-42a5-bbfc-0fe1e4dc3524"},"vehicle_type_id":"4","last_reported":1746771319,"current_range_meters":24000,"station_id":"ce4bh0p2rcd13ifvqd80","pricing_plan_id":"cebpf4jnsgd1na2vs0mg"},{"bike_id":"c858c73e-da31-4827-8661-76fb4ce30ba1","system_id":"levelo_inurba_marseille","lat":43.25743,"lon":5.41095,"is_reserved":false,"is_disabled":true,"rental_uris":{"android":"levelo://app?vid=c858c73e-da31-4827-8661-76fb4ce30ba1","ios":"levelo://app?vid=c858c73e-da31-4827-8661-76fb4ce30ba1"},"vehicle_type_id":"4","last_reported":1746771319,"current_range_meters":24000,"station_id":"ce4bhkp2rcd13ifvqgd0","pricing_plan_id":"cebpf4jnsgd1na2vs0mg"},{"bike_id":"11de0305-e058-44de-a51e-c84a6281386d","system_id":"levelo_inurba_marseille","lat":43.32538,"lon":5.4143,"is_reserved":false,"is_disabled":false,"rental_uris":{"android":"levelo://app?vid=11de0305-e058-44de-a51e-c84a6281386d","ios":"levelo://app?vid=11de0305-e058-44de-a51e-c84a6281386d"},"vehicle_type_id":"4","last_reported":1746771319,"current_range_meters":24000,"station_id":"ce4bhq12rcd13ifvqhhg","pricing_plan_id":"cebpf4jnsgd1na2vs0mg"},{"bike_id":"23ff377b-3231-4827-91cf-e30b8323160d","system_id":"levelo_inurba_marseille","lat":43.27066,"lon":5.42282,"is_reserved":false,"is_disabled":false,"rental_uris":{"android":"levelo://app?vid=23ff377b-3231-4827-91cf-e30b8323160d","ios":"levelo://app?vid=23ff377b-3231-4827-91cf-e30b8323160d"},"vehicle_type_id":"4","last_reported":1746771319,"current_range_meters":24400,"station_id":"ce4bhk92rcd13ifvqgb0","pricing_plan_id":"cebpf4jnsgd1na2vs0mg"},{"bike_id":"725e20dd-e5cb-40e2-9c7d-5c2a9fddd9d3","system_id":"levelo_inurba_marseille","lat":43.2406,"lon":5.37779,"is_reserved":false,"is_disabled":false,"rental_uris":{"android":"levelo://app?vid=725e20dd-e5cb-40e2-9c7d-5c2a9fddd9d3","ios":"levelo://app?vid=725e20dd-e5cb-40e2-9c7d-5c2a9fddd9d3"},"vehicle_type_id":"4","last_reported":1746771319,"current_range_meters":22000,"station_id":"ce4bhnp2rcd13ifvqgvg","pricing_plan_id":"cebpf4jnsgd1na2vs0mg"},{"bike_id":"521e586d-9582-4658-a0a1-056883e3d327","system_id":"levelo_inurba_marseille","lat":43.296,"lon":5.38099,"is_reserved":false,"is_disabled":false,"rental_uris":{"android":"levelo://app?vid=521e586d-9582-4658-a0a1-056883e3d327","ios":"levelo://app?vid=521e586d-9582-4658-a0a1-056883e3d327"},"vehicle_type_id":"4","last_reported":1746771319,"current_range_meters":24400,"station_id":"ce4bgl12rcd13ifvqbo0","pricing_plan_id":"cebpf4jnsgd1na2vs0mg"},{"bike_id":"58db41db-3e33-4509-9e20-4e05242ae39c","system_id":"levelo_inurba_marseille","lat":43.33618,"lon":5.35439,"is_reserved":false,"is_disabled":true,"rental_uris":{"android":"levelo://app?vid=58db41db-3e33-4509-9e20-4e05242ae39c","ios":"levelo://app?vid=58db41db-3e33-4509-9e20-4e05242ae39c"},"vehicle_type_id":"4","last_reported":1746771319,"current_range_meters":24400,"station_id":"","pricing_plan_id":"cebpf4jnsgd1na2vs0mg"},{"bike_id":"1163b2df-bde6-4dce-9fbb-d7e838d79527","system_id":"levelo_inurba_marseille","lat":43.29175,"lon":5.3932,"is_reserved":false,"is_disabled":true,"rental_uris":{"android":"levelo://app?vid=1163b2df-bde6-4dce-9fbb-d7e838d79527","ios":"levelo://app?vid=1163b2df-bde6-4dce-9fbb-d7e838d79527"},"vehicle_type_id":"4","last_reported":1746771319,"current_range_meters":24400,"station_id":"ce4bh192rcd13ifvqdd0","pricing_plan_id":"cebpf4jnsgd1na2vs0mg"},{"bike_id":"57d8bb6b-f041-4d17-b320-44d7867a1c31","system_id":"levelo_inurba_marseille","lat":43.27491,"lon":5.4246,"is_reserved":false,"is_disabled":false,"rental_uris":{"android":"levelo://app?vid=57d8bb6b-f041-4d17-b320-44d7867a1c31","ios":"levelo://app?vid=57d8bb6b-f041-4d17-b320-44d7867a1c31"},"vehicle_type_id":"4","last_reported":1746771319,"current_range_meters":24800,"station_id":"ce4bhn92rcd13ifvqgrg","pricing_plan_id":"cebpf4jnsgd1na2vs0mg"},{"bike_id":"020b7142-3123-4bc9-884a-308b5142e38a","system_id":"levelo_inurba_marseille","lat":43.300473,"lon":5.387922,"is_reserved":false,"is_disabled":false,"rental_uris":{"android":"levelo://app?vid=020b7142-3123-4bc9-884a-308b5142e38a","ios":"levelo://app?vid=020b7142-3123-4bc9-884a-308b5142e38a"},"vehicle_type_id":"4","last_reported":1746771319,"current_range_meters":24800,"station_id":"","pricing_plan_id":"cebpf4jnsgd1na2vs0mg"},{"bike_id":"0b0c9b8c-b8ae-485d-b2b3-b631aa8c6f86","system_id":"levelo_inurba_marseille","lat":43.31164,"lon":5.38717,"is_reserved":false,"is_disabled":false,"rental_uris":{"android":"levelo://app?vid=0b0c9b8c-b8ae-485d-b2b3-b631aa8c6f86","ios":"levelo://app?vid=0b0c9b8c-b8ae-485d-b2b3-b631aa8c6f86"},"vehicle_type_id":"4","last_reported":1746771319,"current_range_meters":24800,"station_id":"ce4bgv12rcd13ifvqcp0","pricing_plan_id":"cebpf4jnsgd1na2vs0mg"},{"bike_id":"3f76f48b-c089-4234-9bdf-f48bd5a784cf","system_id":"levelo_inurba_marseille","lat":43.29593,"lon":5.38089,"is_reserved":false,"is_disabled":true,"rental_uris":{"android":"levelo://app?vid=3f76f48b-c089-4234-9bdf-f48bd5a784cf","ios":"levelo://app?vid=3f76f48b-c089-4234-9bdf-f48bd5a784cf"},"vehicle_type_id":"4","last_reported":1746771319,"current_range_meters":24800,"station_id":"ce4bgl12rcd13ifvqbo0","pricing_plan_id":"cebpf4jnsgd1na2vs0mg"},