{"last_updated":1682546765,"ttl":30,"version":"2.2","data":{"bikes":[{"bike_id":"3546747f-7501-4400-b313-39f9d957c4ca","system_id":"levelo_inurba_marseille","lat":43.313391,"lon":5.36706,"is_reserved":false,"is_disabled":false,"rental_uris":{"android":"levelo://app?vid=3546747f-7501-4400-b313-39f9d957c4ca","ios":"levelo://app?vid=3546747f-7501-4400-b313-39f9d957c4ca"},"vehicle_type_id":"4","last_reported":1682546766,"current_range_meters":28800,"station_id":"ce4bgr92rcd13ifvqc6g","pricing_plan_id":"free"},{"bike_id":"f62599b3-a08c-4d2b-8396-bb60bf594527","system_id":"levelo_inurba_marseille","lat":43.3122,"lon":5.36858,"is_reserved":false,"is_disabled":false,"rental_uris":{"android":"levelo://app?vid=f62599b3-a08c-4d2b-8396-bb60bf594527","ios":"levelo://app?vid=f62599b3-a08c-4d2b-8396-bb60bf594527"},"vehicle_type_id":"4","last_reported":1682546766,"current_range_meters":6000,"station_id":"ce4bgl92rcd13ifvqbq0","pricing_plan_id":"free"},{"bike_id":"cc556044-3cd5-4ea4-8f2e-b6ad45c51cb5","system_id":"levelo_inurba_marseille","lat":43.309076,"lon":5.368465,"is_reserved":false,"is_disabled":false,"rental_uris":{"android":"levelo://app?vid=cc556044-3cd5-4ea4-8f2e-b6ad45c51cb5","ios":"levelo://app?vid=cc556044-3cd5-4ea4-8f2e-b6ad45c51cb5"},"vehicle_type_id":"4","last_reported":1682546766,"current_range_meters":29600,"station_id":"ce4bgn92rcd13ifvqbvg","pricing_plan_id":"free"},{"bike_id":"6d725f37-1139-436e-ba9b-a3072bc3191b","system_id":"levelo_inurba_marseille","lat":43.314811,"lon":5.373103,"is_reserved":false,"is_disabled":false,"rental_uris":{"android":"levelo://app?vid=6d725f37-1139-436e-ba9b-a3072bc3191b","ios":"levelo://app?vid=6d725f37-1139-436e-ba9b-a3072bc3191b"},"vehicle_type_id":"4","last_reported":1682546766,"current_range_meters":13200,"station_id":"ce4bgt12rcd13ifvqcd0","pricing_plan_id":"free"},{"bike_id":"32546074-198d-4090-9f6b-f550b441b2f2","system_id":"levelo_inurba_marseille","lat":43.314811,"lon":5.373103,"is_reserved":false,"is_disabled":false,"rental_uris":{"android":"levelo://app?vid=32546074-198d-4090-9f6b-f550b441b2f2","ios":"levelo://app?vid=32546074-198d-4090-9f6b-f550b441b2f2"},"vehicle_type_id":"4","last_reported":1682546766,"current_range_meters":31600,"station_id":"ce4bgt12rcd13ifvqcd0","pricing_plan_id":"free"},{"bike_id":"aa44f031-b81b-4aa4-acaa-2d64284f4465","system_id":"levelo_inurba_marseille","lat":43.314811,"lon":5.373103,"is_reserved":false,"is_disabled":false,"rental_uris":{"android":"levelo://app?vid=aa44f031-b81b-4aa4-acaa-2d64284f4465","ios":"levelo://app?vid=aa44f031-b81b-4aa4-acaa-2d64284f4465"},"vehicle_type_id":"4","last_reported":1682546766,"current_range_meters":2800,"station_id":"ce4bgt12rcd13ifvqcd0","pricing_plan_id":"free"},{"bike_id":"1dc37d51-2c50-41c4-92a7-43785e49cfea","system_id":"levelo_inurba_marseille","lat":43.314811,"lon":5.373104,"is_reserved":false,"is_disabled":false,"rental_uris":{"android":"levelo://app?vid=1dc37d51-2c50-41c4-92a7-43785e49cfea","ios":"levelo://app?vid=1dc37d51-2c50-41c4-92a7-43785e49cfea"},"vehicle_type_id":"4","last_reported":1682546766,"current_range_meters":26800,"station_id":"ce4bgt12rcd13ifvqcd0","pricing_plan_id":"free"},{"bike_id":"6c751e22-756c-4fe4-9fe4-7f02f0895fe2","system_id":"levelo_inurba_marseille","lat":43.30897,"lon":5.37187,"is_reserved":false,"is_disabled":false,"rental_uris":{"android":"levelo://app?vid=6c751e22-756c-4fe4-9fe4-7f02f0895fe2","ios":"levelo://app?vid=6c751e22-756c-4fe4-9fe4-7f02f0895fe2"},"vehicle_type_id":"4","last_reported":1682546766,"current_range_meters":23200,"station_id":"","pricing_plan_id":"free"},{"bike_id":"4e33c3d1-6733-49ec-979d-97cc619ba793","system_id":"levelo_inurba_marseille","lat":43.30889,"lon":5.37184,"is_reserved":false,"is_disabled":false,"rental_uris":{"android":"levelo://app?vid=4e33c3d1-6733-49ec-979d-97cc619ba793","ios":"levelo://app?vid=4e33c3d1-6733-49ec-979d-97cc619ba793"},"vehicle_type_id":"4","last_reported":1682546766,"current_range_meters":20000,"station_id":"","pricing_plan_id":"free"},{"bike_id":"0ee27f8f-c48f-40cd-ae0a-8f818cfee92f","system_id":"levelo_inurba_marseille","lat":43.30886,"lon":5.37201,"is_reserved":false,"is_disabled":false,"rental_uris":{"android":"levelo://app?vid=0ee27f8f-c48f-40cd-ae0a-8f818cfee92f","ios":"levelo://app?vid=0ee27f8f-c48f-40cd-ae0a-8f818cfee92f"},"vehicle_type_id":"4","last_reported":1682546766,"current_range_meters":12800,"station_id":"","pricing_plan_id":"free"},{"bike_id":"11c9256c-d403-4e53-8fea-3cfd89387377","system_id":"levelo_inurba_marseille","lat":43.305368,"lon":5.367343,"is_reserved":false,"is_disabled":false,"rental_uris":{"android":"levelo://app?vid=11c9256c-d403-4e53-8fea-3cfd89387377","ios":"levelo://app?vid=11c9256c-d403-4e53-8fea-3cfd89387377"},"vehicle_type_id":"4","last_reported":1682546766,"current_range_meters":17200,"station_id":"ce4bgrp2rcd13ifvqc9g","pricing_plan_id":"free"},{"bike_id":"3041d0cc-dec6-4011-809b-2d09e996e8ba","system_id":"levelo_inurba_marseille","lat":43.30608,"lon":5.37219,"is_reserved":false,"is_disabled":false,"rental_uris":{"android":"levelo://app?vid=3041d0cc-dec6-4011-809b-2d09e996e8ba","ios":"levelo://app?vid=3041d0cc-dec6-4011-809b-2d09e996e8ba"},"vehicle_type_id":"4","last_reported":1682546766,"current_range_meters":400,"station_id":"ce4bgqh2rcd13ifvqc4g","pricing_plan_id":"free"},{"bike_id":"44d608e0-c39e-4cc8-885a-9606d994f6c6","system_id":"levelo_inurba_marseille","lat":43.305989,"lon":5.37225,"is_reserved":false,"is_disabled":false,"rental_uris":{"android":"levelo://app?vid=44d608e0-c39e-4cc8-885a-9606d994f6c6","ios":"levelo://app?vid=44d608e0-c39e-4cc8-885a-9606d994f6c6"},"vehicle_type_id":"4","last_reported":1682546766,"current_range_meters":25200,"station_id":"ce4bgqh2rcd13ifvqc4g","pricing_plan_id":"free"},{"bike_id":"e1bd112c-97e9-4bec-bca5-99c67e745299","system_id":"levelo_inurba_marseille","lat":43.305989,"lon":5.37225,"is_reserved":false,"is_disabled":false,"rental_uris":{"android":"levelo://app?vid=e1bd112c-97e9-4bec-bca5-99c67e745299","ios":"levelo://app?vid=e1bd112c-97e9-4bec-bca5-99c67e745299"},"vehicle_type_id":"4","last_reported":1682546766,"current_range_meters":31600,"station_id":"ce4bgqh2rcd13ifvqc4g","pricing_plan_id":"free"},{"bike_id":"af4f4b18-b266-4818-aa80-2e0f547f52d2","system_id":"levelo_inurba_marseille","lat":43.305989,"lon":5.37225,"is_reserved":false,"is_disabled":false,"rental_uris":{"android":"levelo://app?vid=af4f4b18-b266-4818-aa80-2e0f547f52d2","ios":"levelo://app?vid=af4f4b18-b266-4818-aa80-2e0f547f52d2"},"vehicle_type_id":"4","last_reported":1682546766,"current_range_meters":31600,"station_id":"ce4bgqh2rcd13ifvqc4g","pricing_plan_id":"free"},{"bike_id":"1e463053-13fd-475e-bd18-49ee21ba2134","system_id":"levelo_inurba_marseille","lat":43.305989,"lon":5.37225,"is_reserved":false,"is_disabled":false,"rental_uris":{"android":"levelo://app?vid=1e463053-13fd-475e-bd18-49ee21ba2134","ios":"levelo://app?vid=1e463053-13fd-475e-bd18-49ee21ba2134"},"vehicle_type_id":"4","last_reported":1682546766,"current_range_meters":27200,"station_id":"ce4bgqh2rcd13ifvqc4g","pricing_plan_id":"free"},{"bike_id":"5f9a60c5-fbc9-40b7-9756-de79422c76ca","system_id":"levelo_inurba_marseille","lat":43.305989,"lon":5.37225,"is_reserved":false,"is_disabled":false,"rental_uris":{"android":"levelo://app?vid=5f9a60c5-fbc9-40b7-9756-de79422c76ca","ios":"levelo://app?vid=5f9a60c5-fbc9-40b7-9756-de79422c76ca"},"vehicle_type_id":"4","last_reported":1682546766,"current_range_meters":28400,"station_id":"ce4bgqh2rcd13ifvqc4g","pricing_plan_id":"free"},{"bike_id":"d3ed5500-da8a-44ea-97e2-00949596a802","system_id":"levelo_inurba_marseille","lat":43.305989,"lon":5.37225,"is_reserved":false,"is_disabled":false,"rental_uris":{"android":"levelo://app?vid=d3ed5500-da8a-44ea-97e2-00949596a802","ios":"levelo://app?vid=d3ed5500-da8a-44ea-97e2-00949596a802"},"vehicle_type_id":"4","last_reported":1682546766,"current_range_meters":29600,"station_id":"ce4bgqh2rcd13ifvqc4g","pricing_plan_id":"free"},{"bike_id":"d8031584-e86c-4f95-be76-44094cf5f4b6","system_id":"levelo_inurba_marseille","lat":43.305989,"lon":5.37225,"is_reserved":false,"is_disabled":false,"rental_uris":{"android":"levelo://app?vid=d8031584-e86c-4f95-be76-44094cf5f4b6","ios":"levelo://app?vid=d8031584-e86c-4f95-be76-44094cf5f4b6"},"vehicle_type_id":"4","last_reported":1682546766,"current_range_meters":29600,"station_id":"ce4bgqh2rcd13ifvqc4g","pricing_plan_id":"free"},{"bike_id":"7ff35370-011a-4c1b-abba-df6a8df53e74","system_id":"levelo_inurba_marseille","lat":43.305989,"lon":5.37225,"is_reserved":false,"is_disabled":false,"rental_uris":{"android":"levelo://app?vid=7ff35370-011a-4c1b-abba-df6a8df53e74","ios":"levelo://app?vid=7ff35370-011a-4c1b-abba-df6a8df53e74"},"vehicle_type_id":"4","last_reported":1682546766,"current_range_meters":23200,"station_id":"ce4bgqh2rcd13ifvqc4g","pricing_plan_id":"free"},{"bike_id":"26a66f81-b30e-49ef-b843-86b393303cfe","system_id":"levelo_inurba_marseille","lat":43.305989,"lon":5.37225,"is_reserved":false,"is_disabled":false,"rental_uris":{"android":"levelo://app?vid=26a66f81-b30e-49ef-b843-86b393303cfe","ios":"levelo://app?vid=26a66f81-b30e-49ef-b843-86b393303cfe"},"vehicle_type_id":"4","last_reported":1682546766,"current_range_meters":31200,"station_id":"ce4bgqh2rcd13ifvqc4g","pricing_plan_id":"free"},{"bike_id":"1169a9d6-1e75-48f3-a650-f5bbe695a823","system_id":"levelo_inurba_marseille","lat":43.305989,"lon":5.37225,"is_reserved":false,"is_disabled":false,"rental_uris":{"android":"levelo://app?vid=1169a9d6-1e75-48f3-a650-f5bbe695a823","ios":"levelo://app?vid=1169a9d6-1e75-48f3-a650-f5bbe695a823"},"vehicle_type_id":"4","last_reported":1682546766,"current_range_meters":31200,"station_id":"ce4bgqh2rcd13ifvqc4g","pricing_plan_id":"free"},{"bike_id":"64db08f0-7625-4e0b-9b09-b6e57f2a1c35","system_id":"levelo_inurba_marseille","lat":43.305989,"lon":5.37225,"is_reserved":false,"is_disabled":false,"rental_uris":{"android":"levelo://app?vid=64db08f0-7625-4e0b-9b09-b6e57f2a1c35","ios":"levelo://app?vid=64db08f0-7625-4e0b-9b09-b6e57f2a1c35"},"vehicle_type_id":"4","last_reported":1682546766,"current_range_meters":31200,"station_id":"ce4bgqh2rcd13ifvqc4g","pricing_plan_id":"free"},{"bike_id":"ca7166ac-8521-4ee8-983f-efae85491a22","system_id":"levelo_inurba_marseille","lat":43.305989,"lon":5.37225,"is_reserved":false,"is_disabled":false,"rental_uris":{"android":"levelo://app?vid=ca7166ac-8521-4ee8-983f-efae85491a22","ios":"levelo://app?vid=ca7166ac-8521-4ee8-983f-efae85491a22"},"vehicle_type_id":"4","last_reported":1682546766,"current_range_meters":30800,"station_id":"ce4bgqh2rcd13ifvqc4g","pricing_plan_id":"free"},{"bike_id":"fe4f678e-0341-4f99-a74e-4d70efc80204","system_id":"levelo_inurba_marseille","lat":43.305989,"lon":5.37225,"is_reserved":false,"is_disabled":false,"rental_uris":{"android":"levelo://app?vid=fe4f678e-0341-4f99-a74e-4d70efc80204","ios":"levelo://app?vid=fe4f678e-0341-4f99-a74e-4d70efc80204"},"vehicle_type_id":"4","last_reported":1682546766,"current_range_meters":31200,"station_id":"ce4bgqh2rcd13ifvqc4g","pricing_plan_id":"free"},{"bike_id":"decf0ec1-0ca4-4bcc-afdb-366b80f1f37d","system_id":"levelo_inurba_marseille","lat":43.305989,"lon":5.37225,"is_reserved":false,"is_disabled":false,"rental_uris":{"android":"levelo://app?vid=decf0ec1-0ca4-4bcc-afdb-366b80f1f37d","ios":"levelo://app?vid=decf0ec1-0ca4-4bcc-afdb-366b80f1f37d"},"vehicle_type_id":"4","last_reported":1682546766,"current_range_meters":31200,"station_id":"ce4bgqh2rcd13ifvqc4g","pricing_plan_id":"free"},{"bike_id":"915d9361-7776-4d62-8860-c96202021096","system_id":"levelo_inurba_marseille","lat":43.305989,"lon":5.37225,"is_reserved":false,"is_disabled":false,"rental_uris":{"android":"levelo://app?vid=915d9361-7776-4d62-8860-c96202021096","ios":"levelo://app?vid=915d9361-7776-4d62-8860-c96202021096"},"vehicle_type_id":"4","last_reported":1682546766,"current_range_meters":31200,"station_id":"ce4bgqh2rcd13ifvqc4g","pricing_plan_id":"free"},{"bike_id":"3eea5e13-ba9f-4ab9-9e17-42d3f6d31642","system_id":"levelo_inurba_marseille","lat":43.305989,"lon":5.37225,"is_reserved":false,"is_disabled":false,"rental_uris":{"android":"levelo://app?vid=3eea5e13-ba9f-4ab9-9e17-42d3f6d31642","ios":"levelo://app?vid=3eea5e13-ba9f-4ab9-9e17-42d3f6d31642"},"vehicle_type_id":"4","last_reported":1682546766,"current_range_meters":28400,"station_id":"ce4bgqh2rcd13ifvqc4g","pricing_plan_id":"free"},{"bike_id":"19f07c5b-2ac2-4830-9059-5da3aa033498","system_id":"levelo_inurba_marseille","lat":43.305989,"lon":5.37225,"is_reserved":false,"is_disabled":false,"rental_uris":{"android":"levelo://app?vid=19f07c5b-2ac2-4830-9059-5da3aa033498","ios":"levelo://app?vid=19f07c5b-2ac2-4830-9059-5da3aa033498"},"vehicle_type_id":"4","last_reported":1682546766,"current_range_meters":31200,"station_id":"ce4bgqh2rcd13ifvqc4g","pricing_plan_id":"free"},{"bike_id":"b491629b-1316-451e-af6b-13bb9aff23c8","system_id":"levelo_inurba_marseille","lat":43.31126,"lon":5.37757,"is_reserved":false,"is_disabled":false,"rental_uris":{"android":"levelo://app?vid=b491629b-1316-451e-af6b-13bb9aff23c8","ios":"levelo://app?vid=b491629b-1316-451e-af6b-13bb9aff23c8"},"vehicle_type_id":"4","last_reported":1682546766,"current_range_meters":9200,"station_id":"ce4bgt92rcd13ifvqcg0","pricing_plan_id":"free"},{"bike_id":"f021364b-651b-4218-b0a0-ba45d25fd997","system_id":"levelo_inurba_marseille","lat":43.311125,"lon":5.377624,"is_reserved":false,"is_disabled":false,"rental_uris":{"android":"levelo://app?vid=f021364b-651b-4218-b0a0-ba45d25fd997","ios":"levelo://app?vid=f021364b-651b-4218-b0a0-ba45d25fd997"},"vehicle_type_id":"4","last_reported":1682546766,"current_range_meters":24400,"station_id":"ce4bgt92rcd13ifvqcg0","pricing_plan_id":"free"},{"bike_id":"596eafdf-afd8-4ab9-9ead-dbbc114a2b62","system_id":"levelo_inurba_marseille","lat":43.31122,"lon":5.3776,"is_reserved":false,"is_disabled":false,"rental_uris":{"android":"levelo://app?vid=596eafdf-afd8-4ab9-9ead-dbbc114a2b62","ios":"levelo://app?vid=596eafdf-afd8-4ab9-9ead-dbbc114a2b62"},"vehicle_type_id":"4","last_reported":1682546766,"current_range_meters":24800,"station_id":"ce4bgt92rcd13ifvqcg0","pricing_plan_id":"free"},{"bike_id":"de321562-c047-488f-a3c8-bbe88c896d66","system_id":"levelo_inurba_marseille","lat":43.31121,"lon":5.37762,"is_reserved":false,"is_disabled":false,"rental_uris":{"android":"levelo://app?vid=de321562-c047-488f-a3c8-bbe88c896d66","ios":"levelo://app?vid=de321562-c047-488f-a3c8-bbe88c896d66"},"vehicle_type_id":"4","last_reported":1682546766,"current_range_meters":9200,"station_id":"ce4bgt92rcd13ifvqcg0","pricing_plan_id":"free"},{"bike_id":"808ebab5-4dd3-4e0c-8946-42e936ff056b","system_id":"levelo_inurba_marseille","lat":43.31103,"lon":5.37772,"is_reserved":false,"is_disabled":false,"rental_uris":{"android":"levelo://app?vid=808ebab5-4dd3-4e0c-8946-42e936ff056b","ios":"levelo://app?vid=808ebab5-4dd3-4e0c-8946-42e936ff056b"},"vehicle_type_id":"4","last_reported":1682546766,"current_range_meters":0,"station_id":"ce4bgt92rcd13ifvqcg0","pricing_plan_id":"free"},{"bike_id":"7b6bece2-c9e9-4eab-8962-dcb21144273a","system_id":"levelo_inurba_marseille","lat":43.317075,"lon":5.377367,"is_reserved":false,"is_disabled":false,"rental_uris":{"android":"levelo://app?vid=7b6bece2-c9e9-4eab-8962-dcb21144273a","ios":"levelo://app?vid=7b6bece2-c9e9-4eab-8962-dcb21144273a"},"vehicle_type_id":"4","last_reported":1682546766,"current_range_meters":29200,"station_id":"ce4bgth2rcd13ifvqch0","pricing_plan_id":"free"},{"bike_id":"576c5878-4eb6-4160-850d-176eef759703","system_id":"levelo_inurba_marseille","lat":43.317075,"lon":5.377367,"is_reserved":false,"is_disabled":false,"rental_uris":{"android":"levelo://app?vid=576c5878-4eb6-4160-850d-176eef759703","ios":"levelo://app?vid=576c5878-4eb6-4160-850d-176eef759703"},"vehicle_type_id":"4","last_reported":1682546766,"current_range_meters":29200,"station_id":"ce4bgth2rcd13ifvqch0","pricing_plan_id":"free"},{"bike_id":"f094a077-e3e0-4ccb-965e-08e7e5476558","system_id":"levelo_inurba_marseille","lat":43.317075,"lon":5.377367,"is_reserved":false,"is_disabled":false,"rental_uris":{"android":"levelo://app?vid=f094a077-e3e0-4ccb-965e-08e7e5476558","ios":"levelo://app?vid=f094a077-e3e0-4ccb-965e-08e7e5476558"},"vehicle_type_id":"4","last_reported":1682546766,"current_range_meters":28000,"station_id":"ce4bgth2rcd13ifvqch0","pricing_plan_id":"free"},{"bike_id":"3c4e6c8c-df65-4deb-8995-f8befa733260","system_id":"levelo_inurba_marseille","lat":43.31534,"lon":5.37884,"is_reserved":false,"is_disabled":false,"rental_uris":{"android":"levelo://app?vid=3c4e6c8c-df65-4deb-8995-f8befa733260","ios":"levelo://app?vid=3c4e6c8c-df65-4deb-8995-f8befa733260"},"vehicle_type_id":"4","last_reported":1682546766,"current_range_meters":0,"station_id":"","pricing_plan_id":"free"},{"bike_id":"8e3f8ba3-f9aa-4d16-a320-d8529559cdae","system_id":"levelo_inurba_marseille","lat":43.31647,"lon":5.3783,"is_reserved":false,"is_disabled":false,"rental_uris":{"android":"levelo://app?vid=8e3f8ba3-f9aa-4d16-a320-d8529559cdae","ios":"levelo://app?vid=8e3f8ba3-f9aa-4d16-a320-d8529559cdae"},"vehicle_type_id":"4","last_reported":1682546766,"current_range_meters":5200,"station_id":"ce4bgth2rcd13ifvqch0","pricing_plan_id":"free"},{"bike_id":"a825ac59-7377-4ddb-a73a-ec7390d75b00","system_id":"levelo_inurba_marseille","lat":43.30304,"lon":5.368987,"is_reserved":false,"is_disabled":false,"rental_uris":{"android":"levelo://app?vid=a825ac59-7377-4ddb-a73a-ec7390d75b00","ios":"levelo://app?vid=a825ac59-7377-4ddb-a73a-ec7390d75b00"},"vehicle_type_id":"4","last_reported":1682546766,"current_range_meters":12800,"station_id":"ce4bgqh2rcd13ifvqc5g","pricing_plan_id":"free"},{"bike_id":"58b73f52-eed1-422b-a566-f1e117b0eaaf","system_id":"levelo_inurba_marseille","lat":43.30304,"lon":5.368987,"is_reserved":false,"is_disabled":false,"rental_uris":{"android":"levelo://app?vid=58b73f52-eed1-422b-a566-f1e117b0eaaf","ios":"levelo://app?vid=58b73f52-eed1-422b-a566-f1e117b0eaaf"},"vehicle_type_id":"4","last_reported":1682546766,"current_range_meters":28800,"station_id":"ce4bgqh2rcd13ifvqc5g","pricing_plan_id":"free"},{"bike_id":"42336433-212a-4522-a8e3-abaf8e1eb3a8","system_id":"levelo_inurba_marseille","lat":43.315289,"lon":5.380349,"is_reserved":false,"is_disabled":false,"rental_uris":{"android":"levelo://app?vid=42336433-212a-4522-a8e3-abaf8e1eb3a8","ios":"levelo://app?vid=42336433-212a-4522-a8e3-abaf8e1eb3a8"},"vehicle_type_id":"4","last_reported":1682546766,"current_range_meters":29600,"station_id":"ce4bhsp2rcd13ifvqi50","pricing_plan_id":"free"},{"bike_id":"03032757-504c-4ebd-bf26-6d76c5ac40db","system_id":"levelo_inurba_marseille","lat":43.31526,"lon":5.38033,"is_reserved":false,"is_disabled":false,"rental_uris":{"android":"levelo://app?vid=03032757-504c-4ebd-bf26-6d76c5ac40db","ios":"levelo://app?vid=03032757-504c-4ebd-bf26-6d76c5ac40db"},"vehicle_type_id":"4","last_reported":1682546766,"current_range_meters":29200,"station_id":"ce4bhsp2rcd13ifvqi50","pricing_plan_id":"free"},{"bike_id":"41296e31-c704-4ef8-b041-5da13ad6c6f8","system_id":"levelo_inurba_marseille","lat":43.315289,"lon":5.380349,"is_reserved":false,"is_disabled":false,"rental_uris":{"android":"levelo://app?vid=41296e31-c704-4ef8-b041-5da13ad6c6f8","ios":"levelo://app?vid=41296e31-c704-4ef8-b041-5da13ad6c6f8"},"vehicle_type_id":"4","last_reported":1682546766,"current_range_meters":30800,"station_id":"ce4bhsp2rcd13ifvqi50","pricing_plan_id":"free"},{"bike_id":"ac6eec29-0b83-493b-9b51-352a6a0d1d7e","system_id":"levelo_inurba_marseille","lat":43.301939,"lon":5.366286,"is_reserved":false,"is_disabled":false,"rental_uris":{"android":"levelo://app?vid=ac6eec29-0b83-493b-9b51-352a6a0d1d7e","ios":"levelo://app?vid=ac6eec29-0b83-493b-9b51-352a6a0d1d7e"},"vehicle_type_id":"4","last_reported":1682546766,"current_range_meters":28000,"station_id":"ce4bgrh2rcd13ifvqc8g","pricing_plan_id":"free"},{"bike_id":"a6071d95-e7eb-4170-8ce7-5e4a49764d23","system_id":"levelo_inurba_marseille","lat":43.308012,"lon":5.381511,"is_reserved":false,"is_disabled":false,"rental_uris":{"android":"levelo://app?vid=a6071d95-e7eb-4170-8ce7-5e4a49764d23","ios":"levelo://app?vid=a6071d95-e7eb-4170-8ce7-5e4a49764d23"},"vehicle_type_id":"4","last_reported":1682546766,"current_range_meters":16800,"station_id":"ce4bgt12rcd13ifvqce0","pricing_plan_id":"free"},{"bike_id":"93254147-5d36-4269-8397-de9ad89f3527","system_id":"levelo_inurba_marseille","lat":43.308012,"lon":5.381511,"is_reserved":false,"is_disabled":false,"rental_uris":{"android":"levelo://app?vid=93254147-5d36-4269-8397-de9ad89f3527","ios":"levelo://app?vid=93254147-5d36-4269-8397-de9ad89f3527"},"vehicle_type_id":"4","last_reported":1682546766,"current_range_meters":22800,"station_id":"ce4bgt12rcd13ifvqce0","pricing_plan_id":"free"},{"bike_id":"fa237cf5-5a56-400c-83f0-45a226e46de4","system_id":"levelo_inurba_marseille","lat":43.30264,"lon":5.3748,"is_reserved":false,"is_disabled":false,"rental_uris":{"android":"levelo://app?vid=fa237cf5-5a56-400c-83f0-45a226e46de4","ios":"levelo://app?vid=fa237cf5-5a56-400c-83f0-45a226e46de4"},"vehicle_type_id":"4","last_reported":1682546766,"current_range_meters":14400,"station_id":"","pricing_plan_id":"free"},{"bike_id":"ebf2ce59-fce0-4b9d-993a-6af8618fedd6","system_id":"levelo_inurba_marseille","lat":43.308012,"lon":5.381511,"is_reserved":false,"is_disabled":false,"rental_uris":{"android":"levelo://app?vid=ebf2ce59-fce0-4b9d-993a-6af8618fedd6","ios":"levelo://app?vid=ebf2ce59-fce0-4b9d-993a-6af8618fedd6"},"vehicle_type_id":"4","last_reported":1682546766,"current_range_meters":19200,"station_id":"ce4bgt12rcd13ifvqce0","pricing_plan_id":"free"},{"bike_id":"d465c244-60e1-4d0c-b355-fe7e4c7b4b98","system_id":"levelo_inurba_marseille","lat":43.308012,"lon":5.381511,"is_reserved":false,"is_disabled":false,"rental_uris":{"android":"levelo://app?vid=d465c244-60e1-4d0c-b355-fe7e4c7b4b98","ios":"levelo://app?vid=d465c244-60e1-4d0c-b355-fe7e4c7b4b98"},"vehicle_type_id":"4","last_reported":1682546766,"current_range_meters":28800,"station_id":"ce4bgt12rcd13ifvqce0","pricing_plan_id":"free"},{"bike_id":"ad960618-a769-4fd2-bc57-afd4c10745fd","system_id":"levelo_inurba_marseille","lat":43.308012,"lon":5.381511,"is_reserved":false,"is_disabled":false,"rental_uris":{"android":"levelo://app?vid=ad960618-a769-4fd2-bc57-afd4c10745fd","ios":"levelo://app?vid=ad960618-a769-4fd2-bc57-afd4c10745fd"},"vehicle_type_id":"4","last_reported":1682546766,"current_range_meters":27600,"station_id":"ce4bgt12rcd13ifvqce0","pricing_plan_id":"free"},{"bike_id":"382256a5-8ba9-4d04-85cb-7429942f80f1","system_id":"levelo_inurba_marseille","lat":43.308012,"lon":5.381511,"is_reserved":false,"is_disabled":false,"rental_uris":{"android":"levelo://app?vid=382256a5-8ba9-4d04-85cb-7429942f80f1","ios":"levelo://app?vid=382256a5-8ba9-4d04-85cb-7429942f80f1"},"vehicle_type_id":"4","last_reported":1682546766,"current_range_meters":4800,"station_id":"ce4bgt12rcd13ifvqce0","pricing_plan_id":"free"},{"bike_id":"396b1cdc-8243-4b8a-bf52-cd3516ca4a77","system_id":"levelo_inurba_marseille","lat":43.304606,"lon":5.379026,"is_reserved":false,"is_disabled":false,"rental_uris":{"android":"levelo://app?vid=396b1cdc-8243-4b8a-bf52-cd3516ca4a77","ios":"levelo://app?vid=396b1cdc-8243-4b8a-bf52-cd3516ca4a77"},"vehicle_type_id":"4","last_reported":1682546766,"current_range_meters":19600,"station_id":"ce4bgup2rcd13ifvqcn0","pricing_plan_id":"free"},{"bike_id":"53d0877a-8181-425a-9259-c66eeb353f3d","system_id":"levelo_inurba_marseille","lat":43.31429,"lon":5.38372,"is_reserved":false,"is_disabled":false,"rental_uris":{"android":"levelo://app?vid=53d0877a-8181-425a-9259-c66eeb353f3d","ios":"levelo://app?vid=53d0877a-8181-425a-9259-c66eeb353f3d"},"vehicle_type_id":"4","last_reported":1682546766,"current_range_meters":16800,"station_id":"","pricing_plan_id":"free"},{"bike_id":"bb2a8146-1abc-47ba-b623-44a47bfb0a5d","system_id":"levelo_inurba_marseille","lat":43.30143,"lon":5.37413,"is_reserved":false,"is_disabled":false,"rental_uris":{"android":"levelo://app?vid=bb2a8146-1abc-47ba-b623-44a47bfb0a5d","ios":"levelo://app?vid=bb2a8146-1abc-47ba-b623-44a47bfb0a5d"},"vehicle_type_id":"4","last_reported":1682546766,"current_range_meters":15600,"station_id":"ce4bgs92rcd13ifvqcc0","pricing_plan_id":"free"},{"bike_id":"c299c8c3-82b3-462f-a624-9473282923e1","system_id":"levelo_inurba_marseille","lat":43.30134,"lon":5.37424,"is_reserved":false,"is_disabled":false,"rental_uris":{"android":"levelo://app?vid=c299c8c3-82b3-462f-a624-9473282923e1","ios":"levelo://app?vid=c299c8c3-82b3-462f-a624-9473282923e1"},"vehicle_type_id":"4","last_reported":1682546766,"current_range_meters":24400,"station_id":"ce4bgs92rcd13ifvqcc0","pricing_plan_id":"free"},{"bike_id":"8dec9dcf-5cff-47c4-aec1-c78fb3298c2e","system_id":"levelo_inurba_marseille","lat":43.313571,"lon":5.384829,"is_reserved":false,"is_disabled":false,"rental_uris":{"android":"levelo://app?vid=8dec9dcf-5cff-47c4-aec1-c78fb3298c2e","ios":"levelo://app?vid=8dec9dcf-5cff-47c4-aec1-c78fb3298c2e"},"vehicle_type_id":"4","last_reported":1682546766,"current_range_meters":28800,"station_id":"ce4bgt92rcd13ifvqcf0","pricing_plan_id":"free"},{"bike_id":"8747514f-e7ae-4004-9e06-28c6f1f763ad","system_id":"levelo_inurba_marseille","lat":43.313571,"lon":5.384829,"is_reserved":false,"is_disabled":false,"rental_uris":{"android":"levelo://app?vid=8747514f-e7ae-4004-9e06-28c6f1f763ad","ios":"levelo://app?vid=8747514f-e7ae-4004-9e06-28c6f1f763ad"},"vehicle_type_id":"4","last_reported":1682546766,"current_range_meters":7200,"station_id":"ce4bgt92rcd13ifvqcf0","pricing_plan_id":"free"},{"bike_id":"c823acd4-9409-4844-bb05-cf301bf8be97","system_id":"levelo_inurba_marseille","lat":43.313571,"lon":5.384829,"is_reserved":false,"is_disabled":false,"rental_uris":{"android":"levelo://app?vid=c823acd4-9409-4844-bb05-cf301bf8be97","ios":"levelo://app?vid=c823acd4-9409-4844-bb05-cf301bf8be97"},"vehicle_type_id":"4","last_reported":1682546766,"current_range_meters":6800,"station_id":"ce4bgt92rcd13ifvqcf0","pricing_plan_id":"free"},{"bike_id":"93c83ded-5707-4d07-affe-863a9e321997","system_id":"levelo_inurba_marseille","lat":43.29936,"lon":5.36541,"is_reserved":false,"is_disabled":false,"rental_uris":{"android":"levelo://app?vid=93c83ded-5707-4d07-affe-863a9e321997","ios":"levelo://app?vid=93c83ded-5707-4d07-affe-863a9e321997"},"vehicle_type_id":"4","last_reported":1682546766,"current_range_meters":27600,"station_id":"ce4bgm92rcd13ifvqbr0","pricing_plan_id":"free"},{"bike_id":"d988b5dd-dedf-438c-bc8b-51950382c34d","system_id":"levelo_inurba_marseille","lat":43.299222,"lon":5.365554,"is_reserved":false,"is_disabled":false,"rental_uris":{"android":"levelo://app?vid=d988b5dd-dedf-438c-bc8b-51950382c34d","ios":"levelo://app?vid=d988b5dd-dedf-438c-bc8b-51950382c34d"},"vehicle_type_id":"4","last_reported":1682546766,"current_range_meters":3600,"station_id":"ce4bgm92rcd13ifvqbr0","pricing_plan_id":"free"},{"bike_id":"aed05689-5b9d-4dae-ae54-1069c9d6e5cf","system_id":"levelo_inurba_marseille","lat":43.299222,"lon":5.365554,"is_reserved":false,"is_disabled":false,"rental_uris":{"android":"levelo://app?vid=aed05689-5b9d-4dae-ae54-1069c9d6e5cf","ios":"levelo://app?vid=aed05689-5b9d-4dae-ae54-1069c9d6e5cf"},"vehicle_type_id":"4","last_reported":1682546766,"current_range_meters":23600,"station_id":"ce4bgm92rcd13ifvqbr0","pricing_plan_id":"free"},{"bike_id":"1303219a-6289-4fc4-9519-f62ae9e611a0","system_id":"levelo_inurba_marseille","lat":43.299222,"lon":5.365554,"is_reserved":false,"is_disabled":false,"rental_uris":{"android":"levelo://app?vid=1303219a-6289-4fc4-9519-f62ae9e611a0","ios":"levelo://app?vid=1303219a-6289-4fc4-9519-f62ae9e611a0"},"vehicle_type_id":"4","last_reported":1682546766,"current_range_meters":4400,"station_id":"ce4bgm92rcd13ifvqbr0","pricing_plan_id":"free"},{"bike_id":"801b3c97-e84e-489c-9215-e28f2659c2cd","system_id":"levelo_inurba_marseille","lat":43.299222,"lon":5.365554,"is_reserved":false,"is_disabled":false,"rental_uris":{"android":"levelo://app?vid=801b3c97-e84e-489c-9215-e28f2659c2cd","ios":"levelo://app?vid=801b3c97-e84e-489c-9215-e28f2659c2cd"},"vehicle_type_id":"4","last_reported":1682546766,"current_range_meters":23600,"station_id":"ce4bgm92rcd13ifvqbr0","pricing_plan_id":"free"},{"bike_id":"4f47da2e-38a9-4220-8010-4753127f0d29","system_id":"levelo_inurba_marseille","lat":43.29933,"lon":5.36528,"is_reserved":false,"is_disabled":false,"rental_uris":{"android":"levelo://app?vid=4f47da2e-38a9-4220-8010-4753127f0d29","ios":"levelo://app?vid=4f47da2e-38a9-4220-8010-4753127f0d29"},"vehicle_type_id":"4","last_reported":1682546766,"current_range_meters":17600,"station_id":"ce4bgm92rcd13ifvqbr0","pricing_plan_id":"free"},{"bike_id":"db2c9f36-dedf-4185-8c2e-f362837f4e7b","system_id":"levelo_inurba_marseille","lat":43.299222,"lon":5.365554,"is_reserved":false,"is_disabled":false,"rental_uris":{"android":"levelo://app?vid=db2c9f36-dedf-4185-8c2e-f362837f4e7b","ios":"levelo://app?vid=db2c9f36-dedf-4185-8c2e-f362837f4e7b"},"vehicle_type_id":"4","last_reported":1682546766,"current_range_meters":24000,"station_id":"ce4bgm92rcd13ifvqbr0","pricing_plan_id":"free"},{"bike_id":"5de51c49-731f-4ac7-b7a4-ec3e73f4fdbe","system_id":"levelo_inurba_marseille","lat":43.305364,"lon":5.384119,"is_reserved":false,"is_disabled":false,"rental_uris":{"android":"levelo://app?vid=5de51c49-731f-4ac7-b7a4-ec3e73f4fdbe","ios":"levelo://app?vid=5de51c49-731f-4ac7-b7a4-ec3e73f4fdbe"},"vehicle_type_id":"4","last_reported":1682546766,"current_range_meters":22000,"station_id":"ce4bgg92rcd13ifvqb30","pricing_plan_id":"free"},{"bike_id":"1f267c1a-e466-4eee-9e42-67237860370c","system_id":"levelo_inurba_marseille","lat":43.29853,"lon":5.36284,"is_reserved":false,"is_disabled":false,"rental_uris":{"android":"levelo://app?vid=1f267c1a-e466-4eee-9e42-67237860370c","ios":"levelo://app?vid=1f267c1a-e466-4eee-9e42-67237860370c"},"vehicle_type_id":"4","last_reported":1682546766,"current_range_meters":30800,"station_id":"ce4bgpp2rcd13ifvqc3g","pricing_plan_id":"free"},{"bike_id":"2de390bc-094a-40ef-9b7c-a3a3ac86c866","system_id":"levelo_inurba_marseille","lat":43.29852,"lon":5.36286,"is_reserved":false,"is_disabled":false,"rental_uris":{"android":"levelo://app?vid=2de390bc-094a-40ef-9b7c-a3a3ac86c866","ios":"levelo://app?vid=2de390bc-094a-40ef-9b7c-a3a3ac86c866"},"vehicle_type_id":"4","last_reported":1682546766,"current_range_meters":2000,"station_id":"ce4bgpp2rcd13ifvqc3g","pricing_plan_id":"free"},{"bike_id":"612f454c-1243-4a82-966d-a32e0829adc2","system_id":"levelo_inurba_marseille","lat":43.29851,"lon":5.36275,"is_reserved":false,"is_disabled":false,"rental_uris":{"android":"levelo://app?vid=612f454c-1243-4a82-966d-a32e0829adc2","ios":"levelo://app?vid=612f454c-1243-4a82-966d-a32e0829adc2"},"vehicle_type_id":"4","last_reported":1682546766,"current_range_meters":18400,"station_id":"ce4bgpp2rcd13ifvqc3g","pricing_plan_id":"free"},{"bike_id":"a058a8cf-8b69-40c8-8e2b-fdab3153f98f","system_id":"levelo_inurba_marseille","lat":43.305364,"lon":5.384119,"is_reserved":false,"is_disabled":false,"rental_uris":{"android":"levelo://app?vid=a058a8cf-8b69-40c8-8e2b-fdab3153f98f","ios":"levelo://app?vid=a058a8cf-8b69-40c8-8e2b-fdab3153f98f"},"vehicle_type_id":"4","last_reported":1682546766,"current_range_meters":26400,"station_id":"ce4bgg92rcd13ifvqb30","pricing_plan_id":"free"},{"bike_id":"a771f753-a5f9-4c3b-a1dd-bd27c261b635","system_id":"levelo_inurba_marseille","lat":43.305364,"lon":5.384119,"is_reserved":false,"is_disabled":false,"rental_uris":{"android":"levelo://app?vid=a771f753-a5f9-4c3b-a1dd-bd27c261b635","ios":"levelo://app?vid=a771f753-a5f9-4c3b-a1dd-bd27c261b635"},"vehicle_type_id":"4","last_reported":1682546766,"current_range_meters":23600,"station_id":"ce4bgg92rcd13ifvqb30","pricing_plan_id":"free"},{"bike_id":"53c1f536-e01e-4e2c-b5a4-33cee27132f1","system_id":"levelo_inurba_marseille","lat":43.305364,"lon":5.384119,"is_reserved":false,"is_disabled":false,"rental_uris":{"android":"levelo://app?vid=53c1f536-e01e-4e2c-b5a4-33cee27132f1","ios":"levelo://app?vid=53c1f536-e01e-4e2c-b5a4-33cee27132f1"},"vehicle_type_id":"4","last_reported":1682546766,"current_range_meters":30800,"station_id":"ce4bgg92rcd13ifvqb30","pricing_plan_id":"free"},{"bike_id":"c938efc0-11b3-4614-96d8-9c71a6e98ff8","system_id":"levelo_inurba_marseille","lat":43.305364,"lon":5.384119,"is_reserved":false,"is_disabled":false,"rental_uris":{"android":"levelo://app?vid=c938efc0-11b3-4614-96d8-9c71a6e98ff8","ios":"levelo://app?vid=c938efc0-11b3-4614-96d8-9c71a6e98ff8"},"vehicle_type_id":"4","last_reported":1682546766,"current_range_meters":31200,"station_id":"ce4bgg92rcd13ifvqb30","pricing_plan_id":"free"},{"bike_id":"6db889ae-3e91-472a-993c-20a664618433","system_id":"levelo_inurba_marseille","lat":43.29847,"lon":5.36279,"is_reserved":false,"is_disabled":false,"rental_uris":{"android":"levelo://app?vid=6db889ae-3e91-472a-993c-20a664618433","ios":"levelo://app?vid=6db889ae-3e91-472a-993c-20a664618433"},"vehicle_type_id":"4","last_reported":1682546766,"current_range_meters":31200,"station_id":"ce4bgpp2rcd13ifvqc3g","pricing_plan_id":"free"},{"bike_id":"4dc75263-71b0-4b9e-88f2-10f1ff956d21","system_id":"levelo_inurba_marseille","lat":43.305364,"lon":5.384119,"is_reserved":false,"is_disabled":false,"rental_uris":{"android":"levelo://app?vid=4dc75263-71b0-4b9e-88f2-10f1ff956d21","ios":"levelo://app?vid=4dc75263-71b0-4b9e-88f2-10f1ff956d21"},"vehicle_type_id":"4","last_reported":1682546766,"current_range_meters":31200,"station_id":"ce4bgg92rcd13ifvqb30","pricing_plan_id":"free"},{"bike_id":"f7f2779f-7c79-43e8-83a5-75b191fcd769","system_id":"levelo_inurba_marseille","lat":43.305364,"lon":5.384119,"is_reserved":false,"is_disabled":false,"rental_uris":{"android":"levelo://app?vid=f7f2779f-7c79-43e8-83a5-75b191fcd769","ios":"levelo://app?vid=f7f2779f-7c79-43e8-83a5-75b191fcd769"},"vehicle_type_id":"4","last_reported":1682546766,"current_range_meters":29600,"station_id":"ce4bgg92rcd13ifvqb30","pricing_plan_id":"free"},{"bike_id":"0c3324e6-3051-442b-aa68-5f4192a5c286","system_id":"levelo_inurba_marseille","lat":43.29845,"lon":5.36281,"is_reserved":false,"is_disabled":false,"rental_uris":{"android":"levelo://app?vid=0c3324e6-3051-442b-aa68-5f4192a5c286","ios":"levelo://app?vid=0c3324e6-3051-442b-aa68-5f4192a5c286"},"vehicle_type_id":"4","last_reported":1682546766,"current_range_meters":31200,"station_id":"ce4bgpp2rcd13ifvqc3g","pricing_plan_id":"free"},{"bike_id":"4b7aca8f-4c04-49b7-955e-139b24b635a1","system_id":"levelo_inurba_marseille","lat":43.305364,"lon":5.384119,"is_reserved":false,"is_disabled":false,"rental_uris":{"android":"levelo://app?vid=4b7aca8f-4c04-49b7-955e-139b24b635a1","ios":"levelo://app?vid=4b7aca8f-4c04-49b7-955e-139b24b635a1"},"vehicle_type_id":"4","last_reported":1682546766,"current_range_meters":27600,"station_id":"ce4bgg92rcd13ifvqb30","pricing_plan_id":"free"},{"bike_id":"a156fc89-a7d4-4012-a6d2-e752ffe0a6cb","system_id":"levelo_inurba_marseille","lat":43.298433,"lon":5.362774,"is_reserved":false,"is_disabled":false,"rental_uris":{"android":"levelo://app?vid=a156fc89-a7d4-4012-a6d2-e752ffe0a6cb","ios":"levelo://app?vid=a156fc89-a7d4-4012-a6d2-e752ffe0a6cb"},"vehicle_type_id":"4","last_reported":1682546766,"current_range_meters":31200,"station_id":"ce4bgpp2rcd13ifvqc3g","pricing_plan_id":"free"},{"bike_id":"b9f9b0b1-cd48-4dc5-a95a-a10ac50f0cb7","system_id":"levelo_inurba_marseille","lat":43.305364,"lon":5.384119,"is_reserved":false,"is_disabled":false,"rental_uris":{"android":"levelo://app?vid=b9f9b0b1-cd48-4dc5-a95a-a10ac50f0cb7","ios":"levelo://app?vid=b9f9b0b1-cd48-4dc5-a95a-a10ac50f0cb7"},"vehicle_type_id":"4","last_reported":1682546766,"current_range_meters":31200,"station_id":"ce4bgg92rcd13ifvqb30","pricing_plan_id":"free"},{"bike_id":"ab6d8543-709e-4c27-acc0-713e2d23bd26","system_id":"levelo_inurba_marseille","lat":43.29842,"lon":5.3629,"is_reserved":false,"is_disabled":false,"rental_uris":{"android":"levelo://app?vid=ab6d8543-709e-4c27-acc0-713e2d23bd26","ios":"levelo://app?vid=ab6d8543-709e-4c27-acc0-713e2d23bd26"},"vehicle_type_id":"4","last_reported":1682546766,"current_range_meters":2400,"station_id":"ce4bgpp2rcd13ifvqc3g","pricing_plan_id":"free"},{"bike_id":"a672ac66-edd9-45ad-a12a-d145d5bacffe","system_id":"levelo_inurba_marseille","lat":43.305364,"lon":5.384119,"is_reserved":false,"is_disabled":false,"rental_uris":{"android":"levelo://app?vid=a672ac66-edd9-45ad-a12a-d145d5bacffe","ios":"levelo://app?vid=a672ac66-edd9-45ad-a12a-d145d5bacffe"},"vehicle_type_id":"4","last_reported":1682546766,"current_range_meters":31200,"station_id":"ce4bgg92rcd13ifvqb30","pricing_plan_id":"free"},{"bike_id":"0a25f08c-fb31-4e14-8ef2-81f019566468","system_id":"levelo_inurba_marseille","lat":43.305364,"lon":5.384119,"is_reserved":false,"is_disabled":false,"rental_uris":{"android":"levelo://app?vid=0a25f08c-fb31-4e14-8ef2-81f019566468","ios":"levelo://app?vid=0a25f08c-fb31-4e14-8ef2-81f019566468"},"vehicle_type_id":"4","last_reported":1682546766,"current_range_meters":25200,"station_id":"ce4bgg92rcd13ifvqb30","pricing_plan_id":"free"},{"bike_id":"54f77e47-b920-4352-9c58-d64a75c4fbfd","system_id":"levelo_inurba_marseille","lat":43.29842,"lon":5.36281,"is_reserved":false,"is_disabled":false,"rental_uris":{"android":"levelo://app?vid=54f77e47-b920-4352-9c58-d64a75c4fbfd","ios":"levelo://app?vid=54f77e47-b920-4352-9c58-d64a75c4fbfd"},"vehicle_type_id":"4","last_reported":1682546766,"current_range_meters":31200,"station_id":"ce4bgpp2rcd13ifvqc3g","pricing_plan_id":"free"},{"bike_id":"c93ec441-65eb-4f9b-983b-ff57f24351d7","system_id":"levelo_inurba_marseille","lat":43.298433,"lon":5.362774,"is_reserved":false,"is_disabled":false,"rental_uris":{"android":"levelo://app?vid=c93ec441-65eb-4f9b-983b-ff57f24351d7","ios":"levelo://app?vid=c93ec441-65eb-4f9b-983b-ff57f24351d7"},"vehicle_type_id":"4","last_reported":1682546766,"current_range_meters":13200,"station_id":"ce4bgpp2rcd13ifvqc3g","pricing_plan_id":"free"},{"bike_id":"dc84be03-2bf6-45f5-aac7-fe711718fb04","system_id":"levelo_inurba_marseille","lat":43.298433,"lon":5.362774,"is_reserved":false,"is_disabled":false,"rental_uris":{"android":"levelo://app?vid=dc84be03-2bf6-45f5-aac7-fe711718fb04","ios":"levelo://app?vid=dc84be03-2bf6-45f5-aac7-fe711718fb04"},"vehicle_type_id":"4","last_reported":1682546766,"current_range_meters":30800,"station_id":"ce4bgpp2rcd13ifvqc3g","pricing_plan_id":"free"},{"bike_id":"c549780b-652f-4c39-b5ee-f88717601325","system_id":"levelo_inurba_marseille","lat":43.298433,"lon":5.362774,"is_reserved":false,"is_disabled":false,"rental_uris":{"android":"levelo://app?vid=c549780b-652f-4c39-b5ee-f88717601325","ios":"levelo://app?vid=c549780b-652f-4c39-b5ee-f88717601325"},"vehicle_type_id":"4","last_reported":1682546766,"current_range_meters":2400,"station_id":"ce4bgpp2rcd13ifvqc3g","pricing_plan_id":"free"},{"bike_id":"aa33121d-41a6-4b33-8fda-fa4fbf7653a6","system_id":"levelo_inurba_marseille","lat":43.298433,"lon":5.362774,"is_reserved":false,"is_disabled":false,"rental_uris":{"android":"levelo://app?vid=aa33121d-41a6-4b33-8fda-fa4fbf7653a6","ios":"levelo://app?vid=aa33121d-41a6-4b33-8fda-fa4fbf7653a6"},"vehicle_type_id":"4","last_reported":1682546766,"current_range_meters":21600,"station_id":"ce4bgpp2rcd13ifvqc3g","pricing_plan_id":"free"},{"bike_id":"ea09c223-db6b-4fd9-9cce-7f228158e841","system_id":"levelo_inurba_marseille","lat":43.305364,"lon":5.384119,"is_reserved":false,"is_disabled":false,"rental_uris":{"android":"levelo://app?vid=ea09c223-db6b-4fd9-9cce-7f228158e841","ios":"levelo://app?vid=ea09c223-db6b-4fd9-9cce-7f228158e841"},"vehicle_type_id":"4","last_reported":1682546766,"current_range_meters":23200,"station_id":"ce4bgg92rcd13ifvqb30","pricing_plan_id":"free"},{"bike_id":"ba7d5993-5f1a-4705-9d79-dd8741076d99","system_id":"levelo_inurba_marseille","lat":43.298433,"lon":5.362774,"is_reserved":false,"is_disabled":false,"rental_uris":{"android":"levelo://app?vid=ba7d5993-5f1a-4705-9d79-dd8741076d99","ios":"levelo://app?vid=ba7d5993-5f1a-4705-9d79-dd8741076d99"},"vehicle_type_id":"4","last_reported":1682546766,"current_range_meters":30800,"station_id":"ce4bgpp2rcd13ifvqc3g","pricing_plan_id":"free"},{"bike_id":"467ebec5-d049-401d-8d3e-66d9ea09690e","system_id":"levelo_inurba_marseille","lat":43.298433,"lon":5.362774,"is_reserved":false,"is_disabled":false,"rental_uris":{"android":"levelo://app?vid=467ebec5-d049-401d-8d3e-66d9ea09690e","ios":"levelo://app?vid=467ebec5-d049-401d-8d3e-66d9ea09690e"},"vehicle_type_id":"4","last_reported":1682546766,"current_range_meters":30400,"station_id":"ce4bgpp2rcd13ifvqc3g","pricing_plan_id":"free"},{"bike_id":"eb6fed4c-ae88-4dda-91ad-a6615c9233d2","system_id":"levelo_inurba_marseille","lat":43.298433,"lon":5.362774,"is_reserved":false,"is_disabled":false,"rental_uris":{"android":"levelo://app?vid=eb6fed4c-ae88-4dda-91ad-a6615c9233d2","ios":"levelo://app?vid=eb6fed4c-ae88-4dda-91ad-a6615c9233d2"},"vehicle_type_id":"4","last_reported":1682546766,"current_range_meters":31200,"station_id":"ce4bgpp2rcd13ifvqc3g","pricing_plan_id":"free"},{"bike_id":"f3c295e8-bae1-409d-bf6e-d964eb8927c3","system_id":"levelo_inurba_marseille","lat":43.32743,"lon":5.36707,"is_reserved":false,"is_disabled":false,"rental_uris":{"android":"levelo://app?vid=f3c295e8-bae1-409d-bf6e-d964eb8927c3","ios":"levelo://app?vid=f3c295e8-bae1-409d-bf6e-d964eb8927c3"},"vehicle_type_id":"4","last_reported":1682546766,"current_range_meters":15600,"station_id":"","pricing_plan_id":"free"},{"bike_id":"b0eeeab1-625a-49e8-9159-7d34760cc666","system_id":"levelo_inurba_marseille","lat":43.29838,"lon":5.36263,"is_reserved":false,"is_disabled":false,"rental_uris":{"android":"levelo://app?vid=b0eeeab1-625a-49e8-9159-7d34760cc666","ios":"levelo://app?vid=b0eeeab1-625a-49e8-9159-7d34760cc666"},"vehicle_type_id":"4","last_reported":1682546766,"current_range_meters":14800,"station_id":"ce4bgpp2rcd13ifvqc3g","pricing_plan_id":"free"},{"bike_id":"2628c25f-c1e4-4125-8773-0a716600d547","system_id":"levelo_inurba_marseille","lat":43.298433,"lon":5.362774,"is_reserved":false,"is_disabled":false,"rental_uris":{"android":"levelo://app?vid=2628c25f-c1e4-4125-8773-0a716600d547","ios":"levelo://app?vid=2628c25f-c1e4-4125-8773-0a716600d547"},"vehicle_type_id":"4","last_reported":1682546766,"current_range_meters":19600,"station_id":"ce4bgpp2rcd13ifvqc3g","pricing_plan_id":"free"},{"bike_id":"35c62913-6d6b-4c4a-83fd-fbcfe34dd554","system_id":"levelo_inurba_marseille","lat":43.311722,"lon":5.387247,"is_reserved":false,"is_disabled":false,"rental_uris":{"android":"levelo://app?vid=35c62913-6d6b-4c4a-83fd-fbcfe34dd554","ios":"levelo://app?vid=35c62913-6d6b-4c4a-83fd-fbcfe34dd554"},"vehicle_type_id":"4","last_reported":1682546766,"current_range_meters":31200,"station_id":"ce4bgv12rcd13ifvqcp0","pricing_plan_id":"free"},{"bike_id":"18b973e8-e1fc-49c4-85dd-2406b81230f9","system_id":"levelo_inurba_marseille","lat":43.305364,"lon":5.384119,"is_reserved":false,"is_disabled":false,"rental_uris":{"android":"levelo://app?vid=18b973e8-e1fc-49c4-85dd-2406b81230f9","ios":"levelo://app?vid=18b973e8-e1fc-49c4-85dd-2406b81230f9"},"vehicle_type_id":"4","last_reported":1682546766,"current_range_meters":28400,"station_id":"ce4bgg92rcd13ifvqb30","pricing_plan_id":"free"},{"bike_id":"7ebf990c-74b0-4552-947d-fa52934e3ffd","system_id":"levelo_inurba_marseille","lat":43.311722,"lon":5.387247,"is_reserved":false,"is_disabled":false,"rental_uris":{"android":"levelo://app?vid=7ebf990c-74b0-4552-947d-fa52934e3ffd","ios":"levelo://app?vid=7ebf990c-74b0-4552-947d-fa52934e3ffd"},"vehicle_type_id":"4","last_reported":1682546766,"current_range_meters":9200,"station_id":"ce4bgv12rcd13ifvqcp0","pricing_plan_id":"free"},{"bike_id":"935cc019-c8d4-4f08-b7ae-0d95c07915b9","system_id":"levelo_inurba_marseille","lat":43.311722,"lon":5.387247,"is_reserved":false,"is_disabled":false,"rental_uris":{"android":"levelo://app?vid=935cc019-c8d4-4f08-b7ae-0d95c07915b9","ios":"levelo://app?vid=935cc019-c8d4-4f08-b7ae-0d95c07915b9"},"vehicle_type_id":"4","last_reported":1682546766,"current_range_meters":20400,"station_id":"ce4bgv12rcd13ifvqcp0","pricing_plan_id":"free"},{"bike_id":"683058d7-adcd-4c7a-9453-fb67ae1befa1","system_id":"levelo_inurba_marseille","lat":43.311722,"lon":5.387247,"is_reserved":false,"is_disabled":false,"rental_uris":{"android":"levelo://app?vid=683058d7-adcd-4c7a-9453-fb67ae1befa1","ios":"levelo://app?vid=683058d7-adcd-4c7a-9453-fb67ae1befa1"},"vehicle_type_id":"4","last_reported":1682546766,"current_range_meters":22800,"station_id":"ce4bgv12rcd13ifvqcp0","pricing_plan_id":"free"},{"bike_id":"712fac27-2a18-4187-94a9-03aac0a37042","system_id":"levelo_inurba_marseille","lat":43.311722,"lon":5.387247,"is_reserved":false,"is_disabled":false,"rental_uris":{"android":"levelo://app?vid=712fac27-2a18-4187-94a9-03aac0a37042","ios":"levelo://app?vid=712fac27-2a18-4187-94a9-03aac0a37042"},"vehicle_type_id":"4","last_reported":1682546766,"current_range_meters":14800,"station_id":"ce4bgv12rcd13ifvqcp0","pricing_plan_id":"free"},{"bike_id":"c6623219-2381-4f2d-bd2a-5a8974543b06","system_id":"levelo_inurba_marseille","lat":43.29903,"lon":5.3748,"is_reserved":false,"is_disabled":false,"rental_uris":{"android":"levelo://app?vid=c6623219-2381-4f2d-bd2a-5a8974543b06","ios":"levelo://app?vid=c6623219-2381-4f2d-bd2a-5a8974543b06"},"vehicle_type_id":"4","last_reported":1682546766,"current_range_meters":17600,"station_id":"ce4bgjh2rcd13ifvqbg0","pricing_plan_id":"free"},{"bike_id":"f1315b52-e4f5-40a3-893b-89fe7086a095","system_id":"levelo_inurba_marseille","lat":43.297794,"lon":5.370888,"is_reserved":false,"is_disabled":false,"rental_uris":{"android":"levelo://app?vid=f1315b52-e4f5-40a3-893b-89fe7086a095","ios":"levelo://app?vid=f1315b52-e4f5-40a3-893b-89fe7086a095"},"vehicle_type_id":"4","last_reported":1682546766,"current_range_meters":24000,"station_id":"ce4bgop2rcd13ifvqc1g","pricing_plan_id":"free"},{"bike_id":"d2df65ce-b4dc-4c0b-a901-992ea7fa0760","system_id":"levelo_inurba_marseille","lat":43.297794,"lon":5.370888,"is_reserved":false,"is_disabled":false,"rental_uris":{"android":"levelo://app?vid=d2df65ce-b4dc-4c0b-a901-992ea7fa0760","ios":"levelo://app?vid=d2df65ce-b4dc-4c0b-a901-992ea7fa0760"},"vehicle_type_id":"4","last_reported":1682546766,"current_range_meters":30400,"station_id":"ce4bgop2rcd13ifvqc1g","pricing_plan_id":"free"},{"bike_id":"87ff977b-beca-4c7f-a135-0ea1f5a3ca76","system_id":"levelo_inurba_marseille","lat":43.29944,"lon":5.37729,"is_reserved":false,"is_disabled":false,"rental_uris":{"android":"levelo://app?vid=87ff977b-beca-4c7f-a135-0ea1f5a3ca76","ios":"levelo://app?vid=87ff977b-beca-4c7f-a135-0ea1f5a3ca76"},"vehicle_type_id":"4","last_reported":1682546766,"current_range_meters":8800,"station_id":"","pricing_plan_id":"free"},{"bike_id":"a07b6f04-6ed4-41f2-b90a-863cc4ca5121","system_id":"levelo_inurba_marseille","lat":43.32816,"lon":5.36682,"is_reserved":false,"is_disabled":false,"rental_uris":{"android":"levelo://app?vid=a07b6f04-6ed4-41f2-b90a-863cc4ca5121","ios":"levelo://app?vid=a07b6f04-6ed4-41f2-b90a-863cc4ca5121"},"vehicle_type_id":"4","last_reported":1682546766,"current_range_meters":14400,"station_id":"ce4bhs92rcd13ifvqi0g","pricing_plan_id":"free"},{"bike_id":"f47e9305-1388-4838-94e3-4dd46bb086c2","system_id":"levelo_inurba_marseille","lat":43.32823,"lon":5.36684,"is_reserved":false,"is_disabled":false,"rental_uris":{"android":"levelo://app?vid=f47e9305-1388-4838-94e3-4dd46bb086c2","ios":"levelo://app?vid=f47e9305-1388-4838-94e3-4dd46bb086c2"},"vehicle_type_id":"4","last_reported":1682546766,"current_range_meters":13600,"station_id":"ce4bhs92rcd13ifvqi0g","pricing_plan_id":"free"},{"bike_id":"f5330e98-3000-4a99-b839-c61fb48a0b7d","system_id":"levelo_inurba_marseille","lat":43.328371,"lon":5.366912,"is_reserved":false,"is_disabled":false,"rental_uris":{"android":"levelo://app?vid=f5330e98-3000-4a99-b839-c61fb48a0b7d","ios":"levelo://app?vid=f5330e98-3000-4a99-b839-c61fb48a0b7d"},"vehicle_type_id":"4","last_reported":1682546766,"current_range_meters":23200,"station_id":"ce4bhs92rcd13ifvqi0g","pricing_plan_id":"free"},{"bike_id":"d2d6a94b-9a6f-48e0-952b-1e6a1dfd67d1","system_id":"levelo_inurba_marseille","lat":43.32824,"lon":5.36677,"is_reserved":false,"is_disabled":false,"rental_uris":{"android":"levelo://app?vid=d2d6a94b-9a6f-48e0-952b-1e6a1dfd67d1","ios":"levelo://app?vid=d2d6a94b-9a6f-48e0-952b-1e6a1dfd67d1"},"vehicle_type_id":"4","last_reported":1682546766,"current_range_meters":25600,"station_id":"ce4bhs92rcd13ifvqi0g","pricing_plan_id":"free"},{"bike_id":"98f06e54-70f0-4b6a-8611-f39b45bed021","system_id":"levelo_inurba_marseille","lat":43.32824,"lon":5.36675,"is_reserved":false,"is_disabled":false,"rental_uris":{"android":"levelo://app?vid=98f06e54-70f0-4b6a-8611-f39b45bed021","ios":"levelo://app?vid=98f06e54-70f0-4b6a-8611-f39b45bed021"},"vehicle_type_id":"4","last_reported":1682546766,"current_range_meters":20400,"station_id":"ce4bhs92rcd13ifvqi0g","pricing_plan_id":"free"},{"bike_id":"dd9cb7c9-79dd-4c62-a206-3d1b70644960","system_id":"levelo_inurba_marseille","lat":43.328371,"lon":5.366912,"is_reserved":false,"is_disabled":false,"rental_uris":{"android":"levelo://app?vid=dd9cb7c9-79dd-4c62-a206-3d1b70644960","ios":"levelo://app?vid=dd9cb7c9-79dd-4c62-a206-3d1b70644960"},"vehicle_type_id":"4","last_reported":1682546766,"current_range_meters":25200,"station_id":"ce4bhs92rcd13ifvqi0g","pricing_plan_id":"free"},{"bike_id":"04ea76ac-c581-4b8b-9be6-f04ea62fd801","system_id":"levelo_inurba_marseille","lat":43.32829,"lon":5.36677,"is_reserved":false,"is_disabled":false,"rental_uris":{"android":"levelo://app?vid=04ea76ac-c581-4b8b-9be6-f04ea62fd801","ios":"levelo://app?vid=04ea76ac-c581-4b8b-9be6-f04ea62fd801"},"vehicle_type_id":"4","last_reported":1682546766,"current_range_meters":24400,"station_id":"ce4bhs92rcd13ifvqi0g","pricing_plan_id":"free"},{"bike_id":"9676aa1f-f945-4230-935a-2cebc730d62d","system_id":"levelo_inurba_marseille","lat":43.328371,"lon":5.366912,"is_reserved":false,"is_disabled":false,"rental_uris":{"android":"levelo://app?vid=9676aa1f-f945-4230-935a-2cebc730d62d","ios":"levelo://app?vid=9676aa1f-f945-4230-935a-2cebc730d62d"},"vehicle_type_id":"4","last_reported":1682546766,"current_range_meters":20800,"station_id":"ce4bhs92rcd13ifvqi0g","pricing_plan_id":"free"},{"bike_id":"76dbed2f-5e85-4918-ac58-10982dbf4a37","system_id":"levelo_inurba_marseille","lat":43.328371,"lon":5.366912,"is_reserved":false,"is_disabled":false,"rental_uris":{"android":"levelo://app?vid=76dbed2f-5e85-4918-ac58-10982dbf4a37","ios":"levelo://app?vid=76dbed2f-5e85-4918-ac58-10982dbf4a37"},"vehicle_type_id":"4","last_reported":1682546766,"current_range_meters":800,"station_id":"ce4bhs92rcd13ifvqi0g","pricing_plan_id":"free"},{"bike_id":"40e120c1-341c-4eb9-af16-4922003687fa","system_id":"levelo_inurba_marseille","lat":43.328371,"lon":5.366912,"is_reserved":false,"is_disabled":false,"rental_uris":{"android":"levelo://app?vid=40e120c1-341c-4eb9-af16-4922003687fa","ios":"levelo://app?vid=40e120c1-341c-4eb9-af16-4922003687fa"},"vehicle_type_id":"4","last_reported":1682546766,"current_range_meters":24000,"station_id":"ce4bhs92rcd13ifvqi0g","pricing_plan_id":"free"},{"bike_id":"6eaef6cc-1e34-406a-a675-cdb32bb320c1","system_id":"levelo_inurba_marseille","lat":43.328371,"lon":5.366912,"is_reserved":false,"is_disabled":false,"rental_uris":{"android":"levelo://app?vid=6eaef6cc-1e34-406a-a675-cdb32bb320c1","ios":"levelo://app?vid=6eaef6cc-1e34-406a-a675-cdb32bb320c1"},"vehicle_type_id":"4","last_reported":1682546766,"current_range_meters":19200,"station_id":"ce4bhs92rcd13ifvqi0g","pricing_plan_id":"free"},{"bike_id":"20a10097-224b-4875-a224-7e2e7ba26c0f","system_id":"levelo_inurba_marseille","lat":43.328371,"lon":5.366912,"is_reserved":false,"is_disabled":false,"rental_uris":{"android":"levelo://app?vid=20a10097-224b-4875-a224-7e2e7ba26c0f","ios":"levelo://app?vid=20a10097-224b-4875-a224-7e2e7ba26c0f"},"vehicle_type_id":"4","last_reported":1682546766,"current_range_meters":26800,"station_id":"ce4bhs92rcd13ifvqi0g","pricing_plan_id":"free"},{"bike_id":"afa738f0-637c-404d-a6d4-c9511e08f50c","system_id":"levelo_inurba_marseille","lat":43.328371,"lon":5.366912,"is_reserved":false,"is_disabled":false,"rental_uris":{"android":"levelo://app?vid=afa738f0-637c-404d-a6d4-c9511e08f50c","ios":"levelo://app?vid=afa738f0-637c-404d-a6d4-c9511e08f50c"},"vehicle_type_id":"4","last_reported":1682546766,"current_range_meters":6000,"station_id":"ce4bhs92rcd13ifvqi0g","pricing_plan_id":"free"},{"bike_id":"3465bd78-9cf1-4302-9b2d-da15145258cd","system_id":"levelo_inurba_marseille","lat":43.328371,"lon":5.366912,"is_reserved":false,"is_disabled":false,"rental_uris":{"android":"levelo://app?vid=3465bd78-9cf1-4302-9b2d-da15145258cd","ios":"levelo://app?vid=3465bd78-9cf1-4302-9b2d-da15145258cd"},"vehicle_type_id":"4","last_reported":1682546766,"current_range_meters":7200,"station_id":"ce4bhs92rcd13ifvqi0g","pricing_plan_id":"free"},{"bike_id":"2d8e2b35-bd7d-4b83-b94d-43a333a4a09a","system_id":"levelo_inurba_marseille","lat":43.32833,"lon":5.36676,"is_reserved":false,"is_disabled":false,"rental_uris":{"android":"levelo://app?vid=2d8e2b35-bd7d-4b83-b94d-43a333a4a09a","ios":"levelo://app?vid=2d8e2b35-bd7d-4b83-b94d-43a333a4a09a"},"vehicle_type_id":"4","last_reported":1682546766,"current_range_meters":2800,"station_id":"ce4bhs92rcd13ifvqi0g","pricing_plan_id":"free"},{"bike_id":"fad0a8eb-782a-4641-90c0-ef5b6f4ff075","system_id":"levelo_inurba_marseille","lat":43.29573,"lon":5.367355,"is_reserved":false,"is_disabled":false,"rental_uris":{"android":"levelo://app?vid=fad0a8eb-782a-4641-90c0-ef5b6f4ff075","ios":"levelo://app?vid=fad0a8eb-782a-4641-90c0-ef5b6f4ff075"},"vehicle_type_id":"4","last_reported":1682546766,"current_range_meters":19600,"station_id":"ce4bgph2rcd13ifvqc2g","pricing_plan_id":"free"},{"bike_id":"5ab58e34-3e77-4c7c-9e3e-288a891421cb","system_id":"levelo_inurba_marseille","lat":43.296131,"lon":5.370773,"is_reserved":false,"is_disabled":false,"rental_uris":{"android":"levelo://app?vid=5ab58e34-3e77-4c7c-9e3e-288a891421cb","ios":"levelo://app?vid=5ab58e34-3e77-4c7c-9e3e-288a891421cb"},"vehicle_type_id":"4","last_reported":1682546766,"current_range_meters":26000,"station_id":"ce4bgnh2rcd13ifvqc0g","pricing_plan_id":"free"},{"bike_id":"08dd1cfb-32bb-4cca-9627-c5905a675505","system_id":"levelo_inurba_marseille","lat":43.29586,"lon":5.36737,"is_reserved":false,"is_disabled":false,"rental_uris":{"android":"levelo://app?vid=08dd1cfb-32bb-4cca-9627-c5905a675505","ios":"levelo://app?vid=08dd1cfb-32bb-4cca-9627-c5905a675505"},"vehicle_type_id":"4","last_reported":1682546766,"current_range_meters":14000,"station_id":"ce4bgph2rcd13ifvqc2g","pricing_plan_id":"free"},{"bike_id":"c2cf5a41-06b7-42e5-9eb4-a630b0556380","system_id":"levelo_inurba_marseille","lat":43.29573,"lon":5.367355,"is_reserved":false,"is_disabled":false,"rental_uris":{"android":"levelo://app?vid=c2cf5a41-06b7-42e5-9eb4-a630b0556380","ios":"levelo://app?vid=c2cf5a41-06b7-42e5-9eb4-a630b0556380"},"vehicle_type_id":"4","last_reported":1682546766,"current_range_meters":15200,"station_id":"ce4bgph2rcd13ifvqc2g","pricing_plan_id":"free"},{"bike_id":"2f8fb096-82c0-41c7-8130-1c078a6d14ed","system_id":"levelo_inurba_marseille","lat":43.29585,"lon":5.36739,"is_reserved":false,"is_disabled":false,"rental_uris":{"android":"levelo://app?vid=2f8fb096-82c0-41c7-8130-1c078a6d14ed","ios":"levelo://app?vid=2f8fb096-82c0-41c7-8130-1c078a6d14ed"},"vehicle_type_id":"4","last_reported":1682546766,"current_range_meters":6000,"station_id":"ce4bgph2rcd13ifvqc2g","pricing_plan_id":"free"},{"bike_id":"fe6a5745-1e75-4f28-9346-2fabae231a82","system_id":"levelo_inurba_marseille","lat":43.29573,"lon":5.367355,"is_reserved":false,"is_disabled":false,"rental_uris":{"android":"levelo://app?vid=fe6a5745-1e75-4f28-9346-2fabae231a82","ios":"levelo://app?vid=fe6a5745-1e75-4f28-9346-2fabae231a82"},"vehicle_type_id":"4","last_reported":1682546766,"current_range_meters":5600,"station_id":"ce4bgph2rcd13ifvqc2g","pricing_plan_id":"free"},{"bike_id":"7d2a091c-f414-4e1c-994e-0be5437df151","system_id":"levelo_inurba_marseille","lat":43.29573,"lon":5.367355,"is_reserved":false,"is_disabled":false,"rental_uris":{"android":"levelo://app?vid=7d2a091c-f414-4e1c-994e-0be5437df151","ios":"levelo://app?vid=7d2a091c-f414-4e1c-994e-0be5437df151"},"vehicle_type_id":"4","last_reported":1682546766,"current_range_meters":11600,"station_id":"ce4bgph2rcd13ifvqc2g","pricing_plan_id":"free"},{"bike_id":"0a72565d-5591-4a67-b59d-c3ed56a294a9","system_id":"levelo_inurba_marseille","lat":43.29581,"lon":5.36736,"is_reserved":false,"is_disabled":false,"rental_uris":{"android":"levelo://app?vid=0a72565d-5591-4a67-b59d-c3ed56a294a9","ios":"levelo://app?vid=0a72565d-5591-4a67-b59d-c3ed56a294a9"},"vehicle_type_id":"4","last_reported":1682546766,"current_range_meters":1200,"station_id":"ce4bgph2rcd13ifvqc2g","pricing_plan_id":"free"},{"bike_id":"d6e201c1-5626-4977-9acd-59939bf267b3","system_id":"levelo_inurba_marseille","lat":43.29581,"lon":5.36738,"is_reserved":false,"is_disabled":false,"rental_uris":{"android":"levelo://app?vid=d6e201c1-5626-4977-9acd-59939bf267b3","ios":"levelo://app?vid=d6e201c1-5626-4977-9acd-59939bf267b3"},"vehicle_type_id":"4","last_reported":1682546766,"current_range_meters":24000,"station_id":"ce4bgph2rcd13ifvqc2g","pricing_plan_id":"free"},{"bike_id":"18428660-00f6-48fa-8d16-6bc8735fc0af","system_id":"levelo_inurba_marseille","lat":43.29581,"lon":5.36744,"is_reserved":false,"is_disabled":false,"rental_uris":{"android":"levelo://app?vid=18428660-00f6-48fa-8d16-6bc8735fc0af","ios":"levelo://app?vid=18428660-00f6-48fa-8d16-6bc8735fc0af"},"vehicle_type_id":"4","last_reported":1682546766,"current_range_meters":15600,"station_id":"ce4bgph2rcd13ifvqc2g","pricing_plan_id":"free"},{"bike_id":"5341a132-e3c5-4d92-b30e-92430de2c4d4","system_id":"levelo_inurba_marseille","lat":43.29579,"lon":5.36734,"is_reserved":false,"is_disabled":false,"rental_uris":{"android":"levelo://app?vid=5341a132-e3c5-4d92-b30e-92430de2c4d4","ios":"levelo://app?vid=5341a132-e3c5-4d92-b30e-92430de2c4d4"},"vehicle_type_id":"4","last_reported":1682546766,"current_range_meters":8400,"station_id":"ce4bgph2rcd13ifvqc2g","pricing_plan_id":"free"},{"bike_id":"f12d2c6c-8c23-49a3-b14e-de669eace127","system_id":"levelo_inurba_marseille","lat":43.29579,"lon":5.36735,"is_reserved":false,"is_disabled":false,"rental_uris":{"android":"levelo://app?vid=f12d2c6c-8c23-49a3-b14e-de669eace127","ios":"levelo://app?vid=f12d2c6c-8c23-49a3-b14e-de669eace127"},"vehicle_type_id":"4","last_reported":1682546766,"current_range_meters":31200,"station_id":"ce4bgph2rcd13ifvqc2g","pricing_plan_id":"free"},{"bike_id":"c1c6a708-dc94-4268-8899-d22f49773865","system_id":"levelo_inurba_marseille","lat":43.29579,"lon":5.36736,"is_reserved":false,"is_disabled":false,"rental_uris":{"android":"levelo://app?vid=c1c6a708-dc94-4268-8899-d22f49773865","ios":"levelo://app?vid=c1c6a708-dc94-4268-8899-d22f49773865"},"vehicle_type_id":"4","last_reported":1682546766,"current_range_meters":19200,"station_id":"ce4bgph2rcd13ifvqc2g","pricing_plan_id":"free"},{"bike_id":"10333cc2-f1d1-40c6-a3b9-453cb2b06c51","system_id":"levelo_inurba_marseille","lat":43.29573,"lon":5.367355,"is_reserved":false,"is_disabled":false,"rental_uris":{"android":"levelo://app?vid=10333cc2-f1d1-40c6-a3b9-453cb2b06c51","ios":"levelo://app?vid=10333cc2-f1d1-40c6-a3b9-453cb2b06c51"},"vehicle_type_id":"4","last_reported":1682546766,"current_range_meters":28800,"station_id":"ce4bgph2rcd13ifvqc2g","pricing_plan_id":"free"},{"bike_id":"c1007e75-1941-4357-a1bf-4c30b1d5bffe","system_id":"levelo_inurba_marseille","lat":43.29573,"lon":5.367355,"is_reserved":false,"is_disabled":false,"rental_uris":{"android":"levelo://app?vid=c1007e75-1941-4357-a1bf-4c30b1d5bffe","ios":"levelo://app?vid=c1007e75-1941-4357-a1bf-4c30b1d5bffe"},"vehicle_type_id":"4","last_reported":1682546766,"current_range_meters":9600,"station_id":"ce4bgph2rcd13ifvqc2g","pricing_plan_id":"free"},{"bike_id":"fd4e2272-2282-433b-bba4-4825fa0285ef","system_id":"levelo_inurba_marseille","lat":43.299028,"lon":5.381509,"is_reserved":false,"is_disabled":false,"rental_uris":{"android":"levelo://app?vid=fd4e2272-2282-433b-bba4-4825fa0285ef","ios":"levelo://app?vid=fd4e2272-2282-433b-bba4-4825fa0285ef"},"vehicle_type_id":"4","last_reported":1682546766,"current_range_meters":24400,"station_id":"ce4bgj12rcd13ifvqbc0","pricing_plan_id":"free"},{"bike_id":"cb9acae0-c04b-4272-b00c-9e7cd718d573","system_id":"levelo_inurba_marseille","lat":43.299091,"lon":5.381416,"is_reserved":false,"is_disabled":false,"rental_uris":{"android":"levelo://app?vid=cb9acae0-c04b-4272-b00c-9e7cd718d573","ios":"levelo://app?vid=cb9acae0-c04b-4272-b00c-9e7cd718d573"},"vehicle_type_id":"4","last_reported":1682546766,"current_range_meters":31200,"station_id":"ce4bgj12rcd13ifvqbc0","pricing_plan_id":"free"},{"bike_id":"6bc8193d-c9a7-4ca2-9509-ea0280ad04dd","system_id":"levelo_inurba_marseille","lat":43.299028,"lon":5.381509,"is_reserved":false,"is_disabled":false,"rental_uris":{"android":"levelo://app?vid=6bc8193d-c9a7-4ca2-9509-ea0280ad04dd","ios":"levelo://app?vid=6bc8193d-c9a7-4ca2-9509-ea0280ad04dd"},"vehicle_type_id":"4","last_reported":1682546766,"current_range_meters":31200,"station_id":"ce4bgj12rcd13ifvqbc0","pricing_plan_id":"free"},{"bike_id":"2600ba80-071b-43ec-a6f4-373d4f616e74","system_id":"levelo_inurba_marseille","lat":43.299028,"lon":5.381509,"is_reserved":false,"is_disabled":false,"rental_uris":{"android":"levelo://app?vid=2600ba80-071b-43ec-a6f4-373d4f616e74","ios":"levelo://app?vid=2600ba80-071b-43ec-a6f4-373d4f616e74"},"vehicle_type_id":"4","last_reported":1682546766,"current_range_meters":31200,"station_id":"ce4bgj12rcd13ifvqbc0","pricing_plan_id":"free"},{"bike_id":"c0470283-7461-4701-b7e3-1ce9a7f4306c","system_id":"levelo_inurba_marseille","lat":43.29705,"lon":5.37701,"is_reserved":false,"is_disabled":false,"rental_uris":{"android":"levelo://app?vid=c0470283-7461-4701-b7e3-1ce9a7f4306c","ios":"levelo://app?vid=c0470283-7461-4701-b7e3-1ce9a7f4306c"},"vehicle_type_id":"4","last_reported":1682546766,"current_range_meters":30800,"station_id":"","pricing_plan_id":"free"},{"bike_id":"73e08ed4-d4e3-4cc9-98b2-dde9dd68ff11","system_id":"levelo_inurba_marseille","lat":43.317557,"lon":5.390173,"is_reserved":false,"is_disabled":false,"rental_uris":{"android":"levelo://app?vid=73e08ed4-d4e3-4cc9-98b2-dde9dd68ff11","ios":"levelo://app?vid=73e08ed4-d4e3-4cc9-98b2-dde9dd68ff11"},"vehicle_type_id":"4","last_reported":1682546766,"current_range_meters":0,"station_id":"ce4bhqp2rcd13ifvqhng","pricing_plan_id":"free"},{"bike_id":"98af990f-b500-4e4d-984d-d9e38bc0aaae","system_id":"levelo_inurba_marseille","lat":43.317557,"lon":5.390173,"is_reserved":false,"is_disabled":false,"rental_uris":{"android":"levelo://app?vid=98af990f-b500-4e4d-984d-d9e38bc0aaae","ios":"levelo://app?vid=98af990f-b500-4e4d-984d-d9e38bc0aaae"},"vehicle_type_id":"4","last_reported":1682546766,"current_range_meters":24000,"station_id":"ce4bhqp2rcd13ifvqhng","pricing_plan_id":"free"},{"bike_id":"f847c1bf-4d92-4e9b-89c4-da83a13de3b3","system_id":"levelo_inurba_marseille","lat":43.317557,"lon":5.390173,"is_reserved":false,"is_disabled":false,"rental_uris":{"android":"levelo://app?vid=f847c1bf-4d92-4e9b-89c4-da83a13de3b3","ios":"levelo://app?vid=f847c1bf-4d92-4e9b-89c4-da83a13de3b3"},"vehicle_type_id":"4","last_reported":1682546766,"current_range_meters":12400,"station_id":"ce4bhqp2rcd13ifvqhng","pricing_plan_id":"free"},{"bike_id":"5902ec57-3957-413e-961d-ca4420d154a0","system_id":"levelo_inurba_marseille","lat":43.317557,"lon":5.390173,"is_reserved":false,"is_disabled":false,"rental_uris":{"android":"levelo://app?vid=5902ec57-3957-413e-961d-ca4420d154a0","ios":"levelo://app?vid=5902ec57-3957-413e-961d-ca4420d154a0"},"vehicle_type_id":"4","last_reported":1682546766,"current_range_meters":4800,"station_id":"ce4bhqp2rcd13ifvqhng","pricing_plan_id":"free"},{"bike_id":"02359161-452b-4197-b935-3157dad7f29e","system_id":"levelo_inurba_marseille","lat":43.317557,"lon":5.390173,"is_reserved":false,"is_disabled":false,"rental_uris":{"android":"levelo://app?vid=02359161-452b-4197-b935-3157dad7f29e","ios":"levelo://app?vid=02359161-452b-4197-b935-3157dad7f29e"},"vehicle_type_id":"4","last_reported":1682546766,"current_range_meters":22400,"station_id":"ce4bhqp2rcd13ifvqhng","pricing_plan_id":"free"},{"bike_id":"f6248085-c547-416f-b95b-512a421057e5","system_id":"levelo_inurba_marseille","lat":43.304278,"lon":5.388868,"is_reserved":false,"is_disabled":false,"rental_uris":{"android":"levelo://app?vid=f6248085-c547-416f-b95b-512a421057e5","ios":"levelo://app?vid=f6248085-c547-416f-b95b-512a421057e5"},"vehicle_type_id":"4","last_reported":1682546766,"current_range_meters":24800,"station_id":"ce4bgk12rcd13ifvqbi0","pricing_plan_id":"free"},{"bike_id":"87ade031-35ae-4558-a14e-1eda27e55317","system_id":"levelo_inurba_marseille","lat":43.304274,"lon":5.388873,"is_reserved":false,"is_disabled":false,"rental_uris":{"android":"levelo://app?vid=87ade031-35ae-4558-a14e-1eda27e55317","ios":"levelo://app?vid=87ade031-35ae-4558-a14e-1eda27e55317"},"vehicle_type_id":"4","last_reported":1682546766,"current_range_meters":28400,"station_id":"ce4bgk12rcd13ifvqbi0","pricing_plan_id":"free"},{"bike_id":"8a4b80e2-b2c6-4dc6-8832-414165f573c8","system_id":"levelo_inurba_marseille","lat":43.304274,"lon":5.388873,"is_reserved":false,"is_disabled":false,"rental_uris":{"android":"levelo://app?vid=8a4b80e2-b2c6-4dc6-8832-414165f573c8","ios":"levelo://app?vid=8a4b80e2-b2c6-4dc6-8832-414165f573c8"},"vehicle_type_id":"4","last_reported":1682546766,"current_range_meters":26400,"station_id":"ce4bgk12rcd13ifvqbi0","pricing_plan_id":"free"},{"bike_id":"6f28b24d-10c8-4c8a-9568-b105969572cd","system_id":"levelo_inurba_marseille","lat":43.29774,"lon":5.38066,"is_reserved":false,"is_disabled":false,"rental_uris":{"android":"levelo://app?vid=6f28b24d-10c8-4c8a-9568-b105969572cd","ios":"levelo://app?vid=6f28b24d-10c8-4c8a-9568-b105969572cd"},"vehicle_type_id":"4","last_reported":1682546766,"current_range_meters":18400,"station_id":"ce4bgl12rcd13ifvqbo0","pricing_plan_id":"free"},{"bike_id":"f401e893-9d11-4c84-a246-34ea0a550148","system_id":"levelo_inurba_marseille","lat":43.304278,"lon":5.388868,"is_reserved":false,"is_disabled":false,"rental_uris":{"android":"levelo://app?vid=f401e893-9d11-4c84-a246-34ea0a550148","ios":"levelo://app?vid=f401e893-9d11-4c84-a246-34ea0a550148"},"vehicle_type_id":"4","last_reported":1682546766,"current_range_meters":21200,"station_id":"ce4bgk12rcd13ifvqbi0","pricing_plan_id":"free"},{"bike_id":"cd7ebcfa-657d-4052-ab60-91615bfc8b80","system_id":"levelo_inurba_marseille","lat":43.304274,"lon":5.388873,"is_reserved":false,"is_disabled":false,"rental_uris":{"android":"levelo://app?vid=cd7ebcfa-657d-4052-ab60-91615bfc8b80","ios":"levelo://app?vid=cd7ebcfa-657d-4052-ab60-91615bfc8b80"},"vehicle_type_id":"4","last_reported":1682546766,"current_range_meters":0,"station_id":"ce4bgk12rcd13ifvqbi0","pricing_plan_id":"free"},{"bike_id":"fd0908c5-9788-4a8e-9197-a4b05c3114a0","system_id":"levelo_inurba_marseille","lat":43.299707,"lon":5.384859,"is_reserved":false,"is_disabled":false,"rental_uris":{"android":"levelo://app?vid=fd0908c5-9788-4a8e-9197-a4b05c3114a0","ios":"levelo://app?vid=fd0908c5-9788-4a8e-9197-a4b05c3114a0"},"vehicle_type_id":"4","last_reported":1682546766,"current_range_meters":18000,"station_id":"ce4bgj92rcd13ifvqbd0","pricing_plan_id":"free"},{"bike_id":"94ab6041-3715-4407-9a3c-8469d03f8a8d","system_id":"levelo_inurba_marseille","lat":43.299707,"lon":5.384859,"is_reserved":false,"is_disabled":false,"rental_uris":{"android":"levelo://app?vid=94ab6041-3715-4407-9a3c-8469d03f8a8d","ios":"levelo://app?vid=94ab6041-3715-4407-9a3c-8469d03f8a8d"},"vehicle_type_id":"4","last_reported":1682546766,"current_range_meters":31200,"station_id":"ce4bgj92rcd13ifvqbd0","pricing_plan_id":"free"},{"bike_id":"d5661d89-b610-46ab-a5e3-d65ee6e277ad","system_id":"levelo_inurba_marseille","lat":43.31444,"lon":5.39289,"is_reserved":false,"is_disabled":false,"rental_uris":{"android":"levelo://app?vid=d5661d89-b610-46ab-a5e3-d65ee6e277ad","ios":"levelo://app?vid=d5661d89-b610-46ab-a5e3-d65ee6e277ad"},"vehicle_type_id":"4","last_reported":1682546766,"current_range_meters":2400,"station_id":"","pricing_plan_id":"free"},{"bike_id":"1f1e5ad8-7413-4d2b-8b92-8aecb3ea86f4","system_id":"levelo_inurba_marseille","lat":43.32369,"lon":5.38891,"is_reserved":false,"is_disabled":false,"rental_uris":{"android":"levelo://app?vid=1f1e5ad8-7413-4d2b-8b92-8aecb3ea86f4","ios":"levelo://app?vid=1f1e5ad8-7413-4d2b-8b92-8aecb3ea86f4"},"vehicle_type_id":"4","last_reported":1682546766,"current_range_meters":16400,"station_id":"","pricing_plan_id":"free"},{"bike_id":"8d3c2085-a267-4535-ae55-d281442b365d","system_id":"levelo_inurba_marseille","lat":43.32372,"lon":5.38889,"is_reserved":false,"is_disabled":false,"rental_uris":{"android":"levelo://app?vid=8d3c2085-a267-4535-ae55-d281442b365d","ios":"levelo://app?vid=8d3c2085-a267-4535-ae55-d281442b365d"},"vehicle_type_id":"4","last_reported":1682546766,"current_range_meters":25200,"station_id":"ce4bhqp2rcd13ifvqhog","pricing_plan_id":"free"},{"bike_id":"70d494b8-16d2-4c6c-b20c-9df06b21b412","system_id":"levelo_inurba_marseille","lat":43.3237,"lon":5.38896,"is_reserved":false,"is_disabled":false,"rental_uris":{"android":"levelo://app?vid=70d494b8-16d2-4c6c-b20c-9df06b21b412","ios":"levelo://app?vid=70d494b8-16d2-4c6c-b20c-9df06b21b412"},"vehicle_type_id":"4","last_reported":1682546766,"current_range_meters":20000,"station_id":"ce4bhqp2rcd13ifvqhog","pricing_plan_id":"free"},{"bike_id":"2748bb33-e400-42f1-ad13-145199f20a94","system_id":"levelo_inurba_marseille","lat":43.29278,"lon":5.36842,"is_reserved":false,"is_disabled":false,"rental_uris":{"android":"levelo://app?vid=2748bb33-e400-42f1-ad13-145199f20a94","ios":"levelo://app?vid=2748bb33-e400-42f1-ad13-145199f20a94"},"vehicle_type_id":"4","last_reported":1682546766,"current_range_meters":11200,"station_id":"ce4bhbp2rcd13ifvqesg","pricing_plan_id":"free"},{"bike_id":"4609c98c-8269-492d-a932-a3f93b5464a0","system_id":"levelo_inurba_marseille","lat":43.29271,"lon":5.36841,"is_reserved":false,"is_disabled":false,"rental_uris":{"android":"levelo://app?vid=4609c98c-8269-492d-a932-a3f93b5464a0","ios":"levelo://app?vid=4609c98c-8269-492d-a932-a3f93b5464a0"},"vehicle_type_id":"4","last_reported":1682546766,"current_range_meters":4800,"station_id":"ce4bhbp2rcd13ifvqesg","pricing_plan_id":"free"},{"bike_id":"0ee1fa9f-474b-44e0-ab5b-874cd71e5aa5","system_id":"levelo_inurba_marseille","lat":43.29269,"lon":5.36852,"is_reserved":false,"is_disabled":false,"rental_uris":{"android":"levelo://app?vid=0ee1fa9f-474b-44e0-ab5b-874cd71e5aa5","ios":"levelo://app?vid=0ee1fa9f-474b-44e0-ab5b-874cd71e5aa5"},"vehicle_type_id":"4","last_reported":1682546766,"current_range_meters":23600,"station_id":"","pricing_plan_id":"free"},{"bike_id":"d37e48e0-0d2a-4232-9235-693c515a3ffc","system_id":"levelo_inurba_marseille","lat":43.305994,"lon":5.393687,"is_reserved":false,"is_disabled":false,"rental_uris":{"android":"levelo://app?vid=d37e48e0-0d2a-4232-9235-693c515a3ffc","ios":"levelo://app?vid=d37e48e0-0d2a-4232-9235-693c515a3ffc"},"vehicle_type_id":"4","last_reported":1682546766,"current_range_meters":26800,"station_id":"ce4bh0p2rcd13ifvqd80","pricing_plan_id":"free"},{"bike_id":"a083cd66-12cf-46b8-92c3-f10d20de4da1","system_id":"levelo_inurba_marseille","lat":43.305994,"lon":5.393687,"is_reserved":false,"is_disabled":false,"rental_uris":{"android":"levelo://app?vid=a083cd66-12cf-46b8-92c3-f10d20de4da1","ios":"levelo://app?vid=a083cd66-12cf-46b8-92c3-f10d20de4da1"},"vehicle_type_id":"4","last_reported":1682546766,"current_range_meters":31200,"station_id":"ce4bh0p2rcd13ifvqd80","pricing_plan_id":"free"},{"bike_id":"06b1ff6b-0890-4120-ae85-b5da16a05ad3","system_id":"levelo_inurba_marseille","lat":43.302992,"lon":5.392136,"is_reserved":false,"is_disabled":false,"rental_uris":{"android":"levelo://app?vid=06b1ff6b-0890-4120-ae85-b5da16a05ad3","ios":"levelo://app?vid=06b1ff6b-0890-4120-ae85-b5da16a05ad3"},"vehicle_type_id":"4","last_reported":1682546766,"current_range_meters":5200,"station_id":"ce4bgkh2rcd13ifvqbk0","pricing_plan_id":"free"},{"bike_id":"fc33123e-6bc1-4f42-97a7-ffa8fb890981","system_id":"levelo_inurba_marseille","lat":43.30302,"lon":5.39199,"is_reserved":false,"is_disabled":false,"rental_uris":{"android":"levelo://app?vid=fc33123e-6bc1-4f42-97a7-ffa8fb890981","ios":"levelo://app?vid=fc33123e-6bc1-4f42-97a7-ffa8fb890981"},"vehicle_type_id":"4","last_reported":1682546766,"current_range_meters":9600,"station_id":"ce4bgkh2rcd13ifvqbk0","pricing_plan_id":"free"},{"bike_id":"1907da5a-a2a0-4826-a2de-f7ca6d68e600","system_id":"levelo_inurba_marseille","lat":43.305994,"lon":5.393687,"is_reserved":false,"is_disabled":false,"rental_uris":{"android":"levelo://app?vid=1907da5a-a2a0-4826-a2de-f7ca6d68e600","ios":"levelo://app?vid=1907da5a-a2a0-4826-a2de-f7ca6d68e600"},"vehicle_type_id":"4","last_reported":1682546766,"current_range_meters":23600,"station_id":"ce4bh0p2rcd13ifvqd80","pricing_plan_id":"free"},{"bike_id":"ae367ee9-ce58-4829-87a2-484893666bdc","system_id":"levelo_inurba_marseille","lat":43.30296,"lon":5.39207,"is_reserved":false,"is_disabled":false,"rental_uris":{"android":"levelo://app?vid=ae367ee9-ce58-4829-87a2-484893666bdc","ios":"levelo://app?vid=ae367ee9-ce58-4829-87a2-484893666bdc"},"vehicle_type_id":"4","last_reported":1682546766,"current_range_meters":4800,"station_id":"ce4bgkh2rcd13ifvqbk0","pricing_plan_id":"free"},{"bike_id":"37963ec2-9870-49f0-9567-d3fc6208987d","system_id":"levelo_inurba_marseille","lat":43.30294,"lon":5.39206,"is_reserved":false,"is_disabled":false,"rental_uris":{"android":"levelo://app?vid=37963ec2-9870-49f0-9567-d3fc6208987d","ios":"levelo://app?vid=37963ec2-9870-49f0-9567-d3fc6208987d"},"vehicle_type_id":"4","last_reported":1682546766,"current_range_meters":1600,"station_id":"ce4bgkh2rcd13ifvqbk0","pricing_plan_id":"free"},{"bike_id":"3fc4836a-44f2-4f8b-8c36-873b9db40746","system_id":"levelo_inurba_marseille","lat":43.30295,"lon":5.39212,"is_reserved":false,"is_disabled":false,"rental_uris":{"android":"levelo://app?vid=3fc4836a-44f2-4f8b-8c36-873b9db40746","ios":"levelo://app?vid=3fc4836a-44f2-4f8b-8c36-873b9db40746"},"vehicle_type_id":"4","last_reported":1682546766,"current_range_meters":18000,"station_id":"ce4bgkh2rcd13ifvqbk0","pricing_plan_id":"free"},{"bike_id":"c36f632f-3ced-4a02-bf4f-4c544598dc0c","system_id":"levelo_inurba_marseille","lat":43.29254,"lon":5.3598,"is_reserved":false,"is_disabled":false,"rental_uris":{"android":"levelo://app?vid=c36f632f-3ced-4a02-bf4f-4c544598dc0c","ios":"levelo://app?vid=c36f632f-3ced-4a02-bf4f-4c544598dc0c"},"vehicle_type_id":"4","last_reported":1682546766,"current_range_meters":20000,"station_id":"","pricing_plan_id":"free"},{"bike_id":"5c37b362-2712-46ca-a875-3328e9b3638f","system_id":"levelo_inurba_marseille","lat":43.2936,"lon":5.37835,"is_reserved":false,"is_disabled":false,"rental_uris":{"android":"levelo://app?vid=5c37b362-2712-46ca-a875-3328e9b3638f","ios":"levelo://app?vid=5c37b362-2712-46ca-a875-3328e9b3638f"},"vehicle_type_id":"4","last_reported":1682546766,"current_range_meters":16400,"station_id":"ce4bgjh2rcd13ifvqbf0","pricing_plan_id":"free"},{"bike_id":"ef89d37a-1c95-4b33-a647-26dddca342ac","system_id":"levelo_inurba_marseille","lat":43.30085,"lon":5.390856,"is_reserved":false,"is_disabled":false,"rental_uris":{"android":"levelo://app?vid=ef89d37a-1c95-4b33-a647-26dddca342ac","ios":"levelo://app?vid=ef89d37a-1c95-4b33-a647-26dddca342ac"},"vehicle_type_id":"4","last_reported":1682546766,"current_range_meters":7200,"station_id":"ce4bh192rcd13ifvqdb0","pricing_plan_id":"free"},{"bike_id":"02a335c7-00a4-4987-b83d-ea4dea652e7e","system_id":"levelo_inurba_marseille","lat":43.30085,"lon":5.390856,"is_reserved":false,"is_disabled":false,"rental_uris":{"android":"levelo://app?vid=02a335c7-00a4-4987-b83d-ea4dea652e7e","ios":"levelo://app?vid=02a335c7-00a4-4987-b83d-ea4dea652e7e"},"vehicle_type_id":"4","last_reported":1682546766,"current_range_meters":30400,"station_id":"ce4bh192rcd13ifvqdb0","pricing_plan_id":"free"},{"bike_id":"97f97381-8d73-4e6c-830b-f272dea5dccd","system_id":"levelo_inurba_marseille","lat":43.30335,"lon":5.39309,"is_reserved":false,"is_disabled":false,"rental_uris":{"android":"levelo://app?vid=97f97381-8d73-4e6c-830b-f272dea5dccd","ios":"levelo://app?vid=97f97381-8d73-4e6c-830b-f272dea5dccd"},"vehicle_type_id":"4","last_reported":1682546766,"current_range_meters":24400,"station_id":"","pricing_plan_id":"free"},{"bike_id":"0a475d44-cc52-4373-b8d9-f79ba896ec30","system_id":"levelo_inurba_marseille","lat":43.29171,"lon":5.37153,"is_reserved":false,"is_disabled":false,"rental_uris":{"android":"levelo://app?vid=0a475d44-cc52-4373-b8d9-f79ba896ec30","ios":"levelo://app?vid=0a475d44-cc52-4373-b8d9-f79ba896ec30"},"vehicle_type_id":"4","last_reported":1682546766,"current_range_meters":17600,"station_id":"ce4bha92rcd13ifvqeh0","pricing_plan_id":"free"},{"bike_id":"be219a66-acec-40fd-a86e-4de0c79f697f","system_id":"levelo_inurba_marseille","lat":43.29875,"lon":5.38911,"is_reserved":false,"is_disabled":false,"rental_uris":{"android":"levelo://app?vid=be219a66-acec-40fd-a86e-4de0c79f697f","ios":"levelo://app?vid=be219a66-acec-40fd-a86e-4de0c79f697f"},"vehicle_type_id":"4","last_reported":1682546766,"current_range_meters":24000,"station_id":"","pricing_plan_id":"free"},{"bike_id":"3f8dd1cf-4b25-49c6-a66b-58777250f4b1","system_id":"levelo_inurba_marseille","lat":43.29866,"lon":5.38915,"is_reserved":false,"is_disabled":false,"rental_uris":{"android":"levelo://app?vid=3f8dd1cf-4b25-49c6-a66b-58777250f4b1","ios":"levelo://app?vid=3f8dd1cf-4b25-49c6-a66b-58777250f4b1"},"vehicle_type_id":"4","last_reported":1682546766,"current_range_meters":8000,"station_id":"ce4bh392rcd13ifvqdl0","pricing_plan_id":"free"},{"bike_id":"b9a936d2-a340-4e1e-b0e9-0cb88b5b252a","system_id":"levelo_inurba_marseille","lat":43.298764,"lon":5.388973,"is_reserved":false,"is_disabled":false,"rental_uris":{"android":"levelo://app?vid=b9a936d2-a340-4e1e-b0e9-0cb88b5b252a","ios":"levelo://app?vid=b9a936d2-a340-4e1e-b0e9-0cb88b5b252a"},"vehicle_type_id":"4","last_reported":1682546766,"current_range_meters":21600,"station_id":"ce4bh392rcd13ifvqdl0","pricing_plan_id":"free"},{"bike_id":"ad90f3f3-01a0-4087-92b1-4d6577201615","system_id":"levelo_inurba_marseille","lat":43.298764,"lon":5.388973,"is_reserved":false,"is_disabled":false,"rental_uris":{"android":"levelo://app?vid=ad90f3f3-01a0-4087-92b1-4d6577201615","ios":"levelo://app?vid=ad90f3f3-01a0-4087-92b1-4d6577201615"},"vehicle_type_id":"4","last_reported":1682546766,"current_range_meters":20000,"station_id":"ce4bh392rcd13ifvqdl0","pricing_plan_id":"free"},{"bike_id":"b2b689c1-ef71-4722-87fc-bd2a5657a19c","system_id":"levelo_inurba_marseille","lat":43.309038,"lon":5.396546,"is_reserved":false,"is_disabled":false,"rental_uris":{"android":"levelo://app?vid=b2b689c1-ef71-4722-87fc-bd2a5657a19c","ios":"levelo://app?vid=b2b689c1-ef71-4722-87fc-bd2a5657a19c"},"vehicle_type_id":"4","last_reported":1682546766,"current_range_meters":26000,"station_id":"ce4bh012rcd13ifvqcv0","pricing_plan_id":"free"},{"bike_id":"cc3bf5ab-f258-4f23-b9e8-1126d0a868d7","system_id":"levelo_inurba_marseille","lat":43.313291,"lon":5.396838,"is_reserved":false,"is_disabled":false,"rental_uris":{"android":"levelo://app?vid=cc3bf5ab-f258-4f23-b9e8-1126d0a868d7","ios":"levelo://app?vid=cc3bf5ab-f258-4f23-b9e8-1126d0a868d7"},"vehicle_type_id":"4","last_reported":1682546766,"current_range_meters":29200,"station_id":"ce4bgvp2rcd13ifvqcu0","pricing_plan_id":"free"},{"bike_id":"875b4ad8-2f2a-4bfc-afb7-241f2242b343","system_id":"levelo_inurba_marseille","lat":43.309038,"lon":5.396546,"is_reserved":false,"is_disabled":false,"rental_uris":{"android":"levelo://app?vid=875b4ad8-2f2a-4bfc-afb7-241f2242b343","ios":"levelo://app?vid=875b4ad8-2f2a-4bfc-afb7-241f2242b343"},"vehicle_type_id":"4","last_reported":1682546766,"current_range_meters":31200,"station_id":"ce4bh012rcd13ifvqcv0","pricing_plan_id":"free"},{"bike_id":"d3cc66d3-e345-4f9b-89d0-5cece7f922a6","system_id":"levelo_inurba_marseille","lat":43.309038,"lon":5.396546,"is_reserved":false,"is_disabled":false,"rental_uris":{"android":"levelo://app?vid=d3cc66d3-e345-4f9b-89d0-5cece7f922a6","ios":"levelo://app?vid=d3cc66d3-e345-4f9b-89d0-5cece7f922a6"},"vehicle_type_id":"4","last_reported":1682546766,"current_range_meters":22800,"station_id":"ce4bh012rcd13ifvqcv0","pricing_plan_id":"free"},{"bike_id":"bada5d9b-ff45-42a5-aead-8875e0308977","system_id":"levelo_inurba_marseille","lat":43.309038,"lon":5.396546,"is_reserved":false,"is_disabled":false,"rental_uris":{"android":"levelo://app?vid=bada5d9b-ff45-42a5-aead-8875e0308977","ios":"levelo://app?vid=bada5d9b-ff45-42a5-aead-8875e0308977"},"vehicle_type_id":"4","last_reported":1682546766,"current_range_meters":31200,"station_id":"ce4bh012rcd13ifvqcv0","pricing_plan_id":"free"},{"bike_id":"3dd9c57f-13e8-46a6-938b-a5a27c62a172","system_id":"levelo_inurba_marseille","lat":43.313291,"lon":5.396838,"is_reserved":false,"is_disabled":false,"rental_uris":{"android":"levelo://app?vid=3dd9c57f-13e8-46a6-938b-a5a27c62a172","ios":"levelo://app?vid=3dd9c57f-13e8-46a6-938b-a5a27c62a172"},"vehicle_type_id":"4","last_reported":1682546766,"current_range_meters":16400,"station_id":"ce4bgvp2rcd13ifvqcu0","pricing_plan_id":"free"},{"bike_id":"8ffd3127-4e78-4c94-926a-094978e69973","system_id":"levelo_inurba_marseille","lat":43.309038,"lon":5.396546,"is_reserved":false,"is_disabled":false,"rental_uris":{"android":"levelo://app?vid=8ffd3127-4e78-4c94-926a-094978e69973","ios":"levelo://app?vid=8ffd3127-4e78-4c94-926a-094978e69973"},"vehicle_type_id":"4","last_reported":1682546766,"current_range_meters":12400,"station_id":"ce4bh012rcd13ifvqcv0","pricing_plan_id":"free"},{"bike_id":"99e651cc-69b0-4208-aad1-5fdcdef03ab7","system_id":"levelo_inurba_marseille","lat":43.313291,"lon":5.396838,"is_reserved":false,"is_disabled":false,"rental_uris":{"android":"levelo://app?vid=99e651cc-69b0-4208-aad1-5fdcdef03ab7","ios":"levelo://app?vid=99e651cc-69b0-4208-aad1-5fdcdef03ab7"},"vehicle_type_id":"4","last_reported":1682546766,"current_range_meters":28800,"station_id":"ce4bgvp2rcd13ifvqcu0","pricing_plan_id":"free"},{"bike_id":"d3c6bbe1-9d0d-4ad1-b4f9-8923fcecaf60","system_id":"levelo_inurba_marseille","lat":43.31326,"lon":5.39698,"is_reserved":false,"is_disabled":false,"rental_uris":{"android":"levelo://app?vid=d3c6bbe1-9d0d-4ad1-b4f9-8923fcecaf60","ios":"levelo://app?vid=d3c6bbe1-9d0d-4ad1-b4f9-8923fcecaf60"},"vehicle_type_id":"4","last_reported":1682546766,"current_range_meters":28000,"station_id":"ce4bgvp2rcd13ifvqcu0","pricing_plan_id":"free"},{"bike_id":"5fadb749-fb54-41c5-ac6b-057aa17277ec","system_id":"levelo_inurba_marseille","lat":43.309038,"lon":5.396546,"is_reserved":false,"is_disabled":false,"rental_uris":{"android":"levelo://app?vid=5fadb749-fb54-41c5-ac6b-057aa17277ec","ios":"levelo://app?vid=5fadb749-fb54-41c5-ac6b-057aa17277ec"},"vehicle_type_id":"4","last_reported":1682546766,"current_range_meters":8400,"station_id":"ce4bh012rcd13ifvqcv0","pricing_plan_id":"free"},{"bike_id":"a2241a61-1b91-4eb8-80f9-4da40ff17068","system_id":"levelo_inurba_marseille","lat":43.313291,"lon":5.396838,"is_reserved":false,"is_disabled":false,"rental_uris":{"android":"levelo://app?vid=a2241a61-1b91-4eb8-80f9-4da40ff17068","ios":"levelo://app?vid=a2241a61-1b91-4eb8-80f9-4da40ff17068"},"vehicle_type_id":"4","last_reported":1682546766,"current_range_meters":25200,"station_id":"ce4bgvp2rcd13ifvqcu0","pricing_plan_id":"free"},{"bike_id":"c18dbfd7-2e1b-4621-91a1-5e56d4ef34c6","system_id":"levelo_inurba_marseille","lat":43.313291,"lon":5.396838,"is_reserved":false,"is_disabled":false,"rental_uris":{"android":"levelo://app?vid=c18dbfd7-2e1b-4621-91a1-5e56d4ef34c6","ios":"levelo://app?vid=c18dbfd7-2e1b-4621-91a1-5e56d4ef34c6"},"vehicle_type_id":"4","last_reported":1682546766,"current_range_meters":13200,"station_id":"ce4bgvp2rcd13ifvqcu0","pricing_plan_id":"free"},{"bike_id":"26edc6e1-5303-486a-8c7a-2ad1c486546f","system_id":"levelo_inurba_marseille","lat":43.31325,"lon":5.39702,"is_reserved":false,"is_disabled":false,"rental_uris":{"android":"levelo://app?vid=26edc6e1-5303-486a-8c7a-2ad1c486546f","ios":"levelo://app?vid=26edc6e1-5303-486a-8c7a-2ad1c486546f"},"vehicle_type_id":"4","last_reported":1682546766,"current_range_meters":20000,"station_id":"ce4bgvp2rcd13ifvqcu0","pricing_plan_id":"free"},{"bike_id":"e89fa8fa-8120-4041-8f41-94ea904300ac","system_id":"levelo_inurba_marseille","lat":43.31327,"lon":5.39704,"is_reserved":false,"is_disabled":false,"rental_uris":{"android":"levelo://app?vid=e89fa8fa-8120-4041-8f41-94ea904300ac","ios":"levelo://app?vid=e89fa8fa-8120-4041-8f41-94ea904300ac"},"vehicle_type_id":"4","last_reported":1682546766,"current_range_meters":30000,"station_id":"ce4bgvp2rcd13ifvqcu0","pricing_plan_id":"free"},{"bike_id":"7976381e-ecb8-4b40-96e0-2d4387706c59","system_id":"levelo_inurba_marseille","lat":43.31324,"lon":5.39707,"is_reserved":false,"is_disabled":false,"rental_uris":{"android":"levelo://app?vid=7976381e-ecb8-4b40-96e0-2d4387706c59","ios":"levelo://app?vid=7976381e-ecb8-4b40-96e0-2d4387706c59"},"vehicle_type_id":"4","last_reported":1682546766,"current_range_meters":31200,"station_id":"ce4bgvp2rcd13ifvqcu0","pricing_plan_id":"free"},{"bike_id":"e813523b-3307-4c61-9d2f-159fa0a7119b","system_id":"levelo_inurba_marseille","lat":43.29535,"lon":5.38541,"is_reserved":false,"is_disabled":false,"rental_uris":{"android":"levelo://app?vid=e813523b-3307-4c61-9d2f-159fa0a7119b","ios":"levelo://app?vid=e813523b-3307-4c61-9d2f-159fa0a7119b"},"vehicle_type_id":"4","last_reported":1682546766,"current_range_meters":4800,"station_id":"ce4bgih2rcd13ifvqba0","pricing_plan_id":"free"},{"bike_id":"0b286c33-3afa-4069-8eef-8d36e969c8dd","system_id":"levelo_inurba_marseille","lat":43.29529,"lon":5.385581,"is_reserved":false,"is_disabled":false,"rental_uris":{"android":"levelo://app?vid=0b286c33-3afa-4069-8eef-8d36e969c8dd","ios":"levelo://app?vid=0b286c33-3afa-4069-8eef-8d36e969c8dd"},"vehicle_type_id":"4","last_reported":1682546766,"current_range_meters":23200,"station_id":"ce4bgih2rcd13ifvqba0","pricing_plan_id":"free"},{"bike_id":"11ab68a6-9563-4e1e-a4b7-0ba6f98af218","system_id":"levelo_inurba_marseille","lat":43.29532,"lon":5.38537,"is_reserved":false,"is_disabled":false,"rental_uris":{"android":"levelo://app?vid=11ab68a6-9563-4e1e-a4b7-0ba6f98af218","ios":"levelo://app?vid=11ab68a6-9563-4e1e-a4b7-0ba6f98af218"},"vehicle_type_id":"4","last_reported":1682546766,"current_range_meters":13600,"station_id":"ce4bgih2rcd13ifvqba0","pricing_plan_id":"free"},{"bike_id":"1e57a9bd-e293-4048-bdcf-352f3e8af422","system_id":"levelo_inurba_marseille","lat":43.29529,"lon":5.385581,"is_reserved":false,"is_disabled":false,"rental_uris":{"android":"levelo://app?vid=1e57a9bd-e293-4048-bdcf-352f3e8af422","ios":"levelo://app?vid=1e57a9bd-e293-4048-bdcf-352f3e8af422"},"vehicle_type_id":"4","last_reported":1682546766,"current_range_meters":10400,"station_id":"ce4bgih2rcd13ifvqba0","pricing_plan_id":"free"},{"bike_id":"e17ea2c9-0a32-4ff3-b132-022827c8f29b","system_id":"levelo_inurba_marseille","lat":43.29529,"lon":5.385581,"is_reserved":false,"is_disabled":false,"rental_uris":{"android":"levelo://app?vid=e17ea2c9-0a32-4ff3-b132-022827c8f29b","ios":"levelo://app?vid=e17ea2c9-0a32-4ff3-b132-022827c8f29b"},"vehicle_type_id":"4","last_reported":1682546766,"current_range_meters":31200,"station_id":"ce4bgih2rcd13ifvqba0","pricing_plan_id":"free"},{"bike_id":"ec956e23-111b-4ed8-8dc5-7f52d5733755","system_id":"levelo_inurba_marseille","lat":43.29529,"lon":5.385581,"is_reserved":false,"is_disabled":false,"rental_uris":{"android":"levelo://app?vid=ec956e23-111b-4ed8-8dc5-7f52d5733755","ios":"levelo://app?vid=ec956e23-111b-4ed8-8dc5-7f52d5733755"},"vehicle_type_id":"4","last_reported":1682546766,"current_range_meters":20400,"station_id":"ce4bgih2rcd13ifvqba0","pricing_plan_id":"free"},{"bike_id":"13e23d4f-2c94-4a2e-a29a-b9970342ca80","system_id":"levelo_inurba_marseille","lat":43.29529,"lon":5.385581,"is_reserved":false,"is_disabled":false,"rental_uris":{"android":"levelo://app?vid=13e23d4f-2c94-4a2e-a29a-b9970342ca80","ios":"levelo://app?vid=13e23d4f-2c94-4a2e-a29a-b9970342ca80"},"vehicle_type_id":"4","last_reported":1682546766,"current_range_meters":26800,"station_id":"ce4bgih2rcd13ifvqba0","pricing_plan_id":"free"},{"bike_id":"d9f916a6-9798-4d91-a2a3-d38566319580","system_id":"levelo_inurba_marseille","lat":43.29529,"lon":5.385581,"is_reserved":false,"is_disabled":false,"rental_uris":{"android":"levelo://app?vid=d9f916a6-9798-4d91-a2a3-d38566319580","ios":"levelo://app?vid=d9f916a6-9798-4d91-a2a3-d38566319580"},"vehicle_type_id":"4","last_reported":1682546766,"current_range_meters":31600,"station_id":"ce4bgih2rcd13ifvqba0","pricing_plan_id":"free"},{"bike_id":"362c01c5-27ea-4f8b-b2ab-f57801e943fd","system_id":"levelo_inurba_marseille","lat":43.29529,"lon":5.385581,"is_reserved":false,"is_disabled":false,"rental_uris":{"android":"levelo://app?vid=362c01c5-27ea-4f8b-b2ab-f57801e943fd","ios":"levelo://app?vid=362c01c5-27ea-4f8b-b2ab-f57801e943fd"},"vehicle_type_id":"4","last_reported":1682546766,"current_range_meters":9200,"station_id":"ce4bgih2rcd13ifvqba0","pricing_plan_id":"free"},{"bike_id":"83f768f0-64b3-41bb-b83f-9978f175b8d4","system_id":"levelo_inurba_marseille","lat":43.29529,"lon":5.385581,"is_reserved":false,"is_disabled":false,"rental_uris":{"android":"levelo://app?vid=83f768f0-64b3-41bb-b83f-9978f175b8d4","ios":"levelo://app?vid=83f768f0-64b3-41bb-b83f-9978f175b8d4"},"vehicle_type_id":"4","last_reported":1682546766,"current_range_meters":26800,"station_id":"ce4bgih2rcd13ifvqba0","pricing_plan_id":"free"},{"bike_id":"a259a3c4-646f-42d3-875a-ca4220cfd2a1","system_id":"levelo_inurba_marseille","lat":43.29529,"lon":5.385581,"is_reserved":false,"is_disabled":false,"rental_uris":{"android":"levelo://app?vid=a259a3c4-646f-42d3-875a-ca4220cfd2a1","ios":"levelo://app?vid=a259a3c4-646f-42d3-875a-ca4220cfd2a1"},"vehicle_type_id":"4","last_reported":1682546766,"current_range_meters":24400,"station_id":"ce4bgih2rcd13ifvqba0","pricing_plan_id":"free"},{"bike_id":"84a6b6bb-2330-4f20-a34a-a1f19b3e6b14","system_id":"levelo_inurba_marseille","lat":43.29529,"lon":5.385581,"is_reserved":false,"is_disabled":false,"rental_uris":{"android":"levelo://app?vid=84a6b6bb-2330-4f20-a34a-a1f19b3e6b14","ios":"levelo://app?vid=84a6b6bb-2330-4f20-a34a-a1f19b3e6b14"},"vehicle_type_id":"4","last_reported":1682546766,"current_range_meters":23600,"station_id":"ce4bgih2rcd13ifvqba0","pricing_plan_id":"free"},{"bike_id":"5fac4fb0-1077-47f2-bdf4-9d234615e5ee","system_id":"levelo_inurba_marseille","lat":43.29529,"lon":5.385581,"is_reserved":false,"is_disabled":false,"rental_uris":{"android":"levelo://app?vid=5fac4fb0-1077-47f2-bdf4-9d234615e5ee","ios":"levelo://app?vid=5fac4fb0-1077-47f2-bdf4-9d234615e5ee"},"vehicle_type_id":"4","last_reported":1682546766,"current_range_meters":6000,"station_id":"ce4bgih2rcd13ifvqba0","pricing_plan_id":"free"},{"bike_id":"a6084a11-e676-492c-9fe4-7f4397b76854","system_id":"levelo_inurba_marseille","lat":43.31566,"lon":5.3972,"is_reserved":false,"is_disabled":false,"rental_uris":{"android":"levelo://app?vid=a6084a11-e676-492c-9fe4-7f4397b76854","ios":"levelo://app?vid=a6084a11-e676-492c-9fe4-7f4397b76854"},"vehicle_type_id":"4","last_reported":1682546766,"current_range_meters":14800,"station_id":"","pricing_plan_id":"free"},{"bike_id":"044ab458-ae2c-4056-b80b-95edeb4eeb74","system_id":"levelo_inurba_marseille","lat":43.302008,"lon":5.394694,"is_reserved":false,"is_disabled":false,"rental_uris":{"android":"levelo://app?vid=044ab458-ae2c-4056-b80b-95edeb4eeb74","ios":"levelo://app?vid=044ab458-ae2c-4056-b80b-95edeb4eeb74"},"vehicle_type_id":"4","last_reported":1682546766,"current_range_meters":28400,"station_id":"ce4bh0p2rcd13ifvqd70","pricing_plan_id":"free"},{"bike_id":"6d4f57d6-a596-47df-b7a8-9828ea909a5f","system_id":"levelo_inurba_marseille","lat":43.302008,"lon":5.394694,"is_reserved":false,"is_disabled":false,"rental_uris":{"android":"levelo://app?vid=6d4f57d6-a596-47df-b7a8-9828ea909a5f","ios":"levelo://app?vid=6d4f57d6-a596-47df-b7a8-9828ea909a5f"},"vehicle_type_id":"4","last_reported":1682546766,"current_range_meters":28000,"station_id":"ce4bh0p2rcd13ifvqd70","pricing_plan_id":"free"},{"bike_id":"44adcc7b-1d85-4ca3-bb5b-287b90f66f32","system_id":"levelo_inurba_marseille","lat":43.302008,"lon":5.394694,"is_reserved":false,"is_disabled":false,"rental_uris":{"android":"levelo://app?vid=44adcc7b-1d85-4ca3-bb5b-287b90f66f32","ios":"levelo://app?vid=44adcc7b-1d85-4ca3-bb5b-287b90f66f32"},"vehicle_type_id":"4","last_reported":1682546766,"current_range_meters":31200,"station_id":"ce4bh0p2rcd13ifvqd70","pricing_plan_id":"free"},{"bike_id":"bf77b32b-7a5e-477c-805c-a07dcea883be","system_id":"levelo_inurba_marseille","lat":43.302008,"lon":5.394694,"is_reserved":false,"is_disabled":false,"rental_uris":{"android":"levelo://app?vid=bf77b32b-7a5e-477c-805c-a07dcea883be","ios":"levelo://app?vid=bf77b32b-7a5e-477c-805c-a07dcea883be"},"vehicle_type_id":"4","last_reported":1682546766,"current_range_meters":30800,"station_id":"ce4bh0p2rcd13ifvqd70","pricing_plan_id":"free"},{"bike_id":"b26db8b5-76e5-44b6-96ce-bd24eeb753ca","system_id":"levelo_inurba_marseille","lat":43.290624,"lon":5.359245,"is_reserved":false,"is_disabled":false,"rental_uris":{"android":"levelo://app?vid=b26db8b5-76e5-44b6-96ce-bd24eeb753ca","ios":"levelo://app?vid=b26db8b5-76e5-44b6-96ce-bd24eeb753ca"},"vehicle_type_id":"4","last_reported":1682546766,"current_range_meters":800,"station_id":"ce4bha92rcd13ifvqeg0","pricing_plan_id":"free"},{"bike_id":"05cb7085-4374-4c24-bae6-53434ff08024","system_id":"levelo_inurba_marseille","lat":43.290624,"lon":5.359245,"is_reserved":false,"is_disabled":false,"rental_uris":{"android":"levelo://app?vid=05cb7085-4374-4c24-bae6-53434ff08024","ios":"levelo://app?vid=05cb7085-4374-4c24-bae6-53434ff08024"},"vehicle_type_id":"4","last_reported":1682546766,"current_range_meters":15200,"station_id":"ce4bha92rcd13ifvqeg0","pricing_plan_id":"free"},{"bike_id":"d9d73eda-8d5b-4c98-9bfa-3ad1e5484777","system_id":"levelo_inurba_marseille","lat":43.290624,"lon":5.359245,"is_reserved":false,"is_disabled":false,"rental_uris":{"android":"levelo://app?vid=d9d73eda-8d5b-4c98-9bfa-3ad1e5484777","ios":"levelo://app?vid=d9d73eda-8d5b-4c98-9bfa-3ad1e5484777"},"vehicle_type_id":"4","last_reported":1682546766,"current_range_meters":17600,"station_id":"ce4bha92rcd13ifvqeg0","pricing_plan_id":"free"},{"bike_id":"76d1a5d2-ad93-48ec-b6ca-958017326259","system_id":"levelo_inurba_marseille","lat":43.294153,"lon":5.386305,"is_reserved":false,"is_disabled":false,"rental_uris":{"android":"levelo://app?vid=76d1a5d2-ad93-48ec-b6ca-958017326259","ios":"levelo://app?vid=76d1a5d2-ad93-48ec-b6ca-958017326259"},"vehicle_type_id":"4","last_reported":1682546766,"current_range_meters":15600,"station_id":"ce4bh2h2rcd13ifvqdh0","pricing_plan_id":"free"},{"bike_id":"4cd2d035-b13b-4bc6-9db9-ef32e5073848","system_id":"levelo_inurba_marseille","lat":43.294162,"lon":5.386292,"is_reserved":false,"is_disabled":false,"rental_uris":{"android":"levelo://app?vid=4cd2d035-b13b-4bc6-9db9-ef32e5073848","ios":"levelo://app?vid=4cd2d035-b13b-4bc6-9db9-ef32e5073848"},"vehicle_type_id":"4","last_reported":1682546766,"current_range_meters":29600,"station_id":"ce4bh2h2rcd13ifvqdh0","pricing_plan_id":"free"},{"bike_id":"6aa8df46-11eb-4e3a-a124-76be190d7102","system_id":"levelo_inurba_marseille","lat":43.294153,"lon":5.386305,"is_reserved":false,"is_disabled":false,"rental_uris":{"android":"levelo://app?vid=6aa8df46-11eb-4e3a-a124-76be190d7102","ios":"levelo://app?vid=6aa8df46-11eb-4e3a-a124-76be190d7102"},"vehicle_type_id":"4","last_reported":1682546766,"current_range_meters":4800,"station_id":"ce4bh2h2rcd13ifvqdh0","pricing_plan_id":"free"},{"bike_id":"05c08212-5b70-4a2a-91e3-075934cb0dd2","system_id":"levelo_inurba_marseille","lat":43.294153,"lon":5.386305,"is_reserved":false,"is_disabled":false,"rental_uris":{"android":"levelo://app?vid=05c08212-5b70-4a2a-91e3-075934cb0dd2","ios":"levelo://app?vid=05c08212-5b70-4a2a-91e3-075934cb0dd2"},"vehicle_type_id":"4","last_reported":1682546766,"current_range_meters":13200,"station_id":"ce4bh2h2rcd13ifvqdh0","pricing_plan_id":"free"},{"bike_id":"b07ee995-9206-4124-8d85-2570a37f9faa","system_id":"levelo_inurba_marseille","lat":43.294153,"lon":5.386305,"is_reserved":false,"is_disabled":false,"rental_uris":{"android":"levelo://app?vid=b07ee995-9206-4124-8d85-2570a37f9faa","ios":"levelo://app?vid=b07ee995-9206-4124-8d85-2570a37f9faa"},"vehicle_type_id":"4","last_reported":1682546766,"current_range_meters":11200,"station_id":"ce4bh2h2rcd13ifvqdh0","pricing_plan_id":"free"},{"bike_id":"6bd1b838-2bf2-40a9-bca0-0f4a51de3652","system_id":"levelo_inurba_marseille","lat":43.294153,"lon":5.386305,"is_reserved":false,"is_disabled":false,"rental_uris":{"android":"levelo://app?vid=6bd1b838-2bf2-40a9-bca0-0f4a51de3652","ios":"levelo://app?vid=6bd1b838-2bf2-40a9-bca0-0f4a51de3652"},"vehicle_type_id":"4","last_reported":1682546766,"current_range_meters":31200,"station_id":"ce4bh2h2rcd13ifvqdh0","pricing_plan_id":"free"},{"bike_id":"e8b8d697-55ef-4109-80bb-6f018d2d869d","system_id":"levelo_inurba_marseille","lat":43.294153,"lon":5.386305,"is_reserved":false,"is_disabled":false,"rental_uris":{"android":"levelo://app?vid=e8b8d697-55ef-4109-80bb-6f018d2d869d","ios":"levelo://app?vid=e8b8d697-55ef-4109-80bb-6f018d2d869d"},"vehicle_type_id":"4","last_reported":1682546766,"current_range_meters":19200,"station_id":"ce4bh2h2rcd13ifvqdh0","pricing_plan_id":"free"},{"bike_id":"d63d88e1-8bb0-4b03-8f4e-2e4c6f49f581","system_id":"levelo_inurba_marseille","lat":43.289468,"lon":5.363719,"is_reserved":false,"is_disabled":false,"rental_uris":{"android":"levelo://app?vid=d63d88e1-8bb0-4b03-8f4e-2e4c6f49f581","ios":"levelo://app?vid=d63d88e1-8bb0-4b03-8f4e-2e4c6f49f581"},"vehicle_type_id":"4","last_reported":1682546766,"current_range_meters":12800,"station_id":"ce4bhc92rcd13ifvqetg","pricing_plan_id":"free"},{"bike_id":"489222dd-bd74-406c-b7fb-3381ded574f4","system_id":"levelo_inurba_marseille","lat":43.289184,"lon":5.366408,"is_reserved":false,"is_disabled":false,"rental_uris":{"android":"levelo://app?vid=489222dd-bd74-406c-b7fb-3381ded574f4","ios":"levelo://app?vid=489222dd-bd74-406c-b7fb-3381ded574f4"},"vehicle_type_id":"4","last_reported":1682546766,"current_range_meters":16800,"station_id":"ce4bhap2rcd13ifvqek0","pricing_plan_id":"free"},{"bike_id":"f94e9855-d3ec-4c03-8e6c-b5530579201f","system_id":"levelo_inurba_marseille","lat":43.294162,"lon":5.386292,"is_reserved":false,"is_disabled":false,"rental_uris":{"android":"levelo://app?vid=f94e9855-d3ec-4c03-8e6c-b5530579201f","ios":"levelo://app?vid=f94e9855-d3ec-4c03-8e6c-b5530579201f"},"vehicle_type_id":"4","last_reported":1682546766,"current_range_meters":5200,"station_id":"ce4bh2h2rcd13ifvqdh0","pricing_plan_id":"free"},{"bike_id":"ea999e58-0f84-45e6-bcea-5e868366a7f4","system_id":"levelo_inurba_marseille","lat":43.294153,"lon":5.386305,"is_reserved":false,"is_disabled":false,"rental_uris":{"android":"levelo://app?vid=ea999e58-0f84-45e6-bcea-5e868366a7f4","ios":"levelo://app?vid=ea999e58-0f84-45e6-bcea-5e868366a7f4"},"vehicle_type_id":"4","last_reported":1682546766,"current_range_meters":10800,"station_id":"ce4bh2h2rcd13ifvqdh0","pricing_plan_id":"free"},{"bike_id":"b215ec00-21d9-48c2-9c14-a1f3a52e73d7","system_id":"levelo_inurba_marseille","lat":43.294162,"lon":5.386292,"is_reserved":false,"is_disabled":false,"rental_uris":{"android":"levelo://app?vid=b215ec00-21d9-48c2-9c14-a1f3a52e73d7","ios":"levelo://app?vid=b215ec00-21d9-48c2-9c14-a1f3a52e73d7"},