{"last_updated":1729505419,"ttl":60,"version":"2.2","data":{"bikes":[{"bike_id":"b663a75a-8f5b-4390-951c-274251e08ea6","system_id":"levelo_inurba_marseille","lat":43.29268,"lon":5.36837,"is_reserved":false,"is_disabled":false,"rental_uris":{"android":"levelo://app?vid=b663a75a-8f5b-4390-951c-274251e08ea6","ios":"levelo://app?vid=b663a75a-8f5b-4390-951c-274251e08ea6"},"vehicle_type_id":"4","last_reported":1729505419,"current_range_meters":34800,"station_id":"ce4bhbp2rcd13ifvqesg","pricing_plan_id":"cebpf4jnsgd1na2vs0mg"},{"bike_id":"45e39af7-2318-411e-bd12-f66a360408d2","system_id":"levelo_inurba_marseille","lat":43.30466,"lon":5.37898,"is_reserved":false,"is_disabled":false,"rental_uris":{"android":"levelo://app?vid=45e39af7-2318-411e-bd12-f66a360408d2","ios":"levelo://app?vid=45e39af7-2318-411e-bd12-f66a360408d2"},"vehicle_type_id":"4","last_reported":1729505419,"current_range_meters":22000,"station_id":"ce4bgup2rcd13ifvqcn0","pricing_plan_id":"cebpf4jnsgd1na2vs0mg"},{"bike_id":"a8d42766-c8d3-4a14-ad9f-083c7b81b04d","system_id":"levelo_inurba_marseille","lat":43.337444,"lon":5.374475,"is_reserved":false,"is_disabled":false,"rental_uris":{"android":"levelo://app?vid=a8d42766-c8d3-4a14-ad9f-083c7b81b04d","ios":"levelo://app?vid=a8d42766-c8d3-4a14-ad9f-083c7b81b04d"},"vehicle_type_id":"4","last_reported":1729505419,"current_range_meters":38000,"station_id":"cpo3532slgdg3j2ikp40","pricing_plan_id":"cebpf4jnsgd1na2vs0mg"},{"bike_id":"e1f52bc9-63e1-43d9-8436-3d385e6b7133","system_id":"levelo_inurba_marseille","lat":43.29279,"lon":5.36845,"is_reserved":false,"is_disabled":false,"rental_uris":{"android":"levelo://app?vid=e1f52bc9-63e1-43d9-8436-3d385e6b7133","ios":"levelo://app?vid=e1f52bc9-63e1-43d9-8436-3d385e6b7133"},"vehicle_type_id":"4","last_reported":1729505419,"current_range_meters":8000,"station_id":"ce4bhbp2rcd13ifvqesg","pricing_plan_id":"cebpf4jnsgd1na2vs0mg"},{"bike_id":"685a354f-ff49-4ca8-a6ba-515d8049af7f","system_id":"levelo_inurba_marseille","lat":43.27609,"lon":5.36119,"is_reserved":false,"is_disabled":false,"rental_uris":{"android":"levelo://app?vid=685a354f-ff49-4ca8-a6ba-515d8049af7f","ios":"levelo://app?vid=685a354f-ff49-4ca8-a6ba-515d8049af7f"},"vehicle_type_id":"4","last_reported":1729505419,"current_range_meters":38400,"station_id":"ce4bgj92rcd13ifvqbe0","pricing_plan_id":"cebpf4jnsgd1na2vs0mg"},{"bike_id":"6c9aa0c7-63e4-43bd-955c-9f1b3055c12c","system_id":"levelo_inurba_marseille","lat":43.24647,"lon":5.3889,"is_reserved":false,"is_disabled":false,"rental_uris":{"android":"levelo://app?vid=6c9aa0c7-63e4-43bd-955c-9f1b3055c12c","ios":"levelo://app?vid=6c9aa0c7-63e4-43bd-955c-9f1b3055c12c"},"vehicle_type_id":"4","last_reported":1729505419,"current_range_meters":38400,"station_id":"ce4bhg12rcd13ifvqf60","pricing_plan_id":"cebpf4jnsgd1na2vs0mg"},{"bike_id":"f069a0dc-5a55-4e02-b8d3-b52288048f52","system_id":"levelo_inurba_marseille","lat":43.30908,"lon":5.36857,"is_reserved":false,"is_disabled":false,"rental_uris":{"android":"levelo://app?vid=f069a0dc-5a55-4e02-b8d3-b52288048f52","ios":"levelo://app?vid=f069a0dc-5a55-4e02-b8d3-b52288048f52"},"vehicle_type_id":"4","last_reported":1729505419,"current_range_meters":39200,"station_id":"ce4bgn92rcd13ifvqbvg","pricing_plan_id":"cebpf4jnsgd1na2vs0mg"},{"bike_id":"693bc3d9-89c3-45ad-ba4e-e633628111b0","system_id":"levelo_inurba_marseille","lat":43.3199,"lon":5.38129,"is_reserved":false,"is_disabled":false,"rental_uris":{"android":"levelo://app?vid=693bc3d9-89c3-45ad-ba4e-e633628111b0","ios":"levelo://app?vid=693bc3d9-89c3-45ad-ba4e-e633628111b0"},"vehicle_type_id":"4","last_reported":1729505419,"current_range_meters":16000,"station_id":"ce4bhr12rcd13ifvqhpg","pricing_plan_id":"cebpf4jnsgd1na2vs0mg"},{"bike_id":"90c333e8-75e3-4257-bd23-a7c6ca196633","system_id":"levelo_inurba_marseille","lat":43.30957,"lon":5.39036,"is_reserved":false,"is_disabled":false,"rental_uris":{"android":"levelo://app?vid=90c333e8-75e3-4257-bd23-a7c6ca196633","ios":"levelo://app?vid=90c333e8-75e3-4257-bd23-a7c6ca196633"},"vehicle_type_id":"4","last_reported":1729505419,"current_range_meters":33200,"station_id":"ce4bgup2rcd13ifvqco0","pricing_plan_id":"cebpf4jnsgd1na2vs0mg"},{"bike_id":"415e15ae-cf52-4bf6-9f98-9af3ff185e52","system_id":"levelo_inurba_marseille","lat":43.34142,"lon":5.40896,"is_reserved":false,"is_disabled":false,"rental_uris":{"android":"levelo://app?vid=415e15ae-cf52-4bf6-9f98-9af3ff185e52","ios":"levelo://app?vid=415e15ae-cf52-4bf6-9f98-9af3ff185e52"},"vehicle_type_id":"4","last_reported":1729505419,"current_range_meters":38800,"station_id":"ce4bhqh2rcd13ifvqhlg","pricing_plan_id":"cebpf4jnsgd1na2vs0mg"},{"bike_id":"5912cabd-2dfc-446e-abab-bb842ad63787","system_id":"levelo_inurba_marseille","lat":43.24548,"lon":5.39524,"is_reserved":false,"is_disabled":false,"rental_uris":{"android":"levelo://app?vid=5912cabd-2dfc-446e-abab-bb842ad63787","ios":"levelo://app?vid=5912cabd-2dfc-446e-abab-bb842ad63787"},"vehicle_type_id":"4","last_reported":1729505419,"current_range_meters":38800,"station_id":"ce4bhlp2rcd13ifvqgjg","pricing_plan_id":"cebpf4jnsgd1na2vs0mg"},{"bike_id":"3f9992d8-818f-4658-8f0e-450cebf37db9","system_id":"levelo_inurba_marseille","lat":43.31362,"lon":5.3671,"is_reserved":false,"is_disabled":false,"rental_uris":{"android":"levelo://app?vid=3f9992d8-818f-4658-8f0e-450cebf37db9","ios":"levelo://app?vid=3f9992d8-818f-4658-8f0e-450cebf37db9"},"vehicle_type_id":"4","last_reported":1729505419,"current_range_meters":26000,"station_id":"ce4bgr92rcd13ifvqc6g","pricing_plan_id":"cebpf4jnsgd1na2vs0mg"},{"bike_id":"465d277d-c8de-4a34-9875-808758c00c7a","system_id":"levelo_inurba_marseille","lat":43.34147,"lon":5.40906,"is_reserved":false,"is_disabled":false,"rental_uris":{"android":"levelo://app?vid=465d277d-c8de-4a34-9875-808758c00c7a","ios":"levelo://app?vid=465d277d-c8de-4a34-9875-808758c00c7a"},"vehicle_type_id":"4","last_reported":1729505419,"current_range_meters":20800,"station_id":"ce4bhqh2rcd13ifvqhlg","pricing_plan_id":"cebpf4jnsgd1na2vs0mg"},{"bike_id":"e36368e1-bbff-446a-91ce-71f4e82faeee","system_id":"levelo_inurba_marseille","lat":43.28705,"lon":5.39993,"is_reserved":false,"is_disabled":false,"rental_uris":{"android":"levelo://app?vid=e36368e1-bbff-446a-91ce-71f4e82faeee","ios":"levelo://app?vid=e36368e1-bbff-446a-91ce-71f4e82faeee"},"vehicle_type_id":"4","last_reported":1729505419,"current_range_meters":34000,"station_id":"ce4bho92rcd13ifvqh3g","pricing_plan_id":"cebpf4jnsgd1na2vs0mg"},{"bike_id":"1af868fc-d06d-4c85-a915-7ff4359d08b7","system_id":"levelo_inurba_marseille","lat":43.23155,"lon":5.43719,"is_reserved":false,"is_disabled":false,"rental_uris":{"android":"levelo://app?vid=1af868fc-d06d-4c85-a915-7ff4359d08b7","ios":"levelo://app?vid=1af868fc-d06d-4c85-a915-7ff4359d08b7"},"vehicle_type_id":"4","last_reported":1729505419,"current_range_meters":30000,"station_id":"ce4bhmp2rcd13ifvqgog","pricing_plan_id":"cebpf4jnsgd1na2vs0mg"},{"bike_id":"007b32f2-d55b-454a-941e-fca8801044b6","system_id":"levelo_inurba_marseille","lat":43.26199,"lon":5.37931,"is_reserved":false,"is_disabled":false,"rental_uris":{"android":"levelo://app?vid=007b32f2-d55b-454a-941e-fca8801044b6","ios":"levelo://app?vid=007b32f2-d55b-454a-941e-fca8801044b6"},"vehicle_type_id":"4","last_reported":1729505419,"current_range_meters":39200,"station_id":"ce4bhjp2rcd13ifvqg90","pricing_plan_id":"cebpf4jnsgd1na2vs0mg"},{"bike_id":"7c10085c-f7bf-42c6-8375-117229db8004","system_id":"levelo_inurba_marseille","lat":43.22925,"lon":5.35373,"is_reserved":false,"is_disabled":false,"rental_uris":{"android":"levelo://app?vid=7c10085c-f7bf-42c6-8375-117229db8004","ios":"levelo://app?vid=7c10085c-f7bf-42c6-8375-117229db8004"},"vehicle_type_id":"4","last_reported":1729505419,"current_range_meters":38800,"station_id":"cpo3532slgdg3j2ikp40","pricing_plan_id":"cebpf4jnsgd1na2vs0mg"},{"bike_id":"8e45225c-4772-4a88-b2e0-e37c273a9609","system_id":"levelo_inurba_marseille","lat":43.23152,"lon":5.43721,"is_reserved":false,"is_disabled":false,"rental_uris":{"android":"levelo://app?vid=8e45225c-4772-4a88-b2e0-e37c273a9609","ios":"levelo://app?vid=8e45225c-4772-4a88-b2e0-e37c273a9609"},"vehicle_type_id":"4","last_reported":1729505419,"current_range_meters":39200,"station_id":"ce4bhmp2rcd13ifvqgog","pricing_plan_id":"cebpf4jnsgd1na2vs0mg"},{"bike_id":"ddb0c8fc-b648-4e27-af66-b46073413c59","system_id":"levelo_inurba_marseille","lat":43.31355,"lon":5.36729,"is_reserved":false,"is_disabled":false,"rental_uris":{"android":"levelo://app?vid=ddb0c8fc-b648-4e27-af66-b46073413c59","ios":"levelo://app?vid=ddb0c8fc-b648-4e27-af66-b46073413c59"},"vehicle_type_id":"4","last_reported":1729505419,"current_range_meters":28400,"station_id":"ce4bgr92rcd13ifvqc6g","pricing_plan_id":"cebpf4jnsgd1na2vs0mg"},{"bike_id":"7b5a4a02-42d3-4386-8034-2ec6a5069f0d","system_id":"levelo_inurba_marseille","lat":43.308969,"lon":5.396516,"is_reserved":false,"is_disabled":false,"rental_uris":{"android":"levelo://app?vid=7b5a4a02-42d3-4386-8034-2ec6a5069f0d","ios":"levelo://app?vid=7b5a4a02-42d3-4386-8034-2ec6a5069f0d"},"vehicle_type_id":"4","last_reported":1729505419,"current_range_meters":31200,"station_id":"ce4bgn12rcd13ifvqbt0","pricing_plan_id":"cebpf4jnsgd1na2vs0mg"},{"bike_id":"bda848a9-9c0f-4e86-b399-a0580de506e0","system_id":"levelo_inurba_marseille","lat":43.27621,"lon":5.36111,"is_reserved":false,"is_disabled":false,"rental_uris":{"android":"levelo://app?vid=bda848a9-9c0f-4e86-b399-a0580de506e0","ios":"levelo://app?vid=bda848a9-9c0f-4e86-b399-a0580de506e0"},"vehicle_type_id":"4","last_reported":1729505419,"current_range_meters":36800,"station_id":"ce4bgj92rcd13ifvqbe0","pricing_plan_id":"cebpf4jnsgd1na2vs0mg"},{"bike_id":"0cb86926-5907-41b1-8366-3b3aac63faa2","system_id":"levelo_inurba_marseille","lat":43.29602,"lon":5.3689,"is_reserved":false,"is_disabled":false,"rental_uris":{"android":"levelo://app?vid=0cb86926-5907-41b1-8366-3b3aac63faa2","ios":"levelo://app?vid=0cb86926-5907-41b1-8366-3b3aac63faa2"},"vehicle_type_id":"4","last_reported":1729505419,"current_range_meters":38800,"station_id":"","pricing_plan_id":"cebpf4jnsgd1na2vs0mg"},{"bike_id":"37a4f9f2-5f27-41f6-8e49-92d6bbb82296","system_id":"levelo_inurba_marseille","lat":43.23199,"lon":5.35554,"is_reserved":false,"is_disabled":false,"rental_uris":{"android":"levelo://app?vid=37a4f9f2-5f27-41f6-8e49-92d6bbb82296","ios":"levelo://app?vid=37a4f9f2-5f27-41f6-8e49-92d6bbb82296"},"vehicle_type_id":"4","last_reported":1729505419,"current_range_meters":36000,"station_id":"ce4bhu92rcd13ifvqi70","pricing_plan_id":"cebpf4jnsgd1na2vs0mg"},{"bike_id":"7f94c2c0-ce57-456d-9b5d-8c432abc0c7f","system_id":"levelo_inurba_marseille","lat":43.31497,"lon":5.37308,"is_reserved":false,"is_disabled":false,"rental_uris":{"android":"levelo://app?vid=7f94c2c0-ce57-456d-9b5d-8c432abc0c7f","ios":"levelo://app?vid=7f94c2c0-ce57-456d-9b5d-8c432abc0c7f"},"vehicle_type_id":"4","last_reported":1729505419,"current_range_meters":36800,"station_id":"","pricing_plan_id":"cebpf4jnsgd1na2vs0mg"},{"bike_id":"0a1e6735-53a8-4566-8d3f-7ebefe452256","system_id":"levelo_inurba_marseille","lat":43.28103,"lon":5.37831,"is_reserved":false,"is_disabled":false,"rental_uris":{"android":"levelo://app?vid=0a1e6735-53a8-4566-8d3f-7ebefe452256","ios":"levelo://app?vid=0a1e6735-53a8-4566-8d3f-7ebefe452256"},"vehicle_type_id":"4","last_reported":1729505419,"current_range_meters":22400,"station_id":"ce4bha12rcd13ifvqee0","pricing_plan_id":"cebpf4jnsgd1na2vs0mg"},{"bike_id":"446ff5d1-46f8-415c-8d5a-f16129504b5b","system_id":"levelo_inurba_marseille","lat":43.302643,"lon":5.391276,"is_reserved":false,"is_disabled":false,"rental_uris":{"android":"levelo://app?vid=446ff5d1-46f8-415c-8d5a-f16129504b5b","ios":"levelo://app?vid=446ff5d1-46f8-415c-8d5a-f16129504b5b"},"vehicle_type_id":"4","last_reported":1729505419,"current_range_meters":39200,"station_id":"ce4bgkh2rcd13ifvqbk0","pricing_plan_id":"cebpf4jnsgd1na2vs0mg"},{"bike_id":"3f8eaeb8-c88d-4f23-873b-b3dda4f9d07a","system_id":"levelo_inurba_marseille","lat":43.290833,"lon":5.385854,"is_reserved":false,"is_disabled":false,"rental_uris":{"android":"levelo://app?vid=3f8eaeb8-c88d-4f23-873b-b3dda4f9d07a","ios":"levelo://app?vid=3f8eaeb8-c88d-4f23-873b-b3dda4f9d07a"},"vehicle_type_id":"4","last_reported":1729505419,"current_range_meters":36000,"station_id":"","pricing_plan_id":"cebpf4jnsgd1na2vs0mg"},{"bike_id":"5b47cbfd-3740-4a35-b9bd-478cf093a87d","system_id":"levelo_inurba_marseille","lat":43.23955,"lon":5.36627,"is_reserved":false,"is_disabled":false,"rental_uris":{"android":"levelo://app?vid=5b47cbfd-3740-4a35-b9bd-478cf093a87d","ios":"levelo://app?vid=5b47cbfd-3740-4a35-b9bd-478cf093a87d"},"vehicle_type_id":"4","last_reported":1729505419,"current_range_meters":24000,"station_id":"ce4bhi12rcd13ifvqfp0","pricing_plan_id":"cebpf4jnsgd1na2vs0mg"},{"bike_id":"3bd2eefc-8b81-44f8-ab5f-7cbe3ad50d2a","system_id":"levelo_inurba_marseille","lat":43.33023,"lon":5.39043,"is_reserved":false,"is_disabled":false,"rental_uris":{"android":"levelo://app?vid=3bd2eefc-8b81-44f8-ab5f-7cbe3ad50d2a","ios":"levelo://app?vid=3bd2eefc-8b81-44f8-ab5f-7cbe3ad50d2a"},"vehicle_type_id":"4","last_reported":1729505419,"current_range_meters":37600,"station_id":"ce4bhr92rcd13ifvqhrg","pricing_plan_id":"cebpf4jnsgd1na2vs0mg"},{"bike_id":"e61b4fc8-2123-4fed-8b31-7cc82c832930","system_id":"levelo_inurba_marseille","lat":43.30539,"lon":5.36546,"is_reserved":false,"is_disabled":false,"rental_uris":{"android":"levelo://app?vid=e61b4fc8-2123-4fed-8b31-7cc82c832930","ios":"levelo://app?vid=e61b4fc8-2123-4fed-8b31-7cc82c832930"},"vehicle_type_id":"4","last_reported":1729505419,"current_range_meters":22800,"station_id":"ce4bgs12rcd13ifvqcag","pricing_plan_id":"cebpf4jnsgd1na2vs0mg"},{"bike_id":"cf4c9975-04df-4173-8428-0da70b2a6d24","system_id":"levelo_inurba_marseille","lat":43.23968,"lon":5.36626,"is_reserved":false,"is_disabled":false,"rental_uris":{"android":"levelo://app?vid=cf4c9975-04df-4173-8428-0da70b2a6d24","ios":"levelo://app?vid=cf4c9975-04df-4173-8428-0da70b2a6d24"},"vehicle_type_id":"4","last_reported":1729505419,"current_range_meters":38000,"station_id":"ce4bhi12rcd13ifvqfp0","pricing_plan_id":"cebpf4jnsgd1na2vs0mg"},{"bike_id":"4db499a4-e2ad-46d6-b2f1-eae03814dfd2","system_id":"levelo_inurba_marseille","lat":43.30461,"lon":5.37906,"is_reserved":false,"is_disabled":false,"rental_uris":{"android":"levelo://app?vid=4db499a4-e2ad-46d6-b2f1-eae03814dfd2","ios":"levelo://app?vid=4db499a4-e2ad-46d6-b2f1-eae03814dfd2"},"vehicle_type_id":"4","last_reported":1729505419,"current_range_meters":38800,"station_id":"ce4bgup2rcd13ifvqcn0","pricing_plan_id":"cebpf4jnsgd1na2vs0mg"},{"bike_id":"e704ce2d-277a-4b57-a5c2-43a1b7b63831","system_id":"levelo_inurba_marseille","lat":43.24661,"lon":5.38161,"is_reserved":false,"is_disabled":false,"rental_uris":{"android":"levelo://app?vid=e704ce2d-277a-4b57-a5c2-43a1b7b63831","ios":"levelo://app?vid=e704ce2d-277a-4b57-a5c2-43a1b7b63831"},"vehicle_type_id":"4","last_reported":1729505419,"current_range_meters":4400,"station_id":"ce4bhih2rcd13ifvqfr0","pricing_plan_id":"cebpf4jnsgd1na2vs0mg"},{"bike_id":"01ab583f-c40f-44ae-9815-b409153492e9","system_id":"levelo_inurba_marseille","lat":43.30148,"lon":5.38094,"is_reserved":false,"is_disabled":false,"rental_uris":{"android":"levelo://app?vid=01ab583f-c40f-44ae-9815-b409153492e9","ios":"levelo://app?vid=01ab583f-c40f-44ae-9815-b409153492e9"},"vehicle_type_id":"4","last_reported":1729505419,"current_range_meters":33200,"station_id":"ce4bgjp2rcd13ifvqbh0","pricing_plan_id":"cebpf4jnsgd1na2vs0mg"},{"bike_id":"dd74bb46-c8c6-4017-8877-c4a111bb1500","system_id":"levelo_inurba_marseille","lat":43.26952,"lon":5.38628,"is_reserved":false,"is_disabled":false,"rental_uris":{"android":"levelo://app?vid=dd74bb46-c8c6-4017-8877-c4a111bb1500","ios":"levelo://app?vid=dd74bb46-c8c6-4017-8877-c4a111bb1500"},"vehicle_type_id":"4","last_reported":1729505419,"current_range_meters":37600,"station_id":"ce4bhh92rcd13ifvqfh0","pricing_plan_id":"cebpf4jnsgd1na2vs0mg"},{"bike_id":"65891004-fadc-4a7e-a75e-ae3d29351aa8","system_id":"levelo_inurba_marseille","lat":43.26678,"lon":5.38267,"is_reserved":false,"is_disabled":false,"rental_uris":{"android":"levelo://app?vid=65891004-fadc-4a7e-a75e-ae3d29351aa8","ios":"levelo://app?vid=65891004-fadc-4a7e-a75e-ae3d29351aa8"},"vehicle_type_id":"4","last_reported":1729505419,"current_range_meters":24800,"station_id":"ce4bhg92rcd13ifvqf90","pricing_plan_id":"cebpf4jnsgd1na2vs0mg"},{"bike_id":"7a0ab312-b352-44c4-87a1-5a8ea290c2b1","system_id":"levelo_inurba_marseille","lat":43.28151,"lon":5.42646,"is_reserved":false,"is_disabled":false,"rental_uris":{"android":"levelo://app?vid=7a0ab312-b352-44c4-87a1-5a8ea290c2b1","ios":"levelo://app?vid=7a0ab312-b352-44c4-87a1-5a8ea290c2b1"},"vehicle_type_id":"4","last_reported":1729505419,"current_range_meters":28000,"station_id":"ce4bhnh2rcd13ifvqgug","pricing_plan_id":"cebpf4jnsgd1na2vs0mg"},{"bike_id":"1e64d28d-4e8e-4f4d-82ba-2f7f01fb09c2","system_id":"levelo_inurba_marseille","lat":43.3053,"lon":5.36514,"is_reserved":false,"is_disabled":false,"rental_uris":{"android":"levelo://app?vid=1e64d28d-4e8e-4f4d-82ba-2f7f01fb09c2","ios":"levelo://app?vid=1e64d28d-4e8e-4f4d-82ba-2f7f01fb09c2"},"vehicle_type_id":"4","last_reported":1729505419,"current_range_meters":27600,"station_id":"ce4bgs12rcd13ifvqcag","pricing_plan_id":"cebpf4jnsgd1na2vs0mg"},{"bike_id":"651ee0a8-c956-470f-a065-c86f80d96cea","system_id":"levelo_inurba_marseille","lat":43.27059,"lon":5.40259,"is_reserved":false,"is_disabled":false,"rental_uris":{"android":"levelo://app?vid=651ee0a8-c956-470f-a065-c86f80d96cea","ios":"levelo://app?vid=651ee0a8-c956-470f-a065-c86f80d96cea"},"vehicle_type_id":"4","last_reported":1729505419,"current_range_meters":4000,"station_id":"ce4bhk92rcd13ifvqgc0","pricing_plan_id":"cebpf4jnsgd1na2vs0mg"},{"bike_id":"5c473737-19d0-4df1-9f25-65beeeaf1573","system_id":"levelo_inurba_marseille","lat":43.30952,"lon":5.39031,"is_reserved":false,"is_disabled":false,"rental_uris":{"android":"levelo://app?vid=5c473737-19d0-4df1-9f25-65beeeaf1573","ios":"levelo://app?vid=5c473737-19d0-4df1-9f25-65beeeaf1573"},"vehicle_type_id":"4","last_reported":1729505419,"current_range_meters":23200,"station_id":"ce4bgup2rcd13ifvqco0","pricing_plan_id":"cebpf4jnsgd1na2vs0mg"},{"bike_id":"79c7408b-b5b5-439a-9e1e-fce8fce2cf9a","system_id":"levelo_inurba_marseille","lat":43.22931,"lon":5.35374,"is_reserved":false,"is_disabled":false,"rental_uris":{"android":"levelo://app?vid=79c7408b-b5b5-439a-9e1e-fce8fce2cf9a","ios":"levelo://app?vid=79c7408b-b5b5-439a-9e1e-fce8fce2cf9a"},"vehicle_type_id":"4","last_reported":1729505419,"current_range_meters":38800,"station_id":"cpo3532slgdg3j2ikp40","pricing_plan_id":"cebpf4jnsgd1na2vs0mg"},{"bike_id":"6fc5767c-7409-405d-8c24-4a08a7e916fc","system_id":"levelo_inurba_marseille","lat":43.240783,"lon":5.377507,"is_reserved":false,"is_disabled":false,"rental_uris":{"android":"levelo://app?vid=6fc5767c-7409-405d-8c24-4a08a7e916fc","ios":"levelo://app?vid=6fc5767c-7409-405d-8c24-4a08a7e916fc"},"vehicle_type_id":"4","last_reported":1729505419,"current_range_meters":38000,"station_id":"ce4bhnp2rcd13ifvqgvg","pricing_plan_id":"cebpf4jnsgd1na2vs0mg"},{"bike_id":"1539b0dc-9b02-483d-9a8d-42dfffd6887e","system_id":"levelo_inurba_marseille","lat":43.28703,"lon":5.39982,"is_reserved":false,"is_disabled":false,"rental_uris":{"android":"levelo://app?vid=1539b0dc-9b02-483d-9a8d-42dfffd6887e","ios":"levelo://app?vid=1539b0dc-9b02-483d-9a8d-42dfffd6887e"},"vehicle_type_id":"4","last_reported":1729505419,"current_range_meters":27600,"station_id":"ce4bho92rcd13ifvqh3g","pricing_plan_id":"cebpf4jnsgd1na2vs0mg"},{"bike_id":"7baafccc-f243-4381-9dc7-cb5a4f2816d8","system_id":"levelo_inurba_marseille","lat":43.26421,"lon":5.38689,"is_reserved":false,"is_disabled":false,"rental_uris":{"android":"levelo://app?vid=7baafccc-f243-4381-9dc7-cb5a4f2816d8","ios":"levelo://app?vid=7baafccc-f243-4381-9dc7-cb5a4f2816d8"},"vehicle_type_id":"4","last_reported":1729505419,"current_range_meters":14400,"station_id":"","pricing_plan_id":"cebpf4jnsgd1na2vs0mg"},{"bike_id":"541c4793-0686-4664-9a51-6e30e93cf10b","system_id":"levelo_inurba_marseille","lat":43.33756,"lon":5.37438,"is_reserved":false,"is_disabled":false,"rental_uris":{"android":"levelo://app?vid=541c4793-0686-4664-9a51-6e30e93cf10b","ios":"levelo://app?vid=541c4793-0686-4664-9a51-6e30e93cf10b"},"vehicle_type_id":"4","last_reported":1729505419,"current_range_meters":6400,"station_id":"","pricing_plan_id":"cebpf4jnsgd1na2vs0mg"},{"bike_id":"ed6bf654-9699-4a55-a92d-fd232e5adf26","system_id":"levelo_inurba_marseille","lat":43.3133,"lon":5.36736,"is_reserved":false,"is_disabled":false,"rental_uris":{"android":"levelo://app?vid=ed6bf654-9699-4a55-a92d-fd232e5adf26","ios":"levelo://app?vid=ed6bf654-9699-4a55-a92d-fd232e5adf26"},"vehicle_type_id":"4","last_reported":1729505419,"current_range_meters":35600,"station_id":"ce4bgr92rcd13ifvqc6g","pricing_plan_id":"cebpf4jnsgd1na2vs0mg"},{"bike_id":"f69ca7ef-2996-4441-8144-e9b3853af022","system_id":"levelo_inurba_marseille","lat":43.25933,"lon":5.40909,"is_reserved":false,"is_disabled":false,"rental_uris":{"android":"levelo://app?vid=f69ca7ef-2996-4441-8144-e9b3853af022","ios":"levelo://app?vid=f69ca7ef-2996-4441-8144-e9b3853af022"},"vehicle_type_id":"4","last_reported":1729505419,"current_range_meters":22400,"station_id":"ce4bhm92rcd13ifvqglg","pricing_plan_id":"cebpf4jnsgd1na2vs0mg"},{"bike_id":"b07bd83c-73b7-460d-bb72-364846b13cf7","system_id":"levelo_inurba_marseille","lat":43.26937,"lon":5.3893,"is_reserved":false,"is_disabled":false,"rental_uris":{"android":"levelo://app?vid=b07bd83c-73b7-460d-bb72-364846b13cf7","ios":"levelo://app?vid=b07bd83c-73b7-460d-bb72-364846b13cf7"},"vehicle_type_id":"4","last_reported":1729505419,"current_range_meters":39200,"station_id":"ce4bhhh2rcd13ifvqfl0","pricing_plan_id":"cebpf4jnsgd1na2vs0mg"},{"bike_id":"e36e8b70-cdbc-4b6c-9fe9-c4fbf657cc2e","system_id":"levelo_inurba_marseille","lat":43.31511,"lon":5.3896,"is_reserved":false,"is_disabled":false,"rental_uris":{"android":"levelo://app?vid=e36e8b70-cdbc-4b6c-9fe9-c4fbf657cc2e","ios":"levelo://app?vid=e36e8b70-cdbc-4b6c-9fe9-c4fbf657cc2e"},"vehicle_type_id":"4","last_reported":1729505419,"current_range_meters":22800,"station_id":"","pricing_plan_id":"cebpf4jnsgd1na2vs0mg"},{"bike_id":"a95ed4d7-3082-4f51-8aec-66ccfb07cf29","system_id":"levelo_inurba_marseille","lat":43.27979,"lon":5.38728,"is_reserved":false,"is_disabled":false,"rental_uris":{"android":"levelo://app?vid=a95ed4d7-3082-4f51-8aec-66ccfb07cf29","ios":"levelo://app?vid=a95ed4d7-3082-4f51-8aec-66ccfb07cf29"},"vehicle_type_id":"4","last_reported":1729505419,"current_range_meters":30400,"station_id":"ce4bhg12rcd13ifvqf80","pricing_plan_id":"cebpf4jnsgd1na2vs0mg"},{"bike_id":"7174d7df-f95a-491a-a34e-a4275caac552","system_id":"levelo_inurba_marseille","lat":43.26683,"lon":5.38273,"is_reserved":false,"is_disabled":false,"rental_uris":{"android":"levelo://app?vid=7174d7df-f95a-491a-a34e-a4275caac552","ios":"levelo://app?vid=7174d7df-f95a-491a-a34e-a4275caac552"},"vehicle_type_id":"4","last_reported":1729505419,"current_range_meters":19200,"station_id":"ce4bhg92rcd13ifvqf90","pricing_plan_id":"cebpf4jnsgd1na2vs0mg"},{"bike_id":"cd0dce23-200f-416c-916b-7be9d153fea3","system_id":"levelo_inurba_marseille","lat":43.2607,"lon":5.38549,"is_reserved":false,"is_disabled":false,"rental_uris":{"android":"levelo://app?vid=cd0dce23-200f-416c-916b-7be9d153fea3","ios":"levelo://app?vid=cd0dce23-200f-416c-916b-7be9d153fea3"},"vehicle_type_id":"4","last_reported":1729505419,"current_range_meters":15200,"station_id":"","pricing_plan_id":"cebpf4jnsgd1na2vs0mg"},{"bike_id":"a446dd39-d409-4b96-a8ec-c5997003028a","system_id":"levelo_inurba_marseille","lat":43.22933,"lon":5.35379,"is_reserved":false,"is_disabled":false,"rental_uris":{"android":"levelo://app?vid=a446dd39-d409-4b96-a8ec-c5997003028a","ios":"levelo://app?vid=a446dd39-d409-4b96-a8ec-c5997003028a"},"vehicle_type_id":"4","last_reported":1729505419,"current_range_meters":38400,"station_id":"cpo3532slgdg3j2ikp40","pricing_plan_id":"cebpf4jnsgd1na2vs0mg"},{"bike_id":"fa4ebeac-a473-4b20-bee1-8ed88d72d4bc","system_id":"levelo_inurba_marseille","lat":43.24179,"lon":5.39734,"is_reserved":false,"is_disabled":false,"rental_uris":{"android":"levelo://app?vid=fa4ebeac-a473-4b20-bee1-8ed88d72d4bc","ios":"levelo://app?vid=fa4ebeac-a473-4b20-bee1-8ed88d72d4bc"},"vehicle_type_id":"4","last_reported":1729505419,"current_range_meters":2000,"station_id":"ce4bhn12rcd13ifvqgpg","pricing_plan_id":"cebpf4jnsgd1na2vs0mg"},{"bike_id":"24bdaad4-4889-401c-82e5-3e5a38c6838d","system_id":"levelo_inurba_marseille","lat":43.28935,"lon":5.38396,"is_reserved":false,"is_disabled":false,"rental_uris":{"android":"levelo://app?vid=24bdaad4-4889-401c-82e5-3e5a38c6838d","ios":"levelo://app?vid=24bdaad4-4889-401c-82e5-3e5a38c6838d"},"vehicle_type_id":"4","last_reported":1729505419,"current_range_meters":6000,"station_id":"ce4bh612rcd13ifvqe6g","pricing_plan_id":"cebpf4jnsgd1na2vs0mg"},{"bike_id":"86f680b7-d8d0-45c2-bd6c-7639aae30d26","system_id":"levelo_inurba_marseille","lat":43.2418,"lon":5.39731,"is_reserved":false,"is_disabled":false,"rental_uris":{"android":"levelo://app?vid=86f680b7-d8d0-45c2-bd6c-7639aae30d26","ios":"levelo://app?vid=86f680b7-d8d0-45c2-bd6c-7639aae30d26"},"vehicle_type_id":"4","last_reported":1729505419,"current_range_meters":20000,"station_id":"ce4bhn12rcd13ifvqgpg","pricing_plan_id":"cebpf4jnsgd1na2vs0mg"},{"bike_id":"e35cc56b-adb4-434c-b46e-6f2eaf6ed28f","system_id":"levelo_inurba_marseille","lat":43.24665,"lon":5.38167,"is_reserved":false,"is_disabled":false,"rental_uris":{"android":"levelo://app?vid=e35cc56b-adb4-434c-b46e-6f2eaf6ed28f","ios":"levelo://app?vid=e35cc56b-adb4-434c-b46e-6f2eaf6ed28f"},"vehicle_type_id":"4","last_reported":1729505419,"current_range_meters":26800,"station_id":"ce4bhih2rcd13ifvqfr0","pricing_plan_id":"cebpf4jnsgd1na2vs0mg"},{"bike_id":"8deeda66-aa1d-41a6-95c2-fd6566620e6a","system_id":"levelo_inurba_marseille","lat":43.32479,"lon":5.36561,"is_reserved":false,"is_disabled":false,"rental_uris":{"android":"levelo://app?vid=8deeda66-aa1d-41a6-95c2-fd6566620e6a","ios":"levelo://app?vid=8deeda66-aa1d-41a6-95c2-fd6566620e6a"},"vehicle_type_id":"4","last_reported":1729505419,"current_range_meters":36000,"station_id":"ce4bhs12rcd13ifvqhvg","pricing_plan_id":"cebpf4jnsgd1na2vs0mg"},{"bike_id":"6670352d-ea39-4392-9ae9-a3b6ac92e931","system_id":"levelo_inurba_marseille","lat":43.29942,"lon":5.36541,"is_reserved":false,"is_disabled":false,"rental_uris":{"android":"levelo://app?vid=6670352d-ea39-4392-9ae9-a3b6ac92e931","ios":"levelo://app?vid=6670352d-ea39-4392-9ae9-a3b6ac92e931"},"vehicle_type_id":"4","last_reported":1729505419,"current_range_meters":33600,"station_id":"ce4bgm92rcd13ifvqbr0","pricing_plan_id":"cebpf4jnsgd1na2vs0mg"},{"bike_id":"8ed66073-06ae-4f9f-ad68-87d9c5563567","system_id":"levelo_inurba_marseille","lat":43.3014,"lon":5.37417,"is_reserved":false,"is_disabled":false,"rental_uris":{"android":"levelo://app?vid=8ed66073-06ae-4f9f-ad68-87d9c5563567","ios":"levelo://app?vid=8ed66073-06ae-4f9f-ad68-87d9c5563567"},"vehicle_type_id":"4","last_reported":1729505419,"current_range_meters":38400,"station_id":"ce4bgs92rcd13ifvqcc0","pricing_plan_id":"cebpf4jnsgd1na2vs0mg"},{"bike_id":"f77d75a0-21c8-4ccc-bba5-f5d7d460aa1d","system_id":"levelo_inurba_marseille","lat":43.2955,"lon":5.42285,"is_reserved":false,"is_disabled":false,"rental_uris":{"android":"levelo://app?vid=f77d75a0-21c8-4ccc-bba5-f5d7d460aa1d","ios":"levelo://app?vid=f77d75a0-21c8-4ccc-bba5-f5d7d460aa1d"},"vehicle_type_id":"4","last_reported":1729505419,"current_range_meters":34000,"station_id":"ce4bhph2rcd13ifvqhdg","pricing_plan_id":"cebpf4jnsgd1na2vs0mg"},{"bike_id":"e3bd1799-d90a-4b0d-9087-8873a9f9f703","system_id":"levelo_inurba_marseille","lat":43.30545,"lon":5.36538,"is_reserved":false,"is_disabled":false,"rental_uris":{"android":"levelo://app?vid=e3bd1799-d90a-4b0d-9087-8873a9f9f703","ios":"levelo://app?vid=e3bd1799-d90a-4b0d-9087-8873a9f9f703"},"vehicle_type_id":"4","last_reported":1729505419,"current_range_meters":36800,"station_id":"ce4bgs12rcd13ifvqcag","pricing_plan_id":"cebpf4jnsgd1na2vs0mg"},{"bike_id":"fb4c1f40-f843-4a8a-8dc9-8cb92e4b3334","system_id":"levelo_inurba_marseille","lat":43.26945,"lon":5.40248,"is_reserved":false,"is_disabled":false,"rental_uris":{"android":"levelo://app?vid=fb4c1f40-f843-4a8a-8dc9-8cb92e4b3334","ios":"levelo://app?vid=fb4c1f40-f843-4a8a-8dc9-8cb92e4b3334"},"vehicle_type_id":"4","last_reported":1729505419,"current_range_meters":28000,"station_id":"cjm6bp8fraef2m0cb0m0","pricing_plan_id":"cebpf4jnsgd1na2vs0mg"},{"bike_id":"b2d59f63-1b90-46bd-82ae-d5d0435fdcfa","system_id":"levelo_inurba_marseille","lat":43.32109,"lon":5.36765,"is_reserved":false,"is_disabled":false,"rental_uris":{"android":"levelo://app?vid=b2d59f63-1b90-46bd-82ae-d5d0435fdcfa","ios":"levelo://app?vid=b2d59f63-1b90-46bd-82ae-d5d0435fdcfa"},"vehicle_type_id":"4","last_reported":1729505419,"current_range_meters":33200,"station_id":"ce4bhrh2rcd13ifvqhug","pricing_plan_id":"cebpf4jnsgd1na2vs0mg"},{"bike_id":"f0b62db5-5892-4cd3-91e1-48dd33a8bb96","system_id":"levelo_inurba_marseille","lat":43.24549,"lon":5.39524,"is_reserved":false,"is_disabled":false,"rental_uris":{"android":"levelo://app?vid=f0b62db5-5892-4cd3-91e1-48dd33a8bb96","ios":"levelo://app?vid=f0b62db5-5892-4cd3-91e1-48dd33a8bb96"},"vehicle_type_id":"4","last_reported":1729505419,"current_range_meters":4800,"station_id":"ce4bhlp2rcd13ifvqgjg","pricing_plan_id":"cebpf4jnsgd1na2vs0mg"},{"bike_id":"56173444-6f1f-4ec8-a2c7-80d2cbf88dc6","system_id":"levelo_inurba_marseille","lat":43.29074,"lon":5.37815,"is_reserved":false,"is_disabled":false,"rental_uris":{"android":"levelo://app?vid=56173444-6f1f-4ec8-a2c7-80d2cbf88dc6","ios":"levelo://app?vid=56173444-6f1f-4ec8-a2c7-80d2cbf88dc6"},"vehicle_type_id":"4","last_reported":1729505419,"current_range_meters":17200,"station_id":"ce4bh692rcd13ifvqe90","pricing_plan_id":"cebpf4jnsgd1na2vs0mg"},{"bike_id":"9e9796c2-ce92-408f-b9e0-895128ce3124","system_id":"levelo_inurba_marseille","lat":43.26686,"lon":5.38267,"is_reserved":false,"is_disabled":false,"rental_uris":{"android":"levelo://app?vid=9e9796c2-ce92-408f-b9e0-895128ce3124","ios":"levelo://app?vid=9e9796c2-ce92-408f-b9e0-895128ce3124"},"vehicle_type_id":"4","last_reported":1729505419,"current_range_meters":7200,"station_id":"ce4bhg92rcd13ifvqf90","pricing_plan_id":"cebpf4jnsgd1na2vs0mg"},{"bike_id":"f27456d1-d5ce-436a-83a9-64de4b49ed68","system_id":"levelo_inurba_marseille","lat":43.24176,"lon":5.39734,"is_reserved":false,"is_disabled":false,"rental_uris":{"android":"levelo://app?vid=f27456d1-d5ce-436a-83a9-64de4b49ed68","ios":"levelo://app?vid=f27456d1-d5ce-436a-83a9-64de4b49ed68"},"vehicle_type_id":"4","last_reported":1729505419,"current_range_meters":32000,"station_id":"ce4bhn12rcd13ifvqgpg","pricing_plan_id":"cebpf4jnsgd1na2vs0mg"},{"bike_id":"d06a881c-f80d-48b8-9719-6afcceb956d7","system_id":"levelo_inurba_marseille","lat":43.3302,"lon":5.39035,"is_reserved":false,"is_disabled":false,"rental_uris":{"android":"levelo://app?vid=d06a881c-f80d-48b8-9719-6afcceb956d7","ios":"levelo://app?vid=d06a881c-f80d-48b8-9719-6afcceb956d7"},"vehicle_type_id":"4","last_reported":1729505419,"current_range_meters":38800,"station_id":"ce4bhr92rcd13ifvqhrg","pricing_plan_id":"cebpf4jnsgd1na2vs0mg"},{"bike_id":"3701adb6-e87b-44e7-b5b8-a659a9565d5b","system_id":"levelo_inurba_marseille","lat":43.24072,"lon":5.37756,"is_reserved":false,"is_disabled":false,"rental_uris":{"android":"levelo://app?vid=3701adb6-e87b-44e7-b5b8-a659a9565d5b","ios":"levelo://app?vid=3701adb6-e87b-44e7-b5b8-a659a9565d5b"},"vehicle_type_id":"4","last_reported":1729505419,"current_range_meters":4800,"station_id":"ce4bhnp2rcd13ifvqgvg","pricing_plan_id":"cebpf4jnsgd1na2vs0mg"},{"bike_id":"fc2db51a-f0ef-4e75-ad3a-b27ae4dc3a7b","system_id":"levelo_inurba_marseille","lat":43.32485,"lon":5.3657,"is_reserved":false,"is_disabled":false,"rental_uris":{"android":"levelo://app?vid=fc2db51a-f0ef-4e75-ad3a-b27ae4dc3a7b","ios":"levelo://app?vid=fc2db51a-f0ef-4e75-ad3a-b27ae4dc3a7b"},"vehicle_type_id":"4","last_reported":1729505419,"current_range_meters":18000,"station_id":"ce4bhs12rcd13ifvqhvg","pricing_plan_id":"cebpf4jnsgd1na2vs0mg"},{"bike_id":"2fdf444c-bdb9-478f-ad75-22e42eee449c","system_id":"levelo_inurba_marseille","lat":43.313556,"lon":5.36715,"is_reserved":false,"is_disabled":false,"rental_uris":{"android":"levelo://app?vid=2fdf444c-bdb9-478f-ad75-22e42eee449c","ios":"levelo://app?vid=2fdf444c-bdb9-478f-ad75-22e42eee449c"},"vehicle_type_id":"4","last_reported":1729505419,"current_range_meters":30800,"station_id":"ce4bgr92rcd13ifvqc6g","pricing_plan_id":"cebpf4jnsgd1na2vs0mg"},{"bike_id":"4a5dc7f8-2f34-473f-9ce7-f2a853f522d2","system_id":"levelo_inurba_marseille","lat":43.30471,"lon":5.37898,"is_reserved":false,"is_disabled":false,"rental_uris":{"android":"levelo://app?vid=4a5dc7f8-2f34-473f-9ce7-f2a853f522d2","ios":"levelo://app?vid=4a5dc7f8-2f34-473f-9ce7-f2a853f522d2"},"vehicle_type_id":"4","last_reported":1729505419,"current_range_meters":37600,"station_id":"ce4bgup2rcd13ifvqcn0","pricing_plan_id":"cebpf4jnsgd1na2vs0mg"},{"bike_id":"0b923dd1-548c-4e5f-8039-71a30a1aa65f","system_id":"levelo_inurba_marseille","lat":43.34144,"lon":5.40898,"is_reserved":false,"is_disabled":false,"rental_uris":{"android":"levelo://app?vid=0b923dd1-548c-4e5f-8039-71a30a1aa65f","ios":"levelo://app?vid=0b923dd1-548c-4e5f-8039-71a30a1aa65f"},"vehicle_type_id":"4","last_reported":1729505419,"current_range_meters":23200,"station_id":"ce4bhqh2rcd13ifvqhlg","pricing_plan_id":"cebpf4jnsgd1na2vs0mg"},{"bike_id":"38bedc2f-08d9-4a48-99c8-67fc25dcc307","system_id":"levelo_inurba_marseille","lat":43.29893,"lon":5.43669,"is_reserved":false,"is_disabled":false,"rental_uris":{"android":"levelo://app?vid=38bedc2f-08d9-4a48-99c8-67fc25dcc307","ios":"levelo://app?vid=38bedc2f-08d9-4a48-99c8-67fc25dcc307"},"vehicle_type_id":"4","last_reported":1729505419,"current_range_meters":24800,"station_id":"ce4bhpp2rcd13ifvqhfg","pricing_plan_id":"cebpf4jnsgd1na2vs0mg"},{"bike_id":"da1db76b-4517-4a8f-880a-62e8217a0159","system_id":"levelo_inurba_marseille","lat":43.27673,"lon":5.38881,"is_reserved":false,"is_disabled":false,"rental_uris":{"android":"levelo://app?vid=da1db76b-4517-4a8f-880a-62e8217a0159","ios":"levelo://app?vid=da1db76b-4517-4a8f-880a-62e8217a0159"},"vehicle_type_id":"4","last_reported":1729505419,"current_range_meters":7200,"station_id":"ce4bhi12rcd13ifvqfo0","pricing_plan_id":"cebpf4jnsgd1na2vs0mg"},{"bike_id":"767e54ea-2862-4d5d-9e5e-31ffd94b6375","system_id":"levelo_inurba_marseille","lat":43.24546,"lon":5.39529,"is_reserved":false,"is_disabled":false,"rental_uris":{"android":"levelo://app?vid=767e54ea-2862-4d5d-9e5e-31ffd94b6375","ios":"levelo://app?vid=767e54ea-2862-4d5d-9e5e-31ffd94b6375"},"vehicle_type_id":"4","last_reported":1729505419,"current_range_meters":10800,"station_id":"ce4bhlp2rcd13ifvqgjg","pricing_plan_id":"cebpf4jnsgd1na2vs0mg"},{"bike_id":"fba534b7-8834-4040-beed-9f2d2c2a8f68","system_id":"levelo_inurba_marseille","lat":43.29971,"lon":5.38501,"is_reserved":false,"is_disabled":false,"rental_uris":{"android":"levelo://app?vid=fba534b7-8834-4040-beed-9f2d2c2a8f68","ios":"levelo://app?vid=fba534b7-8834-4040-beed-9f2d2c2a8f68"},"vehicle_type_id":"4","last_reported":1729505419,"current_range_meters":15200,"station_id":"ce4bgj92rcd13ifvqbd0","pricing_plan_id":"cebpf4jnsgd1na2vs0mg"},{"bike_id":"f368d2c9-190f-4db4-a766-ac84e90dd6b8","system_id":"levelo_inurba_marseille","lat":43.25932,"lon":5.40912,"is_reserved":false,"is_disabled":false,"rental_uris":{"android":"levelo://app?vid=f368d2c9-190f-4db4-a766-ac84e90dd6b8","ios":"levelo://app?vid=f368d2c9-190f-4db4-a766-ac84e90dd6b8"},"vehicle_type_id":"4","last_reported":1729505419,"current_range_meters":12400,"station_id":"ce4bhm92rcd13ifvqglg","pricing_plan_id":"cebpf4jnsgd1na2vs0mg"},{"bike_id":"5a798e21-604d-42b2-83c8-08e30ec3525d","system_id":"levelo_inurba_marseille","lat":43.29023,"lon":5.35619,"is_reserved":false,"is_disabled":false,"rental_uris":{"android":"levelo://app?vid=5a798e21-604d-42b2-83c8-08e30ec3525d","ios":"levelo://app?vid=5a798e21-604d-42b2-83c8-08e30ec3525d"},"vehicle_type_id":"4","last_reported":1729505419,"current_range_meters":38800,"station_id":"ce4bhb92rcd13ifvqen0","pricing_plan_id":"cebpf4jnsgd1na2vs0mg"},{"bike_id":"f125cbbf-958d-406d-a867-10cd439e665f","system_id":"levelo_inurba_marseille","lat":43.26205,"lon":5.37928,"is_reserved":false,"is_disabled":false,"rental_uris":{"android":"levelo://app?vid=f125cbbf-958d-406d-a867-10cd439e665f","ios":"levelo://app?vid=f125cbbf-958d-406d-a867-10cd439e665f"},"vehicle_type_id":"4","last_reported":1729505419,"current_range_meters":37600,"station_id":"ce4bhjp2rcd13ifvqg90","pricing_plan_id":"cebpf4jnsgd1na2vs0mg"},{"bike_id":"f97417bb-6569-44de-b14f-51c61556b74a","system_id":"levelo_inurba_marseille","lat":43.23155,"lon":5.437,"is_reserved":false,"is_disabled":false,"rental_uris":{"android":"levelo://app?vid=f97417bb-6569-44de-b14f-51c61556b74a","ios":"levelo://app?vid=f97417bb-6569-44de-b14f-51c61556b74a"},"vehicle_type_id":"4","last_reported":1729505419,"current_range_meters":38800,"station_id":"ce4bhmp2rcd13ifvqgog","pricing_plan_id":"cebpf4jnsgd1na2vs0mg"},{"bike_id":"80784dfe-c582-466f-95ad-8e743e8a562c","system_id":"levelo_inurba_marseille","lat":43.30282,"lon":5.377,"is_reserved":false,"is_disabled":false,"rental_uris":{"android":"levelo://app?vid=80784dfe-c582-466f-95ad-8e743e8a562c","ios":"levelo://app?vid=80784dfe-c582-466f-95ad-8e743e8a562c"},"vehicle_type_id":"4","last_reported":1729505419,"current_range_meters":38800,"station_id":"ce4bguh2rcd13ifvqcj0","pricing_plan_id":"cebpf4jnsgd1na2vs0mg"},{"bike_id":"c8823160-4899-402a-988b-338985ef1c83","system_id":"levelo_inurba_marseille","lat":43.26575,"lon":5.39001,"is_reserved":false,"is_disabled":false,"rental_uris":{"android":"levelo://app?vid=c8823160-4899-402a-988b-338985ef1c83","ios":"levelo://app?vid=c8823160-4899-402a-988b-338985ef1c83"},"vehicle_type_id":"4","last_reported":1729505419,"current_range_meters":32400,"station_id":"ce4bhe12rcd13ifvqf30","pricing_plan_id":"cebpf4jnsgd1na2vs0mg"},{"bike_id":"3a90cd5a-8d84-4a1f-9da8-3547bb5d20c1","system_id":"levelo_inurba_marseille","lat":43.23201,"lon":5.35549,"is_reserved":false,"is_disabled":false,"rental_uris":{"android":"levelo://app?vid=3a90cd5a-8d84-4a1f-9da8-3547bb5d20c1","ios":"levelo://app?vid=3a90cd5a-8d84-4a1f-9da8-3547bb5d20c1"},"vehicle_type_id":"4","last_reported":1729505419,"current_range_meters":38800,"station_id":"ce4bhu92rcd13ifvqi70","pricing_plan_id":"cebpf4jnsgd1na2vs0mg"},{"bike_id":"b0fa5059-f20e-4983-a7a9-b5e7b43c7eff","system_id":"levelo_inurba_marseille","lat":43.26685,"lon":5.38272,"is_reserved":false,"is_disabled":false,"rental_uris":{"android":"levelo://app?vid=b0fa5059-f20e-4983-a7a9-b5e7b43c7eff","ios":"levelo://app?vid=b0fa5059-f20e-4983-a7a9-b5e7b43c7eff"},"vehicle_type_id":"4","last_reported":1729505419,"current_range_meters":38800,"station_id":"ce4bhg92rcd13ifvqf90","pricing_plan_id":"cebpf4jnsgd1na2vs0mg"},{"bike_id":"bddf1334-d888-40f8-b6e9-18b5529cf0f4","system_id":"levelo_inurba_marseille","lat":43.31677,"lon":5.37547,"is_reserved":false,"is_disabled":false,"rental_uris":{"android":"levelo://app?vid=bddf1334-d888-40f8-b6e9-18b5529cf0f4","ios":"levelo://app?vid=bddf1334-d888-40f8-b6e9-18b5529cf0f4"},"vehicle_type_id":"4","last_reported":1729505419,"current_range_meters":17200,"station_id":"","pricing_plan_id":"cebpf4jnsgd1na2vs0mg"},{"bike_id":"27d7397b-3a64-4c8d-985f-c89fa0625145","system_id":"levelo_inurba_marseille","lat":43.2319,"lon":5.35543,"is_reserved":false,"is_disabled":false,"rental_uris":{"android":"levelo://app?vid=27d7397b-3a64-4c8d-985f-c89fa0625145","ios":"levelo://app?vid=27d7397b-3a64-4c8d-985f-c89fa0625145"},"vehicle_type_id":"4","last_reported":1729505419,"current_range_meters":38000,"station_id":"ce4bhu92rcd13ifvqi70","pricing_plan_id":"cebpf4jnsgd1na2vs0mg"},{"bike_id":"1accd2dd-ae27-42de-9ff0-0cd151a368cd","system_id":"levelo_inurba_marseille","lat":43.28151,"lon":5.42647,"is_reserved":false,"is_disabled":false,"rental_uris":{"android":"levelo://app?vid=1accd2dd-ae27-42de-9ff0-0cd151a368cd","ios":"levelo://app?vid=1accd2dd-ae27-42de-9ff0-0cd151a368cd"},"vehicle_type_id":"4","last_reported":1729505419,"current_range_meters":26800,"station_id":"ce4bhnh2rcd13ifvqgug","pricing_plan_id":"cebpf4jnsgd1na2vs0mg"},{"bike_id":"3f0d9aed-7732-4b7d-9bda-19e598f97764","system_id":"levelo_inurba_marseille","lat":43.32488,"lon":5.36558,"is_reserved":false,"is_disabled":false,"rental_uris":{"android":"levelo://app?vid=3f0d9aed-7732-4b7d-9bda-19e598f97764","ios":"levelo://app?vid=3f0d9aed-7732-4b7d-9bda-19e598f97764"},"vehicle_type_id":"4","last_reported":1729505419,"current_range_meters":35600,"station_id":"ce4bhs12rcd13ifvqhvg","pricing_plan_id":"cebpf4jnsgd1na2vs0mg"},{"bike_id":"d96ffee9-1ad9-4436-998b-76d219db62f4","system_id":"levelo_inurba_marseille","lat":43.24385,"lon":5.37054,"is_reserved":false,"is_disabled":false,"rental_uris":{"android":"levelo://app?vid=d96ffee9-1ad9-4436-998b-76d219db62f4","ios":"levelo://app?vid=d96ffee9-1ad9-4436-998b-76d219db62f4"},"vehicle_type_id":"4","last_reported":1729505419,"current_range_meters":39200,"station_id":"ce4bhhh2rcd13ifvqfk0","pricing_plan_id":"cebpf4jnsgd1na2vs0mg"},{"bike_id":"b7a735d7-f1dd-4ee6-9916-5d65507bb1f6","system_id":"levelo_inurba_marseille","lat":43.33608,"lon":5.41032,"is_reserved":false,"is_disabled":false,"rental_uris":{"android":"levelo://app?vid=b7a735d7-f1dd-4ee6-9916-5d65507bb1f6","ios":"levelo://app?vid=b7a735d7-f1dd-4ee6-9916-5d65507bb1f6"},"vehicle_type_id":"4","last_reported":1729505419,"current_range_meters":31200,"station_id":"ce4bhqh2rcd13ifvqhmg","pricing_plan_id":"cebpf4jnsgd1na2vs0mg"},{"bike_id":"3213665e-989c-4d22-9f5a-31c8522597dd","system_id":"levelo_inurba_marseille","lat":43.296,"lon":5.36142,"is_reserved":false,"is_disabled":false,"rental_uris":{"android":"levelo://app?vid=3213665e-989c-4d22-9f5a-31c8522597dd","ios":"levelo://app?vid=3213665e-989c-4d22-9f5a-31c8522597dd"},"vehicle_type_id":"4","last_reported":1729505419,"current_range_meters":11200,"station_id":"","pricing_plan_id":"cebpf4jnsgd1na2vs0mg"},{"bike_id":"584f6c19-9858-4b93-836c-f01a970b5e91","system_id":"levelo_inurba_marseille","lat":43.30466,"lon":5.37905,"is_reserved":false,"is_disabled":false,"rental_uris":{"android":"levelo://app?vid=584f6c19-9858-4b93-836c-f01a970b5e91","ios":"levelo://app?vid=584f6c19-9858-4b93-836c-f01a970b5e91"},"vehicle_type_id":"4","last_reported":1729505419,"current_range_meters":25200,"station_id":"ce4bgup2rcd13ifvqcn0","pricing_plan_id":"cebpf4jnsgd1na2vs0mg"},{"bike_id":"9d2e0c69-f021-402d-8b23-72fb2cba341b","system_id":"levelo_inurba_marseille","lat":43.3136,"lon":5.36717,"is_reserved":false,"is_disabled":false,"rental_uris":{"android":"levelo://app?vid=9d2e0c69-f021-402d-8b23-72fb2cba341b","ios":"levelo://app?vid=9d2e0c69-f021-402d-8b23-72fb2cba341b"},"vehicle_type_id":"4","last_reported":1729505419,"current_range_meters":39200,"station_id":"ce4bgr92rcd13ifvqc6g","pricing_plan_id":"cebpf4jnsgd1na2vs0mg"},{"bike_id":"9a2117f0-c5b0-4dc2-891b-026a24af23f1","system_id":"levelo_inurba_marseille","lat":43.3105,"lon":5.40092,"is_reserved":false,"is_disabled":false,"rental_uris":{"android":"levelo://app?vid=9a2117f0-c5b0-4dc2-891b-026a24af23f1","ios":"levelo://app?vid=9a2117f0-c5b0-4dc2-891b-026a24af23f1"},"vehicle_type_id":"4","last_reported":1729505419,"current_range_meters":32000,"station_id":"","pricing_plan_id":"cebpf4jnsgd1na2vs0mg"},{"bike_id":"150b2076-fa3d-4436-b76f-3b9f9d8be659","system_id":"levelo_inurba_marseille","lat":43.33603,"lon":5.4103,"is_reserved":false,"is_disabled":false,"rental_uris":{"android":"levelo://app?vid=150b2076-fa3d-4436-b76f-3b9f9d8be659","ios":"levelo://app?vid=150b2076-fa3d-4436-b76f-3b9f9d8be659"},"vehicle_type_id":"4","last_reported":1729505419,"current_range_meters":38000,"station_id":"ce4bhqh2rcd13ifvqhmg","pricing_plan_id":"cebpf4jnsgd1na2vs0mg"},{"bike_id":"825c64b6-5c2e-4cd6-ade0-d334f3c3c338","system_id":"levelo_inurba_marseille","lat":43.23153,"lon":5.437,"is_reserved":false,"is_disabled":false,"rental_uris":{"android":"levelo://app?vid=825c64b6-5c2e-4cd6-ade0-d334f3c3c338","ios":"levelo://app?vid=825c64b6-5c2e-4cd6-ade0-d334f3c3c338"},"vehicle_type_id":"4","last_reported":1729505419,"current_range_meters":39200,"station_id":"ce4bhmp2rcd13ifvqgog","pricing_plan_id":"cebpf4jnsgd1na2vs0mg"},{"bike_id":"d56c1027-3f82-4ee2-be22-0a6f81faea4e","system_id":"levelo_inurba_marseille","lat":43.30913,"lon":5.36845,"is_reserved":false,"is_disabled":false,"rental_uris":{"android":"levelo://app?vid=d56c1027-3f82-4ee2-be22-0a6f81faea4e","ios":"levelo://app?vid=d56c1027-3f82-4ee2-be22-0a6f81faea4e"},"vehicle_type_id":"4","last_reported":1729505419,"current_range_meters":38800,"station_id":"ce4bgn92rcd13ifvqbvg","pricing_plan_id":"cebpf4jnsgd1na2vs0mg"},{"bike_id":"2cfc7470-0924-496d-a1c3-b7271900a5b5","system_id":"levelo_inurba_marseille","lat":43.23199,"lon":5.35545,"is_reserved":false,"is_disabled":false,"rental_uris":{"android":"levelo://app?vid=2cfc7470-0924-496d-a1c3-b7271900a5b5","ios":"levelo://app?vid=2cfc7470-0924-496d-a1c3-b7271900a5b5"},"vehicle_type_id":"4","last_reported":1729505419,"current_range_meters":16800,"station_id":"ce4bhu92rcd13ifvqi70","pricing_plan_id":"cebpf4jnsgd1na2vs0mg"},{"bike_id":"b38419c0-fa50-4552-a9a4-daab94d6cb60","system_id":"levelo_inurba_marseille","lat":43.24072,"lon":5.37762,"is_reserved":false,"is_disabled":false,"rental_uris":{"android":"levelo://app?vid=b38419c0-fa50-4552-a9a4-daab94d6cb60","ios":"levelo://app?vid=b38419c0-fa50-4552-a9a4-daab94d6cb60"},"vehicle_type_id":"4","last_reported":1729505419,"current_range_meters":28400,"station_id":"ce4bhnp2rcd13ifvqgvg","pricing_plan_id":"cebpf4jnsgd1na2vs0mg"},{"bike_id":"2dab364a-105f-4114-b23b-94bcd65aad82","system_id":"levelo_inurba_marseille","lat":43.28152,"lon":5.42645,"is_reserved":false,"is_disabled":false,"rental_uris":{"android":"levelo://app?vid=2dab364a-105f-4114-b23b-94bcd65aad82","ios":"levelo://app?vid=2dab364a-105f-4114-b23b-94bcd65aad82"},"vehicle_type_id":"4","last_reported":1729505419,"current_range_meters":22400,"station_id":"ce4bhnh2rcd13ifvqgug","pricing_plan_id":"cebpf4jnsgd1na2vs0mg"},{"bike_id":"2b710056-10d8-45d7-a2cd-48f9f477421f","system_id":"levelo_inurba_marseille","lat":43.25578,"lon":5.38226,"is_reserved":false,"is_disabled":false,"rental_uris":{"android":"levelo://app?vid=2b710056-10d8-45d7-a2cd-48f9f477421f","ios":"levelo://app?vid=2b710056-10d8-45d7-a2cd-48f9f477421f"},"vehicle_type_id":"4","last_reported":1729505419,"current_range_meters":22400,"station_id":"ce4bhih2rcd13ifvqfs0","pricing_plan_id":"cebpf4jnsgd1na2vs0mg"},{"bike_id":"b07b9fe8-26ba-4090-90c4-9e581d2e4afd","system_id":"levelo_inurba_marseille","lat":43.26197,"lon":5.37929,"is_reserved":false,"is_disabled":false,"rental_uris":{"android":"levelo://app?vid=b07b9fe8-26ba-4090-90c4-9e581d2e4afd","ios":"levelo://app?vid=b07b9fe8-26ba-4090-90c4-9e581d2e4afd"},"vehicle_type_id":"4","last_reported":1729505419,"current_range_meters":10800,"station_id":"ce4bhjp2rcd13ifvqg90","pricing_plan_id":"cebpf4jnsgd1na2vs0mg"},{"bike_id":"66a33474-feb9-4ff6-85c2-98d4a0f9606c","system_id":"levelo_inurba_marseille","lat":43.27975,"lon":5.38742,"is_reserved":false,"is_disabled":false,"rental_uris":{"android":"levelo://app?vid=66a33474-feb9-4ff6-85c2-98d4a0f9606c","ios":"levelo://app?vid=66a33474-feb9-4ff6-85c2-98d4a0f9606c"},"vehicle_type_id":"4","last_reported":1729505419,"current_range_meters":19200,"station_id":"ce4bh192rcd13ifvqdc0","pricing_plan_id":"cebpf4jnsgd1na2vs0mg"},{"bike_id":"dd5450cd-ff1d-4ef6-8c3f-8bb1e7bd15bd","system_id":"levelo_inurba_marseille","lat":43.30884,"lon":5.3719,"is_reserved":false,"is_disabled":false,"rental_uris":{"android":"levelo://app?vid=dd5450cd-ff1d-4ef6-8c3f-8bb1e7bd15bd","ios":"levelo://app?vid=dd5450cd-ff1d-4ef6-8c3f-8bb1e7bd15bd"},"vehicle_type_id":"4","last_reported":1729505419,"current_range_meters":12000,"station_id":"ce4bguh2rcd13ifvqckg","pricing_plan_id":"cebpf4jnsgd1na2vs0mg"},{"bike_id":"e9c5f32f-4078-48d7-9fc3-6cbb7bcf9304","system_id":"levelo_inurba_marseille","lat":43.29267,"lon":5.38432,"is_reserved":false,"is_disabled":false,"rental_uris":{"android":"levelo://app?vid=e9c5f32f-4078-48d7-9fc3-6cbb7bcf9304","ios":"levelo://app?vid=e9c5f32f-4078-48d7-9fc3-6cbb7bcf9304"},"vehicle_type_id":"4","last_reported":1729505419,"current_range_meters":28400,"station_id":"ce4bh692rcd13ifvqea0","pricing_plan_id":"cebpf4jnsgd1na2vs0mg"},{"bike_id":"1f54eb43-495e-4612-80d3-f9db496065e2","system_id":"levelo_inurba_marseille","lat":43.26934,"lon":5.38641,"is_reserved":false,"is_disabled":false,"rental_uris":{"android":"levelo://app?vid=1f54eb43-495e-4612-80d3-f9db496065e2","ios":"levelo://app?vid=1f54eb43-495e-4612-80d3-f9db496065e2"},"vehicle_type_id":"4","last_reported":1729505419,"current_range_meters":12800,"station_id":"ce4bhh92rcd13ifvqfh0","pricing_plan_id":"cebpf4jnsgd1na2vs0mg"},{"bike_id":"52f341cf-43b4-446e-a643-3405a61c243e","system_id":"levelo_inurba_marseille","lat":43.29794,"lon":5.38106,"is_reserved":false,"is_disabled":false,"rental_uris":{"android":"levelo://app?vid=52f341cf-43b4-446e-a643-3405a61c243e","ios":"levelo://app?vid=52f341cf-43b4-446e-a643-3405a61c243e"},"vehicle_type_id":"4","last_reported":1729505419,"current_range_meters":36000,"station_id":"ce4bgip2rcd13ifvqbb0","pricing_plan_id":"cebpf4jnsgd1na2vs0mg"},{"bike_id":"7596521e-9ed7-49ca-a7ee-bfa8145d9654","system_id":"levelo_inurba_marseille","lat":43.23178,"lon":5.39993,"is_reserved":false,"is_disabled":false,"rental_uris":{"android":"levelo://app?vid=7596521e-9ed7-49ca-a7ee-bfa8145d9654","ios":"levelo://app?vid=7596521e-9ed7-49ca-a7ee-bfa8145d9654"},"vehicle_type_id":"4","last_reported":1729505419,"current_range_meters":14000,"station_id":"ce4bhn12rcd13ifvqgqg","pricing_plan_id":"cebpf4jnsgd1na2vs0mg"},{"bike_id":"12bd3036-1eeb-409e-83a9-f84f7c98205c","system_id":"levelo_inurba_marseille","lat":43.27617,"lon":5.36115,"is_reserved":false,"is_disabled":false,"rental_uris":{"android":"levelo://app?vid=12bd3036-1eeb-409e-83a9-f84f7c98205c","ios":"levelo://app?vid=12bd3036-1eeb-409e-83a9-f84f7c98205c"},"vehicle_type_id":"4","last_reported":1729505419,"current_range_meters":38800,"station_id":"ce4bgj92rcd13ifvqbe0","pricing_plan_id":"cebpf4jnsgd1na2vs0mg"},{"bike_id":"c2b336bc-78bb-40e0-8497-c459e3025f60","system_id":"levelo_inurba_marseille","lat":43.29533,"lon":5.38536,"is_reserved":false,"is_disabled":false,"rental_uris":{"android":"levelo://app?vid=c2b336bc-78bb-40e0-8497-c459e3025f60","ios":"levelo://app?vid=c2b336bc-78bb-40e0-8497-c459e3025f60"},"vehicle_type_id":"4","last_reported":1729505419,"current_range_meters":2000,"station_id":"ce4bgih2rcd13ifvqba0","pricing_plan_id":"cebpf4jnsgd1na2vs0mg"},{"bike_id":"a727af58-92b1-45e9-8a19-c4cf4c8e045f","system_id":"levelo_inurba_marseille","lat":43.29849,"lon":5.36285,"is_reserved":false,"is_disabled":false,"rental_uris":{"android":"levelo://app?vid=a727af58-92b1-45e9-8a19-c4cf4c8e045f","ios":"levelo://app?vid=a727af58-92b1-45e9-8a19-c4cf4c8e045f"},"vehicle_type_id":"4","last_reported":1729505419,"current_range_meters":38800,"station_id":"ce4bgpp2rcd13ifvqc3g","pricing_plan_id":"cebpf4jnsgd1na2vs0mg"},{"bike_id":"f1764a48-b952-41db-872d-71f3a3317731","system_id":"levelo_inurba_marseille","lat":43.30301,"lon":5.39208,"is_reserved":false,"is_disabled":false,"rental_uris":{"android":"levelo://app?vid=f1764a48-b952-41db-872d-71f3a3317731","ios":"levelo://app?vid=f1764a48-b952-41db-872d-71f3a3317731"},"vehicle_type_id":"4","last_reported":1729505419,"current_range_meters":4400,"station_id":"ce4bgkh2rcd13ifvqbk0","pricing_plan_id":"cebpf4jnsgd1na2vs0mg"},{"bike_id":"4320505e-c8aa-4e94-9a8b-33e246589dbf","system_id":"levelo_inurba_marseille","lat":43.24653,"lon":5.38891,"is_reserved":false,"is_disabled":false,"rental_uris":{"android":"levelo://app?vid=4320505e-c8aa-4e94-9a8b-33e246589dbf","ios":"levelo://app?vid=4320505e-c8aa-4e94-9a8b-33e246589dbf"},"vehicle_type_id":"4","last_reported":1729505419,"current_range_meters":38400,"station_id":"ce4bhg12rcd13ifvqf60","pricing_plan_id":"cebpf4jnsgd1na2vs0mg"},{"bike_id":"abec9457-83c4-4369-8fdc-0ba1e4752906","system_id":"levelo_inurba_marseille","lat":43.31338,"lon":5.36735,"is_reserved":false,"is_disabled":false,"rental_uris":{"android":"levelo://app?vid=abec9457-83c4-4369-8fdc-0ba1e4752906","ios":"levelo://app?vid=abec9457-83c4-4369-8fdc-0ba1e4752906"},"vehicle_type_id":"4","last_reported":1729505419,"current_range_meters":30800,"station_id":"ce4bgr92rcd13ifvqc6g","pricing_plan_id":"cebpf4jnsgd1na2vs0mg"},{"bike_id":"75a904f7-1306-40f0-84ed-f090ca93c92c","system_id":"levelo_inurba_marseille","lat":43.3046,"lon":5.37912,"is_reserved":false,"is_disabled":false,"rental_uris":{"android":"levelo://app?vid=75a904f7-1306-40f0-84ed-f090ca93c92c","ios":"levelo://app?vid=75a904f7-1306-40f0-84ed-f090ca93c92c"},"vehicle_type_id":"4","last_reported":1729505419,"current_range_meters":38800,"station_id":"ce4bgup2rcd13ifvqcn0","pricing_plan_id":"cebpf4jnsgd1na2vs0mg"},{"bike_id":"139ebd0b-8bfb-4bff-aad1-7d1ba8b26af7","system_id":"levelo_inurba_marseille","lat":43.29161,"lon":5.39487,"is_reserved":false,"is_disabled":false,"rental_uris":{"android":"levelo://app?vid=139ebd0b-8bfb-4bff-aad1-7d1ba8b26af7","ios":"levelo://app?vid=139ebd0b-8bfb-4bff-aad1-7d1ba8b26af7"},"vehicle_type_id":"4","last_reported":1729505419,"current_range_meters":26800,"station_id":"ce4bh3h2rcd13ifvqdn0","pricing_plan_id":"cebpf4jnsgd1na2vs0mg"},{"bike_id":"8927be08-8249-47ce-8083-f150629f946d","system_id":"levelo_inurba_marseille","lat":43.24653,"lon":5.38896,"is_reserved":false,"is_disabled":false,"rental_uris":{"android":"levelo://app?vid=8927be08-8249-47ce-8083-f150629f946d","ios":"levelo://app?vid=8927be08-8249-47ce-8083-f150629f946d"},"vehicle_type_id":"4","last_reported":1729505419,"current_range_meters":20000,"station_id":"ce4bhg12rcd13ifvqf60","pricing_plan_id":"cebpf4jnsgd1na2vs0mg"},{"bike_id":"c2c922f9-28f5-4727-a6fc-df832ecece2e","system_id":"levelo_inurba_marseille","lat":43.24552,"lon":5.39524,"is_reserved":false,"is_disabled":false,"rental_uris":{"android":"levelo://app?vid=c2c922f9-28f5-4727-a6fc-df832ecece2e","ios":"levelo://app?vid=c2c922f9-28f5-4727-a6fc-df832ecece2e"},"vehicle_type_id":"4","last_reported":1729505419,"current_range_meters":16800,"station_id":"ce4bhlp2rcd13ifvqgjg","pricing_plan_id":"cebpf4jnsgd1na2vs0mg"},{"bike_id":"5430bba4-ce8c-4694-a91c-cbc659893ce5","system_id":"levelo_inurba_marseille","lat":43.26682,"lon":5.38266,"is_reserved":false,"is_disabled":false,"rental_uris":{"android":"levelo://app?vid=5430bba4-ce8c-4694-a91c-cbc659893ce5","ios":"levelo://app?vid=5430bba4-ce8c-4694-a91c-cbc659893ce5"},"vehicle_type_id":"4","last_reported":1729505419,"current_range_meters":33600,"station_id":"ce4bhg92rcd13ifvqf90","pricing_plan_id":"cebpf4jnsgd1na2vs0mg"},{"bike_id":"2a8cfce5-93d5-4a5e-832b-148482060dca","system_id":"levelo_inurba_marseille","lat":43.32366,"lon":5.38881,"is_reserved":false,"is_disabled":false,"rental_uris":{"android":"levelo://app?vid=2a8cfce5-93d5-4a5e-832b-148482060dca","ios":"levelo://app?vid=2a8cfce5-93d5-4a5e-832b-148482060dca"},"vehicle_type_id":"4","last_reported":1729505419,"current_range_meters":20800,"station_id":"ce4bhqp2rcd13ifvqhog","pricing_plan_id":"cebpf4jnsgd1na2vs0mg"},{"bike_id":"6492c42c-e9fd-4010-bf6f-315b98b052ce","system_id":"levelo_inurba_marseille","lat":43.33757,"lon":5.37448,"is_reserved":false,"is_disabled":false,"rental_uris":{"android":"levelo://app?vid=6492c42c-e9fd-4010-bf6f-315b98b052ce","ios":"levelo://app?vid=6492c42c-e9fd-4010-bf6f-315b98b052ce"},"vehicle_type_id":"4","last_reported":1729505419,"current_range_meters":36800,"station_id":"","pricing_plan_id":"cebpf4jnsgd1na2vs0mg"},{"bike_id":"fccb27b3-90f4-4411-a56b-003b7acda73c","system_id":"levelo_inurba_marseille","lat":43.28152,"lon":5.42639,"is_reserved":false,"is_disabled":false,"rental_uris":{"android":"levelo://app?vid=fccb27b3-90f4-4411-a56b-003b7acda73c","ios":"levelo://app?vid=fccb27b3-90f4-4411-a56b-003b7acda73c"},"vehicle_type_id":"4","last_reported":1729505419,"current_range_meters":28400,"station_id":"ce4bhnh2rcd13ifvqgug","pricing_plan_id":"cebpf4jnsgd1na2vs0mg"},{"bike_id":"62c427c5-3cdc-46e3-9c41-1f2fd8ffddd7","system_id":"levelo_inurba_marseille","lat":43.30189,"lon":5.36625,"is_reserved":false,"is_disabled":false,"rental_uris":{"android":"levelo://app?vid=62c427c5-3cdc-46e3-9c41-1f2fd8ffddd7","ios":"levelo://app?vid=62c427c5-3cdc-46e3-9c41-1f2fd8ffddd7"},"vehicle_type_id":"4","last_reported":1729505419,"current_range_meters":36400,"station_id":"ce4bgrh2rcd13ifvqc8g","pricing_plan_id":"cebpf4jnsgd1na2vs0mg"},{"bike_id":"7a09a425-de9f-4190-9d67-6903f771a8b8","system_id":"levelo_inurba_marseille","lat":43.28724,"lon":5.36078,"is_reserved":false,"is_disabled":false,"rental_uris":{"android":"levelo://app?vid=7a09a425-de9f-4190-9d67-6903f771a8b8","ios":"levelo://app?vid=7a09a425-de9f-4190-9d67-6903f771a8b8"},"vehicle_type_id":"4","last_reported":1729505419,"current_range_meters":36800,"station_id":"cki0cbj6b192h4jlfktg","pricing_plan_id":"cebpf4jnsgd1na2vs0mg"},{"bike_id":"d355d65b-2d6a-4542-adc9-992a29d58752","system_id":"levelo_inurba_marseille","lat":43.31493,"lon":5.3731,"is_reserved":false,"is_disabled":false,"rental_uris":{"android":"levelo://app?vid=d355d65b-2d6a-4542-adc9-992a29d58752","ios":"levelo://app?vid=d355d65b-2d6a-4542-adc9-992a29d58752"},"vehicle_type_id":"4","last_reported":1729505419,"current_range_meters":3200,"station_id":"ce4bgt12rcd13ifvqcd0","pricing_plan_id":"cebpf4jnsgd1na2vs0mg"},{"bike_id":"c0e918f6-a62e-4c9d-938a-2ee1b95f693a","system_id":"levelo_inurba_marseille","lat":43.26679,"lon":5.38274,"is_reserved":false,"is_disabled":false,"rental_uris":{"android":"levelo://app?vid=c0e918f6-a62e-4c9d-938a-2ee1b95f693a","ios":"levelo://app?vid=c0e918f6-a62e-4c9d-938a-2ee1b95f693a"},"vehicle_type_id":"4","last_reported":1729505419,"current_range_meters":19200,"station_id":"ce4bhg92rcd13ifvqf90","pricing_plan_id":"cebpf4jnsgd1na2vs0mg"},{"bike_id":"aa70a912-3016-4f2b-b42f-f3ac8c25d451","system_id":"levelo_inurba_marseille","lat":43.272855,"lon":5.390826,"is_reserved":false,"is_disabled":false,"rental_uris":{"android":"levelo://app?vid=aa70a912-3016-4f2b-b42f-f3ac8c25d451","ios":"levelo://app?vid=aa70a912-3016-4f2b-b42f-f3ac8c25d451"},"vehicle_type_id":"4","last_reported":1729505419,"current_range_meters":24000,"station_id":"ce4bhgp2rcd13ifvqfe0","pricing_plan_id":"cebpf4jnsgd1na2vs0mg"},{"bike_id":"4cf3e5d8-4f9a-4007-b965-622ecd99339e","system_id":"levelo_inurba_marseille","lat":43.31074,"lon":5.40085,"is_reserved":false,"is_disabled":false,"rental_uris":{"android":"levelo://app?vid=4cf3e5d8-4f9a-4007-b965-622ecd99339e","ios":"levelo://app?vid=4cf3e5d8-4f9a-4007-b965-622ecd99339e"},"vehicle_type_id":"4","last_reported":1729505419,"current_range_meters":4800,"station_id":"","pricing_plan_id":"cebpf4jnsgd1na2vs0mg"},{"bike_id":"224c867f-ff95-4ec3-9dc3-1d0a3a8b6b8b","system_id":"levelo_inurba_marseille","lat":43.29166,"lon":5.37154,"is_reserved":false,"is_disabled":false,"rental_uris":{"android":"levelo://app?vid=224c867f-ff95-4ec3-9dc3-1d0a3a8b6b8b","ios":"levelo://app?vid=224c867f-ff95-4ec3-9dc3-1d0a3a8b6b8b"},"vehicle_type_id":"4","last_reported":1729505419,"current_range_meters":14800,"station_id":"ce4bha92rcd13ifvqeh0","pricing_plan_id":"cebpf4jnsgd1na2vs0mg"},{"bike_id":"eb28c191-e5cc-4e35-8818-10ea0b1447e3","system_id":"levelo_inurba_marseille","lat":43.30318,"lon":5.36903,"is_reserved":false,"is_disabled":false,"rental_uris":{"android":"levelo://app?vid=eb28c191-e5cc-4e35-8818-10ea0b1447e3","ios":"levelo://app?vid=eb28c191-e5cc-4e35-8818-10ea0b1447e3"},"vehicle_type_id":"4","last_reported":1729505419,"current_range_meters":37600,"station_id":"ce4bgqh2rcd13ifvqc5g","pricing_plan_id":"cebpf4jnsgd1na2vs0mg"},{"bike_id":"d022902e-4f7c-4f05-aec8-0c802211b8cc","system_id":"levelo_inurba_marseille","lat":43.25942,"lon":5.40895,"is_reserved":false,"is_disabled":false,"rental_uris":{"android":"levelo://app?vid=d022902e-4f7c-4f05-aec8-0c802211b8cc","ios":"levelo://app?vid=d022902e-4f7c-4f05-aec8-0c802211b8cc"},"vehicle_type_id":"4","last_reported":1729505419,"current_range_meters":32000,"station_id":"ce4bhm92rcd13ifvqglg","pricing_plan_id":"cebpf4jnsgd1na2vs0mg"},{"bike_id":"a9497fe1-bc20-4783-aa3c-fbb63f514484","system_id":"levelo_inurba_marseille","lat":43.30533,"lon":5.36541,"is_reserved":false,"is_disabled":false,"rental_uris":{"android":"levelo://app?vid=a9497fe1-bc20-4783-aa3c-fbb63f514484","ios":"levelo://app?vid=a9497fe1-bc20-4783-aa3c-fbb63f514484"},"vehicle_type_id":"4","last_reported":1729505419,"current_range_meters":39200,"station_id":"ce4bgs12rcd13ifvqcag","pricing_plan_id":"cebpf4jnsgd1na2vs0mg"},{"bike_id":"041c83ea-c320-4be6-862d-deaa50b2a9d7","system_id":"levelo_inurba_marseille","lat":43.27614,"lon":5.36119,"is_reserved":false,"is_disabled":false,"rental_uris":{"android":"levelo://app?vid=041c83ea-c320-4be6-862d-deaa50b2a9d7","ios":"levelo://app?vid=041c83ea-c320-4be6-862d-deaa50b2a9d7"},"vehicle_type_id":"4","last_reported":1729505419,"current_range_meters":38000,"station_id":"ce4bgj92rcd13ifvqbe0","pricing_plan_id":"cebpf4jnsgd1na2vs0mg"},{"bike_id":"931da876-d0ed-4146-82c7-6d132f483c10","system_id":"levelo_inurba_marseille","lat":43.32106,"lon":5.36772,"is_reserved":false,"is_disabled":false,"rental_uris":{"android":"levelo://app?vid=931da876-d0ed-4146-82c7-6d132f483c10","ios":"levelo://app?vid=931da876-d0ed-4146-82c7-6d132f483c10"},"vehicle_type_id":"4","last_reported":1729505419,"current_range_meters":36800,"station_id":"ce4bhrh2rcd13ifvqhug","pricing_plan_id":"cebpf4jnsgd1na2vs0mg"},{"bike_id":"68bb16cf-3232-4389-967e-55bb18f1f996","system_id":"levelo_inurba_marseille","lat":43.31346,"lon":5.36714,"is_reserved":false,"is_disabled":false,"rental_uris":{"android":"levelo://app?vid=68bb16cf-3232-4389-967e-55bb18f1f996","ios":"levelo://app?vid=68bb16cf-3232-4389-967e-55bb18f1f996"},"vehicle_type_id":"4","last_reported":1729505419,"current_range_meters":38800,"station_id":"ce4bgr92rcd13ifvqc6g","pricing_plan_id":"cebpf4jnsgd1na2vs0mg"},{"bike_id":"dc6c91b9-7a2a-44d6-9883-90ad5793c58c","system_id":"levelo_inurba_marseille","lat":43.30541,"lon":5.36551,"is_reserved":false,"is_disabled":false,"rental_uris":{"android":"levelo://app?vid=dc6c91b9-7a2a-44d6-9883-90ad5793c58c","ios":"levelo://app?vid=dc6c91b9-7a2a-44d6-9883-90ad5793c58c"},"vehicle_type_id":"4","last_reported":1729505419,"current_range_meters":38800,"station_id":"ce4bgs12rcd13ifvqcag","pricing_plan_id":"cebpf4jnsgd1na2vs0mg"},{"bike_id":"ba60d849-f474-482c-8cb2-46881eeea55f","system_id":"levelo_inurba_marseille","lat":43.30548,"lon":5.36532,"is_reserved":false,"is_disabled":false,"rental_uris":{"android":"levelo://app?vid=ba60d849-f474-482c-8cb2-46881eeea55f","ios":"levelo://app?vid=ba60d849-f474-482c-8cb2-46881eeea55f"},"vehicle_type_id":"4","last_reported":1729505419,"current_range_meters":18800,"station_id":"ce4bgs12rcd13ifvqcag","pricing_plan_id":"cebpf4jnsgd1na2vs0mg"},{"bike_id":"375d33e3-2041-4b56-a557-54bde93a99de","system_id":"levelo_inurba_marseille","lat":43.305387,"lon":5.365458,"is_reserved":false,"is_disabled":false,"rental_uris":{"android":"levelo://app?vid=375d33e3-2041-4b56-a557-54bde93a99de","ios":"levelo://app?vid=375d33e3-2041-4b56-a557-54bde93a99de"},"vehicle_type_id":"4","last_reported":1729505419,"current_range_meters":20800,"station_id":"ce4bgs12rcd13ifvqcag","pricing_plan_id":"cebpf4jnsgd1na2vs0mg"},{"bike_id":"eb7b869e-ffde-4fe4-837d-525017d20c3b","system_id":"levelo_inurba_marseille","lat":43.31084,"lon":5.37847,"is_reserved":false,"is_disabled":false,"rental_uris":{"android":"levelo://app?vid=eb7b869e-ffde-4fe4-837d-525017d20c3b","ios":"levelo://app?vid=eb7b869e-ffde-4fe4-837d-525017d20c3b"},"vehicle_type_id":"4","last_reported":1729505419,"current_range_meters":19200,"station_id":"ce4bgt92rcd13ifvqcg0","pricing_plan_id":"cebpf4jnsgd1na2vs0mg"},{"bike_id":"0c1c7708-b979-4d7e-982d-190e9148b9a6","system_id":"levelo_inurba_marseille","lat":43.26684,"lon":5.38263,"is_reserved":false,"is_disabled":false,"rental_uris":{"android":"levelo://app?vid=0c1c7708-b979-4d7e-982d-190e9148b9a6","ios":"levelo://app?vid=0c1c7708-b979-4d7e-982d-190e9148b9a6"},"vehicle_type_id":"4","last_reported":1729505419,"current_range_meters":35200,"station_id":"ce4bhg92rcd13ifvqf90","pricing_plan_id":"cebpf4jnsgd1na2vs0mg"},{"bike_id":"724c3898-fa40-46b5-a6ca-5091666cabb4","system_id":"levelo_inurba_marseille","lat":43.23192,"lon":5.35547,"is_reserved":false,"is_disabled":false,"rental_uris":{"android":"levelo://app?vid=724c3898-fa40-46b5-a6ca-5091666cabb4","ios":"levelo://app?vid=724c3898-fa40-46b5-a6ca-5091666cabb4"},"vehicle_type_id":"4","last_reported":1729505419,"current_range_meters":38000,"station_id":"ce4bhu92rcd13ifvqi70","pricing_plan_id":"cebpf4jnsgd1na2vs0mg"},{"bike_id":"fb574375-21a3-4cc9-b093-05167f9899a8","system_id":"levelo_inurba_marseille","lat":43.3136,"lon":5.36715,"is_reserved":false,"is_disabled":false,"rental_uris":{"android":"levelo://app?vid=fb574375-21a3-4cc9-b093-05167f9899a8","ios":"levelo://app?vid=fb574375-21a3-4cc9-b093-05167f9899a8"},"vehicle_type_id":"4","last_reported":1729505419,"current_range_meters":39200,"station_id":"ce4bgr92rcd13ifvqc6g","pricing_plan_id":"cebpf4jnsgd1na2vs0mg"},{"bike_id":"a4dfb33b-4c2d-4d86-a698-fff9938b84e5","system_id":"levelo_inurba_marseille","lat":43.28612,"lon":5.37064,"is_reserved":false,"is_disabled":false,"rental_uris":{"android":"levelo://app?vid=a4dfb33b-4c2d-4d86-a698-fff9938b84e5","ios":"levelo://app?vid=a4dfb33b-4c2d-4d86-a698-fff9938b84e5"},"vehicle_type_id":"4","last_reported":1729505419,"current_range_meters":37600,"station_id":"ce4bht12rcd13ifvqi60","pricing_plan_id":"cebpf4jnsgd1na2vs0mg"},{"bike_id":"76838b0f-7e5e-4124-a8ea-4e7130837480","system_id":"levelo_inurba_marseille","lat":43.23067,"lon":5.35491,"is_reserved":false,"is_disabled":false,"rental_uris":{"android":"levelo://app?vid=76838b0f-7e5e-4124-a8ea-4e7130837480","ios":"levelo://app?vid=76838b0f-7e5e-4124-a8ea-4e7130837480"},"vehicle_type_id":"4","last_reported":1729505419,"current_range_meters":32400,"station_id":"cpo3342slgdg3j2ifvpg","pricing_plan_id":"cebpf4jnsgd1na2vs0mg"},{"bike_id":"e6fe4940-a098-49cc-8d38-77b9bd14611a","system_id":"levelo_inurba_marseille","lat":43.32109,"lon":5.36775,"is_reserved":false,"is_disabled":false,"rental_uris":{"android":"levelo://app?vid=e6fe4940-a098-49cc-8d38-77b9bd14611a","ios":"levelo://app?vid=e6fe4940-a098-49cc-8d38-77b9bd14611a"},"vehicle_type_id":"4","last_reported":1729505419,"current_range_meters":17600,"station_id":"ce4bhrh2rcd13ifvqhug","pricing_plan_id":"cebpf4jnsgd1na2vs0mg"},{"bike_id":"b3131808-ec56-42ed-9011-7c56a602997c","system_id":"levelo_inurba_marseille","lat":43.26951,"lon":5.38633,"is_reserved":false,"is_disabled":false,"rental_uris":{"android":"levelo://app?vid=b3131808-ec56-42ed-9011-7c56a602997c","ios":"levelo://app?vid=b3131808-ec56-42ed-9011-7c56a602997c"},"vehicle_type_id":"4","last_reported":1729505419,"current_range_meters":39200,"station_id":"ce4bhh92rcd13ifvqfh0","pricing_plan_id":"cebpf4jnsgd1na2vs0mg"},{"bike_id":"eaf542e6-9f43-4889-bfac-b5349636dc63","system_id":"levelo_inurba_marseille","lat":43.309134,"lon":5.368563,"is_reserved":false,"is_disabled":false,"rental_uris":{"android":"levelo://app?vid=eaf542e6-9f43-4889-bfac-b5349636dc63","ios":"levelo://app?vid=eaf542e6-9f43-4889-bfac-b5349636dc63"},"vehicle_type_id":"4","last_reported":1729505419,"current_range_meters":39200,"station_id":"ce4bgn92rcd13ifvqbvg","pricing_plan_id":"cebpf4jnsgd1na2vs0mg"},{"bike_id":"69f7af31-8cc4-4b1d-9daf-3f9700bccd34","system_id":"levelo_inurba_marseille","lat":43.28423,"lon":5.34991,"is_reserved":false,"is_disabled":false,"rental_uris":{"android":"levelo://app?vid=69f7af31-8cc4-4b1d-9daf-3f9700bccd34","ios":"levelo://app?vid=69f7af31-8cc4-4b1d-9daf-3f9700bccd34"},"vehicle_type_id":"4","last_reported":1729505419,"current_range_meters":39200,"station_id":"ce4bhbh2rcd13ifvqepg","pricing_plan_id":"cebpf4jnsgd1na2vs0mg"},{"bike_id":"bfad72b9-d2f4-429e-b159-17a87348ecd2","system_id":"levelo_inurba_marseille","lat":43.28474,"lon":5.38415,"is_reserved":false,"is_disabled":false,"rental_uris":{"android":"levelo://app?vid=bfad72b9-d2f4-429e-b159-17a87348ecd2","ios":"levelo://app?vid=bfad72b9-d2f4-429e-b159-17a87348ecd2"},"vehicle_type_id":"4","last_reported":1729505419,"current_range_meters":11200,"station_id":"ce4bh512rcd13ifvqe3g","pricing_plan_id":"cebpf4jnsgd1na2vs0mg"},{"bike_id":"8fa96be3-6654-43db-997f-afce5f780403","system_id":"levelo_inurba_marseille","lat":43.33757,"lon":5.3744,"is_reserved":false,"is_disabled":false,"rental_uris":{"android":"levelo://app?vid=8fa96be3-6654-43db-997f-afce5f780403","ios":"levelo://app?vid=8fa96be3-6654-43db-997f-afce5f780403"},"vehicle_type_id":"4","last_reported":1729505419,"current_range_meters":38400,"station_id":"","pricing_plan_id":"cebpf4jnsgd1na2vs0mg"},{"bike_id":"8bb60c49-8ed3-4f9b-891c-0805c36ed3e1","system_id":"levelo_inurba_marseille","lat":43.29557,"lon":5.42284,"is_reserved":false,"is_disabled":false,"rental_uris":{"android":"levelo://app?vid=8bb60c49-8ed3-4f9b-891c-0805c36ed3e1","ios":"levelo://app?vid=8bb60c49-8ed3-4f9b-891c-0805c36ed3e1"},"vehicle_type_id":"4","last_reported":1729505419,"current_range_meters":38800,"station_id":"ce4bhph2rcd13ifvqhdg","pricing_plan_id":"cebpf4jnsgd1na2vs0mg"},{"bike_id":"f3b18d4c-688e-4e02-9104-7f1d559134af","system_id":"levelo_inurba_marseille","lat":43.32108,"lon":5.36762,"is_reserved":false,"is_disabled":false,"rental_uris":{"android":"levelo://app?vid=f3b18d4c-688e-4e02-9104-7f1d559134af","ios":"levelo://app?vid=f3b18d4c-688e-4e02-9104-7f1d559134af"},"vehicle_type_id":"4","last_reported":1729505419,"current_range_meters":30800,"station_id":"ce4bhrh2rcd13ifvqhug","pricing_plan_id":"cebpf4jnsgd1na2vs0mg"},{"bike_id":"37ae01aa-26bc-475e-b5cb-29678660af33","system_id":"levelo_inurba_marseille","lat":43.33762,"lon":5.37451,"is_reserved":false,"is_disabled":false,"rental_uris":{"android":"levelo://app?vid=37ae01aa-26bc-475e-b5cb-29678660af33","ios":"levelo://app?vid=37ae01aa-26bc-475e-b5cb-29678660af33"},"vehicle_type_id":"4","last_reported":1729505419,"current_range_meters":38400,"station_id":"","pricing_plan_id":"cebpf4jnsgd1na2vs0mg"},{"bike_id":"ca1536b7-60a7-4e97-92e7-d8d9aab86228","system_id":"levelo_inurba_marseille","lat":43.308685,"lon":5.396537,"is_reserved":false,"is_disabled":false,"rental_uris":{"android":"levelo://app?vid=ca1536b7-60a7-4e97-92e7-d8d9aab86228","ios":"levelo://app?vid=ca1536b7-60a7-4e97-92e7-d8d9aab86228"},"vehicle_type_id":"4","last_reported":1729505419,"current_range_meters":32000,"station_id":"ce4bh012rcd13ifvqcv0","pricing_plan_id":"cebpf4jnsgd1na2vs0mg"},{"bike_id":"a282c733-704b-4bf2-bd0a-667a625750f7","system_id":"levelo_inurba_marseille","lat":43.22935,"lon":5.35378,"is_reserved":false,"is_disabled":false,"rental_uris":{"android":"levelo://app?vid=a282c733-704b-4bf2-bd0a-667a625750f7","ios":"levelo://app?vid=a282c733-704b-4bf2-bd0a-667a625750f7"},"vehicle_type_id":"4","last_reported":1729505419,"current_range_meters":38800,"station_id":"cpo3532slgdg3j2ikp40","pricing_plan_id":"cebpf4jnsgd1na2vs0mg"},{"bike_id":"6557f5dc-9182-4141-a913-4259e426b5ed","system_id":"levelo_inurba_marseille","lat":43.30955,"lon":5.39043,"is_reserved":false,"is_disabled":false,"rental_uris":{"android":"levelo://app?vid=6557f5dc-9182-4141-a913-4259e426b5ed","ios":"levelo://app?vid=6557f5dc-9182-4141-a913-4259e426b5ed"},"vehicle_type_id":"4","last_reported":1729505419,"current_range_meters":24800,"station_id":"ce4bgup2rcd13ifvqco0","pricing_plan_id":"cebpf4jnsgd1na2vs0mg"},{"bike_id":"3bf2ae1c-49b2-4936-93d0-295eb17bee45","system_id":"levelo_inurba_marseille","lat":43.23062,"lon":5.35489,"is_reserved":false,"is_disabled":false,"rental_uris":{"android":"levelo://app?vid=3bf2ae1c-49b2-4936-93d0-295eb17bee45","ios":"levelo://app?vid=3bf2ae1c-49b2-4936-93d0-295eb17bee45"},"vehicle_type_id":"4","last_reported":1729505419,"current_range_meters":37600,"station_id":"cpo3342slgdg3j2ifvpg","pricing_plan_id":"cebpf4jnsgd1na2vs0mg"},{"bike_id":"e771981a-ab32-44a7-80b8-59b44c9b46ff","system_id":"levelo_inurba_marseille","lat":43.305338,"lon":5.367078,"is_reserved":false,"is_disabled":false,"rental_uris":{"android":"levelo://app?vid=e771981a-ab32-44a7-80b8-59b44c9b46ff","ios":"levelo://app?vid=e771981a-ab32-44a7-80b8-59b44c9b46ff"},"vehicle_type_id":"4","last_reported":1729505419,"current_range_meters":23200,"station_id":"ce4bgrp2rcd13ifvqc9g","pricing_plan_id":"cebpf4jnsgd1na2vs0mg"},{"bike_id":"45584baa-b8db-4e3b-bdc4-f5f9bfd6bc73","system_id":"levelo_inurba_marseille","lat":43.26195,"lon":5.37445,"is_reserved":false,"is_disabled":false,"rental_uris":{"android":"levelo://app?vid=45584baa-b8db-4e3b-bdc4-f5f9bfd6bc73","ios":"levelo://app?vid=45584baa-b8db-4e3b-bdc4-f5f9bfd6bc73"},"vehicle_type_id":"4","last_reported":1729505419,"current_range_meters":32400,"station_id":"ce4bhgp2rcd13ifvqfc0","pricing_plan_id":"cebpf4jnsgd1na2vs0mg"},{"bike_id":"01edebeb-e9df-4db9-8e23-851a215d3d7f","system_id":"levelo_inurba_marseille","lat":43.30533,"lon":5.36707,"is_reserved":false,"is_disabled":false,"rental_uris":{"android":"levelo://app?vid=01edebeb-e9df-4db9-8e23-851a215d3d7f","ios":"levelo://app?vid=01edebeb-e9df-4db9-8e23-851a215d3d7f"},"vehicle_type_id":"4","last_reported":1729505419,"current_range_meters":39200,"station_id":"ce4bgrp2rcd13ifvqc9g","pricing_plan_id":"cebpf4jnsgd1na2vs0mg"},{"bike_id":"6aead166-85b8-45c1-be1a-c6f61bb4f3f7","system_id":"levelo_inurba_marseille","lat":43.29028,"lon":5.3864,"is_reserved":false,"is_disabled":false,"rental_uris":{"android":"levelo://app?vid=6aead166-85b8-45c1-be1a-c6f61bb4f3f7","ios":"levelo://app?vid=6aead166-85b8-45c1-be1a-c6f61bb4f3f7"},"vehicle_type_id":"4","last_reported":1729505419,"current_range_meters":31200,"station_id":"ce4bh4p2rcd13ifvqe0g","pricing_plan_id":"cebpf4jnsgd1na2vs0mg"},{"bike_id":"63f58196-2770-4dc4-a181-ddc9af75202a","system_id":"levelo_inurba_marseille","lat":43.3019,"lon":5.36605,"is_reserved":false,"is_disabled":false,"rental_uris":{"android":"levelo://app?vid=63f58196-2770-4dc4-a181-ddc9af75202a","ios":"levelo://app?vid=63f58196-2770-4dc4-a181-ddc9af75202a"},"vehicle_type_id":"4","last_reported":1729505419,"current_range_meters":32800,"station_id":"ce4bgrh2rcd13ifvqc8g","pricing_plan_id":"cebpf4jnsgd1na2vs0mg"},{"bike_id":"d293ba19-3c03-40b3-97e6-46d30672ab20","system_id":"levelo_inurba_marseille","lat":43.28454,"lon":5.35881,"is_reserved":false,"is_disabled":false,"rental_uris":{"android":"levelo://app?vid=d293ba19-3c03-40b3-97e6-46d30672ab20","ios":"levelo://app?vid=d293ba19-3c03-40b3-97e6-46d30672ab20"},"vehicle_type_id":"4","last_reported":1729505419,"current_range_meters":32800,"station_id":"ce4bhah2rcd13ifvqei0","pricing_plan_id":"cebpf4jnsgd1na2vs0mg"},{"bike_id":"8f6a42bc-b4d5-4506-bfe5-f274f72a1ae4","system_id":"levelo_inurba_marseille","lat":43.24181,"lon":5.39731,"is_reserved":false,"is_disabled":false,"rental_uris":{"android":"levelo://app?vid=8f6a42bc-b4d5-4506-bfe5-f274f72a1ae4","ios":"levelo://app?vid=8f6a42bc-b4d5-4506-bfe5-f274f72a1ae4"},"vehicle_type_id":"4","last_reported":1729505419,"current_range_meters":38800,"station_id":"ce4bhn12rcd13ifvqgpg","pricing_plan_id":"cebpf4jnsgd1na2vs0mg"},{"bike_id":"62738b42-4d14-4992-87b3-65556f57f437","system_id":"levelo_inurba_marseille","lat":43.24388,"lon":5.3705,"is_reserved":false,"is_disabled":false,"rental_uris":{"android":"levelo://app?vid=62738b42-4d14-4992-87b3-65556f57f437","ios":"levelo://app?vid=62738b42-4d14-4992-87b3-65556f57f437"},"vehicle_type_id":"4","last_reported":1729505419,"current_range_meters":28800,"station_id":"ce4bhhh2rcd13ifvqfk0","pricing_plan_id":"cebpf4jnsgd1na2vs0mg"},{"bike_id":"4517af98-c83a-4c45-a9db-642c066330ca","system_id":"levelo_inurba_marseille","lat":43.30485,"lon":5.3804,"is_reserved":false,"is_disabled":false,"rental_uris":{"android":"levelo://app?vid=4517af98-c83a-4c45-a9db-642c066330ca","ios":"levelo://app?vid=4517af98-c83a-4c45-a9db-642c066330ca"},"vehicle_type_id":"4","last_reported":1729505419,"current_range_meters":36000,"station_id":"ce4bgnh2rcd13ifvqc0g","pricing_plan_id":"cebpf4jnsgd1na2vs0mg"},{"bike_id":"f2c49fb6-7dd8-45a5-8c84-74d9d6489e79","system_id":"levelo_inurba_marseille","lat":43.30559,"lon":5.36529,"is_reserved":false,"is_disabled":false,"rental_uris":{"android":"levelo://app?vid=f2c49fb6-7dd8-45a5-8c84-74d9d6489e79","ios":"levelo://app?vid=f2c49fb6-7dd8-45a5-8c84-74d9d6489e79"},"vehicle_type_id":"4","last_reported":1729505419,"current_range_meters":28400,"station_id":"ce4bgs12rcd13ifvqcag","pricing_plan_id":"cebpf4jnsgd1na2vs0mg"},{"bike_id":"fc9e44c7-fda4-4ce8-8818-600912cdab91","system_id":"levelo_inurba_marseille","lat":43.25941,"lon":5.40898,"is_reserved":false,"is_disabled":false,"rental_uris":{"android":"levelo://app?vid=fc9e44c7-fda4-4ce8-8818-600912cdab91","ios":"levelo://app?vid=fc9e44c7-fda4-4ce8-8818-600912cdab91"},"vehicle_type_id":"4","last_reported":1729505419,"current_range_meters":38800,"station_id":"ce4bhm92rcd13ifvqglg","pricing_plan_id":"cebpf4jnsgd1na2vs0mg"},{"bike_id":"342bb506-8e82-4fe8-8123-2298181f1aa1","system_id":"levelo_inurba_marseille","lat":43.30797,"lon":5.38167,"is_reserved":false,"is_disabled":false,"rental_uris":{"android":"levelo://app?vid=342bb506-8e82-4fe8-8123-2298181f1aa1","ios":"levelo://app?vid=342bb506-8e82-4fe8-8123-2298181f1aa1"},"vehicle_type_id":"4","last_reported":1729505419,"current_range_meters":32800,"station_id":"","pricing_plan_id":"cebpf4jnsgd1na2vs0mg"},{"bike_id":"49f034c7-bcc2-44a1-a2c0-c64d1cae1fa9","system_id":"levelo_inurba_marseille","lat":43.27618,"lon":5.36115,"is_reserved":false,"is_disabled":false,"rental_uris":{"android":"levelo://app?vid=49f034c7-bcc2-44a1-a2c0-c64d1cae1fa9","ios":"levelo://app?vid=49f034c7-bcc2-44a1-a2c0-c64d1cae1fa9"},"vehicle_type_id":"4","last_reported":1729505419,"current_range_meters":38400,"station_id":"ce4bgj92rcd13ifvqbe0","pricing_plan_id":"cebpf4jnsgd1na2vs0mg"},{"bike_id":"53442209-de2c-48e5-93ab-7b580e04a6b6","system_id":"levelo_inurba_marseille","lat":43.31341,"lon":5.36738,"is_reserved":false,"is_disabled":false,"rental_uris":{"android":"levelo://app?vid=53442209-de2c-48e5-93ab-7b580e04a6b6","ios":"levelo://app?vid=53442209-de2c-48e5-93ab-7b580e04a6b6"},"vehicle_type_id":"4","last_reported":1729505419,"current_range_meters":9600,"station_id":"ce4bgr92rcd13ifvqc6g","pricing_plan_id":"cebpf4jnsgd1na2vs0mg"},{"bike_id":"9b979451-5185-47cf-8e88-2ea98c17cd69","system_id":"levelo_inurba_marseille","lat":43.30535,"lon":5.36552,"is_reserved":false,"is_disabled":false,"rental_uris":{"android":"levelo://app?vid=9b979451-5185-47cf-8e88-2ea98c17cd69","ios":"levelo://app?vid=9b979451-5185-47cf-8e88-2ea98c17cd69"},"vehicle_type_id":"4","last_reported":1729505419,"current_range_meters":38000,"station_id":"ce4bgs12rcd13ifvqcag","pricing_plan_id":"cebpf4jnsgd1na2vs0mg"},{"bike_id":"211b054e-13d0-4870-9564-de1cb8b654f1","system_id":"levelo_inurba_marseille","lat":43.3135,"lon":5.36723,"is_reserved":false,"is_disabled":false,"rental_uris":{"android":"levelo://app?vid=211b054e-13d0-4870-9564-de1cb8b654f1","ios":"levelo://app?vid=211b054e-13d0-4870-9564-de1cb8b654f1"},"vehicle_type_id":"4","last_reported":1729505419,"current_range_meters":26000,"station_id":"ce4bgr92rcd13ifvqc6g","pricing_plan_id":"cebpf4jnsgd1na2vs0mg"},{"bike_id":"05ab12f4-17ec-40eb-92c9-b9362cb8e0a3","system_id":"levelo_inurba_marseille","lat":43.2842,"lon":5.34981,"is_reserved":false,"is_disabled":false,"rental_uris":{"android":"levelo://app?vid=05ab12f4-17ec-40eb-92c9-b9362cb8e0a3","ios":"levelo://app?vid=05ab12f4-17ec-40eb-92c9-b9362cb8e0a3"},"vehicle_type_id":"4","last_reported":1729505419,"current_range_meters":36000,"station_id":"ce4bhbh2rcd13ifvqepg","pricing_plan_id":"cebpf4jnsgd1na2vs0mg"},{"bike_id":"2bc45ef0-0980-48ee-92a9-6282b5294270","system_id":"levelo_inurba_marseille","lat":43.30141,"lon":5.37418,"is_reserved":false,"is_disabled":false,"rental_uris":{"android":"levelo://app?vid=2bc45ef0-0980-48ee-92a9-6282b5294270","ios":"levelo://app?vid=2bc45ef0-0980-48ee-92a9-6282b5294270"},"vehicle_type_id":"4","last_reported":1729505419,"current_range_meters":38000,"station_id":"ce4bgs92rcd13ifvqcc0","pricing_plan_id":"cebpf4jnsgd1na2vs0mg"},{"bike_id":"418bd683-b6c0-4394-90d1-454d0664a04c","system_id":"levelo_inurba_marseille","lat":43.33614,"lon":5.41032,"is_reserved":false,"is_disabled":false,"rental_uris":{"android":"levelo://app?vid=418bd683-b6c0-4394-90d1-454d0664a04c","ios":"levelo://app?vid=418bd683-b6c0-4394-90d1-454d0664a04c"},"vehicle_type_id":"4","last_reported":1729505419,"current_range_meters":38800,"station_id":"ce4bhqh2rcd13ifvqhmg","pricing_plan_id":"cebpf4jnsgd1na2vs0mg"},{"bike_id":"53136745-46ec-42df-a233-c8fabbec71b3","system_id":"levelo_inurba_marseille","lat":43.29847,"lon":5.36268,"is_reserved":false,"is_disabled":false,"rental_uris":{"android":"levelo://app?vid=53136745-46ec-42df-a233-c8fabbec71b3","ios":"levelo://app?vid=53136745-46ec-42df-a233-c8fabbec71b3"},"vehicle_type_id":"4","last_reported":1729505419,"current_range_meters":38800,"station_id":"ce4bgpp2rcd13ifvqc3g","pricing_plan_id":"cebpf4jnsgd1na2vs0mg"},{"bike_id":"a0d94346-f1d8-40f5-a365-46b0cbcfa9da","system_id":"levelo_inurba_marseille","lat":43.29274,"lon":5.38439,"is_reserved":false,"is_disabled":false,"rental_uris":{"android":"levelo://app?vid=a0d94346-f1d8-40f5-a365-46b0cbcfa9da","ios":"levelo://app?vid=a0d94346-f1d8-40f5-a365-46b0cbcfa9da"},"vehicle_type_id":"4","last_reported":1729505419,"current_range_meters":32400,"station_id":"ce4bh692rcd13ifvqea0","pricing_plan_id":"cebpf4jnsgd1na2vs0mg"},{"bike_id":"fcae2bab-33f3-4764-8301-058751f684f4","system_id":"levelo_inurba_marseille","lat":43.33605,"lon":5.41031,"is_reserved":false,"is_disabled":false,"rental_uris":{"android":"levelo://app?vid=fcae2bab-33f3-4764-8301-058751f684f4","ios":"levelo://app?vid=fcae2bab-33f3-4764-8301-058751f684f4"},"vehicle_type_id":"4","last_reported":1729505419,"current_range_meters":26800,"station_id":"ce4bhqh2rcd13ifvqhmg","pricing_plan_id":"cebpf4jnsgd1na2vs0mg"},{"bike_id":"50b835d5-1a08-4f92-b725-408544d6de39","system_id":"levelo_inurba_marseille","lat":43.29526,"lon":5.37504,"is_reserved":false,"is_disabled":false,"rental_uris":{"android":"levelo://app?vid=50b835d5-1a08-4f92-b725-408544d6de39","ios":"levelo://app?vid=50b835d5-1a08-4f92-b725-408544d6de39"},"vehicle_type_id":"4","last_reported":1729505419,"current_range_meters":28800,"station_id":"ce4bgkp2rcd13ifvqbmg","pricing_plan_id":"cebpf4jnsgd1na2vs0mg"},{"bike_id":"72ce73d7-fd9d-4f5b-b71d-76a2be6f2932","system_id":"levelo_inurba_marseille","lat":43.33761,"lon":5.37437,"is_reserved":false,"is_disabled":false,"rental_uris":{"android":"levelo://app?vid=72ce73d7-fd9d-4f5b-b71d-76a2be6f2932","ios":"levelo://app?vid=72ce73d7-fd9d-4f5b-b71d-76a2be6f2932"},"vehicle_type_id":"4","last_reported":1729505419,"current_range_meters":3600,"station_id":"","pricing_plan_id":"cebpf4jnsgd1na2vs0mg"},{"bike_id":"75f3d9a9-89ad-4abc-9d7b-6216446ea90a","system_id":"levelo_inurba_marseille","lat":43.337444,"lon":5.374475,"is_reserved":false,"is_disabled":false,"rental_uris":{"android":"levelo://app?vid=75f3d9a9-89ad-4abc-9d7b-6216446ea90a","ios":"levelo://app?vid=75f3d9a9-89ad-4abc-9d7b-6216446ea90a"},"vehicle_type_id":"4","last_reported":1729505419,"current_range_meters":26000,"station_id":"","pricing_plan_id":"cebpf4jnsgd1na2vs0mg"},{"bike_id":"10d82a95-7c79-4f63-8fd4-56d1f5d32320","system_id":"levelo_inurba_marseille","lat":43.29006,"lon":5.35618,"is_reserved":false,"is_disabled":false,"rental_uris":{"android":"levelo://app?vid=10d82a95-7c79-4f63-8fd4-56d1f5d32320","ios":"levelo://app?vid=10d82a95-7c79-4f63-8fd4-56d1f5d32320"},"vehicle_type_id":"4","last_reported":1729505419,"current_range_meters":38800,"station_id":"ce4bhb92rcd13ifvqen0","pricing_plan_id":"cebpf4jnsgd1na2vs0mg"},{"bike_id":"a19201aa-a678-4aad-bcf4-ddccce83b476","system_id":"levelo_inurba_marseille","lat":43.309,"lon":5.36843,"is_reserved":false,"is_disabled":false,"rental_uris":{"android":"levelo://app?vid=a19201aa-a678-4aad-bcf4-ddccce83b476","ios":"levelo://app?vid=a19201aa-a678-4aad-bcf4-ddccce83b476"},"vehicle_type_id":"4","last_reported":1729505419,"current_range_meters":37600,"station_id":"ce4bgn92rcd13ifvqbvg","pricing_plan_id":"cebpf4jnsgd1na2vs0mg"},{"bike_id":"1a9e8cdd-16ba-419c-8108-4c14a1491d6e","system_id":"levelo_inurba_marseille","lat":43.31351,"lon":5.36736,"is_reserved":false,"is_disabled":false,"rental_uris":{"android":"levelo://app?vid=1a9e8cdd-16ba-419c-8108-4c14a1491d6e","ios":"levelo://app?vid=1a9e8cdd-16ba-419c-8108-4c14a1491d6e"},"vehicle_type_id":"4","last_reported":1729505419,"current_range_meters":32000,"station_id":"ce4bgr92rcd13ifvqc6g","pricing_plan_id":"cebpf4jnsgd1na2vs0mg"},{"bike_id":"ae0b481f-ec43-45d0-aa71-f2d64eaa8ca3","system_id":"levelo_inurba_marseille","lat":43.31754,"lon":5.39012,"is_reserved":false,"is_disabled":false,"rental_uris":{"android":"levelo://app?vid=ae0b481f-ec43-45d0-aa71-f2d64eaa8ca3","ios":"levelo://app?vid=ae0b481f-ec43-45d0-aa71-f2d64eaa8ca3"},"vehicle_type_id":"4","last_reported":1729505419,"current_range_meters":35600,"station_id":"ce4bhqp2rcd13ifvqhng","pricing_plan_id":"cebpf4jnsgd1na2vs0mg"},{"bike_id":"3f2b5d83-1c13-4263-82c1-f067e66d844c","system_id":"levelo_inurba_marseille","lat":43.27973,"lon":5.38732,"is_reserved":false,"is_disabled":false,"rental_uris":{"android":"levelo://app?vid=3f2b5d83-1c13-4263-82c1-f067e66d844c","ios":"levelo://app?vid=3f2b5d83-1c13-4263-82c1-f067e66d844c"},"vehicle_type_id":"4","last_reported":1729505419,"current_range_meters":18800,"station_id":"ce4bhg12rcd13ifvqf80","pricing_plan_id":"cebpf4jnsgd1na2vs0mg"},{"bike_id":"3096e674-b0f4-4e78-a9f1-972f0184b623","system_id":"levelo_inurba_marseille","lat":43.28037,"lon":5.36941,"is_reserved":false,"is_disabled":false,"rental_uris":{"android":"levelo://app?vid=3096e674-b0f4-4e78-a9f1-972f0184b623","ios":"levelo://app?vid=3096e674-b0f4-4e78-a9f1-972f0184b623"},"vehicle_type_id":"4","last_reported":1729505419,"current_range_meters":22000,"station_id":"ce4bha12rcd13ifvqef0","pricing_plan_id":"cebpf4jnsgd1na2vs0mg"},{"bike_id":"ae767b60-3bf2-4300-a6a2-5a5b49e939d5","system_id":"levelo_inurba_marseille","lat":43.30188,"lon":5.36613,"is_reserved":false,"is_disabled":false,"rental_uris":{"android":"levelo://app?vid=ae767b60-3bf2-4300-a6a2-5a5b49e939d5","ios":"levelo://app?vid=ae767b60-3bf2-4300-a6a2-5a5b49e939d5"},"vehicle_type_id":"4","last_reported":1729505419,"current_range_meters":38800,"station_id":"ce4bgrh2rcd13ifvqc8g","pricing_plan_id":"cebpf4jnsgd1na2vs0mg"},{"bike_id":"68169d2f-ed8f-42c3-869e-2cbff9970e1f","system_id":"levelo_inurba_marseille","lat":43.29274,"lon":5.38434,"is_reserved":false,"is_disabled":false,"rental_uris":{"android":"levelo://app?vid=68169d2f-ed8f-42c3-869e-2cbff9970e1f","ios":"levelo://app?vid=68169d2f-ed8f-42c3-869e-2cbff9970e1f"},"vehicle_type_id":"4","last_reported":1729505419,"current_range_meters":38000,"station_id":"ce4bh692rcd13ifvqea0","pricing_plan_id":"cebpf4jnsgd1na2vs0mg"},{"bike_id":"62081fb8-4276-46d4-9604-7fe2920adcfb","system_id":"levelo_inurba_marseille","lat":43.26677,"lon":5.38268,"is_reserved":false,"is_disabled":false,"rental_uris":{"android":"levelo://app?vid=62081fb8-4276-46d4-9604-7fe2920adcfb","ios":"levelo://app?vid=62081fb8-4276-46d4-9604-7fe2920adcfb"},"vehicle_type_id":"4","last_reported":1729505419,"current_range_meters":16000,"station_id":"ce4bhg92rcd13ifvqf90","pricing_plan_id":"cebpf4jnsgd1na2vs0mg"},{"bike_id":"8c489d6a-8c5d-4ace-8ce1-8ade01fdb678","system_id":"levelo_inurba_marseille","lat":43.26686,"lon":5.38269,"is_reserved":false,"is_disabled":false,"rental_uris":{"android":"levelo://app?vid=8c489d6a-8c5d-4ace-8ce1-8ade01fdb678","ios":"levelo://app?vid=8c489d6a-8c5d-4ace-8ce1-8ade01fdb678"},"vehicle_type_id":"4","last_reported":1729505419,"current_range_meters":37600,"station_id":"ce4bhg92rcd13ifvqf90","pricing_plan_id":"cebpf4jnsgd1na2vs0mg"},{"bike_id":"d9138eb3-ef01-47c0-9ce6-015231f1e16c","system_id":"levelo_inurba_marseille","lat":43.24074,"lon":5.37758,"is_reserved":false,"is_disabled":false,"rental_uris":{"android":"levelo://app?vid=d9138eb3-ef01-47c0-9ce6-015231f1e16c","ios":"levelo://app?vid=d9138eb3-ef01-47c0-9ce6-015231f1e16c"},"vehicle_type_id":"4","last_reported":1729505419,"current_range_meters":30400,"station_id":"ce4bhnp2rcd13ifvqgvg","pricing_plan_id":"cebpf4jnsgd1na2vs0mg"},{"bike_id":"2e31d8fa-3fe5-4fba-9403-f6f83112273d","system_id":"levelo_inurba_marseille","lat":43.24181,"lon":5.3973,"is_reserved":false,"is_disabled":false,"rental_uris":{"android":"levelo://app?vid=2e31d8fa-3fe5-4fba-9403-f6f83112273d","ios":"levelo://app?vid=2e31d8fa-3fe5-4fba-9403-f6f83112273d"},"vehicle_type_id":"4","last_reported":1729505419,"current_range_meters":16000,"station_id":"ce4bhn12rcd13ifvqgpg","pricing_plan_id":"cebpf4jnsgd1na2vs0mg"},{"bike_id":"4eeca87a-2d31-457e-ab85-83a25ab497de","system_id":"levelo_inurba_marseille","lat":43.28854,"lon":5.39323,"is_reserved":false,"is_disabled":false,"rental_uris":{"android":"levelo://app?vid=4eeca87a-2d31-457e-ab85-83a25ab497de","ios":"levelo://app?vid=4eeca87a-2d31-457e-ab85-83a25ab497de"},"vehicle_type_id":"4","last_reported":1729505419,"current_range_meters":38800,"station_id":"ce4bh2p2rcd13ifvqdi0","pricing_plan_id":"cebpf4jnsgd1na2vs0mg"},{"bike_id":"b14e3a93-4255-40e8-99c0-0940d5f69c10","system_id":"levelo_inurba_marseille","lat":43.24079,"lon":5.37749,"is_reserved":false,"is_disabled":false,"rental_uris":{"android":"levelo://app?vid=b14e3a93-4255-40e8-99c0-0940d5f69c10","ios":"levelo://app?vid=b14e3a93-4255-40e8-99c0-0940d5f69c10"},"vehicle_type_id":"4","last_reported":1729505419,"current_range_meters":27600,"station_id":"ce4bhnp2rcd13ifvqgvg","pricing_plan_id":"cebpf4jnsgd1na2vs0mg"},{"bike_id":"0540830f-71f4-4849-8d06-63bd57143a69","system_id":"levelo_inurba_marseille","lat":43.30905,"lon":5.36849,"is_reserved":false,"is_disabled":false,"rental_uris":{"android":"levelo://app?vid=0540830f-71f4-4849-8d06-63bd57143a69","ios":"levelo://app?vid=0540830f-71f4-4849-8d06-63bd57143a69"},"vehicle_type_id":"4","last_reported":1729505419,"current_range_meters":32800,"station_id":"ce4bgn92rcd13ifvqbvg","pricing_plan_id":"cebpf4jnsgd1na2vs0mg"},{"bike_id":"edeaf9ec-a2db-438a-8dc3-3deb474329f6","system_id":"levelo_inurba_marseille","lat":43.27615,"lon":5.36113,"is_reserved":false,"is_disabled":false,"rental_uris":{"android":"levelo://app?vid=edeaf9ec-a2db-438a-8dc3-3deb474329f6","ios":"levelo://app?vid=edeaf9ec-a2db-438a-8dc3-3deb474329f6"},"vehicle_type_id":"4","last_reported":1729505419,"current_range_meters":38800,"station_id":"ce4bgj92rcd13ifvqbe0","pricing_plan_id":"cebpf4jnsgd1na2vs0mg"},{"bike_id":"93a94103-19a0-447f-ad9d-6cb5f148a9ff","system_id":"levelo_inurba_marseille","lat":43.31343,"lon":5.36733,"is_reserved":false,"is_disabled":false,"rental_uris":{"android":"levelo://app?vid=93a94103-19a0-447f-ad9d-6cb5f148a9ff","ios":"levelo://app?vid=93a94103-19a0-447f-ad9d-6cb5f148a9ff"},"vehicle_type_id":"4","last_reported":1729505419,"current_range_meters":18800,"station_id":"ce4bgr92rcd13ifvqc6g","pricing_plan_id":"cebpf4jnsgd1na2vs0mg"},{"bike_id":"1cb08bb2-9adf-48de-bcaf-5956e0efb87e","system_id":"levelo_inurba_marseille","lat":43.293147,"lon":5.371865,"is_reserved":false,"is_disabled":false,"rental_uris":{"android":"levelo://app?vid=1cb08bb2-9adf-48de-bcaf-5956e0efb87e","ios":"levelo://app?vid=1cb08bb2-9adf-48de-bcaf-5956e0efb87e"},"vehicle_type_id":"4","last_reported":1729505419,"current_range_meters":37600,"station_id":"ce4bhb92rcd13ifvqen0","pricing_plan_id":"cebpf4jnsgd1na2vs0mg"},{"bike_id":"57f0a6a7-68f1-4eee-8c05-e0a46bf6c73c","system_id":"levelo_inurba_marseille","lat":43.27756,"lon":5.388477,"is_reserved":false,"is_disabled":false,"rental_uris":{"android":"levelo://app?vid=57f0a6a7-68f1-4eee-8c05-e0a46bf6c73c","ios":"levelo://app?vid=57f0a6a7-68f1-4eee-8c05-e0a46bf6c73c"},"vehicle_type_id":"4","last_reported":1729505419,"current_range_meters":22400,"station_id":"ce4bhi12rcd13ifvqfo0","pricing_plan_id":"cebpf4jnsgd1na2vs0mg"},{"bike_id":"09c742b9-67aa-44f1-b833-7cf3d42021e8","system_id":"levelo_inurba_marseille","lat":43.25575,"lon":5.38228,"is_reserved":false,"is_disabled":false,"rental_uris":{"android":"levelo://app?vid=09c742b9-67aa-44f1-b833-7cf3d42021e8","ios":"levelo://app?vid=09c742b9-67aa-44f1-b833-7cf3d42021e8"},"vehicle_type_id":"4","last_reported":1729505419,"current_range_meters":32800,"station_id":"ce4bhih2rcd13ifvqfs0","pricing_plan_id":"cebpf4jnsgd1na2vs0mg"},{"bike_id":"e20f151a-cefb-4009-bffc-5c824002b7ed","system_id":"levelo_inurba_marseille","lat":43.304695,"lon":5.379098,"is_reserved":false,"is_disabled":false,"rental_uris":{"android":"levelo://app?vid=e20f151a-cefb-4009-bffc-5c824002b7ed","ios":"levelo://app?vid=e20f151a-cefb-4009-bffc-5c824002b7ed"},"vehicle_type_id":"4","last_reported":1729505419,"current_range_meters":37600,"station_id":"ce4bgup2rcd13ifvqcn0","pricing_plan_id":"cebpf4jnsgd1na2vs0mg"},{"bike_id":"1e7d6989-8269-42fe-b2a9-d468131a3491","system_id":"levelo_inurba_marseille","lat":43.23152,"lon":5.43722,"is_reserved":false,"is_disabled":false,"rental_uris":{"android":"levelo://app?vid=1e7d6989-8269-42fe-b2a9-d468131a3491","ios":"levelo://app?vid=1e7d6989-8269-42fe-b2a9-d468131a3491"},"vehicle_type_id":"4","last_reported":1729505419,"current_range_meters":8000,"station_id":"ce4bhmp2rcd13ifvqgog","pricing_plan_id":"cebpf4jnsgd1na2vs0mg"},{"bike_id":"af4c151b-55ef-4585-bbbe-70ad47e8c7a1","system_id":"levelo_inurba_marseille","lat":43.24175,"lon":5.39733,"is_reserved":false,"is_disabled":false,"rental_uris":{"android":"levelo://app?vid=af4c151b-55ef-4585-bbbe-70ad47e8c7a1","ios":"levelo://app?vid=af4c151b-55ef-4585-bbbe-70ad47e8c7a1"},"vehicle_type_id":"4","last_reported":1729505419,"current_range_meters":15200,"station_id":"ce4bhn12rcd13ifvqgpg","pricing_plan_id":"cebpf4jnsgd1na2vs0mg"},{"bike_id":"88bbbf35-37d2-4710-a25d-0165b8f53608","system_id":"levelo_inurba_marseille","lat":43.30963,"lon":5.3904,"is_reserved":false,"is_disabled":false,"rental_uris":{"android":"levelo://app?vid=88bbbf35-37d2-4710-a25d-0165b8f53608","ios":"levelo://app?vid=88bbbf35-37d2-4710-a25d-0165b8f53608"},"vehicle_type_id":"4","last_reported":1729505419,"current_range_meters":29600,"station_id":"ce4bgup2rcd13ifvqco0","pricing_plan_id":"cebpf4jnsgd1na2vs0mg"},{"bike_id":"304e116c-22b7-4fec-8df3-5316f5ceb0f4","system_id":"levelo_inurba_marseille","lat":43.33726,"lon":5.39179,"is_reserved":false,"is_disabled":false,"rental_uris":{"android":"levelo://app?vid=304e116c-22b7-4fec-8df3-5316f5ceb0f4","ios":"levelo://app?vid=304e116c-22b7-4fec-8df3-5316f5ceb0f4"},"vehicle_type_id":"4","last_reported":1729505419,"current_range_meters":39200,"station_id":"ce4bhr92rcd13ifvqhsg","pricing_plan_id":"cebpf4jnsgd1na2vs0mg"},{"bike_id":"5c3cedf2-95a9-49b4-97bd-7d251d591de2","system_id":"levelo_inurba_marseille","lat":43.29872,"lon":5.39735,"is_reserved":false,"is_disabled":false,"rental_uris":{"android":"levelo://app?vid=5c3cedf2-95a9-49b4-97bd-7d251d591de2","ios":"levelo://app?vid=5c3cedf2-95a9-49b4-97bd-7d251d591de2"},"vehicle_type_id":"4","last_reported":1729505419,"current_range_meters":24000,"station_id":"ce4bh0h2rcd13ifvqd50","pricing_plan_id":"cebpf4jnsgd1na2vs0mg"},{"bike_id":"fcf1530e-1b44-41cc-9720-6cd1e7371ad7","system_id":"levelo_inurba_marseille","lat":43.298658,"lon":5.363137,"is_reserved":false,"is_disabled":false,"rental_uris":{"android":"levelo://app?vid=fcf1530e-1b44-41cc-9720-6cd1e7371ad7","ios":"levelo://app?vid=fcf1530e-1b44-41cc-9720-6cd1e7371ad7"},"vehicle_type_id":"4","last_reported":1729505419,"current_range_meters":37600,"station_id":"ce4bgpp2rcd13ifvqc3g","pricing_plan_id":"cebpf4jnsgd1na2vs0mg"},{"bike_id":"baabb23f-cc35-44b9-a42e-20ce6608ec5d","system_id":"levelo_inurba_marseille","lat":43.23153,"lon":5.43712,"is_reserved":false,"is_disabled":false,"rental_uris":{"android":"levelo://app?vid=baabb23f-cc35-44b9-a42e-20ce6608ec5d","ios":"levelo://app?vid=baabb23f-cc35-44b9-a42e-20ce6608ec5d"},"vehicle_type_id":"4","last_reported":1729505419,"current_range_meters":38800,"station_id":"ce4bhmp2rcd13ifvqgog","pricing_plan_id":"cebpf4jnsgd1na2vs0mg"},{"bike_id":"729e2357-ee04-4e53-8005-9cf17a27c626","system_id":"levelo_inurba_marseille","lat":43.22931,"lon":5.35379,"is_reserved":false,"is_disabled":false,"rental_uris":{"android":"levelo://app?vid=729e2357-ee04-4e53-8005-9cf17a27c626","ios":"levelo://app?vid=729e2357-ee04-4e53-8005-9cf17a27c626"},"vehicle_type_id":"4","last_reported":1729505419,"current_range_meters":38800,"station_id":"cpo3532slgdg3j2ikp40","pricing_plan_id":"cebpf4jnsgd1na2vs0mg"},{"bike_id":"f1d0119e-3fe3-411c-ac9b-3f7a6a4fa987","system_id":"levelo_inurba_marseille","lat":43.33608,"lon":5.41035,"is_reserved":false,"is_disabled":false,"rental_uris":{"android":"levelo://app?vid=f1d0119e-3fe3-411c-ac9b-3f7a6a4fa987","ios":"levelo://app?vid=f1d0119e-3fe3-411c-ac9b-3f7a6a4fa987"},"vehicle_type_id":"4","last_reported":1729505419,"current_range_meters":38000,"station_id":"ce4bhqh2rcd13ifvqhmg","pricing_plan_id":"cebpf4jnsgd1na2vs0mg"},{"bike_id":"2e1c74aa-66ea-457c-80cd-209d10bfcd9e","system_id":"levelo_inurba_marseille","lat":43.30525,"lon":5.36548,"is_reserved":false,"is_disabled":false,"rental_uris":{"android":"levelo://app?vid=2e1c74aa-66ea-457c-80cd-209d10bfcd9e","ios":"levelo://app?vid=2e1c74aa-66ea-457c-80cd-209d10bfcd9e"},"vehicle_type_id":"4","last_reported":1729505419,"current_range_meters":34000,"station_id":"","pricing_plan_id":"cebpf4jnsgd1na2vs0mg"},{"bike_id":"43f811e1-38dc-4b42-88d2-595f12fa92d0","system_id":"levelo_inurba_marseille","lat":43.239399,"lon":5.366025,"is_reserved":false,"is_disabled":false,"rental_uris":{"android":"levelo://app?vid=43f811e1-38dc-4b42-88d2-595f12fa92d0","ios":"levelo://app?vid=43f811e1-38dc-4b42-88d2-595f12fa92d0"},"vehicle_type_id":"4","last_reported":1729505419,"current_range_meters":36800,"station_id":"ce4bhi12rcd13ifvqfp0","pricing_plan_id":"cebpf4jnsgd1na2vs0mg"},{"bike_id":"6e44ef11-a352-474c-acc2-c81985a83845","system_id":"levelo_inurba_marseille","lat":43.28698,"lon":5.39989,"is_reserved":false,"is_disabled":false,"rental_uris":{"android":"levelo://app?vid=6e44ef11-a352-474c-acc2-c81985a83845","ios":"levelo://app?vid=6e44ef11-a352-474c-acc2-c81985a83845"},"vehicle_type_id":"4","last_reported":1729505419,"current_range_meters":30400,"station_id":"ce4bho92rcd13ifvqh3g","pricing_plan_id":"cebpf4jnsgd1na2vs0mg"},{"bike_id":"ca3273fa-d860-4b0d-9638-0d4a1dd4ebba","system_id":"levelo_inurba_marseille","lat":43.24547,"lon":5.39529,"is_reserved":false,"is_disabled":false,"rental_uris":{"android":"levelo://app?vid=ca3273fa-d860-4b0d-9638-0d4a1dd4ebba","ios":"levelo://app?vid=ca3273fa-d860-4b0d-9638-0d4a1dd4ebba"},"vehicle_type_id":"4","last_reported":1729505419,"current_range_meters":11600,"station_id":"ce4bhlp2rcd13ifvqgjg","pricing_plan_id":"cebpf4jnsgd1na2vs0mg"},{"bike_id":"4a48e2c6-4bc7-468e-8332-68301b7c0fb8","system_id":"levelo_inurba_marseille","lat":43.2984,"lon":5.36269,"is_reserved":false,"is_disabled":false,"rental_uris":{"android":"levelo://app?vid=4a48e2c6-4bc7-468e-8332-68301b7c0fb8","ios":"levelo://app?vid=4a48e2c6-4bc7-468e-8332-68301b7c0fb8"},"vehicle_type_id":"4","last_reported":1729505419,"current_range_meters":39200,"station_id":"ce4bgpp2rcd13ifvqc3g","pricing_plan_id":"cebpf4jnsgd1na2vs0mg"},