{"last_updated":1776880276,"ttl":60,"version":"2.2","data":{"bikes":[{"bike_id":"76dfa8d4-1ffe-44d5-b5c8-9ebfcedf529f","system_id":"levelo_inurba_marseille","lat":43.311567,"lon":5.396131,"is_reserved":false,"is_disabled":false,"rental_uris":{"android":"levelo://app?vid=76dfa8d4-1ffe-44d5-b5c8-9ebfcedf529f","ios":"levelo://app?vid=76dfa8d4-1ffe-44d5-b5c8-9ebfcedf529f"},"vehicle_type_id":"4","last_reported":1776880276,"current_range_meters":0,"station_id":"","pricing_plan_id":"cebpf4jnsgd1na2vs0mg"},{"bike_id":"f9cd13a0-d12b-4aad-aecf-473f98dc830f","system_id":"levelo_inurba_marseille","lat":43.2305,"lon":5.35491,"is_reserved":false,"is_disabled":false,"rental_uris":{"android":"levelo://app?vid=f9cd13a0-d12b-4aad-aecf-473f98dc830f","ios":"levelo://app?vid=f9cd13a0-d12b-4aad-aecf-473f98dc830f"},"vehicle_type_id":"4","last_reported":1776880276,"current_range_meters":400,"station_id":"cpo3342slgdg3j2ifvpg","pricing_plan_id":"cebpf4jnsgd1na2vs0mg"},{"bike_id":"c1a5266e-3f5c-4711-ab6e-ebc04e0107a7","system_id":"levelo_inurba_marseille","lat":43.3012,"lon":5.39878,"is_reserved":false,"is_disabled":true,"rental_uris":{"android":"levelo://app?vid=c1a5266e-3f5c-4711-ab6e-ebc04e0107a7","ios":"levelo://app?vid=c1a5266e-3f5c-4711-ab6e-ebc04e0107a7"},"vehicle_type_id":"4","last_reported":1776880276,"current_range_meters":1200,"station_id":"ce4bh0h2rcd13ifvqd40","pricing_plan_id":"cebpf4jnsgd1na2vs0mg"},{"bike_id":"f640793e-894a-47a4-8bca-e6452d69b691","system_id":"levelo_inurba_marseille","lat":43.30207,"lon":5.39466,"is_reserved":false,"is_disabled":false,"rental_uris":{"android":"levelo://app?vid=f640793e-894a-47a4-8bca-e6452d69b691","ios":"levelo://app?vid=f640793e-894a-47a4-8bca-e6452d69b691"},"vehicle_type_id":"4","last_reported":1776880276,"current_range_meters":2800,"station_id":"ce4bh0p2rcd13ifvqd70","pricing_plan_id":"cebpf4jnsgd1na2vs0mg"},{"bike_id":"fa0a5ba5-8953-48bf-89d2-d70bc20e3bee","system_id":"levelo_inurba_marseille","lat":43.28335,"lon":5.38108,"is_reserved":false,"is_disabled":false,"rental_uris":{"android":"levelo://app?vid=fa0a5ba5-8953-48bf-89d2-d70bc20e3bee","ios":"levelo://app?vid=fa0a5ba5-8953-48bf-89d2-d70bc20e3bee"},"vehicle_type_id":"4","last_reported":1776880276,"current_range_meters":2800,"station_id":"ce4bh412rcd13ifvqdr0","pricing_plan_id":"cebpf4jnsgd1na2vs0mg"},{"bike_id":"de33ecb4-2443-4ac2-9eaf-31d0bfa144ea","system_id":"levelo_inurba_marseille","lat":43.28471,"lon":5.38548,"is_reserved":false,"is_disabled":false,"rental_uris":{"android":"levelo://app?vid=de33ecb4-2443-4ac2-9eaf-31d0bfa144ea","ios":"levelo://app?vid=de33ecb4-2443-4ac2-9eaf-31d0bfa144ea"},"vehicle_type_id":"4","last_reported":1776880276,"current_range_meters":2800,"station_id":"ce4bh8p2rcd13ifvqeb0","pricing_plan_id":"cebpf4jnsgd1na2vs0mg"},{"bike_id":"14290775-1809-431a-89de-994574cdc895","system_id":"levelo_inurba_marseille","lat":43.27577,"lon":5.38638,"is_reserved":false,"is_disabled":false,"rental_uris":{"android":"levelo://app?vid=14290775-1809-431a-89de-994574cdc895","ios":"levelo://app?vid=14290775-1809-431a-89de-994574cdc895"},"vehicle_type_id":"4","last_reported":1776880276,"current_range_meters":2800,"station_id":"","pricing_plan_id":"cebpf4jnsgd1na2vs0mg"},{"bike_id":"6a392ac2-330a-4006-a6f1-2532f582f953","system_id":"levelo_inurba_marseille","lat":43.26224,"lon":5.40453,"is_reserved":false,"is_disabled":false,"rental_uris":{"android":"levelo://app?vid=6a392ac2-330a-4006-a6f1-2532f582f953","ios":"levelo://app?vid=6a392ac2-330a-4006-a6f1-2532f582f953"},"vehicle_type_id":"4","last_reported":1776880276,"current_range_meters":2800,"station_id":"ce4bhmh2rcd13ifvqgmg","pricing_plan_id":"cebpf4jnsgd1na2vs0mg"},{"bike_id":"26d87e4b-9e16-43fd-91b3-6dca6d754e17","system_id":"levelo_inurba_marseille","lat":43.29053,"lon":5.38655,"is_reserved":false,"is_disabled":false,"rental_uris":{"android":"levelo://app?vid=26d87e4b-9e16-43fd-91b3-6dca6d754e17","ios":"levelo://app?vid=26d87e4b-9e16-43fd-91b3-6dca6d754e17"},"vehicle_type_id":"4","last_reported":1776880276,"current_range_meters":2800,"station_id":"ce4bh4p2rcd13ifvqe0g","pricing_plan_id":"cebpf4jnsgd1na2vs0mg"},{"bike_id":"afe6c9ff-8c7f-40d2-96bc-86354113b443","system_id":"levelo_inurba_marseille","lat":43.28482,"lon":5.48413,"is_reserved":false,"is_disabled":false,"rental_uris":{"android":"levelo://app?vid=afe6c9ff-8c7f-40d2-96bc-86354113b443","ios":"levelo://app?vid=afe6c9ff-8c7f-40d2-96bc-86354113b443"},"vehicle_type_id":"4","last_reported":1776880276,"current_range_meters":3200,"station_id":"","pricing_plan_id":"cebpf4jnsgd1na2vs0mg"},{"bike_id":"3c89d143-3bfb-4753-a182-535ee5f95997","system_id":"levelo_inurba_marseille","lat":43.23173,"lon":5.39991,"is_reserved":false,"is_disabled":true,"rental_uris":{"android":"levelo://app?vid=3c89d143-3bfb-4753-a182-535ee5f95997","ios":"levelo://app?vid=3c89d143-3bfb-4753-a182-535ee5f95997"},"vehicle_type_id":"4","last_reported":1776880276,"current_range_meters":3200,"station_id":"ce4bhn12rcd13ifvqgqg","pricing_plan_id":"cebpf4jnsgd1na2vs0mg"},{"bike_id":"7592d523-19d2-4d1f-91c5-5f21c05071c1","system_id":"levelo_inurba_marseille","lat":43.28414,"lon":5.37533,"is_reserved":false,"is_disabled":false,"rental_uris":{"android":"levelo://app?vid=7592d523-19d2-4d1f-91c5-5f21c05071c1","ios":"levelo://app?vid=7592d523-19d2-4d1f-91c5-5f21c05071c1"},"vehicle_type_id":"4","last_reported":1776880276,"current_range_meters":3200,"station_id":"ce4bh412rcd13ifvqds0","pricing_plan_id":"cebpf4jnsgd1na2vs0mg"},{"bike_id":"6fdf60b9-cc58-4916-9fc9-abcdaba3916c","system_id":"levelo_inurba_marseille","lat":43.30207,"lon":5.3946,"is_reserved":false,"is_disabled":false,"rental_uris":{"android":"levelo://app?vid=6fdf60b9-cc58-4916-9fc9-abcdaba3916c","ios":"levelo://app?vid=6fdf60b9-cc58-4916-9fc9-abcdaba3916c"},"vehicle_type_id":"4","last_reported":1776880276,"current_range_meters":3200,"station_id":"ce4bh0p2rcd13ifvqd70","pricing_plan_id":"cebpf4jnsgd1na2vs0mg"},{"bike_id":"d0e220b8-26c6-4649-85da-36389bb1c0c1","system_id":"levelo_inurba_marseille","lat":43.30118,"lon":5.43103,"is_reserved":false,"is_disabled":false,"rental_uris":{"android":"levelo://app?vid=d0e220b8-26c6-4649-85da-36389bb1c0c1","ios":"levelo://app?vid=d0e220b8-26c6-4649-85da-36389bb1c0c1"},"vehicle_type_id":"4","last_reported":1776880276,"current_range_meters":3200,"station_id":"st_d3js3co5814s73ftftug","pricing_plan_id":"cebpf4jnsgd1na2vs0mg"},{"bike_id":"61fd2a5d-ab93-45d6-bcf9-adb3b121bc82","system_id":"levelo_inurba_marseille","lat":43.297984,"lon":5.38091,"is_reserved":false,"is_disabled":false,"rental_uris":{"android":"levelo://app?vid=61fd2a5d-ab93-45d6-bcf9-adb3b121bc82","ios":"levelo://app?vid=61fd2a5d-ab93-45d6-bcf9-adb3b121bc82"},"vehicle_type_id":"4","last_reported":1776880276,"current_range_meters":3200,"station_id":"ce4bgip2rcd13ifvqbb0","pricing_plan_id":"cebpf4jnsgd1na2vs0mg"},{"bike_id":"4f7d7286-2f7f-4d35-b7b1-3194c548e1b9","system_id":"levelo_inurba_marseille","lat":43.31205,"lon":5.36886,"is_reserved":false,"is_disabled":false,"rental_uris":{"android":"levelo://app?vid=4f7d7286-2f7f-4d35-b7b1-3194c548e1b9","ios":"levelo://app?vid=4f7d7286-2f7f-4d35-b7b1-3194c548e1b9"},"vehicle_type_id":"4","last_reported":1776880276,"current_range_meters":3200,"station_id":"ce4bgl92rcd13ifvqbq0","pricing_plan_id":"cebpf4jnsgd1na2vs0mg"},{"bike_id":"30d39619-50d9-4b66-a38c-c9f4beed8f6d","system_id":"levelo_inurba_marseille","lat":43.28309,"lon":5.38866,"is_reserved":false,"is_disabled":false,"rental_uris":{"android":"levelo://app?vid=30d39619-50d9-4b66-a38c-c9f4beed8f6d","ios":"levelo://app?vid=30d39619-50d9-4b66-a38c-c9f4beed8f6d"},"vehicle_type_id":"4","last_reported":1776880276,"current_range_meters":3200,"station_id":"","pricing_plan_id":"cebpf4jnsgd1na2vs0mg"},{"bike_id":"b49b7594-ebcd-49fe-ab3e-4b1990d61db2","system_id":"levelo_inurba_marseille","lat":43.28606,"lon":5.37061,"is_reserved":false,"is_disabled":false,"rental_uris":{"android":"levelo://app?vid=b49b7594-ebcd-49fe-ab3e-4b1990d61db2","ios":"levelo://app?vid=b49b7594-ebcd-49fe-ab3e-4b1990d61db2"},"vehicle_type_id":"4","last_reported":1776880276,"current_range_meters":3200,"station_id":"ce4bht12rcd13ifvqi60","pricing_plan_id":"cebpf4jnsgd1na2vs0mg"},{"bike_id":"b8ecd6af-cc0a-4926-b9cc-37652d45b66d","system_id":"levelo_inurba_marseille","lat":43.26356,"lon":5.4108,"is_reserved":false,"is_disabled":false,"rental_uris":{"android":"levelo://app?vid=b8ecd6af-cc0a-4926-b9cc-37652d45b66d","ios":"levelo://app?vid=b8ecd6af-cc0a-4926-b9cc-37652d45b66d"},"vehicle_type_id":"4","last_reported":1776880276,"current_range_meters":3200,"station_id":"st_d4e5ca6na9uc73bfl5fg","pricing_plan_id":"cebpf4jnsgd1na2vs0mg"},{"bike_id":"bd2d7a2d-f19a-42cb-b764-5cdf4657b708","system_id":"levelo_inurba_marseille","lat":43.24667,"lon":5.40079,"is_reserved":false,"is_disabled":false,"rental_uris":{"android":"levelo://app?vid=bd2d7a2d-f19a-42cb-b764-5cdf4657b708","ios":"levelo://app?vid=bd2d7a2d-f19a-42cb-b764-5cdf4657b708"},"vehicle_type_id":"4","last_reported":1776880276,"current_range_meters":3600,"station_id":"","pricing_plan_id":"cebpf4jnsgd1na2vs0mg"},{"bike_id":"53398df8-835b-4ed2-bf08-039bd71fda25","system_id":"levelo_inurba_marseille","lat":43.25928,"lon":5.38592,"is_reserved":false,"is_disabled":false,"rental_uris":{"android":"levelo://app?vid=53398df8-835b-4ed2-bf08-039bd71fda25","ios":"levelo://app?vid=53398df8-835b-4ed2-bf08-039bd71fda25"},"vehicle_type_id":"4","last_reported":1776880276,"current_range_meters":3600,"station_id":"","pricing_plan_id":"cebpf4jnsgd1na2vs0mg"},{"bike_id":"5dbb06c3-8ab3-45ea-a016-9cb37073f6cd","system_id":"levelo_inurba_marseille","lat":43.28611,"lon":5.38451,"is_reserved":false,"is_disabled":false,"rental_uris":{"android":"levelo://app?vid=5dbb06c3-8ab3-45ea-a016-9cb37073f6cd","ios":"levelo://app?vid=5dbb06c3-8ab3-45ea-a016-9cb37073f6cd"},"vehicle_type_id":"4","last_reported":1776880276,"current_range_meters":3600,"station_id":"","pricing_plan_id":"cebpf4jnsgd1na2vs0mg"},{"bike_id":"9991c691-0e1b-48fc-bd96-383a301eb2ae","system_id":"levelo_inurba_marseille","lat":43.28151,"lon":5.42644,"is_reserved":false,"is_disabled":false,"rental_uris":{"android":"levelo://app?vid=9991c691-0e1b-48fc-bd96-383a301eb2ae","ios":"levelo://app?vid=9991c691-0e1b-48fc-bd96-383a301eb2ae"},"vehicle_type_id":"4","last_reported":1776880276,"current_range_meters":3600,"station_id":"ce4bhnh2rcd13ifvqgug","pricing_plan_id":"cebpf4jnsgd1na2vs0mg"},{"bike_id":"3ac7c663-a16c-4856-871b-66d8c1ca2f0b","system_id":"levelo_inurba_marseille","lat":43.29914,"lon":5.38222,"is_reserved":false,"is_disabled":false,"rental_uris":{"android":"levelo://app?vid=3ac7c663-a16c-4856-871b-66d8c1ca2f0b","ios":"levelo://app?vid=3ac7c663-a16c-4856-871b-66d8c1ca2f0b"},"vehicle_type_id":"4","last_reported":1776880276,"current_range_meters":3600,"station_id":"","pricing_plan_id":"cebpf4jnsgd1na2vs0mg"},{"bike_id":"2d40a836-133e-4df4-8e94-64278280c4e2","system_id":"levelo_inurba_marseille","lat":43.28474,"lon":5.48393,"is_reserved":false,"is_disabled":false,"rental_uris":{"android":"levelo://app?vid=2d40a836-133e-4df4-8e94-64278280c4e2","ios":"levelo://app?vid=2d40a836-133e-4df4-8e94-64278280c4e2"},"vehicle_type_id":"4","last_reported":1776880276,"current_range_meters":3600,"station_id":"","pricing_plan_id":"cebpf4jnsgd1na2vs0mg"},{"bike_id":"0d8d31a6-7c63-4544-9b2b-92e3d4ebd662","system_id":"levelo_inurba_marseille","lat":43.28842,"lon":5.35853,"is_reserved":false,"is_disabled":false,"rental_uris":{"android":"levelo://app?vid=0d8d31a6-7c63-4544-9b2b-92e3d4ebd662","ios":"levelo://app?vid=0d8d31a6-7c63-4544-9b2b-92e3d4ebd662"},"vehicle_type_id":"4","last_reported":1776880276,"current_range_meters":3600,"station_id":"ce4bhb12rcd13ifvqem0","pricing_plan_id":"cebpf4jnsgd1na2vs0mg"},{"bike_id":"faf9535a-bce1-4796-967b-116ea7429902","system_id":"levelo_inurba_marseille","lat":43.29776,"lon":5.39353,"is_reserved":false,"is_disabled":false,"rental_uris":{"android":"levelo://app?vid=faf9535a-bce1-4796-967b-116ea7429902","ios":"levelo://app?vid=faf9535a-bce1-4796-967b-116ea7429902"},"vehicle_type_id":"4","last_reported":1776880276,"current_range_meters":4000,"station_id":"chh1huq6cuj3fo74tm60","pricing_plan_id":"cebpf4jnsgd1na2vs0mg"},{"bike_id":"df0a0b54-928d-4d23-9b87-5df3a448bdf9","system_id":"levelo_inurba_marseille","lat":43.31329,"lon":5.39697,"is_reserved":false,"is_disabled":false,"rental_uris":{"android":"levelo://app?vid=df0a0b54-928d-4d23-9b87-5df3a448bdf9","ios":"levelo://app?vid=df0a0b54-928d-4d23-9b87-5df3a448bdf9"},"vehicle_type_id":"4","last_reported":1776880276,"current_range_meters":4000,"station_id":"ce4bgvp2rcd13ifvqcu0","pricing_plan_id":"cebpf4jnsgd1na2vs0mg"},{"bike_id":"923b87f1-b066-476c-9dac-fbfbdd7a8e12","system_id":"levelo_inurba_marseille","lat":43.27579,"lon":5.38914,"is_reserved":false,"is_disabled":false,"rental_uris":{"android":"levelo://app?vid=923b87f1-b066-476c-9dac-fbfbdd7a8e12","ios":"levelo://app?vid=923b87f1-b066-476c-9dac-fbfbdd7a8e12"},"vehicle_type_id":"4","last_reported":1776880276,"current_range_meters":4000,"station_id":"","pricing_plan_id":"cebpf4jnsgd1na2vs0mg"},{"bike_id":"08e03840-fc41-4cbf-bc27-448fbd470e60","system_id":"levelo_inurba_marseille","lat":43.29076,"lon":5.37151,"is_reserved":false,"is_disabled":false,"rental_uris":{"android":"levelo://app?vid=08e03840-fc41-4cbf-bc27-448fbd470e60","ios":"levelo://app?vid=08e03840-fc41-4cbf-bc27-448fbd470e60"},"vehicle_type_id":"4","last_reported":1776880276,"current_range_meters":4000,"station_id":"ce4bh5p2rcd13ifvqe4g","pricing_plan_id":"cebpf4jnsgd1na2vs0mg"},{"bike_id":"a4c7e19a-ba86-415c-bb93-68f7e8a366d4","system_id":"levelo_inurba_marseille","lat":43.30121,"lon":5.39855,"is_reserved":false,"is_disabled":false,"rental_uris":{"android":"levelo://app?vid=a4c7e19a-ba86-415c-bb93-68f7e8a366d4","ios":"levelo://app?vid=a4c7e19a-ba86-415c-bb93-68f7e8a366d4"},"vehicle_type_id":"4","last_reported":1776880276,"current_range_meters":4000,"station_id":"ce4bh0h2rcd13ifvqd40","pricing_plan_id":"cebpf4jnsgd1na2vs0mg"},{"bike_id":"e7694cb7-b694-47b3-b787-ee6b3d265867","system_id":"levelo_inurba_marseille","lat":43.28862,"lon":5.42505,"is_reserved":false,"is_disabled":false,"rental_uris":{"android":"levelo://app?vid=e7694cb7-b694-47b3-b787-ee6b3d265867","ios":"levelo://app?vid=e7694cb7-b694-47b3-b787-ee6b3d265867"},"vehicle_type_id":"4","last_reported":1776880276,"current_range_meters":4000,"station_id":"st_d3b462108ojc7389ooeg","pricing_plan_id":"cebpf4jnsgd1na2vs0mg"},{"bike_id":"cd6c0fc9-2dbb-44c1-a070-5c61736279b1","system_id":"levelo_inurba_marseille","lat":43.28096,"lon":5.37826,"is_reserved":false,"is_disabled":false,"rental_uris":{"android":"levelo://app?vid=cd6c0fc9-2dbb-44c1-a070-5c61736279b1","ios":"levelo://app?vid=cd6c0fc9-2dbb-44c1-a070-5c61736279b1"},"vehicle_type_id":"4","last_reported":1776880276,"current_range_meters":4000,"station_id":"ce4bha12rcd13ifvqee0","pricing_plan_id":"cebpf4jnsgd1na2vs0mg"},{"bike_id":"909929ad-6150-4e90-9010-fc5021f6e58c","system_id":"levelo_inurba_marseille","lat":43.27223,"lon":5.40085,"is_reserved":false,"is_disabled":false,"rental_uris":{"android":"levelo://app?vid=909929ad-6150-4e90-9010-fc5021f6e58c","ios":"levelo://app?vid=909929ad-6150-4e90-9010-fc5021f6e58c"},"vehicle_type_id":"4","last_reported":1776880276,"current_range_meters":4400,"station_id":"","pricing_plan_id":"cebpf4jnsgd1na2vs0mg"},{"bike_id":"d9be86bb-6c4e-4c05-bc60-e02431cbb916","system_id":"levelo_inurba_marseille","lat":43.31894,"lon":5.36807,"is_reserved":false,"is_disabled":false,"rental_uris":{"android":"levelo://app?vid=d9be86bb-6c4e-4c05-bc60-e02431cbb916","ios":"levelo://app?vid=d9be86bb-6c4e-4c05-bc60-e02431cbb916"},"vehicle_type_id":"4","last_reported":1776880276,"current_range_meters":4400,"station_id":"st_d6o2h0d0559c73evc1b0","pricing_plan_id":"cebpf4jnsgd1na2vs0mg"},{"bike_id":"2c15ca4e-876b-4b7d-867a-d160c11f6bed","system_id":"levelo_inurba_marseille","lat":43.28691,"lon":5.37392,"is_reserved":false,"is_disabled":false,"rental_uris":{"android":"levelo://app?vid=2c15ca4e-876b-4b7d-867a-d160c11f6bed","ios":"levelo://app?vid=2c15ca4e-876b-4b7d-867a-d160c11f6bed"},"vehicle_type_id":"4","last_reported":1776880276,"current_range_meters":4400,"station_id":"ce4bh3p2rcd13ifvqdq0","pricing_plan_id":"cebpf4jnsgd1na2vs0mg"},{"bike_id":"6762af8f-5387-458d-b8d1-d9dbd22a127c","system_id":"levelo_inurba_marseille","lat":43.28858,"lon":5.42514,"is_reserved":false,"is_disabled":false,"rental_uris":{"android":"levelo://app?vid=6762af8f-5387-458d-b8d1-d9dbd22a127c","ios":"levelo://app?vid=6762af8f-5387-458d-b8d1-d9dbd22a127c"},"vehicle_type_id":"4","last_reported":1776880276,"current_range_meters":4400,"station_id":"st_d3b462108ojc7389ooeg","pricing_plan_id":"cebpf4jnsgd1na2vs0mg"},{"bike_id":"29559936-7f82-4f05-a2af-30fafaad89ee","system_id":"levelo_inurba_marseille","lat":43.28381,"lon":5.38639,"is_reserved":false,"is_disabled":false,"rental_uris":{"android":"levelo://app?vid=29559936-7f82-4f05-a2af-30fafaad89ee","ios":"levelo://app?vid=29559936-7f82-4f05-a2af-30fafaad89ee"},"vehicle_type_id":"4","last_reported":1776880276,"current_range_meters":4400,"station_id":"ce4bh492rcd13ifvqdvg","pricing_plan_id":"cebpf4jnsgd1na2vs0mg"},{"bike_id":"88617e39-c4cf-4108-911d-b042c7effac3","system_id":"levelo_inurba_marseille","lat":43.29005,"lon":5.35612,"is_reserved":false,"is_disabled":false,"rental_uris":{"android":"levelo://app?vid=88617e39-c4cf-4108-911d-b042c7effac3","ios":"levelo://app?vid=88617e39-c4cf-4108-911d-b042c7effac3"},"vehicle_type_id":"4","last_reported":1776880276,"current_range_meters":4400,"station_id":"ce4bhb92rcd13ifvqen0","pricing_plan_id":"cebpf4jnsgd1na2vs0mg"},{"bike_id":"be5c4907-57d0-4c67-8ff7-ac26938c6076","system_id":"levelo_inurba_marseille","lat":43.28269,"lon":5.40687,"is_reserved":false,"is_disabled":false,"rental_uris":{"android":"levelo://app?vid=be5c4907-57d0-4c67-8ff7-ac26938c6076","ios":"levelo://app?vid=be5c4907-57d0-4c67-8ff7-ac26938c6076"},"vehicle_type_id":"4","last_reported":1776880276,"current_range_meters":4800,"station_id":"","pricing_plan_id":"cebpf4jnsgd1na2vs0mg"},{"bike_id":"3ddb5174-c50c-4964-ba54-898026491bc0","system_id":"levelo_inurba_marseille","lat":43.29871,"lon":5.38912,"is_reserved":false,"is_disabled":false,"rental_uris":{"android":"levelo://app?vid=3ddb5174-c50c-4964-ba54-898026491bc0","ios":"levelo://app?vid=3ddb5174-c50c-4964-ba54-898026491bc0"},"vehicle_type_id":"4","last_reported":1776880276,"current_range_meters":4800,"station_id":"ce4bh392rcd13ifvqdl0","pricing_plan_id":"cebpf4jnsgd1na2vs0mg"},{"bike_id":"659d95b4-d76d-4fc7-93d0-9728055ab99d","system_id":"levelo_inurba_marseille","lat":43.29772,"lon":5.38101,"is_reserved":false,"is_disabled":false,"rental_uris":{"android":"levelo://app?vid=659d95b4-d76d-4fc7-93d0-9728055ab99d","ios":"levelo://app?vid=659d95b4-d76d-4fc7-93d0-9728055ab99d"},"vehicle_type_id":"4","last_reported":1776880276,"current_range_meters":4800,"station_id":"ce4bgip2rcd13ifvqbb0","pricing_plan_id":"cebpf4jnsgd1na2vs0mg"},{"bike_id":"36e7aa08-bcb4-4084-bd85-f41ade11c368","system_id":"levelo_inurba_marseille","lat":43.28862,"lon":5.42539,"is_reserved":false,"is_disabled":false,"rental_uris":{"android":"levelo://app?vid=36e7aa08-bcb4-4084-bd85-f41ade11c368","ios":"levelo://app?vid=36e7aa08-bcb4-4084-bd85-f41ade11c368"},"vehicle_type_id":"4","last_reported":1776880276,"current_range_meters":4800,"station_id":"st_d3b462108ojc7389ooeg","pricing_plan_id":"cebpf4jnsgd1na2vs0mg"},{"bike_id":"a7020a93-7c00-4fec-b1a2-4f1670bbc6d7","system_id":"levelo_inurba_marseille","lat":43.23826,"lon":5.41336,"is_reserved":false,"is_disabled":false,"rental_uris":{"android":"levelo://app?vid=a7020a93-7c00-4fec-b1a2-4f1670bbc6d7","ios":"levelo://app?vid=a7020a93-7c00-4fec-b1a2-4f1670bbc6d7"},"vehicle_type_id":"4","last_reported":1776880276,"current_range_meters":4800,"station_id":"","pricing_plan_id":"cebpf4jnsgd1na2vs0mg"},{"bike_id":"7dcb273f-c358-4982-8d37-99e2c336a8ce","system_id":"levelo_inurba_marseille","lat":43.2919,"lon":5.35798,"is_reserved":false,"is_disabled":false,"rental_uris":{"android":"levelo://app?vid=7dcb273f-c358-4982-8d37-99e2c336a8ce","ios":"levelo://app?vid=7dcb273f-c358-4982-8d37-99e2c336a8ce"},"vehicle_type_id":"4","last_reported":1776880276,"current_range_meters":4800,"station_id":"ce4bhb12rcd13ifvqel0","pricing_plan_id":"cebpf4jnsgd1na2vs0mg"},{"bike_id":"d204400f-8745-41a5-b8f3-30b0d4c8bfb2","system_id":"levelo_inurba_marseille","lat":43.3192,"lon":5.36797,"is_reserved":false,"is_disabled":false,"rental_uris":{"android":"levelo://app?vid=d204400f-8745-41a5-b8f3-30b0d4c8bfb2","ios":"levelo://app?vid=d204400f-8745-41a5-b8f3-30b0d4c8bfb2"},"vehicle_type_id":"4","last_reported":1776880276,"current_range_meters":4800,"station_id":"st_d6o2h0d0559c73evc1b0","pricing_plan_id":"cebpf4jnsgd1na2vs0mg"},{"bike_id":"9acbd7de-8a47-4146-88f4-ae310da0d9b6","system_id":"levelo_inurba_marseille","lat":43.27994,"lon":5.41662,"is_reserved":false,"is_disabled":false,"rental_uris":{"android":"levelo://app?vid=9acbd7de-8a47-4146-88f4-ae310da0d9b6","ios":"levelo://app?vid=9acbd7de-8a47-4146-88f4-ae310da0d9b6"},"vehicle_type_id":"4","last_reported":1776880276,"current_range_meters":4800,"station_id":"ce4bho12rcd13ifvqh1g","pricing_plan_id":"cebpf4jnsgd1na2vs0mg"},{"bike_id":"7c3fc540-da61-4a00-8df5-47f195fae56d","system_id":"levelo_inurba_marseille","lat":43.299846,"lon":5.384942,"is_reserved":false,"is_disabled":false,"rental_uris":{"android":"levelo://app?vid=7c3fc540-da61-4a00-8df5-47f195fae56d","ios":"levelo://app?vid=7c3fc540-da61-4a00-8df5-47f195fae56d"},"vehicle_type_id":"4","last_reported":1776880276,"current_range_meters":4800,"station_id":"ce4bgj92rcd13ifvqbd0","pricing_plan_id":"cebpf4jnsgd1na2vs0mg"},{"bike_id":"882e84be-aff7-44fe-8e03-e10b9edfe543","system_id":"levelo_inurba_marseille","lat":43.29789,"lon":5.38099,"is_reserved":false,"is_disabled":true,"rental_uris":{"android":"levelo://app?vid=882e84be-aff7-44fe-8e03-e10b9edfe543","ios":"levelo://app?vid=882e84be-aff7-44fe-8e03-e10b9edfe543"},"vehicle_type_id":"4","last_reported":1776880276,"current_range_meters":4800,"station_id":"","pricing_plan_id":"cebpf4jnsgd1na2vs0mg"},{"bike_id":"9be59171-5660-47f3-a2cb-64d964681a0b","system_id":"levelo_inurba_marseille","lat":43.33514,"lon":5.37468,"is_reserved":false,"is_disabled":false,"rental_uris":{"android":"levelo://app?vid=9be59171-5660-47f3-a2cb-64d964681a0b","ios":"levelo://app?vid=9be59171-5660-47f3-a2cb-64d964681a0b"},"vehicle_type_id":"4","last_reported":1776880276,"current_range_meters":4800,"station_id":"st_d46tts09ee8s73dlu43g","pricing_plan_id":"cebpf4jnsgd1na2vs0mg"},{"bike_id":"975fcb9b-1b51-495d-8031-2a8c6eb741cf","system_id":"levelo_inurba_marseille","lat":43.31683,"lon":5.40471,"is_reserved":false,"is_disabled":false,"rental_uris":{"android":"levelo://app?vid=975fcb9b-1b51-495d-8031-2a8c6eb741cf","ios":"levelo://app?vid=975fcb9b-1b51-495d-8031-2a8c6eb741cf"},"vehicle_type_id":"4","last_reported":1776880276,"current_range_meters":4800,"station_id":"ce4bh012rcd13ifvqd00","pricing_plan_id":"cebpf4jnsgd1na2vs0mg"},{"bike_id":"46802080-6872-4888-a961-087730684668","system_id":"levelo_inurba_marseille","lat":43.28374,"lon":5.38631,"is_reserved":false,"is_disabled":false,"rental_uris":{"android":"levelo://app?vid=46802080-6872-4888-a961-087730684668","ios":"levelo://app?vid=46802080-6872-4888-a961-087730684668"},"vehicle_type_id":"4","last_reported":1776880276,"current_range_meters":5600,"station_id":"ce4bh492rcd13ifvqdvg","pricing_plan_id":"cebpf4jnsgd1na2vs0mg"},{"bike_id":"4b53bcfd-f7e1-4454-8683-b6925fe9a7fe","system_id":"levelo_inurba_marseille","lat":43.27065,"lon":5.42282,"is_reserved":false,"is_disabled":false,"rental_uris":{"android":"levelo://app?vid=4b53bcfd-f7e1-4454-8683-b6925fe9a7fe","ios":"levelo://app?vid=4b53bcfd-f7e1-4454-8683-b6925fe9a7fe"},"vehicle_type_id":"4","last_reported":1776880276,"current_range_meters":5600,"station_id":"ce4bhk92rcd13ifvqgb0","pricing_plan_id":"cebpf4jnsgd1na2vs0mg"},{"bike_id":"741ec748-06b3-454b-8687-4601dbe79e98","system_id":"levelo_inurba_marseille","lat":43.29216,"lon":5.36044,"is_reserved":false,"is_disabled":false,"rental_uris":{"android":"levelo://app?vid=741ec748-06b3-454b-8687-4601dbe79e98","ios":"levelo://app?vid=741ec748-06b3-454b-8687-4601dbe79e98"},"vehicle_type_id":"4","last_reported":1776880276,"current_range_meters":5600,"station_id":"ce4bhbh2rcd13ifvqeqg","pricing_plan_id":"cebpf4jnsgd1na2vs0mg"},{"bike_id":"63dc8bdc-9afb-4d89-8dbc-6eca23d62090","system_id":"levelo_inurba_marseille","lat":43.30257,"lon":5.40064,"is_reserved":false,"is_disabled":false,"rental_uris":{"android":"levelo://app?vid=63dc8bdc-9afb-4d89-8dbc-6eca23d62090","ios":"levelo://app?vid=63dc8bdc-9afb-4d89-8dbc-6eca23d62090"},"vehicle_type_id":"4","last_reported":1776880276,"current_range_meters":5600,"station_id":"ce4bgvh2rcd13ifvqcs0","pricing_plan_id":"cebpf4jnsgd1na2vs0mg"},{"bike_id":"a5932d33-7fe4-4ab5-ab73-558a4a420627","system_id":"levelo_inurba_marseille","lat":43.2445,"lon":5.40051,"is_reserved":false,"is_disabled":false,"rental_uris":{"android":"levelo://app?vid=a5932d33-7fe4-4ab5-ab73-558a4a420627","ios":"levelo://app?vid=a5932d33-7fe4-4ab5-ab73-558a4a420627"},"vehicle_type_id":"4","last_reported":1776880276,"current_range_meters":5600,"station_id":"","pricing_plan_id":"cebpf4jnsgd1na2vs0mg"},{"bike_id":"440aef3d-02a1-447a-986c-1d3cc74e2e9f","system_id":"levelo_inurba_marseille","lat":43.28612,"lon":5.35103,"is_reserved":false,"is_disabled":false,"rental_uris":{"android":"levelo://app?vid=440aef3d-02a1-447a-986c-1d3cc74e2e9f","ios":"levelo://app?vid=440aef3d-02a1-447a-986c-1d3cc74e2e9f"},"vehicle_type_id":"4","last_reported":1776880276,"current_range_meters":5600,"station_id":"ce4bhch2rcd13ifvqeug","pricing_plan_id":"cebpf4jnsgd1na2vs0mg"},{"bike_id":"d26339ac-f4f9-4439-8cba-335e6927c082","system_id":"levelo_inurba_marseille","lat":43.301,"lon":5.39879,"is_reserved":false,"is_disabled":false,"rental_uris":{"android":"levelo://app?vid=d26339ac-f4f9-4439-8cba-335e6927c082","ios":"levelo://app?vid=d26339ac-f4f9-4439-8cba-335e6927c082"},"vehicle_type_id":"4","last_reported":1776880276,"current_range_meters":6000,"station_id":"ce4bh0h2rcd13ifvqd40","pricing_plan_id":"cebpf4jnsgd1na2vs0mg"},{"bike_id":"7667da32-6518-4ca0-a8d9-649eadce9421","system_id":"levelo_inurba_marseille","lat":43.29768,"lon":5.38128,"is_reserved":false,"is_disabled":false,"rental_uris":{"android":"levelo://app?vid=7667da32-6518-4ca0-a8d9-649eadce9421","ios":"levelo://app?vid=7667da32-6518-4ca0-a8d9-649eadce9421"},"vehicle_type_id":"4","last_reported":1776880276,"current_range_meters":6000,"station_id":"ce4bgip2rcd13ifvqbb0","pricing_plan_id":"cebpf4jnsgd1na2vs0mg"},{"bike_id":"fe450047-0a49-4639-91e2-adf40561d801","system_id":"levelo_inurba_marseille","lat":43.2861,"lon":5.35116,"is_reserved":false,"is_disabled":false,"rental_uris":{"android":"levelo://app?vid=fe450047-0a49-4639-91e2-adf40561d801","ios":"levelo://app?vid=fe450047-0a49-4639-91e2-adf40561d801"},"vehicle_type_id":"4","last_reported":1776880276,"current_range_meters":6000,"station_id":"ce4bhch2rcd13ifvqeug","pricing_plan_id":"cebpf4jnsgd1na2vs0mg"},{"bike_id":"087d52c0-9ae2-4e09-905e-2f7b8859847d","system_id":"levelo_inurba_marseille","lat":43.33127,"lon":5.37682,"is_reserved":false,"is_disabled":false,"rental_uris":{"android":"levelo://app?vid=087d52c0-9ae2-4e09-905e-2f7b8859847d","ios":"levelo://app?vid=087d52c0-9ae2-4e09-905e-2f7b8859847d"},"vehicle_type_id":"4","last_reported":1776880276,"current_range_meters":6000,"station_id":"st_d46cu089ee8s73dldbu0","pricing_plan_id":"cebpf4jnsgd1na2vs0mg"},{"bike_id":"ab441cdc-9cd1-4c8e-b69e-34bb46fece34","system_id":"levelo_inurba_marseille","lat":43.29391,"lon":5.363,"is_reserved":false,"is_disabled":false,"rental_uris":{"android":"levelo://app?vid=ab441cdc-9cd1-4c8e-b69e-34bb46fece34","ios":"levelo://app?vid=ab441cdc-9cd1-4c8e-b69e-34bb46fece34"},"vehicle_type_id":"4","last_reported":1776880276,"current_range_meters":6000,"station_id":"","pricing_plan_id":"cebpf4jnsgd1na2vs0mg"},{"bike_id":"8194a0ff-2824-43c5-8a22-527fdaa0a136","system_id":"levelo_inurba_marseille","lat":43.27345,"lon":5.40944,"is_reserved":false,"is_disabled":false,"rental_uris":{"android":"levelo://app?vid=8194a0ff-2824-43c5-8a22-527fdaa0a136","ios":"levelo://app?vid=8194a0ff-2824-43c5-8a22-527fdaa0a136"},"vehicle_type_id":"4","last_reported":1776880276,"current_range_meters":6000,"station_id":"","pricing_plan_id":"cebpf4jnsgd1na2vs0mg"},{"bike_id":"7185d8ec-9dc6-41c8-947f-9d3b0aaeb86b","system_id":"levelo_inurba_marseille","lat":43.23893,"lon":5.37467,"is_reserved":false,"is_disabled":true,"rental_uris":{"android":"levelo://app?vid=7185d8ec-9dc6-41c8-947f-9d3b0aaeb86b","ios":"levelo://app?vid=7185d8ec-9dc6-41c8-947f-9d3b0aaeb86b"},"vehicle_type_id":"4","last_reported":1776880276,"current_range_meters":6000,"station_id":"st_d6sm7csbq4hs73f8fpjg","pricing_plan_id":"cebpf4jnsgd1na2vs0mg"},{"bike_id":"21be277e-f4cf-48b7-a2c2-d89224ed4122","system_id":"levelo_inurba_marseille","lat":43.28262,"lon":5.35077,"is_reserved":false,"is_disabled":false,"rental_uris":{"android":"levelo://app?vid=21be277e-f4cf-48b7-a2c2-d89224ed4122","ios":"levelo://app?vid=21be277e-f4cf-48b7-a2c2-d89224ed4122"},"vehicle_type_id":"4","last_reported":1776880276,"current_range_meters":6000,"station_id":"ce4bhbp2rcd13ifvqerg","pricing_plan_id":"cebpf4jnsgd1na2vs0mg"},{"bike_id":"536fa38a-c1bc-4652-b1fd-ef3ff74def6b","system_id":"levelo_inurba_marseille","lat":43.28845,"lon":5.42508,"is_reserved":false,"is_disabled":false,"rental_uris":{"android":"levelo://app?vid=536fa38a-c1bc-4652-b1fd-ef3ff74def6b","ios":"levelo://app?vid=536fa38a-c1bc-4652-b1fd-ef3ff74def6b"},"vehicle_type_id":"4","last_reported":1776880276,"current_range_meters":6000,"station_id":"st_d3b462108ojc7389ooeg","pricing_plan_id":"cebpf4jnsgd1na2vs0mg"},{"bike_id":"1b9f3033-b460-4e1f-a438-9ab71168e18f","system_id":"levelo_inurba_marseille","lat":43.28922,"lon":5.36633,"is_reserved":false,"is_disabled":false,"rental_uris":{"android":"levelo://app?vid=1b9f3033-b460-4e1f-a438-9ab71168e18f","ios":"levelo://app?vid=1b9f3033-b460-4e1f-a438-9ab71168e18f"},"vehicle_type_id":"4","last_reported":1776880276,"current_range_meters":6400,"station_id":"ce4bhap2rcd13ifvqek0","pricing_plan_id":"cebpf4jnsgd1na2vs0mg"},{"bike_id":"73d436be-8bb5-400c-b5b8-edfd7e8d5913","system_id":"levelo_inurba_marseille","lat":43.337444,"lon":5.374475,"is_reserved":false,"is_disabled":false,"rental_uris":{"android":"levelo://app?vid=73d436be-8bb5-400c-b5b8-edfd7e8d5913","ios":"levelo://app?vid=73d436be-8bb5-400c-b5b8-edfd7e8d5913"},"vehicle_type_id":"4","last_reported":1776880276,"current_range_meters":6400,"station_id":"ce4bhgp2rcd13ifvqfc0","pricing_plan_id":"cebpf4jnsgd1na2vs0mg"},{"bike_id":"ba8faadf-6c0c-429c-910a-dff36b3ef975","system_id":"levelo_inurba_marseille","lat":43.26222,"lon":5.38759,"is_reserved":false,"is_disabled":false,"rental_uris":{"android":"levelo://app?vid=ba8faadf-6c0c-429c-910a-dff36b3ef975","ios":"levelo://app?vid=ba8faadf-6c0c-429c-910a-dff36b3ef975"},"vehicle_type_id":"4","last_reported":1776880276,"current_range_meters":6400,"station_id":"","pricing_plan_id":"cebpf4jnsgd1na2vs0mg"},{"bike_id":"04257b95-4499-46e1-a4e3-88ab526291ba","system_id":"levelo_inurba_marseille","lat":43.28495,"lon":5.48392,"is_reserved":false,"is_disabled":false,"rental_uris":{"android":"levelo://app?vid=04257b95-4499-46e1-a4e3-88ab526291ba","ios":"levelo://app?vid=04257b95-4499-46e1-a4e3-88ab526291ba"},"vehicle_type_id":"4","last_reported":1776880276,"current_range_meters":6400,"station_id":"","pricing_plan_id":"cebpf4jnsgd1na2vs0mg"},{"bike_id":"30c33986-0430-483f-9fb8-bcd3421739e0","system_id":"levelo_inurba_marseille","lat":43.27338,"lon":5.36257,"is_reserved":false,"is_disabled":false,"rental_uris":{"android":"levelo://app?vid=30c33986-0430-483f-9fb8-bcd3421739e0","ios":"levelo://app?vid=30c33986-0430-483f-9fb8-bcd3421739e0"},"vehicle_type_id":"4","last_reported":1776880276,"current_range_meters":6400,"station_id":"ce4bhbh2rcd13ifvqeo0","pricing_plan_id":"cebpf4jnsgd1na2vs0mg"},{"bike_id":"ff422c07-4472-471c-ab0d-dcb023acae97","system_id":"levelo_inurba_marseille","lat":43.30607,"lon":5.37146,"is_reserved":false,"is_disabled":false,"rental_uris":{"android":"levelo://app?vid=ff422c07-4472-471c-ab0d-dcb023acae97","ios":"levelo://app?vid=ff422c07-4472-471c-ab0d-dcb023acae97"},"vehicle_type_id":"4","last_reported":1776880276,"current_range_meters":6400,"station_id":"","pricing_plan_id":"cebpf4jnsgd1na2vs0mg"},{"bike_id":"53ac9b94-d2b8-401a-8133-9009372f217e","system_id":"levelo_inurba_marseille","lat":43.28473,"lon":5.48412,"is_reserved":false,"is_disabled":false,"rental_uris":{"android":"levelo://app?vid=53ac9b94-d2b8-401a-8133-9009372f217e","ios":"levelo://app?vid=53ac9b94-d2b8-401a-8133-9009372f217e"},"vehicle_type_id":"4","last_reported":1776880276,"current_range_meters":6400,"station_id":"","pricing_plan_id":"cebpf4jnsgd1na2vs0mg"},{"bike_id":"208a0337-8e65-4feb-bab3-85c492b0d7c4","system_id":"levelo_inurba_marseille","lat":43.299329,"lon":5.365526,"is_reserved":false,"is_disabled":false,"rental_uris":{"android":"levelo://app?vid=208a0337-8e65-4feb-bab3-85c492b0d7c4","ios":"levelo://app?vid=208a0337-8e65-4feb-bab3-85c492b0d7c4"},"vehicle_type_id":"4","last_reported":1776880276,"current_range_meters":6400,"station_id":"ce4bgm92rcd13ifvqbr0","pricing_plan_id":"cebpf4jnsgd1na2vs0mg"},{"bike_id":"1c4db81e-e54e-450a-b910-a202dc639503","system_id":"levelo_inurba_marseille","lat":43.2847,"lon":5.48404,"is_reserved":false,"is_disabled":false,"rental_uris":{"android":"levelo://app?vid=1c4db81e-e54e-450a-b910-a202dc639503","ios":"levelo://app?vid=1c4db81e-e54e-450a-b910-a202dc639503"},"vehicle_type_id":"4","last_reported":1776880276,"current_range_meters":6800,"station_id":"","pricing_plan_id":"cebpf4jnsgd1na2vs0mg"},{"bike_id":"8c33dcad-8792-4b7f-9ebc-77429e11d6b0","system_id":"levelo_inurba_marseille","lat":43.32471,"lon":5.36568,"is_reserved":false,"is_disabled":false,"rental_uris":{"android":"levelo://app?vid=8c33dcad-8792-4b7f-9ebc-77429e11d6b0","ios":"levelo://app?vid=8c33dcad-8792-4b7f-9ebc-77429e11d6b0"},"vehicle_type_id":"4","last_reported":1776880276,"current_range_meters":6800,"station_id":"ce4bhs12rcd13ifvqhvg","pricing_plan_id":"cebpf4jnsgd1na2vs0mg"},{"bike_id":"fc83597b-c92a-4d6b-9ec3-85cccb5b70a7","system_id":"levelo_inurba_marseille","lat":43.31974,"lon":5.36813,"is_reserved":false,"is_disabled":false,"rental_uris":{"android":"levelo://app?vid=fc83597b-c92a-4d6b-9ec3-85cccb5b70a7","ios":"levelo://app?vid=fc83597b-c92a-4d6b-9ec3-85cccb5b70a7"},"vehicle_type_id":"4","last_reported":1776880276,"current_range_meters":6800,"station_id":"","pricing_plan_id":"cebpf4jnsgd1na2vs0mg"},{"bike_id":"bd3c6b3e-d299-464a-9a96-a94e112dc80d","system_id":"levelo_inurba_marseille","lat":43.29868,"lon":5.3626,"is_reserved":false,"is_disabled":false,"rental_uris":{"android":"levelo://app?vid=bd3c6b3e-d299-464a-9a96-a94e112dc80d","ios":"levelo://app?vid=bd3c6b3e-d299-464a-9a96-a94e112dc80d"},"vehicle_type_id":"4","last_reported":1776880276,"current_range_meters":6800,"station_id":"ce4bgpp2rcd13ifvqc3g","pricing_plan_id":"cebpf4jnsgd1na2vs0mg"},{"bike_id":"7bcba6ec-2fa4-4918-9a73-fea85a6638d3","system_id":"levelo_inurba_marseille","lat":43.27807,"lon":5.40508,"is_reserved":false,"is_disabled":false,"rental_uris":{"android":"levelo://app?vid=7bcba6ec-2fa4-4918-9a73-fea85a6638d3","ios":"levelo://app?vid=7bcba6ec-2fa4-4918-9a73-fea85a6638d3"},"vehicle_type_id":"4","last_reported":1776880276,"current_range_meters":6800,"station_id":"","pricing_plan_id":"cebpf4jnsgd1na2vs0mg"},{"bike_id":"0932dbe7-8e4a-472a-9eff-1305e4dc22db","system_id":"levelo_inurba_marseille","lat":43.30586,"lon":5.39357,"is_reserved":false,"is_disabled":false,"rental_uris":{"android":"levelo://app?vid=0932dbe7-8e4a-472a-9eff-1305e4dc22db","ios":"levelo://app?vid=0932dbe7-8e4a-472a-9eff-1305e4dc22db"},"vehicle_type_id":"4","last_reported":1776880276,"current_range_meters":6800,"station_id":"ce4bh0p2rcd13ifvqd80","pricing_plan_id":"cebpf4jnsgd1na2vs0mg"},{"bike_id":"5feca112-92d4-4897-aa8d-921e5219665a","system_id":"levelo_inurba_marseille","lat":43.22674,"lon":5.34804,"is_reserved":false,"is_disabled":false,"rental_uris":{"android":"levelo://app?vid=5feca112-92d4-4897-aa8d-921e5219665a","ios":"levelo://app?vid=5feca112-92d4-4897-aa8d-921e5219665a"},"vehicle_type_id":"4","last_reported":1776880276,"current_range_meters":6800,"station_id":"","pricing_plan_id":"cebpf4jnsgd1na2vs0mg"},{"bike_id":"e894a4f9-57b8-404c-a053-fa8ff9222667","system_id":"levelo_inurba_marseille","lat":43.28598,"lon":5.39918,"is_reserved":false,"is_disabled":true,"rental_uris":{"android":"levelo://app?vid=e894a4f9-57b8-404c-a053-fa8ff9222667","ios":"levelo://app?vid=e894a4f9-57b8-404c-a053-fa8ff9222667"},"vehicle_type_id":"4","last_reported":1776880276,"current_range_meters":6800,"station_id":"st_d4a7ka997mjs738ck50g","pricing_plan_id":"cebpf4jnsgd1na2vs0mg"},{"bike_id":"6ee75b1e-3389-452c-805f-052a7231f6b2","system_id":"levelo_inurba_marseille","lat":43.28854,"lon":5.42515,"is_reserved":false,"is_disabled":false,"rental_uris":{"android":"levelo://app?vid=6ee75b1e-3389-452c-805f-052a7231f6b2","ios":"levelo://app?vid=6ee75b1e-3389-452c-805f-052a7231f6b2"},"vehicle_type_id":"4","last_reported":1776880276,"current_range_meters":7200,"station_id":"st_d3b462108ojc7389ooeg","pricing_plan_id":"cebpf4jnsgd1na2vs0mg"},{"bike_id":"7b477510-f637-48a3-8d07-151b6fdaa492","system_id":"levelo_inurba_marseille","lat":43.30138,"lon":5.39884,"is_reserved":false,"is_disabled":false,"rental_uris":{"android":"levelo://app?vid=7b477510-f637-48a3-8d07-151b6fdaa492","ios":"levelo://app?vid=7b477510-f637-48a3-8d07-151b6fdaa492"},"vehicle_type_id":"4","last_reported":1776880276,"current_range_meters":7200,"station_id":"ce4bh0h2rcd13ifvqd40","pricing_plan_id":"cebpf4jnsgd1na2vs0mg"},{"bike_id":"1ac32573-35ca-4b15-a3f0-b178fc7d1a24","system_id":"levelo_inurba_marseille","lat":43.23385,"lon":5.41222,"is_reserved":false,"is_disabled":false,"rental_uris":{"android":"levelo://app?vid=1ac32573-35ca-4b15-a3f0-b178fc7d1a24","ios":"levelo://app?vid=1ac32573-35ca-4b15-a3f0-b178fc7d1a24"},"vehicle_type_id":"4","last_reported":1776880276,"current_range_meters":7200,"station_id":"st_d75pvndhf9lc73cqq3eg","pricing_plan_id":"cebpf4jnsgd1na2vs0mg"},{"bike_id":"b0292b57-bc6e-4d3d-855f-2c85d8c85123","system_id":"levelo_inurba_marseille","lat":43.29321,"lon":5.36256,"is_reserved":false,"is_disabled":false,"rental_uris":{"android":"levelo://app?vid=b0292b57-bc6e-4d3d-855f-2c85d8c85123","ios":"levelo://app?vid=b0292b57-bc6e-4d3d-855f-2c85d8c85123"},"vehicle_type_id":"4","last_reported":1776880276,"current_range_meters":7200,"station_id":"","pricing_plan_id":"cebpf4jnsgd1na2vs0mg"},{"bike_id":"50918bbe-8b4a-4832-b89d-ffef40c798ba","system_id":"levelo_inurba_marseille","lat":43.32368,"lon":5.36724,"is_reserved":false,"is_disabled":false,"rental_uris":{"android":"levelo://app?vid=50918bbe-8b4a-4832-b89d-ffef40c798ba","ios":"levelo://app?vid=50918bbe-8b4a-4832-b89d-ffef40c798ba"},"vehicle_type_id":"4","last_reported":1776880276,"current_range_meters":7200,"station_id":"ce4bhsh2rcd13ifvqi2g","pricing_plan_id":"cebpf4jnsgd1na2vs0mg"},{"bike_id":"c7ff1d8c-9f80-4101-92ef-2f0b68fb525f","system_id":"levelo_inurba_marseille","lat":43.27571,"lon":5.39515,"is_reserved":false,"is_disabled":false,"rental_uris":{"android":"levelo://app?vid=c7ff1d8c-9f80-4101-92ef-2f0b68fb525f","ios":"levelo://app?vid=c7ff1d8c-9f80-4101-92ef-2f0b68fb525f"},"vehicle_type_id":"4","last_reported":1776880276,"current_range_meters":7200,"station_id":"","pricing_plan_id":"cebpf4jnsgd1na2vs0mg"},{"bike_id":"b07df4a8-3a84-4a6f-8930-a25b3ebe2fc3","system_id":"levelo_inurba_marseille","lat":43.3102,"lon":5.37718,"is_reserved":false,"is_disabled":false,"rental_uris":{"android":"levelo://app?vid=b07df4a8-3a84-4a6f-8930-a25b3ebe2fc3","ios":"levelo://app?vid=b07df4a8-3a84-4a6f-8930-a25b3ebe2fc3"},"vehicle_type_id":"4","last_reported":1776880276,"current_range_meters":7200,"station_id":"","pricing_plan_id":"cebpf4jnsgd1na2vs0mg"},{"bike_id":"2d55dcb6-939b-4f02-b41f-c34266fa9e7a","system_id":"levelo_inurba_marseille","lat":43.29189,"lon":5.39288,"is_reserved":false,"is_disabled":true,"rental_uris":{"android":"levelo://app?vid=2d55dcb6-939b-4f02-b41f-c34266fa9e7a","ios":"levelo://app?vid=2d55dcb6-939b-4f02-b41f-c34266fa9e7a"},"vehicle_type_id":"4","last_reported":1776880276,"current_range_meters":7200,"station_id":"ce4bh192rcd13ifvqdd0","pricing_plan_id":"cebpf4jnsgd1na2vs0mg"},{"bike_id":"d1fda486-70ba-4609-b998-7713b50defe1","system_id":"levelo_inurba_marseille","lat":43.27057,"lon":5.40055,"is_reserved":false,"is_disabled":false,"rental_uris":{"android":"levelo://app?vid=d1fda486-70ba-4609-b998-7713b50defe1","ios":"levelo://app?vid=d1fda486-70ba-4609-b998-7713b50defe1"},"vehicle_type_id":"4","last_reported":1776880276,"current_range_meters":7200,"station_id":"","pricing_plan_id":"cebpf4jnsgd1na2vs0mg"},{"bike_id":"a94d236d-eba8-4733-81ef-6d7a05120d94","system_id":"levelo_inurba_marseille","lat":43.24866,"lon":5.39401,"is_reserved":false,"is_disabled":false,"rental_uris":{"android":"levelo://app?vid=a94d236d-eba8-4733-81ef-6d7a05120d94","ios":"levelo://app?vid=a94d236d-eba8-4733-81ef-6d7a05120d94"},"vehicle_type_id":"4","last_reported":1776880276,"current_range_meters":7200,"station_id":"","pricing_plan_id":"cebpf4jnsgd1na2vs0mg"},{"bike_id":"6a5bbe70-48a0-4392-9136-9a0675f9bf10","system_id":"levelo_inurba_marseille","lat":43.26579,"lon":5.40308,"is_reserved":false,"is_disabled":true,"rental_uris":{"android":"levelo://app?vid=6a5bbe70-48a0-4392-9136-9a0675f9bf10","ios":"levelo://app?vid=6a5bbe70-48a0-4392-9136-9a0675f9bf10"},"vehicle_type_id":"4","last_reported":1776880276,"current_range_meters":7200,"station_id":"ce4bhmp2rcd13ifvqgng","pricing_plan_id":"cebpf4jnsgd1na2vs0mg"},{"bike_id":"97640678-22eb-456e-8a6b-8940edbd10ca","system_id":"levelo_inurba_marseille","lat":43.23912,"lon":5.41496,"is_reserved":false,"is_disabled":false,"rental_uris":{"android":"levelo://app?vid=97640678-22eb-456e-8a6b-8940edbd10ca","ios":"levelo://app?vid=97640678-22eb-456e-8a6b-8940edbd10ca"},"vehicle_type_id":"4","last_reported":1776880276,"current_range_meters":7200,"station_id":"","pricing_plan_id":"cebpf4jnsgd1na2vs0mg"},{"bike_id":"ff806043-15aa-4aa1-81f7-a3da5de61e45","system_id":"levelo_inurba_marseille","lat":43.28661,"lon":5.36346,"is_reserved":false,"is_disabled":false,"rental_uris":{"android":"levelo://app?vid=ff806043-15aa-4aa1-81f7-a3da5de61e45","ios":"levelo://app?vid=ff806043-15aa-4aa1-81f7-a3da5de61e45"},"vehicle_type_id":"4","last_reported":1776880276,"current_range_meters":7200,"station_id":"ce4bhah2rcd13ifvqej0","pricing_plan_id":"cebpf4jnsgd1na2vs0mg"},{"bike_id":"559fd732-9725-4099-a114-0d9b662419e1","system_id":"levelo_inurba_marseille","lat":43.29258,"lon":5.37617,"is_reserved":false,"is_disabled":false,"rental_uris":{"android":"levelo://app?vid=559fd732-9725-4099-a114-0d9b662419e1","ios":"levelo://app?vid=559fd732-9725-4099-a114-0d9b662419e1"},"vehicle_type_id":"4","last_reported":1776880276,"current_range_meters":7200,"station_id":"ce4bgi12rcd13ifvqb80","pricing_plan_id":"cebpf4jnsgd1na2vs0mg"},{"bike_id":"6b23908a-27fc-400a-b1b6-9daa8d6ab014","system_id":"levelo_inurba_marseille","lat":43.33707,"lon":5.39819,"is_reserved":false,"is_disabled":false,"rental_uris":{"android":"levelo://app?vid=6b23908a-27fc-400a-b1b6-9daa8d6ab014","ios":"levelo://app?vid=6b23908a-27fc-400a-b1b6-9daa8d6ab014"},"vehicle_type_id":"4","last_reported":1776880276,"current_range_meters":7200,"station_id":"","pricing_plan_id":"cebpf4jnsgd1na2vs0mg"},{"bike_id":"1b58b65a-a621-4085-b0d2-7af0e2080dd8","system_id":"levelo_inurba_marseille","lat":43.29163,"lon":5.37135,"is_reserved":false,"is_disabled":false,"rental_uris":{"android":"levelo://app?vid=1b58b65a-a621-4085-b0d2-7af0e2080dd8","ios":"levelo://app?vid=1b58b65a-a621-4085-b0d2-7af0e2080dd8"},"vehicle_type_id":"4","last_reported":1776880276,"current_range_meters":7200,"station_id":"ce4bha92rcd13ifvqeh0","pricing_plan_id":"cebpf4jnsgd1na2vs0mg"},{"bike_id":"38dd2460-cbcd-49d7-956b-3dd2158e97b1","system_id":"levelo_inurba_marseille","lat":43.25112,"lon":5.40314,"is_reserved":false,"is_disabled":false,"rental_uris":{"android":"levelo://app?vid=38dd2460-cbcd-49d7-956b-3dd2158e97b1","ios":"levelo://app?vid=38dd2460-cbcd-49d7-956b-3dd2158e97b1"},"vehicle_type_id":"4","last_reported":1776880276,"current_range_meters":7200,"station_id":"ce4bhlh2rcd13ifvqgig","pricing_plan_id":"cebpf4jnsgd1na2vs0mg"},{"bike_id":"baac328f-ec0f-4836-a550-4170d6d87fe5","system_id":"levelo_inurba_marseille","lat":43.26563,"lon":5.39069,"is_reserved":false,"is_disabled":false,"rental_uris":{"android":"levelo://app?vid=baac328f-ec0f-4836-a550-4170d6d87fe5","ios":"levelo://app?vid=baac328f-ec0f-4836-a550-4170d6d87fe5"},"vehicle_type_id":"4","last_reported":1776880276,"current_range_meters":7200,"station_id":"","pricing_plan_id":"cebpf4jnsgd1na2vs0mg"},{"bike_id":"059b4ad8-665d-46df-9a3f-e9b9a20a1c99","system_id":"levelo_inurba_marseille","lat":43.3354,"lon":5.37459,"is_reserved":false,"is_disabled":false,"rental_uris":{"android":"levelo://app?vid=059b4ad8-665d-46df-9a3f-e9b9a20a1c99","ios":"levelo://app?vid=059b4ad8-665d-46df-9a3f-e9b9a20a1c99"},"vehicle_type_id":"4","last_reported":1776880276,"current_range_meters":7200,"station_id":"st_d46tts09ee8s73dlu43g","pricing_plan_id":"cebpf4jnsgd1na2vs0mg"},{"bike_id":"4d95a827-43a6-4ec2-b4ef-219c6584763e","system_id":"levelo_inurba_marseille","lat":43.30254,"lon":5.40055,"is_reserved":false,"is_disabled":false,"rental_uris":{"android":"levelo://app?vid=4d95a827-43a6-4ec2-b4ef-219c6584763e","ios":"levelo://app?vid=4d95a827-43a6-4ec2-b4ef-219c6584763e"},"vehicle_type_id":"4","last_reported":1776880276,"current_range_meters":8000,"station_id":"ce4bgvh2rcd13ifvqcs0","pricing_plan_id":"cebpf4jnsgd1na2vs0mg"},{"bike_id":"b016e4f4-67f6-47d2-bc09-3d26ecef8693","system_id":"levelo_inurba_marseille","lat":43.28864,"lon":5.39319,"is_reserved":false,"is_disabled":false,"rental_uris":{"android":"levelo://app?vid=b016e4f4-67f6-47d2-bc09-3d26ecef8693","ios":"levelo://app?vid=b016e4f4-67f6-47d2-bc09-3d26ecef8693"},"vehicle_type_id":"4","last_reported":1776880276,"current_range_meters":8000,"station_id":"ce4bh2p2rcd13ifvqdi0","pricing_plan_id":"cebpf4jnsgd1na2vs0mg"},{"bike_id":"f8d46f57-68ae-42a5-9479-ae67d8834276","system_id":"levelo_inurba_marseille","lat":43.29993,"lon":5.37078,"is_reserved":false,"is_disabled":false,"rental_uris":{"android":"levelo://app?vid=f8d46f57-68ae-42a5-9479-ae67d8834276","ios":"levelo://app?vid=f8d46f57-68ae-42a5-9479-ae67d8834276"},"vehicle_type_id":"4","last_reported":1776880276,"current_range_meters":8000,"station_id":"","pricing_plan_id":"cebpf4jnsgd1na2vs0mg"},{"bike_id":"2ac15ea7-1904-4a69-9f5e-f4cb7754354f","system_id":"levelo_inurba_marseille","lat":43.24052,"lon":5.37767,"is_reserved":false,"is_disabled":false,"rental_uris":{"android":"levelo://app?vid=2ac15ea7-1904-4a69-9f5e-f4cb7754354f","ios":"levelo://app?vid=2ac15ea7-1904-4a69-9f5e-f4cb7754354f"},"vehicle_type_id":"4","last_reported":1776880276,"current_range_meters":8000,"station_id":"ce4bhnp2rcd13ifvqgvg","pricing_plan_id":"cebpf4jnsgd1na2vs0mg"},{"bike_id":"9a26b085-4305-4c1f-8bba-b86e0de697a5","system_id":"levelo_inurba_marseille","lat":43.27425,"lon":5.39409,"is_reserved":false,"is_disabled":false,"rental_uris":{"android":"levelo://app?vid=9a26b085-4305-4c1f-8bba-b86e0de697a5","ios":"levelo://app?vid=9a26b085-4305-4c1f-8bba-b86e0de697a5"},"vehicle_type_id":"4","last_reported":1776880276,"current_range_meters":8000,"station_id":"ce4bhdp2rcd13ifvqf20","pricing_plan_id":"cebpf4jnsgd1na2vs0mg"},{"bike_id":"cfcc8dcf-6816-46a1-945d-fdf5ccf50752","system_id":"levelo_inurba_marseille","lat":43.30923,"lon":5.41185,"is_reserved":false,"is_disabled":false,"rental_uris":{"android":"levelo://app?vid=cfcc8dcf-6816-46a1-945d-fdf5ccf50752","ios":"levelo://app?vid=cfcc8dcf-6816-46a1-945d-fdf5ccf50752"},"vehicle_type_id":"4","last_reported":1776880276,"current_range_meters":8000,"station_id":"","pricing_plan_id":"cebpf4jnsgd1na2vs0mg"},{"bike_id":"0d8738c8-efd5-4f83-bedf-81eb9a1d6096","system_id":"levelo_inurba_marseille","lat":43.33166,"lon":5.36172,"is_reserved":false,"is_disabled":false,"rental_uris":{"android":"levelo://app?vid=0d8738c8-efd5-4f83-bedf-81eb9a1d6096","ios":"levelo://app?vid=0d8738c8-efd5-4f83-bedf-81eb9a1d6096"},"vehicle_type_id":"4","last_reported":1776880276,"current_range_meters":8000,"station_id":"","pricing_plan_id":"cebpf4jnsgd1na2vs0mg"},{"bike_id":"873038f8-52d6-4618-968d-d955136c8dae","system_id":"levelo_inurba_marseille","lat":43.28094,"lon":5.37839,"is_reserved":false,"is_disabled":true,"rental_uris":{"android":"levelo://app?vid=873038f8-52d6-4618-968d-d955136c8dae","ios":"levelo://app?vid=873038f8-52d6-4618-968d-d955136c8dae"},"vehicle_type_id":"4","last_reported":1776880276,"current_range_meters":8000,"station_id":"ce4bha12rcd13ifvqee0","pricing_plan_id":"cebpf4jnsgd1na2vs0mg"},{"bike_id":"df1c6c40-8062-42a8-aaa0-d4143695e71c","system_id":"levelo_inurba_marseille","lat":43.29516,"lon":5.394,"is_reserved":false,"is_disabled":false,"rental_uris":{"android":"levelo://app?vid=df1c6c40-8062-42a8-aaa0-d4143695e71c","ios":"levelo://app?vid=df1c6c40-8062-42a8-aaa0-d4143695e71c"},"vehicle_type_id":"4","last_reported":1776880276,"current_range_meters":8000,"station_id":"ce4bh292rcd13ifvqdf0","pricing_plan_id":"cebpf4jnsgd1na2vs0mg"},{"bike_id":"aa3d5a99-64bb-4996-8662-bfd3c15dc0fe","system_id":"levelo_inurba_marseille","lat":43.30129,"lon":5.39868,"is_reserved":false,"is_disabled":false,"rental_uris":{"android":"levelo://app?vid=aa3d5a99-64bb-4996-8662-bfd3c15dc0fe","ios":"levelo://app?vid=aa3d5a99-64bb-4996-8662-bfd3c15dc0fe"},"vehicle_type_id":"4","last_reported":1776880276,"current_range_meters":8000,"station_id":"ce4bh0h2rcd13ifvqd40","pricing_plan_id":"cebpf4jnsgd1na2vs0mg"},{"bike_id":"09012acd-7e2a-4e46-b00e-3df38d87fafc","system_id":"levelo_inurba_marseille","lat":43.24849,"lon":5.40645,"is_reserved":false,"is_disabled":false,"rental_uris":{"android":"levelo://app?vid=09012acd-7e2a-4e46-b00e-3df38d87fafc","ios":"levelo://app?vid=09012acd-7e2a-4e46-b00e-3df38d87fafc"},"vehicle_type_id":"4","last_reported":1776880276,"current_range_meters":8400,"station_id":"","pricing_plan_id":"cebpf4jnsgd1na2vs0mg"},{"bike_id":"d55b7166-12de-4bdf-8b05-1755f1067768","system_id":"levelo_inurba_marseille","lat":43.30129,"lon":5.39866,"is_reserved":false,"is_disabled":false,"rental_uris":{"android":"levelo://app?vid=d55b7166-12de-4bdf-8b05-1755f1067768","ios":"levelo://app?vid=d55b7166-12de-4bdf-8b05-1755f1067768"},"vehicle_type_id":"4","last_reported":1776880276,"current_range_meters":8400,"station_id":"ce4bh0h2rcd13ifvqd40","pricing_plan_id":"cebpf4jnsgd1na2vs0mg"},{"bike_id":"f2ff52a7-1503-4a80-9a0e-a217d36469bb","system_id":"levelo_inurba_marseille","lat":43.31058,"lon":5.37181,"is_reserved":false,"is_disabled":false,"rental_uris":{"android":"levelo://app?vid=f2ff52a7-1503-4a80-9a0e-a217d36469bb","ios":"levelo://app?vid=f2ff52a7-1503-4a80-9a0e-a217d36469bb"},"vehicle_type_id":"4","last_reported":1776880276,"current_range_meters":8400,"station_id":"st_d4kl2rp97mjs73e7tdfg","pricing_plan_id":"cebpf4jnsgd1na2vs0mg"},{"bike_id":"16f7fe35-694a-4eb9-9cc6-4679694d07e2","system_id":"levelo_inurba_marseille","lat":43.31248,"lon":5.37921,"is_reserved":false,"is_disabled":false,"rental_uris":{"android":"levelo://app?vid=16f7fe35-694a-4eb9-9cc6-4679694d07e2","ios":"levelo://app?vid=16f7fe35-694a-4eb9-9cc6-4679694d07e2"},"vehicle_type_id":"4","last_reported":1776880276,"current_range_meters":8400,"station_id":"","pricing_plan_id":"cebpf4jnsgd1na2vs0mg"},{"bike_id":"25c88c62-2ded-4683-8828-b80d49d5ea10","system_id":"levelo_inurba_marseille","lat":43.30095,"lon":5.36685,"is_reserved":false,"is_disabled":false,"rental_uris":{"android":"levelo://app?vid=25c88c62-2ded-4683-8828-b80d49d5ea10","ios":"levelo://app?vid=25c88c62-2ded-4683-8828-b80d49d5ea10"},"vehicle_type_id":"4","last_reported":1776880276,"current_range_meters":8400,"station_id":"","pricing_plan_id":"cebpf4jnsgd1na2vs0mg"},{"bike_id":"64731538-18f2-47d1-bb3c-2706618ffb54","system_id":"levelo_inurba_marseille","lat":43.27553,"lon":5.3844,"is_reserved":false,"is_disabled":false,"rental_uris":{"android":"levelo://app?vid=64731538-18f2-47d1-bb3c-2706618ffb54","ios":"levelo://app?vid=64731538-18f2-47d1-bb3c-2706618ffb54"},"vehicle_type_id":"4","last_reported":1776880276,"current_range_meters":8400,"station_id":"ce4bhh92rcd13ifvqfi0","pricing_plan_id":"cebpf4jnsgd1na2vs0mg"},{"bike_id":"226ece2b-87fc-494b-b9b1-29d4f3a23456","system_id":"levelo_inurba_marseille","lat":43.28338,"lon":5.42633,"is_reserved":false,"is_disabled":false,"rental_uris":{"android":"levelo://app?vid=226ece2b-87fc-494b-b9b1-29d4f3a23456","ios":"levelo://app?vid=226ece2b-87fc-494b-b9b1-29d4f3a23456"},"vehicle_type_id":"4","last_reported":1776880276,"current_range_meters":8400,"station_id":"","pricing_plan_id":"cebpf4jnsgd1na2vs0mg"},{"bike_id":"ac6be1d6-c96b-49c3-8012-27ce005f3a0b","system_id":"levelo_inurba_marseille","lat":43.29504,"lon":5.38563,"is_reserved":false,"is_disabled":false,"rental_uris":{"android":"levelo://app?vid=ac6be1d6-c96b-49c3-8012-27ce005f3a0b","ios":"levelo://app?vid=ac6be1d6-c96b-49c3-8012-27ce005f3a0b"},"vehicle_type_id":"4","last_reported":1776880276,"current_range_meters":8400,"station_id":"ce4bgih2rcd13ifvqba0","pricing_plan_id":"cebpf4jnsgd1na2vs0mg"},{"bike_id":"99c15529-a365-49db-9ee2-0b78fa24bdd8","system_id":"levelo_inurba_marseille","lat":43.26667,"lon":5.3827,"is_reserved":false,"is_disabled":false,"rental_uris":{"android":"levelo://app?vid=99c15529-a365-49db-9ee2-0b78fa24bdd8","ios":"levelo://app?vid=99c15529-a365-49db-9ee2-0b78fa24bdd8"},"vehicle_type_id":"4","last_reported":1776880276,"current_range_meters":8400,"station_id":"ce4bhg92rcd13ifvqf90","pricing_plan_id":"cebpf4jnsgd1na2vs0mg"},{"bike_id":"98f62dc9-0b50-4f3b-93e9-85e5ac18f5cc","system_id":"levelo_inurba_marseille","lat":43.28637,"lon":5.37075,"is_reserved":false,"is_disabled":false,"rental_uris":{"android":"levelo://app?vid=98f62dc9-0b50-4f3b-93e9-85e5ac18f5cc","ios":"levelo://app?vid=98f62dc9-0b50-4f3b-93e9-85e5ac18f5cc"},"vehicle_type_id":"4","last_reported":1776880276,"current_range_meters":8400,"station_id":"ce4bht12rcd13ifvqi60","pricing_plan_id":"cebpf4jnsgd1na2vs0mg"},{"bike_id":"e61bc510-c262-4934-8f35-de99fc50a31e","system_id":"levelo_inurba_marseille","lat":43.30151,"lon":5.39868,"is_reserved":false,"is_disabled":false,"rental_uris":{"android":"levelo://app?vid=e61bc510-c262-4934-8f35-de99fc50a31e","ios":"levelo://app?vid=e61bc510-c262-4934-8f35-de99fc50a31e"},"vehicle_type_id":"4","last_reported":1776880276,"current_range_meters":8400,"station_id":"ce4bh0h2rcd13ifvqd40","pricing_plan_id":"cebpf4jnsgd1na2vs0mg"},{"bike_id":"8d7ed8a0-4020-448e-bf17-fe33f1c05f98","system_id":"levelo_inurba_marseille","lat":43.28472,"lon":5.39169,"is_reserved":false,"is_disabled":false,"rental_uris":{"android":"levelo://app?vid=8d7ed8a0-4020-448e-bf17-fe33f1c05f98","ios":"levelo://app?vid=8d7ed8a0-4020-448e-bf17-fe33f1c05f98"},"vehicle_type_id":"4","last_reported":1776880276,"current_range_meters":8400,"station_id":"ce4bhoh2rcd13ifvqh5g","pricing_plan_id":"cebpf4jnsgd1na2vs0mg"},{"bike_id":"b4f74c97-3f91-4820-ad7f-9c6dd916e9f6","system_id":"levelo_inurba_marseille","lat":43.31321,"lon":5.36799,"is_reserved":false,"is_disabled":false,"rental_uris":{"android":"levelo://app?vid=b4f74c97-3f91-4820-ad7f-9c6dd916e9f6","ios":"levelo://app?vid=b4f74c97-3f91-4820-ad7f-9c6dd916e9f6"},"vehicle_type_id":"4","last_reported":1776880276,"current_range_meters":8400,"station_id":"","pricing_plan_id":"cebpf4jnsgd1na2vs0mg"},{"bike_id":"27333076-abb5-4a9b-ac59-89b1742839cf","system_id":"levelo_inurba_marseille","lat":43.28698,"lon":5.37944,"is_reserved":false,"is_disabled":true,"rental_uris":{"android":"levelo://app?vid=27333076-abb5-4a9b-ac59-89b1742839cf","ios":"levelo://app?vid=27333076-abb5-4a9b-ac59-89b1742839cf"},"vehicle_type_id":"4","last_reported":1776880276,"current_range_meters":8400,"station_id":"ce4bh9p2rcd13ifvqec0","pricing_plan_id":"cebpf4jnsgd1na2vs0mg"},{"bike_id":"6f061c2d-e294-44c5-a556-1fdc3d57ab50","system_id":"levelo_inurba_marseille","lat":43.31721,"lon":5.40436,"is_reserved":false,"is_disabled":false,"rental_uris":{"android":"levelo://app?vid=6f061c2d-e294-44c5-a556-1fdc3d57ab50","ios":"levelo://app?vid=6f061c2d-e294-44c5-a556-1fdc3d57ab50"},"vehicle_type_id":"4","last_reported":1776880276,"current_range_meters":8800,"station_id":"","pricing_plan_id":"cebpf4jnsgd1na2vs0mg"},{"bike_id":"11950379-0406-4543-8366-59097d9cc211","system_id":"levelo_inurba_marseille","lat":43.29543,"lon":5.38533,"is_reserved":false,"is_disabled":false,"rental_uris":{"android":"levelo://app?vid=11950379-0406-4543-8366-59097d9cc211","ios":"levelo://app?vid=11950379-0406-4543-8366-59097d9cc211"},"vehicle_type_id":"4","last_reported":1776880276,"current_range_meters":8800,"station_id":"ce4bgih2rcd13ifvqba0","pricing_plan_id":"cebpf4jnsgd1na2vs0mg"},{"bike_id":"f12e7adc-c081-4652-9247-8637f1a7e34a","system_id":"levelo_inurba_marseille","lat":43.26565,"lon":5.39048,"is_reserved":false,"is_disabled":false,"rental_uris":{"android":"levelo://app?vid=f12e7adc-c081-4652-9247-8637f1a7e34a","ios":"levelo://app?vid=f12e7adc-c081-4652-9247-8637f1a7e34a"},"vehicle_type_id":"4","last_reported":1776880276,"current_range_meters":8800,"station_id":"ce4bhe12rcd13ifvqf30","pricing_plan_id":"cebpf4jnsgd1na2vs0mg"},{"bike_id":"dd95c1fb-0934-4478-83c0-e83a5e6a8527","system_id":"levelo_inurba_marseille","lat":43.29916,"lon":5.38134,"is_reserved":false,"is_disabled":false,"rental_uris":{"android":"levelo://app?vid=dd95c1fb-0934-4478-83c0-e83a5e6a8527","ios":"levelo://app?vid=dd95c1fb-0934-4478-83c0-e83a5e6a8527"},"vehicle_type_id":"4","last_reported":1776880276,"current_range_meters":8800,"station_id":"","pricing_plan_id":"cebpf4jnsgd1na2vs0mg"},{"bike_id":"7c6b501e-2103-43ad-b4bd-38cedccf764e","system_id":"levelo_inurba_marseille","lat":43.26053,"lon":5.39399,"is_reserved":false,"is_disabled":false,"rental_uris":{"android":"levelo://app?vid=7c6b501e-2103-43ad-b4bd-38cedccf764e","ios":"levelo://app?vid=7c6b501e-2103-43ad-b4bd-38cedccf764e"},"vehicle_type_id":"4","last_reported":1776880276,"current_range_meters":8800,"station_id":"ce4bhh92rcd13ifvqfj0","pricing_plan_id":"cebpf4jnsgd1na2vs0mg"},{"bike_id":"cdb2a249-2ac6-4692-a618-60c0fbc8865d","system_id":"levelo_inurba_marseille","lat":43.28304,"lon":5.38107,"is_reserved":false,"is_disabled":false,"rental_uris":{"android":"levelo://app?vid=cdb2a249-2ac6-4692-a618-60c0fbc8865d","ios":"levelo://app?vid=cdb2a249-2ac6-4692-a618-60c0fbc8865d"},"vehicle_type_id":"4","last_reported":1776880276,"current_range_meters":8800,"station_id":"ce4bh412rcd13ifvqdr0","pricing_plan_id":"cebpf4jnsgd1na2vs0mg"},{"bike_id":"5bde2d71-c29b-4a3e-9fef-5624b293ed4c","system_id":"levelo_inurba_marseille","lat":43.2626,"lon":5.37431,"is_reserved":false,"is_disabled":false,"rental_uris":{"android":"levelo://app?vid=5bde2d71-c29b-4a3e-9fef-5624b293ed4c","ios":"levelo://app?vid=5bde2d71-c29b-4a3e-9fef-5624b293ed4c"},"vehicle_type_id":"4","last_reported":1776880276,"current_range_meters":8800,"station_id":"","pricing_plan_id":"cebpf4jnsgd1na2vs0mg"},{"bike_id":"5c86611f-9d28-4536-ba0c-0783347d881c","system_id":"levelo_inurba_marseille","lat":43.24803,"lon":5.3746,"is_reserved":false,"is_disabled":false,"rental_uris":{"android":"levelo://app?vid=5c86611f-9d28-4536-ba0c-0783347d881c","ios":"levelo://app?vid=5c86611f-9d28-4536-ba0c-0783347d881c"},"vehicle_type_id":"4","last_reported":1776880276,"current_range_meters":8800,"station_id":"ce4bhgh2rcd13ifvqfb0","pricing_plan_id":"cebpf4jnsgd1na2vs0mg"},{"bike_id":"fd090187-b3cd-49e0-82c6-b3817cf3be1b","system_id":"levelo_inurba_marseille","lat":43.29867,"lon":5.38555,"is_reserved":false,"is_disabled":false,"rental_uris":{"android":"levelo://app?vid=fd090187-b3cd-49e0-82c6-b3817cf3be1b","ios":"levelo://app?vid=fd090187-b3cd-49e0-82c6-b3817cf3be1b"},"vehicle_type_id":"4","last_reported":1776880276,"current_range_meters":8800,"station_id":"","pricing_plan_id":"cebpf4jnsgd1na2vs0mg"},{"bike_id":"4cd4bc1d-308f-4a56-ac8e-bdea4ad9bef4","system_id":"levelo_inurba_marseille","lat":43.29847,"lon":5.39743,"is_reserved":false,"is_disabled":true,"rental_uris":{"android":"levelo://app?vid=4cd4bc1d-308f-4a56-ac8e-bdea4ad9bef4","ios":"levelo://app?vid=4cd4bc1d-308f-4a56-ac8e-bdea4ad9bef4"},"vehicle_type_id":"4","last_reported":1776880276,"current_range_meters":8800,"station_id":"ce4bh0h2rcd13ifvqd50","pricing_plan_id":"cebpf4jnsgd1na2vs0mg"},{"bike_id":"1c21b5e4-18ba-4d77-b990-0019b8294ddb","system_id":"levelo_inurba_marseille","lat":43.26557,"lon":5.39641,"is_reserved":false,"is_disabled":false,"rental_uris":{"android":"levelo://app?vid=1c21b5e4-18ba-4d77-b990-0019b8294ddb","ios":"levelo://app?vid=1c21b5e4-18ba-4d77-b990-0019b8294ddb"},"vehicle_type_id":"4","last_reported":1776880276,"current_range_meters":8800,"station_id":"","pricing_plan_id":"cebpf4jnsgd1na2vs0mg"},{"bike_id":"a56889e7-37d7-487e-a661-9c8461fe50da","system_id":"levelo_inurba_marseille","lat":43.30923,"lon":5.36832,"is_reserved":false,"is_disabled":false,"rental_uris":{"android":"levelo://app?vid=a56889e7-37d7-487e-a661-9c8461fe50da","ios":"levelo://app?vid=a56889e7-37d7-487e-a661-9c8461fe50da"},"vehicle_type_id":"4","last_reported":1776880276,"current_range_meters":8800,"station_id":"ce4bgn92rcd13ifvqbvg","pricing_plan_id":"cebpf4jnsgd1na2vs0mg"},{"bike_id":"19145919-a225-4afd-a698-ef808e1ee6ee","system_id":"levelo_inurba_marseille","lat":43.2976,"lon":5.381,"is_reserved":false,"is_disabled":false,"rental_uris":{"android":"levelo://app?vid=19145919-a225-4afd-a698-ef808e1ee6ee","ios":"levelo://app?vid=19145919-a225-4afd-a698-ef808e1ee6ee"},"vehicle_type_id":"4","last_reported":1776880276,"current_range_meters":8800,"station_id":"ce4bgip2rcd13ifvqbb0","pricing_plan_id":"cebpf4jnsgd1na2vs0mg"},{"bike_id":"7c2d4cbd-4710-4158-8d5e-3ef9174bf26f","system_id":"levelo_inurba_marseille","lat":43.28137,"lon":5.42283,"is_reserved":false,"is_disabled":true,"rental_uris":{"android":"levelo://app?vid=7c2d4cbd-4710-4158-8d5e-3ef9174bf26f","ios":"levelo://app?vid=7c2d4cbd-4710-4158-8d5e-3ef9174bf26f"},"vehicle_type_id":"4","last_reported":1776880276,"current_range_meters":8800,"station_id":"","pricing_plan_id":"cebpf4jnsgd1na2vs0mg"},{"bike_id":"772652df-39a3-4a7d-ab76-86683fdc6511","system_id":"levelo_inurba_marseille","lat":43.289,"lon":5.36877,"is_reserved":false,"is_disabled":false,"rental_uris":{"android":"levelo://app?vid=772652df-39a3-4a7d-ab76-86683fdc6511","ios":"levelo://app?vid=772652df-39a3-4a7d-ab76-86683fdc6511"},"vehicle_type_id":"4","last_reported":1776880276,"current_range_meters":8800,"station_id":"","pricing_plan_id":"cebpf4jnsgd1na2vs0mg"},{"bike_id":"38faf73f-c72d-4bb9-9220-f1d22f4c16ad","system_id":"levelo_inurba_marseille","lat":43.25222,"lon":5.37465,"is_reserved":false,"is_disabled":false,"rental_uris":{"android":"levelo://app?vid=38faf73f-c72d-4bb9-9220-f1d22f4c16ad","ios":"levelo://app?vid=38faf73f-c72d-4bb9-9220-f1d22f4c16ad"},"vehicle_type_id":"4","last_reported":1776880276,"current_range_meters":8800,"station_id":"","pricing_plan_id":"cebpf4jnsgd1na2vs0mg"},{"bike_id":"beaa0c16-0dbe-4849-9dfb-4a803e2e0a6d","system_id":"levelo_inurba_marseille","lat":43.30427,"lon":5.388958,"is_reserved":false,"is_disabled":false,"rental_uris":{"android":"levelo://app?vid=beaa0c16-0dbe-4849-9dfb-4a803e2e0a6d","ios":"levelo://app?vid=beaa0c16-0dbe-4849-9dfb-4a803e2e0a6d"},"vehicle_type_id":"4","last_reported":1776880276,"current_range_meters":8800,"station_id":"ce4bgk12rcd13ifvqbi0","pricing_plan_id":"cebpf4jnsgd1na2vs0mg"},{"bike_id":"0923929c-d272-4fa1-a3d9-8f4c7a6f830d","system_id":"levelo_inurba_marseille","lat":43.30844,"lon":5.38227,"is_reserved":false,"is_disabled":false,"rental_uris":{"android":"levelo://app?vid=0923929c-d272-4fa1-a3d9-8f4c7a6f830d","ios":"levelo://app?vid=0923929c-d272-4fa1-a3d9-8f4c7a6f830d"},"vehicle_type_id":"4","last_reported":1776880276,"current_range_meters":9200,"station_id":"","pricing_plan_id":"cebpf4jnsgd1na2vs0mg"},{"bike_id":"205eefac-f379-49f9-b02e-ad048a493b05","system_id":"levelo_inurba_marseille","lat":43.27123,"lon":5.42552,"is_reserved":false,"is_disabled":false,"rental_uris":{"android":"levelo://app?vid=205eefac-f379-49f9-b02e-ad048a493b05","ios":"levelo://app?vid=205eefac-f379-49f9-b02e-ad048a493b05"},"vehicle_type_id":"4","last_reported":1776880276,"current_range_meters":9200,"station_id":"","pricing_plan_id":"cebpf4jnsgd1na2vs0mg"},{"bike_id":"500638d0-cf5c-4061-b413-99b5dc6f2377","system_id":"levelo_inurba_marseille","lat":43.27466,"lon":5.42463,"is_reserved":false,"is_disabled":false,"rental_uris":{"android":"levelo://app?vid=500638d0-cf5c-4061-b413-99b5dc6f2377","ios":"levelo://app?vid=500638d0-cf5c-4061-b413-99b5dc6f2377"},"vehicle_type_id":"4","last_reported":1776880276,"current_range_meters":9200,"station_id":"ce4bhn92rcd13ifvqgrg","pricing_plan_id":"cebpf4jnsgd1na2vs0mg"},{"bike_id":"f22fab7c-d9ef-452e-9e0a-f53fca1bb2ad","system_id":"levelo_inurba_marseille","lat":43.29534,"lon":5.39015,"is_reserved":false,"is_disabled":false,"rental_uris":{"android":"levelo://app?vid=f22fab7c-d9ef-452e-9e0a-f53fca1bb2ad","ios":"levelo://app?vid=f22fab7c-d9ef-452e-9e0a-f53fca1bb2ad"},"vehicle_type_id":"4","last_reported":1776880276,"current_range_meters":9200,"station_id":"ce4bh3p2rcd13ifvqdp0","pricing_plan_id":"cebpf4jnsgd1na2vs0mg"},{"bike_id":"34843b43-f3a6-4c9c-894b-976b194522af","system_id":"levelo_inurba_marseille","lat":43.25508,"lon":5.37651,"is_reserved":false,"is_disabled":false,"rental_uris":{"android":"levelo://app?vid=34843b43-f3a6-4c9c-894b-976b194522af","ios":"levelo://app?vid=34843b43-f3a6-4c9c-894b-976b194522af"},"vehicle_type_id":"4","last_reported":1776880276,"current_range_meters":9200,"station_id":"ce4bhh12rcd13ifvqff0","pricing_plan_id":"cebpf4jnsgd1na2vs0mg"},{"bike_id":"25931435-472d-4946-9b9a-fc67e50f018d","system_id":"levelo_inurba_marseille","lat":43.23027,"lon":5.44479,"is_reserved":false,"is_disabled":false,"rental_uris":{"android":"levelo://app?vid=25931435-472d-4946-9b9a-fc67e50f018d","ios":"levelo://app?vid=25931435-472d-4946-9b9a-fc67e50f018d"},"vehicle_type_id":"4","last_reported":1776880276,"current_range_meters":9200,"station_id":"","pricing_plan_id":"cebpf4jnsgd1na2vs0mg"},{"bike_id":"c6317af4-c756-4e8c-b274-3f21b7ab30a9","system_id":"levelo_inurba_marseille","lat":43.29789,"lon":5.38142,"is_reserved":false,"is_disabled":false,"rental_uris":{"android":"levelo://app?vid=c6317af4-c756-4e8c-b274-3f21b7ab30a9","ios":"levelo://app?vid=c6317af4-c756-4e8c-b274-3f21b7ab30a9"},"vehicle_type_id":"4","last_reported":1776880276,"current_range_meters":9200,"station_id":"ce4bgip2rcd13ifvqbb0","pricing_plan_id":"cebpf4jnsgd1na2vs0mg"},{"bike_id":"98dbe9d4-0827-4d4d-af0a-2959d8569d36","system_id":"levelo_inurba_marseille","lat":43.30419,"lon":5.41279,"is_reserved":false,"is_disabled":false,"rental_uris":{"android":"levelo://app?vid=98dbe9d4-0827-4d4d-af0a-2959d8569d36","ios":"levelo://app?vid=98dbe9d4-0827-4d4d-af0a-2959d8569d36"},"vehicle_type_id":"4","last_reported":1776880276,"current_range_meters":9200,"station_id":"ce4bhop2rcd13ifvqh8g","pricing_plan_id":"cebpf4jnsgd1na2vs0mg"},{"bike_id":"43551c7e-2e91-49bb-b9fd-9391ff299d13","system_id":"levelo_inurba_marseille","lat":43.23959,"lon":5.3664,"is_reserved":false,"is_disabled":false,"rental_uris":{"android":"levelo://app?vid=43551c7e-2e91-49bb-b9fd-9391ff299d13","ios":"levelo://app?vid=43551c7e-2e91-49bb-b9fd-9391ff299d13"},"vehicle_type_id":"4","last_reported":1776880276,"current_range_meters":9200,"station_id":"ce4bhi12rcd13ifvqfp0","pricing_plan_id":"cebpf4jnsgd1na2vs0mg"},{"bike_id":"98095ffa-7360-4410-8900-a94ae892ca29","system_id":"levelo_inurba_marseille","lat":43.30139,"lon":5.38089,"is_reserved":false,"is_disabled":false,"rental_uris":{"android":"levelo://app?vid=98095ffa-7360-4410-8900-a94ae892ca29","ios":"levelo://app?vid=98095ffa-7360-4410-8900-a94ae892ca29"},"vehicle_type_id":"4","last_reported":1776880276,"current_range_meters":9200,"station_id":"ce4bgjp2rcd13ifvqbh0","pricing_plan_id":"cebpf4jnsgd1na2vs0mg"},{"bike_id":"d905eac9-352b-419f-bed9-ece04cace39b","system_id":"levelo_inurba_marseille","lat":43.279423,"lon":5.410409,"is_reserved":false,"is_disabled":false,"rental_uris":{"android":"levelo://app?vid=d905eac9-352b-419f-bed9-ece04cace39b","ios":"levelo://app?vid=d905eac9-352b-419f-bed9-ece04cace39b"},"vehicle_type_id":"4","last_reported":1776880276,"current_range_meters":9200,"station_id":"ce4bhnp2rcd13ifvqh0g","pricing_plan_id":"cebpf4jnsgd1na2vs0mg"},{"bike_id":"70b9185d-ed24-4c23-b56f-d24b79b55ab8","system_id":"levelo_inurba_marseille","lat":43.29005,"lon":5.35606,"is_reserved":false,"is_disabled":false,"rental_uris":{"android":"levelo://app?vid=70b9185d-ed24-4c23-b56f-d24b79b55ab8","ios":"levelo://app?vid=70b9185d-ed24-4c23-b56f-d24b79b55ab8"},"vehicle_type_id":"4","last_reported":1776880276,"current_range_meters":9600,"station_id":"ce4bhb92rcd13ifvqen0","pricing_plan_id":"cebpf4jnsgd1na2vs0mg"},{"bike_id":"46be8457-d960-48a6-ad5b-f789ef8076c1","system_id":"levelo_inurba_marseille","lat":43.29665,"lon":5.3786,"is_reserved":false,"is_disabled":false,"rental_uris":{"android":"levelo://app?vid=46be8457-d960-48a6-ad5b-f789ef8076c1","ios":"levelo://app?vid=46be8457-d960-48a6-ad5b-f789ef8076c1"},"vehicle_type_id":"4","last_reported":1776880276,"current_range_meters":9600,"station_id":"","pricing_plan_id":"cebpf4jnsgd1na2vs0mg"},{"bike_id":"97563811-de7e-4fb9-bbc8-59c1cb66a0eb","system_id":"levelo_inurba_marseille","lat":43.243839,"lon":5.370514,"is_reserved":false,"is_disabled":false,"rental_uris":{"android":"levelo://app?vid=97563811-de7e-4fb9-bbc8-59c1cb66a0eb","ios":"levelo://app?vid=97563811-de7e-4fb9-bbc8-59c1cb66a0eb"},"vehicle_type_id":"4","last_reported":1776880276,"current_range_meters":9600,"station_id":"ce4bhhh2rcd13ifvqfk0","pricing_plan_id":"cebpf4jnsgd1na2vs0mg"},{"bike_id":"f9b872b6-b7b5-40cf-a308-9173e597bca2","system_id":"levelo_inurba_marseille","lat":43.29798,"lon":5.38101,"is_reserved":false,"is_disabled":false,"rental_uris":{"android":"levelo://app?vid=f9b872b6-b7b5-40cf-a308-9173e597bca2","ios":"levelo://app?vid=f9b872b6-b7b5-40cf-a308-9173e597bca2"},"vehicle_type_id":"4","last_reported":1776880276,"current_range_meters":9600,"station_id":"ce4bgip2rcd13ifvqbb0","pricing_plan_id":"cebpf4jnsgd1na2vs0mg"},{"bike_id":"8c7e6e89-906f-4c99-b7dc-6a45a98182eb","system_id":"levelo_inurba_marseille","lat":43.29513,"lon":5.39034,"is_reserved":false,"is_disabled":false,"rental_uris":{"android":"levelo://app?vid=8c7e6e89-906f-4c99-b7dc-6a45a98182eb","ios":"levelo://app?vid=8c7e6e89-906f-4c99-b7dc-6a45a98182eb"},"vehicle_type_id":"4","last_reported":1776880276,"current_range_meters":9600,"station_id":"ce4bh3p2rcd13ifvqdp0","pricing_plan_id":"cebpf4jnsgd1na2vs0mg"},{"bike_id":"4f11c832-d054-4a97-a1d9-f43276dfa6c6","system_id":"levelo_inurba_marseille","lat":43.29037,"lon":5.38633,"is_reserved":false,"is_disabled":false,"rental_uris":{"android":"levelo://app?vid=4f11c832-d054-4a97-a1d9-f43276dfa6c6","ios":"levelo://app?vid=4f11c832-d054-4a97-a1d9-f43276dfa6c6"},"vehicle_type_id":"4","last_reported":1776880276,"current_range_meters":9600,"station_id":"ce4bh4p2rcd13ifvqe0g","pricing_plan_id":"cebpf4jnsgd1na2vs0mg"},{"bike_id":"8331af0f-100e-470f-9e36-7657fa113fe2","system_id":"levelo_inurba_marseille","lat":43.31243,"lon":5.36923,"is_reserved":false,"is_disabled":false,"rental_uris":{"android":"levelo://app?vid=8331af0f-100e-470f-9e36-7657fa113fe2","ios":"levelo://app?vid=8331af0f-100e-470f-9e36-7657fa113fe2"},"vehicle_type_id":"4","last_reported":1776880276,"current_range_meters":9600,"station_id":"","pricing_plan_id":"cebpf4jnsgd1na2vs0mg"},{"bike_id":"61e6584a-fc7a-4c37-8408-61ffd8045f95","system_id":"levelo_inurba_marseille","lat":43.29617,"lon":5.37167,"is_reserved":false,"is_disabled":false,"rental_uris":{"android":"levelo://app?vid=61e6584a-fc7a-4c37-8408-61ffd8045f95","ios":"levelo://app?vid=61e6584a-fc7a-4c37-8408-61ffd8045f95"},"vehicle_type_id":"4","last_reported":1776880276,"current_range_meters":9600,"station_id":"ce4bgnh2rcd13ifvqc0g","pricing_plan_id":"cebpf4jnsgd1na2vs0mg"},{"bike_id":"b07fa3a9-9e3c-4853-82cd-b76738028930","system_id":"levelo_inurba_marseille","lat":43.2867,"lon":5.38661,"is_reserved":false,"is_disabled":false,"rental_uris":{"android":"levelo://app?vid=b07fa3a9-9e3c-4853-82cd-b76738028930","ios":"levelo://app?vid=b07fa3a9-9e3c-4853-82cd-b76738028930"},"vehicle_type_id":"4","last_reported":1776880276,"current_range_meters":9600,"station_id":"ce4bh492rcd13ifvqdug","pricing_plan_id":"cebpf4jnsgd1na2vs0mg"},{"bike_id":"52d848d3-e124-40a2-855d-fb7f07415aa4","system_id":"levelo_inurba_marseille","lat":43.28412,"lon":5.37551,"is_reserved":false,"is_disabled":true,"rental_uris":{"android":"levelo://app?vid=52d848d3-e124-40a2-855d-fb7f07415aa4","ios":"levelo://app?vid=52d848d3-e124-40a2-855d-fb7f07415aa4"},"vehicle_type_id":"4","last_reported":1776880276,"current_range_meters":9600,"station_id":"ce4bh412rcd13ifvqds0","pricing_plan_id":"cebpf4jnsgd1na2vs0mg"},{"bike_id":"8ae06a72-f264-4d8a-ab98-d8ac7e9f0dfd","system_id":"levelo_inurba_marseille","lat":43.30556,"lon":5.36554,"is_reserved":false,"is_disabled":false,"rental_uris":{"android":"levelo://app?vid=8ae06a72-f264-4d8a-ab98-d8ac7e9f0dfd","ios":"levelo://app?vid=8ae06a72-f264-4d8a-ab98-d8ac7e9f0dfd"},"vehicle_type_id":"4","last_reported":1776880276,"current_range_meters":9600,"station_id":"ce4bgs12rcd13ifvqcag","pricing_plan_id":"cebpf4jnsgd1na2vs0mg"},{"bike_id":"ac380705-0e64-4f28-a66e-7cc755be071a","system_id":"levelo_inurba_marseille","lat":43.26017,"lon":5.37558,"is_reserved":false,"is_disabled":false,"rental_uris":{"android":"levelo://app?vid=ac380705-0e64-4f28-a66e-7cc755be071a","ios":"levelo://app?vid=ac380705-0e64-4f28-a66e-7cc755be071a"},"vehicle_type_id":"4","last_reported":1776880276,"current_range_meters":9600,"station_id":"ce4bhgh2rcd13ifvqfa0","pricing_plan_id":"cebpf4jnsgd1na2vs0mg"},{"bike_id":"4e94ec3e-a8df-48e0-9e02-794290ec65a3","system_id":"levelo_inurba_marseille","lat":43.28031,"lon":5.36942,"is_reserved":false,"is_disabled":false,"rental_uris":{"android":"levelo://app?vid=4e94ec3e-a8df-48e0-9e02-794290ec65a3","ios":"levelo://app?vid=4e94ec3e-a8df-48e0-9e02-794290ec65a3"},"vehicle_type_id":"4","last_reported":1776880276,"current_range_meters":9600,"station_id":"ce4bha12rcd13ifvqef0","pricing_plan_id":"cebpf4jnsgd1na2vs0mg"},{"bike_id":"9c3677d0-627f-49f8-bd9c-64ba96ef4fce","system_id":"levelo_inurba_marseille","lat":43.28468,"lon":5.48406,"is_reserved":false,"is_disabled":false,"rental_uris":{"android":"levelo://app?vid=9c3677d0-627f-49f8-bd9c-64ba96ef4fce","ios":"levelo://app?vid=9c3677d0-627f-49f8-bd9c-64ba96ef4fce"},"vehicle_type_id":"4","last_reported":1776880276,"current_range_meters":9600,"station_id":"","pricing_plan_id":"cebpf4jnsgd1na2vs0mg"},{"bike_id":"0e0aa78e-a242-4e30-aedb-058f48b94d46","system_id":"levelo_inurba_marseille","lat":43.26808,"lon":5.40263,"is_reserved":false,"is_disabled":false,"rental_uris":{"android":"levelo://app?vid=0e0aa78e-a242-4e30-aedb-058f48b94d46","ios":"levelo://app?vid=0e0aa78e-a242-4e30-aedb-058f48b94d46"},"vehicle_type_id":"4","last_reported":1776880276,"current_range_meters":9600,"station_id":"ce501612rcd8frsf0b60","pricing_plan_id":"cebpf4jnsgd1na2vs0mg"},{"bike_id":"f299353d-df83-4e91-8d36-a584d2fdf3a8","system_id":"levelo_inurba_marseille","lat":43.30432,"lon":5.38884,"is_reserved":false,"is_disabled":false,"rental_uris":{"android":"levelo://app?vid=f299353d-df83-4e91-8d36-a584d2fdf3a8","ios":"levelo://app?vid=f299353d-df83-4e91-8d36-a584d2fdf3a8"},"vehicle_type_id":"4","last_reported":1776880276,"current_range_meters":9600,"station_id":"ce4bgk12rcd13ifvqbi0","pricing_plan_id":"cebpf4jnsgd1na2vs0mg"},{"bike_id":"41333148-3a9c-4c0b-94ef-3a8adc4eea22","system_id":"levelo_inurba_marseille","lat":43.29279,"lon":5.38431,"is_reserved":false,"is_disabled":false,"rental_uris":{"android":"levelo://app?vid=41333148-3a9c-4c0b-94ef-3a8adc4eea22","ios":"levelo://app?vid=41333148-3a9c-4c0b-94ef-3a8adc4eea22"},"vehicle_type_id":"4","last_reported":1776880276,"current_range_meters":9600,"station_id":"ce4bh692rcd13ifvqea0","pricing_plan_id":"cebpf4jnsgd1na2vs0mg"},{"bike_id":"98bfa4cf-f11d-4864-a58f-9636329621bb","system_id":"levelo_inurba_marseille","lat":43.29161,"lon":5.37134,"is_reserved":false,"is_disabled":false,"rental_uris":{"android":"levelo://app?vid=98bfa4cf-f11d-4864-a58f-9636329621bb","ios":"levelo://app?vid=98bfa4cf-f11d-4864-a58f-9636329621bb"},"vehicle_type_id":"4","last_reported":1776880276,"current_range_meters":9600,"station_id":"ce4bha92rcd13ifvqeh0","pricing_plan_id":"cebpf4jnsgd1na2vs0mg"},{"bike_id":"acb21e01-eb23-4757-a0b0-d28719e33c48","system_id":"levelo_inurba_marseille","lat":43.28975,"lon":5.39851,"is_reserved":false,"is_disabled":false,"rental_uris":{"android":"levelo://app?vid=acb21e01-eb23-4757-a0b0-d28719e33c48","ios":"levelo://app?vid=acb21e01-eb23-4757-a0b0-d28719e33c48"},"vehicle_type_id":"4","last_reported":1776880276,"current_range_meters":9600,"station_id":"","pricing_plan_id":"cebpf4jnsgd1na2vs0mg"},{"bike_id":"46335186-6bd7-4461-9e78-da17046593c8","system_id":"levelo_inurba_marseille","lat":43.2844,"lon":5.38496,"is_reserved":false,"is_disabled":false,"rental_uris":{"android":"levelo://app?vid=46335186-6bd7-4461-9e78-da17046593c8","ios":"levelo://app?vid=46335186-6bd7-4461-9e78-da17046593c8"},"vehicle_type_id":"4","last_reported":1776880276,"current_range_meters":9600,"station_id":"","pricing_plan_id":"cebpf4jnsgd1na2vs0mg"},{"bike_id":"1f812c79-a1cc-4770-94e4-c447fae650ce","system_id":"levelo_inurba_marseille","lat":43.28591,"lon":5.38965,"is_reserved":false,"is_disabled":false,"rental_uris":{"android":"levelo://app?vid=1f812c79-a1cc-4770-94e4-c447fae650ce","ios":"levelo://app?vid=1f812c79-a1cc-4770-94e4-c447fae650ce"},"vehicle_type_id":"4","last_reported":1776880276,"current_range_meters":10000,"station_id":"","pricing_plan_id":"cebpf4jnsgd1na2vs0mg"},{"bike_id":"150500be-d943-43ad-81eb-48f6433e564c","system_id":"levelo_inurba_marseille","lat":43.29507,"lon":5.38587,"is_reserved":false,"is_disabled":false,"rental_uris":{"android":"levelo://app?vid=150500be-d943-43ad-81eb-48f6433e564c","ios":"levelo://app?vid=150500be-d943-43ad-81eb-48f6433e564c"},"vehicle_type_id":"4","last_reported":1776880276,"current_range_meters":10000,"station_id":"ce4bgih2rcd13ifvqba0","pricing_plan_id":"cebpf4jnsgd1na2vs0mg"},{"bike_id":"aac8d525-8c84-436f-a81d-44f9bdecbbfc","system_id":"levelo_inurba_marseille","lat":43.25085,"lon":5.39522,"is_reserved":false,"is_disabled":false,"rental_uris":{"android":"levelo://app?vid=aac8d525-8c84-436f-a81d-44f9bdecbbfc","ios":"levelo://app?vid=aac8d525-8c84-436f-a81d-44f9bdecbbfc"},"vehicle_type_id":"4","last_reported":1776880276,"current_range_meters":10000,"station_id":"ce4bhm12rcd13ifvqgkg","pricing_plan_id":"cebpf4jnsgd1na2vs0mg"},{"bike_id":"2762151c-37b3-45f3-b7d7-d3dc9aa45e78","system_id":"levelo_inurba_marseille","lat":43.30184,"lon":5.36632,"is_reserved":false,"is_disabled":false,"rental_uris":{"android":"levelo://app?vid=2762151c-37b3-45f3-b7d7-d3dc9aa45e78","ios":"levelo://app?vid=2762151c-37b3-45f3-b7d7-d3dc9aa45e78"},"vehicle_type_id":"4","last_reported":1776880276,"current_range_meters":10000,"station_id":"ce4bgrh2rcd13ifvqc8g","pricing_plan_id":"cebpf4jnsgd1na2vs0mg"},{"bike_id":"5f4c9ff4-ad39-4233-8a18-52e8b6a010bf","system_id":"levelo_inurba_marseille","lat":43.26491,"lon":5.39541,"is_reserved":false,"is_disabled":false,"rental_uris":{"android":"levelo://app?vid=5f4c9ff4-ad39-4233-8a18-52e8b6a010bf","ios":"levelo://app?vid=5f4c9ff4-ad39-4233-8a18-52e8b6a010bf"},"vehicle_type_id":"4","last_reported":1776880276,"current_range_meters":10000,"station_id":"ce4bhi12rcd13ifvqfq0","pricing_plan_id":"cebpf4jnsgd1na2vs0mg"},{"bike_id":"03002e38-6cc6-4266-bca3-d1a185f45181","system_id":"levelo_inurba_marseille","lat":43.29035,"lon":5.37178,"is_reserved":false,"is_disabled":false,"rental_uris":{"android":"levelo://app?vid=03002e38-6cc6-4266-bca3-d1a185f45181","ios":"levelo://app?vid=03002e38-6cc6-4266-bca3-d1a185f45181"},"vehicle_type_id":"4","last_reported":1776880276,"current_range_meters":10000,"station_id":"ce4bh5p2rcd13ifvqe4g","pricing_plan_id":"cebpf4jnsgd1na2vs0mg"},{"bike_id":"9e49397d-b15f-42ca-b438-81f289c696f0","system_id":"levelo_inurba_marseille","lat":43.23152,"lon":5.4371,"is_reserved":false,"is_disabled":true,"rental_uris":{"android":"levelo://app?vid=9e49397d-b15f-42ca-b438-81f289c696f0","ios":"levelo://app?vid=9e49397d-b15f-42ca-b438-81f289c696f0"},"vehicle_type_id":"4","last_reported":1776880276,"current_range_meters":10000,"station_id":"ce4bhmp2rcd13ifvqgog","pricing_plan_id":"cebpf4jnsgd1na2vs0mg"},{"bike_id":"c7041db6-efe9-470b-b3aa-61638cf7bac3","system_id":"levelo_inurba_marseille","lat":43.33544,"lon":5.37472,"is_reserved":false,"is_disabled":false,"rental_uris":{"android":"levelo://app?vid=c7041db6-efe9-470b-b3aa-61638cf7bac3","ios":"levelo://app?vid=c7041db6-efe9-470b-b3aa-61638cf7bac3"},"vehicle_type_id":"4","last_reported":1776880276,"current_range_meters":10000,"station_id":"st_d46tts09ee8s73dlu43g","pricing_plan_id":"cebpf4jnsgd1na2vs0mg"},{"bike_id":"68e86292-e11d-49d5-888c-58848729cc3c","system_id":"levelo_inurba_marseille","lat":43.28316,"lon":5.38727,"is_reserved":false,"is_disabled":false,"rental_uris":{"android":"levelo://app?vid=68e86292-e11d-49d5-888c-58848729cc3c","ios":"levelo://app?vid=68e86292-e11d-49d5-888c-58848729cc3c"},"vehicle_type_id":"4","last_reported":1776880276,"current_range_meters":10000,"station_id":"","pricing_plan_id":"cebpf4jnsgd1na2vs0mg"},{"bike_id":"f5c3a6a6-3609-40ad-9c49-87232dad5958","system_id":"levelo_inurba_marseille","lat":43.30588,"lon":5.3934,"is_reserved":false,"is_disabled":true,"rental_uris":{"android":"levelo://app?vid=f5c3a6a6-3609-40ad-9c49-87232dad5958","ios":"levelo://app?vid=f5c3a6a6-3609-40ad-9c49-87232dad5958"},"vehicle_type_id":"4","last_reported":1776880276,"current_range_meters":10000,"station_id":"ce4bh0p2rcd13ifvqd80","pricing_plan_id":"cebpf4jnsgd1na2vs0mg"},{"bike_id":"96109e32-c7d7-4b28-9d06-1b3b128c19ea","system_id":"levelo_inurba_marseille","lat":43.28853,"lon":5.39311,"is_reserved":false,"is_disabled":false,"rental_uris":{"android":"levelo://app?vid=96109e32-c7d7-4b28-9d06-1b3b128c19ea","ios":"levelo://app?vid=96109e32-c7d7-4b28-9d06-1b3b128c19ea"},"vehicle_type_id":"4","last_reported":1776880276,"current_range_meters":10000,"station_id":"ce4bh2p2rcd13ifvqdi0","pricing_plan_id":"cebpf4jnsgd1na2vs0mg"},{"bike_id":"81c6baef-10f5-4319-92c1-6f08b9b2f8c7","system_id":"levelo_inurba_marseille","lat":43.29271,"lon":5.38441,"is_reserved":false,"is_disabled":false,"rental_uris":{"android":"levelo://app?vid=81c6baef-10f5-4319-92c1-6f08b9b2f8c7","ios":"levelo://app?vid=81c6baef-10f5-4319-92c1-6f08b9b2f8c7"},"vehicle_type_id":"4","last_reported":1776880276,"current_range_meters":10000,"station_id":"ce4bh692rcd13ifvqea0","pricing_plan_id":"cebpf4jnsgd1na2vs0mg"},{"bike_id":"b6d0ba7f-995a-4330-bda6-34dd7197caa9","system_id":"levelo_inurba_marseille","lat":43.29005,"lon":5.3864,"is_reserved":false,"is_disabled":false,"rental_uris":{"android":"levelo://app?vid=b6d0ba7f-995a-4330-bda6-34dd7197caa9","ios":"levelo://app?vid=b6d0ba7f-995a-4330-bda6-34dd7197caa9"},"vehicle_type_id":"4","last_reported":1776880276,"current_range_meters":10000,"station_id":"ce4bh4p2rcd13ifvqe0g","pricing_plan_id":"cebpf4jnsgd1na2vs0mg"},{"bike_id":"ca1c5305-c14b-4bd5-b962-0a053e58913a","system_id":"levelo_inurba_marseille","lat":43.26769,"lon":5.39419,"is_reserved":false,"is_disabled":false,"rental_uris":{"android":"levelo://app?vid=ca1c5305-c14b-4bd5-b962-0a053e58913a","ios":"levelo://app?vid=ca1c5305-c14b-4bd5-b962-0a053e58913a"},"vehicle_type_id":"4","last_reported":1776880276,"current_range_meters":10000,"station_id":"ce4bhh12rcd13ifvqfg0","pricing_plan_id":"cebpf4jnsgd1na2vs0mg"},{"bike_id":"cce9e933-3790-4ced-9eef-b5ac537ec700","system_id":"levelo_inurba_marseille","lat":43.28609,"lon":5.38381,"is_reserved":false,"is_disabled":false,"rental_uris":{"android":"levelo://app?vid=cce9e933-3790-4ced-9eef-b5ac537ec700","ios":"levelo://app?vid=cce9e933-3790-4ced-9eef-b5ac537ec700"},"vehicle_type_id":"4","last_reported":1776880276,"current_range_meters":10000,"station_id":"","pricing_plan_id":"cebpf4jnsgd1na2vs0mg"},{"bike_id":"eaa56526-29a5-4cc4-abc0-c621dd30f9a4","system_id":"levelo_inurba_marseille","lat":43.29262,"lon":5.4268,"is_reserved":false,"is_disabled":false,"rental_uris":{"android":"levelo://app?vid=eaa56526-29a5-4cc4-abc0-c621dd30f9a4","ios":"levelo://app?vid=eaa56526-29a5-4cc4-abc0-c621dd30f9a4"},"vehicle_type_id":"4","last_reported":1776880276,"current_range_meters":10800,"station_id":"","pricing_plan_id":"cebpf4jnsgd1na2vs0mg"},{"bike_id":"1b96147a-0a00-444b-a6da-e7e56ca38fd6","system_id":"levelo_inurba_marseille","lat":43.29887,"lon":5.39721,"is_reserved":false,"is_disabled":false,"rental_uris":{"android":"levelo://app?vid=1b96147a-0a00-444b-a6da-e7e56ca38fd6","ios":"levelo://app?vid=1b96147a-0a00-444b-a6da-e7e56ca38fd6"},"vehicle_type_id":"4","last_reported":1776880276,"current_range_meters":10800,"station_id":"ce4bh0h2rcd13ifvqd50","pricing_plan_id":"cebpf4jnsgd1na2vs0mg"},{"bike_id":"1f28f96b-7c17-4ffe-9010-9abc01f039d8","system_id":"levelo_inurba_marseille","lat":43.236788,"lon":5.43038,"is_reserved":false,"is_disabled":false,"rental_uris":{"android":"levelo://app?vid=1f28f96b-7c17-4ffe-9010-9abc01f039d8","ios":"levelo://app?vid=1f28f96b-7c17-4ffe-9010-9abc01f039d8"},"vehicle_type_id":"4","last_reported":1776880276,"current_range_meters":10800,"station_id":"","pricing_plan_id":"cebpf4jnsgd1na2vs0mg"},{"bike_id":"7324affa-e3b8-4103-a096-e93be71a13db","system_id":"levelo_inurba_marseille","lat":43.2835,"lon":5.38622,"is_reserved":false,"is_disabled":false,"rental_uris":{"android":"levelo://app?vid=7324affa-e3b8-4103-a096-e93be71a13db","ios":"levelo://app?vid=7324affa-e3b8-4103-a096-e93be71a13db"},"vehicle_type_id":"4","last_reported":1776880276,"current_range_meters":10800,"station_id":"ce4bh492rcd13ifvqdvg","pricing_plan_id":"cebpf4jnsgd1na2vs0mg"},{"bike_id":"3ac082be-7be3-4687-9ef7-527b7ced5ec0","system_id":"levelo_inurba_marseille","lat":43.28531,"lon":5.44099,"is_reserved":false,"is_disabled":false,"rental_uris":{"android":"levelo://app?vid=3ac082be-7be3-4687-9ef7-527b7ced5ec0","ios":"levelo://app?vid=3ac082be-7be3-4687-9ef7-527b7ced5ec0"},"vehicle_type_id":"4","last_reported":1776880276,"current_range_meters":10800,"station_id":"st_d3j3df2ikq2c7380ej80","pricing_plan_id":"cebpf4jnsgd1na2vs0mg"},{"bike_id":"2250a80a-b728-44ae-a103-20defd92544b","system_id":"levelo_inurba_marseille","lat":43.29191,"lon":5.39317,"is_reserved":false,"is_disabled":false,"rental_uris":{"android":"levelo://app?vid=2250a80a-b728-44ae-a103-20defd92544b","ios":"levelo://app?vid=2250a80a-b728-44ae-a103-20defd92544b"},"vehicle_type_id":"4","last_reported":1776880276,"current_range_meters":10800,"station_id":"ce4bh192rcd13ifvqdd0","pricing_plan_id":"cebpf4jnsgd1na2vs0mg"},{"bike_id":"ec42fef4-500e-4c4a-9300-baadcf099dd5","system_id":"levelo_inurba_marseille","lat":43.29004,"lon":5.35605,"is_reserved":false,"is_disabled":false,"rental_uris":{"android":"levelo://app?vid=ec42fef4-500e-4c4a-9300-baadcf099dd5","ios":"levelo://app?vid=ec42fef4-500e-4c4a-9300-baadcf099dd5"},"vehicle_type_id":"4","last_reported":1776880276,"current_range_meters":10800,"station_id":"ce4bhb92rcd13ifvqen0","pricing_plan_id":"cebpf4jnsgd1na2vs0mg"},{"bike_id":"89cb976b-df3a-46fc-a9ef-0025de561630","system_id":"levelo_inurba_marseille","lat":43.29427,"lon":5.43404,"is_reserved":false,"is_disabled":false,"rental_uris":{"android":"levelo://app?vid=89cb976b-df3a-46fc-a9ef-0025de561630","ios":"levelo://app?vid=89cb976b-df3a-46fc-a9ef-0025de561630"},"vehicle_type_id":"4","last_reported":1776880276,"current_range_meters":10800,"station_id":"","pricing_plan_id":"cebpf4jnsgd1na2vs0mg"},{"bike_id":"e6b17e60-a4f3-4156-bdbd-4e48b61d103c","system_id":"levelo_inurba_marseille","lat":43.29042,"lon":5.42431,"is_reserved":false,"is_disabled":false,"rental_uris":{"android":"levelo://app?vid=e6b17e60-a4f3-4156-bdbd-4e48b61d103c","ios":"levelo://app?vid=e6b17e60-a4f3-4156-bdbd-4e48b61d103c"},"vehicle_type_id":"4","last_reported":1776880276,"current_range_meters":10800,"station_id":"","pricing_plan_id":"cebpf4jnsgd1na2vs0mg"},{"bike_id":"4c59e750-bd32-470f-aabb-d5afbed24b9c","system_id":"levelo_inurba_marseille","lat":43.24811,"lon":5.37458,"is_reserved":false,"is_disabled":false,"rental_uris":{"android":"levelo://app?vid=4c59e750-bd32-470f-aabb-d5afbed24b9c","ios":"levelo://app?vid=4c59e750-bd32-470f-aabb-d5afbed24b9c"},"vehicle_type_id":"4","last_reported":1776880276,"current_range_meters":10800,"station_id":"ce4bhgh2rcd13ifvqfb0","pricing_plan_id":"cebpf4jnsgd1na2vs0mg"},{"bike_id":"4d59fbba-4dc6-4ce8-8e57-58cfd73f5b62","system_id":"levelo_inurba_marseille","lat":43.29617,"lon":5.37703,"is_reserved":false,"is_disabled":false,"rental_uris":{"android":"levelo://app?vid=4d59fbba-4dc6-4ce8-8e57-58cfd73f5b62","ios":"levelo://app?vid=4d59fbba-4dc6-4ce8-8e57-58cfd73f5b62"},"vehicle_type_id":"4","last_reported":1776880276,"current_range_meters":10800,"station_id":"ce4bgi92rcd13ifvqb90","pricing_plan_id":"cebpf4jnsgd1na2vs0mg"},{"bike_id":"7c785f2f-fe9b-43b3-a93c-b64a4c8daf77","system_id":"levelo_inurba_marseille","lat":43.29763,"lon":5.42814,"is_reserved":false,"is_disabled":false,"rental_uris":{"android":"levelo://app?vid=7c785f2f-fe9b-43b3-a93c-b64a4c8daf77","ios":"levelo://app?vid=7c785f2f-fe9b-43b3-a93c-b64a4c8daf77"},"vehicle_type_id":"4","last_reported":1776880276,"current_range_meters":10800,"station_id":"st_d3md5207bmas73dh9klg","pricing_plan_id":"cebpf4jnsgd1na2vs0mg"},{"bike_id":"5c0d2ad2-b9db-4559-9dc7-1582fa954ebd","system_id":"levelo_inurba_marseille","lat":43.29509,"lon":5.39026,"is_reserved":false,"is_disabled":false,"rental_uris":{"android":"levelo://app?vid=5c0d2ad2-b9db-4559-9dc7-1582fa954ebd","ios":"levelo://app?vid=5c0d2ad2-b9db-4559-9dc7-1582fa954ebd"},"vehicle_type_id":"4","last_reported":1776880276,"current_range_meters":10800,"station_id":"ce4bh3p2rcd13ifvqdp0","pricing_plan_id":"cebpf4jnsgd1na2vs0mg"},{"bike_id":"541dbded-315f-4ca8-ac49-47fcb4294bb7","system_id":"levelo_inurba_marseille","lat":43.33541,"lon":5.3746,"is_reserved":false,"is_disabled":false,"rental_uris":{"android":"levelo://app?vid=541dbded-315f-4ca8-ac49-47fcb4294bb7","ios":"levelo://app?vid=541dbded-315f-4ca8-ac49-47fcb4294bb7"},"vehicle_type_id":"4","last_reported":1776880276,"current_range_meters":10800,"station_id":"st_d46tts09ee8s73dlu43g","pricing_plan_id":"cebpf4jnsgd1na2vs0mg"},{"bike_id":"706869c6-be65-49b4-a496-7f18e8729124","system_id":"levelo_inurba_marseille","lat":43.29511,"lon":5.38552,"is_reserved":false,"is_disabled":false,"rental_uris":{"android":"levelo://app?vid=706869c6-be65-49b4-a496-7f18e8729124","ios":"levelo://app?vid=706869c6-be65-49b4-a496-7f18e8729124"},"vehicle_type_id":"4","last_reported":1776880276,"current_range_meters":10800,"station_id":"ce4bgih2rcd13ifvqba0","pricing_plan_id":"cebpf4jnsgd1na2vs0mg"},{"bike_id":"c15a4638-3d6a-42df-b375-e2e37521d0fe","system_id":"levelo_inurba_marseille","lat":43.27054,"lon":5.4026,"is_reserved":false,"is_disabled":false,"rental_uris":{"android":"levelo://app?vid=c15a4638-3d6a-42df-b375-e2e37521d0fe","ios":"levelo://app?vid=c15a4638-3d6a-42df-b375-e2e37521d0fe"},"vehicle_type_id":"4","last_reported":1776880276,"current_range_meters":10800,"station_id":"ce4bhk92rcd13ifvqgc0","pricing_plan_id":"cebpf4jnsgd1na2vs0mg"},{"bike_id":"c3e0702e-4cd9-4eab-9e41-0d17750466d8","system_id":"levelo_inurba_marseille","lat":43.29348,"lon":5.37287,"is_reserved":false,"is_disabled":false,"rental_uris":{"android":"levelo://app?vid=c3e0702e-4cd9-4eab-9e41-0d17750466d8","ios":"levelo://app?vid=c3e0702e-4cd9-4eab-9e41-0d17750466d8"},"vehicle_type_id":"4","last_reported":1776880276,"current_range_meters":10800,"station_id":"","pricing_plan_id":"cebpf4jnsgd1na2vs0mg"},{"bike_id":"3b91f882-219d-4945-9f5a-84a4b39e29fb","system_id":"levelo_inurba_marseille","lat":43.29268,"lon":5.37623,"is_reserved":false,"is_disabled":false,"rental_uris":{"android":"levelo://app?vid=3b91f882-219d-4945-9f5a-84a4b39e29fb","ios":"levelo://app?vid=3b91f882-219d-4945-9f5a-84a4b39e29fb"},"vehicle_type_id":"4","last_reported":1776880276,"current_range_meters":11200,"station_id":"ce4bgi12rcd13ifvqb80","pricing_plan_id":"cebpf4jnsgd1na2vs0mg"},{"bike_id":"de8d76d4-ba3d-4cae-8bc6-8a28bedc03b8","system_id":"levelo_inurba_marseille","lat":43.30427,"lon":5.39739,"is_reserved":false,"is_disabled":false,"rental_uris":{"android":"levelo://app?vid=de8d76d4-ba3d-4cae-8bc6-8a28bedc03b8","ios":"levelo://app?vid=de8d76d4-ba3d-4cae-8bc6-8a28bedc03b8"},"vehicle_type_id":"4","last_reported":1776880276,"current_range_meters":11200,"station_id":"ce4bh092rcd13ifvqd20","pricing_plan_id":"cebpf4jnsgd1na2vs0mg"},{"bike_id":"ae1a0ce0-3e2e-4cf2-b858-405a12aeabc1","system_id":"levelo_inurba_marseille","lat":43.27068,"lon":5.42275,"is_reserved":false,"is_disabled":false,"rental_uris":{"android":"levelo://app?vid=ae1a0ce0-3e2e-4cf2-b858-405a12aeabc1","ios":"levelo://app?vid=ae1a0ce0-3e2e-4cf2-b858-405a12aeabc1"},"vehicle_type_id":"4","last_reported":1776880276,"current_range_meters":11200,"station_id":"ce4bhk92rcd13ifvqgb0","pricing_plan_id":"cebpf4jnsgd1na2vs0mg"},{"bike_id":"fc7363fe-b04d-489a-9727-90ca30e7bca6","system_id":"levelo_inurba_marseille","lat":43.32108,"lon":5.36769,"is_reserved":false,"is_disabled":false,"rental_uris":{"android":"levelo://app?vid=fc7363fe-b04d-489a-9727-90ca30e7bca6","ios":"levelo://app?vid=fc7363fe-b04d-489a-9727-90ca30e7bca6"},"vehicle_type_id":"4","last_reported":1776880276,"current_range_meters":11200,"station_id":"ce4bhrh2rcd13ifvqhug","pricing_plan_id":"cebpf4jnsgd1na2vs0mg"},{"bike_id":"1f68b41e-59e6-45c1-8843-64a039c566ec","system_id":"levelo_inurba_marseille","lat":43.27196,"lon":5.41006,"is_reserved":false,"is_disabled":false,"rental_uris":{"android":"levelo://app?vid=1f68b41e-59e6-45c1-8843-64a039c566ec","ios":"levelo://app?vid=1f68b41e-59e6-45c1-8843-64a039c566ec"},"vehicle_type_id":"4","last_reported":1776880276,"current_range_meters":11200,"station_id":"ce4bhl12rcd13ifvqgf0","pricing_plan_id":"cebpf4jnsgd1na2vs0mg"},{"bike_id":"6efae23b-4853-4978-a046-e2118aa389db","system_id":"levelo_inurba_marseille","lat":43.29464,"lon":5.3822,"is_reserved":false,"is_disabled":false,"rental_uris":{"android":"levelo://app?vid=6efae23b-4853-4978-a046-e2118aa389db","ios":"levelo://app?vid=6efae23b-4853-4978-a046-e2118aa389db"},"vehicle_type_id":"4","last_reported":1776880276,"current_range_meters":11200,"station_id":"","pricing_plan_id":"cebpf4jnsgd1na2vs0mg"},{"bike_id":"a8aa9b10-b201-4335-86a5-69aaa3d0be38","system_id":"levelo_inurba_marseille","lat":43.28395,"lon":5.37524,"is_reserved":false,"is_disabled":false,"rental_uris":{"android":"levelo://app?vid=a8aa9b10-b201-4335-86a5-69aaa3d0be38","ios":"levelo://app?vid=a8aa9b10-b201-4335-86a5-69aaa3d0be38"},"vehicle_type_id":"4","last_reported":1776880276,"current_range_meters":11200,"station_id":"ce4bh412rcd13ifvqds0","pricing_plan_id":"cebpf4jnsgd1na2vs0mg"},{"bike_id":"3861474c-5c79-40a8-a73c-d543fa3a8ccd","system_id":"levelo_inurba_marseille","lat":43.24807,"lon":5.37458,"is_reserved":false,"is_disabled":false,"rental_uris":{"android":"levelo://app?vid=3861474c-5c79-40a8-a73c-d543fa3a8ccd","ios":"levelo://app?vid=3861474c-5c79-40a8-a73c-d543fa3a8ccd"},"vehicle_type_id":"4","last_reported":1776880276,"current_range_meters":11200,"station_id":"ce4bhgh2rcd13ifvqfb0","pricing_plan_id":"cebpf4jnsgd1na2vs0mg"},{"bike_id":"81d36cb6-e0c2-454c-b2fe-1f3626c7f399","system_id":"levelo_inurba_marseille","lat":43.29032,"lon":5.38658,"is_reserved":false,"is_disabled":false,"rental_uris":{"android":"levelo://app?vid=81d36cb6-e0c2-454c-b2fe-1f3626c7f399","ios":"levelo://app?vid=81d36cb6-e0c2-454c-b2fe-1f3626c7f399"},"vehicle_type_id":"4","last_reported":1776880276,"current_range_meters":11200,"station_id":"ce4bh4p2rcd13ifvqe0g","pricing_plan_id":"cebpf4jnsgd1na2vs0mg"},{"bike_id":"3f693977-87ee-4bbd-b110-46e181cbb497","system_id":"levelo_inurba_marseille","lat":43.24632,"lon":5.4315,"is_reserved":false,"is_disabled":false,"rental_uris":{"android":"levelo://app?vid=3f693977-87ee-4bbd-b110-46e181cbb497","ios":"levelo://app?vid=3f693977-87ee-4bbd-b110-46e181cbb497"},"vehicle_type_id":"4","last_reported":1776880276,"current_range_meters":11200,"station_id":"st_d2m6c4gdas8pm72e190g","pricing_plan_id":"cebpf4jnsgd1na2vs0mg"},{"bike_id":"ec19aaad-2410-439f-9123-e83fa1c535f8","system_id":"levelo_inurba_marseille","lat":43.28268,"lon":5.37878,"is_reserved":false,"is_disabled":false,"rental_uris":{"android":"levelo://app?vid=ec19aaad-2410-439f-9123-e83fa1c535f8","ios":"levelo://app?vid=ec19aaad-2410-439f-9123-e83fa1c535f8"},"vehicle_type_id":"4","last_reported":1776880276,"current_range_meters":11200,"station_id":"","pricing_plan_id":"cebpf4jnsgd1na2vs0mg"},{"bike_id":"5ec0469c-9e24-4dd0-aa0e-a177525765c2","system_id":"levelo_inurba_marseille","lat":43.29814,"lon":5.3655,"is_reserved":false,"is_disabled":false,"rental_uris":{"android":"levelo://app?vid=5ec0469c-9e24-4dd0-aa0e-a177525765c2","ios":"levelo://app?vid=5ec0469c-9e24-4dd0-aa0e-a177525765c2"},"vehicle_type_id":"4","last_reported":1776880276,"current_range_meters":11200,"station_id":"","pricing_plan_id":"cebpf4jnsgd1na2vs0mg"},{"bike_id":"cff84760-68d1-4fb3-91c2-3c83c892e99b","system_id":"levelo_inurba_marseille","lat":43.32652,"lon":5.40998,"is_reserved":false,"is_disabled":false,"rental_uris":{"android":"levelo://app?vid=cff84760-68d1-4fb3-91c2-3c83c892e99b","ios":"levelo://app?vid=cff84760-68d1-4fb3-91c2-3c83c892e99b"},"vehicle_type_id":"4","last_reported":1776880276,"current_range_meters":11200,"station_id":"ce4bhpp2rcd13ifvqhgg","pricing_plan_id":"cebpf4jnsgd1na2vs0mg"},{"bike_id":"69904aa1-60b2-4195-a1ba-9cd611f8d3ea","system_id":"levelo_inurba_marseille","lat":43.29842,"lon":5.36274,"is_reserved":false,"is_disabled":false,"rental_uris":{"android":"levelo://app?vid=69904aa1-60b2-4195-a1ba-9cd611f8d3ea","ios":"levelo://app?vid=69904aa1-60b2-4195-a1ba-9cd611f8d3ea"},"vehicle_type_id":"4","last_reported":1776880276,"current_range_meters":11200,"station_id":"ce4bgpp2rcd13ifvqc3g","pricing_plan_id":"cebpf4jnsgd1na2vs0mg"},{"bike_id":"7429e3c7-fc76-4eca-912f-e84196281775","system_id":"levelo_inurba_marseille","lat":43.26953,"lon":5.38627,"is_reserved":false,"is_disabled":false,"rental_uris":{"android":"levelo://app?vid=7429e3c7-fc76-4eca-912f-e84196281775","ios":"levelo://app?vid=7429e3c7-fc76-4eca-912f-e84196281775"},"vehicle_type_id":"4","last_reported":1776880276,"current_range_meters":11200,"station_id":"ce4bhh92rcd13ifvqfh0","pricing_plan_id":"cebpf4jnsgd1na2vs0mg"},{"bike_id":"d8583215-e5bd-4ef5-be73-465ca7fa076d","system_id":"levelo_inurba_marseille","lat":43.2815,"lon":5.42645,"is_reserved":false,"is_disabled":false,"rental_uris":{"android":"levelo://app?vid=d8583215-e5bd-4ef5-be73-465ca7fa076d","ios":"levelo://app?vid=d8583215-e5bd-4ef5-be73-465ca7fa076d"},"vehicle_type_id":"4","last_reported":1776880276,"current_range_meters":11200,"station_id":"ce4bhnh2rcd13ifvqgug","pricing_plan_id":"cebpf4jnsgd1na2vs0mg"},{"bike_id":"3836f231-efbc-4bd1-8ee4-f35c6b1f815d","system_id":"levelo_inurba_marseille","lat":43.28038,"lon":5.36934,"is_reserved":false,"is_disabled":false,"rental_uris":{"android":"levelo://app?vid=3836f231-efbc-4bd1-8ee4-f35c6b1f815d","ios":"levelo://app?vid=3836f231-efbc-4bd1-8ee4-f35c6b1f815d"},