{"last_updated":1707013051,"ttl":30,"version":"2.2","data":{"bikes":[{"bike_id":"b50d22ad-6baf-4a8c-bb4e-32bf75e61d34","system_id":"levelo_inurba_marseille","lat":43.313391,"lon":5.36706,"is_reserved":false,"is_disabled":false,"rental_uris":{"android":"levelo://app?vid=b50d22ad-6baf-4a8c-bb4e-32bf75e61d34","ios":"levelo://app?vid=b50d22ad-6baf-4a8c-bb4e-32bf75e61d34"},"vehicle_type_id":"4","last_reported":1707013052,"current_range_meters":26800,"station_id":"ce4bgr92rcd13ifvqc6g","pricing_plan_id":"free"},{"bike_id":"d95e2387-434c-4b69-8908-9707087feaf0","system_id":"levelo_inurba_marseille","lat":43.312239,"lon":5.368562,"is_reserved":false,"is_disabled":false,"rental_uris":{"android":"levelo://app?vid=d95e2387-434c-4b69-8908-9707087feaf0","ios":"levelo://app?vid=d95e2387-434c-4b69-8908-9707087feaf0"},"vehicle_type_id":"4","last_reported":1707013052,"current_range_meters":1200,"station_id":"ce4bgl92rcd13ifvqbq0","pricing_plan_id":"free"},{"bike_id":"d1d950e6-89c0-4bcc-92ca-70560454c384","system_id":"levelo_inurba_marseille","lat":43.314811,"lon":5.373103,"is_reserved":false,"is_disabled":false,"rental_uris":{"android":"levelo://app?vid=d1d950e6-89c0-4bcc-92ca-70560454c384","ios":"levelo://app?vid=d1d950e6-89c0-4bcc-92ca-70560454c384"},"vehicle_type_id":"4","last_reported":1707013052,"current_range_meters":19600,"station_id":"ce4bgt12rcd13ifvqcd0","pricing_plan_id":"free"},{"bike_id":"8f714542-601e-469f-8d68-1b5171d9240b","system_id":"levelo_inurba_marseille","lat":43.314811,"lon":5.373103,"is_reserved":false,"is_disabled":false,"rental_uris":{"android":"levelo://app?vid=8f714542-601e-469f-8d68-1b5171d9240b","ios":"levelo://app?vid=8f714542-601e-469f-8d68-1b5171d9240b"},"vehicle_type_id":"4","last_reported":1707013052,"current_range_meters":18000,"station_id":"ce4bgt12rcd13ifvqcd0","pricing_plan_id":"free"},{"bike_id":"e6260c09-8a16-438d-8f12-9112cd2bdda6","system_id":"levelo_inurba_marseille","lat":43.314811,"lon":5.373104,"is_reserved":false,"is_disabled":false,"rental_uris":{"android":"levelo://app?vid=e6260c09-8a16-438d-8f12-9112cd2bdda6","ios":"levelo://app?vid=e6260c09-8a16-438d-8f12-9112cd2bdda6"},"vehicle_type_id":"4","last_reported":1707013052,"current_range_meters":14000,"station_id":"ce4bgt12rcd13ifvqcd0","pricing_plan_id":"free"},{"bike_id":"d2be7cfc-cbe4-40df-b202-480ca2ed1165","system_id":"levelo_inurba_marseille","lat":43.314811,"lon":5.373103,"is_reserved":false,"is_disabled":false,"rental_uris":{"android":"levelo://app?vid=d2be7cfc-cbe4-40df-b202-480ca2ed1165","ios":"levelo://app?vid=d2be7cfc-cbe4-40df-b202-480ca2ed1165"},"vehicle_type_id":"4","last_reported":1707013052,"current_range_meters":26800,"station_id":"ce4bgt12rcd13ifvqcd0","pricing_plan_id":"free"},{"bike_id":"f0ae0dcc-b172-4eaa-952d-385ada21a9a7","system_id":"levelo_inurba_marseille","lat":43.314811,"lon":5.373103,"is_reserved":false,"is_disabled":false,"rental_uris":{"android":"levelo://app?vid=f0ae0dcc-b172-4eaa-952d-385ada21a9a7","ios":"levelo://app?vid=f0ae0dcc-b172-4eaa-952d-385ada21a9a7"},"vehicle_type_id":"4","last_reported":1707013052,"current_range_meters":24400,"station_id":"ce4bgt12rcd13ifvqcd0","pricing_plan_id":"free"},{"bike_id":"e702be15-c2ba-4315-a519-4135aa05b0d1","system_id":"levelo_inurba_marseille","lat":43.314811,"lon":5.373103,"is_reserved":false,"is_disabled":false,"rental_uris":{"android":"levelo://app?vid=e702be15-c2ba-4315-a519-4135aa05b0d1","ios":"levelo://app?vid=e702be15-c2ba-4315-a519-4135aa05b0d1"},"vehicle_type_id":"4","last_reported":1707013052,"current_range_meters":31600,"station_id":"ce4bgt12rcd13ifvqcd0","pricing_plan_id":"free"},{"bike_id":"a02fa4d4-439f-400e-965a-eaeec7da82cd","system_id":"levelo_inurba_marseille","lat":43.314811,"lon":5.373104,"is_reserved":false,"is_disabled":false,"rental_uris":{"android":"levelo://app?vid=a02fa4d4-439f-400e-965a-eaeec7da82cd","ios":"levelo://app?vid=a02fa4d4-439f-400e-965a-eaeec7da82cd"},"vehicle_type_id":"4","last_reported":1707013052,"current_range_meters":26800,"station_id":"ce4bgt12rcd13ifvqcd0","pricing_plan_id":"free"},{"bike_id":"3aedcfb6-3fb8-45c7-871e-ce9bca4777e4","system_id":"levelo_inurba_marseille","lat":43.314811,"lon":5.373104,"is_reserved":false,"is_disabled":false,"rental_uris":{"android":"levelo://app?vid=3aedcfb6-3fb8-45c7-871e-ce9bca4777e4","ios":"levelo://app?vid=3aedcfb6-3fb8-45c7-871e-ce9bca4777e4"},"vehicle_type_id":"4","last_reported":1707013052,"current_range_meters":10000,"station_id":"ce4bgt12rcd13ifvqcd0","pricing_plan_id":"free"},{"bike_id":"5bc125f2-47fe-489c-8fbd-5bd7cc205e75","system_id":"levelo_inurba_marseille","lat":43.30892,"lon":5.372013,"is_reserved":false,"is_disabled":false,"rental_uris":{"android":"levelo://app?vid=5bc125f2-47fe-489c-8fbd-5bd7cc205e75","ios":"levelo://app?vid=5bc125f2-47fe-489c-8fbd-5bd7cc205e75"},"vehicle_type_id":"4","last_reported":1707013052,"current_range_meters":14800,"station_id":"ce4bguh2rcd13ifvqckg","pricing_plan_id":"free"},{"bike_id":"ab9ed61b-2296-496d-ba64-22d15d50384f","system_id":"levelo_inurba_marseille","lat":43.308818,"lon":5.372008,"is_reserved":false,"is_disabled":false,"rental_uris":{"android":"levelo://app?vid=ab9ed61b-2296-496d-ba64-22d15d50384f","ios":"levelo://app?vid=ab9ed61b-2296-496d-ba64-22d15d50384f"},"vehicle_type_id":"4","last_reported":1707013052,"current_range_meters":16400,"station_id":"ce4bguh2rcd13ifvqckg","pricing_plan_id":"free"},{"bike_id":"0a753191-8850-4ae6-b333-5199e5a4b05d","system_id":"levelo_inurba_marseille","lat":43.305514,"lon":5.365331,"is_reserved":false,"is_disabled":false,"rental_uris":{"android":"levelo://app?vid=0a753191-8850-4ae6-b333-5199e5a4b05d","ios":"levelo://app?vid=0a753191-8850-4ae6-b333-5199e5a4b05d"},"vehicle_type_id":"4","last_reported":1707013052,"current_range_meters":0,"station_id":"ce4bgs12rcd13ifvqcag","pricing_plan_id":"free"},{"bike_id":"c40ab544-ad4e-418f-9e58-3afb7a67a86a","system_id":"levelo_inurba_marseille","lat":43.305989,"lon":5.37225,"is_reserved":false,"is_disabled":false,"rental_uris":{"android":"levelo://app?vid=c40ab544-ad4e-418f-9e58-3afb7a67a86a","ios":"levelo://app?vid=c40ab544-ad4e-418f-9e58-3afb7a67a86a"},"vehicle_type_id":"4","last_reported":1707013052,"current_range_meters":7200,"station_id":"ce4bgqh2rcd13ifvqc4g","pricing_plan_id":"free"},{"bike_id":"335eb2b7-4a5f-4d07-a0ed-78ba82c09dc9","system_id":"levelo_inurba_marseille","lat":43.305989,"lon":5.37225,"is_reserved":false,"is_disabled":false,"rental_uris":{"android":"levelo://app?vid=335eb2b7-4a5f-4d07-a0ed-78ba82c09dc9","ios":"levelo://app?vid=335eb2b7-4a5f-4d07-a0ed-78ba82c09dc9"},"vehicle_type_id":"4","last_reported":1707013052,"current_range_meters":28400,"station_id":"ce4bgqh2rcd13ifvqc4g","pricing_plan_id":"free"},{"bike_id":"c1b194bc-d597-4a1e-9e03-ca63c6b8e4cc","system_id":"levelo_inurba_marseille","lat":43.305973,"lon":5.372107,"is_reserved":false,"is_disabled":false,"rental_uris":{"android":"levelo://app?vid=c1b194bc-d597-4a1e-9e03-ca63c6b8e4cc","ios":"levelo://app?vid=c1b194bc-d597-4a1e-9e03-ca63c6b8e4cc"},"vehicle_type_id":"4","last_reported":1707013052,"current_range_meters":0,"station_id":"ce4bgqh2rcd13ifvqc4g","pricing_plan_id":"free"},{"bike_id":"3ee70fbc-9be7-49d1-a1d7-361d98c99708","system_id":"levelo_inurba_marseille","lat":43.305989,"lon":5.37225,"is_reserved":false,"is_disabled":false,"rental_uris":{"android":"levelo://app?vid=3ee70fbc-9be7-49d1-a1d7-361d98c99708","ios":"levelo://app?vid=3ee70fbc-9be7-49d1-a1d7-361d98c99708"},"vehicle_type_id":"4","last_reported":1707013052,"current_range_meters":12000,"station_id":"ce4bgqh2rcd13ifvqc4g","pricing_plan_id":"free"},{"bike_id":"f4eb1b05-b136-488e-bc82-411c2f3cf5a2","system_id":"levelo_inurba_marseille","lat":43.311043,"lon":5.37767,"is_reserved":false,"is_disabled":false,"rental_uris":{"android":"levelo://app?vid=f4eb1b05-b136-488e-bc82-411c2f3cf5a2","ios":"levelo://app?vid=f4eb1b05-b136-488e-bc82-411c2f3cf5a2"},"vehicle_type_id":"4","last_reported":1707013052,"current_range_meters":26800,"station_id":"ce4bgt92rcd13ifvqcg0","pricing_plan_id":"free"},{"bike_id":"5a504d23-b209-409a-afa2-c748d32d55c6","system_id":"levelo_inurba_marseille","lat":43.311131,"lon":5.377651,"is_reserved":false,"is_disabled":false,"rental_uris":{"android":"levelo://app?vid=5a504d23-b209-409a-afa2-c748d32d55c6","ios":"levelo://app?vid=5a504d23-b209-409a-afa2-c748d32d55c6"},"vehicle_type_id":"4","last_reported":1707013052,"current_range_meters":3200,"station_id":"ce4bgt92rcd13ifvqcg0","pricing_plan_id":"free"},{"bike_id":"787be7e4-fca2-4419-aacb-150c185000a6","system_id":"levelo_inurba_marseille","lat":43.307945,"lon":5.376487,"is_reserved":false,"is_disabled":false,"rental_uris":{"android":"levelo://app?vid=787be7e4-fca2-4419-aacb-150c185000a6","ios":"levelo://app?vid=787be7e4-fca2-4419-aacb-150c185000a6"},"vehicle_type_id":"4","last_reported":1707013052,"current_range_meters":20000,"station_id":"ce4bgv92rcd13ifvqcq0","pricing_plan_id":"free"},{"bike_id":"64956eac-ebd7-41d0-b9c8-454bc4de378e","system_id":"levelo_inurba_marseille","lat":43.307945,"lon":5.376487,"is_reserved":false,"is_disabled":false,"rental_uris":{"android":"levelo://app?vid=64956eac-ebd7-41d0-b9c8-454bc4de378e","ios":"levelo://app?vid=64956eac-ebd7-41d0-b9c8-454bc4de378e"},"vehicle_type_id":"4","last_reported":1707013052,"current_range_meters":22000,"station_id":"ce4bgv92rcd13ifvqcq0","pricing_plan_id":"free"},{"bike_id":"662cde05-06f7-4ec2-8e64-e6a473293046","system_id":"levelo_inurba_marseille","lat":43.307945,"lon":5.376487,"is_reserved":false,"is_disabled":false,"rental_uris":{"android":"levelo://app?vid=662cde05-06f7-4ec2-8e64-e6a473293046","ios":"levelo://app?vid=662cde05-06f7-4ec2-8e64-e6a473293046"},"vehicle_type_id":"4","last_reported":1707013052,"current_range_meters":29600,"station_id":"ce4bgv92rcd13ifvqcq0","pricing_plan_id":"free"},{"bike_id":"54237b33-655d-4a40-b3a7-5415caf3190c","system_id":"levelo_inurba_marseille","lat":43.30787,"lon":5.37654,"is_reserved":false,"is_disabled":false,"rental_uris":{"android":"levelo://app?vid=54237b33-655d-4a40-b3a7-5415caf3190c","ios":"levelo://app?vid=54237b33-655d-4a40-b3a7-5415caf3190c"},"vehicle_type_id":"4","last_reported":1707013052,"current_range_meters":2000,"station_id":"ce4bgv92rcd13ifvqcq0","pricing_plan_id":"free"},{"bike_id":"50803d87-3776-45ab-a9bb-f452c1d8bc01","system_id":"levelo_inurba_marseille","lat":43.307945,"lon":5.376487,"is_reserved":false,"is_disabled":false,"rental_uris":{"android":"levelo://app?vid=50803d87-3776-45ab-a9bb-f452c1d8bc01","ios":"levelo://app?vid=50803d87-3776-45ab-a9bb-f452c1d8bc01"},"vehicle_type_id":"4","last_reported":1707013052,"current_range_meters":6400,"station_id":"ce4bgv92rcd13ifvqcq0","pricing_plan_id":"free"},{"bike_id":"544a54c5-badf-418f-891b-250bbc823c70","system_id":"levelo_inurba_marseille","lat":43.307945,"lon":5.376487,"is_reserved":false,"is_disabled":false,"rental_uris":{"android":"levelo://app?vid=544a54c5-badf-418f-891b-250bbc823c70","ios":"levelo://app?vid=544a54c5-badf-418f-891b-250bbc823c70"},"vehicle_type_id":"4","last_reported":1707013052,"current_range_meters":12400,"station_id":"ce4bgv92rcd13ifvqcq0","pricing_plan_id":"free"},{"bike_id":"6f2f08de-0806-4b08-b862-b5680b05a8c1","system_id":"levelo_inurba_marseille","lat":43.307945,"lon":5.376487,"is_reserved":false,"is_disabled":false,"rental_uris":{"android":"levelo://app?vid=6f2f08de-0806-4b08-b862-b5680b05a8c1","ios":"levelo://app?vid=6f2f08de-0806-4b08-b862-b5680b05a8c1"},"vehicle_type_id":"4","last_reported":1707013052,"current_range_meters":22000,"station_id":"ce4bgv92rcd13ifvqcq0","pricing_plan_id":"free"},{"bike_id":"5b1a5c18-bb7b-4173-a5ef-a952504b3a24","system_id":"levelo_inurba_marseille","lat":43.30784,"lon":5.37659,"is_reserved":false,"is_disabled":false,"rental_uris":{"android":"levelo://app?vid=5b1a5c18-bb7b-4173-a5ef-a952504b3a24","ios":"levelo://app?vid=5b1a5c18-bb7b-4173-a5ef-a952504b3a24"},"vehicle_type_id":"4","last_reported":1707013052,"current_range_meters":3200,"station_id":"ce4bgv92rcd13ifvqcq0","pricing_plan_id":"free"},{"bike_id":"1bb385ed-7288-49d1-ae9d-c67c55d42f5b","system_id":"levelo_inurba_marseille","lat":43.307945,"lon":5.376487,"is_reserved":false,"is_disabled":false,"rental_uris":{"android":"levelo://app?vid=1bb385ed-7288-49d1-ae9d-c67c55d42f5b","ios":"levelo://app?vid=1bb385ed-7288-49d1-ae9d-c67c55d42f5b"},"vehicle_type_id":"4","last_reported":1707013052,"current_range_meters":26000,"station_id":"ce4bgv92rcd13ifvqcq0","pricing_plan_id":"free"},{"bike_id":"5350492e-9a31-4cc2-9dd3-24bb9c6e20c8","system_id":"levelo_inurba_marseille","lat":43.317014,"lon":5.377562,"is_reserved":false,"is_disabled":false,"rental_uris":{"android":"levelo://app?vid=5350492e-9a31-4cc2-9dd3-24bb9c6e20c8","ios":"levelo://app?vid=5350492e-9a31-4cc2-9dd3-24bb9c6e20c8"},"vehicle_type_id":"4","last_reported":1707013052,"current_range_meters":0,"station_id":"ce4bgth2rcd13ifvqch0","pricing_plan_id":"free"},{"bike_id":"99bfa85a-611a-4927-a3f1-11966d02b1be","system_id":"levelo_inurba_marseille","lat":43.317075,"lon":5.377367,"is_reserved":false,"is_disabled":false,"rental_uris":{"android":"levelo://app?vid=99bfa85a-611a-4927-a3f1-11966d02b1be","ios":"levelo://app?vid=99bfa85a-611a-4927-a3f1-11966d02b1be"},"vehicle_type_id":"4","last_reported":1707013052,"current_range_meters":30400,"station_id":"ce4bgth2rcd13ifvqch0","pricing_plan_id":"free"},{"bike_id":"b3fdee80-37a0-47bb-b8ca-a3c133c6ab3b","system_id":"levelo_inurba_marseille","lat":43.30314,"lon":5.369114,"is_reserved":false,"is_disabled":false,"rental_uris":{"android":"levelo://app?vid=b3fdee80-37a0-47bb-b8ca-a3c133c6ab3b","ios":"levelo://app?vid=b3fdee80-37a0-47bb-b8ca-a3c133c6ab3b"},"vehicle_type_id":"4","last_reported":1707013052,"current_range_meters":16800,"station_id":"ce4bgqh2rcd13ifvqc5g","pricing_plan_id":"free"},{"bike_id":"adcad12f-a841-49e7-8325-aefff59fe17a","system_id":"levelo_inurba_marseille","lat":43.315293,"lon":5.380349,"is_reserved":false,"is_disabled":false,"rental_uris":{"android":"levelo://app?vid=adcad12f-a841-49e7-8325-aefff59fe17a","ios":"levelo://app?vid=adcad12f-a841-49e7-8325-aefff59fe17a"},"vehicle_type_id":"4","last_reported":1707013052,"current_range_meters":24400,"station_id":"ce4bhsp2rcd13ifvqi50","pricing_plan_id":"free"},{"bike_id":"6bdb6ecd-edf7-4296-98bc-66a30c85b58b","system_id":"levelo_inurba_marseille","lat":43.315293,"lon":5.380349,"is_reserved":false,"is_disabled":false,"rental_uris":{"android":"levelo://app?vid=6bdb6ecd-edf7-4296-98bc-66a30c85b58b","ios":"levelo://app?vid=6bdb6ecd-edf7-4296-98bc-66a30c85b58b"},"vehicle_type_id":"4","last_reported":1707013052,"current_range_meters":10000,"station_id":"ce4bhsp2rcd13ifvqi50","pricing_plan_id":"free"},{"bike_id":"e1d71705-c7b3-46f2-8728-10e9a8b57101","system_id":"levelo_inurba_marseille","lat":43.301963,"lon":5.366219,"is_reserved":false,"is_disabled":false,"rental_uris":{"android":"levelo://app?vid=e1d71705-c7b3-46f2-8728-10e9a8b57101","ios":"levelo://app?vid=e1d71705-c7b3-46f2-8728-10e9a8b57101"},"vehicle_type_id":"4","last_reported":1707013052,"current_range_meters":4800,"station_id":"ce4bgrh2rcd13ifvqc8g","pricing_plan_id":"free"},{"bike_id":"532654a0-4b95-48cc-b919-8bc35c0e2009","system_id":"levelo_inurba_marseille","lat":43.301924,"lon":5.366169,"is_reserved":false,"is_disabled":false,"rental_uris":{"android":"levelo://app?vid=532654a0-4b95-48cc-b919-8bc35c0e2009","ios":"levelo://app?vid=532654a0-4b95-48cc-b919-8bc35c0e2009"},"vehicle_type_id":"4","last_reported":1707013052,"current_range_meters":30800,"station_id":"ce4bgrh2rcd13ifvqc8g","pricing_plan_id":"free"},{"bike_id":"85b3887b-a606-409c-a4e1-4b7556ee044e","system_id":"levelo_inurba_marseille","lat":43.301939,"lon":5.366286,"is_reserved":false,"is_disabled":false,"rental_uris":{"android":"levelo://app?vid=85b3887b-a606-409c-a4e1-4b7556ee044e","ios":"levelo://app?vid=85b3887b-a606-409c-a4e1-4b7556ee044e"},"vehicle_type_id":"4","last_reported":1707013052,"current_range_meters":31200,"station_id":"ce4bgrh2rcd13ifvqc8g","pricing_plan_id":"free"},{"bike_id":"d488ba8d-4ea0-4e0a-87b9-33af2ee526c6","system_id":"levelo_inurba_marseille","lat":43.301939,"lon":5.366286,"is_reserved":false,"is_disabled":false,"rental_uris":{"android":"levelo://app?vid=d488ba8d-4ea0-4e0a-87b9-33af2ee526c6","ios":"levelo://app?vid=d488ba8d-4ea0-4e0a-87b9-33af2ee526c6"},"vehicle_type_id":"4","last_reported":1707013052,"current_range_meters":10400,"station_id":"ce4bgrh2rcd13ifvqc8g","pricing_plan_id":"free"},{"bike_id":"735c50ad-d80a-4ca6-88c3-abdb3c3fced6","system_id":"levelo_inurba_marseille","lat":43.301939,"lon":5.366286,"is_reserved":false,"is_disabled":false,"rental_uris":{"android":"levelo://app?vid=735c50ad-d80a-4ca6-88c3-abdb3c3fced6","ios":"levelo://app?vid=735c50ad-d80a-4ca6-88c3-abdb3c3fced6"},"vehicle_type_id":"4","last_reported":1707013052,"current_range_meters":5600,"station_id":"ce4bgrh2rcd13ifvqc8g","pricing_plan_id":"free"},{"bike_id":"1ac3ac2b-060d-4273-907a-e22467b79676","system_id":"levelo_inurba_marseille","lat":43.308012,"lon":5.381511,"is_reserved":false,"is_disabled":false,"rental_uris":{"android":"levelo://app?vid=1ac3ac2b-060d-4273-907a-e22467b79676","ios":"levelo://app?vid=1ac3ac2b-060d-4273-907a-e22467b79676"},"vehicle_type_id":"4","last_reported":1707013052,"current_range_meters":27200,"station_id":"ce4bgt12rcd13ifvqce0","pricing_plan_id":"free"},{"bike_id":"d9b15015-58df-4e5e-90a6-bed6af315990","system_id":"levelo_inurba_marseille","lat":43.308012,"lon":5.381511,"is_reserved":false,"is_disabled":false,"rental_uris":{"android":"levelo://app?vid=d9b15015-58df-4e5e-90a6-bed6af315990","ios":"levelo://app?vid=d9b15015-58df-4e5e-90a6-bed6af315990"},"vehicle_type_id":"4","last_reported":1707013052,"current_range_meters":7200,"station_id":"ce4bgt12rcd13ifvqce0","pricing_plan_id":"free"},{"bike_id":"8452c01c-6f80-47e4-8e65-81fe32e6421a","system_id":"levelo_inurba_marseille","lat":43.308012,"lon":5.381511,"is_reserved":false,"is_disabled":false,"rental_uris":{"android":"levelo://app?vid=8452c01c-6f80-47e4-8e65-81fe32e6421a","ios":"levelo://app?vid=8452c01c-6f80-47e4-8e65-81fe32e6421a"},"vehicle_type_id":"4","last_reported":1707013052,"current_range_meters":26800,"station_id":"ce4bgt12rcd13ifvqce0","pricing_plan_id":"free"},{"bike_id":"1b248245-4d7d-4089-b9e9-554694224fb4","system_id":"levelo_inurba_marseille","lat":43.308012,"lon":5.381511,"is_reserved":false,"is_disabled":false,"rental_uris":{"android":"levelo://app?vid=1b248245-4d7d-4089-b9e9-554694224fb4","ios":"levelo://app?vid=1b248245-4d7d-4089-b9e9-554694224fb4"},"vehicle_type_id":"4","last_reported":1707013052,"current_range_meters":0,"station_id":"ce4bgt12rcd13ifvqce0","pricing_plan_id":"free"},{"bike_id":"9feeb662-d29f-4e1d-bb77-50b30e144a5a","system_id":"levelo_inurba_marseille","lat":43.308012,"lon":5.381511,"is_reserved":false,"is_disabled":false,"rental_uris":{"android":"levelo://app?vid=9feeb662-d29f-4e1d-bb77-50b30e144a5a","ios":"levelo://app?vid=9feeb662-d29f-4e1d-bb77-50b30e144a5a"},"vehicle_type_id":"4","last_reported":1707013052,"current_range_meters":30800,"station_id":"ce4bgt12rcd13ifvqce0","pricing_plan_id":"free"},{"bike_id":"d14e377e-facc-466c-8ea7-3fe5f4bb8ae6","system_id":"levelo_inurba_marseille","lat":43.308012,"lon":5.381511,"is_reserved":false,"is_disabled":false,"rental_uris":{"android":"levelo://app?vid=d14e377e-facc-466c-8ea7-3fe5f4bb8ae6","ios":"levelo://app?vid=d14e377e-facc-466c-8ea7-3fe5f4bb8ae6"},"vehicle_type_id":"4","last_reported":1707013052,"current_range_meters":0,"station_id":"ce4bgt12rcd13ifvqce0","pricing_plan_id":"free"},{"bike_id":"46e7d8b1-fdca-4c11-bcd7-457d99877fdd","system_id":"levelo_inurba_marseille","lat":43.308012,"lon":5.381511,"is_reserved":false,"is_disabled":false,"rental_uris":{"android":"levelo://app?vid=46e7d8b1-fdca-4c11-bcd7-457d99877fdd","ios":"levelo://app?vid=46e7d8b1-fdca-4c11-bcd7-457d99877fdd"},"vehicle_type_id":"4","last_reported":1707013052,"current_range_meters":16400,"station_id":"ce4bgt12rcd13ifvqce0","pricing_plan_id":"free"},{"bike_id":"4a645b21-67d7-4c91-ad0d-cc16b79b5dfa","system_id":"levelo_inurba_marseille","lat":43.308012,"lon":5.381511,"is_reserved":false,"is_disabled":false,"rental_uris":{"android":"levelo://app?vid=4a645b21-67d7-4c91-ad0d-cc16b79b5dfa","ios":"levelo://app?vid=4a645b21-67d7-4c91-ad0d-cc16b79b5dfa"},"vehicle_type_id":"4","last_reported":1707013052,"current_range_meters":5600,"station_id":"ce4bgt12rcd13ifvqce0","pricing_plan_id":"free"},{"bike_id":"83a04252-ed26-4653-923f-6a8127a535e7","system_id":"levelo_inurba_marseille","lat":43.308012,"lon":5.381511,"is_reserved":false,"is_disabled":false,"rental_uris":{"android":"levelo://app?vid=83a04252-ed26-4653-923f-6a8127a535e7","ios":"levelo://app?vid=83a04252-ed26-4653-923f-6a8127a535e7"},"vehicle_type_id":"4","last_reported":1707013052,"current_range_meters":18400,"station_id":"ce4bgt12rcd13ifvqce0","pricing_plan_id":"free"},{"bike_id":"b7bd530a-22b9-49ae-a793-92ae9808f53f","system_id":"levelo_inurba_marseille","lat":43.30473,"lon":5.3789,"is_reserved":false,"is_disabled":false,"rental_uris":{"android":"levelo://app?vid=b7bd530a-22b9-49ae-a793-92ae9808f53f","ios":"levelo://app?vid=b7bd530a-22b9-49ae-a793-92ae9808f53f"},"vehicle_type_id":"4","last_reported":1707013052,"current_range_meters":22000,"station_id":"ce4bgup2rcd13ifvqcn0","pricing_plan_id":"free"},{"bike_id":"add2213e-2b08-42e9-8f3f-19ce416d5222","system_id":"levelo_inurba_marseille","lat":43.308012,"lon":5.381511,"is_reserved":false,"is_disabled":false,"rental_uris":{"android":"levelo://app?vid=add2213e-2b08-42e9-8f3f-19ce416d5222","ios":"levelo://app?vid=add2213e-2b08-42e9-8f3f-19ce416d5222"},"vehicle_type_id":"4","last_reported":1707013052,"current_range_meters":26000,"station_id":"ce4bgt12rcd13ifvqce0","pricing_plan_id":"free"},{"bike_id":"e3d3782c-aad7-4ee4-839c-29342838b574","system_id":"levelo_inurba_marseille","lat":43.324771,"lon":5.36557,"is_reserved":false,"is_disabled":false,"rental_uris":{"android":"levelo://app?vid=e3d3782c-aad7-4ee4-839c-29342838b574","ios":"levelo://app?vid=e3d3782c-aad7-4ee4-839c-29342838b574"},"vehicle_type_id":"4","last_reported":1707013052,"current_range_meters":14000,"station_id":"ce4bhs12rcd13ifvqhvg","pricing_plan_id":"free"},{"bike_id":"bc2249d4-0722-4283-8e88-7641cdb8764c","system_id":"levelo_inurba_marseille","lat":43.310769,"lon":5.383497,"is_reserved":false,"is_disabled":false,"rental_uris":{"android":"levelo://app?vid=bc2249d4-0722-4283-8e88-7641cdb8764c","ios":"levelo://app?vid=bc2249d4-0722-4283-8e88-7641cdb8764c"},"vehicle_type_id":"4","last_reported":1707013052,"current_range_meters":2800,"station_id":"ce4bgv92rcd13ifvqcr0","pricing_plan_id":"free"},{"bike_id":"34442e98-ea6b-4adf-a847-608b542204b0","system_id":"levelo_inurba_marseille","lat":43.31073,"lon":5.38354,"is_reserved":false,"is_disabled":false,"rental_uris":{"android":"levelo://app?vid=34442e98-ea6b-4adf-a847-608b542204b0","ios":"levelo://app?vid=34442e98-ea6b-4adf-a847-608b542204b0"},"vehicle_type_id":"4","last_reported":1707013052,"current_range_meters":12000,"station_id":"ce4bgv92rcd13ifvqcr0","pricing_plan_id":"free"},{"bike_id":"b2528ce2-cd5a-4e4f-874d-5dc5e3fe3f26","system_id":"levelo_inurba_marseille","lat":43.302784,"lon":5.377158,"is_reserved":false,"is_disabled":false,"rental_uris":{"android":"levelo://app?vid=b2528ce2-cd5a-4e4f-874d-5dc5e3fe3f26","ios":"levelo://app?vid=b2528ce2-cd5a-4e4f-874d-5dc5e3fe3f26"},"vehicle_type_id":"4","last_reported":1707013052,"current_range_meters":23600,"station_id":"ce4bguh2rcd13ifvqcj0","pricing_plan_id":"free"},{"bike_id":"2f6fdc65-9079-4d8a-9107-7e3132f8624a","system_id":"levelo_inurba_marseille","lat":43.301429,"lon":5.37413,"is_reserved":false,"is_disabled":false,"rental_uris":{"android":"levelo://app?vid=2f6fdc65-9079-4d8a-9107-7e3132f8624a","ios":"levelo://app?vid=2f6fdc65-9079-4d8a-9107-7e3132f8624a"},"vehicle_type_id":"4","last_reported":1707013052,"current_range_meters":21200,"station_id":"ce4bgs92rcd13ifvqcc0","pricing_plan_id":"free"},{"bike_id":"14ef27a6-2e11-4a1f-b9a3-821757228cf4","system_id":"levelo_inurba_marseille","lat":43.319935,"lon":5.381699,"is_reserved":false,"is_disabled":false,"rental_uris":{"android":"levelo://app?vid=14ef27a6-2e11-4a1f-b9a3-821757228cf4","ios":"levelo://app?vid=14ef27a6-2e11-4a1f-b9a3-821757228cf4"},"vehicle_type_id":"4","last_reported":1707013052,"current_range_meters":21200,"station_id":"ce4bhr12rcd13ifvqhpg","pricing_plan_id":"free"},{"bike_id":"3b8d172d-5750-4d99-b9dd-debd7a44b916","system_id":"levelo_inurba_marseille","lat":43.319935,"lon":5.381699,"is_reserved":false,"is_disabled":false,"rental_uris":{"android":"levelo://app?vid=3b8d172d-5750-4d99-b9dd-debd7a44b916","ios":"levelo://app?vid=3b8d172d-5750-4d99-b9dd-debd7a44b916"},"vehicle_type_id":"4","last_reported":1707013052,"current_range_meters":6800,"station_id":"ce4bhr12rcd13ifvqhpg","pricing_plan_id":"free"},{"bike_id":"a6128042-25ec-43f3-84a1-f5c0259ed022","system_id":"levelo_inurba_marseille","lat":43.319935,"lon":5.381699,"is_reserved":false,"is_disabled":false,"rental_uris":{"android":"levelo://app?vid=a6128042-25ec-43f3-84a1-f5c0259ed022","ios":"levelo://app?vid=a6128042-25ec-43f3-84a1-f5c0259ed022"},"vehicle_type_id":"4","last_reported":1707013052,"current_range_meters":0,"station_id":"ce4bhr12rcd13ifvqhpg","pricing_plan_id":"free"},{"bike_id":"245843ad-bfeb-465e-a2d5-e97ffa7d3f53","system_id":"levelo_inurba_marseille","lat":43.31346,"lon":5.38481,"is_reserved":false,"is_disabled":false,"rental_uris":{"android":"levelo://app?vid=245843ad-bfeb-465e-a2d5-e97ffa7d3f53","ios":"levelo://app?vid=245843ad-bfeb-465e-a2d5-e97ffa7d3f53"},"vehicle_type_id":"4","last_reported":1707013052,"current_range_meters":26800,"station_id":"ce4bgt92rcd13ifvqcf0","pricing_plan_id":"free"},{"bike_id":"661461d7-eb6d-45a0-a026-7ec1903cd028","system_id":"levelo_inurba_marseille","lat":43.313621,"lon":5.384921,"is_reserved":false,"is_disabled":false,"rental_uris":{"android":"levelo://app?vid=661461d7-eb6d-45a0-a026-7ec1903cd028","ios":"levelo://app?vid=661461d7-eb6d-45a0-a026-7ec1903cd028"},"vehicle_type_id":"4","last_reported":1707013052,"current_range_meters":31200,"station_id":"ce4bgt92rcd13ifvqcf0","pricing_plan_id":"free"},{"bike_id":"49803856-80b1-4437-ac3d-51376c275408","system_id":"levelo_inurba_marseille","lat":43.3136,"lon":5.38494,"is_reserved":false,"is_disabled":false,"rental_uris":{"android":"levelo://app?vid=49803856-80b1-4437-ac3d-51376c275408","ios":"levelo://app?vid=49803856-80b1-4437-ac3d-51376c275408"},"vehicle_type_id":"4","last_reported":1707013052,"current_range_meters":2800,"station_id":"ce4bgt92rcd13ifvqcf0","pricing_plan_id":"free"},{"bike_id":"ca0c5030-70d0-43db-aed9-13e4b8bf6323","system_id":"levelo_inurba_marseille","lat":43.313571,"lon":5.384829,"is_reserved":false,"is_disabled":false,"rental_uris":{"android":"levelo://app?vid=ca0c5030-70d0-43db-aed9-13e4b8bf6323","ios":"levelo://app?vid=ca0c5030-70d0-43db-aed9-13e4b8bf6323"},"vehicle_type_id":"4","last_reported":1707013052,"current_range_meters":30800,"station_id":"ce4bgt92rcd13ifvqcf0","pricing_plan_id":"free"},{"bike_id":"06391db0-a60a-4b0d-b11f-b43df45ffd73","system_id":"levelo_inurba_marseille","lat":43.313602,"lon":5.384982,"is_reserved":false,"is_disabled":false,"rental_uris":{"android":"levelo://app?vid=06391db0-a60a-4b0d-b11f-b43df45ffd73","ios":"levelo://app?vid=06391db0-a60a-4b0d-b11f-b43df45ffd73"},"vehicle_type_id":"4","last_reported":1707013052,"current_range_meters":4400,"station_id":"ce4bgt92rcd13ifvqcf0","pricing_plan_id":"free"},{"bike_id":"1d6a0107-7b00-4866-b540-38c194d7fa02","system_id":"levelo_inurba_marseille","lat":43.313635,"lon":5.38498,"is_reserved":false,"is_disabled":false,"rental_uris":{"android":"levelo://app?vid=1d6a0107-7b00-4866-b540-38c194d7fa02","ios":"levelo://app?vid=1d6a0107-7b00-4866-b540-38c194d7fa02"},"vehicle_type_id":"4","last_reported":1707013052,"current_range_meters":16400,"station_id":"","pricing_plan_id":"free"},{"bike_id":"04d8e762-018f-47f4-8c0f-b4d5f83477bf","system_id":"levelo_inurba_marseille","lat":43.31369,"lon":5.385003,"is_reserved":false,"is_disabled":false,"rental_uris":{"android":"levelo://app?vid=04d8e762-018f-47f4-8c0f-b4d5f83477bf","ios":"levelo://app?vid=04d8e762-018f-47f4-8c0f-b4d5f83477bf"},"vehicle_type_id":"4","last_reported":1707013052,"current_range_meters":17200,"station_id":"ce4bgt92rcd13ifvqcf0","pricing_plan_id":"free"},{"bike_id":"a5a725cd-a67b-4628-9ca8-9e294bd635a7","system_id":"levelo_inurba_marseille","lat":43.313687,"lon":5.385048,"is_reserved":false,"is_disabled":false,"rental_uris":{"android":"levelo://app?vid=a5a725cd-a67b-4628-9ca8-9e294bd635a7","ios":"levelo://app?vid=a5a725cd-a67b-4628-9ca8-9e294bd635a7"},"vehicle_type_id":"4","last_reported":1707013052,"current_range_meters":6000,"station_id":"ce4bgt92rcd13ifvqcf0","pricing_plan_id":"free"},{"bike_id":"fcdb2512-ec04-4403-99f6-b6d256439b3c","system_id":"levelo_inurba_marseille","lat":43.299222,"lon":5.365554,"is_reserved":false,"is_disabled":false,"rental_uris":{"android":"levelo://app?vid=fcdb2512-ec04-4403-99f6-b6d256439b3c","ios":"levelo://app?vid=fcdb2512-ec04-4403-99f6-b6d256439b3c"},"vehicle_type_id":"4","last_reported":1707013052,"current_range_meters":5200,"station_id":"ce4bgm92rcd13ifvqbr0","pricing_plan_id":"free"},{"bike_id":"ce4e228d-2bc6-450d-89dd-e579b99bbc5f","system_id":"levelo_inurba_marseille","lat":43.299724,"lon":5.371829,"is_reserved":false,"is_disabled":false,"rental_uris":{"android":"levelo://app?vid=ce4e228d-2bc6-450d-89dd-e579b99bbc5f","ios":"levelo://app?vid=ce4e228d-2bc6-450d-89dd-e579b99bbc5f"},"vehicle_type_id":"4","last_reported":1707013052,"current_range_meters":17200,"station_id":"ce4bgr92rcd13ifvqc7g","pricing_plan_id":"free"},{"bike_id":"9956cb6c-f2fa-4c38-8c96-dd03539573e9","system_id":"levelo_inurba_marseille","lat":43.299363,"lon":5.365417,"is_reserved":false,"is_disabled":false,"rental_uris":{"android":"levelo://app?vid=9956cb6c-f2fa-4c38-8c96-dd03539573e9","ios":"levelo://app?vid=9956cb6c-f2fa-4c38-8c96-dd03539573e9"},"vehicle_type_id":"4","last_reported":1707013052,"current_range_meters":10800,"station_id":"ce4bgm92rcd13ifvqbr0","pricing_plan_id":"free"},{"bike_id":"b5d6fbee-6a1a-48cd-a2a3-6cb61bfd28bd","system_id":"levelo_inurba_marseille","lat":43.299222,"lon":5.365554,"is_reserved":false,"is_disabled":false,"rental_uris":{"android":"levelo://app?vid=b5d6fbee-6a1a-48cd-a2a3-6cb61bfd28bd","ios":"levelo://app?vid=b5d6fbee-6a1a-48cd-a2a3-6cb61bfd28bd"},"vehicle_type_id":"4","last_reported":1707013052,"current_range_meters":2000,"station_id":"ce4bgm92rcd13ifvqbr0","pricing_plan_id":"free"},{"bike_id":"45411c9c-df60-4ad5-ae2b-9d258e385b28","system_id":"levelo_inurba_marseille","lat":43.291994,"lon":5.357886,"is_reserved":false,"is_disabled":false,"rental_uris":{"android":"levelo://app?vid=45411c9c-df60-4ad5-ae2b-9d258e385b28","ios":"levelo://app?vid=45411c9c-df60-4ad5-ae2b-9d258e385b28"},"vehicle_type_id":"4","last_reported":1707013052,"current_range_meters":21200,"station_id":"ce4bhb12rcd13ifvqel0","pricing_plan_id":"free"},{"bike_id":"d12a1c3f-6938-44d8-b811-18e98db1013e","system_id":"levelo_inurba_marseille","lat":43.299932,"lon":5.375906,"is_reserved":false,"is_disabled":false,"rental_uris":{"android":"levelo://app?vid=d12a1c3f-6938-44d8-b811-18e98db1013e","ios":"levelo://app?vid=d12a1c3f-6938-44d8-b811-18e98db1013e"},"vehicle_type_id":"4","last_reported":1707013052,"current_range_meters":0,"station_id":"","pricing_plan_id":"free"},{"bike_id":"d7c6e41a-fc98-4e65-bad5-a1cf1e7402b7","system_id":"levelo_inurba_marseille","lat":43.30542,"lon":5.384294,"is_reserved":false,"is_disabled":false,"rental_uris":{"android":"levelo://app?vid=d7c6e41a-fc98-4e65-bad5-a1cf1e7402b7","ios":"levelo://app?vid=d7c6e41a-fc98-4e65-bad5-a1cf1e7402b7"},"vehicle_type_id":"4","last_reported":1707013052,"current_range_meters":31200,"station_id":"ce4bgg92rcd13ifvqb30","pricing_plan_id":"free"},{"bike_id":"235df2d7-87bf-4971-94de-e10700107448","system_id":"levelo_inurba_marseille","lat":43.305387,"lon":5.384283,"is_reserved":false,"is_disabled":false,"rental_uris":{"android":"levelo://app?vid=235df2d7-87bf-4971-94de-e10700107448","ios":"levelo://app?vid=235df2d7-87bf-4971-94de-e10700107448"},"vehicle_type_id":"4","last_reported":1707013052,"current_range_meters":21600,"station_id":"ce4bgg92rcd13ifvqb30","pricing_plan_id":"free"},{"bike_id":"48c00c8c-8b55-403a-9f78-a1eefe0936d3","system_id":"levelo_inurba_marseille","lat":43.305364,"lon":5.384119,"is_reserved":false,"is_disabled":false,"rental_uris":{"android":"levelo://app?vid=48c00c8c-8b55-403a-9f78-a1eefe0936d3","ios":"levelo://app?vid=48c00c8c-8b55-403a-9f78-a1eefe0936d3"},"vehicle_type_id":"4","last_reported":1707013052,"current_range_meters":30000,"station_id":"ce4bgg92rcd13ifvqb30","pricing_plan_id":"free"},{"bike_id":"09010240-320e-4a23-85e5-38e922a4790e","system_id":"levelo_inurba_marseille","lat":43.311722,"lon":5.387247,"is_reserved":false,"is_disabled":false,"rental_uris":{"android":"levelo://app?vid=09010240-320e-4a23-85e5-38e922a4790e","ios":"levelo://app?vid=09010240-320e-4a23-85e5-38e922a4790e"},"vehicle_type_id":"4","last_reported":1707013052,"current_range_meters":27200,"station_id":"ce4bgv12rcd13ifvqcp0","pricing_plan_id":"free"},{"bike_id":"1eeed3ec-ee0c-4b35-bd80-fbb0c5c60a1e","system_id":"levelo_inurba_marseille","lat":43.311722,"lon":5.387247,"is_reserved":false,"is_disabled":false,"rental_uris":{"android":"levelo://app?vid=1eeed3ec-ee0c-4b35-bd80-fbb0c5c60a1e","ios":"levelo://app?vid=1eeed3ec-ee0c-4b35-bd80-fbb0c5c60a1e"},"vehicle_type_id":"4","last_reported":1707013052,"current_range_meters":26400,"station_id":"ce4bgv12rcd13ifvqcp0","pricing_plan_id":"free"},{"bike_id":"0cade939-848b-4040-ae24-b51ca5bac5bb","system_id":"levelo_inurba_marseille","lat":43.299243,"lon":5.374807,"is_reserved":false,"is_disabled":false,"rental_uris":{"android":"levelo://app?vid=0cade939-848b-4040-ae24-b51ca5bac5bb","ios":"levelo://app?vid=0cade939-848b-4040-ae24-b51ca5bac5bb"},"vehicle_type_id":"4","last_reported":1707013052,"current_range_meters":24400,"station_id":"ce4bgjh2rcd13ifvqbg0","pricing_plan_id":"free"},{"bike_id":"6fb6c590-012d-4557-8da6-153a5ac38e80","system_id":"levelo_inurba_marseille","lat":43.311722,"lon":5.387247,"is_reserved":false,"is_disabled":false,"rental_uris":{"android":"levelo://app?vid=6fb6c590-012d-4557-8da6-153a5ac38e80","ios":"levelo://app?vid=6fb6c590-012d-4557-8da6-153a5ac38e80"},"vehicle_type_id":"4","last_reported":1707013052,"current_range_meters":12000,"station_id":"ce4bgv12rcd13ifvqcp0","pricing_plan_id":"free"},{"bike_id":"e6fcc903-8abe-4b43-af7c-0978bdc00112","system_id":"levelo_inurba_marseille","lat":43.311722,"lon":5.387247,"is_reserved":false,"is_disabled":false,"rental_uris":{"android":"levelo://app?vid=e6fcc903-8abe-4b43-af7c-0978bdc00112","ios":"levelo://app?vid=e6fcc903-8abe-4b43-af7c-0978bdc00112"},"vehicle_type_id":"4","last_reported":1707013052,"current_range_meters":27200,"station_id":"ce4bgv12rcd13ifvqcp0","pricing_plan_id":"free"},{"bike_id":"2a349993-a2ba-453e-98f3-13acbad55637","system_id":"levelo_inurba_marseille","lat":43.311722,"lon":5.387247,"is_reserved":false,"is_disabled":false,"rental_uris":{"android":"levelo://app?vid=2a349993-a2ba-453e-98f3-13acbad55637","ios":"levelo://app?vid=2a349993-a2ba-453e-98f3-13acbad55637"},"vehicle_type_id":"4","last_reported":1707013052,"current_range_meters":19200,"station_id":"ce4bgv12rcd13ifvqcp0","pricing_plan_id":"free"},{"bike_id":"12641b50-7ae9-414f-b457-bf8a84eb942e","system_id":"levelo_inurba_marseille","lat":43.311722,"lon":5.387247,"is_reserved":false,"is_disabled":false,"rental_uris":{"android":"levelo://app?vid=12641b50-7ae9-414f-b457-bf8a84eb942e","ios":"levelo://app?vid=12641b50-7ae9-414f-b457-bf8a84eb942e"},"vehicle_type_id":"4","last_reported":1707013052,"current_range_meters":7200,"station_id":"ce4bgv12rcd13ifvqcp0","pricing_plan_id":"free"},{"bike_id":"216b855f-e444-42bd-9d2d-29b07dc056b3","system_id":"levelo_inurba_marseille","lat":43.311722,"lon":5.387247,"is_reserved":false,"is_disabled":false,"rental_uris":{"android":"levelo://app?vid=216b855f-e444-42bd-9d2d-29b07dc056b3","ios":"levelo://app?vid=216b855f-e444-42bd-9d2d-29b07dc056b3"},"vehicle_type_id":"4","last_reported":1707013052,"current_range_meters":29200,"station_id":"ce4bgv12rcd13ifvqcp0","pricing_plan_id":"free"},{"bike_id":"9c695bfc-4e11-46a2-a541-d704e8acb052","system_id":"levelo_inurba_marseille","lat":43.311722,"lon":5.387247,"is_reserved":false,"is_disabled":false,"rental_uris":{"android":"levelo://app?vid=9c695bfc-4e11-46a2-a541-d704e8acb052","ios":"levelo://app?vid=9c695bfc-4e11-46a2-a541-d704e8acb052"},"vehicle_type_id":"4","last_reported":1707013052,"current_range_meters":2400,"station_id":"ce4bgv12rcd13ifvqcp0","pricing_plan_id":"free"},{"bike_id":"f83569fd-48a4-48f7-84b4-43c9a58ddbfe","system_id":"levelo_inurba_marseille","lat":43.311722,"lon":5.387247,"is_reserved":false,"is_disabled":false,"rental_uris":{"android":"levelo://app?vid=f83569fd-48a4-48f7-84b4-43c9a58ddbfe","ios":"levelo://app?vid=f83569fd-48a4-48f7-84b4-43c9a58ddbfe"},"vehicle_type_id":"4","last_reported":1707013052,"current_range_meters":15200,"station_id":"ce4bgv12rcd13ifvqcp0","pricing_plan_id":"free"},{"bike_id":"9aa8c94d-23c6-4eb5-86c5-006ee8bdb2ed","system_id":"levelo_inurba_marseille","lat":43.311722,"lon":5.387247,"is_reserved":false,"is_disabled":false,"rental_uris":{"android":"levelo://app?vid=9aa8c94d-23c6-4eb5-86c5-006ee8bdb2ed","ios":"levelo://app?vid=9aa8c94d-23c6-4eb5-86c5-006ee8bdb2ed"},"vehicle_type_id":"4","last_reported":1707013052,"current_range_meters":12000,"station_id":"ce4bgv12rcd13ifvqcp0","pricing_plan_id":"free"},{"bike_id":"a28f0eb8-6ba7-4a7e-9d96-6aa8c8ab36d0","system_id":"levelo_inurba_marseille","lat":43.322872,"lon":5.382756,"is_reserved":false,"is_disabled":false,"rental_uris":{"android":"levelo://app?vid=a28f0eb8-6ba7-4a7e-9d96-6aa8c8ab36d0","ios":"levelo://app?vid=a28f0eb8-6ba7-4a7e-9d96-6aa8c8ab36d0"},"vehicle_type_id":"4","last_reported":1707013052,"current_range_meters":30400,"station_id":"ce4bhr12rcd13ifvqhqg","pricing_plan_id":"free"},{"bike_id":"d3067c66-e7e2-46f1-8f0d-eabc61ae0d41","system_id":"levelo_inurba_marseille","lat":43.322851,"lon":5.382679,"is_reserved":false,"is_disabled":false,"rental_uris":{"android":"levelo://app?vid=d3067c66-e7e2-46f1-8f0d-eabc61ae0d41","ios":"levelo://app?vid=d3067c66-e7e2-46f1-8f0d-eabc61ae0d41"},"vehicle_type_id":"4","last_reported":1707013052,"current_range_meters":6000,"station_id":"ce4bhr12rcd13ifvqhqg","pricing_plan_id":"free"},{"bike_id":"8b023912-5267-4e1c-a403-4d70b425cebe","system_id":"levelo_inurba_marseille","lat":43.32287,"lon":5.38277,"is_reserved":false,"is_disabled":false,"rental_uris":{"android":"levelo://app?vid=8b023912-5267-4e1c-a403-4d70b425cebe","ios":"levelo://app?vid=8b023912-5267-4e1c-a403-4d70b425cebe"},"vehicle_type_id":"4","last_reported":1707013052,"current_range_meters":30400,"station_id":"ce4bhr12rcd13ifvqhqg","pricing_plan_id":"free"},{"bike_id":"dec8b008-992e-4c64-b540-1c9b2b5e6fc3","system_id":"levelo_inurba_marseille","lat":43.322899,"lon":5.382796,"is_reserved":false,"is_disabled":false,"rental_uris":{"android":"levelo://app?vid=dec8b008-992e-4c64-b540-1c9b2b5e6fc3","ios":"levelo://app?vid=dec8b008-992e-4c64-b540-1c9b2b5e6fc3"},"vehicle_type_id":"4","last_reported":1707013052,"current_range_meters":4000,"station_id":"ce4bhr12rcd13ifvqhqg","pricing_plan_id":"free"},{"bike_id":"1900e2ea-9239-49b1-933e-57903fa99707","system_id":"levelo_inurba_marseille","lat":43.32826,"lon":5.36695,"is_reserved":false,"is_disabled":false,"rental_uris":{"android":"levelo://app?vid=1900e2ea-9239-49b1-933e-57903fa99707","ios":"levelo://app?vid=1900e2ea-9239-49b1-933e-57903fa99707"},"vehicle_type_id":"4","last_reported":1707013052,"current_range_meters":12800,"station_id":"ce4bhs92rcd13ifvqi0g","pricing_plan_id":"free"},{"bike_id":"107712ff-eb45-4233-82fe-b868c05aeb11","system_id":"levelo_inurba_marseille","lat":43.328371,"lon":5.366909,"is_reserved":false,"is_disabled":false,"rental_uris":{"android":"levelo://app?vid=107712ff-eb45-4233-82fe-b868c05aeb11","ios":"levelo://app?vid=107712ff-eb45-4233-82fe-b868c05aeb11"},"vehicle_type_id":"4","last_reported":1707013052,"current_range_meters":4800,"station_id":"ce4bhs92rcd13ifvqi0g","pricing_plan_id":"free"},{"bike_id":"6af1898a-f885-4ec0-ab51-15ebeeb63a8c","system_id":"levelo_inurba_marseille","lat":43.328371,"lon":5.366909,"is_reserved":false,"is_disabled":false,"rental_uris":{"android":"levelo://app?vid=6af1898a-f885-4ec0-ab51-15ebeeb63a8c","ios":"levelo://app?vid=6af1898a-f885-4ec0-ab51-15ebeeb63a8c"},"vehicle_type_id":"4","last_reported":1707013052,"current_range_meters":3200,"station_id":"ce4bhs92rcd13ifvqi0g","pricing_plan_id":"free"},{"bike_id":"757c94ef-0260-4e65-8f42-9a2ff02436ff","system_id":"levelo_inurba_marseille","lat":43.32835,"lon":5.36683,"is_reserved":false,"is_disabled":false,"rental_uris":{"android":"levelo://app?vid=757c94ef-0260-4e65-8f42-9a2ff02436ff","ios":"levelo://app?vid=757c94ef-0260-4e65-8f42-9a2ff02436ff"},"vehicle_type_id":"4","last_reported":1707013052,"current_range_meters":0,"station_id":"ce4bhs92rcd13ifvqi0g","pricing_plan_id":"free"},{"bike_id":"c05e6bd0-729f-40b0-b240-c0e0b0ad9d47","system_id":"levelo_inurba_marseille","lat":43.328371,"lon":5.366909,"is_reserved":false,"is_disabled":false,"rental_uris":{"android":"levelo://app?vid=c05e6bd0-729f-40b0-b240-c0e0b0ad9d47","ios":"levelo://app?vid=c05e6bd0-729f-40b0-b240-c0e0b0ad9d47"},"vehicle_type_id":"4","last_reported":1707013052,"current_range_meters":16000,"station_id":"ce4bhs92rcd13ifvqi0g","pricing_plan_id":"free"},{"bike_id":"4c60f124-983d-4709-a95c-31ae5c64ae30","system_id":"levelo_inurba_marseille","lat":43.328397,"lon":5.366731,"is_reserved":false,"is_disabled":false,"rental_uris":{"android":"levelo://app?vid=4c60f124-983d-4709-a95c-31ae5c64ae30","ios":"levelo://app?vid=4c60f124-983d-4709-a95c-31ae5c64ae30"},"vehicle_type_id":"4","last_reported":1707013052,"current_range_meters":0,"station_id":"","pricing_plan_id":"free"},{"bike_id":"a46cebf8-b22b-47bd-be3d-1a9736717336","system_id":"levelo_inurba_marseille","lat":43.297163,"lon":5.365866,"is_reserved":false,"is_disabled":false,"rental_uris":{"android":"levelo://app?vid=a46cebf8-b22b-47bd-be3d-1a9736717336","ios":"levelo://app?vid=a46cebf8-b22b-47bd-be3d-1a9736717336"},"vehicle_type_id":"4","last_reported":1707013052,"current_range_meters":30400,"station_id":"ce4bgn12rcd13ifvqbt0","pricing_plan_id":"free"},{"bike_id":"e71dbeb2-bdcd-41a9-9e92-b0477debf34d","system_id":"levelo_inurba_marseille","lat":43.296481,"lon":5.374716,"is_reserved":false,"is_disabled":false,"rental_uris":{"android":"levelo://app?vid=e71dbeb2-bdcd-41a9-9e92-b0477debf34d","ios":"levelo://app?vid=e71dbeb2-bdcd-41a9-9e92-b0477debf34d"},"vehicle_type_id":"4","last_reported":1707013052,"current_range_meters":14800,"station_id":"","pricing_plan_id":"free"},{"bike_id":"1a42cab6-ba6f-491e-8359-747738ea0efd","system_id":"levelo_inurba_marseille","lat":43.309589,"lon":5.390258,"is_reserved":false,"is_disabled":false,"rental_uris":{"android":"levelo://app?vid=1a42cab6-ba6f-491e-8359-747738ea0efd","ios":"levelo://app?vid=1a42cab6-ba6f-491e-8359-747738ea0efd"},"vehicle_type_id":"4","last_reported":1707013052,"current_range_meters":11600,"station_id":"ce4bgup2rcd13ifvqco0","pricing_plan_id":"free"},{"bike_id":"756fa10f-c21c-4a8b-bd0e-3e8cd9491b53","system_id":"levelo_inurba_marseille","lat":43.299028,"lon":5.381509,"is_reserved":false,"is_disabled":false,"rental_uris":{"android":"levelo://app?vid=756fa10f-c21c-4a8b-bd0e-3e8cd9491b53","ios":"levelo://app?vid=756fa10f-c21c-4a8b-bd0e-3e8cd9491b53"},"vehicle_type_id":"4","last_reported":1707013052,"current_range_meters":26000,"station_id":"ce4bgj12rcd13ifvqbc0","pricing_plan_id":"free"},{"bike_id":"85b77fa4-36c1-48b9-bae4-74fbfc2c9e15","system_id":"levelo_inurba_marseille","lat":43.309589,"lon":5.390258,"is_reserved":false,"is_disabled":false,"rental_uris":{"android":"levelo://app?vid=85b77fa4-36c1-48b9-bae4-74fbfc2c9e15","ios":"levelo://app?vid=85b77fa4-36c1-48b9-bae4-74fbfc2c9e15"},"vehicle_type_id":"4","last_reported":1707013052,"current_range_meters":31200,"station_id":"ce4bgup2rcd13ifvqco0","pricing_plan_id":"free"},{"bike_id":"3200b5ab-aaa3-4784-8324-ca64ccee43ba","system_id":"levelo_inurba_marseille","lat":43.299028,"lon":5.381509,"is_reserved":false,"is_disabled":false,"rental_uris":{"android":"levelo://app?vid=3200b5ab-aaa3-4784-8324-ca64ccee43ba","ios":"levelo://app?vid=3200b5ab-aaa3-4784-8324-ca64ccee43ba"},"vehicle_type_id":"4","last_reported":1707013052,"current_range_meters":22800,"station_id":"ce4bgj12rcd13ifvqbc0","pricing_plan_id":"free"},{"bike_id":"c129820f-358f-41df-ad70-42bff277b5f7","system_id":"levelo_inurba_marseille","lat":43.299028,"lon":5.381509,"is_reserved":false,"is_disabled":false,"rental_uris":{"android":"levelo://app?vid=c129820f-358f-41df-ad70-42bff277b5f7","ios":"levelo://app?vid=c129820f-358f-41df-ad70-42bff277b5f7"},"vehicle_type_id":"4","last_reported":1707013052,"current_range_meters":28400,"station_id":"ce4bgj12rcd13ifvqbc0","pricing_plan_id":"free"},{"bike_id":"a72892c0-9272-4385-b581-8d4081580a77","system_id":"levelo_inurba_marseille","lat":43.317557,"lon":5.390173,"is_reserved":false,"is_disabled":false,"rental_uris":{"android":"levelo://app?vid=a72892c0-9272-4385-b581-8d4081580a77","ios":"levelo://app?vid=a72892c0-9272-4385-b581-8d4081580a77"},"vehicle_type_id":"4","last_reported":1707013052,"current_range_meters":0,"station_id":"ce4bhqp2rcd13ifvqhng","pricing_plan_id":"free"},{"bike_id":"0b49491c-81b8-4ed9-9fa4-1ac082e034fe","system_id":"levelo_inurba_marseille","lat":43.317557,"lon":5.390173,"is_reserved":false,"is_disabled":false,"rental_uris":{"android":"levelo://app?vid=0b49491c-81b8-4ed9-9fa4-1ac082e034fe","ios":"levelo://app?vid=0b49491c-81b8-4ed9-9fa4-1ac082e034fe"},"vehicle_type_id":"4","last_reported":1707013052,"current_range_meters":31200,"station_id":"ce4bhqp2rcd13ifvqhng","pricing_plan_id":"free"},{"bike_id":"af04c953-d59a-47ec-a579-562af2582526","system_id":"levelo_inurba_marseille","lat":43.317557,"lon":5.390173,"is_reserved":false,"is_disabled":false,"rental_uris":{"android":"levelo://app?vid=af04c953-d59a-47ec-a579-562af2582526","ios":"levelo://app?vid=af04c953-d59a-47ec-a579-562af2582526"},"vehicle_type_id":"4","last_reported":1707013052,"current_range_meters":18400,"station_id":"ce4bhqp2rcd13ifvqhng","pricing_plan_id":"free"},{"bike_id":"86eba5ee-3f3e-465e-879d-a26eca611b6f","system_id":"levelo_inurba_marseille","lat":43.318251,"lon":5.390197,"is_reserved":false,"is_disabled":false,"rental_uris":{"android":"levelo://app?vid=86eba5ee-3f3e-465e-879d-a26eca611b6f","ios":"levelo://app?vid=86eba5ee-3f3e-465e-879d-a26eca611b6f"},"vehicle_type_id":"4","last_reported":1707013052,"current_range_meters":19200,"station_id":"","pricing_plan_id":"free"},{"bike_id":"a1e80812-48f7-46d2-af3b-ac3f00b7cc41","system_id":"levelo_inurba_marseille","lat":43.298037,"lon":5.381066,"is_reserved":false,"is_disabled":false,"rental_uris":{"android":"levelo://app?vid=a1e80812-48f7-46d2-af3b-ac3f00b7cc41","ios":"levelo://app?vid=a1e80812-48f7-46d2-af3b-ac3f00b7cc41"},"vehicle_type_id":"4","last_reported":1707013052,"current_range_meters":21600,"station_id":"ce4bgip2rcd13ifvqbb0","pricing_plan_id":"free"},{"bike_id":"564c4abd-76d0-47ad-b0e2-8eca42e0ef8a","system_id":"levelo_inurba_marseille","lat":43.298037,"lon":5.381066,"is_reserved":false,"is_disabled":false,"rental_uris":{"android":"levelo://app?vid=564c4abd-76d0-47ad-b0e2-8eca42e0ef8a","ios":"levelo://app?vid=564c4abd-76d0-47ad-b0e2-8eca42e0ef8a"},"vehicle_type_id":"4","last_reported":1707013052,"current_range_meters":11200,"station_id":"ce4bgip2rcd13ifvqbb0","pricing_plan_id":"free"},{"bike_id":"3b1c1d9a-d81e-415c-ae8b-2b3277ee298c","system_id":"levelo_inurba_marseille","lat":43.29793,"lon":5.38098,"is_reserved":false,"is_disabled":false,"rental_uris":{"android":"levelo://app?vid=3b1c1d9a-d81e-415c-ae8b-2b3277ee298c","ios":"levelo://app?vid=3b1c1d9a-d81e-415c-ae8b-2b3277ee298c"},"vehicle_type_id":"4","last_reported":1707013052,"current_range_meters":0,"station_id":"ce4bgip2rcd13ifvqbb0","pricing_plan_id":"free"},{"bike_id":"4abb9983-06ac-44af-a396-3af90ff44fd3","system_id":"levelo_inurba_marseille","lat":43.304274,"lon":5.388873,"is_reserved":false,"is_disabled":false,"rental_uris":{"android":"levelo://app?vid=4abb9983-06ac-44af-a396-3af90ff44fd3","ios":"levelo://app?vid=4abb9983-06ac-44af-a396-3af90ff44fd3"},"vehicle_type_id":"4","last_reported":1707013052,"current_range_meters":23600,"station_id":"ce4bgk12rcd13ifvqbi0","pricing_plan_id":"free"},{"bike_id":"7979ae44-9d52-43a9-98e5-7afe384e64f1","system_id":"levelo_inurba_marseille","lat":43.304278,"lon":5.388868,"is_reserved":false,"is_disabled":false,"rental_uris":{"android":"levelo://app?vid=7979ae44-9d52-43a9-98e5-7afe384e64f1","ios":"levelo://app?vid=7979ae44-9d52-43a9-98e5-7afe384e64f1"},"vehicle_type_id":"4","last_reported":1707013052,"current_range_meters":14000,"station_id":"ce4bgk12rcd13ifvqbi0","pricing_plan_id":"free"},{"bike_id":"2729d6e8-f33a-4889-84ab-2d90adf46658","system_id":"levelo_inurba_marseille","lat":43.304274,"lon":5.388873,"is_reserved":false,"is_disabled":false,"rental_uris":{"android":"levelo://app?vid=2729d6e8-f33a-4889-84ab-2d90adf46658","ios":"levelo://app?vid=2729d6e8-f33a-4889-84ab-2d90adf46658"},"vehicle_type_id":"4","last_reported":1707013052,"current_range_meters":12400,"station_id":"ce4bgk12rcd13ifvqbi0","pricing_plan_id":"free"},{"bike_id":"dae004f9-002e-420a-bba3-f2097c334f28","system_id":"levelo_inurba_marseille","lat":43.304274,"lon":5.388873,"is_reserved":false,"is_disabled":false,"rental_uris":{"android":"levelo://app?vid=dae004f9-002e-420a-bba3-f2097c334f28","ios":"levelo://app?vid=dae004f9-002e-420a-bba3-f2097c334f28"},"vehicle_type_id":"4","last_reported":1707013052,"current_range_meters":30000,"station_id":"ce4bgk12rcd13ifvqbi0","pricing_plan_id":"free"},{"bike_id":"b74f8b9f-719e-4864-89a5-8cbe6e46514e","system_id":"levelo_inurba_marseille","lat":43.297826,"lon":5.381114,"is_reserved":false,"is_disabled":false,"rental_uris":{"android":"levelo://app?vid=b74f8b9f-719e-4864-89a5-8cbe6e46514e","ios":"levelo://app?vid=b74f8b9f-719e-4864-89a5-8cbe6e46514e"},"vehicle_type_id":"4","last_reported":1707013052,"current_range_meters":13200,"station_id":"ce4bgip2rcd13ifvqbb0","pricing_plan_id":"free"},{"bike_id":"6ccad06e-c5f9-4e58-8bb0-767d7f69720a","system_id":"levelo_inurba_marseille","lat":43.29986,"lon":5.38453,"is_reserved":false,"is_disabled":false,"rental_uris":{"android":"levelo://app?vid=6ccad06e-c5f9-4e58-8bb0-767d7f69720a","ios":"levelo://app?vid=6ccad06e-c5f9-4e58-8bb0-767d7f69720a"},"vehicle_type_id":"4","last_reported":1707013052,"current_range_meters":0,"station_id":"ce4bgj92rcd13ifvqbd0","pricing_plan_id":"free"},{"bike_id":"da7c7c03-be26-4f3e-b238-18931ce924b5","system_id":"levelo_inurba_marseille","lat":43.304274,"lon":5.388873,"is_reserved":false,"is_disabled":false,"rental_uris":{"android":"levelo://app?vid=da7c7c03-be26-4f3e-b238-18931ce924b5","ios":"levelo://app?vid=da7c7c03-be26-4f3e-b238-18931ce924b5"},"vehicle_type_id":"4","last_reported":1707013052,"current_range_meters":22000,"station_id":"ce4bgk12rcd13ifvqbi0","pricing_plan_id":"free"},{"bike_id":"bf126ee0-1b3e-4c62-b379-a60ce9a50809","system_id":"levelo_inurba_marseille","lat":43.295279,"lon":5.375048,"is_reserved":false,"is_disabled":false,"rental_uris":{"android":"levelo://app?vid=bf126ee0-1b3e-4c62-b379-a60ce9a50809","ios":"levelo://app?vid=bf126ee0-1b3e-4c62-b379-a60ce9a50809"},"vehicle_type_id":"4","last_reported":1707013052,"current_range_meters":30800,"station_id":"ce4bgkp2rcd13ifvqbmg","pricing_plan_id":"free"},{"bike_id":"86cd7a54-317e-4388-b61b-4d7e2775e030","system_id":"levelo_inurba_marseille","lat":43.29971,"lon":5.38486,"is_reserved":false,"is_disabled":false,"rental_uris":{"android":"levelo://app?vid=86cd7a54-317e-4388-b61b-4d7e2775e030","ios":"levelo://app?vid=86cd7a54-317e-4388-b61b-4d7e2775e030"},"vehicle_type_id":"4","last_reported":1707013052,"current_range_meters":0,"station_id":"ce4bgj92rcd13ifvqbd0","pricing_plan_id":"free"},{"bike_id":"7cf3b8af-b8d6-432c-b58a-109610b9908d","system_id":"levelo_inurba_marseille","lat":43.32367,"lon":5.388836,"is_reserved":false,"is_disabled":false,"rental_uris":{"android":"levelo://app?vid=7cf3b8af-b8d6-432c-b58a-109610b9908d","ios":"levelo://app?vid=7cf3b8af-b8d6-432c-b58a-109610b9908d"},"vehicle_type_id":"4","last_reported":1707013052,"current_range_meters":25200,"station_id":"ce4bhqp2rcd13ifvqhog","pricing_plan_id":"free"},{"bike_id":"cee66d04-5de1-4164-8450-732819dac0ea","system_id":"levelo_inurba_marseille","lat":43.323613,"lon":5.388823,"is_reserved":false,"is_disabled":false,"rental_uris":{"android":"levelo://app?vid=cee66d04-5de1-4164-8450-732819dac0ea","ios":"levelo://app?vid=cee66d04-5de1-4164-8450-732819dac0ea"},"vehicle_type_id":"4","last_reported":1707013052,"current_range_meters":0,"station_id":"ce4bhqp2rcd13ifvqhog","pricing_plan_id":"free"},{"bike_id":"02e5c3ba-d57f-45cd-83a5-34e8a95ace48","system_id":"levelo_inurba_marseille","lat":43.32367,"lon":5.388836,"is_reserved":false,"is_disabled":false,"rental_uris":{"android":"levelo://app?vid=02e5c3ba-d57f-45cd-83a5-34e8a95ace48","ios":"levelo://app?vid=02e5c3ba-d57f-45cd-83a5-34e8a95ace48"},"vehicle_type_id":"4","last_reported":1707013052,"current_range_meters":12800,"station_id":"ce4bhqp2rcd13ifvqhog","pricing_plan_id":"free"},{"bike_id":"c6478534-8a92-48aa-87e2-bf565bc04fb6","system_id":"levelo_inurba_marseille","lat":43.32367,"lon":5.388836,"is_reserved":false,"is_disabled":false,"rental_uris":{"android":"levelo://app?vid=c6478534-8a92-48aa-87e2-bf565bc04fb6","ios":"levelo://app?vid=c6478534-8a92-48aa-87e2-bf565bc04fb6"},"vehicle_type_id":"4","last_reported":1707013052,"current_range_meters":4800,"station_id":"ce4bhqp2rcd13ifvqhog","pricing_plan_id":"free"},{"bike_id":"5301d215-ac37-4c0b-8c85-e55b2e7ac30e","system_id":"levelo_inurba_marseille","lat":43.323644,"lon":5.388834,"is_reserved":false,"is_disabled":false,"rental_uris":{"android":"levelo://app?vid=5301d215-ac37-4c0b-8c85-e55b2e7ac30e","ios":"levelo://app?vid=5301d215-ac37-4c0b-8c85-e55b2e7ac30e"},"vehicle_type_id":"4","last_reported":1707013052,"current_range_meters":17600,"station_id":"ce4bhqp2rcd13ifvqhog","pricing_plan_id":"free"},{"bike_id":"62a9b393-09b1-4b3b-91a3-6352eceb9b04","system_id":"levelo_inurba_marseille","lat":43.32367,"lon":5.388836,"is_reserved":false,"is_disabled":false,"rental_uris":{"android":"levelo://app?vid=62a9b393-09b1-4b3b-91a3-6352eceb9b04","ios":"levelo://app?vid=62a9b393-09b1-4b3b-91a3-6352eceb9b04"},"vehicle_type_id":"4","last_reported":1707013052,"current_range_meters":6800,"station_id":"ce4bhqp2rcd13ifvqhog","pricing_plan_id":"free"},{"bike_id":"86690f2d-bc79-4602-9fc0-888cbe1590d1","system_id":"levelo_inurba_marseille","lat":43.32361,"lon":5.38889,"is_reserved":false,"is_disabled":false,"rental_uris":{"android":"levelo://app?vid=86690f2d-bc79-4602-9fc0-888cbe1590d1","ios":"levelo://app?vid=86690f2d-bc79-4602-9fc0-888cbe1590d1"},"vehicle_type_id":"4","last_reported":1707013052,"current_range_meters":20400,"station_id":"ce4bhqp2rcd13ifvqhog","pricing_plan_id":"free"},{"bike_id":"75ed1df4-b7df-4e88-9e9a-696a19f1762a","system_id":"levelo_inurba_marseille","lat":43.32364,"lon":5.38888,"is_reserved":false,"is_disabled":false,"rental_uris":{"android":"levelo://app?vid=75ed1df4-b7df-4e88-9e9a-696a19f1762a","ios":"levelo://app?vid=75ed1df4-b7df-4e88-9e9a-696a19f1762a"},"vehicle_type_id":"4","last_reported":1707013052,"current_range_meters":7200,"station_id":"ce4bhqp2rcd13ifvqhog","pricing_plan_id":"free"},{"bike_id":"c25fc67a-bf97-4f21-9916-d0fe78b3e657","system_id":"levelo_inurba_marseille","lat":43.32368,"lon":5.38885,"is_reserved":false,"is_disabled":false,"rental_uris":{"android":"levelo://app?vid=c25fc67a-bf97-4f21-9916-d0fe78b3e657","ios":"levelo://app?vid=c25fc67a-bf97-4f21-9916-d0fe78b3e657"},"vehicle_type_id":"4","last_reported":1707013052,"current_range_meters":22800,"station_id":"ce4bhqp2rcd13ifvqhog","pricing_plan_id":"free"},{"bike_id":"6ddd6644-0475-4d38-97ea-3c5cc97bcc31","system_id":"levelo_inurba_marseille","lat":43.32367,"lon":5.388836,"is_reserved":false,"is_disabled":false,"rental_uris":{"android":"levelo://app?vid=6ddd6644-0475-4d38-97ea-3c5cc97bcc31","ios":"levelo://app?vid=6ddd6644-0475-4d38-97ea-3c5cc97bcc31"},"vehicle_type_id":"4","last_reported":1707013052,"current_range_meters":10800,"station_id":"ce4bhqp2rcd13ifvqhog","pricing_plan_id":"free"},{"bike_id":"9b081c91-637e-47ff-a6d8-ba13bb5f1be4","system_id":"levelo_inurba_marseille","lat":43.32367,"lon":5.388836,"is_reserved":false,"is_disabled":false,"rental_uris":{"android":"levelo://app?vid=9b081c91-637e-47ff-a6d8-ba13bb5f1be4","ios":"levelo://app?vid=9b081c91-637e-47ff-a6d8-ba13bb5f1be4"},"vehicle_type_id":"4","last_reported":1707013052,"current_range_meters":29200,"station_id":"ce4bhqp2rcd13ifvqhog","pricing_plan_id":"free"},{"bike_id":"20071613-30c5-4b0d-b994-0116ed78292f","system_id":"levelo_inurba_marseille","lat":43.296169,"lon":5.381288,"is_reserved":false,"is_disabled":false,"rental_uris":{"android":"levelo://app?vid=20071613-30c5-4b0d-b994-0116ed78292f","ios":"levelo://app?vid=20071613-30c5-4b0d-b994-0116ed78292f"},"vehicle_type_id":"4","last_reported":1707013052,"current_range_meters":0,"station_id":"ce4bgl12rcd13ifvqbo0","pricing_plan_id":"free"},{"bike_id":"782eaedf-561e-4956-adba-f5802e5b905c","system_id":"levelo_inurba_marseille","lat":43.29601,"lon":5.381084,"is_reserved":false,"is_disabled":false,"rental_uris":{"android":"levelo://app?vid=782eaedf-561e-4956-adba-f5802e5b905c","ios":"levelo://app?vid=782eaedf-561e-4956-adba-f5802e5b905c"},"vehicle_type_id":"4","last_reported":1707013052,"current_range_meters":0,"station_id":"ce4bgl12rcd13ifvqbo0","pricing_plan_id":"free"},{"bike_id":"696f342c-cb2a-4ba0-a210-7728cf466460","system_id":"levelo_inurba_marseille","lat":43.29594,"lon":5.38099,"is_reserved":false,"is_disabled":false,"rental_uris":{"android":"levelo://app?vid=696f342c-cb2a-4ba0-a210-7728cf466460","ios":"levelo://app?vid=696f342c-cb2a-4ba0-a210-7728cf466460"},"vehicle_type_id":"4","last_reported":1707013052,"current_range_meters":0,"station_id":"ce4bgl12rcd13ifvqbo0","pricing_plan_id":"free"},{"bike_id":"c81eca13-793f-4f96-939d-13831d7dc0b0","system_id":"levelo_inurba_marseille","lat":43.305994,"lon":5.393687,"is_reserved":false,"is_disabled":false,"rental_uris":{"android":"levelo://app?vid=c81eca13-793f-4f96-939d-13831d7dc0b0","ios":"levelo://app?vid=c81eca13-793f-4f96-939d-13831d7dc0b0"},"vehicle_type_id":"4","last_reported":1707013052,"current_range_meters":11200,"station_id":"ce4bh0p2rcd13ifvqd80","pricing_plan_id":"free"},{"bike_id":"bbbe5c5c-5c82-46fe-8d53-e6fb724b55e6","system_id":"levelo_inurba_marseille","lat":43.305994,"lon":5.393687,"is_reserved":false,"is_disabled":false,"rental_uris":{"android":"levelo://app?vid=bbbe5c5c-5c82-46fe-8d53-e6fb724b55e6","ios":"levelo://app?vid=bbbe5c5c-5c82-46fe-8d53-e6fb724b55e6"},"vehicle_type_id":"4","last_reported":1707013052,"current_range_meters":16400,"station_id":"ce4bh0p2rcd13ifvqd80","pricing_plan_id":"free"},{"bike_id":"da74f789-df31-4e46-9bbf-ec5e566e150f","system_id":"levelo_inurba_marseille","lat":43.305994,"lon":5.393687,"is_reserved":false,"is_disabled":false,"rental_uris":{"android":"levelo://app?vid=da74f789-df31-4e46-9bbf-ec5e566e150f","ios":"levelo://app?vid=da74f789-df31-4e46-9bbf-ec5e566e150f"},"vehicle_type_id":"4","last_reported":1707013052,"current_range_meters":26400,"station_id":"ce4bh0p2rcd13ifvqd80","pricing_plan_id":"free"},{"bike_id":"d3abc6f1-1a5d-485f-b1f9-427834748233","system_id":"levelo_inurba_marseille","lat":43.30122,"lon":5.39083,"is_reserved":false,"is_disabled":false,"rental_uris":{"android":"levelo://app?vid=d3abc6f1-1a5d-485f-b1f9-427834748233","ios":"levelo://app?vid=d3abc6f1-1a5d-485f-b1f9-427834748233"},"vehicle_type_id":"4","last_reported":1707013052,"current_range_meters":0,"station_id":"","pricing_plan_id":"free"},{"bike_id":"f20ebac8-851c-4e23-93e7-e3113c7f799a","system_id":"levelo_inurba_marseille","lat":43.293009,"lon":5.374584,"is_reserved":false,"is_disabled":false,"rental_uris":{"android":"levelo://app?vid=f20ebac8-851c-4e23-93e7-e3113c7f799a","ios":"levelo://app?vid=f20ebac8-851c-4e23-93e7-e3113c7f799a"},"vehicle_type_id":"4","last_reported":1707013052,"current_range_meters":10400,"station_id":"ce4bgi12rcd13ifvqb70","pricing_plan_id":"free"},{"bike_id":"4c8982e9-a056-466d-b0fe-bf3661d7ce7c","system_id":"levelo_inurba_marseille","lat":43.2936,"lon":5.37835,"is_reserved":false,"is_disabled":false,"rental_uris":{"android":"levelo://app?vid=4c8982e9-a056-466d-b0fe-bf3661d7ce7c","ios":"levelo://app?vid=4c8982e9-a056-466d-b0fe-bf3661d7ce7c"},"vehicle_type_id":"4","last_reported":1707013052,"current_range_meters":22800,"station_id":"ce4bgjh2rcd13ifvqbf0","pricing_plan_id":"free"},{"bike_id":"a0e7a9b7-16ff-49e0-aaf3-013fa4686adf","system_id":"levelo_inurba_marseille","lat":43.309038,"lon":5.396546,"is_reserved":false,"is_disabled":false,"rental_uris":{"android":"levelo://app?vid=a0e7a9b7-16ff-49e0-aaf3-013fa4686adf","ios":"levelo://app?vid=a0e7a9b7-16ff-49e0-aaf3-013fa4686adf"},"vehicle_type_id":"4","last_reported":1707013052,"current_range_meters":28000,"station_id":"ce4bh012rcd13ifvqcv0","pricing_plan_id":"free"},{"bike_id":"d1f7748a-44dc-4e6f-8cfb-dab2ff8b8d4f","system_id":"levelo_inurba_marseille","lat":43.291994,"lon":5.357886,"is_reserved":false,"is_disabled":false,"rental_uris":{"android":"levelo://app?vid=d1f7748a-44dc-4e6f-8cfb-dab2ff8b8d4f","ios":"levelo://app?vid=d1f7748a-44dc-4e6f-8cfb-dab2ff8b8d4f"},"vehicle_type_id":"4","last_reported":1707013052,"current_range_meters":14800,"station_id":"ce4bhb12rcd13ifvqel0","pricing_plan_id":"free"},{"bike_id":"1a6dbca4-84ed-4cd3-96ca-17b8b2354b7c","system_id":"levelo_inurba_marseille","lat":43.313291,"lon":5.396838,"is_reserved":false,"is_disabled":false,"rental_uris":{"android":"levelo://app?vid=1a6dbca4-84ed-4cd3-96ca-17b8b2354b7c","ios":"levelo://app?vid=1a6dbca4-84ed-4cd3-96ca-17b8b2354b7c"},"vehicle_type_id":"4","last_reported":1707013052,"current_range_meters":1600,"station_id":"ce4bgvp2rcd13ifvqcu0","pricing_plan_id":"free"},{"bike_id":"93ea52e9-b3a3-4468-8687-ca8a8d2cdc87","system_id":"levelo_inurba_marseille","lat":43.309038,"lon":5.396546,"is_reserved":false,"is_disabled":false,"rental_uris":{"android":"levelo://app?vid=93ea52e9-b3a3-4468-8687-ca8a8d2cdc87","ios":"levelo://app?vid=93ea52e9-b3a3-4468-8687-ca8a8d2cdc87"},"vehicle_type_id":"4","last_reported":1707013052,"current_range_meters":13200,"station_id":"ce4bh012rcd13ifvqcv0","pricing_plan_id":"free"},{"bike_id":"f59750fd-4e7f-4836-88b6-26dbbef14977","system_id":"levelo_inurba_marseille","lat":43.313291,"lon":5.396838,"is_reserved":false,"is_disabled":false,"rental_uris":{"android":"levelo://app?vid=f59750fd-4e7f-4836-88b6-26dbbef14977","ios":"levelo://app?vid=f59750fd-4e7f-4836-88b6-26dbbef14977"},"vehicle_type_id":"4","last_reported":1707013052,"current_range_meters":9200,"station_id":"ce4bgvp2rcd13ifvqcu0","pricing_plan_id":"free"},{"bike_id":"c6daa204-4f4a-44c4-8fd3-0dabf60cd5d8","system_id":"levelo_inurba_marseille","lat":43.313291,"lon":5.396838,"is_reserved":false,"is_disabled":false,"rental_uris":{"android":"levelo://app?vid=c6daa204-4f4a-44c4-8fd3-0dabf60cd5d8","ios":"levelo://app?vid=c6daa204-4f4a-44c4-8fd3-0dabf60cd5d8"},"vehicle_type_id":"4","last_reported":1707013052,"current_range_meters":6800,"station_id":"ce4bgvp2rcd13ifvqcu0","pricing_plan_id":"free"},{"bike_id":"82d8741f-50da-49e5-94ca-7969d4f46a40","system_id":"levelo_inurba_marseille","lat":43.313291,"lon":5.396838,"is_reserved":false,"is_disabled":false,"rental_uris":{"android":"levelo://app?vid=82d8741f-50da-49e5-94ca-7969d4f46a40","ios":"levelo://app?vid=82d8741f-50da-49e5-94ca-7969d4f46a40"},"vehicle_type_id":"4","last_reported":1707013052,"current_range_meters":31600,"station_id":"ce4bgvp2rcd13ifvqcu0","pricing_plan_id":"free"},{"bike_id":"7febc8cf-8a0b-45bb-95af-6ee2d9ead968","system_id":"levelo_inurba_marseille","lat":43.313291,"lon":5.396838,"is_reserved":false,"is_disabled":false,"rental_uris":{"android":"levelo://app?vid=7febc8cf-8a0b-45bb-95af-6ee2d9ead968","ios":"levelo://app?vid=7febc8cf-8a0b-45bb-95af-6ee2d9ead968"},"vehicle_type_id":"4","last_reported":1707013052,"current_range_meters":24000,"station_id":"ce4bgvp2rcd13ifvqcu0","pricing_plan_id":"free"},{"bike_id":"8333097a-acaa-4323-8a15-f6cce7749304","system_id":"levelo_inurba_marseille","lat":43.313291,"lon":5.396838,"is_reserved":false,"is_disabled":false,"rental_uris":{"android":"levelo://app?vid=8333097a-acaa-4323-8a15-f6cce7749304","ios":"levelo://app?vid=8333097a-acaa-4323-8a15-f6cce7749304"},"vehicle_type_id":"4","last_reported":1707013052,"current_range_meters":12800,"station_id":"ce4bgvp2rcd13ifvqcu0","pricing_plan_id":"free"},{"bike_id":"d7b864d9-0f4e-483f-a3aa-3de53903d219","system_id":"levelo_inurba_marseille","lat":43.313291,"lon":5.396838,"is_reserved":false,"is_disabled":false,"rental_uris":{"android":"levelo://app?vid=d7b864d9-0f4e-483f-a3aa-3de53903d219","ios":"levelo://app?vid=d7b864d9-0f4e-483f-a3aa-3de53903d219"},"vehicle_type_id":"4","last_reported":1707013052,"current_range_meters":17200,"station_id":"ce4bgvp2rcd13ifvqcu0","pricing_plan_id":"free"},{"bike_id":"40ff9ed6-626f-4826-85ea-3b49ee017824","system_id":"levelo_inurba_marseille","lat":43.309038,"lon":5.396546,"is_reserved":false,"is_disabled":false,"rental_uris":{"android":"levelo://app?vid=40ff9ed6-626f-4826-85ea-3b49ee017824","ios":"levelo://app?vid=40ff9ed6-626f-4826-85ea-3b49ee017824"},"vehicle_type_id":"4","last_reported":1707013052,"current_range_meters":30800,"station_id":"ce4bh012rcd13ifvqcv0","pricing_plan_id":"free"},{"bike_id":"5ac600ba-d79c-4960-af98-a28596c33cf5","system_id":"levelo_inurba_marseille","lat":43.309038,"lon":5.396546,"is_reserved":false,"is_disabled":false,"rental_uris":{"android":"levelo://app?vid=5ac600ba-d79c-4960-af98-a28596c33cf5","ios":"levelo://app?vid=5ac600ba-d79c-4960-af98-a28596c33cf5"},"vehicle_type_id":"4","last_reported":1707013052,"current_range_meters":18000,"station_id":"ce4bh012rcd13ifvqcv0","pricing_plan_id":"free"},{"bike_id":"fbc32ad2-45d3-42bf-9b2d-a719c3b08303","system_id":"levelo_inurba_marseille","lat":43.302055,"lon":5.39465,"is_reserved":false,"is_disabled":false,"rental_uris":{"android":"levelo://app?vid=fbc32ad2-45d3-42bf-9b2d-a719c3b08303","ios":"levelo://app?vid=fbc32ad2-45d3-42bf-9b2d-a719c3b08303"},"vehicle_type_id":"4","last_reported":1707013052,"current_range_meters":3600,"station_id":"ce4bh0p2rcd13ifvqd70","pricing_plan_id":"free"},{"bike_id":"5dca012d-c1bd-4d16-9d0d-0a65f5b52a99","system_id":"levelo_inurba_marseille","lat":43.302008,"lon":5.394694,"is_reserved":false,"is_disabled":false,"rental_uris":{"android":"levelo://app?vid=5dca012d-c1bd-4d16-9d0d-0a65f5b52a99","ios":"levelo://app?vid=5dca012d-c1bd-4d16-9d0d-0a65f5b52a99"},"vehicle_type_id":"4","last_reported":1707013052,"current_range_meters":27600,"station_id":"ce4bh0p2rcd13ifvqd70","pricing_plan_id":"free"},{"bike_id":"7c755874-04f4-49a7-881c-3dccfea2f0df","system_id":"levelo_inurba_marseille","lat":43.290441,"lon":5.359123,"is_reserved":false,"is_disabled":false,"rental_uris":{"android":"levelo://app?vid=7c755874-04f4-49a7-881c-3dccfea2f0df","ios":"levelo://app?vid=7c755874-04f4-49a7-881c-3dccfea2f0df"},"vehicle_type_id":"4","last_reported":1707013052,"current_range_meters":400,"station_id":"","pricing_plan_id":"free"},{"bike_id":"0c8cc52c-857c-4612-8a7c-bb9b22e6a6ba","system_id":"levelo_inurba_marseille","lat":43.289184,"lon":5.366408,"is_reserved":false,"is_disabled":false,"rental_uris":{"android":"levelo://app?vid=0c8cc52c-857c-4612-8a7c-bb9b22e6a6ba","ios":"levelo://app?vid=0c8cc52c-857c-4612-8a7c-bb9b22e6a6ba"},"vehicle_type_id":"4","last_reported":1707013052,"current_range_meters":30400,"station_id":"ce4bhap2rcd13ifvqek0","pricing_plan_id":"free"},{"bike_id":"5f7b0bdf-ec18-4f51-9138-6e2d8f366be5","system_id":"levelo_inurba_marseille","lat":43.289478,"lon":5.363997,"is_reserved":false,"is_disabled":false,"rental_uris":{"android":"levelo://app?vid=5f7b0bdf-ec18-4f51-9138-6e2d8f366be5","ios":"levelo://app?vid=5f7b0bdf-ec18-4f51-9138-6e2d8f366be5"},"vehicle_type_id":"4","last_reported":1707013052,"current_range_meters":0,"station_id":"ce4bhc92rcd13ifvqetg","pricing_plan_id":"free"},{"bike_id":"22385ece-6bf0-4ff9-b0d0-60b30d4e9e27","system_id":"levelo_inurba_marseille","lat":43.28926,"lon":5.36638,"is_reserved":false,"is_disabled":false,"rental_uris":{"android":"levelo://app?vid=22385ece-6bf0-4ff9-b0d0-60b30d4e9e27","ios":"levelo://app?vid=22385ece-6bf0-4ff9-b0d0-60b30d4e9e27"},"vehicle_type_id":"4","last_reported":1707013052,"current_range_meters":28800,"station_id":"ce4bhap2rcd13ifvqek0","pricing_plan_id":"free"},{"bike_id":"616acd72-da4d-47d6-88c1-c0987fdfcb27","system_id":"levelo_inurba_marseille","lat":43.289468,"lon":5.363719,"is_reserved":false,"is_disabled":false,"rental_uris":{"android":"levelo://app?vid=616acd72-da4d-47d6-88c1-c0987fdfcb27","ios":"levelo://app?vid=616acd72-da4d-47d6-88c1-c0987fdfcb27"},"vehicle_type_id":"4","last_reported":1707013052,"current_range_meters":26000,"station_id":"ce4bhc92rcd13ifvqetg","pricing_plan_id":"free"},{"bike_id":"7729e5b5-cda9-44ee-bd52-d003f44f0e8c","system_id":"levelo_inurba_marseille","lat":43.290103,"lon":5.356114,"is_reserved":false,"is_disabled":false,"rental_uris":{"android":"levelo://app?vid=7729e5b5-cda9-44ee-bd52-d003f44f0e8c","ios":"levelo://app?vid=7729e5b5-cda9-44ee-bd52-d003f44f0e8c"},"vehicle_type_id":"4","last_reported":1707013052,"current_range_meters":18800,"station_id":"ce4bhb92rcd13ifvqen0","pricing_plan_id":"free"},{"bike_id":"0a9bfce5-f889-443b-a848-9888cf4483af","system_id":"levelo_inurba_marseille","lat":43.330442,"lon":5.389148,"is_reserved":false,"is_disabled":false,"rental_uris":{"android":"levelo://app?vid=0a9bfce5-f889-443b-a848-9888cf4483af","ios":"levelo://app?vid=0a9bfce5-f889-443b-a848-9888cf4483af"},"vehicle_type_id":"4","last_reported":1707013052,"current_range_meters":15200,"station_id":"ce4bhr92rcd13ifvqhrg","pricing_plan_id":"free"},{"bike_id":"716bc777-24c0-49b4-bbdd-34a004e99eb0","system_id":"levelo_inurba_marseille","lat":43.330442,"lon":5.389148,"is_reserved":false,"is_disabled":false,"rental_uris":{"android":"levelo://app?vid=716bc777-24c0-49b4-bbdd-34a004e99eb0","ios":"levelo://app?vid=716bc777-24c0-49b4-bbdd-34a004e99eb0"},"vehicle_type_id":"4","last_reported":1707013052,"current_range_meters":8800,"station_id":"ce4bhr92rcd13ifvqhrg","pricing_plan_id":"free"},{"bike_id":"f563408f-4c75-4852-aa68-9d9de8246097","system_id":"levelo_inurba_marseille","lat":43.28856,"lon":5.358371,"is_reserved":false,"is_disabled":false,"rental_uris":{"android":"levelo://app?vid=f563408f-4c75-4852-aa68-9d9de8246097","ios":"levelo://app?vid=f563408f-4c75-4852-aa68-9d9de8246097"},"vehicle_type_id":"4","last_reported":1707013052,"current_range_meters":30000,"station_id":"ce4bhb12rcd13ifvqem0","pricing_plan_id":"free"},{"bike_id":"85b55dc9-d764-4e7c-aaf0-42ce52fcc895","system_id":"levelo_inurba_marseille","lat":43.28856,"lon":5.358371,"is_reserved":false,"is_disabled":false,"rental_uris":{"android":"levelo://app?vid=85b55dc9-d764-4e7c-aaf0-42ce52fcc895","ios":"levelo://app?vid=85b55dc9-d764-4e7c-aaf0-42ce52fcc895"},"vehicle_type_id":"4","last_reported":1707013052,"current_range_meters":0,"station_id":"ce4bhb12rcd13ifvqem0","pricing_plan_id":"free"},{"bike_id":"4708086c-ed47-4992-88c0-b37ffce616c5","system_id":"levelo_inurba_marseille","lat":43.28856,"lon":5.358371,"is_reserved":false,"is_disabled":false,"rental_uris":{"android":"levelo://app?vid=4708086c-ed47-4992-88c0-b37ffce616c5","ios":"levelo://app?vid=4708086c-ed47-4992-88c0-b37ffce616c5"},"vehicle_type_id":"4","last_reported":1707013052,"current_range_meters":22000,"station_id":"ce4bhb12rcd13ifvqem0","pricing_plan_id":"free"},{"bike_id":"156c8e1e-787f-479e-8458-d2c163ccd396","system_id":"levelo_inurba_marseille","lat":43.28856,"lon":5.358371,"is_reserved":false,"is_disabled":false,"rental_uris":{"android":"levelo://app?vid=156c8e1e-787f-479e-8458-d2c163ccd396","ios":"levelo://app?vid=156c8e1e-787f-479e-8458-d2c163ccd396"},"vehicle_type_id":"4","last_reported":1707013052,"current_range_meters":23200,"station_id":"ce4bhb12rcd13ifvqem0","pricing_plan_id":"free"},{"bike_id":"112b64ee-71ad-4293-9d22-a168c957d46b","system_id":"levelo_inurba_marseille","lat":43.28856,"lon":5.358371,"is_reserved":false,"is_disabled":false,"rental_uris":{"android":"levelo://app?vid=112b64ee-71ad-4293-9d22-a168c957d46b","ios":"levelo://app?vid=112b64ee-71ad-4293-9d22-a168c957d46b"},"vehicle_type_id":"4","last_reported":1707013052,"current_range_meters":21200,"station_id":"ce4bhb12rcd13ifvqem0","pricing_plan_id":"free"},{"bike_id":"9c928177-f84d-408a-b79a-5e78a106288a","system_id":"levelo_inurba_marseille","lat":43.28832,"lon":5.35851,"is_reserved":false,"is_disabled":false,"rental_uris":{"android":"levelo://app?vid=9c928177-f84d-408a-b79a-5e78a106288a","ios":"levelo://app?vid=9c928177-f84d-408a-b79a-5e78a106288a"},"vehicle_type_id":"4","last_reported":1707013052,"current_range_meters":28000,"station_id":"ce4bhb12rcd13ifvqem0","pricing_plan_id":"free"},{"bike_id":"865c09e3-c274-4fcc-9679-4660d34f1cfe","system_id":"levelo_inurba_marseille","lat":43.306412,"lon":5.401035,"is_reserved":false,"is_disabled":false,"rental_uris":{"android":"levelo://app?vid=865c09e3-c274-4fcc-9679-4660d34f1cfe","ios":"levelo://app?vid=865c09e3-c274-4fcc-9679-4660d34f1cfe"},"vehicle_type_id":"4","last_reported":1707013052,"current_range_meters":27200,"station_id":"ce4bh112rcd13ifvqda0","pricing_plan_id":"free"},{"bike_id":"c6776248-4950-445f-9307-ae6dd6fb03af","system_id":"levelo_inurba_marseille","lat":43.33738,"lon":5.37457,"is_reserved":false,"is_disabled":false,"rental_uris":{"android":"levelo://app?vid=c6776248-4950-445f-9307-ae6dd6fb03af","ios":"levelo://app?vid=c6776248-4950-445f-9307-ae6dd6fb03af"},"vehicle_type_id":"4","last_reported":1707013052,"current_range_meters":26800,"station_id":"","pricing_plan_id":"free"},{"bike_id":"40699aaf-ed3b-4c00-9424-9b910769fb39","system_id":"levelo_inurba_marseille","lat":43.312609,"lon":5.401662,"is_reserved":false,"is_disabled":false,"rental_uris":{"android":"levelo://app?vid=40699aaf-ed3b-4c00-9424-9b910769fb39","ios":"levelo://app?vid=40699aaf-ed3b-4c00-9424-9b910769fb39"},"vehicle_type_id":"4","last_reported":1707013052,"current_range_meters":24800,"station_id":"ce4bh092rcd13ifvqd30","pricing_plan_id":"free"},{"bike_id":"4e7d6062-9b94-4daf-b733-69eb5f269a36","system_id":"levelo_inurba_marseille","lat":43.312609,"lon":5.401662,"is_reserved":false,"is_disabled":false,"rental_uris":{"android":"levelo://app?vid=4e7d6062-9b94-4daf-b733-69eb5f269a36","ios":"levelo://app?vid=4e7d6062-9b94-4daf-b733-69eb5f269a36"},"vehicle_type_id":"4","last_reported":1707013052,"current_range_meters":25200,"station_id":"ce4bh092rcd13ifvqd30","pricing_plan_id":"free"},{"bike_id":"9fd156b3-bcc2-4d50-b2ca-d6ed5693e0b6","system_id":"levelo_inurba_marseille","lat":43.312609,"lon":5.401662,"is_reserved":false,"is_disabled":false,"rental_uris":{"android":"levelo://app?vid=9fd156b3-bcc2-4d50-b2ca-d6ed5693e0b6","ios":"levelo://app?vid=9fd156b3-bcc2-4d50-b2ca-d6ed5693e0b6"},"vehicle_type_id":"4","last_reported":1707013052,"current_range_meters":22800,"station_id":"ce4bh092rcd13ifvqd30","pricing_plan_id":"free"},{"bike_id":"b60c8dc5-36af-457a-8387-cd9b8ed58344","system_id":"levelo_inurba_marseille","lat":43.312609,"lon":5.401662,"is_reserved":false,"is_disabled":false,"rental_uris":{"android":"levelo://app?vid=b60c8dc5-36af-457a-8387-cd9b8ed58344","ios":"levelo://app?vid=b60c8dc5-36af-457a-8387-cd9b8ed58344"},"vehicle_type_id":"4","last_reported":1707013052,"current_range_meters":23600,"station_id":"ce4bh092rcd13ifvqd30","pricing_plan_id":"free"},{"bike_id":"ee9a07da-7aec-41e2-97ce-e84872797b8e","system_id":"levelo_inurba_marseille","lat":43.312609,"lon":5.401662,"is_reserved":false,"is_disabled":false,"rental_uris":{"android":"levelo://app?vid=ee9a07da-7aec-41e2-97ce-e84872797b8e","ios":"levelo://app?vid=ee9a07da-7aec-41e2-97ce-e84872797b8e"},"vehicle_type_id":"4","last_reported":1707013052,"current_range_meters":20000,"station_id":"ce4bh092rcd13ifvqd30","pricing_plan_id":"free"},{"bike_id":"72bb7a29-1025-4bae-b611-78ee177d5f5b","system_id":"levelo_inurba_marseille","lat":43.30932,"lon":5.4014,"is_reserved":false,"is_disabled":false,"rental_uris":{"android":"levelo://app?vid=72bb7a29-1025-4bae-b611-78ee177d5f5b","ios":"levelo://app?vid=72bb7a29-1025-4bae-b611-78ee177d5f5b"},"vehicle_type_id":"4","last_reported":1707013052,"current_range_meters":20800,"station_id":"ce4bgvp2rcd13ifvqct0","pricing_plan_id":"free"},{"bike_id":"f237e9c3-9151-4f55-9bd5-6a1ec2a6a300","system_id":"levelo_inurba_marseille","lat":43.312609,"lon":5.401662,"is_reserved":false,"is_disabled":false,"rental_uris":{"android":"levelo://app?vid=f237e9c3-9151-4f55-9bd5-6a1ec2a6a300","ios":"levelo://app?vid=f237e9c3-9151-4f55-9bd5-6a1ec2a6a300"},"vehicle_type_id":"4","last_reported":1707013052,"current_range_meters":13600,"station_id":"ce4bh092rcd13ifvqd30","pricing_plan_id":"free"},{"bike_id":"f3ab065c-6043-499b-9110-46f2f02326a2","system_id":"levelo_inurba_marseille","lat":43.30923,"lon":5.40142,"is_reserved":false,"is_disabled":false,"rental_uris":{"android":"levelo://app?vid=f3ab065c-6043-499b-9110-46f2f02326a2","ios":"levelo://app?vid=f3ab065c-6043-499b-9110-46f2f02326a2"},"vehicle_type_id":"4","last_reported":1707013052,"current_range_meters":0,"station_id":"ce4bgvp2rcd13ifvqct0","pricing_plan_id":"free"},{"bike_id":"2d98a11f-af32-4c0c-8df9-bf6faf1ee1b6","system_id":"levelo_inurba_marseille","lat":43.30931,"lon":5.40144,"is_reserved":false,"is_disabled":false,"rental_uris":{"android":"levelo://app?vid=2d98a11f-af32-4c0c-8df9-bf6faf1ee1b6","ios":"levelo://app?vid=2d98a11f-af32-4c0c-8df9-bf6faf1ee1b6"},"vehicle_type_id":"4","last_reported":1707013052,"current_range_meters":6000,"station_id":"ce4bgvp2rcd13ifvqct0","pricing_plan_id":"free"},{"bike_id":"9db3c28c-bbf2-4e65-901e-8d3546eb25c4","system_id":"levelo_inurba_marseille","lat":43.30936,"lon":5.40147,"is_reserved":false,"is_disabled":false,"rental_uris":{"android":"levelo://app?vid=9db3c28c-bbf2-4e65-901e-8d3546eb25c4","ios":"levelo://app?vid=9db3c28c-bbf2-4e65-901e-8d3546eb25c4"},"vehicle_type_id":"4","last_reported":1707013052,"current_range_meters":25600,"station_id":"ce4bgvp2rcd13ifvqct0","pricing_plan_id":"free"},{"bike_id":"d6deb5d0-af48-440a-a920-16a880ef4dc7","system_id":"levelo_inurba_marseille","lat":43.309371,"lon":5.401449,"is_reserved":false,"is_disabled":false,"rental_uris":{"android":"levelo://app?vid=d6deb5d0-af48-440a-a920-16a880ef4dc7","ios":"levelo://app?vid=d6deb5d0-af48-440a-a920-16a880ef4dc7"},"vehicle_type_id":"4","last_reported":1707013052,"current_range_meters":9600,"station_id":"ce4bgvp2rcd13ifvqct0","pricing_plan_id":"free"},{"bike_id":"29610a9e-b8d7-4185-9f1a-1f6268610594","system_id":"levelo_inurba_marseille","lat":43.30642,"lon":5.401031,"is_reserved":false,"is_disabled":false,"rental_uris":{"android":"levelo://app?vid=29610a9e-b8d7-4185-9f1a-1f6268610594","ios":"levelo://app?vid=29610a9e-b8d7-4185-9f1a-1f6268610594"},"vehicle_type_id":"4","last_reported":1707013052,"current_range_meters":6000,"station_id":"ce4bh112rcd13ifvqda0","pricing_plan_id":"free"},{"bike_id":"275a9412-4a73-4f04-adda-1f45aa37468a","system_id":"levelo_inurba_marseille","lat":43.30929,"lon":5.40155,"is_reserved":false,"is_disabled":false,"rental_uris":{"android":"levelo://app?vid=275a9412-4a73-4f04-adda-1f45aa37468a","ios":"levelo://app?vid=275a9412-4a73-4f04-adda-1f45aa37468a"},"vehicle_type_id":"4","last_reported":1707013052,"current_range_meters":24400,"station_id":"ce4bgvp2rcd13ifvqct0","pricing_plan_id":"free"},{"bike_id":"92be5a0d-cde1-4b39-a9e7-2001973727fc","system_id":"levelo_inurba_marseille","lat":43.309371,"lon":5.401449,"is_reserved":false,"is_disabled":false,"rental_uris":{"android":"levelo://app?vid=92be5a0d-cde1-4b39-a9e7-2001973727fc","ios":"levelo://app?vid=92be5a0d-cde1-4b39-a9e7-2001973727fc"},"vehicle_type_id":"4","last_reported":1707013052,"current_range_meters":24000,"station_id":"ce4bgvp2rcd13ifvqct0","pricing_plan_id":"free"},{"bike_id":"e0ecf1ed-6a0d-42be-8f64-577f12c402b7","system_id":"levelo_inurba_marseille","lat":43.30642,"lon":5.401031,"is_reserved":false,"is_disabled":false,"rental_uris":{"android":"levelo://app?vid=e0ecf1ed-6a0d-42be-8f64-577f12c402b7","ios":"levelo://app?vid=e0ecf1ed-6a0d-42be-8f64-577f12c402b7"},"vehicle_type_id":"4","last_reported":1707013052,"current_range_meters":8800,"station_id":"ce4bh112rcd13ifvqda0","pricing_plan_id":"free"},{"bike_id":"1f2f1fc7-de9a-45d7-bdeb-95bd33b08aca","system_id":"levelo_inurba_marseille","lat":43.301373,"lon":5.398422,"is_reserved":false,"is_disabled":false,"rental_uris":{"android":"levelo://app?vid=1f2f1fc7-de9a-45d7-bdeb-95bd33b08aca","ios":"levelo://app?vid=1f2f1fc7-de9a-45d7-bdeb-95bd33b08aca"},"vehicle_type_id":"4","last_reported":1707013052,"current_range_meters":15600,"station_id":"ce4bh0h2rcd13ifvqd40","pricing_plan_id":"free"},{"bike_id":"b5c8cd35-34dd-45ee-b3e7-3050ef3cbe6a","system_id":"levelo_inurba_marseille","lat":43.337673,"lon":5.374918,"is_reserved":false,"is_disabled":false,"rental_uris":{"android":"levelo://app?vid=b5c8cd35-34dd-45ee-b3e7-3050ef3cbe6a","ios":"levelo://app?vid=b5c8cd35-34dd-45ee-b3e7-3050ef3cbe6a"},"vehicle_type_id":"4","last_reported":1707013052,"current_range_meters":14000,"station_id":"","pricing_plan_id":"free"},{"bike_id":"fac87563-482b-4d92-bca6-4739d9ef0e0a","system_id":"levelo_inurba_marseille","lat":43.30642,"lon":5.401031,"is_reserved":false,"is_disabled":false,"rental_uris":{"android":"levelo://app?vid=fac87563-482b-4d92-bca6-4739d9ef0e0a","ios":"levelo://app?vid=fac87563-482b-4d92-bca6-4739d9ef0e0a"},"vehicle_type_id":"4","last_reported":1707013052,"current_range_meters":23200,"station_id":"ce4bh112rcd13ifvqda0","pricing_plan_id":"free"},{"bike_id":"913294c0-a254-4883-aab2-31ac5a4eea65","system_id":"levelo_inurba_marseille","lat":43.301117,"lon":5.398795,"is_reserved":false,"is_disabled":false,"rental_uris":{"android":"levelo://app?vid=913294c0-a254-4883-aab2-31ac5a4eea65","ios":"levelo://app?vid=913294c0-a254-4883-aab2-31ac5a4eea65"},"vehicle_type_id":"4","last_reported":1707013052,"current_range_meters":3600,"station_id":"ce4bh0h2rcd13ifvqd40","pricing_plan_id":"free"},{"bike_id":"9e260c5b-7cbb-4b4f-b770-63b3ce1eaa35","system_id":"levelo_inurba_marseille","lat":43.301117,"lon":5.398795,"is_reserved":false,"is_disabled":false,"rental_uris":{"android":"levelo://app?vid=9e260c5b-7cbb-4b4f-b770-63b3ce1eaa35","ios":"levelo://app?vid=9e260c5b-7cbb-4b4f-b770-63b3ce1eaa35"},"vehicle_type_id":"4","last_reported":1707013052,"current_range_meters":22000,"station_id":"ce4bh0h2rcd13ifvqd40","pricing_plan_id":"free"},{"bike_id":"b7143b54-7f5a-42f2-87d9-fdecc2cb9534","system_id":"levelo_inurba_marseille","lat":43.28727,"lon":5.36082,"is_reserved":false,"is_disabled":false,"rental_uris":{"android":"levelo://app?vid=b7143b54-7f5a-42f2-87d9-fdecc2cb9534","ios":"levelo://app?vid=b7143b54-7f5a-42f2-87d9-fdecc2cb9534"},"vehicle_type_id":"4","last_reported":1707013052,"current_range_meters":22800,"station_id":"cki0cbj6b192h4jlfktg","pricing_plan_id":"free"},{"bike_id":"e4f00197-1f7b-4e50-9087-855bc9d23d48","system_id":"levelo_inurba_marseille","lat":43.287229,"lon":5.360913,"is_reserved":false,"is_disabled":false,"rental_uris":{"android":"levelo://app?vid=e4f00197-1f7b-4e50-9087-855bc9d23d48","ios":"levelo://app?vid=e4f00197-1f7b-4e50-9087-855bc9d23d48"},"vehicle_type_id":"4","last_reported":1707013052,"current_range_meters":11200,"station_id":"cki0cbj6b192h4jlfktg","pricing_plan_id":"free"},{"bike_id":"b9c0f704-1da7-4a81-a720-025abd1c9592","system_id":"levelo_inurba_marseille","lat":43.301117,"lon":5.398795,"is_reserved":false,"is_disabled":false,"rental_uris":{"android":"levelo://app?vid=b9c0f704-1da7-4a81-a720-025abd1c9592","ios":"levelo://app?vid=b9c0f704-1da7-4a81-a720-025abd1c9592"},"vehicle_type_id":"4","last_reported":1707013052,"current_range_meters":10800,"station_id":"ce4bh0h2rcd13ifvqd40","pricing_plan_id":"free"},{"bike_id":"2bc7914d-90d8-42d4-bd76-ce6021aa893b","system_id":"levelo_inurba_marseille","lat":43.287207,"lon":5.360873,"is_reserved":false,"is_disabled":false,"rental_uris":{"android":"levelo://app?vid=2bc7914d-90d8-42d4-bd76-ce6021aa893b","ios":"levelo://app?vid=2bc7914d-90d8-42d4-bd76-ce6021aa893b"},"vehicle_type_id":"4","last_reported":1707013052,"current_range_meters":24000,"station_id":"cki0cbj6b192h4jlfktg","pricing_plan_id":"free"},{"bike_id":"df763bff-828c-4983-ac63-7e08c3c7be28","system_id":"levelo_inurba_marseille","lat":43.286591,"lon":5.363346,"is_reserved":false,"is_disabled":false,"rental_uris":{"android":"levelo://app?vid=df763bff-828c-4983-ac63-7e08c3c7be28","ios":"levelo://app?vid=df763bff-828c-4983-ac63-7e08c3c7be28"},"vehicle_type_id":"4","last_reported":1707013052,"current_range_meters":26000,"station_id":"ce4bhah2rcd13ifvqej0","pricing_plan_id":"free"},{"bike_id":"9b3e43f1-7d0e-4046-a11f-81164ee0b3a7","system_id":"levelo_inurba_marseille","lat":43.286591,"lon":5.363346,"is_reserved":false,"is_disabled":false,"rental_uris":{"android":"levelo://app?vid=9b3e43f1-7d0e-4046-a11f-81164ee0b3a7","ios":"levelo://app?vid=9b3e43f1-7d0e-4046-a11f-81164ee0b3a7"},"vehicle_type_id":"4","last_reported":1707013052,"current_range_meters":28800,"station_id":"ce4bhah2rcd13ifvqej0","pricing_plan_id":"free"},{"bike_id":"aad232fb-c9db-4712-9894-b295f933b2e2","system_id":"levelo_inurba_marseille","lat":43.298681,"lon":5.397225,"is_reserved":false,"is_disabled":false,"rental_uris":{"android":"levelo://app?vid=aad232fb-c9db-4712-9894-b295f933b2e2","ios":"levelo://app?vid=aad232fb-c9db-4712-9894-b295f933b2e2"},"vehicle_type_id":"4","last_reported":1707013052,"current_range_meters":12400,"station_id":"ce4bh0h2rcd13ifvqd50","pricing_plan_id":"free"},{"bike_id":"068ad764-1b63-4c20-a301-219f3340f060","system_id":"levelo_inurba_marseille","lat":43.2987,"lon":5.39729,"is_reserved":false,"is_disabled":false,"rental_uris":{"android":"levelo://app?vid=068ad764-1b63-4c20-a301-219f3340f060","ios":"levelo://app?vid=068ad764-1b63-4c20-a301-219f3340f060"},"vehicle_type_id":"4","last_reported":1707013052,"current_range_meters":4400,"station_id":"ce4bh0h2rcd13ifvqd50","pricing_plan_id":"free"},{"bike_id":"2513d9be-aa10-45e8-84cd-6e64ac968ca3","system_id":"levelo_inurba_marseille","lat":43.286591,"lon":5.363346,"is_reserved":false,"is_disabled":false,"rental_uris":{"android":"levelo://app?vid=2513d9be-aa10-45e8-84cd-6e64ac968ca3","ios":"levelo://app?vid=2513d9be-aa10-45e8-84cd-6e64ac968ca3"},"vehicle_type_id":"4","last_reported":1707013052,"current_range_meters":30400,"station_id":"ce4bhah2rcd13ifvqej0","pricing_plan_id":"free"},{"bike_id":"99276449-6f94-4996-8c18-63341606666a","system_id":"levelo_inurba_marseille","lat":43.286591,"lon":5.363346,"is_reserved":false,"is_disabled":false,"rental_uris":{"android":"levelo://app?vid=99276449-6f94-4996-8c18-63341606666a","ios":"levelo://app?vid=99276449-6f94-4996-8c18-63341606666a"},"vehicle_type_id":"4","last_reported":1707013052,"current_range_meters":28800,"station_id":"ce4bhah2rcd13ifvqej0","pricing_plan_id":"free"},{"bike_id":"2ce5c5f9-28c0-41ba-b7b2-15274b523470","system_id":"levelo_inurba_marseille","lat":43.29871,"lon":5.397363,"is_reserved":false,"is_disabled":false,"rental_uris":{"android":"levelo://app?vid=2ce5c5f9-28c0-41ba-b7b2-15274b523470","ios":"levelo://app?vid=2ce5c5f9-28c0-41ba-b7b2-15274b523470"},"vehicle_type_id":"4","last_reported":1707013052,"current_range_meters":18800,"station_id":"ce4bh0h2rcd13ifvqd50","pricing_plan_id":"free"},{"bike_id":"9bb0ad22-8b6d-4ff9-843e-11aa77c8bd3a","system_id":"levelo_inurba_marseille","lat":43.286987,"lon":5.373885,"is_reserved":false,"is_disabled":false,"rental_uris":{"android":"levelo://app?vid=9bb0ad22-8b6d-4ff9-843e-11aa77c8bd3a","ios":"levelo://app?vid=9bb0ad22-8b6d-4ff9-843e-11aa77c8bd3a"},"vehicle_type_id":"4","last_reported":1707013052,"current_range_meters":4800,"station_id":"ce4bh3p2rcd13ifvqdq0","pricing_plan_id":"free"},{"bike_id":"5f99f4eb-fc5d-4573-ab04-27d1a28c6f83","system_id":"levelo_inurba_marseille","lat":43.298665,"lon":5.397422,"is_reserved":false,"is_disabled":false,"rental_uris":{"android":"levelo://app?vid=5f99f4eb-fc5d-4573-ab04-27d1a28c6f83","ios":"levelo://app?vid=5f99f4eb-fc5d-4573-ab04-27d1a28c6f83"},"vehicle_type_id":"4","last_reported":1707013052,"current_range_meters":5200,"station_id":"ce4bh0h2rcd13ifvqd50","pricing_plan_id":"free"},{"bike_id":"6ae1500a-607b-42ee-b1f5-df2113e0b5ac","system_id":"levelo_inurba_marseille","lat":43.286593,"lon":5.363346,"is_reserved":false,"is_disabled":false,"rental_uris":{"android":"levelo://app?vid=6ae1500a-607b-42ee-b1f5-df2113e0b5ac","ios":"levelo://app?vid=6ae1500a-607b-42ee-b1f5-df2113e0b5ac"},"vehicle_type_id":"4","last_reported":1707013052,"current_range_meters":25600,"station_id":"ce4bhah2rcd13ifvqej0","pricing_plan_id":"free"},{"bike_id":"7d6c5427-3a6d-4fee-9f20-e8b7b110b678","system_id":"levelo_inurba_marseille","lat":43.298681,"lon":5.397225,"is_reserved":false,"is_disabled":false,"rental_uris":{"android":"levelo://app?vid=7d6c5427-3a6d-4fee-9f20-e8b7b110b678","ios":"levelo://app?vid=7d6c5427-3a6d-4fee-9f20-e8b7b110b678"},"vehicle_type_id":"4","last_reported":1707013052,"current_range_meters":31200,"station_id":"ce4bh0h2rcd13ifvqd50","pricing_plan_id":"free"},{"bike_id":"5a10feab-1878-4925-b5e0-0ad60fa041a3","system_id":"levelo_inurba_marseille","lat":43.302759,"lon":5.400793,"is_reserved":false,"is_disabled":false,"rental_uris":{"android":"levelo://app?vid=5a10feab-1878-4925-b5e0-0ad60fa041a3","ios":"levelo://app?vid=5a10feab-1878-4925-b5e0-0ad60fa041a3"},"vehicle_type_id":"4","last_reported":1707013052,"current_range_meters":18800,"station_id":"ce4bgvh2rcd13ifvqcs0","pricing_plan_id":"free"},{"bike_id":"97302acb-a74f-4f9b-9cb8-5d1110161acf","system_id":"levelo_inurba_marseille","lat":43.302544,"lon":5.40059,"is_reserved":false,"is_disabled":false,"rental_uris":{"android":"levelo://app?vid=97302acb-a74f-4f9b-9cb8-5d1110161acf","ios":"levelo://app?vid=97302acb-a74f-4f9b-9cb8-5d1110161acf"},"vehicle_type_id":"4","last_reported":1707013052,"current_range_meters":28800,"station_id":"ce4bgvh2rcd13ifvqcs0","pricing_plan_id":"free"},{"bike_id":"d28e34da-8fcd-40ec-8587-85cffe44553a","system_id":"levelo_inurba_marseille","lat":43.30253,"lon":5.4006,"is_reserved":false,"is_disabled":false,"rental_uris":{"android":"levelo://app?vid=d28e34da-8fcd-40ec-8587-85cffe44553a","ios":"levelo://app?vid=d28e34da-8fcd-40ec-8587-85cffe44553a"},"vehicle_type_id":"4","last_reported":1707013052,"current_range_meters":9600,"station_id":"ce4bgvh2rcd13ifvqcs0","pricing_plan_id":"free"},{"bike_id":"82e93e04-5560-4283-9d19-963e60df57f3","system_id":"levelo_inurba_marseille","lat":43.29031,"lon":5.3865,"is_reserved":false,"is_disabled":false,"rental_uris":{"android":"levelo://app?vid=82e93e04-5560-4283-9d19-963e60df57f3","ios":"levelo://app?vid=82e93e04-5560-4283-9d19-963e60df57f3"},"vehicle_type_id":"4","last_reported":1707013052,"current_range_meters":0,"station_id":"ce4bh4p2rcd13ifvqe0g","pricing_plan_id":"free"},{"bike_id":"3fe1647a-93c0-4fba-b60b-3285efbeb90c","system_id":"levelo_inurba_marseille","lat":43.30253,"lon":5.400657,"is_reserved":false,"is_disabled":false,"rental_uris":{"android":"levelo://app?vid=3fe1647a-93c0-4fba-b60b-3285efbeb90c","ios":"levelo://app?vid=3fe1647a-93c0-4fba-b60b-3285efbeb90c"},"vehicle_type_id":"4","last_reported":1707013052,"current_range_meters":21600,"station_id":"ce4bgvh2rcd13ifvqcs0","pricing_plan_id":"free"},{"bike_id":"ad95497f-a813-4ddf-a207-bbe0494ac4fa","system_id":"levelo_inurba_marseille","lat":43.302489,"lon":5.400635,"is_reserved":false,"is_disabled":false,"rental_uris":{"android":"levelo://app?vid=ad95497f-a813-4ddf-a207-bbe0494ac4fa","ios":"levelo://app?vid=ad95497f-a813-4ddf-a207-bbe0494ac4fa"},"vehicle_type_id":"4","last_reported":1707013052,"current_range_meters":0,"station_id":"ce4bgvh2rcd13ifvqcs0","pricing_plan_id":"free"},{"bike_id":"fda743ff-9a0e-40a4-a1ec-6b4ac60d55e4","system_id":"levelo_inurba_marseille","lat":43.30257,"lon":5.40072,"is_reserved":false,"is_disabled":false,"rental_uris":{"android":"levelo://app?vid=fda743ff-9a0e-40a4-a1ec-6b4ac60d55e4","ios":"levelo://app?vid=fda743ff-9a0e-40a4-a1ec-6b4ac60d55e4"},"vehicle_type_id":"4","last_reported":1707013052,"current_range_meters":4400,"station_id":"ce4bgvh2rcd13ifvqcs0","pricing_plan_id":"free"},{"bike_id":"71be30e3-6a9f-41fd-9870-f9d6abd3878b","system_id":"levelo_inurba_marseille","lat":43.30262,"lon":5.400777,"is_reserved":false,"is_disabled":false,"rental_uris":{"android":"levelo://app?vid=71be30e3-6a9f-41fd-9870-f9d6abd3878b","ios":"levelo://app?vid=71be30e3-6a9f-41fd-9870-f9d6abd3878b"},"vehicle_type_id":"4","last_reported":1707013052,"current_range_meters":30800,"station_id":"ce4bgvh2rcd13ifvqcs0","pricing_plan_id":"free"},{"bike_id":"33ac3698-9772-4f95-8c8b-fb972adce48d","system_id":"levelo_inurba_marseille","lat":43.30261,"lon":5.40081,"is_reserved":false,"is_disabled":false,"rental_uris":{"android":"levelo://app?vid=33ac3698-9772-4f95-8c8b-fb972adce48d","ios":"levelo://app?vid=33ac3698-9772-4f95-8c8b-fb972adce48d"},"vehicle_type_id":"4","last_reported":1707013052,"current_range_meters":18800,"station_id":"ce4bgvh2rcd13ifvqcs0","pricing_plan_id":"free"},{"bike_id":"9e5a7cfe-70a9-4a6a-bff8-3bb346c3966e","system_id":"levelo_inurba_marseille","lat":43.302573,"lon":5.400853,"is_reserved":false,"is_disabled":false,"rental_uris":{"android":"levelo://app?vid=9e5a7cfe-70a9-4a6a-bff8-3bb346c3966e","ios":"levelo://app?vid=9e5a7cfe-70a9-4a6a-bff8-3bb346c3966e"},"vehicle_type_id":"4","last_reported":1707013052,"current_range_meters":10000,"station_id":"ce4bgvh2rcd13ifvqcs0","pricing_plan_id":"free"},{"bike_id":"571d83e4-c554-4679-874e-a0ed8f279ff6","system_id":"levelo_inurba_marseille","lat":43.286039,"lon":5.370679,"is_reserved":false,"is_disabled":false,"rental_uris":{"android":"levelo://app?vid=571d83e4-c554-4679-874e-a0ed8f279ff6","ios":"levelo://app?vid=571d83e4-c554-4679-874e-a0ed8f279ff6"},"vehicle_type_id":"4","last_reported":1707013052,"current_range_meters":17600,"station_id":"ce4bht12rcd13ifvqi60","pricing_plan_id":"free"},{"bike_id":"4a1d38cc-6c38-4226-a717-92a3621e6d8d","system_id":"levelo_inurba_marseille","lat":43.287185,"lon":5.379373,"is_reserved":false,"is_disabled":false,"rental_uris":{"android":"levelo://app?vid=4a1d38cc-6c38-4226-a717-92a3621e6d8d","ios":"levelo://app?vid=4a1d38cc-6c38-4226-a717-92a3621e6d8d"},"vehicle_type_id":"4","last_reported":1707013052,"current_range_meters":15600,"station_id":"ce4bh9p2rcd13ifvqec0","pricing_plan_id":"free"},{"bike_id":"443e66ba-9147-4336-bf4f-819e85087b03","system_id":"levelo_inurba_marseille","lat":43.316912,"lon":5.404757,"is_reserved":false,"is_disabled":false,"rental_uris":{"android":"levelo://app?vid=443e66ba-9147-4336-bf4f-819e85087b03","ios":"levelo://app?vid=443e66ba-9147-4336-bf4f-819e85087b03"},"vehicle_type_id":"4","last_reported":1707013052,"current_range_meters":2000,"station_id":"ce4bh012rcd13ifvqd00","pricing_plan_id":"free"},{"bike_id":"e51640a8-4880-4b3d-91b9-7bb9c5bbba0f","system_id":"levelo_inurba_marseille","lat":43.287184,"lon":5.37937,"is_reserved":false,"is_disabled":false,"rental_uris":{"android":"levelo://app?vid=e51640a8-4880-4b3d-91b9-7bb9c5bbba0f","ios":"levelo://app?vid=e51640a8-4880-4b3d-91b9-7bb9c5bbba0f"},"vehicle_type_id":"4","last_reported":1707013052,"current_range_meters":26800,"station_id":"ce4bh9p2rcd13ifvqec0","pricing_plan_id":"free"},{"bike_id":"fcaa222a-5ca2-425f-a320-4f3a0644cb8e","system_id":"levelo_inurba_marseille","lat":43.284538,"lon":5.358657,"is_reserved":false,"is_disabled":false,"rental_uris":{"android":"levelo://app?vid=fcaa222a-5ca2-425f-a320-4f3a0644cb8e","ios":"levelo://app?vid=fcaa222a-5ca2-425f-a320-4f3a0644cb8e"},"vehicle_type_id":"4","last_reported":1707013052,"current_range_meters":31200,"station_id":"ce4bhah2rcd13ifvqei0","pricing_plan_id":"free"},{"bike_id":"4fd6a2b6-181c-4530-9396-134d344fb37a","system_id":"levelo_inurba_marseille","lat":43.284534,"lon":5.358662,"is_reserved":false,"is_disabled":false,"rental_uris":{"android":"levelo://app?vid=4fd6a2b6-181c-4530-9396-134d344fb37a","ios":"levelo://app?vid=4fd6a2b6-181c-4530-9396-134d344fb37a"},"vehicle_type_id":"4","last_reported":1707013052,"current_range_meters":14400,"station_id":"ce4bhah2rcd13ifvqei0","pricing_plan_id":"free"},{"bike_id":"69a14e6e-31d1-4221-88b0-a6ed523e2e06","system_id":"levelo_inurba_marseille","lat":43.284534,"lon":5.358662,"is_reserved":false,"is_disabled":false,"rental_uris":{"android":"levelo://app?vid=69a14e6e-31d1-4221-88b0-a6ed523e2e06","ios":"levelo://app?vid=69a14e6e-31d1-4221-88b0-a6ed523e2e06"},"vehicle_type_id":"4","last_reported":1707013052,"current_range_meters":31600,"station_id":"ce4bhah2rcd13ifvqei0","pricing_plan_id":"free"},{"bike_id":"9c7bf495-e556-499c-80a4-6f7507114d82","system_id":"levelo_inurba_marseille","lat":43.284538,"lon":5.358657,"is_reserved":false,"is_disabled":false,"rental_uris":{"android":"levelo://app?vid=9c7bf495-e556-499c-80a4-6f7507114d82","ios":"levelo://app?vid=9c7bf495-e556-499c-80a4-6f7507114d82"},"vehicle_type_id":"4","last_reported":1707013052,"current_range_meters":10400,"station_id":"ce4bhah2rcd13ifvqei0","pricing_plan_id":"free"},{"bike_id":"959ddf3a-b927-4500-9bac-6857bd30b5d5","system_id":"levelo_inurba_marseille","lat":43.286594,"lon":5.383336,"is_reserved":false,"is_disabled":false,"rental_uris":{"android":"levelo://app?vid=959ddf3a-b927-4500-9bac-6857bd30b5d5","ios":"levelo://app?vid=959ddf3a-b927-4500-9bac-6857bd30b5d5"},"vehicle_type_id":"4","last_reported":1707013052,"current_range_meters":13600,"station_id":"","pricing_plan_id":"free"},{"bike_id":"7a4670d8-88ee-4dc9-b18d-f940af504554","system_id":"levelo_inurba_marseille","lat":43.284534,"lon":5.358662,"is_reserved":false,"is_disabled":false,"rental_uris":{"android":"levelo://app?vid=7a4670d8-88ee-4dc9-b18d-f940af504554","ios":"levelo://app?vid=7a4670d8-88ee-4dc9-b18d-f940af504554"},"vehicle_type_id":"4","last_reported":1707013052,"current_range_meters":19600,"station_id":"ce4bhah2rcd13ifvqei0","pricing_plan_id":"free"},{"bike_id":"40e189ef-f357-424e-b427-f4460ba232b9","system_id":"levelo_inurba_marseille","lat":43.284534,"lon":5.358662,"is_reserved":false,"is_disabled":false,"rental_uris":{"android":"levelo://app?vid=40e189ef-f357-424e-b427-f4460ba232b9","ios":"levelo://app?vid=40e189ef-f357-424e-b427-f4460ba232b9"},"vehicle_type_id":"4","last_reported":1707013052,"current_range_meters":0,"station_id":"ce4bhah2rcd13ifvqei0","pricing_plan_id":"free"},{"bike_id":"06b4e46e-12a0-487b-87e0-7bd9810e179a","system_id":"levelo_inurba_marseille","lat":43.284534,"lon":5.358662,"is_reserved":false,"is_disabled":false,"rental_uris":{"android":"levelo://app?vid=06b4e46e-12a0-487b-87e0-7bd9810e179a","ios":"levelo://app?vid=06b4e46e-12a0-487b-87e0-7bd9810e179a"},"vehicle_type_id":"4","last_reported":1707013052,"current_range_meters":27600,"station_id":"ce4bhah2rcd13ifvqei0","pricing_plan_id":"free"},{"bike_id":"d0d6f304-8748-49d8-9fbf-046e11d0a6a9","system_id":"levelo_inurba_marseille","lat":43.294314,"lon":5.397498,"is_reserved":false,"is_disabled":false,"rental_uris":{"android":"levelo://app?vid=d0d6f304-8748-49d8-9fbf-046e11d0a6a9","ios":"levelo://app?vid=d0d6f304-8748-49d8-9fbf-046e11d0a6a9"},"vehicle_type_id":"4","last_reported":1707013052,"current_range_meters":26400,"station_id":"ce4bh3h2rcd13ifvqdo0","pricing_plan_id":"free"},