{"last_updated":1703963067,"ttl":30,"version":"2.2","data":{"bikes":[{"bike_id":"a3a1cfab-f003-4fe7-a644-334945f255d5","system_id":"levelo_inurba_marseille","lat":43.314811,"lon":5.373103,"is_reserved":false,"is_disabled":false,"rental_uris":{"android":"levelo://app?vid=a3a1cfab-f003-4fe7-a644-334945f255d5","ios":"levelo://app?vid=a3a1cfab-f003-4fe7-a644-334945f255d5"},"vehicle_type_id":"4","last_reported":1703963067,"current_range_meters":11200,"station_id":"ce4bgt12rcd13ifvqcd0","pricing_plan_id":"free"},{"bike_id":"1e898f84-dec5-4357-9517-dd4268642da0","system_id":"levelo_inurba_marseille","lat":43.314811,"lon":5.373103,"is_reserved":false,"is_disabled":false,"rental_uris":{"android":"levelo://app?vid=1e898f84-dec5-4357-9517-dd4268642da0","ios":"levelo://app?vid=1e898f84-dec5-4357-9517-dd4268642da0"},"vehicle_type_id":"4","last_reported":1703963067,"current_range_meters":1200,"station_id":"ce4bgt12rcd13ifvqcd0","pricing_plan_id":"free"},{"bike_id":"2d7399e9-666b-4ccd-933c-7899b36c0364","system_id":"levelo_inurba_marseille","lat":43.309039,"lon":5.371797,"is_reserved":false,"is_disabled":false,"rental_uris":{"android":"levelo://app?vid=2d7399e9-666b-4ccd-933c-7899b36c0364","ios":"levelo://app?vid=2d7399e9-666b-4ccd-933c-7899b36c0364"},"vehicle_type_id":"4","last_reported":1703963067,"current_range_meters":0,"station_id":"ce4bguh2rcd13ifvqckg","pricing_plan_id":"free"},{"bike_id":"2bf1159c-4b34-4bc3-a8b5-156be571c011","system_id":"levelo_inurba_marseille","lat":43.307843,"lon":5.373431,"is_reserved":false,"is_disabled":false,"rental_uris":{"android":"levelo://app?vid=2bf1159c-4b34-4bc3-a8b5-156be571c011","ios":"levelo://app?vid=2bf1159c-4b34-4bc3-a8b5-156be571c011"},"vehicle_type_id":"4","last_reported":1703963067,"current_range_meters":26800,"station_id":"","pricing_plan_id":"free"},{"bike_id":"a3c8d623-a85c-45ca-8fac-8710ce7491da","system_id":"levelo_inurba_marseille","lat":43.30644,"lon":5.37184,"is_reserved":false,"is_disabled":false,"rental_uris":{"android":"levelo://app?vid=a3c8d623-a85c-45ca-8fac-8710ce7491da","ios":"levelo://app?vid=a3c8d623-a85c-45ca-8fac-8710ce7491da"},"vehicle_type_id":"4","last_reported":1703963067,"current_range_meters":7600,"station_id":"","pricing_plan_id":"free"},{"bike_id":"ed8d2401-58d4-4308-af8b-a9de9b5d5f8b","system_id":"levelo_inurba_marseille","lat":43.305496,"lon":5.367044,"is_reserved":false,"is_disabled":false,"rental_uris":{"android":"levelo://app?vid=ed8d2401-58d4-4308-af8b-a9de9b5d5f8b","ios":"levelo://app?vid=ed8d2401-58d4-4308-af8b-a9de9b5d5f8b"},"vehicle_type_id":"4","last_reported":1703963067,"current_range_meters":0,"station_id":"ce4bgrp2rcd13ifvqc9g","pricing_plan_id":"free"},{"bike_id":"64a93320-b6f7-4f00-82e1-5c71938933c4","system_id":"levelo_inurba_marseille","lat":43.313865,"lon":5.37685,"is_reserved":false,"is_disabled":false,"rental_uris":{"android":"levelo://app?vid=64a93320-b6f7-4f00-82e1-5c71938933c4","ios":"levelo://app?vid=64a93320-b6f7-4f00-82e1-5c71938933c4"},"vehicle_type_id":"4","last_reported":1703963067,"current_range_meters":22800,"station_id":"","pricing_plan_id":"free"},{"bike_id":"6b2355d1-b8a4-410c-8c9b-cd4e77a46549","system_id":"levelo_inurba_marseille","lat":43.305712,"lon":5.365641,"is_reserved":false,"is_disabled":false,"rental_uris":{"android":"levelo://app?vid=6b2355d1-b8a4-410c-8c9b-cd4e77a46549","ios":"levelo://app?vid=6b2355d1-b8a4-410c-8c9b-cd4e77a46549"},"vehicle_type_id":"4","last_reported":1703963067,"current_range_meters":12400,"station_id":"ce4bgs12rcd13ifvqcag","pricing_plan_id":"free"},{"bike_id":"42a5d98e-c78d-4686-9c91-05e32a3901b1","system_id":"levelo_inurba_marseille","lat":43.305368,"lon":5.367343,"is_reserved":false,"is_disabled":false,"rental_uris":{"android":"levelo://app?vid=42a5d98e-c78d-4686-9c91-05e32a3901b1","ios":"levelo://app?vid=42a5d98e-c78d-4686-9c91-05e32a3901b1"},"vehicle_type_id":"4","last_reported":1703963067,"current_range_meters":21600,"station_id":"ce4bgrp2rcd13ifvqc9g","pricing_plan_id":"free"},{"bike_id":"8c0aa514-646d-4675-b7b8-a1699ccbc5c7","system_id":"levelo_inurba_marseille","lat":43.305706,"lon":5.365654,"is_reserved":false,"is_disabled":false,"rental_uris":{"android":"levelo://app?vid=8c0aa514-646d-4675-b7b8-a1699ccbc5c7","ios":"levelo://app?vid=8c0aa514-646d-4675-b7b8-a1699ccbc5c7"},"vehicle_type_id":"4","last_reported":1703963067,"current_range_meters":800,"station_id":"ce4bgs12rcd13ifvqcag","pricing_plan_id":"free"},{"bike_id":"22a73d9c-0082-4b1f-ae2a-30f4a127fcc8","system_id":"levelo_inurba_marseille","lat":43.305368,"lon":5.367343,"is_reserved":false,"is_disabled":false,"rental_uris":{"android":"levelo://app?vid=22a73d9c-0082-4b1f-ae2a-30f4a127fcc8","ios":"levelo://app?vid=22a73d9c-0082-4b1f-ae2a-30f4a127fcc8"},"vehicle_type_id":"4","last_reported":1703963067,"current_range_meters":6800,"station_id":"ce4bgrp2rcd13ifvqc9g","pricing_plan_id":"free"},{"bike_id":"55b35725-eec6-4b5c-8df0-493a9b01062e","system_id":"levelo_inurba_marseille","lat":43.305989,"lon":5.37225,"is_reserved":false,"is_disabled":false,"rental_uris":{"android":"levelo://app?vid=55b35725-eec6-4b5c-8df0-493a9b01062e","ios":"levelo://app?vid=55b35725-eec6-4b5c-8df0-493a9b01062e"},"vehicle_type_id":"4","last_reported":1703963067,"current_range_meters":15600,"station_id":"ce4bgqh2rcd13ifvqc4g","pricing_plan_id":"free"},{"bike_id":"93d7d131-eb70-4119-8ad5-a93fbd9e9c60","system_id":"levelo_inurba_marseille","lat":43.305989,"lon":5.37225,"is_reserved":false,"is_disabled":false,"rental_uris":{"android":"levelo://app?vid=93d7d131-eb70-4119-8ad5-a93fbd9e9c60","ios":"levelo://app?vid=93d7d131-eb70-4119-8ad5-a93fbd9e9c60"},"vehicle_type_id":"4","last_reported":1703963067,"current_range_meters":5600,"station_id":"ce4bgqh2rcd13ifvqc4g","pricing_plan_id":"free"},{"bike_id":"e8fa1057-27ce-4e49-ba4b-40a8f8a74095","system_id":"levelo_inurba_marseille","lat":43.305989,"lon":5.37225,"is_reserved":false,"is_disabled":false,"rental_uris":{"android":"levelo://app?vid=e8fa1057-27ce-4e49-ba4b-40a8f8a74095","ios":"levelo://app?vid=e8fa1057-27ce-4e49-ba4b-40a8f8a74095"},"vehicle_type_id":"4","last_reported":1703963067,"current_range_meters":3600,"station_id":"ce4bgqh2rcd13ifvqc4g","pricing_plan_id":"free"},{"bike_id":"b53ead8b-116a-4da4-b1c6-84991729dccb","system_id":"levelo_inurba_marseille","lat":43.311131,"lon":5.377651,"is_reserved":false,"is_disabled":false,"rental_uris":{"android":"levelo://app?vid=b53ead8b-116a-4da4-b1c6-84991729dccb","ios":"levelo://app?vid=b53ead8b-116a-4da4-b1c6-84991729dccb"},"vehicle_type_id":"4","last_reported":1703963067,"current_range_meters":27200,"station_id":"ce4bgt92rcd13ifvqcg0","pricing_plan_id":"free"},{"bike_id":"bb69c5a1-9a11-4303-9081-b5eaf96fa6bc","system_id":"levelo_inurba_marseille","lat":43.311131,"lon":5.377651,"is_reserved":false,"is_disabled":false,"rental_uris":{"android":"levelo://app?vid=bb69c5a1-9a11-4303-9081-b5eaf96fa6bc","ios":"levelo://app?vid=bb69c5a1-9a11-4303-9081-b5eaf96fa6bc"},"vehicle_type_id":"4","last_reported":1703963067,"current_range_meters":5600,"station_id":"ce4bgt92rcd13ifvqcg0","pricing_plan_id":"free"},{"bike_id":"25af9e1c-886c-4f64-92f2-5ca68e46ae4a","system_id":"levelo_inurba_marseille","lat":43.31722,"lon":5.37668,"is_reserved":false,"is_disabled":false,"rental_uris":{"android":"levelo://app?vid=25af9e1c-886c-4f64-92f2-5ca68e46ae4a","ios":"levelo://app?vid=25af9e1c-886c-4f64-92f2-5ca68e46ae4a"},"vehicle_type_id":"4","last_reported":1703963067,"current_range_meters":25200,"station_id":"","pricing_plan_id":"free"},{"bike_id":"e5cdb6f6-1300-406e-9303-c0f03d781d71","system_id":"levelo_inurba_marseille","lat":43.317075,"lon":5.377367,"is_reserved":false,"is_disabled":false,"rental_uris":{"android":"levelo://app?vid=e5cdb6f6-1300-406e-9303-c0f03d781d71","ios":"levelo://app?vid=e5cdb6f6-1300-406e-9303-c0f03d781d71"},"vehicle_type_id":"4","last_reported":1703963067,"current_range_meters":8000,"station_id":"ce4bgth2rcd13ifvqch0","pricing_plan_id":"free"},{"bike_id":"4b4a830d-bdbc-4605-9cde-6eb7b6b1ec2f","system_id":"levelo_inurba_marseille","lat":43.303046,"lon":5.368981,"is_reserved":false,"is_disabled":false,"rental_uris":{"android":"levelo://app?vid=4b4a830d-bdbc-4605-9cde-6eb7b6b1ec2f","ios":"levelo://app?vid=4b4a830d-bdbc-4605-9cde-6eb7b6b1ec2f"},"vehicle_type_id":"4","last_reported":1703963067,"current_range_meters":30400,"station_id":"ce4bgqh2rcd13ifvqc5g","pricing_plan_id":"free"},{"bike_id":"9a580b35-b471-4bbb-8ca5-82e94f7a501d","system_id":"levelo_inurba_marseille","lat":43.315293,"lon":5.380349,"is_reserved":false,"is_disabled":false,"rental_uris":{"android":"levelo://app?vid=9a580b35-b471-4bbb-8ca5-82e94f7a501d","ios":"levelo://app?vid=9a580b35-b471-4bbb-8ca5-82e94f7a501d"},"vehicle_type_id":"4","last_reported":1703963067,"current_range_meters":6000,"station_id":"ce4bhsp2rcd13ifvqi50","pricing_plan_id":"free"},{"bike_id":"fa42125a-2b48-4e78-9b49-e4925096e263","system_id":"levelo_inurba_marseille","lat":43.315293,"lon":5.380349,"is_reserved":false,"is_disabled":false,"rental_uris":{"android":"levelo://app?vid=fa42125a-2b48-4e78-9b49-e4925096e263","ios":"levelo://app?vid=fa42125a-2b48-4e78-9b49-e4925096e263"},"vehicle_type_id":"4","last_reported":1703963067,"current_range_meters":11200,"station_id":"ce4bhsp2rcd13ifvqi50","pricing_plan_id":"free"},{"bike_id":"86a73a79-089f-43f2-be4c-1c568b77c40d","system_id":"levelo_inurba_marseille","lat":43.301939,"lon":5.366286,"is_reserved":false,"is_disabled":false,"rental_uris":{"android":"levelo://app?vid=86a73a79-089f-43f2-be4c-1c568b77c40d","ios":"levelo://app?vid=86a73a79-089f-43f2-be4c-1c568b77c40d"},"vehicle_type_id":"4","last_reported":1703963067,"current_range_meters":21200,"station_id":"ce4bgrh2rcd13ifvqc8g","pricing_plan_id":"free"},{"bike_id":"020df3b8-b0b1-4d89-a340-e7bb8d26326f","system_id":"levelo_inurba_marseille","lat":43.301939,"lon":5.366286,"is_reserved":false,"is_disabled":false,"rental_uris":{"android":"levelo://app?vid=020df3b8-b0b1-4d89-a340-e7bb8d26326f","ios":"levelo://app?vid=020df3b8-b0b1-4d89-a340-e7bb8d26326f"},"vehicle_type_id":"4","last_reported":1703963067,"current_range_meters":5200,"station_id":"ce4bgrh2rcd13ifvqc8g","pricing_plan_id":"free"},{"bike_id":"3046c768-0de3-4e8c-a259-af03f02eeb63","system_id":"levelo_inurba_marseille","lat":43.308012,"lon":5.381511,"is_reserved":false,"is_disabled":false,"rental_uris":{"android":"levelo://app?vid=3046c768-0de3-4e8c-a259-af03f02eeb63","ios":"levelo://app?vid=3046c768-0de3-4e8c-a259-af03f02eeb63"},"vehicle_type_id":"4","last_reported":1703963067,"current_range_meters":13200,"station_id":"ce4bgt12rcd13ifvqce0","pricing_plan_id":"free"},{"bike_id":"e4dcb29d-6179-427e-822d-8621bcd08456","system_id":"levelo_inurba_marseille","lat":43.304708,"lon":5.379039,"is_reserved":false,"is_disabled":false,"rental_uris":{"android":"levelo://app?vid=e4dcb29d-6179-427e-822d-8621bcd08456","ios":"levelo://app?vid=e4dcb29d-6179-427e-822d-8621bcd08456"},"vehicle_type_id":"4","last_reported":1703963067,"current_range_meters":21600,"station_id":"","pricing_plan_id":"free"},{"bike_id":"8a1e7196-bc35-4f7c-a0d5-0002a3cd0615","system_id":"levelo_inurba_marseille","lat":43.304606,"lon":5.379026,"is_reserved":false,"is_disabled":false,"rental_uris":{"android":"levelo://app?vid=8a1e7196-bc35-4f7c-a0d5-0002a3cd0615","ios":"levelo://app?vid=8a1e7196-bc35-4f7c-a0d5-0002a3cd0615"},"vehicle_type_id":"4","last_reported":1703963067,"current_range_meters":0,"station_id":"ce4bgup2rcd13ifvqcn0","pricing_plan_id":"free"},{"bike_id":"7d5a5fe5-0b70-43bb-9224-59cfb24cc454","system_id":"levelo_inurba_marseille","lat":43.324771,"lon":5.36557,"is_reserved":false,"is_disabled":false,"rental_uris":{"android":"levelo://app?vid=7d5a5fe5-0b70-43bb-9224-59cfb24cc454","ios":"levelo://app?vid=7d5a5fe5-0b70-43bb-9224-59cfb24cc454"},"vehicle_type_id":"4","last_reported":1703963067,"current_range_meters":10000,"station_id":"ce4bhs12rcd13ifvqhvg","pricing_plan_id":"free"},{"bike_id":"ca341ae7-df28-456b-b1c2-455111f76789","system_id":"levelo_inurba_marseille","lat":43.324771,"lon":5.36557,"is_reserved":false,"is_disabled":false,"rental_uris":{"android":"levelo://app?vid=ca341ae7-df28-456b-b1c2-455111f76789","ios":"levelo://app?vid=ca341ae7-df28-456b-b1c2-455111f76789"},"vehicle_type_id":"4","last_reported":1703963067,"current_range_meters":21200,"station_id":"ce4bhs12rcd13ifvqhvg","pricing_plan_id":"free"},{"bike_id":"6d46f872-18cc-41a2-9678-6fcde14d13d1","system_id":"levelo_inurba_marseille","lat":43.313571,"lon":5.384829,"is_reserved":false,"is_disabled":false,"rental_uris":{"android":"levelo://app?vid=6d46f872-18cc-41a2-9678-6fcde14d13d1","ios":"levelo://app?vid=6d46f872-18cc-41a2-9678-6fcde14d13d1"},"vehicle_type_id":"4","last_reported":1703963067,"current_range_meters":9200,"station_id":"ce4bgt92rcd13ifvqcf0","pricing_plan_id":"free"},{"bike_id":"6ae906b2-aa8f-407b-83b3-5563503bb155","system_id":"levelo_inurba_marseille","lat":43.313571,"lon":5.384829,"is_reserved":false,"is_disabled":false,"rental_uris":{"android":"levelo://app?vid=6ae906b2-aa8f-407b-83b3-5563503bb155","ios":"levelo://app?vid=6ae906b2-aa8f-407b-83b3-5563503bb155"},"vehicle_type_id":"4","last_reported":1703963067,"current_range_meters":23600,"station_id":"ce4bgt92rcd13ifvqcf0","pricing_plan_id":"free"},{"bike_id":"ac2cc7be-b92e-4538-ab06-13365615f473","system_id":"levelo_inurba_marseille","lat":43.29982,"lon":5.37183,"is_reserved":false,"is_disabled":false,"rental_uris":{"android":"levelo://app?vid=ac2cc7be-b92e-4538-ab06-13365615f473","ios":"levelo://app?vid=ac2cc7be-b92e-4538-ab06-13365615f473"},"vehicle_type_id":"4","last_reported":1703963067,"current_range_meters":3600,"station_id":"ce4bgr92rcd13ifvqc7g","pricing_plan_id":"free"},{"bike_id":"dc3dc03f-7236-48cf-8be4-c76bc6c40be8","system_id":"levelo_inurba_marseille","lat":43.299222,"lon":5.365554,"is_reserved":false,"is_disabled":false,"rental_uris":{"android":"levelo://app?vid=dc3dc03f-7236-48cf-8be4-c76bc6c40be8","ios":"levelo://app?vid=dc3dc03f-7236-48cf-8be4-c76bc6c40be8"},"vehicle_type_id":"4","last_reported":1703963067,"current_range_meters":6400,"station_id":"ce4bgm92rcd13ifvqbr0","pricing_plan_id":"free"},{"bike_id":"2b12bc0d-2145-45c7-a650-56d3f309083a","system_id":"levelo_inurba_marseille","lat":43.29976,"lon":5.37186,"is_reserved":false,"is_disabled":false,"rental_uris":{"android":"levelo://app?vid=2b12bc0d-2145-45c7-a650-56d3f309083a","ios":"levelo://app?vid=2b12bc0d-2145-45c7-a650-56d3f309083a"},"vehicle_type_id":"4","last_reported":1703963067,"current_range_meters":4000,"station_id":"ce4bgr92rcd13ifvqc7g","pricing_plan_id":"free"},{"bike_id":"c05d138a-9eaa-4578-84f8-5eb99c852b0c","system_id":"levelo_inurba_marseille","lat":43.299939,"lon":5.374331,"is_reserved":false,"is_disabled":false,"rental_uris":{"android":"levelo://app?vid=c05d138a-9eaa-4578-84f8-5eb99c852b0c","ios":"levelo://app?vid=c05d138a-9eaa-4578-84f8-5eb99c852b0c"},"vehicle_type_id":"4","last_reported":1703963067,"current_range_meters":7200,"station_id":"","pricing_plan_id":"free"},{"bike_id":"f16d8d6c-b3fe-47bc-af43-0b7df6999c6c","system_id":"levelo_inurba_marseille","lat":43.305364,"lon":5.384119,"is_reserved":false,"is_disabled":false,"rental_uris":{"android":"levelo://app?vid=f16d8d6c-b3fe-47bc-af43-0b7df6999c6c","ios":"levelo://app?vid=f16d8d6c-b3fe-47bc-af43-0b7df6999c6c"},"vehicle_type_id":"4","last_reported":1703963067,"current_range_meters":11200,"station_id":"ce4bgg92rcd13ifvqb30","pricing_plan_id":"free"},{"bike_id":"ce932f4b-1034-4908-bc9b-b6fe98f5613a","system_id":"levelo_inurba_marseille","lat":43.305364,"lon":5.384119,"is_reserved":false,"is_disabled":false,"rental_uris":{"android":"levelo://app?vid=ce932f4b-1034-4908-bc9b-b6fe98f5613a","ios":"levelo://app?vid=ce932f4b-1034-4908-bc9b-b6fe98f5613a"},"vehicle_type_id":"4","last_reported":1703963067,"current_range_meters":28000,"station_id":"ce4bgg92rcd13ifvqb30","pricing_plan_id":"free"},{"bike_id":"649427cd-7b97-4b70-8181-1157a3fbc8a7","system_id":"levelo_inurba_marseille","lat":43.311722,"lon":5.387247,"is_reserved":false,"is_disabled":false,"rental_uris":{"android":"levelo://app?vid=649427cd-7b97-4b70-8181-1157a3fbc8a7","ios":"levelo://app?vid=649427cd-7b97-4b70-8181-1157a3fbc8a7"},"vehicle_type_id":"4","last_reported":1703963067,"current_range_meters":20800,"station_id":"ce4bgv12rcd13ifvqcp0","pricing_plan_id":"free"},{"bike_id":"6240f364-9063-49d6-96db-602aa523b488","system_id":"levelo_inurba_marseille","lat":43.311722,"lon":5.387247,"is_reserved":false,"is_disabled":false,"rental_uris":{"android":"levelo://app?vid=6240f364-9063-49d6-96db-602aa523b488","ios":"levelo://app?vid=6240f364-9063-49d6-96db-602aa523b488"},"vehicle_type_id":"4","last_reported":1703963067,"current_range_meters":5200,"station_id":"ce4bgv12rcd13ifvqcp0","pricing_plan_id":"free"},{"bike_id":"8d47d553-fcf8-40fe-aee0-d9b9da2e509d","system_id":"levelo_inurba_marseille","lat":43.297794,"lon":5.370888,"is_reserved":false,"is_disabled":false,"rental_uris":{"android":"levelo://app?vid=8d47d553-fcf8-40fe-aee0-d9b9da2e509d","ios":"levelo://app?vid=8d47d553-fcf8-40fe-aee0-d9b9da2e509d"},"vehicle_type_id":"4","last_reported":1703963067,"current_range_meters":6000,"station_id":"ce4bgop2rcd13ifvqc1g","pricing_plan_id":"free"},{"bike_id":"c8810852-277f-44f2-a712-d1c79f44e282","system_id":"levelo_inurba_marseille","lat":43.297794,"lon":5.370888,"is_reserved":false,"is_disabled":false,"rental_uris":{"android":"levelo://app?vid=c8810852-277f-44f2-a712-d1c79f44e282","ios":"levelo://app?vid=c8810852-277f-44f2-a712-d1c79f44e282"},"vehicle_type_id":"4","last_reported":1703963067,"current_range_meters":0,"station_id":"ce4bgop2rcd13ifvqc1g","pricing_plan_id":"free"},{"bike_id":"2154e13a-10ef-4d79-b4f3-a92c055765e5","system_id":"levelo_inurba_marseille","lat":43.322872,"lon":5.382756,"is_reserved":false,"is_disabled":false,"rental_uris":{"android":"levelo://app?vid=2154e13a-10ef-4d79-b4f3-a92c055765e5","ios":"levelo://app?vid=2154e13a-10ef-4d79-b4f3-a92c055765e5"},"vehicle_type_id":"4","last_reported":1703963067,"current_range_meters":30400,"station_id":"ce4bhr12rcd13ifvqhqg","pricing_plan_id":"free"},{"bike_id":"da229b3c-11b2-4823-a6a7-44fccd060bd5","system_id":"levelo_inurba_marseille","lat":43.322872,"lon":5.382756,"is_reserved":false,"is_disabled":false,"rental_uris":{"android":"levelo://app?vid=da229b3c-11b2-4823-a6a7-44fccd060bd5","ios":"levelo://app?vid=da229b3c-11b2-4823-a6a7-44fccd060bd5"},"vehicle_type_id":"4","last_reported":1703963067,"current_range_meters":12000,"station_id":"ce4bhr12rcd13ifvqhqg","pricing_plan_id":"free"},{"bike_id":"3406ac08-144e-419c-8a8c-9c89910b5b78","system_id":"levelo_inurba_marseille","lat":43.328216,"lon":5.366805,"is_reserved":false,"is_disabled":false,"rental_uris":{"android":"levelo://app?vid=3406ac08-144e-419c-8a8c-9c89910b5b78","ios":"levelo://app?vid=3406ac08-144e-419c-8a8c-9c89910b5b78"},"vehicle_type_id":"4","last_reported":1703963067,"current_range_meters":9200,"station_id":"ce4bhs92rcd13ifvqi0g","pricing_plan_id":"free"},{"bike_id":"7d6d006d-1ffd-499a-b21c-af208ba00600","system_id":"levelo_inurba_marseille","lat":43.32822,"lon":5.36679,"is_reserved":false,"is_disabled":false,"rental_uris":{"android":"levelo://app?vid=7d6d006d-1ffd-499a-b21c-af208ba00600","ios":"levelo://app?vid=7d6d006d-1ffd-499a-b21c-af208ba00600"},"vehicle_type_id":"4","last_reported":1703963067,"current_range_meters":22800,"station_id":"ce4bhs92rcd13ifvqi0g","pricing_plan_id":"free"},{"bike_id":"74ff96ff-c851-4d57-8883-0d7347bd471f","system_id":"levelo_inurba_marseille","lat":43.32822,"lon":5.36673,"is_reserved":false,"is_disabled":false,"rental_uris":{"android":"levelo://app?vid=74ff96ff-c851-4d57-8883-0d7347bd471f","ios":"levelo://app?vid=74ff96ff-c851-4d57-8883-0d7347bd471f"},"vehicle_type_id":"4","last_reported":1703963067,"current_range_meters":29600,"station_id":"ce4bhs92rcd13ifvqi0g","pricing_plan_id":"free"},{"bike_id":"7aa6a530-3ac6-4ec6-a447-a7bf4c489e07","system_id":"levelo_inurba_marseille","lat":43.32823,"lon":5.36685,"is_reserved":false,"is_disabled":false,"rental_uris":{"android":"levelo://app?vid=7aa6a530-3ac6-4ec6-a447-a7bf4c489e07","ios":"levelo://app?vid=7aa6a530-3ac6-4ec6-a447-a7bf4c489e07"},"vehicle_type_id":"4","last_reported":1703963067,"current_range_meters":19200,"station_id":"ce4bhs92rcd13ifvqi0g","pricing_plan_id":"free"},{"bike_id":"904f83aa-e9ab-401d-84c1-9edfed82b884","system_id":"levelo_inurba_marseille","lat":43.328371,"lon":5.366912,"is_reserved":false,"is_disabled":false,"rental_uris":{"android":"levelo://app?vid=904f83aa-e9ab-401d-84c1-9edfed82b884","ios":"levelo://app?vid=904f83aa-e9ab-401d-84c1-9edfed82b884"},"vehicle_type_id":"4","last_reported":1703963067,"current_range_meters":25200,"station_id":"ce4bhs92rcd13ifvqi0g","pricing_plan_id":"free"},{"bike_id":"5c89eee7-6e83-42b4-bd81-efdcf68f6666","system_id":"levelo_inurba_marseille","lat":43.32826,"lon":5.36684,"is_reserved":false,"is_disabled":false,"rental_uris":{"android":"levelo://app?vid=5c89eee7-6e83-42b4-bd81-efdcf68f6666","ios":"levelo://app?vid=5c89eee7-6e83-42b4-bd81-efdcf68f6666"},"vehicle_type_id":"4","last_reported":1703963067,"current_range_meters":5200,"station_id":"ce4bhs92rcd13ifvqi0g","pricing_plan_id":"free"},{"bike_id":"9d832f49-b330-492c-bca5-26b211dfab4e","system_id":"levelo_inurba_marseille","lat":43.328268,"lon":5.366771,"is_reserved":false,"is_disabled":false,"rental_uris":{"android":"levelo://app?vid=9d832f49-b330-492c-bca5-26b211dfab4e","ios":"levelo://app?vid=9d832f49-b330-492c-bca5-26b211dfab4e"},"vehicle_type_id":"4","last_reported":1703963067,"current_range_meters":19200,"station_id":"ce4bhs92rcd13ifvqi0g","pricing_plan_id":"free"},{"bike_id":"a677cd10-a09b-4b2e-bffd-45b05d2c9229","system_id":"levelo_inurba_marseille","lat":43.328268,"lon":5.366779,"is_reserved":false,"is_disabled":false,"rental_uris":{"android":"levelo://app?vid=a677cd10-a09b-4b2e-bffd-45b05d2c9229","ios":"levelo://app?vid=a677cd10-a09b-4b2e-bffd-45b05d2c9229"},"vehicle_type_id":"4","last_reported":1703963067,"current_range_meters":17600,"station_id":"ce4bhs92rcd13ifvqi0g","pricing_plan_id":"free"},{"bike_id":"43517afb-7930-42e8-a305-e900a3000a28","system_id":"levelo_inurba_marseille","lat":43.32827,"lon":5.36677,"is_reserved":false,"is_disabled":false,"rental_uris":{"android":"levelo://app?vid=43517afb-7930-42e8-a305-e900a3000a28","ios":"levelo://app?vid=43517afb-7930-42e8-a305-e900a3000a28"},"vehicle_type_id":"4","last_reported":1703963067,"current_range_meters":19200,"station_id":"ce4bhs92rcd13ifvqi0g","pricing_plan_id":"free"},{"bike_id":"51714c4a-3132-4951-88ec-80e85fa125e8","system_id":"levelo_inurba_marseille","lat":43.328278,"lon":5.366806,"is_reserved":false,"is_disabled":false,"rental_uris":{"android":"levelo://app?vid=51714c4a-3132-4951-88ec-80e85fa125e8","ios":"levelo://app?vid=51714c4a-3132-4951-88ec-80e85fa125e8"},"vehicle_type_id":"4","last_reported":1703963067,"current_range_meters":8800,"station_id":"ce4bhs92rcd13ifvqi0g","pricing_plan_id":"free"},{"bike_id":"de708f00-7118-4d7c-9021-d7dcbd798473","system_id":"levelo_inurba_marseille","lat":43.328282,"lon":5.36681,"is_reserved":false,"is_disabled":false,"rental_uris":{"android":"levelo://app?vid=de708f00-7118-4d7c-9021-d7dcbd798473","ios":"levelo://app?vid=de708f00-7118-4d7c-9021-d7dcbd798473"},"vehicle_type_id":"4","last_reported":1703963067,"current_range_meters":29600,"station_id":"ce4bhs92rcd13ifvqi0g","pricing_plan_id":"free"},{"bike_id":"b565874b-57a1-49e1-a225-9f36f0cca013","system_id":"levelo_inurba_marseille","lat":43.32829,"lon":5.366786,"is_reserved":false,"is_disabled":false,"rental_uris":{"android":"levelo://app?vid=b565874b-57a1-49e1-a225-9f36f0cca013","ios":"levelo://app?vid=b565874b-57a1-49e1-a225-9f36f0cca013"},"vehicle_type_id":"4","last_reported":1703963067,"current_range_meters":9600,"station_id":"ce4bhs92rcd13ifvqi0g","pricing_plan_id":"free"},{"bike_id":"a448ca86-2b35-41e1-89c4-32a99bab0563","system_id":"levelo_inurba_marseille","lat":43.328371,"lon":5.366912,"is_reserved":false,"is_disabled":false,"rental_uris":{"android":"levelo://app?vid=a448ca86-2b35-41e1-89c4-32a99bab0563","ios":"levelo://app?vid=a448ca86-2b35-41e1-89c4-32a99bab0563"},"vehicle_type_id":"4","last_reported":1703963067,"current_range_meters":14000,"station_id":"ce4bhs92rcd13ifvqi0g","pricing_plan_id":"free"},{"bike_id":"b30b3d1b-ef61-4776-bd7b-61c34fd8cc81","system_id":"levelo_inurba_marseille","lat":43.3283,"lon":5.36677,"is_reserved":false,"is_disabled":false,"rental_uris":{"android":"levelo://app?vid=b30b3d1b-ef61-4776-bd7b-61c34fd8cc81","ios":"levelo://app?vid=b30b3d1b-ef61-4776-bd7b-61c34fd8cc81"},"vehicle_type_id":"4","last_reported":1703963067,"current_range_meters":6000,"station_id":"ce4bhs92rcd13ifvqi0g","pricing_plan_id":"free"},{"bike_id":"ea7074d7-b7c9-4941-82c2-dff391bae9cb","system_id":"levelo_inurba_marseille","lat":43.328301,"lon":5.366802,"is_reserved":false,"is_disabled":false,"rental_uris":{"android":"levelo://app?vid=ea7074d7-b7c9-4941-82c2-dff391bae9cb","ios":"levelo://app?vid=ea7074d7-b7c9-4941-82c2-dff391bae9cb"},"vehicle_type_id":"4","last_reported":1703963067,"current_range_meters":28000,"station_id":"ce4bhs92rcd13ifvqi0g","pricing_plan_id":"free"},{"bike_id":"c99c1421-6c70-45e1-a99f-19afba82ca69","system_id":"levelo_inurba_marseille","lat":43.32831,"lon":5.36688,"is_reserved":false,"is_disabled":false,"rental_uris":{"android":"levelo://app?vid=c99c1421-6c70-45e1-a99f-19afba82ca69","ios":"levelo://app?vid=c99c1421-6c70-45e1-a99f-19afba82ca69"},"vehicle_type_id":"4","last_reported":1703963067,"current_range_meters":25200,"station_id":"ce4bhs92rcd13ifvqi0g","pricing_plan_id":"free"},{"bike_id":"70017d6e-6f1a-4af6-baf6-320a119b5691","system_id":"levelo_inurba_marseille","lat":43.328319,"lon":5.366779,"is_reserved":false,"is_disabled":false,"rental_uris":{"android":"levelo://app?vid=70017d6e-6f1a-4af6-baf6-320a119b5691","ios":"levelo://app?vid=70017d6e-6f1a-4af6-baf6-320a119b5691"},"vehicle_type_id":"4","last_reported":1703963067,"current_range_meters":28000,"station_id":"ce4bhs92rcd13ifvqi0g","pricing_plan_id":"free"},{"bike_id":"370cccf7-c9ba-46c2-819b-c8e8cacc4c21","system_id":"levelo_inurba_marseille","lat":43.3277,"lon":5.37458,"is_reserved":false,"is_disabled":false,"rental_uris":{"android":"levelo://app?vid=370cccf7-c9ba-46c2-819b-c8e8cacc4c21","ios":"levelo://app?vid=370cccf7-c9ba-46c2-819b-c8e8cacc4c21"},"vehicle_type_id":"4","last_reported":1703963067,"current_range_meters":13600,"station_id":"","pricing_plan_id":"free"},{"bike_id":"921b424d-ad0d-4c7a-9d74-66e3a49bfa19","system_id":"levelo_inurba_marseille","lat":43.32934,"lon":5.36612,"is_reserved":false,"is_disabled":false,"rental_uris":{"android":"levelo://app?vid=921b424d-ad0d-4c7a-9d74-66e3a49bfa19","ios":"levelo://app?vid=921b424d-ad0d-4c7a-9d74-66e3a49bfa19"},"vehicle_type_id":"4","last_reported":1703963067,"current_range_meters":4800,"station_id":"","pricing_plan_id":"free"},{"bike_id":"8214950c-28f8-4efc-91f0-76e6e7768939","system_id":"levelo_inurba_marseille","lat":43.299028,"lon":5.381509,"is_reserved":false,"is_disabled":false,"rental_uris":{"android":"levelo://app?vid=8214950c-28f8-4efc-91f0-76e6e7768939","ios":"levelo://app?vid=8214950c-28f8-4efc-91f0-76e6e7768939"},"vehicle_type_id":"4","last_reported":1703963067,"current_range_meters":0,"station_id":"ce4bgj12rcd13ifvqbc0","pricing_plan_id":"free"},{"bike_id":"776fd869-f7c2-4fc9-b795-82bacf0a478c","system_id":"levelo_inurba_marseille","lat":43.317557,"lon":5.390173,"is_reserved":false,"is_disabled":false,"rental_uris":{"android":"levelo://app?vid=776fd869-f7c2-4fc9-b795-82bacf0a478c","ios":"levelo://app?vid=776fd869-f7c2-4fc9-b795-82bacf0a478c"},"vehicle_type_id":"4","last_reported":1703963067,"current_range_meters":5200,"station_id":"ce4bhqp2rcd13ifvqhng","pricing_plan_id":"free"},{"bike_id":"26399a04-039d-48cd-bdfe-b7af802f9951","system_id":"levelo_inurba_marseille","lat":43.317557,"lon":5.390173,"is_reserved":false,"is_disabled":false,"rental_uris":{"android":"levelo://app?vid=26399a04-039d-48cd-bdfe-b7af802f9951","ios":"levelo://app?vid=26399a04-039d-48cd-bdfe-b7af802f9951"},"vehicle_type_id":"4","last_reported":1703963067,"current_range_meters":24800,"station_id":"ce4bhqp2rcd13ifvqhng","pricing_plan_id":"free"},{"bike_id":"99908e46-37a9-41cf-99cb-dba921b44ce3","system_id":"levelo_inurba_marseille","lat":43.317557,"lon":5.390173,"is_reserved":false,"is_disabled":false,"rental_uris":{"android":"levelo://app?vid=99908e46-37a9-41cf-99cb-dba921b44ce3","ios":"levelo://app?vid=99908e46-37a9-41cf-99cb-dba921b44ce3"},"vehicle_type_id":"4","last_reported":1703963067,"current_range_meters":17600,"station_id":"ce4bhqp2rcd13ifvqhng","pricing_plan_id":"free"},{"bike_id":"0234f0a2-0403-4e48-aa7f-ff0bb0d2b1e3","system_id":"levelo_inurba_marseille","lat":43.298037,"lon":5.381066,"is_reserved":false,"is_disabled":false,"rental_uris":{"android":"levelo://app?vid=0234f0a2-0403-4e48-aa7f-ff0bb0d2b1e3","ios":"levelo://app?vid=0234f0a2-0403-4e48-aa7f-ff0bb0d2b1e3"},"vehicle_type_id":"4","last_reported":1703963067,"current_range_meters":23600,"station_id":"ce4bgip2rcd13ifvqbb0","pricing_plan_id":"free"},{"bike_id":"fdb467f2-d9a1-4b9d-b55e-ffad04c1885b","system_id":"levelo_inurba_marseille","lat":43.295748,"lon":5.37522,"is_reserved":false,"is_disabled":false,"rental_uris":{"android":"levelo://app?vid=fdb467f2-d9a1-4b9d-b55e-ffad04c1885b","ios":"levelo://app?vid=fdb467f2-d9a1-4b9d-b55e-ffad04c1885b"},"vehicle_type_id":"4","last_reported":1703963067,"current_range_meters":20000,"station_id":"ce4bgh92rcd13ifvqb50","pricing_plan_id":"free"},{"bike_id":"8093cb9e-b1a3-4c0f-a410-becb2362dd7b","system_id":"levelo_inurba_marseille","lat":43.304274,"lon":5.388873,"is_reserved":false,"is_disabled":false,"rental_uris":{"android":"levelo://app?vid=8093cb9e-b1a3-4c0f-a410-becb2362dd7b","ios":"levelo://app?vid=8093cb9e-b1a3-4c0f-a410-becb2362dd7b"},"vehicle_type_id":"4","last_reported":1703963067,"current_range_meters":0,"station_id":"ce4bgk12rcd13ifvqbi0","pricing_plan_id":"free"},{"bike_id":"d60802d6-4f47-444a-b234-883690eec05b","system_id":"levelo_inurba_marseille","lat":43.33062,"lon":5.3627,"is_reserved":false,"is_disabled":false,"rental_uris":{"android":"levelo://app?vid=d60802d6-4f47-444a-b234-883690eec05b","ios":"levelo://app?vid=d60802d6-4f47-444a-b234-883690eec05b"},"vehicle_type_id":"4","last_reported":1703963067,"current_range_meters":26400,"station_id":"","pricing_plan_id":"free"},{"bike_id":"7119845d-00aa-4d9f-be8c-fc97d41f1380","system_id":"levelo_inurba_marseille","lat":43.297594,"lon":5.381134,"is_reserved":false,"is_disabled":false,"rental_uris":{"android":"levelo://app?vid=7119845d-00aa-4d9f-be8c-fc97d41f1380","ios":"levelo://app?vid=7119845d-00aa-4d9f-be8c-fc97d41f1380"},"vehicle_type_id":"4","last_reported":1703963067,"current_range_meters":14800,"station_id":"ce4bgip2rcd13ifvqbb0","pricing_plan_id":"free"},{"bike_id":"21c35184-2cff-45c5-a579-0cd18467e694","system_id":"levelo_inurba_marseille","lat":43.32367,"lon":5.388836,"is_reserved":false,"is_disabled":false,"rental_uris":{"android":"levelo://app?vid=21c35184-2cff-45c5-a579-0cd18467e694","ios":"levelo://app?vid=21c35184-2cff-45c5-a579-0cd18467e694"},"vehicle_type_id":"4","last_reported":1703963067,"current_range_meters":8400,"station_id":"ce4bhqp2rcd13ifvqhog","pricing_plan_id":"free"},{"bike_id":"fdba10d6-6c0f-4aa0-aa2d-a60cd34dc728","system_id":"levelo_inurba_marseille","lat":43.32367,"lon":5.388836,"is_reserved":false,"is_disabled":false,"rental_uris":{"android":"levelo://app?vid=fdba10d6-6c0f-4aa0-aa2d-a60cd34dc728","ios":"levelo://app?vid=fdba10d6-6c0f-4aa0-aa2d-a60cd34dc728"},"vehicle_type_id":"4","last_reported":1703963067,"current_range_meters":14400,"station_id":"ce4bhqp2rcd13ifvqhog","pricing_plan_id":"free"},{"bike_id":"6dc8b67f-7677-4649-90b5-6c004787a94e","system_id":"levelo_inurba_marseille","lat":43.32367,"lon":5.388836,"is_reserved":false,"is_disabled":false,"rental_uris":{"android":"levelo://app?vid=6dc8b67f-7677-4649-90b5-6c004787a94e","ios":"levelo://app?vid=6dc8b67f-7677-4649-90b5-6c004787a94e"},"vehicle_type_id":"4","last_reported":1703963067,"current_range_meters":14800,"station_id":"ce4bhqp2rcd13ifvqhog","pricing_plan_id":"free"},{"bike_id":"122ea523-742e-4de1-aad4-693e2611c6b8","system_id":"levelo_inurba_marseille","lat":43.32367,"lon":5.388836,"is_reserved":false,"is_disabled":false,"rental_uris":{"android":"levelo://app?vid=122ea523-742e-4de1-aad4-693e2611c6b8","ios":"levelo://app?vid=122ea523-742e-4de1-aad4-693e2611c6b8"},"vehicle_type_id":"4","last_reported":1703963067,"current_range_meters":6000,"station_id":"ce4bhqp2rcd13ifvqhog","pricing_plan_id":"free"},{"bike_id":"c472997c-8921-4240-9407-9bbb195b44d8","system_id":"levelo_inurba_marseille","lat":43.32367,"lon":5.388836,"is_reserved":false,"is_disabled":false,"rental_uris":{"android":"levelo://app?vid=c472997c-8921-4240-9407-9bbb195b44d8","ios":"levelo://app?vid=c472997c-8921-4240-9407-9bbb195b44d8"},"vehicle_type_id":"4","last_reported":1703963067,"current_range_meters":0,"station_id":"ce4bhqp2rcd13ifvqhog","pricing_plan_id":"free"},{"bike_id":"7fae35e3-b057-47b2-a58d-5413c571ef5c","system_id":"levelo_inurba_marseille","lat":43.293259,"lon":5.371586,"is_reserved":false,"is_disabled":false,"rental_uris":{"android":"levelo://app?vid=7fae35e3-b057-47b2-a58d-5413c571ef5c","ios":"levelo://app?vid=7fae35e3-b057-47b2-a58d-5413c571ef5c"},"vehicle_type_id":"4","last_reported":1703963067,"current_range_meters":1600,"station_id":"ce4bgh92rcd13ifvqb40","pricing_plan_id":"free"},{"bike_id":"2c96a59f-887c-4df7-8c54-359078d6fc15","system_id":"levelo_inurba_marseille","lat":43.293259,"lon":5.371586,"is_reserved":false,"is_disabled":false,"rental_uris":{"android":"levelo://app?vid=2c96a59f-887c-4df7-8c54-359078d6fc15","ios":"levelo://app?vid=2c96a59f-887c-4df7-8c54-359078d6fc15"},"vehicle_type_id":"4","last_reported":1703963067,"current_range_meters":10400,"station_id":"ce4bgh92rcd13ifvqb40","pricing_plan_id":"free"},{"bike_id":"36c02398-b492-4255-85d6-42e714f4a6de","system_id":"levelo_inurba_marseille","lat":43.305994,"lon":5.393687,"is_reserved":false,"is_disabled":false,"rental_uris":{"android":"levelo://app?vid=36c02398-b492-4255-85d6-42e714f4a6de","ios":"levelo://app?vid=36c02398-b492-4255-85d6-42e714f4a6de"},"vehicle_type_id":"4","last_reported":1703963067,"current_range_meters":2800,"station_id":"ce4bh0p2rcd13ifvqd80","pricing_plan_id":"free"},{"bike_id":"7b8ee1cf-cf7e-4245-bb86-e5d2d3d8854e","system_id":"levelo_inurba_marseille","lat":43.305994,"lon":5.393687,"is_reserved":false,"is_disabled":false,"rental_uris":{"android":"levelo://app?vid=7b8ee1cf-cf7e-4245-bb86-e5d2d3d8854e","ios":"levelo://app?vid=7b8ee1cf-cf7e-4245-bb86-e5d2d3d8854e"},"vehicle_type_id":"4","last_reported":1703963067,"current_range_meters":22400,"station_id":"ce4bh0p2rcd13ifvqd80","pricing_plan_id":"free"},{"bike_id":"c8aa4b9c-385d-4b19-ab7a-466b569533aa","system_id":"levelo_inurba_marseille","lat":43.2936,"lon":5.37835,"is_reserved":false,"is_disabled":false,"rental_uris":{"android":"levelo://app?vid=c8aa4b9c-385d-4b19-ab7a-466b569533aa","ios":"levelo://app?vid=c8aa4b9c-385d-4b19-ab7a-466b569533aa"},"vehicle_type_id":"4","last_reported":1703963067,"current_range_meters":12400,"station_id":"ce4bgjh2rcd13ifvqbf0","pricing_plan_id":"free"},{"bike_id":"0f5dbb1d-2b65-47a1-a61a-a3ffa33a4d84","system_id":"levelo_inurba_marseille","lat":43.292311,"lon":5.360731,"is_reserved":false,"is_disabled":false,"rental_uris":{"android":"levelo://app?vid=0f5dbb1d-2b65-47a1-a61a-a3ffa33a4d84","ios":"levelo://app?vid=0f5dbb1d-2b65-47a1-a61a-a3ffa33a4d84"},"vehicle_type_id":"4","last_reported":1703963067,"current_range_meters":14800,"station_id":"ce4bhbh2rcd13ifvqeqg","pricing_plan_id":"free"},{"bike_id":"4323ed37-8758-47ef-a6b1-b9f6df588e8f","system_id":"levelo_inurba_marseille","lat":43.291675,"lon":5.371583,"is_reserved":false,"is_disabled":false,"rental_uris":{"android":"levelo://app?vid=4323ed37-8758-47ef-a6b1-b9f6df588e8f","ios":"levelo://app?vid=4323ed37-8758-47ef-a6b1-b9f6df588e8f"},"vehicle_type_id":"4","last_reported":1703963067,"current_range_meters":400,"station_id":"ce4bha92rcd13ifvqeh0","pricing_plan_id":"free"},{"bike_id":"2da1ed21-bb39-467e-b66c-5d6bf4465df8","system_id":"levelo_inurba_marseille","lat":43.29877,"lon":5.38909,"is_reserved":false,"is_disabled":false,"rental_uris":{"android":"levelo://app?vid=2da1ed21-bb39-467e-b66c-5d6bf4465df8","ios":"levelo://app?vid=2da1ed21-bb39-467e-b66c-5d6bf4465df8"},"vehicle_type_id":"4","last_reported":1703963067,"current_range_meters":24000,"station_id":"","pricing_plan_id":"free"},{"bike_id":"ae8c443e-9b93-4af2-99df-2e8c7310783c","system_id":"levelo_inurba_marseille","lat":43.291675,"lon":5.371583,"is_reserved":false,"is_disabled":false,"rental_uris":{"android":"levelo://app?vid=ae8c443e-9b93-4af2-99df-2e8c7310783c","ios":"levelo://app?vid=ae8c443e-9b93-4af2-99df-2e8c7310783c"},"vehicle_type_id":"4","last_reported":1703963067,"current_range_meters":22800,"station_id":"ce4bha92rcd13ifvqeh0","pricing_plan_id":"free"},{"bike_id":"d589cea2-e085-43ec-8d08-7b6bdc3f3aa6","system_id":"levelo_inurba_marseille","lat":43.309038,"lon":5.396546,"is_reserved":false,"is_disabled":false,"rental_uris":{"android":"levelo://app?vid=d589cea2-e085-43ec-8d08-7b6bdc3f3aa6","ios":"levelo://app?vid=d589cea2-e085-43ec-8d08-7b6bdc3f3aa6"},"vehicle_type_id":"4","last_reported":1703963067,"current_range_meters":0,"station_id":"ce4bh012rcd13ifvqcv0","pricing_plan_id":"free"},{"bike_id":"5cf30968-0f7d-4d59-becc-64e3e994078f","system_id":"levelo_inurba_marseille","lat":43.313291,"lon":5.396838,"is_reserved":false,"is_disabled":false,"rental_uris":{"android":"levelo://app?vid=5cf30968-0f7d-4d59-becc-64e3e994078f","ios":"levelo://app?vid=5cf30968-0f7d-4d59-becc-64e3e994078f"},"vehicle_type_id":"4","last_reported":1703963067,"current_range_meters":18800,"station_id":"ce4bgvp2rcd13ifvqcu0","pricing_plan_id":"free"},{"bike_id":"e5bf2622-e41e-4cdd-9e93-6fc6458d1966","system_id":"levelo_inurba_marseille","lat":43.313291,"lon":5.396838,"is_reserved":false,"is_disabled":false,"rental_uris":{"android":"levelo://app?vid=e5bf2622-e41e-4cdd-9e93-6fc6458d1966","ios":"levelo://app?vid=e5bf2622-e41e-4cdd-9e93-6fc6458d1966"},"vehicle_type_id":"4","last_reported":1703963067,"current_range_meters":4800,"station_id":"ce4bgvp2rcd13ifvqcu0","pricing_plan_id":"free"},{"bike_id":"a93f5f1c-34b5-4794-a9a6-baa61b4b0f07","system_id":"levelo_inurba_marseille","lat":43.313291,"lon":5.396838,"is_reserved":false,"is_disabled":false,"rental_uris":{"android":"levelo://app?vid=a93f5f1c-34b5-4794-a9a6-baa61b4b0f07","ios":"levelo://app?vid=a93f5f1c-34b5-4794-a9a6-baa61b4b0f07"},"vehicle_type_id":"4","last_reported":1703963067,"current_range_meters":31200,"station_id":"ce4bgvp2rcd13ifvqcu0","pricing_plan_id":"free"},{"bike_id":"5a8f45f4-827d-4cc4-ab9f-ef0ab2e369c1","system_id":"levelo_inurba_marseille","lat":43.3089,"lon":5.3965,"is_reserved":false,"is_disabled":false,"rental_uris":{"android":"levelo://app?vid=5a8f45f4-827d-4cc4-ab9f-ef0ab2e369c1","ios":"levelo://app?vid=5a8f45f4-827d-4cc4-ab9f-ef0ab2e369c1"},"vehicle_type_id":"4","last_reported":1703963067,"current_range_meters":0,"station_id":"ce4bh012rcd13ifvqcv0","pricing_plan_id":"free"},{"bike_id":"82914d2e-46b8-4301-9a86-2ffbee19c74f","system_id":"levelo_inurba_marseille","lat":43.309047,"lon":5.396551,"is_reserved":false,"is_disabled":false,"rental_uris":{"android":"levelo://app?vid=82914d2e-46b8-4301-9a86-2ffbee19c74f","ios":"levelo://app?vid=82914d2e-46b8-4301-9a86-2ffbee19c74f"},"vehicle_type_id":"4","last_reported":1703963067,"current_range_meters":17600,"station_id":"ce4bh012rcd13ifvqcv0","pricing_plan_id":"free"},{"bike_id":"a08d5d7e-1bce-4b74-8609-02c4624afbd1","system_id":"levelo_inurba_marseille","lat":43.313291,"lon":5.396838,"is_reserved":false,"is_disabled":false,"rental_uris":{"android":"levelo://app?vid=a08d5d7e-1bce-4b74-8609-02c4624afbd1","ios":"levelo://app?vid=a08d5d7e-1bce-4b74-8609-02c4624afbd1"},"vehicle_type_id":"4","last_reported":1703963067,"current_range_meters":23600,"station_id":"ce4bgvp2rcd13ifvqcu0","pricing_plan_id":"free"},{"bike_id":"66a77125-37fe-4a79-a2f5-6f2730831b28","system_id":"levelo_inurba_marseille","lat":43.309038,"lon":5.396546,"is_reserved":false,"is_disabled":false,"rental_uris":{"android":"levelo://app?vid=66a77125-37fe-4a79-a2f5-6f2730831b28","ios":"levelo://app?vid=66a77125-37fe-4a79-a2f5-6f2730831b28"},"vehicle_type_id":"4","last_reported":1703963067,"current_range_meters":26800,"station_id":"ce4bh012rcd13ifvqcv0","pricing_plan_id":"free"},{"bike_id":"d89d8fa9-8c2e-4a36-bd15-3e5b673fbdbc","system_id":"levelo_inurba_marseille","lat":43.29529,"lon":5.385581,"is_reserved":false,"is_disabled":false,"rental_uris":{"android":"levelo://app?vid=d89d8fa9-8c2e-4a36-bd15-3e5b673fbdbc","ios":"levelo://app?vid=d89d8fa9-8c2e-4a36-bd15-3e5b673fbdbc"},"vehicle_type_id":"4","last_reported":1703963067,"current_range_meters":12000,"station_id":"ce4bgih2rcd13ifvqba0","pricing_plan_id":"free"},{"bike_id":"3e9e6e93-170a-439e-acf3-4214457d22d2","system_id":"levelo_inurba_marseille","lat":43.289184,"lon":5.366408,"is_reserved":false,"is_disabled":false,"rental_uris":{"android":"levelo://app?vid=3e9e6e93-170a-439e-acf3-4214457d22d2","ios":"levelo://app?vid=3e9e6e93-170a-439e-acf3-4214457d22d2"},"vehicle_type_id":"4","last_reported":1703963067,"current_range_meters":11200,"station_id":"ce4bhap2rcd13ifvqek0","pricing_plan_id":"free"},{"bike_id":"9885dac0-1bb1-42fd-8ec2-374b2f4a2d12","system_id":"levelo_inurba_marseille","lat":43.289184,"lon":5.366408,"is_reserved":false,"is_disabled":false,"rental_uris":{"android":"levelo://app?vid=9885dac0-1bb1-42fd-8ec2-374b2f4a2d12","ios":"levelo://app?vid=9885dac0-1bb1-42fd-8ec2-374b2f4a2d12"},"vehicle_type_id":"4","last_reported":1703963067,"current_range_meters":27600,"station_id":"ce4bhap2rcd13ifvqek0","pricing_plan_id":"free"},{"bike_id":"f04ed9af-f1f4-4ee7-939d-672fbf1751fb","system_id":"levelo_inurba_marseille","lat":43.289184,"lon":5.366408,"is_reserved":false,"is_disabled":false,"rental_uris":{"android":"levelo://app?vid=f04ed9af-f1f4-4ee7-939d-672fbf1751fb","ios":"levelo://app?vid=f04ed9af-f1f4-4ee7-939d-672fbf1751fb"},"vehicle_type_id":"4","last_reported":1703963067,"current_range_meters":1600,"station_id":"ce4bhap2rcd13ifvqek0","pricing_plan_id":"free"},{"bike_id":"567be46f-5584-400f-bdf7-655785596383","system_id":"levelo_inurba_marseille","lat":43.289468,"lon":5.363719,"is_reserved":false,"is_disabled":false,"rental_uris":{"android":"levelo://app?vid=567be46f-5584-400f-bdf7-655785596383","ios":"levelo://app?vid=567be46f-5584-400f-bdf7-655785596383"},"vehicle_type_id":"4","last_reported":1703963067,"current_range_meters":12000,"station_id":"ce4bhc92rcd13ifvqetg","pricing_plan_id":"free"},{"bike_id":"8b64f221-255c-43db-87af-5beb6d89559d","system_id":"levelo_inurba_marseille","lat":43.289184,"lon":5.366408,"is_reserved":false,"is_disabled":false,"rental_uris":{"android":"levelo://app?vid=8b64f221-255c-43db-87af-5beb6d89559d","ios":"levelo://app?vid=8b64f221-255c-43db-87af-5beb6d89559d"},"vehicle_type_id":"4","last_reported":1703963067,"current_range_meters":10400,"station_id":"ce4bhap2rcd13ifvqek0","pricing_plan_id":"free"},{"bike_id":"2e7e4bb9-b32b-422f-820d-154111ff8857","system_id":"levelo_inurba_marseille","lat":43.289468,"lon":5.363719,"is_reserved":false,"is_disabled":false,"rental_uris":{"android":"levelo://app?vid=2e7e4bb9-b32b-422f-820d-154111ff8857","ios":"levelo://app?vid=2e7e4bb9-b32b-422f-820d-154111ff8857"},"vehicle_type_id":"4","last_reported":1703963067,"current_range_meters":31600,"station_id":"ce4bhc92rcd13ifvqetg","pricing_plan_id":"free"},{"bike_id":"5a4ef4e9-a60d-4a64-91b0-91a466d4f0d2","system_id":"levelo_inurba_marseille","lat":43.290995,"lon":5.381361,"is_reserved":false,"is_disabled":false,"rental_uris":{"android":"levelo://app?vid=5a4ef4e9-a60d-4a64-91b0-91a466d4f0d2","ios":"levelo://app?vid=5a4ef4e9-a60d-4a64-91b0-91a466d4f0d2"},"vehicle_type_id":"4","last_reported":1703963067,"current_range_meters":22800,"station_id":"ce4bh512rcd13ifvqe2g","pricing_plan_id":"free"},{"bike_id":"495faf64-a935-4c6e-b77f-2b296d14493a","system_id":"levelo_inurba_marseille","lat":43.331017,"lon":5.389194,"is_reserved":false,"is_disabled":false,"rental_uris":{"android":"levelo://app?vid=495faf64-a935-4c6e-b77f-2b296d14493a","ios":"levelo://app?vid=495faf64-a935-4c6e-b77f-2b296d14493a"},"vehicle_type_id":"4","last_reported":1703963067,"current_range_meters":2000,"station_id":"","pricing_plan_id":"free"},{"bike_id":"75443950-2ac4-4d86-b831-241e3121359f","system_id":"levelo_inurba_marseille","lat":43.33116,"lon":5.38933,"is_reserved":false,"is_disabled":false,"rental_uris":{"android":"levelo://app?vid=75443950-2ac4-4d86-b831-241e3121359f","ios":"levelo://app?vid=75443950-2ac4-4d86-b831-241e3121359f"},"vehicle_type_id":"4","last_reported":1703963067,"current_range_meters":0,"station_id":"","pricing_plan_id":"free"},{"bike_id":"2c2b885a-ede0-4d6b-a0fb-fce97600b729","system_id":"levelo_inurba_marseille","lat":43.290094,"lon":5.381264,"is_reserved":false,"is_disabled":false,"rental_uris":{"android":"levelo://app?vid=2c2b885a-ede0-4d6b-a0fb-fce97600b729","ios":"levelo://app?vid=2c2b885a-ede0-4d6b-a0fb-fce97600b729"},"vehicle_type_id":"4","last_reported":1703963067,"current_range_meters":0,"station_id":"ce4bh4p2rcd13ifvqe1g","pricing_plan_id":"free"},{"bike_id":"a956e1db-971f-48b3-91af-989c194608be","system_id":"levelo_inurba_marseille","lat":43.28856,"lon":5.358371,"is_reserved":false,"is_disabled":false,"rental_uris":{"android":"levelo://app?vid=a956e1db-971f-48b3-91af-989c194608be","ios":"levelo://app?vid=a956e1db-971f-48b3-91af-989c194608be"},"vehicle_type_id":"4","last_reported":1703963067,"current_range_meters":5600,"station_id":"ce4bhb12rcd13ifvqem0","pricing_plan_id":"free"},{"bike_id":"139bb083-3316-4723-b403-d0edcde8edb8","system_id":"levelo_inurba_marseille","lat":43.312609,"lon":5.401662,"is_reserved":false,"is_disabled":false,"rental_uris":{"android":"levelo://app?vid=139bb083-3316-4723-b403-d0edcde8edb8","ios":"levelo://app?vid=139bb083-3316-4723-b403-d0edcde8edb8"},"vehicle_type_id":"4","last_reported":1703963067,"current_range_meters":17200,"station_id":"ce4bh092rcd13ifvqd30","pricing_plan_id":"free"},{"bike_id":"8dc3e41c-081d-4c42-8004-5d7eac1adb8c","system_id":"levelo_inurba_marseille","lat":43.3094,"lon":5.40142,"is_reserved":false,"is_disabled":false,"rental_uris":{"android":"levelo://app?vid=8dc3e41c-081d-4c42-8004-5d7eac1adb8c","ios":"levelo://app?vid=8dc3e41c-081d-4c42-8004-5d7eac1adb8c"},"vehicle_type_id":"4","last_reported":1703963067,"current_range_meters":18000,"station_id":"ce4bgvp2rcd13ifvqct0","pricing_plan_id":"free"},{"bike_id":"d29f7a6c-6eff-46b1-9d51-bbf08faabfa1","system_id":"levelo_inurba_marseille","lat":43.337477,"lon":5.374431,"is_reserved":false,"is_disabled":false,"rental_uris":{"android":"levelo://app?vid=d29f7a6c-6eff-46b1-9d51-bbf08faabfa1","ios":"levelo://app?vid=d29f7a6c-6eff-46b1-9d51-bbf08faabfa1"},"vehicle_type_id":"4","last_reported":1703963067,"current_range_meters":0,"station_id":"","pricing_plan_id":"free"},{"bike_id":"cababbbd-bdea-44dd-a30c-3bd5cdef8812","system_id":"levelo_inurba_marseille","lat":43.312609,"lon":5.401662,"is_reserved":false,"is_disabled":false,"rental_uris":{"android":"levelo://app?vid=cababbbd-bdea-44dd-a30c-3bd5cdef8812","ios":"levelo://app?vid=cababbbd-bdea-44dd-a30c-3bd5cdef8812"},"vehicle_type_id":"4","last_reported":1703963067,"current_range_meters":4400,"station_id":"ce4bh092rcd13ifvqd30","pricing_plan_id":"free"},{"bike_id":"a0c51bb2-924f-47f5-ba0b-fd441f51e78c","system_id":"levelo_inurba_marseille","lat":43.306412,"lon":5.401035,"is_reserved":false,"is_disabled":false,"rental_uris":{"android":"levelo://app?vid=a0c51bb2-924f-47f5-ba0b-fd441f51e78c","ios":"levelo://app?vid=a0c51bb2-924f-47f5-ba0b-fd441f51e78c"},"vehicle_type_id":"4","last_reported":1703963067,"current_range_meters":12400,"station_id":"ce4bh112rcd13ifvqda0","pricing_plan_id":"free"},{"bike_id":"c0a538ab-353e-4143-9ba3-568bd8a35f75","system_id":"levelo_inurba_marseille","lat":43.28727,"lon":5.36078,"is_reserved":false,"is_disabled":false,"rental_uris":{"android":"levelo://app?vid=c0a538ab-353e-4143-9ba3-568bd8a35f75","ios":"levelo://app?vid=c0a538ab-353e-4143-9ba3-568bd8a35f75"},"vehicle_type_id":"4","last_reported":1703963067,"current_range_meters":31600,"station_id":"cki0cbj6b192h4jlfktg","pricing_plan_id":"free"},{"bike_id":"4d660afc-ece9-40ec-b4a3-e8e62aed1de1","system_id":"levelo_inurba_marseille","lat":43.28727,"lon":5.36078,"is_reserved":false,"is_disabled":false,"rental_uris":{"android":"levelo://app?vid=4d660afc-ece9-40ec-b4a3-e8e62aed1de1","ios":"levelo://app?vid=4d660afc-ece9-40ec-b4a3-e8e62aed1de1"},"vehicle_type_id":"4","last_reported":1703963067,"current_range_meters":22000,"station_id":"cki0cbj6b192h4jlfktg","pricing_plan_id":"free"},{"bike_id":"c301fb8c-cfe6-441c-8d68-c52db0e2a128","system_id":"levelo_inurba_marseille","lat":43.28727,"lon":5.36078,"is_reserved":false,"is_disabled":false,"rental_uris":{"android":"levelo://app?vid=c301fb8c-cfe6-441c-8d68-c52db0e2a128","ios":"levelo://app?vid=c301fb8c-cfe6-441c-8d68-c52db0e2a128"},"vehicle_type_id":"4","last_reported":1703963067,"current_range_meters":26400,"station_id":"cki0cbj6b192h4jlfktg","pricing_plan_id":"free"},{"bike_id":"c747c88c-436f-4c2f-a6f6-da5e27f31144","system_id":"levelo_inurba_marseille","lat":43.28707,"lon":5.37382,"is_reserved":false,"is_disabled":false,"rental_uris":{"android":"levelo://app?vid=c747c88c-436f-4c2f-a6f6-da5e27f31144","ios":"levelo://app?vid=c747c88c-436f-4c2f-a6f6-da5e27f31144"},"vehicle_type_id":"4","last_reported":1703963067,"current_range_meters":20000,"station_id":"ce4bh3p2rcd13ifvqdq0","pricing_plan_id":"free"},{"bike_id":"615bcdea-ecc6-4c9a-8905-845f099d9973","system_id":"levelo_inurba_marseille","lat":43.286961,"lon":5.373785,"is_reserved":false,"is_disabled":false,"rental_uris":{"android":"levelo://app?vid=615bcdea-ecc6-4c9a-8905-845f099d9973","ios":"levelo://app?vid=615bcdea-ecc6-4c9a-8905-845f099d9973"},"vehicle_type_id":"4","last_reported":1703963067,"current_range_meters":0,"station_id":"ce4bh3p2rcd13ifvqdq0","pricing_plan_id":"free"},{"bike_id":"d9056604-fef0-4152-9a2e-0a8d951d1878","system_id":"levelo_inurba_marseille","lat":43.286961,"lon":5.373785,"is_reserved":false,"is_disabled":false,"rental_uris":{"android":"levelo://app?vid=d9056604-fef0-4152-9a2e-0a8d951d1878","ios":"levelo://app?vid=d9056604-fef0-4152-9a2e-0a8d951d1878"},"vehicle_type_id":"4","last_reported":1703963067,"current_range_meters":18000,"station_id":"ce4bh3p2rcd13ifvqdq0","pricing_plan_id":"free"},{"bike_id":"53b23dd4-5f9a-4ea8-b336-df1551ac4b29","system_id":"levelo_inurba_marseille","lat":43.302759,"lon":5.400793,"is_reserved":false,"is_disabled":false,"rental_uris":{"android":"levelo://app?vid=53b23dd4-5f9a-4ea8-b336-df1551ac4b29","ios":"levelo://app?vid=53b23dd4-5f9a-4ea8-b336-df1551ac4b29"},"vehicle_type_id":"4","last_reported":1703963067,"current_range_meters":2000,"station_id":"ce4bgvh2rcd13ifvqcs0","pricing_plan_id":"free"},{"bike_id":"5c28e87b-40b8-4984-9240-4ac6a465ad25","system_id":"levelo_inurba_marseille","lat":43.286039,"lon":5.370679,"is_reserved":false,"is_disabled":false,"rental_uris":{"android":"levelo://app?vid=5c28e87b-40b8-4984-9240-4ac6a465ad25","ios":"levelo://app?vid=5c28e87b-40b8-4984-9240-4ac6a465ad25"},"vehicle_type_id":"4","last_reported":1703963067,"current_range_meters":26000,"station_id":"ce4bht12rcd13ifvqi60","pricing_plan_id":"free"},{"bike_id":"038b3bf4-32f6-48a2-b4e4-c689c8a985e8","system_id":"levelo_inurba_marseille","lat":43.287185,"lon":5.379373,"is_reserved":false,"is_disabled":false,"rental_uris":{"android":"levelo://app?vid=038b3bf4-32f6-48a2-b4e4-c689c8a985e8","ios":"levelo://app?vid=038b3bf4-32f6-48a2-b4e4-c689c8a985e8"},"vehicle_type_id":"4","last_reported":1703963067,"current_range_meters":31600,"station_id":"ce4bh9p2rcd13ifvqec0","pricing_plan_id":"free"},{"bike_id":"23e8ec62-5a30-4a88-895c-1919dcfff8d4","system_id":"levelo_inurba_marseille","lat":43.287185,"lon":5.379373,"is_reserved":false,"is_disabled":false,"rental_uris":{"android":"levelo://app?vid=23e8ec62-5a30-4a88-895c-1919dcfff8d4","ios":"levelo://app?vid=23e8ec62-5a30-4a88-895c-1919dcfff8d4"},"vehicle_type_id":"4","last_reported":1703963067,"current_range_meters":18000,"station_id":"ce4bh9p2rcd13ifvqec0","pricing_plan_id":"free"},{"bike_id":"b6759fa3-933c-498c-bd74-724402406415","system_id":"levelo_inurba_marseille","lat":43.316828,"lon":5.404723,"is_reserved":false,"is_disabled":false,"rental_uris":{"android":"levelo://app?vid=b6759fa3-933c-498c-bd74-724402406415","ios":"levelo://app?vid=b6759fa3-933c-498c-bd74-724402406415"},"vehicle_type_id":"4","last_reported":1703963067,"current_range_meters":20000,"station_id":"ce4bh012rcd13ifvqd00","pricing_plan_id":"free"},{"bike_id":"3fbf5bc7-4846-4354-92c4-7eb9b8319de4","system_id":"levelo_inurba_marseille","lat":43.291994,"lon":5.392907,"is_reserved":false,"is_disabled":false,"rental_uris":{"android":"levelo://app?vid=3fbf5bc7-4846-4354-92c4-7eb9b8319de4","ios":"levelo://app?vid=3fbf5bc7-4846-4354-92c4-7eb9b8319de4"},"vehicle_type_id":"4","last_reported":1703963067,"current_range_meters":0,"station_id":"ce4bh192rcd13ifvqdd0","pricing_plan_id":"free"},{"bike_id":"79f51fd2-d251-48e3-a099-50702d748705","system_id":"levelo_inurba_marseille","lat":43.28466,"lon":5.35892,"is_reserved":false,"is_disabled":false,"rental_uris":{"android":"levelo://app?vid=79f51fd2-d251-48e3-a099-50702d748705","ios":"levelo://app?vid=79f51fd2-d251-48e3-a099-50702d748705"},"vehicle_type_id":"4","last_reported":1703963067,"current_range_meters":22800,"station_id":"ce4bhah2rcd13ifvqei0","pricing_plan_id":"free"},{"bike_id":"bbba857a-279b-4ce2-bcc8-33294534dcb0","system_id":"levelo_inurba_marseille","lat":43.284534,"lon":5.358662,"is_reserved":false,"is_disabled":false,"rental_uris":{"android":"levelo://app?vid=bbba857a-279b-4ce2-bcc8-33294534dcb0","ios":"levelo://app?vid=bbba857a-279b-4ce2-bcc8-33294534dcb0"},"vehicle_type_id":"4","last_reported":1703963067,"current_range_meters":12400,"station_id":"ce4bhah2rcd13ifvqei0","pricing_plan_id":"free"},{"bike_id":"797a4d45-6a61-4982-90df-5ab239db0f83","system_id":"levelo_inurba_marseille","lat":43.28462,"lon":5.35889,"is_reserved":false,"is_disabled":false,"rental_uris":{"android":"levelo://app?vid=797a4d45-6a61-4982-90df-5ab239db0f83","ios":"levelo://app?vid=797a4d45-6a61-4982-90df-5ab239db0f83"},"vehicle_type_id":"4","last_reported":1703963067,"current_range_meters":22800,"station_id":"ce4bhah2rcd13ifvqei0","pricing_plan_id":"free"},{"bike_id":"5a6f4435-8432-4de7-bd3a-8a46ba561eed","system_id":"levelo_inurba_marseille","lat":43.284534,"lon":5.358662,"is_reserved":false,"is_disabled":false,"rental_uris":{"android":"levelo://app?vid=5a6f4435-8432-4de7-bd3a-8a46ba561eed","ios":"levelo://app?vid=5a6f4435-8432-4de7-bd3a-8a46ba561eed"},"vehicle_type_id":"4","last_reported":1703963067,"current_range_meters":31200,"station_id":"ce4bhah2rcd13ifvqei0","pricing_plan_id":"free"},{"bike_id":"80bc10cf-232d-4719-bf7a-0c87abb31dc6","system_id":"levelo_inurba_marseille","lat":43.28461,"lon":5.35894,"is_reserved":false,"is_disabled":false,"rental_uris":{"android":"levelo://app?vid=80bc10cf-232d-4719-bf7a-0c87abb31dc6","ios":"levelo://app?vid=80bc10cf-232d-4719-bf7a-0c87abb31dc6"},"vehicle_type_id":"4","last_reported":1703963067,"current_range_meters":24800,"station_id":"ce4bhah2rcd13ifvqei0","pricing_plan_id":"free"},{"bike_id":"f130c103-dd16-4e6f-9cea-5bc79ac8f595","system_id":"levelo_inurba_marseille","lat":43.28461,"lon":5.35889,"is_reserved":false,"is_disabled":false,"rental_uris":{"android":"levelo://app?vid=f130c103-dd16-4e6f-9cea-5bc79ac8f595","ios":"levelo://app?vid=f130c103-dd16-4e6f-9cea-5bc79ac8f595"},"vehicle_type_id":"4","last_reported":1703963067,"current_range_meters":14400,"station_id":"ce4bhah2rcd13ifvqei0","pricing_plan_id":"free"},{"bike_id":"f051e3b2-f4a0-44d2-a67b-140ed2a7bb98","system_id":"levelo_inurba_marseille","lat":43.2846,"lon":5.35892,"is_reserved":false,"is_disabled":false,"rental_uris":{"android":"levelo://app?vid=f051e3b2-f4a0-44d2-a67b-140ed2a7bb98","ios":"levelo://app?vid=f051e3b2-f4a0-44d2-a67b-140ed2a7bb98"},"vehicle_type_id":"4","last_reported":1703963067,"current_range_meters":23600,"station_id":"ce4bhah2rcd13ifvqei0","pricing_plan_id":"free"},{"bike_id":"d7697f1a-cb22-4c14-a168-85609db879a1","system_id":"levelo_inurba_marseille","lat":43.28456,"lon":5.35894,"is_reserved":false,"is_disabled":false,"rental_uris":{"android":"levelo://app?vid=d7697f1a-cb22-4c14-a168-85609db879a1","ios":"levelo://app?vid=d7697f1a-cb22-4c14-a168-85609db879a1"},"vehicle_type_id":"4","last_reported":1703963067,"current_range_meters":6800,"station_id":"ce4bhah2rcd13ifvqei0","pricing_plan_id":"free"},{"bike_id":"ca8b7112-cedf-4076-83a8-de986fe00f6e","system_id":"levelo_inurba_marseille","lat":43.285856,"lon":5.350771,"is_reserved":false,"is_disabled":false,"rental_uris":{"android":"levelo://app?vid=ca8b7112-cedf-4076-83a8-de986fe00f6e","ios":"levelo://app?vid=ca8b7112-cedf-4076-83a8-de986fe00f6e"},"vehicle_type_id":"4","last_reported":1703963067,"current_range_meters":31200,"station_id":"ce4bhch2rcd13ifvqeug","pricing_plan_id":"free"},{"bike_id":"4bd35f98-8ec7-4c9b-bb61-48fdd640c8c4","system_id":"levelo_inurba_marseille","lat":43.286595,"lon":5.386795,"is_reserved":false,"is_disabled":false,"rental_uris":{"android":"levelo://app?vid=4bd35f98-8ec7-4c9b-bb61-48fdd640c8c4","ios":"levelo://app?vid=4bd35f98-8ec7-4c9b-bb61-48fdd640c8c4"},"vehicle_type_id":"4","last_reported":1703963067,"current_range_meters":15200,"station_id":"ce4bh492rcd13ifvqdug","pricing_plan_id":"free"},{"bike_id":"1a0bf041-78c3-4fb0-b111-9190bebdecf2","system_id":"levelo_inurba_marseille","lat":43.286595,"lon":5.386795,"is_reserved":false,"is_disabled":false,"rental_uris":{"android":"levelo://app?vid=1a0bf041-78c3-4fb0-b111-9190bebdecf2","ios":"levelo://app?vid=1a0bf041-78c3-4fb0-b111-9190bebdecf2"},"vehicle_type_id":"4","last_reported":1703963067,"current_range_meters":0,"station_id":"ce4bh492rcd13ifvqdug","pricing_plan_id":"free"},{"bike_id":"4ad566ac-35d2-45f1-93b8-aa3abd61c433","system_id":"levelo_inurba_marseille","lat":43.300988,"lon":5.40473,"is_reserved":false,"is_disabled":false,"rental_uris":{"android":"levelo://app?vid=4ad566ac-35d2-45f1-93b8-aa3abd61c433","ios":"levelo://app?vid=4ad566ac-35d2-45f1-93b8-aa3abd61c433"},"vehicle_type_id":"4","last_reported":1703963067,"current_range_meters":0,"station_id":"","pricing_plan_id":"free"},{"bike_id":"2a34418a-68fc-4df0-a58c-b424089bf812","system_id":"levelo_inurba_marseille","lat":43.33717,"lon":5.391857,"is_reserved":false,"is_disabled":false,"rental_uris":{"android":"levelo://app?vid=2a34418a-68fc-4df0-a58c-b424089bf812","ios":"levelo://app?vid=2a34418a-68fc-4df0-a58c-b424089bf812"},"vehicle_type_id":"4","last_reported":1703963067,"current_range_meters":30400,"station_id":"ce4bhr92rcd13ifvqhsg","pricing_plan_id":"free"},{"bike_id":"81e98546-48f6-4e53-9a96-d12ea8cec360","system_id":"levelo_inurba_marseille","lat":43.323464,"lon":5.406297,"is_reserved":false,"is_disabled":false,"rental_uris":{"android":"levelo://app?vid=81e98546-48f6-4e53-9a96-d12ea8cec360","ios":"levelo://app?vid=81e98546-48f6-4e53-9a96-d12ea8cec360"},"vehicle_type_id":"4","last_reported":1703963067,"current_range_meters":28400,"station_id":"ce4bhq92rcd13ifvqhjg","pricing_plan_id":"free"},{"bike_id":"6f88c66c-95cb-43e7-9ffe-5f0278c685b8","system_id":"levelo_inurba_marseille","lat":43.337168,"lon":5.391825,"is_reserved":false,"is_disabled":false,"rental_uris":{"android":"levelo://app?vid=6f88c66c-95cb-43e7-9ffe-5f0278c685b8","ios":"levelo://app?vid=6f88c66c-95cb-43e7-9ffe-5f0278c685b8"},"vehicle_type_id":"4","last_reported":1703963067,"current_range_meters":20000,"station_id":"ce4bhr92rcd13ifvqhsg","pricing_plan_id":"free"},{"bike_id":"6d0d32e0-eaf6-4cda-a7d6-09ef510bb53e","system_id":"levelo_inurba_marseille","lat":43.284807,"lon":5.38426,"is_reserved":false,"is_disabled":false,"rental_uris":{"android":"levelo://app?vid=6d0d32e0-eaf6-4cda-a7d6-09ef510bb53e","ios":"levelo://app?vid=6d0d32e0-eaf6-4cda-a7d6-09ef510bb53e"},"vehicle_type_id":"4","last_reported":1703963067,"current_range_meters":0,"station_id":"ce4bh512rcd13ifvqe3g","pricing_plan_id":"free"},{"bike_id":"ff548aa3-08f2-4092-9b6a-1ca529179ae9","system_id":"levelo_inurba_marseille","lat":43.28469,"lon":5.38469,"is_reserved":false,"is_disabled":false,"rental_uris":{"android":"levelo://app?vid=ff548aa3-08f2-4092-9b6a-1ca529179ae9","ios":"levelo://app?vid=ff548aa3-08f2-4092-9b6a-1ca529179ae9"},"vehicle_type_id":"4","last_reported":1703963067,"current_range_meters":18000,"station_id":"ce4bh512rcd13ifvqe3g","pricing_plan_id":"free"},{"bike_id":"ac27a110-80f1-48a4-a155-7757d7f0b109","system_id":"levelo_inurba_marseille","lat":43.283494,"lon":5.380945,"is_reserved":false,"is_disabled":false,"rental_uris":{"android":"levelo://app?vid=ac27a110-80f1-48a4-a155-7757d7f0b109","ios":"levelo://app?vid=ac27a110-80f1-48a4-a155-7757d7f0b109"},"vehicle_type_id":"4","last_reported":1703963067,"current_range_meters":28400,"station_id":"ce4bh412rcd13ifvqdr0","pricing_plan_id":"free"},{"bike_id":"a8b4b1d1-a558-42ef-aa3b-ca7ae55eda21","system_id":"levelo_inurba_marseille","lat":43.283494,"lon":5.380945,"is_reserved":false,"is_disabled":false,"rental_uris":{"android":"levelo://app?vid=a8b4b1d1-a558-42ef-aa3b-ca7ae55eda21","ios":"levelo://app?vid=a8b4b1d1-a558-42ef-aa3b-ca7ae55eda21"},"vehicle_type_id":"4","last_reported":1703963067,"current_range_meters":24000,"station_id":"ce4bh412rcd13ifvqdr0","pricing_plan_id":"free"},{"bike_id":"31c8fad3-04c2-4de8-a1d7-d37c58815360","system_id":"levelo_inurba_marseille","lat":43.284219,"lon":5.3497,"is_reserved":false,"is_disabled":false,"rental_uris":{"android":"levelo://app?vid=31c8fad3-04c2-4de8-a1d7-d37c58815360","ios":"levelo://app?vid=31c8fad3-04c2-4de8-a1d7-d37c58815360"},"vehicle_type_id":"4","last_reported":1703963067,"current_range_meters":24000,"station_id":"ce4bhbh2rcd13ifvqepg","pricing_plan_id":"free"},{"bike_id":"e485450b-2736-4f4c-b94b-0da5a69b88aa","system_id":"levelo_inurba_marseille","lat":43.33385,"lon":5.39822,"is_reserved":false,"is_disabled":false,"rental_uris":{"android":"levelo://app?vid=e485450b-2736-4f4c-b94b-0da5a69b88aa","ios":"levelo://app?vid=e485450b-2736-4f4c-b94b-0da5a69b88aa"},"vehicle_type_id":"4","last_reported":1703963067,"current_range_meters":6000,"station_id":"","pricing_plan_id":"free"},{"bike_id":"041af8db-46e1-4b08-be93-ddac96a527c0","system_id":"levelo_inurba_marseille","lat":43.283498,"lon":5.380948,"is_reserved":false,"is_disabled":false,"rental_uris":{"android":"levelo://app?vid=041af8db-46e1-4b08-be93-ddac96a527c0","ios":"levelo://app?vid=041af8db-46e1-4b08-be93-ddac96a527c0"},"vehicle_type_id":"4","last_reported":1703963067,"current_range_meters":13600,"station_id":"ce4bh412rcd13ifvqdr0","pricing_plan_id":"free"},{"bike_id":"f3f9e1e7-b2d9-41a6-ad46-dcd5476ca528","system_id":"levelo_inurba_marseille","lat":43.292724,"lon":5.401131,"is_reserved":false,"is_disabled":false,"rental_uris":{"android":"levelo://app?vid=f3f9e1e7-b2d9-41a6-ad46-dcd5476ca528","ios":"levelo://app?vid=f3f9e1e7-b2d9-41a6-ad46-dcd5476ca528"},"vehicle_type_id":"4","last_reported":1703963067,"current_range_meters":25600,"station_id":"ce4bh312rcd13ifvqdk0","pricing_plan_id":"free"},{"bike_id":"408b4cba-c41a-49e6-984b-37522dd2d91e","system_id":"levelo_inurba_marseille","lat":43.292724,"lon":5.401131,"is_reserved":false,"is_disabled":false,"rental_uris":{"android":"levelo://app?vid=408b4cba-c41a-49e6-984b-37522dd2d91e","ios":"levelo://app?vid=408b4cba-c41a-49e6-984b-37522dd2d91e"},"vehicle_type_id":"4","last_reported":1703963067,"current_range_meters":20800,"station_id":"ce4bh312rcd13ifvqdk0","pricing_plan_id":"free"},{"bike_id":"c8b45e2a-889b-4124-a56c-07737af196da","system_id":"levelo_inurba_marseille","lat":43.283502,"lon":5.386471,"is_reserved":false,"is_disabled":false,"rental_uris":{"android":"levelo://app?vid=c8b45e2a-889b-4124-a56c-07737af196da","ios":"levelo://app?vid=c8b45e2a-889b-4124-a56c-07737af196da"},"vehicle_type_id":"4","last_reported":1703963067,"current_range_meters":800,"station_id":"ce4bh492rcd13ifvqdvg","pricing_plan_id":"free"},{"bike_id":"56587f46-6f58-4bf8-8535-b368fab6adfd","system_id":"levelo_inurba_marseille","lat":43.283502,"lon":5.386471,"is_reserved":false,"is_disabled":false,"rental_uris":{"android":"levelo://app?vid=56587f46-6f58-4bf8-8535-b368fab6adfd","ios":"levelo://app?vid=56587f46-6f58-4bf8-8535-b368fab6adfd"},"vehicle_type_id":"4","last_reported":1703963067,"current_range_meters":21200,"station_id":"ce4bh492rcd13ifvqdvg","pricing_plan_id":"free"},{"bike_id":"d5851979-cdd5-4f4e-9154-83de243b0c97","system_id":"levelo_inurba_marseille","lat":43.282754,"lon":5.350519,"is_reserved":false,"is_disabled":false,"rental_uris":{"android":"levelo://app?vid=d5851979-cdd5-4f4e-9154-83de243b0c97","ios":"levelo://app?vid=d5851979-cdd5-4f4e-9154-83de243b0c97"},"vehicle_type_id":"4","last_reported":1703963067,"current_range_meters":24400,"station_id":"ce4bhbp2rcd13ifvqerg","pricing_plan_id":"free"},{"bike_id":"d19ed478-0a0e-4941-8074-bdd72dda4ac9","system_id":"levelo_inurba_marseille","lat":43.28039,"lon":5.369297,"is_reserved":false,"is_disabled":false,"rental_uris":{"android":"levelo://app?vid=d19ed478-0a0e-4941-8074-bdd72dda4ac9","ios":"levelo://app?vid=d19ed478-0a0e-4941-8074-bdd72dda4ac9"},"vehicle_type_id":"4","last_reported":1703963067,"current_range_meters":25200,"station_id":"ce4bha12rcd13ifvqef0","pricing_plan_id":"free"},{"bike_id":"b4e8b36e-3351-4dc4-83db-71bc5109d51f","system_id":"levelo_inurba_marseille","lat":43.29041,"lon":5.399634,"is_reserved":false,"is_disabled":false,"rental_uris":{"android":"levelo://app?vid=b4e8b36e-3351-4dc4-83db-71bc5109d51f","ios":"levelo://app?vid=b4e8b36e-3351-4dc4-83db-71bc5109d51f"},"vehicle_type_id":"4","last_reported":1703963067,"current_range_meters":7600,"station_id":"ce4bh392rcd13ifvqdm0","pricing_plan_id":"free"},{"bike_id":"bdc49f3f-d5d0-4c5f-9333-5f89cbd0c1f4","system_id":"levelo_inurba_marseille","lat":43.296263,"lon":5.40601,"is_reserved":false,"is_disabled":false,"rental_uris":{"android":"levelo://app?vid=bdc49f3f-d5d0-4c5f-9333-5f89cbd0c1f4","ios":"levelo://app?vid=bdc49f3f-d5d0-4c5f-9333-5f89cbd0c1f4"},"vehicle_type_id":"4","last_reported":1703963067,"current_range_meters":10000,"station_id":"ce4bh0h2rcd13ifvqd60","pricing_plan_id":"free"},{"bike_id":"5c626aba-21a0-477e-9bbd-70f25b311c21","system_id":"levelo_inurba_marseille","lat":43.284462,"lon":5.392121,"is_reserved":false,"is_disabled":false,"rental_uris":{"android":"levelo://app?vid=5c626aba-21a0-477e-9bbd-70f25b311c21","ios":"levelo://app?vid=5c626aba-21a0-477e-9bbd-70f25b311c21"},"vehicle_type_id":"4","last_reported":1703963067,"current_range_meters":5600,"station_id":"ce4bhoh2rcd13ifvqh5g","pricing_plan_id":"free"},{"bike_id":"53e24eee-6572-43a1-9af6-9e21c153bae1","system_id":"levelo_inurba_marseille","lat":43.28573,"lon":5.394992,"is_reserved":false,"is_disabled":false,"rental_uris":{"android":"levelo://app?vid=53e24eee-6572-43a1-9af6-9e21c153bae1","ios":"levelo://app?vid=53e24eee-6572-43a1-9af6-9e21c153bae1"},"vehicle_type_id":"4","last_reported":1703963067,"current_range_meters":8800,"station_id":"ce4bh292rcd13ifvqdg0","pricing_plan_id":"free"},{"bike_id":"acdd6bd5-1301-44b2-90b2-7f5f699b686a","system_id":"levelo_inurba_marseille","lat":43.28573,"lon":5.394992,"is_reserved":false,"is_disabled":false,"rental_uris":{"android":"levelo://app?vid=acdd6bd5-1301-44b2-90b2-7f5f699b686a","ios":"levelo://app?vid=acdd6bd5-1301-44b2-90b2-7f5f699b686a"},"vehicle_type_id":"4","last_reported":1703963067,"current_range_meters":8800,"station_id":"ce4bh292rcd13ifvqdg0","pricing_plan_id":"free"},{"bike_id":"c6c086b5-05bd-4d4b-918a-5e366c3acc8e","system_id":"levelo_inurba_marseille","lat":43.326605,"lon":5.409903,"is_reserved":false,"is_disabled":false,"rental_uris":{"android":"levelo://app?vid=c6c086b5-05bd-4d4b-918a-5e366c3acc8e","ios":"levelo://app?vid=c6c086b5-05bd-4d4b-918a-5e366c3acc8e"},"vehicle_type_id":"4","last_reported":1703963067,"current_range_meters":0,"station_id":"ce4bhpp2rcd13ifvqhgg","pricing_plan_id":"free"},{"bike_id":"f8043dd9-d8e3-4eac-86e5-ee6924444279","system_id":"levelo_inurba_marseille","lat":43.326605,"lon":5.409903,"is_reserved":false,"is_disabled":false,"rental_uris":{"android":"levelo://app?vid=f8043dd9-d8e3-4eac-86e5-ee6924444279","ios":"levelo://app?vid=f8043dd9-d8e3-4eac-86e5-ee6924444279"},"vehicle_type_id":"4","last_reported":1703963067,"current_range_meters":26400,"station_id":"ce4bhpp2rcd13ifvqhgg","pricing_plan_id":"free"},{"bike_id":"7818bc85-fc54-40a9-b22b-8caaa25edea4","system_id":"levelo_inurba_marseille","lat":43.304188,"lon":5.412904,"is_reserved":false,"is_disabled":false,"rental_uris":{"android":"levelo://app?vid=7818bc85-fc54-40a9-b22b-8caaa25edea4","ios":"levelo://app?vid=7818bc85-fc54-40a9-b22b-8caaa25edea4"},"vehicle_type_id":"4","last_reported":1703963067,"current_range_meters":20800,"station_id":"ce4bhop2rcd13ifvqh8g","pricing_plan_id":"free"},{"bike_id":"3ee9bb9d-67de-4f0c-9d16-c5cb5c288343","system_id":"levelo_inurba_marseille","lat":43.287154,"lon":5.399979,"is_reserved":false,"is_disabled":false,"rental_uris":{"android":"levelo://app?vid=3ee9bb9d-67de-4f0c-9d16-c5cb5c288343","ios":"levelo://app?vid=3ee9bb9d-67de-4f0c-9d16-c5cb5c288343"},"vehicle_type_id":"4","last_reported":1703963067,"current_range_meters":24800,"station_id":"ce4bho92rcd13ifvqh3g","pricing_plan_id":"free"},{"bike_id":"87462337-d37f-4cf5-a009-c30de7321017","system_id":"levelo_inurba_marseille","lat":43.287154,"lon":5.399979,"is_reserved":false,"is_disabled":false,"rental_uris":{"android":"levelo://app?vid=87462337-d37f-4cf5-a009-c30de7321017","ios":"levelo://app?vid=87462337-d37f-4cf5-a009-c30de7321017"},"vehicle_type_id":"4","last_reported":1703963067,"current_range_meters":23200,"station_id":"ce4bho92rcd13ifvqh3g","pricing_plan_id":"free"},{"bike_id":"0cda6075-7a55-45e1-9548-85b580b078a6","system_id":"levelo_inurba_marseille","lat":43.287154,"lon":5.399979,"is_reserved":false,"is_disabled":false,"rental_uris":{"android":"levelo://app?vid=0cda6075-7a55-45e1-9548-85b580b078a6","ios":"levelo://app?vid=0cda6075-7a55-45e1-9548-85b580b078a6"},"vehicle_type_id":"4","last_reported":1703963067,"current_range_meters":2000,"station_id":"ce4bho92rcd13ifvqh3g","pricing_plan_id":"free"},{"bike_id":"1542ee4e-f173-499f-9338-18d6ffda5d72","system_id":"levelo_inurba_marseille","lat":43.280784,"lon":5.396622,"is_reserved":false,"is_disabled":false,"rental_uris":{"android":"levelo://app?vid=1542ee4e-f173-499f-9338-18d6ffda5d72","ios":"levelo://app?vid=1542ee4e-f173-499f-9338-18d6ffda5d72"},"vehicle_type_id":"4","last_reported":1703963067,"current_range_meters":11200,"station_id":"ce4bho12rcd13ifvqh2g","pricing_plan_id":"free"},{"bike_id":"3d602464-5bb9-4c22-a863-47505fdc38ad","system_id":"levelo_inurba_marseille","lat":43.280784,"lon":5.396622,"is_reserved":false,"is_disabled":false,"rental_uris":{"android":"levelo://app?vid=3d602464-5bb9-4c22-a863-47505fdc38ad","ios":"levelo://app?vid=3d602464-5bb9-4c22-a863-47505fdc38ad"},"vehicle_type_id":"4","last_reported":1703963067,"current_range_meters":24800,"station_id":"ce4bho12rcd13ifvqh2g","pricing_plan_id":"free"},{"bike_id":"442e34b6-92de-4f95-a8c2-8af72ec09669","system_id":"levelo_inurba_marseille","lat":43.280784,"lon":5.396622,"is_reserved":false,"is_disabled":false,"rental_uris":{"android":"levelo://app?vid=442e34b6-92de-4f95-a8c2-8af72ec09669","ios":"levelo://app?vid=442e34b6-92de-4f95-a8c2-8af72ec09669"},"vehicle_type_id":"4","last_reported":1703963067,"current_range_meters":31600,"station_id":"ce4bho12rcd13ifvqh2g","pricing_plan_id":"free"},{"bike_id":"353b852f-0939-4aa2-974c-3d351138e04a","system_id":"levelo_inurba_marseille","lat":43.303837,"lon":5.418724,"is_reserved":false,"is_disabled":false,"rental_uris":{"android":"levelo://app?vid=353b852f-0939-4aa2-974c-3d351138e04a","ios":"levelo://app?vid=353b852f-0939-4aa2-974c-3d351138e04a"},"vehicle_type_id":"4","last_reported":1703963067,"current_range_meters":22800,"station_id":"ce4bhop2rcd13ifvqh7g","pricing_plan_id":"free"},{"bike_id":"3d528aae-463e-48b9-af98-2b60630ca563","system_id":"levelo_inurba_marseille","lat":43.278399,"lon":5.392139,"is_reserved":false,"is_disabled":false,"rental_uris":{"android":"levelo://app?vid=3d528aae-463e-48b9-af98-2b60630ca563","ios":"levelo://app?vid=3d528aae-463e-48b9-af98-2b60630ca563"},"vehicle_type_id":"4","last_reported":1703963067,"current_range_meters":17200,"station_id":"ce4bhjp2rcd13ifvqga0","pricing_plan_id":"free"},{"bike_id":"4d3d0c8b-6b41-41e4-87c5-57930c62e9fb","system_id":"levelo_inurba_marseille","lat":43.278401,"lon":5.392152,"is_reserved":false,"is_disabled":false,"rental_uris":{"android":"levelo://app?vid=4d3d0c8b-6b41-41e4-87c5-57930c62e9fb","ios":"levelo://app?vid=4d3d0c8b-6b41-41e4-87c5-57930c62e9fb"},"vehicle_type_id":"4","last_reported":1703963067,"current_range_meters":13200,"station_id":"ce4bhjp2rcd13ifvqga0","pricing_plan_id":"free"},{"bike_id":"0725639b-5410-499a-9aed-19c5131a32a4","system_id":"levelo_inurba_marseille","lat":43.278401,"lon":5.392152,"is_reserved":false,"is_disabled":false,"rental_uris":{"android":"levelo://app?vid=0725639b-5410-499a-9aed-19c5131a32a4","ios":"levelo://app?vid=0725639b-5410-499a-9aed-19c5131a32a4"},"vehicle_type_id":"4","last_reported":1703963067,"current_range_meters":11600,"station_id":"ce4bhjp2rcd13ifvqga0","pricing_plan_id":"free"},{"bike_id":"e977f28a-9af3-4305-a733-fd58f0dfcda9","system_id":"levelo_inurba_marseille","lat":43.273613,"lon":5.362705,"is_reserved":false,"is_disabled":false,"rental_uris":{"android":"levelo://app?vid=e977f28a-9af3-4305-a733-fd58f0dfcda9","ios":"levelo://app?vid=e977f28a-9af3-4305-a733-fd58f0dfcda9"},"vehicle_type_id":"4","last_reported":1703963067,"current_range_meters":31200,"station_id":"ce4bhbh2rcd13ifvqeo0","pricing_plan_id":"free"},{"bike_id":"7105af1a-6daf-4f6f-8450-1fd86a7d7f99","system_id":"levelo_inurba_marseille","lat":43.273613,"lon":5.362705,"is_reserved":false,"is_disabled":false,"rental_uris":{"android":"levelo://app?vid=7105af1a-6daf-4f6f-8450-1fd86a7d7f99","ios":"levelo://app?vid=7105af1a-6daf-4f6f-8450-1fd86a7d7f99"},"vehicle_type_id":"4","last_reported":1703963067,"current_range_meters":29600,"station_id":"ce4bhbh2rcd13ifvqeo0","pricing_plan_id":"free"},{"bike_id":"b948f46a-85c7-41b4-86ed-ead42ce993c7","system_id":"levelo_inurba_marseille","lat":43.273613,"lon":5.362705,"is_reserved":false,"is_disabled":false,"rental_uris":{"android":"levelo://app?vid=b948f46a-85c7-41b4-86ed-ead42ce993c7","ios":"levelo://app?vid=b948f46a-85c7-41b4-86ed-ead42ce993c7"},"vehicle_type_id":"4","last_reported":1703963067,"current_range_meters":31600,"station_id":"ce4bhbh2rcd13ifvqeo0","pricing_plan_id":"free"},{"bike_id":"c375b325-17b3-4abf-8541-7870ff7b22a8","system_id":"levelo_inurba_marseille","lat":43.275625,"lon":5.384392,"is_reserved":false,"is_disabled":false,"rental_uris":{"android":"levelo://app?vid=c375b325-17b3-4abf-8541-7870ff7b22a8","ios":"levelo://app?vid=c375b325-17b3-4abf-8541-7870ff7b22a8"},"vehicle_type_id":"4","last_reported":1703963067,"current_range_meters":29600,"station_id":"ce4bhh92rcd13ifvqfi0","pricing_plan_id":"free"},{"bike_id":"99106b63-21f1-4b49-9691-bc110c59fe67","system_id":"levelo_inurba_marseille","lat":43.275625,"lon":5.384392,"is_reserved":false,"is_disabled":false,"rental_uris":{"android":"levelo://app?vid=99106b63-21f1-4b49-9691-bc110c59fe67","ios":"levelo://app?vid=99106b63-21f1-4b49-9691-bc110c59fe67"},"vehicle_type_id":"4","last_reported":1703963067,"current_range_meters":11200,"station_id":"ce4bhh92rcd13ifvqfi0","pricing_plan_id":"free"},{"bike_id":"3a79e2fa-950f-4552-8df2-44b9ff02b90d","system_id":"levelo_inurba_marseille","lat":43.273609,"lon":5.362708,"is_reserved":false,"is_disabled":false,"rental_uris":{"android":"levelo://app?vid=3a79e2fa-950f-4552-8df2-44b9ff02b90d","ios":"levelo://app?vid=3a79e2fa-950f-4552-8df2-44b9ff02b90d"},"vehicle_type_id":"4","last_reported":1703963067,"current_range_meters":31600,"station_id":"ce4bhbh2rcd13ifvqeo0","pricing_plan_id":"free"},{"bike_id":"ac4a2c54-054c-45c7-bc29-432a2e94ebc6","system_id":"levelo_inurba_marseille","lat":43.336134,"lon":5.410341,"is_reserved":false,"is_disabled":false,"rental_uris":{"android":"levelo://app?vid=ac4a2c54-054c-45c7-bc29-432a2e94ebc6","ios":"levelo://app?vid=ac4a2c54-054c-45c7-bc29-432a2e94ebc6"},"vehicle_type_id":"4","last_reported":1703963067,"current_range_meters":23600,"station_id":"ce4bhqh2rcd13ifvqhmg","pricing_plan_id":"free"},{"bike_id":"a69f4ca0-c247-4c77-885f-494b2985032d","system_id":"levelo_inurba_marseille","lat":43.336148,"lon":5.410349,"is_reserved":false,"is_disabled":false,"rental_uris":{"android":"levelo://app?vid=a69f4ca0-c247-4c77-885f-494b2985032d","ios":"levelo://app?vid=a69f4ca0-c247-4c77-885f-494b2985032d"},"vehicle_type_id":"4","last_reported":1703963067,"current_range_meters":29200,"station_id":"ce4bhqh2rcd13ifvqhmg","pricing_plan_id":"free"},{"bike_id":"72a13852-be33-483c-a47b-6f02f7de9929","system_id":"levelo_inurba_marseille","lat":43.279952,"lon":5.400085,"is_reserved":false,"is_disabled":false,"rental_uris":{"android":"levelo://app?vid=72a13852-be33-483c-a47b-6f02f7de9929","ios":"levelo://app?vid=72a13852-be33-483c-a47b-6f02f7de9929"},"vehicle_type_id":"4","last_reported":1703963067,"current_range_meters":3600,"station_id":"ce4bho92rcd13ifvqh4g","pricing_plan_id":"free"},{"bike_id":"d888642a-5e21-4f0f-a86f-4770bc6da2c3","system_id":"levelo_inurba_marseille","lat":43.279952,"lon":5.400085,"is_reserved":false,"is_disabled":false,"rental_uris":{"android":"levelo://app?vid=d888642a-5e21-4f0f-a86f-4770bc6da2c3","ios":"levelo://app?vid=d888642a-5e21-4f0f-a86f-4770bc6da2c3"},"vehicle_type_id":"4","last_reported":1703963067,"current_range_meters":12000,"station_id":"ce4bho92rcd13ifvqh4g","pricing_plan_id":"free"},{"bike_id":"01437af3-b1db-4bcd-baf0-f3046ab99a2b","system_id":"levelo_inurba_marseille","lat":43.279952,"lon":5.400085,"is_reserved":false,"is_disabled":false,"rental_uris":{"android":"levelo://app?vid=01437af3-b1db-4bcd-baf0-f3046ab99a2b","ios":"levelo://app?vid=01437af3-b1db-4bcd-baf0-f3046ab99a2b"},"vehicle_type_id":"4","last_reported":1703963067,"current_range_meters":4400,"station_id":"ce4bho92rcd13ifvqh4g","pricing_plan_id":"free"},{"bike_id":"f5fd5f9b-1579-4e10-b614-92f4ee3d52b5","system_id":"levelo_inurba_marseille","lat":43.279975,"lon":5.40009,"is_reserved":false,"is_disabled":false,"rental_uris":{"android":"levelo://app?vid=f5fd5f9b-1579-4e10-b614-92f4ee3d52b5","ios":"levelo://app?vid=f5fd5f9b-1579-4e10-b614-92f4ee3d52b5"},"vehicle_type_id":"4","last_reported":1703963067,"current_range_meters":18800,"station_id":"ce4bho92rcd13ifvqh4g","pricing_plan_id":"free"},{"bike_id":"75649be6-7f45-4d54-9e20-38266a987b61","system_id":"levelo_inurba_marseille","lat":43.279975,"lon":5.40009,"is_reserved":false,"is_disabled":false,"rental_uris":{"android":"levelo://app?vid=75649be6-7f45-4d54-9e20-38266a987b61","ios":"levelo://app?vid=75649be6-7f45-4d54-9e20-38266a987b61"},"vehicle_type_id":"4","last_reported":1703963067,"current_range_meters":4400,"station_id":"ce4bho92rcd13ifvqh4g","pricing_plan_id":"free"},{"bike_id":"9464f4e4-557a-487f-a39d-6922fe12c63a","system_id":"levelo_inurba_marseille","lat":43.279975,"lon":5.40009,"is_reserved":false,"is_disabled":false,"rental_uris":{"android":"levelo://app?vid=9464f4e4-557a-487f-a39d-6922fe12c63a","ios":"levelo://app?vid=9464f4e4-557a-487f-a39d-6922fe12c63a"},"vehicle_type_id":"4","last_reported":1703963067,"current_range_meters":8400,"station_id":"ce4bho92rcd13ifvqh4g","pricing_plan_id":"free"},{"bike_id":"e55eff52-8930-40bf-b7ae-d4dc7e731987","system_id":"levelo_inurba_marseille","lat":43.279952,"lon":5.400085,"is_reserved":false,"is_disabled":false,"rental_uris":{"android":"levelo://app?vid=e55eff52-8930-40bf-b7ae-d4dc7e731987","ios":"levelo://app?vid=e55eff52-8930-40bf-b7ae-d4dc7e731987"},"vehicle_type_id":"4","last_reported":1703963067,"current_range_meters":23600,"station_id":"ce4bho92rcd13ifvqh4g","pricing_plan_id":"free"},{"bike_id":"1b825d90-2b7b-4b5f-b780-a714f61c61a6","system_id":"levelo_inurba_marseille","lat":43.279952,"lon":5.400085,"is_reserved":false,"is_disabled":false,"rental_uris":{"android":"levelo://app?vid=1b825d90-2b7b-4b5f-b780-a714f61c61a6","ios":"levelo://app?vid=1b825d90-2b7b-4b5f-b780-a714f61c61a6"},"vehicle_type_id":"4","last_reported":1703963067,"current_range_meters":23200,"station_id":"ce4bho92rcd13ifvqh4g","pricing_plan_id":"free"},{"bike_id":"ceb84a01-7f50-4c3a-9ee6-841d9d98855d","system_id":"levelo_inurba_marseille","lat":43.279952,"lon":5.400085,"is_reserved":false,"is_disabled":false,"rental_uris":{"android":"levelo://app?vid=ceb84a01-7f50-4c3a-9ee6-841d9d98855d","ios":"levelo://app?vid=ceb84a01-7f50-4c3a-9ee6-841d9d98855d"},"vehicle_type_id":"4","last_reported":1703963067,"current_range_meters":5200,"station_id":"ce4bho92rcd13ifvqh4g","pricing_plan_id":"free"},{"bike_id":"d9c8318c-3031-4f68-9885-19375abd858f","system_id":"levelo_inurba_marseille","lat":43.31465,"lon":5.42616,"is_reserved":false,"is_disabled":false,"rental_uris":{"android":"levelo://app?vid=d9c8318c-3031-4f68-9885-19375abd858f","ios":"levelo://app?vid=d9c8318c-3031-4f68-9885-19375abd858f"},"vehicle_type_id":"4","last_reported":1703963067,"current_range_meters":6000,"station_id":"","pricing_plan_id":"free"},{"bike_id":"cce57d8f-75cc-4e61-9ba0-127f6b39523c","system_id":"levelo_inurba_marseille","lat":43.274103,"lon":5.394016,"is_reserved":false,"is_disabled":false,"rental_uris":{"android":"levelo://app?vid=cce57d8f-75cc-4e61-9ba0-127f6b39523c","ios":"levelo://app?vid=cce57d8f-75cc-4e61-9ba0-127f6b39523c"},"vehicle_type_id":"4","last_reported":1703963067,"current_range_meters":1200,"station_id":"ce4bhdp2rcd13ifvqf20","pricing_plan_id":"free"},{"bike_id":"061bb09e-908a-4f76-afb2-44bcfcb6aa80","system_id":"levelo_inurba_marseille","lat":43.295511,"lon":5.422926,"is_reserved":false,"is_disabled":false,"rental_uris":{"android":"levelo://app?vid=061bb09e-908a-4f76-afb2-44bcfcb6aa80","ios":"levelo://app?vid=061bb09e-908a-4f76-afb2-44bcfcb6aa80"},"vehicle_type_id":"4","last_reported":1703963067,"current_range_meters":30400,"station_id":"ce4bhph2rcd13ifvqhdg","pricing_plan_id":"free"},{"bike_id":"1215a881-8c5c-4a50-8eb2-6fc7039f28ce","system_id":"levelo_inurba_marseille","lat":43.295523,"lon":5.422926,"is_reserved":false,"is_disabled":false,"rental_uris":{"android":"levelo://app?vid=1215a881-8c5c-4a50-8eb2-6fc7039f28ce","ios":"levelo://app?vid=1215a881-8c5c-4a50-8eb2-6fc7039f28ce"},"vehicle_type_id":"4","last_reported":1703963067,"current_range_meters":22000,"station_id":"ce4bhph2rcd13ifvqhdg","pricing_plan_id":"free"},{"bike_id":"beb93061-85bf-4e20-99aa-79c67497ba42","system_id":"levelo_inurba_marseille","lat":43.295511,"lon":5.422926,"is_reserved":false,"is_disabled":false,"rental_uris":{"android":"levelo://app?vid=beb93061-85bf-4e20-99aa-79c67497ba42","ios":"levelo://app?vid=beb93061-85bf-4e20-99aa-79c67497ba42"},"vehicle_type_id":"4","last_reported":1703963067,"current_range_meters":18400,"station_id":"ce4bhph2rcd13ifvqhdg","pricing_plan_id":"free"},{"bike_id":"d060ee75-2d43-419a-ab7d-06748f433214","system_id":"levelo_inurba_marseille","lat":43.278128,"lon":5.407195,"is_reserved":false,"is_disabled":false,"rental_uris":{"android":"levelo://app?vid=d060ee75-2d43-419a-ab7d-06748f433214","ios":"levelo://app?vid=d060ee75-2d43-419a-ab7d-06748f433214"},"vehicle_type_id":"4","last_reported":1703963067,"current_range_meters":31600,"station_id":"ce4bhnh2rcd13ifvqgtg","pricing_plan_id":"free"},{"bike_id":"1c31dc6d-8765-47e7-b369-dda766240f4a","system_id":"levelo_inurba_marseille","lat":43.278128,"lon":5.407195,"is_reserved":false,"is_disabled":false,"rental_uris":{"android":"levelo://app?vid=1c31dc6d-8765-47e7-b369-dda766240f4a","ios":"levelo://app?vid=1c31dc6d-8765-47e7-b369-dda766240f4a"},"vehicle_type_id":"4","last_reported":1703963067,"current_range_meters":9200,"station_id":"ce4bhnh2rcd13ifvqgtg","pricing_plan_id":"free"},{"bike_id":"aebe85ab-6b3a-4eb5-8d4e-b12c09289e0a","system_id":"levelo_inurba_marseille","lat":43.279465,"lon":5.410561,"is_reserved":false,"is_disabled":false,"rental_uris":{"android":"levelo://app?vid=aebe85ab-6b3a-4eb5-8d4e-b12c09289e0a","ios":"levelo://app?vid=aebe85ab-6b3a-4eb5-8d4e-b12c09289e0a"},"vehicle_type_id":"4","last_reported":1703963067,"current_range_meters":22800,"station_id":"ce4bhnp2rcd13ifvqh0g","pricing_plan_id":"free"},{"bike_id":"8c5acf7c-4c3c-4f01-88c1-844f8072875a","system_id":"levelo_inurba_marseille","lat":43.279465,"lon":5.410561,"is_reserved":false,"is_disabled":false,"rental_uris":{"android":"levelo://app?vid=8c5acf7c-4c3c-4f01-88c1-844f8072875a","ios":"levelo://app?vid=8c5acf7c-4c3c-4f01-88c1-844f8072875a"},"vehicle_type_id":"4","last_reported":1703963067,"current_range_meters":9600,"station_id":"ce4bhnp2rcd13ifvqh0g","pricing_plan_id":"free"},{"bike_id":"995d75bf-1669-4aed-b410-a6a3b9f87d67","system_id":"levelo_inurba_marseille","lat":43.279465,"lon":5.410561,"is_reserved":false,"is_disabled":false,"rental_uris":{"android":"levelo://app?vid=995d75bf-1669-4aed-b410-a6a3b9f87d67","ios":"levelo://app?vid=995d75bf-1669-4aed-b410-a6a3b9f87d67"},"vehicle_type_id":"4","last_reported":1703963067,"current_range_meters":10400,"station_id":"ce4bhnp2rcd13ifvqh0g","pricing_plan_id":"free"},{"bike_id":"8632efc1-48c9-445b-8dd9-a1a740491df0","system_id":"levelo_inurba_marseille","lat":43.269319,"lon":5.389397,"is_reserved":false,"is_disabled":false,"rental_uris":{"android":"levelo://app?vid=8632efc1-48c9-445b-8dd9-a1a740491df0","ios":"levelo://app?vid=8632efc1-48c9-445b-8dd9-a1a740491df0"},"vehicle_type_id":"4","last_reported":1703963067,"current_range_meters":16400,"station_id":"ce4bhhh2rcd13ifvqfl0","pricing_plan_id":"free"},{"bike_id":"4ace0143-54eb-450f-874b-0d5359e906a6","system_id":"levelo_inurba_marseille","lat":43.31299,"lon":5.4309,"is_reserved":false,"is_disabled":false,"rental_uris":{"android":"levelo://app?vid=4ace0143-54eb-450f-874b-0d5359e906a6","ios":"levelo://app?vid=4ace0143-54eb-450f-874b-0d5359e906a6"},"vehicle_type_id":"4","last_reported":1703963067,"current_range_meters":30000,"station_id":"","pricing_plan_id":"free"},{"bike_id":"3c4cc09c-678b-4061-b8ee-12c6e45a92ba","system_id":"levelo_inurba_marseille","lat":43.26681,"lon":5.382694,"is_reserved":false,"is_disabled":false,"rental_uris":{"android":"levelo://app?vid=3c4cc09c-678b-4061-b8ee-12c6e45a92ba","ios":"levelo://app?vid=3c4cc09c-678b-4061-b8ee-12c6e45a92ba"},"vehicle_type_id":"4","last_reported":1703963067,"current_range_meters":6400,"station_id":"ce4bhg92rcd13ifvqf90","pricing_plan_id":"free"},{"bike_id":"476da571-0365-47f4-ac6e-a8070c7dfbef","system_id":"levelo_inurba_marseille","lat":43.26681,"lon":5.382694,"is_reserved":false,"is_disabled":false,"rental_uris":{"android":"levelo://app?vid=476da571-0365-47f4-ac6e-a8070c7dfbef","ios":"levelo://app?vid=476da571-0365-47f4-ac6e-a8070c7dfbef"},"vehicle_type_id":"4","last_reported":1703963067,"current_range_meters":20800,"station_id":"ce4bhg92rcd13ifvqf90","pricing_plan_id":"free"},{"bike_id":"7a4c5c94-9c70-4738-835b-3564783d3bf0","system_id":"levelo_inurba_marseille","lat":43.26681,"lon":5.382694,"is_reserved":false,"is_disabled":false,"rental_uris":{"android":"levelo://app?vid=7a4c5c94-9c70-4738-835b-3564783d3bf0","ios":"levelo://app?vid=7a4c5c94-9c70-4738-835b-3564783d3bf0"},"vehicle_type_id":"4","last_reported":1703963067,"current_range_meters":30400,"station_id":"ce4bhg92rcd13ifvqf90","pricing_plan_id":"free"},{"bike_id":"267606f5-650f-4b88-939b-5a7bc7045522","system_id":"levelo_inurba_marseille","lat":43.27996,"lon":5.416624,"is_reserved":false,"is_disabled":false,"rental_uris":{"android":"levelo://app?vid=267606f5-650f-4b88-939b-5a7bc7045522","ios":"levelo://app?vid=267606f5-650f-4b88-939b-5a7bc7045522"},"vehicle_type_id":"4","last_reported":1703963067,"current_range_meters":14400,"station_id":"ce4bho12rcd13ifvqh1g","pricing_plan_id":"free"},{"bike_id":"6360d5f3-4af1-46b3-b9af-6b80a26ce6ca","system_id":"levelo_inurba_marseille","lat":43.27996,"lon":5.416624,"is_reserved":false,"is_disabled":false,"rental_uris":{"android":"levelo://app?vid=6360d5f3-4af1-46b3-b9af-6b80a26ce6ca","ios":"levelo://app?vid=6360d5f3-4af1-46b3-b9af-6b80a26ce6ca"},"vehicle_type_id":"4","last_reported":1703963067,"current_range_meters":27600,"station_id":"ce4bho12rcd13ifvqh1g","pricing_plan_id":"free"},{"bike_id":"ba5fd768-8fa0-473f-a98a-866ce8d92e47","system_id":"levelo_inurba_marseille","lat":43.265714,"lon":5.372891,"is_reserved":false,"is_disabled":false,"rental_uris":{"android":"levelo://app?vid=ba5fd768-8fa0-473f-a98a-866ce8d92e47","ios":"levelo://app?vid=ba5fd768-8fa0-473f-a98a-866ce8d92e47"},"vehicle_type_id":"4","last_reported":1703963067,"current_range_meters":23600,"station_id":"ce4bhg12rcd13ifvqf70","pricing_plan_id":"free"},{"bike_id":"38bcceb3-14ff-44ea-b6a9-c23c7220dab8","system_id":"levelo_inurba_marseille","lat":43.265571,"lon":5.390032,"is_reserved":false,"is_disabled":false,"rental_uris":{"android":"levelo://app?vid=38bcceb3-14ff-44ea-b6a9-c23c7220dab8","ios":"levelo://app?vid=38bcceb3-14ff-44ea-b6a9-c23c7220dab8"},"vehicle_type_id":"4","last_reported":1703963067,"current_range_meters":25200,"station_id":"ce4bhe12rcd13ifvqf30","pricing_plan_id":"free"},{"bike_id":"dac5ea74-92f7-462e-b536-31f322bb01c0","system_id":"levelo_inurba_marseille","lat":43.331893,"lon":5.431791,"is_reserved":false,"is_disabled":false,"rental_uris":{"android":"levelo://app?vid=dac5ea74-92f7-462e-b536-31f322bb01c0","ios":"levelo://app?vid=dac5ea74-92f7-462e-b536-31f322bb01c0"},"vehicle_type_id":"4","last_reported":1703963067,"current_range_meters":14000,"station_id":"","pricing_plan_id":"free"},{"bike_id":"794ab64e-1955-4766-b844-628f1c76e2d8","system_id":"levelo_inurba_marseille","lat":43.271368,"lon":5.40928,"is_reserved":false,"is_disabled":false,"rental_uris":{"android":"levelo://app?vid=794ab64e-1955-4766-b844-628f1c76e2d8","ios":"levelo://app?vid=794ab64e-1955-4766-b844-628f1c76e2d8"},"vehicle_type_id":"4","last_reported":1703963067,"current_range_meters":5200,"station_id":"ce4bhl12rcd13ifvqgf0","pricing_plan_id":"free"},{"bike_id":"3f8ad699-77c1-4121-bb7e-9993854123bf","system_id":"levelo_inurba_marseille","lat":43.271368,"lon":5.40928,"is_reserved":false,"is_disabled":false,"rental_uris":{"android":"levelo://app?vid=3f8ad699-77c1-4121-bb7e-9993854123bf","ios":"levelo://app?vid=3f8ad699-77c1-4121-bb7e-9993854123bf"},"vehicle_type_id":"4","last_reported":1703963067,"current_range_meters":28000,"station_id":"ce4bhl12rcd13ifvqgf0","pricing_plan_id":"free"},{"bike_id":"67d5e534-bb56-4ed3-96f2-1608e8f50594","system_id":"levelo_inurba_marseille","lat":43.267959,"lon":5.402685,"is_reserved":false,"is_disabled":false,"rental_uris":{"android":"levelo://app?vid=67d5e534-bb56-4ed3-96f2-1608e8f50594","ios":"levelo://app?vid=67d5e534-bb56-4ed3-96f2-1608e8f50594"},"vehicle_type_id":"4","last_reported":1703963067,"current_range_meters":19200,"station_id":"ce501612rcd8frsf0b60","pricing_plan_id":"free"},{"bike_id":"41fa5ecd-5ebc-4aee-933c-c5c00303b888","system_id":"levelo_inurba_marseille","lat":43.2651,"lon":5.39469,"is_reserved":false,"is_disabled":false,"rental_uris":{"android":"levelo://app?vid=41fa5ecd-5ebc-4aee-933c-c5c00303b888","ios":"levelo://app?vid=41fa5ecd-5ebc-4aee-933c-c5c00303b888"},"vehicle_type_id":"4","last_reported":1703963067,"current_range_meters":11200,"station_id":"ce4bhi12rcd13ifvqfq0","pricing_plan_id":"free"},{"bike_id":"048306d8-69df-4d21-99c9-8745e525e8de","system_id":"levelo_inurba_marseille","lat":43.298959,"lon":5.436571,"is_reserved":false,"is_disabled":false,"rental_uris":{"android":"levelo://app?vid=048306d8-69df-4d21-99c9-8745e525e8de","ios":"levelo://app?vid=048306d8-69df-4d21-99c9-8745e525e8de"},"vehicle_type_id":"4","last_reported":1703963067,"current_range_meters":6400,"station_id":"ce4bhpp2rcd13ifvqhfg","pricing_plan_id":"free"},{"bike_id":"4e011c37-f126-433b-a488-7ed2749557ae","system_id":"levelo_inurba_marseille","lat":43.298768,"lon":5.43643,"is_reserved":false,"is_disabled":false,"rental_uris":{"android":"levelo://app?vid=4e011c37-f126-433b-a488-7ed2749557ae","ios":"levelo://app?vid=4e011c37-f126-433b-a488-7ed2749557ae"},"vehicle_type_id":"4","last_reported":1703963067,"current_range_meters":22000,"station_id":"ce4bhpp2rcd13ifvqhfg","pricing_plan_id":"free"},{"bike_id":"812614fc-f43d-42cd-8379-6bce06a75358","system_id":"levelo_inurba_marseille","lat":43.298768,"lon":5.43643,"is_reserved":false,"is_disabled":false,"rental_uris":{"android":"levelo://app?vid=812614fc-f43d-42cd-8379-6bce06a75358","ios":"levelo://app?vid=812614fc-f43d-42cd-8379-6bce06a75358"},"vehicle_type_id":"4","last_reported":1703963067,"current_range_meters":31600,"station_id":"ce4bhpp2rcd13ifvqhfg","pricing_plan_id":"free"},{"bike_id":"e8b47114-0110-4054-86b9-5964a254b9cf","system_id":"levelo_inurba_marseille","lat":43.26035,"lon":5.37555,"is_reserved":false,"is_disabled":false,"rental_uris":{"android":"levelo://app?vid=e8b47114-0110-4054-86b9-5964a254b9cf","ios":"levelo://app?vid=e8b47114-0110-4054-86b9-5964a254b9cf"},"vehicle_type_id":"4","last_reported":1703963067,"current_range_meters":22000,"station_id":"ce4bhgh2rcd13ifvqfa0","pricing_plan_id":"free"},{"bike_id":"0d574b27-0544-48a4-bf39-ede07ecbf8c3","system_id":"levelo_inurba_marseille","lat":43.281548,"lon":5.42643,"is_reserved":false,"is_disabled":false,"rental_uris":{"android":"levelo://app?vid=0d574b27-0544-48a4-bf39-ede07ecbf8c3","ios":"levelo://app?vid=0d574b27-0544-48a4-bf39-ede07ecbf8c3"},"vehicle_type_id":"4","last_reported":1703963067,"current_range_meters":11200,"station_id":"ce4bhnh2rcd13ifvqgug","pricing_plan_id":"free"},{"bike_id":"554274c1-29da-4e13-9454-6cf149455d56","system_id":"levelo_inurba_marseille","lat":43.281548,"lon":5.42643,"is_reserved":false,"is_disabled":false,"rental_uris":{"android":"levelo://app?vid=554274c1-29da-4e13-9454-6cf149455d56","ios":"levelo://app?vid=554274c1-29da-4e13-9454-6cf149455d56"},"vehicle_type_id":"4","last_reported":1703963067,"current_range_meters":10800,"station_id":"ce4bhnh2rcd13ifvqgug","pricing_plan_id":"free"},{"bike_id":"0c5cb810-16ed-4b8f-9df0-3ac1374db3bf","system_id":"levelo_inurba_marseille","lat":43.28155,"lon":5.42648,"is_reserved":false,"is_disabled":false,"rental_uris":{"android":"levelo://app?vid=0c5cb810-16ed-4b8f-9df0-3ac1374db3bf","ios":"levelo://app?vid=0c5cb810-16ed-4b8f-9df0-3ac1374db3bf"},"vehicle_type_id":"4","last_reported":1703963067,"current_range_meters":27200,"station_id":"ce4bhnh2rcd13ifvqgug","pricing_plan_id":"free"},{"bike_id":"dba94adf-8631-4e52-b14e-ab5df234ae8e","system_id":"levelo_inurba_marseille","lat":43.281548,"lon":5.42643,"is_reserved":false,"is_disabled":false,"rental_uris":{"android":"levelo://app?vid=dba94adf-8631-4e52-b14e-ab5df234ae8e","ios":"levelo://app?vid=dba94adf-8631-4e52-b14e-ab5df234ae8e"},"vehicle_type_id":"4","last_reported":1703963067,"current_range_meters":30800,"station_id":"ce4bhnh2rcd13ifvqgug","pricing_plan_id":"free"},{"bike_id":"839c44ee-5d2e-482d-9385-5e1ae6794954","system_id":"levelo_inurba_marseille","lat":43.255756,"lon":5.382303,"is_reserved":false,"is_disabled":false,"rental_uris":{"android":"levelo://app?vid=839c44ee-5d2e-482d-9385-5e1ae6794954","ios":"levelo://app?vid=839c44ee-5d2e-482d-9385-5e1ae6794954"},"vehicle_type_id":"4","last_reported":1703963067,"current_range_meters":26400,"station_id":"ce4bhih2rcd13ifvqfs0","pricing_plan_id":"free"},{"bike_id":"fb602b6f-f729-41cf-8a05-eadad2ef5bc8","system_id":"levelo_inurba_marseille","lat":43.255846,"lon":5.382346,"is_reserved":false,"is_disabled":false,"rental_uris":{"android":"levelo://app?vid=fb602b6f-f729-41cf-8a05-eadad2ef5bc8","ios":"levelo://app?vid=fb602b6f-f729-41cf-8a05-eadad2ef5bc8"},"vehicle_type_id":"4","last_reported":1703963067,"current_range_meters":1600,"station_id":"ce4bhih2rcd13ifvqfs0","pricing_plan_id":"free"},{"bike_id":"65f713de-eaab-4062-a39f-3825259699d7","system_id":"levelo_inurba_marseille","lat":43.255756,"lon":5.382303,"is_reserved":false,"is_disabled":false,"rental_uris":{"android":"levelo://app?vid=65f713de-eaab-4062-a39f-3825259699d7","ios":"levelo://app?vid=65f713de-eaab-4062-a39f-3825259699d7"},"vehicle_type_id":"4","last_reported":1703963067,"current_range_meters":8400,"station_id":"ce4bhih2rcd13ifvqfs0","pricing_plan_id":"free"},{"bike_id":"0fc00ff0-6588-4584-98da-c2d314dbcd1e","system_id":"levelo_inurba_marseille","lat":43.258224,"lon":5.394369,"is_reserved":false,"is_disabled":false,"rental_uris":{"android":"levelo://app?vid=0fc00ff0-6588-4584-98da-c2d314dbcd1e","ios":"levelo://app?vid=0fc00ff0-6588-4584-98da-c2d314dbcd1e"},"vehicle_type_id":"4","last_reported":1703963067,"current_range_meters":11600,"station_id":"ce4bhip2rcd13ifvqft0","pricing_plan_id":"free"},{"bike_id":"bd877f43-04ac-4098-888d-3a591ccea8bb","system_id":"levelo_inurba_marseille","lat":43.255756,"lon":5.382303,"is_reserved":false,"is_disabled":false,"rental_uris":{"android":"levelo://app?vid=bd877f43-04ac-4098-888d-3a591ccea8bb","ios":"levelo://app?vid=bd877f43-04ac-4098-888d-3a591ccea8bb"},"vehicle_type_id":"4","last_reported":1703963067,"current_range_meters":2000,"station_id":"ce4bhih2rcd13ifvqfs0","pricing_plan_id":"free"},{"bike_id":"099bdd5f-90b7-4b67-bf55-67573f9929d0","system_id":"levelo_inurba_marseille","lat":43.255756,"lon":5.382303,"is_reserved":false,"is_disabled":false,"rental_uris":{"android":"levelo://app?vid=099bdd5f-90b7-4b67-bf55-67573f9929d0","ios":"levelo://app?vid=099bdd5f-90b7-4b67-bf55-67573f9929d0"},"vehicle_type_id":"4","last_reported":1703963067,"current_range_meters":3200,"station_id":"ce4bhih2rcd13ifvqfs0","pricing_plan_id":"free"},{"bike_id":"8a9d546c-9b4d-432e-b3fe-860009adeeb3","system_id":"levelo_inurba_marseille","lat":43.255756,"lon":5.382303,"is_reserved":false,"is_disabled":false,"rental_uris":{"android":"levelo://app?vid=8a9d546c-9b4d-432e-b3fe-860009adeeb3","ios":"levelo://app?vid=8a9d546c-9b4d-432e-b3fe-860009adeeb3"},"vehicle_type_id":"4","last_reported":1703963067,"current_range_meters":22000,"station_id":"ce4bhih2rcd13ifvqfs0","pricing_plan_id":"free"},{"bike_id":"246a8cc5-0024-4efb-9909-76db3c7166cc","system_id":"levelo_inurba_marseille","lat":43.258224,"lon":5.394369,"is_reserved":false,"is_disabled":false,"rental_uris":{"android":"levelo://app?vid=246a8cc5-0024-4efb-9909-76db3c7166cc","ios":"levelo://app?vid=246a8cc5-0024-4efb-9909-76db3c7166cc"},"vehicle_type_id":"4","last_reported":1703963067,"current_range_meters":12800,"station_id":"ce4bhip2rcd13ifvqft0","pricing_plan_id":"free"},{"bike_id":"68e26f81-0400-4391-947c-00709a132a73","system_id":"levelo_inurba_marseille","lat":43.258224,"lon":5.394369,"is_reserved":false,"is_disabled":false,"rental_uris":{"android":"levelo://app?vid=68e26f81-0400-4391-947c-00709a132a73","ios":"levelo://app?vid=68e26f81-0400-4391-947c-00709a132a73"},"vehicle_type_id":"4","last_reported":1703963067,"current_range_meters":11600,"station_id":"ce4bhip2rcd13ifvqft0","pricing_plan_id":"free"},{"bike_id":"90052acc-ea14-4023-be21-8f46e630af19","system_id":"levelo_inurba_marseille","lat":43.255756,"lon":5.382303,"is_reserved":false,"is_disabled":false,"rental_uris":{"android":"levelo://app?vid=90052acc-ea14-4023-be21-8f46e630af19","ios":"levelo://app?vid=90052acc-ea14-4023-be21-8f46e630af19"},"vehicle_type_id":"4","last_reported":1703963067,"current_range_meters":12800,"station_id":"ce4bhih2rcd13ifvqfs0","pricing_plan_id":"free"},{"bike_id":"61388883-45ac-435c-920e-ec681ebc0477","system_id":"levelo_inurba_marseille","lat":43.258224,"lon":5.394369,"is_reserved":false,"is_disabled":false,"rental_uris":{"android":"levelo://app?vid=61388883-45ac-435c-920e-ec681ebc0477","ios":"levelo://app?vid=61388883-45ac-435c-920e-ec681ebc0477"},