{"last_updated":1748711312,"ttl":60,"version":"2.2","data":{"bikes":[{"bike_id":"9c2a213f-23d7-4fdd-a50b-b8dce580b16f","system_id":"levelo_inurba_marseille","lat":43.28156,"lon":5.4265,"is_reserved":false,"is_disabled":false,"rental_uris":{"android":"levelo://app?vid=9c2a213f-23d7-4fdd-a50b-b8dce580b16f","ios":"levelo://app?vid=9c2a213f-23d7-4fdd-a50b-b8dce580b16f"},"vehicle_type_id":"4","last_reported":1748711312,"current_range_meters":2800,"station_id":"ce4bhnh2rcd13ifvqgug","pricing_plan_id":"cebpf4jnsgd1na2vs0mg"},{"bike_id":"8fc38bf8-6b4b-43fc-98fe-747d6b356946","system_id":"levelo_inurba_marseille","lat":43.2849,"lon":5.38549,"is_reserved":false,"is_disabled":false,"rental_uris":{"android":"levelo://app?vid=8fc38bf8-6b4b-43fc-98fe-747d6b356946","ios":"levelo://app?vid=8fc38bf8-6b4b-43fc-98fe-747d6b356946"},"vehicle_type_id":"4","last_reported":1748711312,"current_range_meters":2800,"station_id":"ce4bh8p2rcd13ifvqeb0","pricing_plan_id":"cebpf4jnsgd1na2vs0mg"},{"bike_id":"87279ec5-c113-442b-863f-1a9f461b55d4","system_id":"levelo_inurba_marseille","lat":43.29973,"lon":5.37151,"is_reserved":false,"is_disabled":false,"rental_uris":{"android":"levelo://app?vid=87279ec5-c113-442b-863f-1a9f461b55d4","ios":"levelo://app?vid=87279ec5-c113-442b-863f-1a9f461b55d4"},"vehicle_type_id":"4","last_reported":1748711312,"current_range_meters":2000,"station_id":"ce4bgr92rcd13ifvqc7g","pricing_plan_id":"cebpf4jnsgd1na2vs0mg"},{"bike_id":"4abd40fb-229c-4c36-b936-9bfe691d6f0c","system_id":"levelo_inurba_marseille","lat":43.292999,"lon":5.374655,"is_reserved":false,"is_disabled":false,"rental_uris":{"android":"levelo://app?vid=4abd40fb-229c-4c36-b936-9bfe691d6f0c","ios":"levelo://app?vid=4abd40fb-229c-4c36-b936-9bfe691d6f0c"},"vehicle_type_id":"4","last_reported":1748711312,"current_range_meters":2800,"station_id":"ce4bgi12rcd13ifvqb70","pricing_plan_id":"cebpf4jnsgd1na2vs0mg"},{"bike_id":"90af85d4-6542-4e7a-9bf4-6e09c295df9c","system_id":"levelo_inurba_marseille","lat":43.307919,"lon":5.376436,"is_reserved":false,"is_disabled":false,"rental_uris":{"android":"levelo://app?vid=90af85d4-6542-4e7a-9bf4-6e09c295df9c","ios":"levelo://app?vid=90af85d4-6542-4e7a-9bf4-6e09c295df9c"},"vehicle_type_id":"4","last_reported":1748711312,"current_range_meters":2800,"station_id":"ce4bgv92rcd13ifvqcq0","pricing_plan_id":"cebpf4jnsgd1na2vs0mg"},{"bike_id":"f39959fb-36eb-4352-a4fc-1235c1300727","system_id":"levelo_inurba_marseille","lat":43.30645,"lon":5.40097,"is_reserved":false,"is_disabled":false,"rental_uris":{"android":"levelo://app?vid=f39959fb-36eb-4352-a4fc-1235c1300727","ios":"levelo://app?vid=f39959fb-36eb-4352-a4fc-1235c1300727"},"vehicle_type_id":"4","last_reported":1748711312,"current_range_meters":2800,"station_id":"ce4bh112rcd13ifvqda0","pricing_plan_id":"cebpf4jnsgd1na2vs0mg"},{"bike_id":"c0d05c70-6b41-4951-8788-9514a5ca2367","system_id":"levelo_inurba_marseille","lat":43.25727,"lon":5.41108,"is_reserved":false,"is_disabled":false,"rental_uris":{"android":"levelo://app?vid=c0d05c70-6b41-4951-8788-9514a5ca2367","ios":"levelo://app?vid=c0d05c70-6b41-4951-8788-9514a5ca2367"},"vehicle_type_id":"4","last_reported":1748711312,"current_range_meters":3200,"station_id":"ce4bhkp2rcd13ifvqgd0","pricing_plan_id":"cebpf4jnsgd1na2vs0mg"},{"bike_id":"e1a5741d-6f8a-4e60-aa31-397e40c0bc20","system_id":"levelo_inurba_marseille","lat":43.273108,"lon":5.391032,"is_reserved":false,"is_disabled":false,"rental_uris":{"android":"levelo://app?vid=e1a5741d-6f8a-4e60-aa31-397e40c0bc20","ios":"levelo://app?vid=e1a5741d-6f8a-4e60-aa31-397e40c0bc20"},"vehicle_type_id":"4","last_reported":1748711312,"current_range_meters":3200,"station_id":"ce4bhgp2rcd13ifvqfe0","pricing_plan_id":"cebpf4jnsgd1na2vs0mg"},{"bike_id":"9c3d6a4a-4871-4423-8c9e-0e225ca8b931","system_id":"levelo_inurba_marseille","lat":43.30125,"lon":5.38779,"is_reserved":false,"is_disabled":false,"rental_uris":{"android":"levelo://app?vid=9c3d6a4a-4871-4423-8c9e-0e225ca8b931","ios":"levelo://app?vid=9c3d6a4a-4871-4423-8c9e-0e225ca8b931"},"vehicle_type_id":"4","last_reported":1748711312,"current_range_meters":3600,"station_id":"ce4bghh2rcd13ifvqb60","pricing_plan_id":"cebpf4jnsgd1na2vs0mg"},{"bike_id":"8127b80c-4972-4288-b194-7ac080019dbd","system_id":"levelo_inurba_marseille","lat":43.278412,"lon":5.392002,"is_reserved":false,"is_disabled":false,"rental_uris":{"android":"levelo://app?vid=8127b80c-4972-4288-b194-7ac080019dbd","ios":"levelo://app?vid=8127b80c-4972-4288-b194-7ac080019dbd"},"vehicle_type_id":"4","last_reported":1748711312,"current_range_meters":3600,"station_id":"ce4bhjp2rcd13ifvqga0","pricing_plan_id":"cebpf4jnsgd1na2vs0mg"},{"bike_id":"4aacf28d-8eb3-4d4c-95b3-bd57e53bbf04","system_id":"levelo_inurba_marseille","lat":43.29732,"lon":5.37111,"is_reserved":false,"is_disabled":false,"rental_uris":{"android":"levelo://app?vid=4aacf28d-8eb3-4d4c-95b3-bd57e53bbf04","ios":"levelo://app?vid=4aacf28d-8eb3-4d4c-95b3-bd57e53bbf04"},"vehicle_type_id":"4","last_reported":1748711312,"current_range_meters":3200,"station_id":"ce4bgop2rcd13ifvqc1g","pricing_plan_id":"cebpf4jnsgd1na2vs0mg"},{"bike_id":"7e738d95-6ac3-44b9-a513-171ff81497e1","system_id":"levelo_inurba_marseille","lat":43.23173,"lon":5.39986,"is_reserved":false,"is_disabled":false,"rental_uris":{"android":"levelo://app?vid=7e738d95-6ac3-44b9-a513-171ff81497e1","ios":"levelo://app?vid=7e738d95-6ac3-44b9-a513-171ff81497e1"},"vehicle_type_id":"4","last_reported":1748711312,"current_range_meters":3600,"station_id":"ce4bhn12rcd13ifvqgqg","pricing_plan_id":"cebpf4jnsgd1na2vs0mg"},{"bike_id":"5f17820e-1c5a-4614-b58a-6f8b9a92a842","system_id":"levelo_inurba_marseille","lat":43.31353,"lon":5.38497,"is_reserved":false,"is_disabled":false,"rental_uris":{"android":"levelo://app?vid=5f17820e-1c5a-4614-b58a-6f8b9a92a842","ios":"levelo://app?vid=5f17820e-1c5a-4614-b58a-6f8b9a92a842"},"vehicle_type_id":"4","last_reported":1748711312,"current_range_meters":4000,"station_id":"ce4bgt92rcd13ifvqcf0","pricing_plan_id":"cebpf4jnsgd1na2vs0mg"},{"bike_id":"63cf5925-340b-40c6-b25d-b52166da232c","system_id":"levelo_inurba_marseille","lat":43.25121,"lon":5.40323,"is_reserved":false,"is_disabled":false,"rental_uris":{"android":"levelo://app?vid=63cf5925-340b-40c6-b25d-b52166da232c","ios":"levelo://app?vid=63cf5925-340b-40c6-b25d-b52166da232c"},"vehicle_type_id":"4","last_reported":1748711312,"current_range_meters":4400,"station_id":"ce4bhlh2rcd13ifvqgig","pricing_plan_id":"cebpf4jnsgd1na2vs0mg"},{"bike_id":"4ea9999a-521a-421b-8382-43785c8666dd","system_id":"levelo_inurba_marseille","lat":43.265722,"lon":5.403222,"is_reserved":false,"is_disabled":false,"rental_uris":{"android":"levelo://app?vid=4ea9999a-521a-421b-8382-43785c8666dd","ios":"levelo://app?vid=4ea9999a-521a-421b-8382-43785c8666dd"},"vehicle_type_id":"4","last_reported":1748711312,"current_range_meters":4400,"station_id":"","pricing_plan_id":"cebpf4jnsgd1na2vs0mg"},{"bike_id":"0575c3d5-2886-4273-92ac-26d112f41bc7","system_id":"levelo_inurba_marseille","lat":43.27296,"lon":5.39087,"is_reserved":false,"is_disabled":false,"rental_uris":{"android":"levelo://app?vid=0575c3d5-2886-4273-92ac-26d112f41bc7","ios":"levelo://app?vid=0575c3d5-2886-4273-92ac-26d112f41bc7"},"vehicle_type_id":"4","last_reported":1748711312,"current_range_meters":4400,"station_id":"ce4bhgp2rcd13ifvqfe0","pricing_plan_id":"cebpf4jnsgd1na2vs0mg"},{"bike_id":"5efe7e7d-4d56-4539-b118-ff4861a00803","system_id":"levelo_inurba_marseille","lat":43.23184,"lon":5.39977,"is_reserved":false,"is_disabled":false,"rental_uris":{"android":"levelo://app?vid=5efe7e7d-4d56-4539-b118-ff4861a00803","ios":"levelo://app?vid=5efe7e7d-4d56-4539-b118-ff4861a00803"},"vehicle_type_id":"4","last_reported":1748711312,"current_range_meters":4000,"station_id":"ce4bhn12rcd13ifvqgqg","pricing_plan_id":"cebpf4jnsgd1na2vs0mg"},{"bike_id":"1cc2e7bc-7b01-4b5e-9eb0-19fd4e567b62","system_id":"levelo_inurba_marseille","lat":43.27941,"lon":5.41052,"is_reserved":false,"is_disabled":false,"rental_uris":{"android":"levelo://app?vid=1cc2e7bc-7b01-4b5e-9eb0-19fd4e567b62","ios":"levelo://app?vid=1cc2e7bc-7b01-4b5e-9eb0-19fd4e567b62"},"vehicle_type_id":"4","last_reported":1748711312,"current_range_meters":4400,"station_id":"ce4bhnp2rcd13ifvqh0g","pricing_plan_id":"cebpf4jnsgd1na2vs0mg"},{"bike_id":"a9a108c0-610c-401e-8000-941f9d542bc8","system_id":"levelo_inurba_marseille","lat":43.24802,"lon":5.37454,"is_reserved":false,"is_disabled":false,"rental_uris":{"android":"levelo://app?vid=a9a108c0-610c-401e-8000-941f9d542bc8","ios":"levelo://app?vid=a9a108c0-610c-401e-8000-941f9d542bc8"},"vehicle_type_id":"4","last_reported":1748711312,"current_range_meters":4800,"station_id":"ce4bhgh2rcd13ifvqfb0","pricing_plan_id":"cebpf4jnsgd1na2vs0mg"},{"bike_id":"7d9598e9-e4f1-4b54-949c-47574457f8da","system_id":"levelo_inurba_marseille","lat":43.29519,"lon":5.3904,"is_reserved":false,"is_disabled":false,"rental_uris":{"android":"levelo://app?vid=7d9598e9-e4f1-4b54-949c-47574457f8da","ios":"levelo://app?vid=7d9598e9-e4f1-4b54-949c-47574457f8da"},"vehicle_type_id":"4","last_reported":1748711312,"current_range_meters":4800,"station_id":"ce4bh3p2rcd13ifvqdp0","pricing_plan_id":"cebpf4jnsgd1na2vs0mg"},{"bike_id":"42cefab2-a3c2-45d7-a6f3-2128acf74a6c","system_id":"levelo_inurba_marseille","lat":43.24164,"lon":5.36398,"is_reserved":false,"is_disabled":false,"rental_uris":{"android":"levelo://app?vid=42cefab2-a3c2-45d7-a6f3-2128acf74a6c","ios":"levelo://app?vid=42cefab2-a3c2-45d7-a6f3-2128acf74a6c"},"vehicle_type_id":"4","last_reported":1748711312,"current_range_meters":4800,"station_id":"cpo36qri1sfpv3e86is0","pricing_plan_id":"cebpf4jnsgd1na2vs0mg"},{"bike_id":"f80006c7-2f10-4ba5-bb7c-2b0507fde45f","system_id":"levelo_inurba_marseille","lat":43.23062,"lon":5.35497,"is_reserved":false,"is_disabled":false,"rental_uris":{"android":"levelo://app?vid=f80006c7-2f10-4ba5-bb7c-2b0507fde45f","ios":"levelo://app?vid=f80006c7-2f10-4ba5-bb7c-2b0507fde45f"},"vehicle_type_id":"4","last_reported":1748711312,"current_range_meters":4800,"station_id":"cpo3342slgdg3j2ifvpg","pricing_plan_id":"cebpf4jnsgd1na2vs0mg"},{"bike_id":"16d024c9-4fb9-4965-9dfb-18496d297ca6","system_id":"levelo_inurba_marseille","lat":43.29558,"lon":5.42294,"is_reserved":false,"is_disabled":false,"rental_uris":{"android":"levelo://app?vid=16d024c9-4fb9-4965-9dfb-18496d297ca6","ios":"levelo://app?vid=16d024c9-4fb9-4965-9dfb-18496d297ca6"},"vehicle_type_id":"4","last_reported":1748711312,"current_range_meters":4400,"station_id":"ce4bhph2rcd13ifvqhdg","pricing_plan_id":"cebpf4jnsgd1na2vs0mg"},{"bike_id":"115221ca-5ff6-48b1-9ef0-b58947ce3786","system_id":"levelo_inurba_marseille","lat":43.28706,"lon":5.39974,"is_reserved":false,"is_disabled":false,"rental_uris":{"android":"levelo://app?vid=115221ca-5ff6-48b1-9ef0-b58947ce3786","ios":"levelo://app?vid=115221ca-5ff6-48b1-9ef0-b58947ce3786"},"vehicle_type_id":"4","last_reported":1748711312,"current_range_meters":5600,"station_id":"ce4bho92rcd13ifvqh3g","pricing_plan_id":"cebpf4jnsgd1na2vs0mg"},{"bike_id":"9e4910e8-206d-4b8b-88f1-9274cdc45047","system_id":"levelo_inurba_marseille","lat":43.26205,"lon":5.374417,"is_reserved":false,"is_disabled":false,"rental_uris":{"android":"levelo://app?vid=9e4910e8-206d-4b8b-88f1-9274cdc45047","ios":"levelo://app?vid=9e4910e8-206d-4b8b-88f1-9274cdc45047"},"vehicle_type_id":"4","last_reported":1748711312,"current_range_meters":5600,"station_id":"ce4bhgp2rcd13ifvqfc0","pricing_plan_id":"cebpf4jnsgd1na2vs0mg"},{"bike_id":"6ac9824e-038d-4ecb-a77d-ffc9ec69f6ad","system_id":"levelo_inurba_marseille","lat":43.2707,"lon":5.42278,"is_reserved":false,"is_disabled":false,"rental_uris":{"android":"levelo://app?vid=6ac9824e-038d-4ecb-a77d-ffc9ec69f6ad","ios":"levelo://app?vid=6ac9824e-038d-4ecb-a77d-ffc9ec69f6ad"},"vehicle_type_id":"4","last_reported":1748711312,"current_range_meters":4800,"station_id":"ce4bhk92rcd13ifvqgb0","pricing_plan_id":"cebpf4jnsgd1na2vs0mg"},{"bike_id":"a1939047-5dcd-4893-b508-badd787d589e","system_id":"levelo_inurba_marseille","lat":43.27675,"lon":5.38867,"is_reserved":false,"is_disabled":false,"rental_uris":{"android":"levelo://app?vid=a1939047-5dcd-4893-b508-badd787d589e","ios":"levelo://app?vid=a1939047-5dcd-4893-b508-badd787d589e"},"vehicle_type_id":"4","last_reported":1748711312,"current_range_meters":5600,"station_id":"ce4bhi12rcd13ifvqfo0","pricing_plan_id":"cebpf4jnsgd1na2vs0mg"},{"bike_id":"e32b50ea-c776-413b-bbfa-af9e24532cb3","system_id":"levelo_inurba_marseille","lat":43.30938,"lon":5.40142,"is_reserved":false,"is_disabled":false,"rental_uris":{"android":"levelo://app?vid=e32b50ea-c776-413b-bbfa-af9e24532cb3","ios":"levelo://app?vid=e32b50ea-c776-413b-bbfa-af9e24532cb3"},"vehicle_type_id":"4","last_reported":1748711312,"current_range_meters":6000,"station_id":"ce4bgvp2rcd13ifvqct0","pricing_plan_id":"cebpf4jnsgd1na2vs0mg"},{"bike_id":"91e9cafc-7795-4d39-a978-58c07a7dfc9e","system_id":"levelo_inurba_marseille","lat":43.27335,"lon":5.39091,"is_reserved":false,"is_disabled":false,"rental_uris":{"android":"levelo://app?vid=91e9cafc-7795-4d39-a978-58c07a7dfc9e","ios":"levelo://app?vid=91e9cafc-7795-4d39-a978-58c07a7dfc9e"},"vehicle_type_id":"4","last_reported":1748711312,"current_range_meters":6000,"station_id":"ce4bhgp2rcd13ifvqfe0","pricing_plan_id":"cebpf4jnsgd1na2vs0mg"},{"bike_id":"82ce820a-c4c6-4ac7-9b7f-30fa70c9c3f3","system_id":"levelo_inurba_marseille","lat":43.27817,"lon":5.40717,"is_reserved":false,"is_disabled":false,"rental_uris":{"android":"levelo://app?vid=82ce820a-c4c6-4ac7-9b7f-30fa70c9c3f3","ios":"levelo://app?vid=82ce820a-c4c6-4ac7-9b7f-30fa70c9c3f3"},"vehicle_type_id":"4","last_reported":1748711312,"current_range_meters":6000,"station_id":"ce4bhnh2rcd13ifvqgtg","pricing_plan_id":"cebpf4jnsgd1na2vs0mg"},{"bike_id":"77687822-7476-48a1-9d4d-46e13cce6c3b","system_id":"levelo_inurba_marseille","lat":43.30934,"lon":5.40142,"is_reserved":false,"is_disabled":false,"rental_uris":{"android":"levelo://app?vid=77687822-7476-48a1-9d4d-46e13cce6c3b","ios":"levelo://app?vid=77687822-7476-48a1-9d4d-46e13cce6c3b"},"vehicle_type_id":"4","last_reported":1748711312,"current_range_meters":6000,"station_id":"ce4bgvp2rcd13ifvqct0","pricing_plan_id":"cebpf4jnsgd1na2vs0mg"},{"bike_id":"37d629e1-df02-4145-8d82-7a373cb078ea","system_id":"levelo_inurba_marseille","lat":43.31182,"lon":5.38718,"is_reserved":false,"is_disabled":false,"rental_uris":{"android":"levelo://app?vid=37d629e1-df02-4145-8d82-7a373cb078ea","ios":"levelo://app?vid=37d629e1-df02-4145-8d82-7a373cb078ea"},"vehicle_type_id":"4","last_reported":1748711312,"current_range_meters":6000,"station_id":"ce4bgv12rcd13ifvqcp0","pricing_plan_id":"cebpf4jnsgd1na2vs0mg"},{"bike_id":"f10e3f84-f51b-46a6-925f-195abaaaa10d","system_id":"levelo_inurba_marseille","lat":43.27319,"lon":5.39071,"is_reserved":false,"is_disabled":false,"rental_uris":{"android":"levelo://app?vid=f10e3f84-f51b-46a6-925f-195abaaaa10d","ios":"levelo://app?vid=f10e3f84-f51b-46a6-925f-195abaaaa10d"},"vehicle_type_id":"4","last_reported":1748711312,"current_range_meters":6400,"station_id":"ce4bhgp2rcd13ifvqfe0","pricing_plan_id":"cebpf4jnsgd1na2vs0mg"},{"bike_id":"96b1ec3f-2b3b-4c69-9ca6-0c148ac7a613","system_id":"levelo_inurba_marseille","lat":43.27307,"lon":5.39084,"is_reserved":false,"is_disabled":false,"rental_uris":{"android":"levelo://app?vid=96b1ec3f-2b3b-4c69-9ca6-0c148ac7a613","ios":"levelo://app?vid=96b1ec3f-2b3b-4c69-9ca6-0c148ac7a613"},"vehicle_type_id":"4","last_reported":1748711312,"current_range_meters":6400,"station_id":"ce4bhgp2rcd13ifvqfe0","pricing_plan_id":"cebpf4jnsgd1na2vs0mg"},{"bike_id":"7ccd35cb-fac9-4522-b96c-3021ac3dbc44","system_id":"levelo_inurba_marseille","lat":43.29584,"lon":5.38112,"is_reserved":false,"is_disabled":false,"rental_uris":{"android":"levelo://app?vid=7ccd35cb-fac9-4522-b96c-3021ac3dbc44","ios":"levelo://app?vid=7ccd35cb-fac9-4522-b96c-3021ac3dbc44"},"vehicle_type_id":"4","last_reported":1748711312,"current_range_meters":6400,"station_id":"ce4bgl12rcd13ifvqbo0","pricing_plan_id":"cebpf4jnsgd1na2vs0mg"},{"bike_id":"b4db3c2d-1832-4001-873a-ad2ae94e2057","system_id":"levelo_inurba_marseille","lat":43.30605,"lon":5.39364,"is_reserved":false,"is_disabled":false,"rental_uris":{"android":"levelo://app?vid=b4db3c2d-1832-4001-873a-ad2ae94e2057","ios":"levelo://app?vid=b4db3c2d-1832-4001-873a-ad2ae94e2057"},"vehicle_type_id":"4","last_reported":1748711312,"current_range_meters":6400,"station_id":"ce4bh0p2rcd13ifvqd80","pricing_plan_id":"cebpf4jnsgd1na2vs0mg"},{"bike_id":"7243d7c8-02f5-4392-89cf-8c360e846d55","system_id":"levelo_inurba_marseille","lat":43.2526,"lon":5.37843,"is_reserved":false,"is_disabled":false,"rental_uris":{"android":"levelo://app?vid=7243d7c8-02f5-4392-89cf-8c360e846d55","ios":"levelo://app?vid=7243d7c8-02f5-4392-89cf-8c360e846d55"},"vehicle_type_id":"4","last_reported":1748711312,"current_range_meters":6800,"station_id":"","pricing_plan_id":"cebpf4jnsgd1na2vs0mg"},{"bike_id":"c6d2bc40-4851-42b7-9e63-92965711134d","system_id":"levelo_inurba_marseille","lat":43.29439,"lon":5.39759,"is_reserved":false,"is_disabled":false,"rental_uris":{"android":"levelo://app?vid=c6d2bc40-4851-42b7-9e63-92965711134d","ios":"levelo://app?vid=c6d2bc40-4851-42b7-9e63-92965711134d"},"vehicle_type_id":"4","last_reported":1748711312,"current_range_meters":6800,"station_id":"ce4bh3h2rcd13ifvqdo0","pricing_plan_id":"cebpf4jnsgd1na2vs0mg"},{"bike_id":"a882f5db-172f-4f11-bf66-7e2c36364bb7","system_id":"levelo_inurba_marseille","lat":43.29543,"lon":5.42285,"is_reserved":false,"is_disabled":false,"rental_uris":{"android":"levelo://app?vid=a882f5db-172f-4f11-bf66-7e2c36364bb7","ios":"levelo://app?vid=a882f5db-172f-4f11-bf66-7e2c36364bb7"},"vehicle_type_id":"4","last_reported":1748711312,"current_range_meters":6800,"station_id":"ce4bhph2rcd13ifvqhdg","pricing_plan_id":"cebpf4jnsgd1na2vs0mg"},{"bike_id":"20e99517-b0f3-4ff7-9b0a-2231f352982f","system_id":"levelo_inurba_marseille","lat":43.24654,"lon":5.38893,"is_reserved":false,"is_disabled":false,"rental_uris":{"android":"levelo://app?vid=20e99517-b0f3-4ff7-9b0a-2231f352982f","ios":"levelo://app?vid=20e99517-b0f3-4ff7-9b0a-2231f352982f"},"vehicle_type_id":"4","last_reported":1748711312,"current_range_meters":6800,"station_id":"ce4bhg12rcd13ifvqf60","pricing_plan_id":"cebpf4jnsgd1na2vs0mg"},{"bike_id":"4805c951-6484-4059-a668-9e3bc978342f","system_id":"levelo_inurba_marseille","lat":43.26802,"lon":5.40261,"is_reserved":false,"is_disabled":false,"rental_uris":{"android":"levelo://app?vid=4805c951-6484-4059-a668-9e3bc978342f","ios":"levelo://app?vid=4805c951-6484-4059-a668-9e3bc978342f"},"vehicle_type_id":"4","last_reported":1748711312,"current_range_meters":6800,"station_id":"ce501612rcd8frsf0b60","pricing_plan_id":"cebpf4jnsgd1na2vs0mg"},{"bike_id":"4d0c6496-3437-4303-a6d4-99c44150f234","system_id":"levelo_inurba_marseille","lat":43.23063,"lon":5.354943,"is_reserved":false,"is_disabled":false,"rental_uris":{"android":"levelo://app?vid=4d0c6496-3437-4303-a6d4-99c44150f234","ios":"levelo://app?vid=4d0c6496-3437-4303-a6d4-99c44150f234"},"vehicle_type_id":"4","last_reported":1748711312,"current_range_meters":6800,"station_id":"cpo3342slgdg3j2ifvpg","pricing_plan_id":"cebpf4jnsgd1na2vs0mg"},{"bike_id":"14d7fbf8-cee9-45a8-972a-a9e603c7a3cc","system_id":"levelo_inurba_marseille","lat":43.29293,"lon":5.37463,"is_reserved":false,"is_disabled":false,"rental_uris":{"android":"levelo://app?vid=14d7fbf8-cee9-45a8-972a-a9e603c7a3cc","ios":"levelo://app?vid=14d7fbf8-cee9-45a8-972a-a9e603c7a3cc"},"vehicle_type_id":"4","last_reported":1748711312,"current_range_meters":6800,"station_id":"ce4bgi12rcd13ifvqb70","pricing_plan_id":"cebpf4jnsgd1na2vs0mg"},{"bike_id":"44e08eca-cf1d-4d37-93cb-f1d96dd0f13b","system_id":"levelo_inurba_marseille","lat":43.26558,"lon":5.40328,"is_reserved":false,"is_disabled":false,"rental_uris":{"android":"levelo://app?vid=44e08eca-cf1d-4d37-93cb-f1d96dd0f13b","ios":"levelo://app?vid=44e08eca-cf1d-4d37-93cb-f1d96dd0f13b"},"vehicle_type_id":"4","last_reported":1748711312,"current_range_meters":6800,"station_id":"","pricing_plan_id":"cebpf4jnsgd1na2vs0mg"},{"bike_id":"3feffd94-b1f8-4904-a4cf-e5629abe4092","system_id":"levelo_inurba_marseille","lat":43.25919,"lon":5.40852,"is_reserved":false,"is_disabled":false,"rental_uris":{"android":"levelo://app?vid=3feffd94-b1f8-4904-a4cf-e5629abe4092","ios":"levelo://app?vid=3feffd94-b1f8-4904-a4cf-e5629abe4092"},"vehicle_type_id":"4","last_reported":1748711312,"current_range_meters":6800,"station_id":"ce4bhm92rcd13ifvqglg","pricing_plan_id":"cebpf4jnsgd1na2vs0mg"},{"bike_id":"17244023-e7ce-47db-98e8-21120bde4f61","system_id":"levelo_inurba_marseille","lat":43.23078,"lon":5.35485,"is_reserved":false,"is_disabled":false,"rental_uris":{"android":"levelo://app?vid=17244023-e7ce-47db-98e8-21120bde4f61","ios":"levelo://app?vid=17244023-e7ce-47db-98e8-21120bde4f61"},"vehicle_type_id":"4","last_reported":1748711312,"current_range_meters":6800,"station_id":"cpo3342slgdg3j2ifvpg","pricing_plan_id":"cebpf4jnsgd1na2vs0mg"},{"bike_id":"34b16aa5-752a-47a2-9859-8740d44b9aca","system_id":"levelo_inurba_marseille","lat":43.29624,"lon":5.40599,"is_reserved":false,"is_disabled":false,"rental_uris":{"android":"levelo://app?vid=34b16aa5-752a-47a2-9859-8740d44b9aca","ios":"levelo://app?vid=34b16aa5-752a-47a2-9859-8740d44b9aca"},"vehicle_type_id":"4","last_reported":1748711312,"current_range_meters":6800,"station_id":"ce4bh0h2rcd13ifvqd60","pricing_plan_id":"cebpf4jnsgd1na2vs0mg"},{"bike_id":"f114cddd-b530-4e18-bffd-fbee3bac4dac","system_id":"levelo_inurba_marseille","lat":43.323,"lon":5.38289,"is_reserved":false,"is_disabled":false,"rental_uris":{"android":"levelo://app?vid=f114cddd-b530-4e18-bffd-fbee3bac4dac","ios":"levelo://app?vid=f114cddd-b530-4e18-bffd-fbee3bac4dac"},"vehicle_type_id":"4","last_reported":1748711312,"current_range_meters":7200,"station_id":"ce4bhr12rcd13ifvqhqg","pricing_plan_id":"cebpf4jnsgd1na2vs0mg"},{"bike_id":"17aeec3d-b62c-45c9-aaa1-835baf02fca8","system_id":"levelo_inurba_marseille","lat":43.27996,"lon":5.40005,"is_reserved":false,"is_disabled":false,"rental_uris":{"android":"levelo://app?vid=17aeec3d-b62c-45c9-aaa1-835baf02fca8","ios":"levelo://app?vid=17aeec3d-b62c-45c9-aaa1-835baf02fca8"},"vehicle_type_id":"4","last_reported":1748711312,"current_range_meters":7200,"station_id":"ce4bho92rcd13ifvqh4g","pricing_plan_id":"cebpf4jnsgd1na2vs0mg"},{"bike_id":"ce325ea1-be5e-4c1b-a841-6ae8715dfbf4","system_id":"levelo_inurba_marseille","lat":43.30551,"lon":5.36531,"is_reserved":false,"is_disabled":true,"rental_uris":{"android":"levelo://app?vid=ce325ea1-be5e-4c1b-a841-6ae8715dfbf4","ios":"levelo://app?vid=ce325ea1-be5e-4c1b-a841-6ae8715dfbf4"},"vehicle_type_id":"4","last_reported":1748711312,"current_range_meters":7200,"station_id":"ce4bgs12rcd13ifvqcag","pricing_plan_id":"cebpf4jnsgd1na2vs0mg"},{"bike_id":"23283288-0f71-422a-a9ce-61766a618fed","system_id":"levelo_inurba_marseille","lat":43.24806,"lon":5.37456,"is_reserved":false,"is_disabled":false,"rental_uris":{"android":"levelo://app?vid=23283288-0f71-422a-a9ce-61766a618fed","ios":"levelo://app?vid=23283288-0f71-422a-a9ce-61766a618fed"},"vehicle_type_id":"4","last_reported":1748711312,"current_range_meters":7200,"station_id":"ce4bhgh2rcd13ifvqfb0","pricing_plan_id":"cebpf4jnsgd1na2vs0mg"},{"bike_id":"0e9145d9-7b12-4416-8939-239587514c32","system_id":"levelo_inurba_marseille","lat":43.24805,"lon":5.37456,"is_reserved":false,"is_disabled":false,"rental_uris":{"android":"levelo://app?vid=0e9145d9-7b12-4416-8939-239587514c32","ios":"levelo://app?vid=0e9145d9-7b12-4416-8939-239587514c32"},"vehicle_type_id":"4","last_reported":1748711312,"current_range_meters":7200,"station_id":"ce4bhgh2rcd13ifvqfb0","pricing_plan_id":"cebpf4jnsgd1na2vs0mg"},{"bike_id":"c37dd8cb-03b4-44c5-b670-7eb088213741","system_id":"levelo_inurba_marseille","lat":43.28209,"lon":5.39066,"is_reserved":false,"is_disabled":false,"rental_uris":{"android":"levelo://app?vid=c37dd8cb-03b4-44c5-b670-7eb088213741","ios":"levelo://app?vid=c37dd8cb-03b4-44c5-b670-7eb088213741"},"vehicle_type_id":"4","last_reported":1748711312,"current_range_meters":7200,"station_id":"","pricing_plan_id":"cebpf4jnsgd1na2vs0mg"},{"bike_id":"7744b0bc-9255-402e-8dd0-6b3090927fb9","system_id":"levelo_inurba_marseille","lat":43.26952,"lon":5.40274,"is_reserved":false,"is_disabled":true,"rental_uris":{"android":"levelo://app?vid=7744b0bc-9255-402e-8dd0-6b3090927fb9","ios":"levelo://app?vid=7744b0bc-9255-402e-8dd0-6b3090927fb9"},"vehicle_type_id":"4","last_reported":1748711312,"current_range_meters":8000,"station_id":"cjm6bp8fraef2m0cb0m0","pricing_plan_id":"cebpf4jnsgd1na2vs0mg"},{"bike_id":"f6c18757-42cd-40e6-82c2-99bf51f27297","system_id":"levelo_inurba_marseille","lat":43.21757,"lon":5.34609,"is_reserved":false,"is_disabled":true,"rental_uris":{"android":"levelo://app?vid=f6c18757-42cd-40e6-82c2-99bf51f27297","ios":"levelo://app?vid=f6c18757-42cd-40e6-82c2-99bf51f27297"},"vehicle_type_id":"4","last_reported":1748711312,"current_range_meters":8000,"station_id":"st_cvj6r9ubvosntc0bgbag","pricing_plan_id":"cebpf4jnsgd1na2vs0mg"},{"bike_id":"d21c17ab-5fc4-403a-83fc-81f00c1907c8","system_id":"levelo_inurba_marseille","lat":43.26056,"lon":5.39401,"is_reserved":false,"is_disabled":false,"rental_uris":{"android":"levelo://app?vid=d21c17ab-5fc4-403a-83fc-81f00c1907c8","ios":"levelo://app?vid=d21c17ab-5fc4-403a-83fc-81f00c1907c8"},"vehicle_type_id":"4","last_reported":1748711312,"current_range_meters":8000,"station_id":"ce4bhh92rcd13ifvqfj0","pricing_plan_id":"cebpf4jnsgd1na2vs0mg"},{"bike_id":"a14d8e40-c994-4f1c-b643-8a3b58a2eb79","system_id":"levelo_inurba_marseille","lat":43.29199,"lon":5.37227,"is_reserved":false,"is_disabled":false,"rental_uris":{"android":"levelo://app?vid=a14d8e40-c994-4f1c-b643-8a3b58a2eb79","ios":"levelo://app?vid=a14d8e40-c994-4f1c-b643-8a3b58a2eb79"},"vehicle_type_id":"4","last_reported":1748711312,"current_range_meters":8000,"station_id":"","pricing_plan_id":"cebpf4jnsgd1na2vs0mg"},{"bike_id":"0dd3a9ed-f947-477d-a02d-da09ca7c0b03","system_id":"levelo_inurba_marseille","lat":43.30294,"lon":5.36873,"is_reserved":false,"is_disabled":false,"rental_uris":{"android":"levelo://app?vid=0dd3a9ed-f947-477d-a02d-da09ca7c0b03","ios":"levelo://app?vid=0dd3a9ed-f947-477d-a02d-da09ca7c0b03"},"vehicle_type_id":"4","last_reported":1748711312,"current_range_meters":8000,"station_id":"ce4bgqh2rcd13ifvqc5g","pricing_plan_id":"cebpf4jnsgd1na2vs0mg"},{"bike_id":"14c0bbd1-3b69-46ff-b528-e51dd25620d4","system_id":"levelo_inurba_marseille","lat":43.29795,"lon":5.3808,"is_reserved":false,"is_disabled":false,"rental_uris":{"android":"levelo://app?vid=14c0bbd1-3b69-46ff-b528-e51dd25620d4","ios":"levelo://app?vid=14c0bbd1-3b69-46ff-b528-e51dd25620d4"},"vehicle_type_id":"4","last_reported":1748711312,"current_range_meters":8000,"station_id":"ce4bgip2rcd13ifvqbb0","pricing_plan_id":"cebpf4jnsgd1na2vs0mg"},{"bike_id":"00263f4d-88dc-4c56-a93b-8d582d46bcce","system_id":"levelo_inurba_marseille","lat":43.3117,"lon":5.38712,"is_reserved":false,"is_disabled":false,"rental_uris":{"android":"levelo://app?vid=00263f4d-88dc-4c56-a93b-8d582d46bcce","ios":"levelo://app?vid=00263f4d-88dc-4c56-a93b-8d582d46bcce"},"vehicle_type_id":"4","last_reported":1748711312,"current_range_meters":8000,"station_id":"ce4bgv12rcd13ifvqcp0","pricing_plan_id":"cebpf4jnsgd1na2vs0mg"},{"bike_id":"611ecb41-369a-4d13-8259-8e9e6a3da4b4","system_id":"levelo_inurba_marseille","lat":43.26793,"lon":5.40242,"is_reserved":false,"is_disabled":false,"rental_uris":{"android":"levelo://app?vid=611ecb41-369a-4d13-8259-8e9e6a3da4b4","ios":"levelo://app?vid=611ecb41-369a-4d13-8259-8e9e6a3da4b4"},"vehicle_type_id":"4","last_reported":1748711312,"current_range_meters":8400,"station_id":"ce501612rcd8frsf0b60","pricing_plan_id":"cebpf4jnsgd1na2vs0mg"},{"bike_id":"728e3592-b049-49e3-a0e7-7178be64c423","system_id":"levelo_inurba_marseille","lat":43.24068,"lon":5.37772,"is_reserved":false,"is_disabled":false,"rental_uris":{"android":"levelo://app?vid=728e3592-b049-49e3-a0e7-7178be64c423","ios":"levelo://app?vid=728e3592-b049-49e3-a0e7-7178be64c423"},"vehicle_type_id":"4","last_reported":1748711312,"current_range_meters":8400,"station_id":"ce4bhnp2rcd13ifvqgvg","pricing_plan_id":"cebpf4jnsgd1na2vs0mg"},{"bike_id":"d16f5222-3d1e-4d65-a992-1bc93f719178","system_id":"levelo_inurba_marseille","lat":43.303306,"lon":5.365901,"is_reserved":false,"is_disabled":false,"rental_uris":{"android":"levelo://app?vid=d16f5222-3d1e-4d65-a992-1bc93f719178","ios":"levelo://app?vid=d16f5222-3d1e-4d65-a992-1bc93f719178"},"vehicle_type_id":"4","last_reported":1748711312,"current_range_meters":8400,"station_id":"","pricing_plan_id":"cebpf4jnsgd1na2vs0mg"},{"bike_id":"662af0d9-b4f1-4513-bbd2-fd65be6229e5","system_id":"levelo_inurba_marseille","lat":43.25926,"lon":5.40892,"is_reserved":false,"is_disabled":false,"rental_uris":{"android":"levelo://app?vid=662af0d9-b4f1-4513-bbd2-fd65be6229e5","ios":"levelo://app?vid=662af0d9-b4f1-4513-bbd2-fd65be6229e5"},"vehicle_type_id":"4","last_reported":1748711312,"current_range_meters":8400,"station_id":"ce4bhm92rcd13ifvqglg","pricing_plan_id":"cebpf4jnsgd1na2vs0mg"},{"bike_id":"4b96ba10-8f08-4622-afc6-cdc27ca1fc90","system_id":"levelo_inurba_marseille","lat":43.25826,"lon":5.39443,"is_reserved":false,"is_disabled":false,"rental_uris":{"android":"levelo://app?vid=4b96ba10-8f08-4622-afc6-cdc27ca1fc90","ios":"levelo://app?vid=4b96ba10-8f08-4622-afc6-cdc27ca1fc90"},"vehicle_type_id":"4","last_reported":1748711312,"current_range_meters":8800,"station_id":"ce4bhip2rcd13ifvqft0","pricing_plan_id":"cebpf4jnsgd1na2vs0mg"},{"bike_id":"3d79c73e-9c9f-4128-b48f-6a4384cc93aa","system_id":"levelo_inurba_marseille","lat":43.31706,"lon":5.43713,"is_reserved":false,"is_disabled":false,"rental_uris":{"android":"levelo://app?vid=3d79c73e-9c9f-4128-b48f-6a4384cc93aa","ios":"levelo://app?vid=3d79c73e-9c9f-4128-b48f-6a4384cc93aa"},"vehicle_type_id":"4","last_reported":1748711312,"current_range_meters":8000,"station_id":"ce4bhp92rcd13ifvqhcg","pricing_plan_id":"cebpf4jnsgd1na2vs0mg"},{"bike_id":"5fd59298-192d-40db-858b-df19a4c48c53","system_id":"levelo_inurba_marseille","lat":43.27832,"lon":5.40756,"is_reserved":false,"is_disabled":false,"rental_uris":{"android":"levelo://app?vid=5fd59298-192d-40db-858b-df19a4c48c53","ios":"levelo://app?vid=5fd59298-192d-40db-858b-df19a4c48c53"},"vehicle_type_id":"4","last_reported":1748711312,"current_range_meters":8800,"station_id":"ce4bhnh2rcd13ifvqgtg","pricing_plan_id":"cebpf4jnsgd1na2vs0mg"},{"bike_id":"3f744075-c5a0-4d43-996f-6e2a77161b69","system_id":"levelo_inurba_marseille","lat":43.29198,"lon":5.39329,"is_reserved":false,"is_disabled":false,"rental_uris":{"android":"levelo://app?vid=3f744075-c5a0-4d43-996f-6e2a77161b69","ios":"levelo://app?vid=3f744075-c5a0-4d43-996f-6e2a77161b69"},"vehicle_type_id":"4","last_reported":1748711312,"current_range_meters":8400,"station_id":"ce4bh192rcd13ifvqdd0","pricing_plan_id":"cebpf4jnsgd1na2vs0mg"},{"bike_id":"d02ba7d2-914d-425a-8b2a-f1259e1c2fbf","system_id":"levelo_inurba_marseille","lat":43.262291,"lon":5.404464,"is_reserved":false,"is_disabled":false,"rental_uris":{"android":"levelo://app?vid=d02ba7d2-914d-425a-8b2a-f1259e1c2fbf","ios":"levelo://app?vid=d02ba7d2-914d-425a-8b2a-f1259e1c2fbf"},"vehicle_type_id":"4","last_reported":1748711312,"current_range_meters":8400,"station_id":"ce4bhmh2rcd13ifvqgmg","pricing_plan_id":"cebpf4jnsgd1na2vs0mg"},{"bike_id":"0a2b91ea-6331-415b-86a7-8da1ba311ed2","system_id":"levelo_inurba_marseille","lat":43.27813,"lon":5.40712,"is_reserved":false,"is_disabled":false,"rental_uris":{"android":"levelo://app?vid=0a2b91ea-6331-415b-86a7-8da1ba311ed2","ios":"levelo://app?vid=0a2b91ea-6331-415b-86a7-8da1ba311ed2"},"vehicle_type_id":"4","last_reported":1748711312,"current_range_meters":8800,"station_id":"ce4bhnh2rcd13ifvqgtg","pricing_plan_id":"cebpf4jnsgd1na2vs0mg"},{"bike_id":"a672e2ce-ff65-491a-baf8-b5fcce4f4059","system_id":"levelo_inurba_marseille","lat":43.31736,"lon":5.39004,"is_reserved":false,"is_disabled":false,"rental_uris":{"android":"levelo://app?vid=a672e2ce-ff65-491a-baf8-b5fcce4f4059","ios":"levelo://app?vid=a672e2ce-ff65-491a-baf8-b5fcce4f4059"},"vehicle_type_id":"4","last_reported":1748711312,"current_range_meters":8800,"station_id":"ce4bhqp2rcd13ifvqhng","pricing_plan_id":"cebpf4jnsgd1na2vs0mg"},{"bike_id":"dde94b93-64df-4945-b814-dd8b1850c555","system_id":"levelo_inurba_marseille","lat":43.27672,"lon":5.38886,"is_reserved":false,"is_disabled":false,"rental_uris":{"android":"levelo://app?vid=dde94b93-64df-4945-b814-dd8b1850c555","ios":"levelo://app?vid=dde94b93-64df-4945-b814-dd8b1850c555"},"vehicle_type_id":"4","last_reported":1748711312,"current_range_meters":8800,"station_id":"ce4bhi12rcd13ifvqfo0","pricing_plan_id":"cebpf4jnsgd1na2vs0mg"},{"bike_id":"e9c14223-2c84-48b4-b409-6b93b2aed2b7","system_id":"levelo_inurba_marseille","lat":43.27807,"lon":5.40717,"is_reserved":false,"is_disabled":false,"rental_uris":{"android":"levelo://app?vid=e9c14223-2c84-48b4-b409-6b93b2aed2b7","ios":"levelo://app?vid=e9c14223-2c84-48b4-b409-6b93b2aed2b7"},"vehicle_type_id":"4","last_reported":1748711312,"current_range_meters":8800,"station_id":"ce4bhnh2rcd13ifvqgtg","pricing_plan_id":"cebpf4jnsgd1na2vs0mg"},{"bike_id":"63c9de02-e7e2-4389-913f-d4fb455361cd","system_id":"levelo_inurba_marseille","lat":43.27317,"lon":5.39085,"is_reserved":false,"is_disabled":false,"rental_uris":{"android":"levelo://app?vid=63c9de02-e7e2-4389-913f-d4fb455361cd","ios":"levelo://app?vid=63c9de02-e7e2-4389-913f-d4fb455361cd"},"vehicle_type_id":"4","last_reported":1748711312,"current_range_meters":8800,"station_id":"ce4bhgp2rcd13ifvqfe0","pricing_plan_id":"cebpf4jnsgd1na2vs0mg"},{"bike_id":"e620accc-b81e-4408-8393-787af7f7651d","system_id":"levelo_inurba_marseille","lat":43.27954,"lon":5.41049,"is_reserved":false,"is_disabled":false,"rental_uris":{"android":"levelo://app?vid=e620accc-b81e-4408-8393-787af7f7651d","ios":"levelo://app?vid=e620accc-b81e-4408-8393-787af7f7651d"},"vehicle_type_id":"4","last_reported":1748711312,"current_range_meters":8800,"station_id":"ce4bhnp2rcd13ifvqh0g","pricing_plan_id":"cebpf4jnsgd1na2vs0mg"},{"bike_id":"79639c6f-946c-4065-9a6b-c3714d281b65","system_id":"levelo_inurba_marseille","lat":43.27812,"lon":5.40713,"is_reserved":false,"is_disabled":false,"rental_uris":{"android":"levelo://app?vid=79639c6f-946c-4065-9a6b-c3714d281b65","ios":"levelo://app?vid=79639c6f-946c-4065-9a6b-c3714d281b65"},"vehicle_type_id":"4","last_reported":1748711312,"current_range_meters":8800,"station_id":"ce4bhnh2rcd13ifvqgtg","pricing_plan_id":"cebpf4jnsgd1na2vs0mg"},{"bike_id":"82710900-ff17-4fa2-9cc4-a4f18a334b75","system_id":"levelo_inurba_marseille","lat":43.2827,"lon":5.35057,"is_reserved":false,"is_disabled":false,"rental_uris":{"android":"levelo://app?vid=82710900-ff17-4fa2-9cc4-a4f18a334b75","ios":"levelo://app?vid=82710900-ff17-4fa2-9cc4-a4f18a334b75"},"vehicle_type_id":"4","last_reported":1748711312,"current_range_meters":8800,"station_id":"ce4bhbp2rcd13ifvqerg","pricing_plan_id":"cebpf4jnsgd1na2vs0mg"},{"bike_id":"e5363e3d-aa4e-405f-8506-31ca221fab37","system_id":"levelo_inurba_marseille","lat":43.28668,"lon":5.38668,"is_reserved":false,"is_disabled":false,"rental_uris":{"android":"levelo://app?vid=e5363e3d-aa4e-405f-8506-31ca221fab37","ios":"levelo://app?vid=e5363e3d-aa4e-405f-8506-31ca221fab37"},"vehicle_type_id":"4","last_reported":1748711312,"current_range_meters":9200,"station_id":"ce4bh492rcd13ifvqdug","pricing_plan_id":"cebpf4jnsgd1na2vs0mg"},{"bike_id":"9987970c-affe-4473-96d7-4d34350f3096","system_id":"levelo_inurba_marseille","lat":43.29589,"lon":5.38102,"is_reserved":false,"is_disabled":false,"rental_uris":{"android":"levelo://app?vid=9987970c-affe-4473-96d7-4d34350f3096","ios":"levelo://app?vid=9987970c-affe-4473-96d7-4d34350f3096"},"vehicle_type_id":"4","last_reported":1748711312,"current_range_meters":8800,"station_id":"ce4bgl12rcd13ifvqbo0","pricing_plan_id":"cebpf4jnsgd1na2vs0mg"},{"bike_id":"742ea022-7ec3-403b-ab76-b027020c7592","system_id":"levelo_inurba_marseille","lat":43.32278,"lon":5.38246,"is_reserved":false,"is_disabled":false,"rental_uris":{"android":"levelo://app?vid=742ea022-7ec3-403b-ab76-b027020c7592","ios":"levelo://app?vid=742ea022-7ec3-403b-ab76-b027020c7592"},"vehicle_type_id":"4","last_reported":1748711312,"current_range_meters":9200,"station_id":"ce4bhr12rcd13ifvqhqg","pricing_plan_id":"cebpf4jnsgd1na2vs0mg"},{"bike_id":"f4ce227f-ae13-465e-9bbb-33380310946f","system_id":"levelo_inurba_marseille","lat":43.32482,"lon":5.36579,"is_reserved":false,"is_disabled":false,"rental_uris":{"android":"levelo://app?vid=f4ce227f-ae13-465e-9bbb-33380310946f","ios":"levelo://app?vid=f4ce227f-ae13-465e-9bbb-33380310946f"},"vehicle_type_id":"4","last_reported":1748711312,"current_range_meters":9200,"station_id":"ce4bhs12rcd13ifvqhvg","pricing_plan_id":"cebpf4jnsgd1na2vs0mg"},{"bike_id":"c138127f-4ae3-4f0c-941e-4abf0a66ca6d","system_id":"levelo_inurba_marseille","lat":43.27211,"lon":5.391786,"is_reserved":false,"is_disabled":false,"rental_uris":{"android":"levelo://app?vid=c138127f-4ae3-4f0c-941e-4abf0a66ca6d","ios":"levelo://app?vid=c138127f-4ae3-4f0c-941e-4abf0a66ca6d"},"vehicle_type_id":"4","last_reported":1748711312,"current_range_meters":9200,"station_id":"ce4bhhp2rcd13ifvqfm0","pricing_plan_id":"cebpf4jnsgd1na2vs0mg"},{"bike_id":"3da866bd-5047-4fc0-9d49-835a79b72e7a","system_id":"levelo_inurba_marseille","lat":43.22501,"lon":5.34762,"is_reserved":false,"is_disabled":false,"rental_uris":{"android":"levelo://app?vid=3da866bd-5047-4fc0-9d49-835a79b72e7a","ios":"levelo://app?vid=3da866bd-5047-4fc0-9d49-835a79b72e7a"},"vehicle_type_id":"4","last_reported":1748711312,"current_range_meters":9200,"station_id":"","pricing_plan_id":"cebpf4jnsgd1na2vs0mg"},{"bike_id":"3797c5fe-4024-42af-8f03-8afcc5e8a62f","system_id":"levelo_inurba_marseille","lat":43.286164,"lon":5.370601,"is_reserved":false,"is_disabled":false,"rental_uris":{"android":"levelo://app?vid=3797c5fe-4024-42af-8f03-8afcc5e8a62f","ios":"levelo://app?vid=3797c5fe-4024-42af-8f03-8afcc5e8a62f"},"vehicle_type_id":"4","last_reported":1748711312,"current_range_meters":8800,"station_id":"ce4bht12rcd13ifvqi60","pricing_plan_id":"cebpf4jnsgd1na2vs0mg"},{"bike_id":"e62a208c-23d3-4f22-bdab-aa660ac5353a","system_id":"levelo_inurba_marseille","lat":43.26225,"lon":5.37925,"is_reserved":false,"is_disabled":false,"rental_uris":{"android":"levelo://app?vid=e62a208c-23d3-4f22-bdab-aa660ac5353a","ios":"levelo://app?vid=e62a208c-23d3-4f22-bdab-aa660ac5353a"},"vehicle_type_id":"4","last_reported":1748711312,"current_range_meters":9200,"station_id":"ce4bhjp2rcd13ifvqg90","pricing_plan_id":"cebpf4jnsgd1na2vs0mg"},{"bike_id":"bb468cc4-488e-4440-a49c-98e870c4afb9","system_id":"levelo_inurba_marseille","lat":43.23186,"lon":5.39982,"is_reserved":false,"is_disabled":false,"rental_uris":{"android":"levelo://app?vid=bb468cc4-488e-4440-a49c-98e870c4afb9","ios":"levelo://app?vid=bb468cc4-488e-4440-a49c-98e870c4afb9"},"vehicle_type_id":"4","last_reported":1748711312,"current_range_meters":8800,"station_id":"ce4bhn12rcd13ifvqgqg","pricing_plan_id":"cebpf4jnsgd1na2vs0mg"},{"bike_id":"1a9417d3-34a4-4a18-b3e8-e517da272a2d","system_id":"levelo_inurba_marseille","lat":43.24165,"lon":5.36398,"is_reserved":false,"is_disabled":false,"rental_uris":{"android":"levelo://app?vid=1a9417d3-34a4-4a18-b3e8-e517da272a2d","ios":"levelo://app?vid=1a9417d3-34a4-4a18-b3e8-e517da272a2d"},"vehicle_type_id":"4","last_reported":1748711312,"current_range_meters":9200,"station_id":"cpo36qri1sfpv3e86is0","pricing_plan_id":"cebpf4jnsgd1na2vs0mg"},{"bike_id":"32ef7630-1ebc-4c4f-ba66-107cbd37ed6c","system_id":"levelo_inurba_marseille","lat":43.295285,"lon":5.375093,"is_reserved":false,"is_disabled":false,"rental_uris":{"android":"levelo://app?vid=32ef7630-1ebc-4c4f-ba66-107cbd37ed6c","ios":"levelo://app?vid=32ef7630-1ebc-4c4f-ba66-107cbd37ed6c"},"vehicle_type_id":"4","last_reported":1748711312,"current_range_meters":9200,"station_id":"ce4bgkp2rcd13ifvqbmg","pricing_plan_id":"cebpf4jnsgd1na2vs0mg"},{"bike_id":"95cd80fa-c2e5-401c-95da-632e1df7bbde","system_id":"levelo_inurba_marseille","lat":43.231473,"lon":5.437154,"is_reserved":false,"is_disabled":false,"rental_uris":{"android":"levelo://app?vid=95cd80fa-c2e5-401c-95da-632e1df7bbde","ios":"levelo://app?vid=95cd80fa-c2e5-401c-95da-632e1df7bbde"},"vehicle_type_id":"4","last_reported":1748711312,"current_range_meters":9600,"station_id":"ce4bhmp2rcd13ifvqgog","pricing_plan_id":"cebpf4jnsgd1na2vs0mg"},{"bike_id":"575da5d6-6e42-4992-9b26-6b2051c7c32d","system_id":"levelo_inurba_marseille","lat":43.29011,"lon":5.38134,"is_reserved":false,"is_disabled":false,"rental_uris":{"android":"levelo://app?vid=575da5d6-6e42-4992-9b26-6b2051c7c32d","ios":"levelo://app?vid=575da5d6-6e42-4992-9b26-6b2051c7c32d"},"vehicle_type_id":"4","last_reported":1748711312,"current_range_meters":9600,"station_id":"ce4bh4p2rcd13ifvqe1g","pricing_plan_id":"cebpf4jnsgd1na2vs0mg"},{"bike_id":"dd88cafb-4e25-450e-bcd9-7d72d1a3ad71","system_id":"levelo_inurba_marseille","lat":43.292999,"lon":5.374498,"is_reserved":false,"is_disabled":false,"rental_uris":{"android":"levelo://app?vid=dd88cafb-4e25-450e-bcd9-7d72d1a3ad71","ios":"levelo://app?vid=dd88cafb-4e25-450e-bcd9-7d72d1a3ad71"},"vehicle_type_id":"4","last_reported":1748711312,"current_range_meters":9200,"station_id":"ce4bgi12rcd13ifvqb70","pricing_plan_id":"cebpf4jnsgd1na2vs0mg"},{"bike_id":"198f9263-2153-446b-b46a-69ee29f3bfa9","system_id":"levelo_inurba_marseille","lat":43.25826,"lon":5.39428,"is_reserved":false,"is_disabled":false,"rental_uris":{"android":"levelo://app?vid=198f9263-2153-446b-b46a-69ee29f3bfa9","ios":"levelo://app?vid=198f9263-2153-446b-b46a-69ee29f3bfa9"},"vehicle_type_id":"4","last_reported":1748711312,"current_range_meters":9600,"station_id":"ce4bhip2rcd13ifvqft0","pricing_plan_id":"cebpf4jnsgd1na2vs0mg"},{"bike_id":"c718b35f-5eb8-4bb6-b985-abb94fb5e598","system_id":"levelo_inurba_marseille","lat":43.28461,"lon":5.35881,"is_reserved":false,"is_disabled":false,"rental_uris":{"android":"levelo://app?vid=c718b35f-5eb8-4bb6-b985-abb94fb5e598","ios":"levelo://app?vid=c718b35f-5eb8-4bb6-b985-abb94fb5e598"},"vehicle_type_id":"4","last_reported":1748711312,"current_range_meters":9200,"station_id":"ce4bhah2rcd13ifvqei0","pricing_plan_id":"cebpf4jnsgd1na2vs0mg"},{"bike_id":"8d48119e-760e-4c00-b401-59af0a322afa","system_id":"levelo_inurba_marseille","lat":43.256563,"lon":5.40859,"is_reserved":false,"is_disabled":false,"rental_uris":{"android":"levelo://app?vid=8d48119e-760e-4c00-b401-59af0a322afa","ios":"levelo://app?vid=8d48119e-760e-4c00-b401-59af0a322afa"},"vehicle_type_id":"4","last_reported":1748711312,"current_range_meters":9600,"station_id":"","pricing_plan_id":"cebpf4jnsgd1na2vs0mg"},{"bike_id":"b104221e-1038-4ca5-a22b-865ef53e614d","system_id":"levelo_inurba_marseille","lat":43.28675,"lon":5.36349,"is_reserved":false,"is_disabled":false,"rental_uris":{"android":"levelo://app?vid=b104221e-1038-4ca5-a22b-865ef53e614d","ios":"levelo://app?vid=b104221e-1038-4ca5-a22b-865ef53e614d"},"vehicle_type_id":"4","last_reported":1748711312,"current_range_meters":9600,"station_id":"ce4bhah2rcd13ifvqej0","pricing_plan_id":"cebpf4jnsgd1na2vs0mg"},{"bike_id":"b18036e4-cdbb-441f-a4f1-99c9cdbece34","system_id":"levelo_inurba_marseille","lat":43.294922,"lon":5.390712,"is_reserved":false,"is_disabled":false,"rental_uris":{"android":"levelo://app?vid=b18036e4-cdbb-441f-a4f1-99c9cdbece34","ios":"levelo://app?vid=b18036e4-cdbb-441f-a4f1-99c9cdbece34"},"vehicle_type_id":"4","last_reported":1748711312,"current_range_meters":10000,"station_id":"ce4bh3p2rcd13ifvqdp0","pricing_plan_id":"cebpf4jnsgd1na2vs0mg"},{"bike_id":"392a68ac-fff4-45ac-8bf1-87ec938f1cf5","system_id":"levelo_inurba_marseille","lat":43.232014,"lon":5.355474,"is_reserved":false,"is_disabled":false,"rental_uris":{"android":"levelo://app?vid=392a68ac-fff4-45ac-8bf1-87ec938f1cf5","ios":"levelo://app?vid=392a68ac-fff4-45ac-8bf1-87ec938f1cf5"},"vehicle_type_id":"4","last_reported":1748711312,"current_range_meters":10000,"station_id":"ce4bhu92rcd13ifvqi70","pricing_plan_id":"cebpf4jnsgd1na2vs0mg"},{"bike_id":"cfd4e663-fca0-4ee9-a324-83d9d4257647","system_id":"levelo_inurba_marseille","lat":43.31233,"lon":5.36879,"is_reserved":false,"is_disabled":false,"rental_uris":{"android":"levelo://app?vid=cfd4e663-fca0-4ee9-a324-83d9d4257647","ios":"levelo://app?vid=cfd4e663-fca0-4ee9-a324-83d9d4257647"},"vehicle_type_id":"4","last_reported":1748711312,"current_range_meters":9600,"station_id":"ce4bgl92rcd13ifvqbq0","pricing_plan_id":"cebpf4jnsgd1na2vs0mg"},{"bike_id":"90661731-e0ab-494e-b197-0ad194ea14f4","system_id":"levelo_inurba_marseille","lat":43.26946,"lon":5.40242,"is_reserved":false,"is_disabled":false,"rental_uris":{"android":"levelo://app?vid=90661731-e0ab-494e-b197-0ad194ea14f4","ios":"levelo://app?vid=90661731-e0ab-494e-b197-0ad194ea14f4"},"vehicle_type_id":"4","last_reported":1748711312,"current_range_meters":10000,"station_id":"cjm6bp8fraef2m0cb0m0","pricing_plan_id":"cebpf4jnsgd1na2vs0mg"},{"bike_id":"6ce04e1b-0b29-43e1-bc4b-031e69485a62","system_id":"levelo_inurba_marseille","lat":43.28153,"lon":5.42643,"is_reserved":false,"is_disabled":false,"rental_uris":{"android":"levelo://app?vid=6ce04e1b-0b29-43e1-bc4b-031e69485a62","ios":"levelo://app?vid=6ce04e1b-0b29-43e1-bc4b-031e69485a62"},"vehicle_type_id":"4","last_reported":1748711312,"current_range_meters":10000,"station_id":"ce4bhnh2rcd13ifvqgug","pricing_plan_id":"cebpf4jnsgd1na2vs0mg"},{"bike_id":"c376252a-7b05-4988-8e38-cde147bbab78","system_id":"levelo_inurba_marseille","lat":43.300771,"lon":5.386768,"is_reserved":false,"is_disabled":false,"rental_uris":{"android":"levelo://app?vid=c376252a-7b05-4988-8e38-cde147bbab78","ios":"levelo://app?vid=c376252a-7b05-4988-8e38-cde147bbab78"},"vehicle_type_id":"4","last_reported":1748711312,"current_range_meters":10800,"station_id":"ce4bghh2rcd13ifvqb60","pricing_plan_id":"cebpf4jnsgd1na2vs0mg"},{"bike_id":"3f9738e7-1059-4738-bacc-b3c1cb3d20a2","system_id":"levelo_inurba_marseille","lat":43.28834,"lon":5.39315,"is_reserved":false,"is_disabled":false,"rental_uris":{"android":"levelo://app?vid=3f9738e7-1059-4738-bacc-b3c1cb3d20a2","ios":"levelo://app?vid=3f9738e7-1059-4738-bacc-b3c1cb3d20a2"},"vehicle_type_id":"4","last_reported":1748711312,"current_range_meters":10000,"station_id":"ce4bh2p2rcd13ifvqdi0","pricing_plan_id":"cebpf4jnsgd1na2vs0mg"},{"bike_id":"ba0654e2-f43c-4a5e-ad6f-3ad60630bb91","system_id":"levelo_inurba_marseille","lat":43.2603,"lon":5.37548,"is_reserved":false,"is_disabled":false,"rental_uris":{"android":"levelo://app?vid=ba0654e2-f43c-4a5e-ad6f-3ad60630bb91","ios":"levelo://app?vid=ba0654e2-f43c-4a5e-ad6f-3ad60630bb91"},"vehicle_type_id":"4","last_reported":1748711312,"current_range_meters":10000,"station_id":"ce4bhgh2rcd13ifvqfa0","pricing_plan_id":"cebpf4jnsgd1na2vs0mg"},{"bike_id":"0d3bab2f-26cf-41f1-82dd-bb5db963b288","system_id":"levelo_inurba_marseille","lat":43.32542,"lon":5.36483,"is_reserved":false,"is_disabled":true,"rental_uris":{"android":"levelo://app?vid=0d3bab2f-26cf-41f1-82dd-bb5db963b288","ios":"levelo://app?vid=0d3bab2f-26cf-41f1-82dd-bb5db963b288"},"vehicle_type_id":"4","last_reported":1748711312,"current_range_meters":10000,"station_id":"","pricing_plan_id":"cebpf4jnsgd1na2vs0mg"},{"bike_id":"2f7cba6f-5103-4625-ade3-fc3d09c0efda","system_id":"levelo_inurba_marseille","lat":43.29604,"lon":5.38103,"is_reserved":false,"is_disabled":false,"rental_uris":{"android":"levelo://app?vid=2f7cba6f-5103-4625-ade3-fc3d09c0efda","ios":"levelo://app?vid=2f7cba6f-5103-4625-ade3-fc3d09c0efda"},"vehicle_type_id":"4","last_reported":1748711312,"current_range_meters":10800,"station_id":"ce4bgl12rcd13ifvqbo0","pricing_plan_id":"cebpf4jnsgd1na2vs0mg"},{"bike_id":"f4e49996-ce0c-42e7-9a15-35b5f4497b3e","system_id":"levelo_inurba_marseille","lat":43.32287,"lon":5.38274,"is_reserved":false,"is_disabled":false,"rental_uris":{"android":"levelo://app?vid=f4e49996-ce0c-42e7-9a15-35b5f4497b3e","ios":"levelo://app?vid=f4e49996-ce0c-42e7-9a15-35b5f4497b3e"},"vehicle_type_id":"4","last_reported":1748711312,"current_range_meters":10800,"station_id":"ce4bhr12rcd13ifvqhqg","pricing_plan_id":"cebpf4jnsgd1na2vs0mg"},{"bike_id":"23f7a61d-f2e6-4cde-aed3-314937768ace","system_id":"levelo_inurba_marseille","lat":43.29413,"lon":5.38626,"is_reserved":false,"is_disabled":false,"rental_uris":{"android":"levelo://app?vid=23f7a61d-f2e6-4cde-aed3-314937768ace","ios":"levelo://app?vid=23f7a61d-f2e6-4cde-aed3-314937768ace"},"vehicle_type_id":"4","last_reported":1748711312,"current_range_meters":10800,"station_id":"ce4bh2h2rcd13ifvqdh0","pricing_plan_id":"cebpf4jnsgd1na2vs0mg"},{"bike_id":"9caba337-eef2-471f-9c91-b5baca455157","system_id":"levelo_inurba_marseille","lat":43.31326,"lon":5.39708,"is_reserved":false,"is_disabled":false,"rental_uris":{"android":"levelo://app?vid=9caba337-eef2-471f-9c91-b5baca455157","ios":"levelo://app?vid=9caba337-eef2-471f-9c91-b5baca455157"},"vehicle_type_id":"4","last_reported":1748711312,"current_range_meters":10000,"station_id":"ce4bgvp2rcd13ifvqcu0","pricing_plan_id":"cebpf4jnsgd1na2vs0mg"},{"bike_id":"ccfc4486-493a-40a0-94ad-47e2e716a4c9","system_id":"levelo_inurba_marseille","lat":43.22942,"lon":5.35381,"is_reserved":false,"is_disabled":false,"rental_uris":{"android":"levelo://app?vid=ccfc4486-493a-40a0-94ad-47e2e716a4c9","ios":"levelo://app?vid=ccfc4486-493a-40a0-94ad-47e2e716a4c9"},"vehicle_type_id":"4","last_reported":1748711312,"current_range_meters":10800,"station_id":"cpo3532slgdg3j2ikp40","pricing_plan_id":"cebpf4jnsgd1na2vs0mg"},{"bike_id":"6dbec55b-fee0-4a3a-9ed2-723f9ae1c783","system_id":"levelo_inurba_marseille","lat":43.299087,"lon":5.436656,"is_reserved":false,"is_disabled":true,"rental_uris":{"android":"levelo://app?vid=6dbec55b-fee0-4a3a-9ed2-723f9ae1c783","ios":"levelo://app?vid=6dbec55b-fee0-4a3a-9ed2-723f9ae1c783"},"vehicle_type_id":"4","last_reported":1748711312,"current_range_meters":10800,"station_id":"ce4bhpp2rcd13ifvqhfg","pricing_plan_id":"cebpf4jnsgd1na2vs0mg"},{"bike_id":"a7bc0857-ba13-43fa-9be2-c26b232e5a26","system_id":"levelo_inurba_marseille","lat":43.25906,"lon":5.40882,"is_reserved":false,"is_disabled":false,"rental_uris":{"android":"levelo://app?vid=a7bc0857-ba13-43fa-9be2-c26b232e5a26","ios":"levelo://app?vid=a7bc0857-ba13-43fa-9be2-c26b232e5a26"},"vehicle_type_id":"4","last_reported":1748711312,"current_range_meters":10800,"station_id":"ce4bhm92rcd13ifvqglg","pricing_plan_id":"cebpf4jnsgd1na2vs0mg"},{"bike_id":"a7cf9a51-863f-4af1-b389-22ecb329de37","system_id":"levelo_inurba_marseille","lat":43.291515,"lon":5.374288,"is_reserved":false,"is_disabled":false,"rental_uris":{"android":"levelo://app?vid=a7cf9a51-863f-4af1-b389-22ecb329de37","ios":"levelo://app?vid=a7cf9a51-863f-4af1-b389-22ecb329de37"},"vehicle_type_id":"4","last_reported":1748711312,"current_range_meters":10800,"station_id":"ce4bh192rcd13ifvqdb0","pricing_plan_id":"cebpf4jnsgd1na2vs0mg"},{"bike_id":"0eeb8d78-4e09-4917-a0f6-a855cf66389e","system_id":"levelo_inurba_marseille","lat":43.307343,"lon":5.424409,"is_reserved":false,"is_disabled":false,"rental_uris":{"android":"levelo://app?vid=0eeb8d78-4e09-4917-a0f6-a855cf66389e","ios":"levelo://app?vid=0eeb8d78-4e09-4917-a0f6-a855cf66389e"},"vehicle_type_id":"4","last_reported":1748711312,"current_range_meters":10800,"station_id":"st_cvj6ca6bvosntc0bfgr0","pricing_plan_id":"cebpf4jnsgd1na2vs0mg"},{"bike_id":"961d477b-8ebc-4a48-95d5-f60bc4182f1c","system_id":"levelo_inurba_marseille","lat":43.27422,"lon":5.39417,"is_reserved":false,"is_disabled":false,"rental_uris":{"android":"levelo://app?vid=961d477b-8ebc-4a48-95d5-f60bc4182f1c","ios":"levelo://app?vid=961d477b-8ebc-4a48-95d5-f60bc4182f1c"},"vehicle_type_id":"4","last_reported":1748711312,"current_range_meters":10000,"station_id":"ce4bhdp2rcd13ifvqf20","pricing_plan_id":"cebpf4jnsgd1na2vs0mg"},{"bike_id":"58a05e75-b9e5-4b9e-adf6-51121bdde9f5","system_id":"levelo_inurba_marseille","lat":43.31687,"lon":5.43766,"is_reserved":false,"is_disabled":false,"rental_uris":{"android":"levelo://app?vid=58a05e75-b9e5-4b9e-adf6-51121bdde9f5","ios":"levelo://app?vid=58a05e75-b9e5-4b9e-adf6-51121bdde9f5"},"vehicle_type_id":"4","last_reported":1748711312,"current_range_meters":10800,"station_id":"","pricing_plan_id":"cebpf4jnsgd1na2vs0mg"},{"bike_id":"9da1b47e-2c54-4866-bbd2-7a619e6ec026","system_id":"levelo_inurba_marseille","lat":43.26209,"lon":5.37442,"is_reserved":false,"is_disabled":false,"rental_uris":{"android":"levelo://app?vid=9da1b47e-2c54-4866-bbd2-7a619e6ec026","ios":"levelo://app?vid=9da1b47e-2c54-4866-bbd2-7a619e6ec026"},"vehicle_type_id":"4","last_reported":1748711312,"current_range_meters":10800,"station_id":"ce4bhgp2rcd13ifvqfc0","pricing_plan_id":"cebpf4jnsgd1na2vs0mg"},{"bike_id":"50e21826-13a0-4ab8-a85e-862b2137f043","system_id":"levelo_inurba_marseille","lat":43.31348,"lon":5.38498,"is_reserved":false,"is_disabled":false,"rental_uris":{"android":"levelo://app?vid=50e21826-13a0-4ab8-a85e-862b2137f043","ios":"levelo://app?vid=50e21826-13a0-4ab8-a85e-862b2137f043"},"vehicle_type_id":"4","last_reported":1748711312,"current_range_meters":10000,"station_id":"ce4bgt92rcd13ifvqcf0","pricing_plan_id":"cebpf4jnsgd1na2vs0mg"},{"bike_id":"3e750ed8-62e5-4ae0-8b88-a3e382303a8e","system_id":"levelo_inurba_marseille","lat":43.30184,"lon":5.36624,"is_reserved":false,"is_disabled":false,"rental_uris":{"android":"levelo://app?vid=3e750ed8-62e5-4ae0-8b88-a3e382303a8e","ios":"levelo://app?vid=3e750ed8-62e5-4ae0-8b88-a3e382303a8e"},"vehicle_type_id":"4","last_reported":1748711312,"current_range_meters":10800,"station_id":"ce4bgrh2rcd13ifvqc8g","pricing_plan_id":"cebpf4jnsgd1na2vs0mg"},{"bike_id":"16956ecc-ed47-44a5-bf64-7ac7c0de85fa","system_id":"levelo_inurba_marseille","lat":43.315719,"lon":5.369024,"is_reserved":false,"is_disabled":false,"rental_uris":{"android":"levelo://app?vid=16956ecc-ed47-44a5-bf64-7ac7c0de85fa","ios":"levelo://app?vid=16956ecc-ed47-44a5-bf64-7ac7c0de85fa"},"vehicle_type_id":"4","last_reported":1748711312,"current_range_meters":10800,"station_id":"","pricing_plan_id":"cebpf4jnsgd1na2vs0mg"},{"bike_id":"c5fbf54f-748b-49d8-bc6c-6ac52f1e7d67","system_id":"levelo_inurba_marseille","lat":43.26486,"lon":5.39544,"is_reserved":false,"is_disabled":false,"rental_uris":{"android":"levelo://app?vid=c5fbf54f-748b-49d8-bc6c-6ac52f1e7d67","ios":"levelo://app?vid=c5fbf54f-748b-49d8-bc6c-6ac52f1e7d67"},"vehicle_type_id":"4","last_reported":1748711312,"current_range_meters":11200,"station_id":"ce4bhi12rcd13ifvqfq0","pricing_plan_id":"cebpf4jnsgd1na2vs0mg"},{"bike_id":"30f68515-74a9-4acc-a695-8f67aac66126","system_id":"levelo_inurba_marseille","lat":43.30131,"lon":5.38785,"is_reserved":false,"is_disabled":false,"rental_uris":{"android":"levelo://app?vid=30f68515-74a9-4acc-a695-8f67aac66126","ios":"levelo://app?vid=30f68515-74a9-4acc-a695-8f67aac66126"},"vehicle_type_id":"4","last_reported":1748711312,"current_range_meters":11200,"station_id":"ce4bghh2rcd13ifvqb60","pricing_plan_id":"cebpf4jnsgd1na2vs0mg"},{"bike_id":"88156d05-def4-4b36-a01c-bf5f823d7052","system_id":"levelo_inurba_marseille","lat":43.2693,"lon":5.40251,"is_reserved":false,"is_disabled":false,"rental_uris":{"android":"levelo://app?vid=88156d05-def4-4b36-a01c-bf5f823d7052","ios":"levelo://app?vid=88156d05-def4-4b36-a01c-bf5f823d7052"},"vehicle_type_id":"4","last_reported":1748711312,"current_range_meters":11200,"station_id":"cjm6bp8fraef2m0cb0m0","pricing_plan_id":"cebpf4jnsgd1na2vs0mg"},{"bike_id":"76a945ba-9ba8-414f-963a-73e1a106e0fc","system_id":"levelo_inurba_marseille","lat":43.2623,"lon":5.40444,"is_reserved":false,"is_disabled":false,"rental_uris":{"android":"levelo://app?vid=76a945ba-9ba8-414f-963a-73e1a106e0fc","ios":"levelo://app?vid=76a945ba-9ba8-414f-963a-73e1a106e0fc"},"vehicle_type_id":"4","last_reported":1748711312,"current_range_meters":11200,"station_id":"ce4bhmh2rcd13ifvqgmg","pricing_plan_id":"cebpf4jnsgd1na2vs0mg"},{"bike_id":"a596e002-899d-463e-af39-6fdb84bac238","system_id":"levelo_inurba_marseille","lat":43.30936,"lon":5.40138,"is_reserved":false,"is_disabled":false,"rental_uris":{"android":"levelo://app?vid=a596e002-899d-463e-af39-6fdb84bac238","ios":"levelo://app?vid=a596e002-899d-463e-af39-6fdb84bac238"},"vehicle_type_id":"4","last_reported":1748711312,"current_range_meters":11200,"station_id":"ce4bgvp2rcd13ifvqct0","pricing_plan_id":"cebpf4jnsgd1na2vs0mg"},{"bike_id":"ca45ae50-8fdf-43fd-8443-30c134198d86","system_id":"levelo_inurba_marseille","lat":43.26566,"lon":5.40324,"is_reserved":false,"is_disabled":false,"rental_uris":{"android":"levelo://app?vid=ca45ae50-8fdf-43fd-8443-30c134198d86","ios":"levelo://app?vid=ca45ae50-8fdf-43fd-8443-30c134198d86"},"vehicle_type_id":"4","last_reported":1748711312,"current_range_meters":11200,"station_id":"","pricing_plan_id":"cebpf4jnsgd1na2vs0mg"},{"bike_id":"41eafede-17fa-4bd9-a763-139cd0d10a2d","system_id":"levelo_inurba_marseille","lat":43.32288,"lon":5.3827,"is_reserved":false,"is_disabled":false,"rental_uris":{"android":"levelo://app?vid=41eafede-17fa-4bd9-a763-139cd0d10a2d","ios":"levelo://app?vid=41eafede-17fa-4bd9-a763-139cd0d10a2d"},"vehicle_type_id":"4","last_reported":1748711312,"current_range_meters":11200,"station_id":"ce4bhr12rcd13ifvqhqg","pricing_plan_id":"cebpf4jnsgd1na2vs0mg"},{"bike_id":"09010293-e3f3-4796-a9d0-57a1a69abbcc","system_id":"levelo_inurba_marseille","lat":43.23148,"lon":5.43724,"is_reserved":false,"is_disabled":false,"rental_uris":{"android":"levelo://app?vid=09010293-e3f3-4796-a9d0-57a1a69abbcc","ios":"levelo://app?vid=09010293-e3f3-4796-a9d0-57a1a69abbcc"},"vehicle_type_id":"4","last_reported":1748711312,"current_range_meters":11600,"station_id":"ce4bhmp2rcd13ifvqgog","pricing_plan_id":"cebpf4jnsgd1na2vs0mg"},{"bike_id":"ea420884-2240-4e77-ace3-a4cedb798f14","system_id":"levelo_inurba_marseille","lat":43.22924,"lon":5.35375,"is_reserved":false,"is_disabled":false,"rental_uris":{"android":"levelo://app?vid=ea420884-2240-4e77-ace3-a4cedb798f14","ios":"levelo://app?vid=ea420884-2240-4e77-ace3-a4cedb798f14"},"vehicle_type_id":"4","last_reported":1748711312,"current_range_meters":11600,"station_id":"cpo3532slgdg3j2ikp40","pricing_plan_id":"cebpf4jnsgd1na2vs0mg"},{"bike_id":"d464121f-7a45-4dc9-8935-517f24b49bb2","system_id":"levelo_inurba_marseille","lat":43.27172,"lon":5.40998,"is_reserved":false,"is_disabled":false,"rental_uris":{"android":"levelo://app?vid=d464121f-7a45-4dc9-8935-517f24b49bb2","ios":"levelo://app?vid=d464121f-7a45-4dc9-8935-517f24b49bb2"},"vehicle_type_id":"4","last_reported":1748711312,"current_range_meters":11200,"station_id":"ce4bhl12rcd13ifvqgf0","pricing_plan_id":"cebpf4jnsgd1na2vs0mg"},{"bike_id":"3bff230a-471c-4e9b-9d58-c88e45ef00c1","system_id":"levelo_inurba_marseille","lat":43.27376,"lon":5.36259,"is_reserved":false,"is_disabled":false,"rental_uris":{"android":"levelo://app?vid=3bff230a-471c-4e9b-9d58-c88e45ef00c1","ios":"levelo://app?vid=3bff230a-471c-4e9b-9d58-c88e45ef00c1"},"vehicle_type_id":"4","last_reported":1748711312,"current_range_meters":11600,"station_id":"ce4bhbh2rcd13ifvqeo0","pricing_plan_id":"cebpf4jnsgd1na2vs0mg"},{"bike_id":"bd94d8cd-030c-4cf7-a00e-245a16cee69a","system_id":"levelo_inurba_marseille","lat":43.25866,"lon":5.39892,"is_reserved":false,"is_disabled":false,"rental_uris":{"android":"levelo://app?vid=bd94d8cd-030c-4cf7-a00e-245a16cee69a","ios":"levelo://app?vid=bd94d8cd-030c-4cf7-a00e-245a16cee69a"},"vehicle_type_id":"4","last_reported":1748711312,"current_range_meters":11600,"station_id":"ce4bhl92rcd13ifvqghg","pricing_plan_id":"cebpf4jnsgd1na2vs0mg"},{"bike_id":"07ffc10b-fd17-4ee9-9aba-4059272a65f6","system_id":"levelo_inurba_marseille","lat":43.26938,"lon":5.40258,"is_reserved":false,"is_disabled":false,"rental_uris":{"android":"levelo://app?vid=07ffc10b-fd17-4ee9-9aba-4059272a65f6","ios":"levelo://app?vid=07ffc10b-fd17-4ee9-9aba-4059272a65f6"},"vehicle_type_id":"4","last_reported":1748711312,"current_range_meters":11600,"station_id":"cjm6bp8fraef2m0cb0m0","pricing_plan_id":"cebpf4jnsgd1na2vs0mg"},{"bike_id":"bc5eafc1-6550-46e3-9397-c892d8407f37","system_id":"levelo_inurba_marseille","lat":43.22929,"lon":5.35373,"is_reserved":false,"is_disabled":false,"rental_uris":{"android":"levelo://app?vid=bc5eafc1-6550-46e3-9397-c892d8407f37","ios":"levelo://app?vid=bc5eafc1-6550-46e3-9397-c892d8407f37"},"vehicle_type_id":"4","last_reported":1748711312,"current_range_meters":11600,"station_id":"cpo3532slgdg3j2ikp40","pricing_plan_id":"cebpf4jnsgd1na2vs0mg"},{"bike_id":"51a28b3c-3f6d-42e9-909c-b1e2e5a0efc0","system_id":"levelo_inurba_marseille","lat":43.29288,"lon":5.40128,"is_reserved":false,"is_disabled":false,"rental_uris":{"android":"levelo://app?vid=51a28b3c-3f6d-42e9-909c-b1e2e5a0efc0","ios":"levelo://app?vid=51a28b3c-3f6d-42e9-909c-b1e2e5a0efc0"},"vehicle_type_id":"4","last_reported":1748711312,"current_range_meters":12000,"station_id":"ce4bh312rcd13ifvqdk0","pricing_plan_id":"cebpf4jnsgd1na2vs0mg"},{"bike_id":"82b21ea5-2ab8-45ac-9b4c-76dd5d14f091","system_id":"levelo_inurba_marseille","lat":43.29017,"lon":5.37559,"is_reserved":false,"is_disabled":false,"rental_uris":{"android":"levelo://app?vid=82b21ea5-2ab8-45ac-9b4c-76dd5d14f091","ios":"levelo://app?vid=82b21ea5-2ab8-45ac-9b4c-76dd5d14f091"},"vehicle_type_id":"4","last_reported":1748711312,"current_range_meters":12000,"station_id":"ce4bh692rcd13ifvqe90","pricing_plan_id":"cebpf4jnsgd1na2vs0mg"},{"bike_id":"e6bf0c37-d2a0-4cf7-bda5-bdec7e2a1f23","system_id":"levelo_inurba_marseille","lat":43.322957,"lon":5.382893,"is_reserved":false,"is_disabled":false,"rental_uris":{"android":"levelo://app?vid=e6bf0c37-d2a0-4cf7-bda5-bdec7e2a1f23","ios":"levelo://app?vid=e6bf0c37-d2a0-4cf7-bda5-bdec7e2a1f23"},"vehicle_type_id":"4","last_reported":1748711312,"current_range_meters":12000,"station_id":"ce4bhr12rcd13ifvqhqg","pricing_plan_id":"cebpf4jnsgd1na2vs0mg"},{"bike_id":"1bbe173c-4b1d-45d5-94f5-202e25326688","system_id":"levelo_inurba_marseille","lat":43.28699,"lon":5.39986,"is_reserved":false,"is_disabled":false,"rental_uris":{"android":"levelo://app?vid=1bbe173c-4b1d-45d5-94f5-202e25326688","ios":"levelo://app?vid=1bbe173c-4b1d-45d5-94f5-202e25326688"},"vehicle_type_id":"4","last_reported":1748711312,"current_range_meters":12000,"station_id":"ce4bho92rcd13ifvqh3g","pricing_plan_id":"cebpf4jnsgd1na2vs0mg"},{"bike_id":"d65c1f24-d6bb-49c6-9080-eef7c63c2184","system_id":"levelo_inurba_marseille","lat":43.33608,"lon":5.41027,"is_reserved":false,"is_disabled":false,"rental_uris":{"android":"levelo://app?vid=d65c1f24-d6bb-49c6-9080-eef7c63c2184","ios":"levelo://app?vid=d65c1f24-d6bb-49c6-9080-eef7c63c2184"},"vehicle_type_id":"4","last_reported":1748711312,"current_range_meters":11600,"station_id":"ce4bhqh2rcd13ifvqhmg","pricing_plan_id":"cebpf4jnsgd1na2vs0mg"},{"bike_id":"b5065838-0ee1-4b90-ac7d-c9ffff44cfc6","system_id":"levelo_inurba_marseille","lat":43.24803,"lon":5.37454,"is_reserved":false,"is_disabled":false,"rental_uris":{"android":"levelo://app?vid=b5065838-0ee1-4b90-ac7d-c9ffff44cfc6","ios":"levelo://app?vid=b5065838-0ee1-4b90-ac7d-c9ffff44cfc6"},"vehicle_type_id":"4","last_reported":1748711312,"current_range_meters":12000,"station_id":"ce4bhgh2rcd13ifvqfb0","pricing_plan_id":"cebpf4jnsgd1na2vs0mg"},{"bike_id":"0f4115ec-0da6-40ca-b51e-8024a6033163","system_id":"levelo_inurba_marseille","lat":43.28843,"lon":5.39315,"is_reserved":false,"is_disabled":false,"rental_uris":{"android":"levelo://app?vid=0f4115ec-0da6-40ca-b51e-8024a6033163","ios":"levelo://app?vid=0f4115ec-0da6-40ca-b51e-8024a6033163"},"vehicle_type_id":"4","last_reported":1748711312,"current_range_meters":11600,"station_id":"ce4bh2p2rcd13ifvqdi0","pricing_plan_id":"cebpf4jnsgd1na2vs0mg"},{"bike_id":"424abc49-7098-476e-9563-b7acdbab96ad","system_id":"levelo_inurba_marseille","lat":43.25126,"lon":5.40322,"is_reserved":false,"is_disabled":false,"rental_uris":{"android":"levelo://app?vid=424abc49-7098-476e-9563-b7acdbab96ad","ios":"levelo://app?vid=424abc49-7098-476e-9563-b7acdbab96ad"},"vehicle_type_id":"4","last_reported":1748711312,"current_range_meters":12400,"station_id":"ce4bhlh2rcd13ifvqgig","pricing_plan_id":"cebpf4jnsgd1na2vs0mg"},{"bike_id":"7f08a69a-2d5b-48e6-8e97-32333e7c1f12","system_id":"levelo_inurba_marseille","lat":43.25462,"lon":5.37543,"is_reserved":false,"is_disabled":false,"rental_uris":{"android":"levelo://app?vid=7f08a69a-2d5b-48e6-8e97-32333e7c1f12","ios":"levelo://app?vid=7f08a69a-2d5b-48e6-8e97-32333e7c1f12"},"vehicle_type_id":"4","last_reported":1748711312,"current_range_meters":12400,"station_id":"","pricing_plan_id":"cebpf4jnsgd1na2vs0mg"},{"bike_id":"b4a389d7-474d-4a9d-8dec-223a88612b5c","system_id":"levelo_inurba_marseille","lat":43.249929,"lon":5.379434,"is_reserved":false,"is_disabled":false,"rental_uris":{"android":"levelo://app?vid=b4a389d7-474d-4a9d-8dec-223a88612b5c","ios":"levelo://app?vid=b4a389d7-474d-4a9d-8dec-223a88612b5c"},"vehicle_type_id":"4","last_reported":1748711312,"current_range_meters":12400,"station_id":"","pricing_plan_id":"cebpf4jnsgd1na2vs0mg"},{"bike_id":"f0bc6029-0cdb-4673-831e-68498c527429","system_id":"levelo_inurba_marseille","lat":43.28341,"lon":5.38108,"is_reserved":false,"is_disabled":false,"rental_uris":{"android":"levelo://app?vid=f0bc6029-0cdb-4673-831e-68498c527429","ios":"levelo://app?vid=f0bc6029-0cdb-4673-831e-68498c527429"},"vehicle_type_id":"4","last_reported":1748711312,"current_range_meters":12400,"station_id":"ce4bh412rcd13ifvqdr0","pricing_plan_id":"cebpf4jnsgd1na2vs0mg"},{"bike_id":"30b76abd-28fc-4d48-89e6-796041cc53c1","system_id":"levelo_inurba_marseille","lat":43.29778,"lon":5.39339,"is_reserved":false,"is_disabled":false,"rental_uris":{"android":"levelo://app?vid=30b76abd-28fc-4d48-89e6-796041cc53c1","ios":"levelo://app?vid=30b76abd-28fc-4d48-89e6-796041cc53c1"},"vehicle_type_id":"4","last_reported":1748711312,"current_range_meters":12000,"station_id":"chh1huq6cuj3fo74tm60","pricing_plan_id":"cebpf4jnsgd1na2vs0mg"},{"bike_id":"1cbc3454-ff5d-4ea4-b25c-b28e2bf616a9","system_id":"levelo_inurba_marseille","lat":43.25117,"lon":5.4034,"is_reserved":false,"is_disabled":false,"rental_uris":{"android":"levelo://app?vid=1cbc3454-ff5d-4ea4-b25c-b28e2bf616a9","ios":"levelo://app?vid=1cbc3454-ff5d-4ea4-b25c-b28e2bf616a9"},"vehicle_type_id":"4","last_reported":1748711312,"current_range_meters":12400,"station_id":"ce4bhlh2rcd13ifvqgig","pricing_plan_id":"cebpf4jnsgd1na2vs0mg"},{"bike_id":"25f2645d-065e-43fb-b883-70b969a097ba","system_id":"levelo_inurba_marseille","lat":43.28034,"lon":5.36956,"is_reserved":false,"is_disabled":false,"rental_uris":{"android":"levelo://app?vid=25f2645d-065e-43fb-b883-70b969a097ba","ios":"levelo://app?vid=25f2645d-065e-43fb-b883-70b969a097ba"},"vehicle_type_id":"4","last_reported":1748711312,"current_range_meters":12800,"station_id":"ce4bha12rcd13ifvqef0","pricing_plan_id":"cebpf4jnsgd1na2vs0mg"},{"bike_id":"d8723b48-260d-4f77-b59f-b0a8383bd455","system_id":"levelo_inurba_marseille","lat":43.292969,"lon":5.368288,"is_reserved":false,"is_disabled":false,"rental_uris":{"android":"levelo://app?vid=d8723b48-260d-4f77-b59f-b0a8383bd455","ios":"levelo://app?vid=d8723b48-260d-4f77-b59f-b0a8383bd455"},"vehicle_type_id":"4","last_reported":1748711312,"current_range_meters":12800,"station_id":"ce4bhbp2rcd13ifvqerg","pricing_plan_id":"cebpf4jnsgd1na2vs0mg"},{"bike_id":"3ade0748-cc69-48af-8fab-515fc4676f24","system_id":"levelo_inurba_marseille","lat":43.29536,"lon":5.3854,"is_reserved":false,"is_disabled":false,"rental_uris":{"android":"levelo://app?vid=3ade0748-cc69-48af-8fab-515fc4676f24","ios":"levelo://app?vid=3ade0748-cc69-48af-8fab-515fc4676f24"},"vehicle_type_id":"4","last_reported":1748711312,"current_range_meters":12800,"station_id":"ce4bgih2rcd13ifvqba0","pricing_plan_id":"cebpf4jnsgd1na2vs0mg"},{"bike_id":"cf279d2d-6d2e-4e4a-97ba-c6741698cdd4","system_id":"levelo_inurba_marseille","lat":43.24666,"lon":5.38171,"is_reserved":false,"is_disabled":false,"rental_uris":{"android":"levelo://app?vid=cf279d2d-6d2e-4e4a-97ba-c6741698cdd4","ios":"levelo://app?vid=cf279d2d-6d2e-4e4a-97ba-c6741698cdd4"},"vehicle_type_id":"4","last_reported":1748711312,"current_range_meters":12800,"station_id":"ce4bhih2rcd13ifvqfr0","pricing_plan_id":"cebpf4jnsgd1na2vs0mg"},{"bike_id":"8f0300e4-899f-4e13-b8a7-90f137ab1640","system_id":"levelo_inurba_marseille","lat":43.270645,"lon":5.393183,"is_reserved":false,"is_disabled":false,"rental_uris":{"android":"levelo://app?vid=8f0300e4-899f-4e13-b8a7-90f137ab1640","ios":"levelo://app?vid=8f0300e4-899f-4e13-b8a7-90f137ab1640"},"vehicle_type_id":"4","last_reported":1748711312,"current_range_meters":12800,"station_id":"","pricing_plan_id":"cebpf4jnsgd1na2vs0mg"},{"bike_id":"5f5f23f7-b3c4-42c2-a111-4da86f437544","system_id":"levelo_inurba_marseille","lat":43.31226,"lon":5.36858,"is_reserved":false,"is_disabled":false,"rental_uris":{"android":"levelo://app?vid=5f5f23f7-b3c4-42c2-a111-4da86f437544","ios":"levelo://app?vid=5f5f23f7-b3c4-42c2-a111-4da86f437544"},"vehicle_type_id":"4","last_reported":1748711312,"current_range_meters":12800,"station_id":"ce4bgl92rcd13ifvqbq0","pricing_plan_id":"cebpf4jnsgd1na2vs0mg"},{"bike_id":"7f504693-6735-46a6-b44d-c56be8d86730","system_id":"levelo_inurba_marseille","lat":43.28276,"lon":5.35062,"is_reserved":false,"is_disabled":false,"rental_uris":{"android":"levelo://app?vid=7f504693-6735-46a6-b44d-c56be8d86730","ios":"levelo://app?vid=7f504693-6735-46a6-b44d-c56be8d86730"},"vehicle_type_id":"4","last_reported":1748711312,"current_range_meters":12800,"station_id":"ce4bhbp2rcd13ifvqerg","pricing_plan_id":"cebpf4jnsgd1na2vs0mg"},{"bike_id":"0fcdc33d-cb04-4926-9467-7dc5fe2be236","system_id":"levelo_inurba_marseille","lat":43.23056,"lon":5.35494,"is_reserved":false,"is_disabled":false,"rental_uris":{"android":"levelo://app?vid=0fcdc33d-cb04-4926-9467-7dc5fe2be236","ios":"levelo://app?vid=0fcdc33d-cb04-4926-9467-7dc5fe2be236"},"vehicle_type_id":"4","last_reported":1748711312,"current_range_meters":12800,"station_id":"cpo3342slgdg3j2ifvpg","pricing_plan_id":"cebpf4jnsgd1na2vs0mg"},{"bike_id":"b1879598-d223-4e1a-9eb2-48abae489331","system_id":"levelo_inurba_marseille","lat":43.27955,"lon":5.41034,"is_reserved":false,"is_disabled":false,"rental_uris":{"android":"levelo://app?vid=b1879598-d223-4e1a-9eb2-48abae489331","ios":"levelo://app?vid=b1879598-d223-4e1a-9eb2-48abae489331"},"vehicle_type_id":"4","last_reported":1748711312,"current_range_meters":12800,"station_id":"ce4bhnp2rcd13ifvqh0g","pricing_plan_id":"cebpf4jnsgd1na2vs0mg"},{"bike_id":"e57e8256-abb4-45db-9e2c-03399c534d7c","system_id":"levelo_inurba_marseille","lat":43.28037,"lon":5.36953,"is_reserved":false,"is_disabled":false,"rental_uris":{"android":"levelo://app?vid=e57e8256-abb4-45db-9e2c-03399c534d7c","ios":"levelo://app?vid=e57e8256-abb4-45db-9e2c-03399c534d7c"},"vehicle_type_id":"4","last_reported":1748711312,"current_range_meters":12800,"station_id":"ce4bha12rcd13ifvqef0","pricing_plan_id":"cebpf4jnsgd1na2vs0mg"},{"bike_id":"11b25746-1b46-422b-b73b-1a007e7ee3c8","system_id":"levelo_inurba_marseille","lat":43.27809,"lon":5.40723,"is_reserved":false,"is_disabled":false,"rental_uris":{"android":"levelo://app?vid=11b25746-1b46-422b-b73b-1a007e7ee3c8","ios":"levelo://app?vid=11b25746-1b46-422b-b73b-1a007e7ee3c8"},"vehicle_type_id":"4","last_reported":1748711312,"current_range_meters":12800,"station_id":"ce4bhnh2rcd13ifvqgtg","pricing_plan_id":"cebpf4jnsgd1na2vs0mg"},{"bike_id":"71d6de99-72f0-49b0-b7ac-a742dba17089","system_id":"levelo_inurba_marseille","lat":43.30926,"lon":5.40155,"is_reserved":false,"is_disabled":false,"rental_uris":{"android":"levelo://app?vid=71d6de99-72f0-49b0-b7ac-a742dba17089","ios":"levelo://app?vid=71d6de99-72f0-49b0-b7ac-a742dba17089"},"vehicle_type_id":"4","last_reported":1748711312,"current_range_meters":12800,"station_id":"ce4bgvp2rcd13ifvqct0","pricing_plan_id":"cebpf4jnsgd1na2vs0mg"},{"bike_id":"14036455-f919-44f7-8d5e-0b2e84f48674","system_id":"levelo_inurba_marseille","lat":43.30944,"lon":5.40367,"is_reserved":false,"is_disabled":false,"rental_uris":{"android":"levelo://app?vid=14036455-f919-44f7-8d5e-0b2e84f48674","ios":"levelo://app?vid=14036455-f919-44f7-8d5e-0b2e84f48674"},"vehicle_type_id":"4","last_reported":1748711312,"current_range_meters":12800,"station_id":"","pricing_plan_id":"cebpf4jnsgd1na2vs0mg"},{"bike_id":"aa224d4a-cf59-4555-88ff-f16d5dbcbdb9","system_id":"levelo_inurba_marseille","lat":43.30661,"lon":5.40074,"is_reserved":false,"is_disabled":false,"rental_uris":{"android":"levelo://app?vid=aa224d4a-cf59-4555-88ff-f16d5dbcbdb9","ios":"levelo://app?vid=aa224d4a-cf59-4555-88ff-f16d5dbcbdb9"},"vehicle_type_id":"4","last_reported":1748711312,"current_range_meters":13600,"station_id":"ce4bh112rcd13ifvqda0","pricing_plan_id":"cebpf4jnsgd1na2vs0mg"},{"bike_id":"55dff400-f85d-4680-bde1-425d558bc480","system_id":"levelo_inurba_marseille","lat":43.26777,"lon":5.39424,"is_reserved":false,"is_disabled":false,"rental_uris":{"android":"levelo://app?vid=55dff400-f85d-4680-bde1-425d558bc480","ios":"levelo://app?vid=55dff400-f85d-4680-bde1-425d558bc480"},"vehicle_type_id":"4","last_reported":1748711312,"current_range_meters":13600,"station_id":"ce4bhh12rcd13ifvqfg0","pricing_plan_id":"cebpf4jnsgd1na2vs0mg"},{"bike_id":"69bef51a-2195-4a5b-be03-a5773a39ec7e","system_id":"levelo_inurba_marseille","lat":43.22927,"lon":5.35377,"is_reserved":false,"is_disabled":false,"rental_uris":{"android":"levelo://app?vid=69bef51a-2195-4a5b-be03-a5773a39ec7e","ios":"levelo://app?vid=69bef51a-2195-4a5b-be03-a5773a39ec7e"},"vehicle_type_id":"4","last_reported":1748711312,"current_range_meters":13600,"station_id":"cpo3532slgdg3j2ikp40","pricing_plan_id":"cebpf4jnsgd1na2vs0mg"},{"bike_id":"9ad0de0a-3e96-4789-98a7-79fce64489b7","system_id":"levelo_inurba_marseille","lat":43.26924,"lon":5.40259,"is_reserved":false,"is_disabled":false,"rental_uris":{"android":"levelo://app?vid=9ad0de0a-3e96-4789-98a7-79fce64489b7","ios":"levelo://app?vid=9ad0de0a-3e96-4789-98a7-79fce64489b7"},"vehicle_type_id":"4","last_reported":1748711312,"current_range_meters":14000,"station_id":"cjm6bp8fraef2m0cb0m0","pricing_plan_id":"cebpf4jnsgd1na2vs0mg"},{"bike_id":"69f2d074-fda2-437a-9cc5-ec380dd15cc6","system_id":"levelo_inurba_marseille","lat":43.23055,"lon":5.35478,"is_reserved":false,"is_disabled":false,"rental_uris":{"android":"levelo://app?vid=69f2d074-fda2-437a-9cc5-ec380dd15cc6","ios":"levelo://app?vid=69f2d074-fda2-437a-9cc5-ec380dd15cc6"},"vehicle_type_id":"4","last_reported":1748711312,"current_range_meters":14000,"station_id":"cpo3342slgdg3j2ifvpg","pricing_plan_id":"cebpf4jnsgd1na2vs0mg"},{"bike_id":"63226803-31c6-4bba-8fb5-6056cb981b44","system_id":"levelo_inurba_marseille","lat":43.21743,"lon":5.34604,"is_reserved":false,"is_disabled":true,"rental_uris":{"android":"levelo://app?vid=63226803-31c6-4bba-8fb5-6056cb981b44","ios":"levelo://app?vid=63226803-31c6-4bba-8fb5-6056cb981b44"},"vehicle_type_id":"4","last_reported":1748711312,"current_range_meters":14000,"station_id":"st_cvj6r9ubvosntc0bgbag","pricing_plan_id":"cebpf4jnsgd1na2vs0mg"},{"bike_id":"34accdfd-12f1-410d-aeaa-66d320a6bc1a","system_id":"levelo_inurba_marseille","lat":43.283834,"lon":5.382163,"is_reserved":false,"is_disabled":false,"rental_uris":{"android":"levelo://app?vid=34accdfd-12f1-410d-aeaa-66d320a6bc1a","ios":"levelo://app?vid=34accdfd-12f1-410d-aeaa-66d320a6bc1a"},"vehicle_type_id":"4","last_reported":1748711312,"current_range_meters":14000,"station_id":"ce4bh412rcd13ifvqdr0","pricing_plan_id":"cebpf4jnsgd1na2vs0mg"},{"bike_id":"1618c79e-f118-464c-b471-c34534364ba4","system_id":"levelo_inurba_marseille","lat":43.27166,"lon":5.40975,"is_reserved":false,"is_disabled":false,"rental_uris":{"android":"levelo://app?vid=1618c79e-f118-464c-b471-c34534364ba4","ios":"levelo://app?vid=1618c79e-f118-464c-b471-c34534364ba4"},"vehicle_type_id":"4","last_reported":1748711312,"current_range_meters":14000,"station_id":"ce4bhl12rcd13ifvqgf0","pricing_plan_id":"cebpf4jnsgd1na2vs0mg"},{"bike_id":"ed990a1a-f015-4ec7-b75a-1b45cf28e97d","system_id":"levelo_inurba_marseille","lat":43.24544,"lon":5.39526,"is_reserved":false,"is_disabled":false,"rental_uris":{"android":"levelo://app?vid=ed990a1a-f015-4ec7-b75a-1b45cf28e97d","ios":"levelo://app?vid=ed990a1a-f015-4ec7-b75a-1b45cf28e97d"},"vehicle_type_id":"4","last_reported":1748711312,"current_range_meters":13600,"station_id":"ce4bhlp2rcd13ifvqgjg","pricing_plan_id":"cebpf4jnsgd1na2vs0mg"},{"bike_id":"fa568cab-f4cd-4282-9294-531338ce746a","system_id":"levelo_inurba_marseille","lat":43.25074,"lon":5.39513,"is_reserved":false,"is_disabled":false,"rental_uris":{"android":"levelo://app?vid=fa568cab-f4cd-4282-9294-531338ce746a","ios":"levelo://app?vid=fa568cab-f4cd-4282-9294-531338ce746a"},"vehicle_type_id":"4","last_reported":1748711312,"current_range_meters":14400,"station_id":"ce4bhm12rcd13ifvqgkg","pricing_plan_id":"cebpf4jnsgd1na2vs0mg"},{"bike_id":"40f51028-804c-444f-819c-340292f1e0ae","system_id":"levelo_inurba_marseille","lat":43.28415,"lon":5.34978,"is_reserved":false,"is_disabled":false,"rental_uris":{"android":"levelo://app?vid=40f51028-804c-444f-819c-340292f1e0ae","ios":"levelo://app?vid=40f51028-804c-444f-819c-340292f1e0ae"},"vehicle_type_id":"4","last_reported":1748711312,"current_range_meters":14400,"station_id":"ce4bhbh2rcd13ifvqepg","pricing_plan_id":"cebpf4jnsgd1na2vs0mg"},{"bike_id":"34b65167-3e5b-4545-9aa7-aa066b376c89","system_id":"levelo_inurba_marseille","lat":43.30099,"lon":5.39088,"is_reserved":false,"is_disabled":false,"rental_uris":{"android":"levelo://app?vid=34b65167-3e5b-4545-9aa7-aa066b376c89","ios":"levelo://app?vid=34b65167-3e5b-4545-9aa7-aa066b376c89"},"vehicle_type_id":"4","last_reported":1748711312,"current_range_meters":14400,"station_id":"ce4bh192rcd13ifvqdb0","pricing_plan_id":"cebpf4jnsgd1na2vs0mg"},{"bike_id":"5542403e-a18a-4f92-9d8a-0a656fa37580","system_id":"levelo_inurba_marseille","lat":43.29304,"lon":5.37466,"is_reserved":false,"is_disabled":false,"rental_uris":{"android":"levelo://app?vid=5542403e-a18a-4f92-9d8a-0a656fa37580","ios":"levelo://app?vid=5542403e-a18a-4f92-9d8a-0a656fa37580"},"vehicle_type_id":"4","last_reported":1748711312,"current_range_meters":14400,"station_id":"ce4bgi12rcd13ifvqb70","pricing_plan_id":"cebpf4jnsgd1na2vs0mg"},{"bike_id":"686656e2-b14d-418a-a856-8bc67a41c497","system_id":"levelo_inurba_marseille","lat":43.29413,"lon":5.38627,"is_reserved":false,"is_disabled":false,"rental_uris":{"android":"levelo://app?vid=686656e2-b14d-418a-a856-8bc67a41c497","ios":"levelo://app?vid=686656e2-b14d-418a-a856-8bc67a41c497"},"vehicle_type_id":"4","last_reported":1748711312,"current_range_meters":14800,"station_id":"ce4bh2h2rcd13ifvqdh0","pricing_plan_id":"cebpf4jnsgd1na2vs0mg"},{"bike_id":"62b9fb40-b3b6-4001-a515-0c87ced39043","system_id":"levelo_inurba_marseille","lat":43.23975,"lon":5.36608,"is_reserved":false,"is_disabled":true,"rental_uris":{"android":"levelo://app?vid=62b9fb40-b3b6-4001-a515-0c87ced39043","ios":"levelo://app?vid=62b9fb40-b3b6-4001-a515-0c87ced39043"},"vehicle_type_id":"4","last_reported":1748711312,"current_range_meters":14800,"station_id":"ce4bhi12rcd13ifvqfp0","pricing_plan_id":"cebpf4jnsgd1na2vs0mg"},{"bike_id":"0a9e647c-ce7e-476e-b72c-b8e67bf4ac43","system_id":"levelo_inurba_marseille","lat":43.27054,"lon":5.40259,"is_reserved":false,"is_disabled":false,"rental_uris":{"android":"levelo://app?vid=0a9e647c-ce7e-476e-b72c-b8e67bf4ac43","ios":"levelo://app?vid=0a9e647c-ce7e-476e-b72c-b8e67bf4ac43"},"vehicle_type_id":"4","last_reported":1748711312,"current_range_meters":14800,"station_id":"ce4bhk92rcd13ifvqgc0","pricing_plan_id":"cebpf4jnsgd1na2vs0mg"},{"bike_id":"86750ee4-6a88-4068-8394-4e98be19246c","system_id":"levelo_inurba_marseille","lat":43.29281,"lon":5.40127,"is_reserved":false,"is_disabled":false,"rental_uris":{"android":"levelo://app?vid=86750ee4-6a88-4068-8394-4e98be19246c","ios":"levelo://app?vid=86750ee4-6a88-4068-8394-4e98be19246c"},"vehicle_type_id":"4","last_reported":1748711312,"current_range_meters":14800,"station_id":"ce4bh312rcd13ifvqdk0","pricing_plan_id":"cebpf4jnsgd1na2vs0mg"},{"bike_id":"792b8862-e581-44be-8ddc-645d1733b829","system_id":"levelo_inurba_marseille","lat":43.28626,"lon":5.37071,"is_reserved":false,"is_disabled":false,"rental_uris":{"android":"levelo://app?vid=792b8862-e581-44be-8ddc-645d1733b829","ios":"levelo://app?vid=792b8862-e581-44be-8ddc-645d1733b829"},"vehicle_type_id":"4","last_reported":1748711312,"current_range_meters":14800,"station_id":"ce4bht12rcd13ifvqi60","pricing_plan_id":"cebpf4jnsgd1na2vs0mg"},{"bike_id":"0a9b504a-5f98-4ecf-a12f-1fcda659d650","system_id":"levelo_inurba_marseille","lat":43.26194,"lon":5.37451,"is_reserved":false,"is_disabled":false,"rental_uris":{"android":"levelo://app?vid=0a9b504a-5f98-4ecf-a12f-1fcda659d650","ios":"levelo://app?vid=0a9b504a-5f98-4ecf-a12f-1fcda659d650"},"vehicle_type_id":"4","last_reported":1748711312,"current_range_meters":14800,"station_id":"ce4bhgp2rcd13ifvqfc0","pricing_plan_id":"cebpf4jnsgd1na2vs0mg"},{"bike_id":"76fca690-1ceb-40a6-b2ab-3ae26d990ca9","system_id":"levelo_inurba_marseille","lat":43.28619,"lon":5.35102,"is_reserved":false,"is_disabled":false,"rental_uris":{"android":"levelo://app?vid=76fca690-1ceb-40a6-b2ab-3ae26d990ca9","ios":"levelo://app?vid=76fca690-1ceb-40a6-b2ab-3ae26d990ca9"},"vehicle_type_id":"4","last_reported":1748711312,"current_range_meters":15200,"station_id":"ce4bhch2rcd13ifvqeug","pricing_plan_id":"cebpf4jnsgd1na2vs0mg"},{"bike_id":"62156c68-c9b8-4695-91b7-fd4d43484774","system_id":"levelo_inurba_marseille","lat":43.28487,"lon":5.3854,"is_reserved":false,"is_disabled":false,"rental_uris":{"android":"levelo://app?vid=62156c68-c9b8-4695-91b7-fd4d43484774","ios":"levelo://app?vid=62156c68-c9b8-4695-91b7-fd4d43484774"},"vehicle_type_id":"4","last_reported":1748711312,"current_range_meters":14800,"station_id":"ce4bh8p2rcd13ifvqeb0","pricing_plan_id":"cebpf4jnsgd1na2vs0mg"},{"bike_id":"4634b1a0-27fb-4f28-89df-b2b50c9cbade","system_id":"levelo_inurba_marseille","lat":43.28601,"lon":5.37078,"is_reserved":false,"is_disabled":false,"rental_uris":{"android":"levelo://app?vid=4634b1a0-27fb-4f28-89df-b2b50c9cbade","ios":"levelo://app?vid=4634b1a0-27fb-4f28-89df-b2b50c9cbade"},"vehicle_type_id":"4","last_reported":1748711312,"current_range_meters":15200,"station_id":"ce4bht12rcd13ifvqi60","pricing_plan_id":"cebpf4jnsgd1na2vs0mg"},{"bike_id":"d95a8927-9413-4ee6-b8dd-9b96d5af8d5e","system_id":"levelo_inurba_marseille","lat":43.28349,"lon":5.35051,"is_reserved":false,"is_disabled":false,"rental_uris":{"android":"levelo://app?vid=d95a8927-9413-4ee6-b8dd-9b96d5af8d5e","ios":"levelo://app?vid=d95a8927-9413-4ee6-b8dd-9b96d5af8d5e"},"vehicle_type_id":"4","last_reported":1748711312,"current_range_meters":15200,"station_id":"","pricing_plan_id":"cebpf4jnsgd1na2vs0mg"},{"bike_id":"73328d92-b68e-482e-a21f-08f9acf24408","system_id":"levelo_inurba_marseille","lat":43.28411,"lon":5.3498,"is_reserved":false,"is_disabled":false,"rental_uris":{"android":"levelo://app?vid=73328d92-b68e-482e-a21f-08f9acf24408","ios":"levelo://app?vid=73328d92-b68e-482e-a21f-08f9acf24408"},"vehicle_type_id":"4","last_reported":1748711312,"current_range_meters":15200,"station_id":"ce4bhbh2rcd13ifvqepg","pricing_plan_id":"cebpf4jnsgd1na2vs0mg"},{"bike_id":"5dab39b7-62b8-4e6c-a124-e4d0475fe370","system_id":"levelo_inurba_marseille","lat":43.308015,"lon":5.381441,"is_reserved":false,"is_disabled":false,"rental_uris":{"android":"levelo://app?vid=5dab39b7-62b8-4e6c-a124-e4d0475fe370","ios":"levelo://app?vid=5dab39b7-62b8-4e6c-a124-e4d0475fe370"},"vehicle_type_id":"4","last_reported":1748711312,"current_range_meters":15200,"station_id":"ce4bgth2rcd13ifvqch0","pricing_plan_id":"cebpf4jnsgd1na2vs0mg"},{"bike_id":"e210be7e-07b8-44d3-ae09-6702f28e2ae8","system_id":"levelo_inurba_marseille","lat":43.25133,"lon":5.39347,"is_reserved":false,"is_disabled":false,"rental_uris":{"android":"levelo://app?vid=e210be7e-07b8-44d3-ae09-6702f28e2ae8","ios":"levelo://app?vid=e210be7e-07b8-44d3-ae09-6702f28e2ae8"},"vehicle_type_id":"4","last_reported":1748711312,"current_range_meters":15200,"station_id":"","pricing_plan_id":"cebpf4jnsgd1na2vs0mg"},{"bike_id":"5344a6f7-f2b1-43fb-956c-32a014cd9682","system_id":"levelo_inurba_marseille","lat":43.29413,"lon":5.38619,"is_reserved":false,"is_disabled":true,"rental_uris":{"android":"levelo://app?vid=5344a6f7-f2b1-43fb-956c-32a014cd9682","ios":"levelo://app?vid=5344a6f7-f2b1-43fb-956c-32a014cd9682"},"vehicle_type_id":"4","last_reported":1748711312,"current_range_meters":14400,"station_id":"ce4bh2h2rcd13ifvqdh0","pricing_plan_id":"cebpf4jnsgd1na2vs0mg"},{"bike_id":"2c39eb00-9d72-426e-9faf-6048b85aead1","system_id":"levelo_inurba_marseille","lat":43.29262,"lon":5.38444,"is_reserved":false,"is_disabled":false,"rental_uris":{"android":"levelo://app?vid=2c39eb00-9d72-426e-9faf-6048b85aead1","ios":"levelo://app?vid=2c39eb00-9d72-426e-9faf-6048b85aead1"},"vehicle_type_id":"4","last_reported":1748711312,"current_range_meters":15200,"station_id":"ce4bh692rcd13ifvqea0","pricing_plan_id":"cebpf4jnsgd1na2vs0mg"},{"bike_id":"410ef4e6-e6c8-4b6e-b701-f1ce0f4f2e9e","system_id":"levelo_inurba_marseille","lat":43.28415,"lon":5.34996,"is_reserved":false,"is_disabled":false,"rental_uris":{"android":"levelo://app?vid=410ef4e6-e6c8-4b6e-b701-f1ce0f4f2e9e","ios":"levelo://app?vid=410ef4e6-e6c8-4b6e-b701-f1ce0f4f2e9e"},"vehicle_type_id":"4","last_reported":1748711312,"current_range_meters":16000,"station_id":"ce4bhbh2rcd13ifvqepg","pricing_plan_id":"cebpf4jnsgd1na2vs0mg"},{"bike_id":"256644c7-03b1-442f-b8c2-75edbdaea49c","system_id":"levelo_inurba_marseille","lat":43.2464,"lon":5.38896,"is_reserved":false,"is_disabled":false,"rental_uris":{"android":"levelo://app?vid=256644c7-03b1-442f-b8c2-75edbdaea49c","ios":"levelo://app?vid=256644c7-03b1-442f-b8c2-75edbdaea49c"},"vehicle_type_id":"4","last_reported":1748711312,"current_range_meters":15200,"station_id":"ce4bhg12rcd13ifvqf60","pricing_plan_id":"cebpf4jnsgd1na2vs0mg"},{"bike_id":"9a189ee8-27ed-444b-b171-f705371af28f","system_id":"levelo_inurba_marseille","lat":43.28274,"lon":5.34919,"is_reserved":false,"is_disabled":false,"rental_uris":{"android":"levelo://app?vid=9a189ee8-27ed-444b-b171-f705371af28f","ios":"levelo://app?vid=9a189ee8-27ed-444b-b171-f705371af28f"},"vehicle_type_id":"4","last_reported":1748711312,"current_range_meters":16000,"station_id":"","pricing_plan_id":"cebpf4jnsgd1na2vs0mg"},{"bike_id":"32503fa7-7208-4269-b40f-34ba3dae0f9e","system_id":"levelo_inurba_marseille","lat":43.308734,"lon":5.403688,"is_reserved":false,"is_disabled":false,"rental_uris":{"android":"levelo://app?vid=32503fa7-7208-4269-b40f-34ba3dae0f9e","ios":"levelo://app?vid=32503fa7-7208-4269-b40f-34ba3dae0f9e"},"vehicle_type_id":"4","last_reported":1748711312,"current_range_meters":16400,"station_id":"","pricing_plan_id":"cebpf4jnsgd1na2vs0mg"},{"bike_id":"6e3428ef-4f11-43f1-9d1d-e5e1a727c09c","system_id":"levelo_inurba_marseille","lat":43.29417,"lon":5.38623,"is_reserved":false,"is_disabled":false,"rental_uris":{"android":"levelo://app?vid=6e3428ef-4f11-43f1-9d1d-e5e1a727c09c","ios":"levelo://app?vid=6e3428ef-4f11-43f1-9d1d-e5e1a727c09c"},"vehicle_type_id":"4","last_reported":1748711312,"current_range_meters":16000,"station_id":"ce4bh2h2rcd13ifvqdh0","pricing_plan_id":"cebpf4jnsgd1na2vs0mg"},{"bike_id":"86689903-f788-48a8-aee0-8048d3ce2b0f","system_id":"levelo_inurba_marseille","lat":43.24646,"lon":5.38904,"is_reserved":false,"is_disabled":false,"rental_uris":{"android":"levelo://app?vid=86689903-f788-48a8-aee0-8048d3ce2b0f","ios":"levelo://app?vid=86689903-f788-48a8-aee0-8048d3ce2b0f"},"vehicle_type_id":"4","last_reported":1748711312,"current_range_meters":16000,"station_id":"ce4bhg12rcd13ifvqf60","pricing_plan_id":"cebpf4jnsgd1na2vs0mg"},{"bike_id":"4c81c36c-f8e4-4272-8b2d-1af054268477","system_id":"levelo_inurba_marseille","lat":43.25868,"lon":5.39903,"is_reserved":false,"is_disabled":false,"rental_uris":{"android":"levelo://app?vid=4c81c36c-f8e4-4272-8b2d-1af054268477","ios":"levelo://app?vid=4c81c36c-f8e4-4272-8b2d-1af054268477"},"vehicle_type_id":"4","last_reported":1748711312,"current_range_meters":15200,"station_id":"ce4bhl92rcd13ifvqghg","pricing_plan_id":"cebpf4jnsgd1na2vs0mg"},{"bike_id":"59cc9f64-369b-40a4-aef4-571b231df862","system_id":"levelo_inurba_marseille","lat":43.28098,"lon":5.35198,"is_reserved":false,"is_disabled":false,"rental_uris":{"android":"levelo://app?vid=59cc9f64-369b-40a4-aef4-571b231df862","ios":"levelo://app?vid=59cc9f64-369b-40a4-aef4-571b231df862"},"vehicle_type_id":"4","last_reported":1748711312,"current_range_meters":16000,"station_id":"","pricing_plan_id":"cebpf4jnsgd1na2vs0mg"},{"bike_id":"045d1676-6812-4d0f-a491-4c608f3c0496","system_id":"levelo_inurba_marseille","lat":43.28075,"lon":5.3966,"is_reserved":false,"is_disabled":false,"rental_uris":{"android":"levelo://app?vid=045d1676-6812-4d0f-a491-4c608f3c0496","ios":"levelo://app?vid=045d1676-6812-4d0f-a491-4c608f3c0496"},"vehicle_type_id":"4","last_reported":1748711312,"current_range_meters":16000,"station_id":"ce4bho12rcd13ifvqh2g","pricing_plan_id":"cebpf4jnsgd1na2vs0mg"},{"bike_id":"32243e5c-b99f-4a9e-ac73-8ef54b5b111a","system_id":"levelo_inurba_marseille","lat":43.25,"lon":5.38923,"is_reserved":false,"is_disabled":false,"rental_uris":{"android":"levelo://app?vid=32243e5c-b99f-4a9e-ac73-8ef54b5b111a","ios":"levelo://app?vid=32243e5c-b99f-4a9e-ac73-8ef54b5b111a"},"vehicle_type_id":"4","last_reported":1748711312,"current_range_meters":16400,"station_id":"ce4bhgp2rcd13ifvqfd0","pricing_plan_id":"cebpf4jnsgd1na2vs0mg"},{"bike_id":"f5a90625-b7e8-48a8-90c6-777efe255a32","system_id":"levelo_inurba_marseille","lat":43.251001,"lon":5.409615,"is_reserved":false,"is_disabled":false,"rental_uris":{"android":"levelo://app?vid=f5a90625-b7e8-48a8-90c6-777efe255a32","ios":"levelo://app?vid=f5a90625-b7e8-48a8-90c6-777efe255a32"},"vehicle_type_id":"4","last_reported":1748711312,"current_range_meters":16400,"station_id":"","pricing_plan_id":"cebpf4jnsgd1na2vs0mg"},{"bike_id":"dd4dc5bb-4c97-472a-82f8-3947b3d67433","system_id":"levelo_inurba_marseille","lat":43.3034,"lon":5.36926,"is_reserved":false,"is_disabled":false,"rental_uris":{"android":"levelo://app?vid=dd4dc5bb-4c97-472a-82f8-3947b3d67433","ios":"levelo://app?vid=dd4dc5bb-4c97-472a-82f8-3947b3d67433"},"vehicle_type_id":"4","last_reported":1748711312,"current_range_meters":16400,"station_id":"ce4bgqh2rcd13ifvqc5g","pricing_plan_id":"cebpf4jnsgd1na2vs0mg"},{"bike_id":"1d4c308a-3bd9-45f9-b273-125b02cf5593","system_id":"levelo_inurba_marseille","lat":43.27181,"lon":5.409856,"is_reserved":false,"is_disabled":false,"rental_uris":{"android":"levelo://app?vid=1d4c308a-3bd9-45f9-b273-125b02cf5593","ios":"levelo://app?vid=1d4c308a-3bd9-45f9-b273-125b02cf5593"},"vehicle_type_id":"4","last_reported":1748711312,"current_range_meters":16400,"station_id":"ce4bhl12rcd13ifvqgf0","pricing_plan_id":"cebpf4jnsgd1na2vs0mg"},{"bike_id":"ad2d831f-3526-424a-b898-c51b875867f1","system_id":"levelo_inurba_marseille","lat":43.28702,"lon":5.39981,"is_reserved":false,"is_disabled":false,"rental_uris":{"android":"levelo://app?vid=ad2d831f-3526-424a-b898-c51b875867f1","ios":"levelo://app?vid=ad2d831f-3526-424a-b898-c51b875867f1"},"vehicle_type_id":"4","last_reported":1748711312,"current_range_meters":16400,"station_id":"ce4bho92rcd13ifvqh3g","pricing_plan_id":"cebpf4jnsgd1na2vs0mg"},{"bike_id":"08a7a24e-e856-4e54-a178-5127035fc998","system_id":"levelo_inurba_marseille","lat":43.30088,"lon":5.39079,"is_reserved":false,"is_disabled":false,"rental_uris":{"android":"levelo://app?vid=08a7a24e-e856-4e54-a178-5127035fc998","ios":"levelo://app?vid=08a7a24e-e856-4e54-a178-5127035fc998"},"vehicle_type_id":"4","last_reported":1748711312,"current_range_meters":16800,"station_id":"ce4bh192rcd13ifvqdb0","pricing_plan_id":"cebpf4jnsgd1na2vs0mg"},{"bike_id":"7d97d13e-0a7f-4245-a5dc-95e39eec00a3","system_id":"levelo_inurba_marseille","lat":43.29957,"lon":5.37177,"is_reserved":false,"is_disabled":false,"rental_uris":{"android":"levelo://app?vid=7d97d13e-0a7f-4245-a5dc-95e39eec00a3","ios":"levelo://app?vid=7d97d13e-0a7f-4245-a5dc-95e39eec00a3"},"vehicle_type_id":"4","last_reported":1748711312,"current_range_meters":16800,"station_id":"ce4bgr92rcd13ifvqc7g","pricing_plan_id":"cebpf4jnsgd1na2vs0mg"},{"bike_id":"77520d45-03bf-4b26-9f9b-8ac6c162ce6b","system_id":"levelo_inurba_marseille","lat":43.243516,"lon":5.411415,"is_reserved":false,"is_disabled":false,"rental_uris":{"android":"levelo://app?vid=77520d45-03bf-4b26-9f9b-8ac6c162ce6b","ios":"levelo://app?vid=77520d45-03bf-4b26-9f9b-8ac6c162ce6b"},"vehicle_type_id":"4","last_reported":1748711312,"current_range_meters":16800,"station_id":"","pricing_plan_id":"cebpf4jnsgd1na2vs0mg"},{"bike_id":"77d7cbbd-cc78-4dbd-b3df-f6065f37fe85","system_id":"levelo_inurba_marseille","lat":43.30878,"lon":5.36814,"is_reserved":false,"is_disabled":false,"rental_uris":{"android":"levelo://app?vid=77d7cbbd-cc78-4dbd-b3df-f6065f37fe85","ios":"levelo://app?vid=77d7cbbd-cc78-4dbd-b3df-f6065f37fe85"},"vehicle_type_id":"4","last_reported":1748711312,"current_range_meters":16800,"station_id":"ce4bgn92rcd13ifvqbvg","pricing_plan_id":"cebpf4jnsgd1na2vs0mg"},{"bike_id":"ed21c2e1-ee43-4c1f-9413-c8f5d901edc8","system_id":"levelo_inurba_marseille","lat":43.29777,"lon":5.39346,"is_reserved":false,"is_disabled":false,"rental_uris":{"android":"levelo://app?vid=ed21c2e1-ee43-4c1f-9413-c8f5d901edc8","ios":"levelo://app?vid=ed21c2e1-ee43-4c1f-9413-c8f5d901edc8"},"vehicle_type_id":"4","last_reported":1748711312,"current_range_meters":16800,"station_id":"chh1huq6cuj3fo74tm60","pricing_plan_id":"cebpf4jnsgd1na2vs0mg"},{"bike_id":"62b02994-5210-426a-980f-6cb47507004d","system_id":"levelo_inurba_marseille","lat":43.29234,"lon":5.36052,"is_reserved":false,"is_disabled":false,"rental_uris":{"android":"levelo://app?vid=62b02994-5210-426a-980f-6cb47507004d","ios":"levelo://app?vid=62b02994-5210-426a-980f-6cb47507004d"},"vehicle_type_id":"4","last_reported":1748711312,"current_range_meters":16800,"station_id":"ce4bhbh2rcd13ifvqeqg","pricing_plan_id":"cebpf4jnsgd1na2vs0mg"},{"bike_id":"76f771a0-d27e-462d-a1fe-7bd311768559","system_id":"levelo_inurba_marseille","lat":43.28413,"lon":5.34998,"is_reserved":false,"is_disabled":true,"rental_uris":{"android":"levelo://app?vid=76f771a0-d27e-462d-a1fe-7bd311768559","ios":"levelo://app?vid=76f771a0-d27e-462d-a1fe-7bd311768559"},"vehicle_type_id":"4","last_reported":1748711312,"current_range_meters":16800,"station_id":"ce4bhbh2rcd13ifvqepg","pricing_plan_id":"cebpf4jnsgd1na2vs0mg"},{"bike_id":"3907df73-55e5-4723-a1ea-39d828f6d12d","system_id":"levelo_inurba_marseille","lat":43.265623,"lon":5.372865,"is_reserved":false,"is_disabled":false,"rental_uris":{"android":"levelo://app?vid=3907df73-55e5-4723-a1ea-39d828f6d12d","ios":"levelo://app?vid=3907df73-55e5-4723-a1ea-39d828f6d12d"},"vehicle_type_id":"4","last_reported":1748711312,"current_range_meters":16800,"station_id":"ce4bhgp2rcd13ifvqfc0","pricing_plan_id":"cebpf4jnsgd1na2vs0mg"},{"bike_id":"4041e62e-6981-42c0-9cf8-93c3eaefa37a","system_id":"levelo_inurba_marseille","lat":43.267778,"lon":5.39421,"is_reserved":false,"is_disabled":false,"rental_uris":{"android":"levelo://app?vid=4041e62e-6981-42c0-9cf8-93c3eaefa37a","ios":"levelo://app?vid=4041e62e-6981-42c0-9cf8-93c3eaefa37a"},"vehicle_type_id":"4","last_reported":1748711312,"current_range_meters":17200,"station_id":"ce4bhh12rcd13ifvqfg0","pricing_plan_id":"cebpf4jnsgd1na2vs0mg"},{"bike_id":"46820f1a-e751-4adb-b42f-f393ffd0828a","system_id":"levelo_inurba_marseille","lat":43.30309,"lon":5.36905,"is_reserved":false,"is_disabled":false,"rental_uris":{"android":"levelo://app?vid=46820f1a-e751-4adb-b42f-f393ffd0828a","ios":"levelo://app?vid=46820f1a-e751-4adb-b42f-f393ffd0828a"},"vehicle_type_id":"4","last_reported":1748711312,"current_range_meters":17200,"station_id":"ce4bgqh2rcd13ifvqc5g","pricing_plan_id":"cebpf4jnsgd1na2vs0mg"},{"bike_id":"5c5d2f5b-fa04-45ab-999f-2c98e32ab883","system_id":"levelo_inurba_marseille","lat":43.27375,"lon":5.36256,"is_reserved":false,"is_disabled":false,"rental_uris":{"android":"levelo://app?vid=5c5d2f5b-fa04-45ab-999f-2c98e32ab883","ios":"levelo://app?vid=5c5d2f5b-fa04-45ab-999f-2c98e32ab883"},"vehicle_type_id":"4","last_reported":1748711312,"current_range_meters":17200,"station_id":"ce4bhbh2rcd13ifvqeo0","pricing_plan_id":"cebpf4jnsgd1na2vs0mg"},{"bike_id":"52138315-f13b-4871-ab78-9e5155a1008c","system_id":"levelo_inurba_marseille","lat":43.322858,"lon":5.382701,"is_reserved":false,"is_disabled":false,"rental_uris":{"android":"levelo://app?vid=52138315-f13b-4871-ab78-9e5155a1008c","ios":"levelo://app?vid=52138315-f13b-4871-ab78-9e5155a1008c"},"vehicle_type_id":"4","last_reported":1748711312,"current_range_meters":17200,"station_id":"ce4bhr12rcd13ifvqhqg","pricing_plan_id":"cebpf4jnsgd1na2vs0mg"},{"bike_id":"4e1dc669-2819-47c4-a431-45df2f048d73","system_id":"levelo_inurba_marseille","lat":43.266907,"lon":5.382514,"is_reserved":false,"is_disabled":false,"rental_uris":{"android":"levelo://app?vid=4e1dc669-2819-47c4-a431-45df2f048d73","ios":"levelo://app?vid=4e1dc669-2819-47c4-a431-45df2f048d73"},"vehicle_type_id":"4","last_reported":1748711312,"current_range_meters":17200,"station_id":"ce4bhg92rcd13ifvqf90","pricing_plan_id":"cebpf4jnsgd1na2vs0mg"},{"bike_id":"6137bcc5-fb69-4d89-a44a-889443fa5378","system_id":"levelo_inurba_marseille","lat":43.29779,"lon":5.37097,"is_reserved":false,"is_disabled":false,"rental_uris":{"android":"levelo://app?vid=6137bcc5-fb69-4d89-a44a-889443fa5378","ios":"levelo://app?vid=6137bcc5-fb69-4d89-a44a-889443fa5378"},"vehicle_type_id":"4","last_reported":1748711312,"current_range_meters":17200,"station_id":"ce4bgop2rcd13ifvqc1g","pricing_plan_id":"cebpf4jnsgd1na2vs0mg"},{"bike_id":"f387e3f2-a427-46ec-a134-2f4f845d5654","system_id":"levelo_inurba_marseille","lat":43.29292,"lon":5.37467,"is_reserved":false,"is_disabled":false,"rental_uris":{"android":"levelo://app?vid=f387e3f2-a427-46ec-a134-2f4f845d5654","ios":"levelo://app?vid=f387e3f2-a427-46ec-a134-2f4f845d5654"},"vehicle_type_id":"4","last_reported":1748711312,"current_range_meters":17600,"station_id":"ce4bgi12rcd13ifvqb70","pricing_plan_id":"cebpf4jnsgd1na2vs0mg"},{"bike_id":"d787cfdb-50c2-451d-8448-0eff07939f1e","system_id":"levelo_inurba_marseille","lat":43.23125,"lon":5.43696,"is_reserved":false,"is_disabled":true,"rental_uris":{"android":"levelo://app?vid=d787cfdb-50c2-451d-8448-0eff07939f1e","ios":"levelo://app?vid=d787cfdb-50c2-451d-8448-0eff07939f1e"},"vehicle_type_id":"4","last_reported":1748711312,"current_range_meters":17600,"station_id":"ce4bhmp2rcd13ifvqgog","pricing_plan_id":"cebpf4jnsgd1na2vs0mg"},{"bike_id":"6b0b2413-4a5b-47f3-930e-3c224efa2d00","system_id":"levelo_inurba_marseille","lat":43.27071,"lon":5.42279,"is_reserved":false,"is_disabled":false,"rental_uris":{"android":"levelo://app?vid=6b0b2413-4a5b-47f3-930e-3c224efa2d00","ios":"levelo://app?vid=6b0b2413-4a5b-47f3-930e-3c224efa2d00"},"vehicle_type_id":"4","last_reported":1748711312,"current_range_meters":17600,"station_id":"ce4bhk92rcd13ifvqgb0","pricing_plan_id":"cebpf4jnsgd1na2vs0mg"},{"bike_id":"9591bb80-de12-41b4-a9e2-913b55c32836","system_id":"levelo_inurba_marseille","lat":43.3248,"lon":5.3656,"is_reserved":false,"is_disabled":false,"rental_uris":{"android":"levelo://app?vid=9591bb80-de12-41b4-a9e2-913b55c32836","ios":"levelo://app?vid=9591bb80-de12-41b4-a9e2-913b55c32836"},"vehicle_type_id":"4","last_reported":1748711312,"current_range_meters":17600,"station_id":"ce4bhs12rcd13ifvqhvg","pricing_plan_id":"cebpf4jnsgd1na2vs0mg"},{"bike_id":"edf637b9-92fd-46c7-9477-825412856041","system_id":"levelo_inurba_marseille","lat":43.28431,"lon":5.37498,"is_reserved":false,"is_disabled":false,"rental_uris":{"android":"levelo://app?vid=edf637b9-92fd-46c7-9477-825412856041","ios":"levelo://app?vid=edf637b9-92fd-46c7-9477-825412856041"},