{"last_updated":1738001527,"ttl":60,"version":"2.2","data":{"bikes":[{"bike_id":"cb675d55-e5c8-4982-aca6-2a4540f10435","system_id":"levelo_inurba_marseille","lat":43.29843,"lon":5.36265,"is_reserved":false,"is_disabled":false,"rental_uris":{"android":"levelo://app?vid=cb675d55-e5c8-4982-aca6-2a4540f10435","ios":"levelo://app?vid=cb675d55-e5c8-4982-aca6-2a4540f10435"},"vehicle_type_id":"4","last_reported":1738001528,"current_range_meters":11600,"station_id":"ce4bgpp2rcd13ifvqc3g","pricing_plan_id":"cebpf4jnsgd1na2vs0mg"},{"bike_id":"a72af8a2-47bc-4c7a-9e9c-e4668ea19e38","system_id":"levelo_inurba_marseille","lat":43.28567,"lon":5.39508,"is_reserved":false,"is_disabled":false,"rental_uris":{"android":"levelo://app?vid=a72af8a2-47bc-4c7a-9e9c-e4668ea19e38","ios":"levelo://app?vid=a72af8a2-47bc-4c7a-9e9c-e4668ea19e38"},"vehicle_type_id":"4","last_reported":1738001528,"current_range_meters":26000,"station_id":"ce4bh292rcd13ifvqdg0","pricing_plan_id":"cebpf4jnsgd1na2vs0mg"},{"bike_id":"54978f4e-25a3-452f-b8f3-f15cc3458f90","system_id":"levelo_inurba_marseille","lat":43.2942,"lon":5.3863,"is_reserved":false,"is_disabled":false,"rental_uris":{"android":"levelo://app?vid=54978f4e-25a3-452f-b8f3-f15cc3458f90","ios":"levelo://app?vid=54978f4e-25a3-452f-b8f3-f15cc3458f90"},"vehicle_type_id":"4","last_reported":1738001528,"current_range_meters":20400,"station_id":"ce4bh2h2rcd13ifvqdh0","pricing_plan_id":"cebpf4jnsgd1na2vs0mg"},{"bike_id":"bbcdd99c-a76a-4803-a057-1b65b9d223b8","system_id":"levelo_inurba_marseille","lat":43.2942,"lon":5.38631,"is_reserved":false,"is_disabled":false,"rental_uris":{"android":"levelo://app?vid=bbcdd99c-a76a-4803-a057-1b65b9d223b8","ios":"levelo://app?vid=bbcdd99c-a76a-4803-a057-1b65b9d223b8"},"vehicle_type_id":"4","last_reported":1738001528,"current_range_meters":36400,"station_id":"ce4bh2h2rcd13ifvqdh0","pricing_plan_id":"cebpf4jnsgd1na2vs0mg"},{"bike_id":"ce9c6111-0118-42d1-bfda-6fdbc9033126","system_id":"levelo_inurba_marseille","lat":43.27994,"lon":5.40035,"is_reserved":false,"is_disabled":false,"rental_uris":{"android":"levelo://app?vid=ce9c6111-0118-42d1-bfda-6fdbc9033126","ios":"levelo://app?vid=ce9c6111-0118-42d1-bfda-6fdbc9033126"},"vehicle_type_id":"4","last_reported":1738001528,"current_range_meters":32000,"station_id":"ce4bho92rcd13ifvqh4g","pricing_plan_id":"cebpf4jnsgd1na2vs0mg"},{"bike_id":"8aa4aa51-f18d-4d73-b6fa-fc3281af7a8a","system_id":"levelo_inurba_marseille","lat":43.30538,"lon":5.38408,"is_reserved":false,"is_disabled":true,"rental_uris":{"android":"levelo://app?vid=8aa4aa51-f18d-4d73-b6fa-fc3281af7a8a","ios":"levelo://app?vid=8aa4aa51-f18d-4d73-b6fa-fc3281af7a8a"},"vehicle_type_id":"4","last_reported":1738001528,"current_range_meters":0,"station_id":"ce4bgg92rcd13ifvqb30","pricing_plan_id":"cebpf4jnsgd1na2vs0mg"},{"bike_id":"8b1098b1-640e-4fd5-a15c-8d21ce3dcecf","system_id":"levelo_inurba_marseille","lat":43.27999,"lon":5.40023,"is_reserved":false,"is_disabled":false,"rental_uris":{"android":"levelo://app?vid=8b1098b1-640e-4fd5-a15c-8d21ce3dcecf","ios":"levelo://app?vid=8b1098b1-640e-4fd5-a15c-8d21ce3dcecf"},"vehicle_type_id":"4","last_reported":1738001528,"current_range_meters":38800,"station_id":"ce4bho92rcd13ifvqh4g","pricing_plan_id":"cebpf4jnsgd1na2vs0mg"},{"bike_id":"258b0e8b-4679-4c9c-846b-bc4ab340cf20","system_id":"levelo_inurba_marseille","lat":43.2465,"lon":5.38894,"is_reserved":false,"is_disabled":false,"rental_uris":{"android":"levelo://app?vid=258b0e8b-4679-4c9c-846b-bc4ab340cf20","ios":"levelo://app?vid=258b0e8b-4679-4c9c-846b-bc4ab340cf20"},"vehicle_type_id":"4","last_reported":1738001528,"current_range_meters":8000,"station_id":"ce4bhg12rcd13ifvqf60","pricing_plan_id":"cebpf4jnsgd1na2vs0mg"},{"bike_id":"e391e877-1fd4-4036-ab30-c53fe3c1dbef","system_id":"levelo_inurba_marseille","lat":43.29261,"lon":5.38439,"is_reserved":false,"is_disabled":false,"rental_uris":{"android":"levelo://app?vid=e391e877-1fd4-4036-ab30-c53fe3c1dbef","ios":"levelo://app?vid=e391e877-1fd4-4036-ab30-c53fe3c1dbef"},"vehicle_type_id":"4","last_reported":1738001528,"current_range_meters":6800,"station_id":"ce4bh692rcd13ifvqea0","pricing_plan_id":"cebpf4jnsgd1na2vs0mg"},{"bike_id":"4540e60f-e373-4c63-a6bc-2a5f69272e2f","system_id":"levelo_inurba_marseille","lat":43.30137,"lon":5.39884,"is_reserved":false,"is_disabled":false,"rental_uris":{"android":"levelo://app?vid=4540e60f-e373-4c63-a6bc-2a5f69272e2f","ios":"levelo://app?vid=4540e60f-e373-4c63-a6bc-2a5f69272e2f"},"vehicle_type_id":"4","last_reported":1738001528,"current_range_meters":22000,"station_id":"ce4bh0h2rcd13ifvqd40","pricing_plan_id":"cebpf4jnsgd1na2vs0mg"},{"bike_id":"4ede3f2d-b228-47a4-93fe-f46a51705f92","system_id":"levelo_inurba_marseille","lat":43.29245,"lon":5.40894,"is_reserved":false,"is_disabled":false,"rental_uris":{"android":"levelo://app?vid=4ede3f2d-b228-47a4-93fe-f46a51705f92","ios":"levelo://app?vid=4ede3f2d-b228-47a4-93fe-f46a51705f92"},"vehicle_type_id":"4","last_reported":1738001528,"current_range_meters":39200,"station_id":"ce4bh192rcd13ifvqdc0","pricing_plan_id":"cebpf4jnsgd1na2vs0mg"},{"bike_id":"f36562f3-3286-4e4c-87e2-da36040f3891","system_id":"levelo_inurba_marseille","lat":43.28711,"lon":5.373964,"is_reserved":false,"is_disabled":false,"rental_uris":{"android":"levelo://app?vid=f36562f3-3286-4e4c-87e2-da36040f3891","ios":"levelo://app?vid=f36562f3-3286-4e4c-87e2-da36040f3891"},"vehicle_type_id":"4","last_reported":1738001528,"current_range_meters":17200,"station_id":"ce4bh3p2rcd13ifvqdq0","pricing_plan_id":"cebpf4jnsgd1na2vs0mg"},{"bike_id":"d6755dc8-d9a9-49dc-8a8f-22ec6b86e111","system_id":"levelo_inurba_marseille","lat":43.28158,"lon":5.42626,"is_reserved":false,"is_disabled":false,"rental_uris":{"android":"levelo://app?vid=d6755dc8-d9a9-49dc-8a8f-22ec6b86e111","ios":"levelo://app?vid=d6755dc8-d9a9-49dc-8a8f-22ec6b86e111"},"vehicle_type_id":"4","last_reported":1738001528,"current_range_meters":28800,"station_id":"ce4bhnh2rcd13ifvqgug","pricing_plan_id":"cebpf4jnsgd1na2vs0mg"},{"bike_id":"db913c79-4ab1-4c85-b882-18e791694c41","system_id":"levelo_inurba_marseille","lat":43.2655,"lon":5.39038,"is_reserved":false,"is_disabled":false,"rental_uris":{"android":"levelo://app?vid=db913c79-4ab1-4c85-b882-18e791694c41","ios":"levelo://app?vid=db913c79-4ab1-4c85-b882-18e791694c41"},"vehicle_type_id":"4","last_reported":1738001528,"current_range_meters":24800,"station_id":"ce4bhe12rcd13ifvqf30","pricing_plan_id":"cebpf4jnsgd1na2vs0mg"},{"bike_id":"1766969c-93bb-4f2e-85b4-137d694d2edc","system_id":"levelo_inurba_marseille","lat":43.32347,"lon":5.40638,"is_reserved":false,"is_disabled":false,"rental_uris":{"android":"levelo://app?vid=1766969c-93bb-4f2e-85b4-137d694d2edc","ios":"levelo://app?vid=1766969c-93bb-4f2e-85b4-137d694d2edc"},"vehicle_type_id":"4","last_reported":1738001528,"current_range_meters":16400,"station_id":"ce4bhq92rcd13ifvqhjg","pricing_plan_id":"cebpf4jnsgd1na2vs0mg"},{"bike_id":"c96545e6-b3fa-4a6b-836e-d89ea478e5d1","system_id":"levelo_inurba_marseille","lat":43.24997,"lon":5.38924,"is_reserved":false,"is_disabled":false,"rental_uris":{"android":"levelo://app?vid=c96545e6-b3fa-4a6b-836e-d89ea478e5d1","ios":"levelo://app?vid=c96545e6-b3fa-4a6b-836e-d89ea478e5d1"},"vehicle_type_id":"4","last_reported":1738001528,"current_range_meters":39200,"station_id":"ce4bhgp2rcd13ifvqfd0","pricing_plan_id":"cebpf4jnsgd1na2vs0mg"},{"bike_id":"cfff1edf-189f-4cb0-80dd-22014a7dc63a","system_id":"levelo_inurba_marseille","lat":43.2482,"lon":5.3744,"is_reserved":false,"is_disabled":false,"rental_uris":{"android":"levelo://app?vid=cfff1edf-189f-4cb0-80dd-22014a7dc63a","ios":"levelo://app?vid=cfff1edf-189f-4cb0-80dd-22014a7dc63a"},"vehicle_type_id":"4","last_reported":1738001528,"current_range_meters":22800,"station_id":"ce4bhgh2rcd13ifvqfb0","pricing_plan_id":"cebpf4jnsgd1na2vs0mg"},{"bike_id":"37549d7b-febf-443f-b8db-4252cff2ac9a","system_id":"levelo_inurba_marseille","lat":43.25844,"lon":5.39387,"is_reserved":false,"is_disabled":false,"rental_uris":{"android":"levelo://app?vid=37549d7b-febf-443f-b8db-4252cff2ac9a","ios":"levelo://app?vid=37549d7b-febf-443f-b8db-4252cff2ac9a"},"vehicle_type_id":"4","last_reported":1738001528,"current_range_meters":20800,"station_id":"ce4bhip2rcd13ifvqft0","pricing_plan_id":"cebpf4jnsgd1na2vs0mg"},{"bike_id":"5a6503ca-c2c6-4dbe-a6f7-68e5f1916ac2","system_id":"levelo_inurba_marseille","lat":43.29892,"lon":5.43657,"is_reserved":false,"is_disabled":false,"rental_uris":{"android":"levelo://app?vid=5a6503ca-c2c6-4dbe-a6f7-68e5f1916ac2","ios":"levelo://app?vid=5a6503ca-c2c6-4dbe-a6f7-68e5f1916ac2"},"vehicle_type_id":"4","last_reported":1738001528,"current_range_meters":38800,"station_id":"ce4bhpp2rcd13ifvqhfg","pricing_plan_id":"cebpf4jnsgd1na2vs0mg"},{"bike_id":"5c388708-e3f2-4bbd-88d9-c199a31e81f9","system_id":"levelo_inurba_marseille","lat":43.2871,"lon":5.40009,"is_reserved":false,"is_disabled":true,"rental_uris":{"android":"levelo://app?vid=5c388708-e3f2-4bbd-88d9-c199a31e81f9","ios":"levelo://app?vid=5c388708-e3f2-4bbd-88d9-c199a31e81f9"},"vehicle_type_id":"4","last_reported":1738001528,"current_range_meters":38800,"station_id":"ce4bho92rcd13ifvqh3g","pricing_plan_id":"cebpf4jnsgd1na2vs0mg"},{"bike_id":"c6b2aeea-8be6-4ed0-8019-7e88f71bd8d8","system_id":"levelo_inurba_marseille","lat":43.2986,"lon":5.36295,"is_reserved":false,"is_disabled":true,"rental_uris":{"android":"levelo://app?vid=c6b2aeea-8be6-4ed0-8019-7e88f71bd8d8","ios":"levelo://app?vid=c6b2aeea-8be6-4ed0-8019-7e88f71bd8d8"},"vehicle_type_id":"4","last_reported":1738001528,"current_range_meters":30000,"station_id":"ce4bgpp2rcd13ifvqc3g","pricing_plan_id":"cebpf4jnsgd1na2vs0mg"},{"bike_id":"78d0469b-a6d8-42b5-94c6-9df02b87dea9","system_id":"levelo_inurba_marseille","lat":43.295238,"lon":5.390433,"is_reserved":false,"is_disabled":false,"rental_uris":{"android":"levelo://app?vid=78d0469b-a6d8-42b5-94c6-9df02b87dea9","ios":"levelo://app?vid=78d0469b-a6d8-42b5-94c6-9df02b87dea9"},"vehicle_type_id":"4","last_reported":1738001528,"current_range_meters":38000,"station_id":"ce4bh3p2rcd13ifvqdp0","pricing_plan_id":"cebpf4jnsgd1na2vs0mg"},{"bike_id":"49ac70a6-f431-448f-8b78-0c0b9150bb51","system_id":"levelo_inurba_marseille","lat":43.3127,"lon":5.40173,"is_reserved":false,"is_disabled":false,"rental_uris":{"android":"levelo://app?vid=49ac70a6-f431-448f-8b78-0c0b9150bb51","ios":"levelo://app?vid=49ac70a6-f431-448f-8b78-0c0b9150bb51"},"vehicle_type_id":"4","last_reported":1738001528,"current_range_meters":39200,"station_id":"ce4bh092rcd13ifvqd30","pricing_plan_id":"cebpf4jnsgd1na2vs0mg"},{"bike_id":"508fc828-f6ba-44cf-b339-942ca738842f","system_id":"levelo_inurba_marseille","lat":43.29224,"lon":5.36085,"is_reserved":false,"is_disabled":false,"rental_uris":{"android":"levelo://app?vid=508fc828-f6ba-44cf-b339-942ca738842f","ios":"levelo://app?vid=508fc828-f6ba-44cf-b339-942ca738842f"},"vehicle_type_id":"4","last_reported":1738001528,"current_range_meters":34000,"station_id":"ce4bhbh2rcd13ifvqeqg","pricing_plan_id":"cebpf4jnsgd1na2vs0mg"},{"bike_id":"75bdf149-4296-4706-85df-651c3f671631","system_id":"levelo_inurba_marseille","lat":43.3089,"lon":5.37191,"is_reserved":false,"is_disabled":false,"rental_uris":{"android":"levelo://app?vid=75bdf149-4296-4706-85df-651c3f671631","ios":"levelo://app?vid=75bdf149-4296-4706-85df-651c3f671631"},"vehicle_type_id":"4","last_reported":1738001528,"current_range_meters":30400,"station_id":"ce4bguh2rcd13ifvqckg","pricing_plan_id":"cebpf4jnsgd1na2vs0mg"},{"bike_id":"92a40599-4729-41b6-9504-b7197348389a","system_id":"levelo_inurba_marseille","lat":43.26482,"lon":5.39549,"is_reserved":false,"is_disabled":false,"rental_uris":{"android":"levelo://app?vid=92a40599-4729-41b6-9504-b7197348389a","ios":"levelo://app?vid=92a40599-4729-41b6-9504-b7197348389a"},"vehicle_type_id":"4","last_reported":1738001528,"current_range_meters":36000,"station_id":"ce4bhi12rcd13ifvqfq0","pricing_plan_id":"cebpf4jnsgd1na2vs0mg"},{"bike_id":"57b6bad8-f130-4667-bcf9-7cf4bba8df9d","system_id":"levelo_inurba_marseille","lat":43.29253,"lon":5.38452,"is_reserved":false,"is_disabled":false,"rental_uris":{"android":"levelo://app?vid=57b6bad8-f130-4667-bcf9-7cf4bba8df9d","ios":"levelo://app?vid=57b6bad8-f130-4667-bcf9-7cf4bba8df9d"},"vehicle_type_id":"4","last_reported":1738001528,"current_range_meters":9200,"station_id":"ce4bh692rcd13ifvqea0","pricing_plan_id":"cebpf4jnsgd1na2vs0mg"},{"bike_id":"d999bd9f-6214-4f0c-9578-310af25f727d","system_id":"levelo_inurba_marseille","lat":43.28621,"lon":5.35103,"is_reserved":false,"is_disabled":false,"rental_uris":{"android":"levelo://app?vid=d999bd9f-6214-4f0c-9578-310af25f727d","ios":"levelo://app?vid=d999bd9f-6214-4f0c-9578-310af25f727d"},"vehicle_type_id":"4","last_reported":1738001528,"current_range_meters":30800,"station_id":"ce4bhch2rcd13ifvqeug","pricing_plan_id":"cebpf4jnsgd1na2vs0mg"},{"bike_id":"8453a0c4-33e9-480c-a7ee-1e14bdee2642","system_id":"levelo_inurba_marseille","lat":43.27931,"lon":5.3959,"is_reserved":false,"is_disabled":false,"rental_uris":{"android":"levelo://app?vid=8453a0c4-33e9-480c-a7ee-1e14bdee2642","ios":"levelo://app?vid=8453a0c4-33e9-480c-a7ee-1e14bdee2642"},"vehicle_type_id":"4","last_reported":1738001528,"current_range_meters":3200,"station_id":"ce4bhf92rcd13ifvqf40","pricing_plan_id":"cebpf4jnsgd1na2vs0mg"},{"bike_id":"b92110b7-a00c-4b0a-b2e8-36af254e050e","system_id":"levelo_inurba_marseille","lat":43.30798,"lon":5.43532,"is_reserved":false,"is_disabled":false,"rental_uris":{"android":"levelo://app?vid=b92110b7-a00c-4b0a-b2e8-36af254e050e","ios":"levelo://app?vid=b92110b7-a00c-4b0a-b2e8-36af254e050e"},"vehicle_type_id":"4","last_reported":1738001528,"current_range_meters":22800,"station_id":"ce4bhph2rcd13ifvqheg","pricing_plan_id":"cebpf4jnsgd1na2vs0mg"},{"bike_id":"1af67d21-49bc-4ef8-9584-50ff074ca903","system_id":"levelo_inurba_marseille","lat":43.30542,"lon":5.38425,"is_reserved":false,"is_disabled":false,"rental_uris":{"android":"levelo://app?vid=1af67d21-49bc-4ef8-9584-50ff074ca903","ios":"levelo://app?vid=1af67d21-49bc-4ef8-9584-50ff074ca903"},"vehicle_type_id":"4","last_reported":1738001528,"current_range_meters":24800,"station_id":"ce4bgg92rcd13ifvqb30","pricing_plan_id":"cebpf4jnsgd1na2vs0mg"},{"bike_id":"4dc565cc-a3bd-411f-a8e9-38ac6331d3d4","system_id":"levelo_inurba_marseille","lat":43.23065,"lon":5.35498,"is_reserved":false,"is_disabled":false,"rental_uris":{"android":"levelo://app?vid=4dc565cc-a3bd-411f-a8e9-38ac6331d3d4","ios":"levelo://app?vid=4dc565cc-a3bd-411f-a8e9-38ac6331d3d4"},"vehicle_type_id":"4","last_reported":1738001528,"current_range_meters":38800,"station_id":"cpo3342slgdg3j2ifvpg","pricing_plan_id":"cebpf4jnsgd1na2vs0mg"},{"bike_id":"75f78423-7bb1-46bc-9291-8f61438106b2","system_id":"levelo_inurba_marseille","lat":43.33016,"lon":5.39038,"is_reserved":false,"is_disabled":false,"rental_uris":{"android":"levelo://app?vid=75f78423-7bb1-46bc-9291-8f61438106b2","ios":"levelo://app?vid=75f78423-7bb1-46bc-9291-8f61438106b2"},"vehicle_type_id":"4","last_reported":1738001528,"current_range_meters":32800,"station_id":"ce4bhr92rcd13ifvqhrg","pricing_plan_id":"cebpf4jnsgd1na2vs0mg"},{"bike_id":"bb8f7b33-f8c6-486a-abbc-ed2991a72cab","system_id":"levelo_inurba_marseille","lat":43.28731,"lon":5.37925,"is_reserved":false,"is_disabled":false,"rental_uris":{"android":"levelo://app?vid=bb8f7b33-f8c6-486a-abbc-ed2991a72cab","ios":"levelo://app?vid=bb8f7b33-f8c6-486a-abbc-ed2991a72cab"},"vehicle_type_id":"4","last_reported":1738001528,"current_range_meters":25600,"station_id":"ce4bh9p2rcd13ifvqec0","pricing_plan_id":"cebpf4jnsgd1na2vs0mg"},{"bike_id":"2871edc1-4e28-494d-b206-2595f786a8ec","system_id":"levelo_inurba_marseille","lat":43.31124,"lon":5.37743,"is_reserved":false,"is_disabled":false,"rental_uris":{"android":"levelo://app?vid=2871edc1-4e28-494d-b206-2595f786a8ec","ios":"levelo://app?vid=2871edc1-4e28-494d-b206-2595f786a8ec"},"vehicle_type_id":"4","last_reported":1738001528,"current_range_meters":35600,"station_id":"ce4bgt92rcd13ifvqcg0","pricing_plan_id":"cebpf4jnsgd1na2vs0mg"},{"bike_id":"ce275fed-98f8-48c6-91df-9c84e602d48d","system_id":"levelo_inurba_marseille","lat":43.30903,"lon":5.37202,"is_reserved":false,"is_disabled":false,"rental_uris":{"android":"levelo://app?vid=ce275fed-98f8-48c6-91df-9c84e602d48d","ios":"levelo://app?vid=ce275fed-98f8-48c6-91df-9c84e602d48d"},"vehicle_type_id":"4","last_reported":1738001528,"current_range_meters":39200,"station_id":"ce4bguh2rcd13ifvqckg","pricing_plan_id":"cebpf4jnsgd1na2vs0mg"},{"bike_id":"80389e19-43f5-4773-a5b8-70b5362496e9","system_id":"levelo_inurba_marseille","lat":43.30048,"lon":5.38612,"is_reserved":false,"is_disabled":false,"rental_uris":{"android":"levelo://app?vid=80389e19-43f5-4773-a5b8-70b5362496e9","ios":"levelo://app?vid=80389e19-43f5-4773-a5b8-70b5362496e9"},"vehicle_type_id":"4","last_reported":1738001528,"current_range_meters":16400,"station_id":"ce4bgt12rcd13ifvqce0","pricing_plan_id":"cebpf4jnsgd1na2vs0mg"},{"bike_id":"aebdfd3b-e667-4f60-92ad-e93561b39fe8","system_id":"levelo_inurba_marseille","lat":43.29409,"lon":5.3862,"is_reserved":false,"is_disabled":false,"rental_uris":{"android":"levelo://app?vid=aebdfd3b-e667-4f60-92ad-e93561b39fe8","ios":"levelo://app?vid=aebdfd3b-e667-4f60-92ad-e93561b39fe8"},"vehicle_type_id":"4","last_reported":1738001528,"current_range_meters":24000,"station_id":"ce4bh2h2rcd13ifvqdh0","pricing_plan_id":"cebpf4jnsgd1na2vs0mg"},{"bike_id":"d474a662-3a78-44f0-af88-33fb73350cac","system_id":"levelo_inurba_marseille","lat":43.29254,"lon":5.40904,"is_reserved":false,"is_disabled":false,"rental_uris":{"android":"levelo://app?vid=d474a662-3a78-44f0-af88-33fb73350cac","ios":"levelo://app?vid=d474a662-3a78-44f0-af88-33fb73350cac"},"vehicle_type_id":"4","last_reported":1738001528,"current_range_meters":4000,"station_id":"ce4bh192rcd13ifvqdc0","pricing_plan_id":"cebpf4jnsgd1na2vs0mg"},{"bike_id":"fe73d96b-0999-4c0c-bd41-cac25d9544fc","system_id":"levelo_inurba_marseille","lat":43.28717,"lon":5.37942,"is_reserved":false,"is_disabled":false,"rental_uris":{"android":"levelo://app?vid=fe73d96b-0999-4c0c-bd41-cac25d9544fc","ios":"levelo://app?vid=fe73d96b-0999-4c0c-bd41-cac25d9544fc"},"vehicle_type_id":"4","last_reported":1738001528,"current_range_meters":31200,"station_id":"ce4bh9p2rcd13ifvqec0","pricing_plan_id":"cebpf4jnsgd1na2vs0mg"},{"bike_id":"837c78b6-fe3b-45f3-a3d4-f347cb0f5bff","system_id":"levelo_inurba_marseille","lat":43.29095,"lon":5.38158,"is_reserved":false,"is_disabled":true,"rental_uris":{"android":"levelo://app?vid=837c78b6-fe3b-45f3-a3d4-f347cb0f5bff","ios":"levelo://app?vid=837c78b6-fe3b-45f3-a3d4-f347cb0f5bff"},"vehicle_type_id":"4","last_reported":1738001528,"current_range_meters":0,"station_id":"ce4bh512rcd13ifvqe2g","pricing_plan_id":"cebpf4jnsgd1na2vs0mg"},{"bike_id":"5fa91e23-39be-4ce6-b81e-223655171952","system_id":"levelo_inurba_marseille","lat":43.27054,"lon":5.4028,"is_reserved":false,"is_disabled":false,"rental_uris":{"android":"levelo://app?vid=5fa91e23-39be-4ce6-b81e-223655171952","ios":"levelo://app?vid=5fa91e23-39be-4ce6-b81e-223655171952"},"vehicle_type_id":"4","last_reported":1738001528,"current_range_meters":38400,"station_id":"ce4bhk92rcd13ifvqgc0","pricing_plan_id":"cebpf4jnsgd1na2vs0mg"},{"bike_id":"c7830262-ea23-45f4-9a23-990ed17ebf09","system_id":"levelo_inurba_marseille","lat":43.29821,"lon":5.39756,"is_reserved":false,"is_disabled":true,"rental_uris":{"android":"levelo://app?vid=c7830262-ea23-45f4-9a23-990ed17ebf09","ios":"levelo://app?vid=c7830262-ea23-45f4-9a23-990ed17ebf09"},"vehicle_type_id":"4","last_reported":1738001528,"current_range_meters":0,"station_id":"","pricing_plan_id":"cebpf4jnsgd1na2vs0mg"},{"bike_id":"57ae508b-8b5e-4582-92ef-8f8000ce59c7","system_id":"levelo_inurba_marseille","lat":43.27987,"lon":5.40041,"is_reserved":false,"is_disabled":false,"rental_uris":{"android":"levelo://app?vid=57ae508b-8b5e-4582-92ef-8f8000ce59c7","ios":"levelo://app?vid=57ae508b-8b5e-4582-92ef-8f8000ce59c7"},"vehicle_type_id":"4","last_reported":1738001528,"current_range_meters":4800,"station_id":"ce4bho92rcd13ifvqh4g","pricing_plan_id":"cebpf4jnsgd1na2vs0mg"},{"bike_id":"6e81003b-1ed6-4bcc-bd22-c21300ab9348","system_id":"levelo_inurba_marseille","lat":43.28104,"lon":5.37842,"is_reserved":false,"is_disabled":false,"rental_uris":{"android":"levelo://app?vid=6e81003b-1ed6-4bcc-bd22-c21300ab9348","ios":"levelo://app?vid=6e81003b-1ed6-4bcc-bd22-c21300ab9348"},"vehicle_type_id":"4","last_reported":1738001528,"current_range_meters":4000,"station_id":"ce4bha12rcd13ifvqee0","pricing_plan_id":"cebpf4jnsgd1na2vs0mg"},{"bike_id":"74a8ba08-10bd-4bfd-830f-e130dab90166","system_id":"levelo_inurba_marseille","lat":43.27812,"lon":5.40726,"is_reserved":false,"is_disabled":false,"rental_uris":{"android":"levelo://app?vid=74a8ba08-10bd-4bfd-830f-e130dab90166","ios":"levelo://app?vid=74a8ba08-10bd-4bfd-830f-e130dab90166"},"vehicle_type_id":"4","last_reported":1738001528,"current_range_meters":30400,"station_id":"ce4bhnh2rcd13ifvqgtg","pricing_plan_id":"cebpf4jnsgd1na2vs0mg"},{"bike_id":"47ce9f76-20d2-4e32-9ac4-627b684ea49c","system_id":"levelo_inurba_marseille","lat":43.28101,"lon":5.37839,"is_reserved":false,"is_disabled":false,"rental_uris":{"android":"levelo://app?vid=47ce9f76-20d2-4e32-9ac4-627b684ea49c","ios":"levelo://app?vid=47ce9f76-20d2-4e32-9ac4-627b684ea49c"},"vehicle_type_id":"4","last_reported":1738001528,"current_range_meters":36400,"station_id":"ce4bha12rcd13ifvqee0","pricing_plan_id":"cebpf4jnsgd1na2vs0mg"},{"bike_id":"7fc942fc-b8cf-424a-806f-ec87840357cf","system_id":"levelo_inurba_marseille","lat":43.27181,"lon":5.41007,"is_reserved":false,"is_disabled":false,"rental_uris":{"android":"levelo://app?vid=7fc942fc-b8cf-424a-806f-ec87840357cf","ios":"levelo://app?vid=7fc942fc-b8cf-424a-806f-ec87840357cf"},"vehicle_type_id":"4","last_reported":1738001528,"current_range_meters":35600,"station_id":"ce4bhl12rcd13ifvqgf0","pricing_plan_id":"cebpf4jnsgd1na2vs0mg"},{"bike_id":"44539425-9baa-4d38-afc4-87d18b64ccf2","system_id":"levelo_inurba_marseille","lat":43.27064,"lon":5.40258,"is_reserved":false,"is_disabled":false,"rental_uris":{"android":"levelo://app?vid=44539425-9baa-4d38-afc4-87d18b64ccf2","ios":"levelo://app?vid=44539425-9baa-4d38-afc4-87d18b64ccf2"},"vehicle_type_id":"4","last_reported":1738001528,"current_range_meters":16800,"station_id":"ce4bhk92rcd13ifvqgc0","pricing_plan_id":"cebpf4jnsgd1na2vs0mg"},{"bike_id":"0a3c2fc6-3a3b-4b11-853c-a8532910522d","system_id":"levelo_inurba_marseille","lat":43.31756,"lon":5.39011,"is_reserved":false,"is_disabled":false,"rental_uris":{"android":"levelo://app?vid=0a3c2fc6-3a3b-4b11-853c-a8532910522d","ios":"levelo://app?vid=0a3c2fc6-3a3b-4b11-853c-a8532910522d"},"vehicle_type_id":"4","last_reported":1738001528,"current_range_meters":28000,"station_id":"ce4bhqp2rcd13ifvqhng","pricing_plan_id":"cebpf4jnsgd1na2vs0mg"},{"bike_id":"8ff849b8-935b-4a73-ab47-41ba3cc8b679","system_id":"levelo_inurba_marseille","lat":43.29418,"lon":5.38628,"is_reserved":false,"is_disabled":false,"rental_uris":{"android":"levelo://app?vid=8ff849b8-935b-4a73-ab47-41ba3cc8b679","ios":"levelo://app?vid=8ff849b8-935b-4a73-ab47-41ba3cc8b679"},"vehicle_type_id":"4","last_reported":1738001528,"current_range_meters":30400,"station_id":"ce4bh2h2rcd13ifvqdh0","pricing_plan_id":"cebpf4jnsgd1na2vs0mg"},{"bike_id":"2f9927a6-f600-4f40-9e8b-ab23c8c3a3f2","system_id":"levelo_inurba_marseille","lat":43.296249,"lon":5.372087,"is_reserved":false,"is_disabled":true,"rental_uris":{"android":"levelo://app?vid=2f9927a6-f600-4f40-9e8b-ab23c8c3a3f2","ios":"levelo://app?vid=2f9927a6-f600-4f40-9e8b-ab23c8c3a3f2"},"vehicle_type_id":"4","last_reported":1738001528,"current_range_meters":1200,"station_id":"ce4bgph2rcd13ifvqc2g","pricing_plan_id":"cebpf4jnsgd1na2vs0mg"},{"bike_id":"3ec52b4d-cf80-449d-bd30-9db7519a9ed7","system_id":"levelo_inurba_marseille","lat":43.27062,"lon":5.40265,"is_reserved":false,"is_disabled":false,"rental_uris":{"android":"levelo://app?vid=3ec52b4d-cf80-449d-bd30-9db7519a9ed7","ios":"levelo://app?vid=3ec52b4d-cf80-449d-bd30-9db7519a9ed7"},"vehicle_type_id":"4","last_reported":1738001528,"current_range_meters":10800,"station_id":"ce4bhk92rcd13ifvqgc0","pricing_plan_id":"cebpf4jnsgd1na2vs0mg"},{"bike_id":"91882237-0f07-48d1-a897-e185569ee196","system_id":"levelo_inurba_marseille","lat":43.29536,"lon":5.3855,"is_reserved":false,"is_disabled":false,"rental_uris":{"android":"levelo://app?vid=91882237-0f07-48d1-a897-e185569ee196","ios":"levelo://app?vid=91882237-0f07-48d1-a897-e185569ee196"},"vehicle_type_id":"4","last_reported":1738001528,"current_range_meters":19200,"station_id":"ce4bgih2rcd13ifvqba0","pricing_plan_id":"cebpf4jnsgd1na2vs0mg"},{"bike_id":"47170eef-7e8a-4b8d-90bc-71d6406c4168","system_id":"levelo_inurba_marseille","lat":43.31752,"lon":5.372,"is_reserved":false,"is_disabled":true,"rental_uris":{"android":"levelo://app?vid=47170eef-7e8a-4b8d-90bc-71d6406c4168","ios":"levelo://app?vid=47170eef-7e8a-4b8d-90bc-71d6406c4168"},"vehicle_type_id":"4","last_reported":1738001528,"current_range_meters":1200,"station_id":"","pricing_plan_id":"cebpf4jnsgd1na2vs0mg"},{"bike_id":"9838cc78-2b53-49d3-ae13-82df62c4fd64","system_id":"levelo_inurba_marseille","lat":43.28406,"lon":5.40936,"is_reserved":false,"is_disabled":true,"rental_uris":{"android":"levelo://app?vid=9838cc78-2b53-49d3-ae13-82df62c4fd64","ios":"levelo://app?vid=9838cc78-2b53-49d3-ae13-82df62c4fd64"},"vehicle_type_id":"4","last_reported":1738001528,"current_range_meters":0,"station_id":"","pricing_plan_id":"cebpf4jnsgd1na2vs0mg"},{"bike_id":"4f88c35f-26e1-455b-b946-e1cd21dd1fe2","system_id":"levelo_inurba_marseille","lat":43.29856,"lon":5.36281,"is_reserved":false,"is_disabled":false,"rental_uris":{"android":"levelo://app?vid=4f88c35f-26e1-455b-b946-e1cd21dd1fe2","ios":"levelo://app?vid=4f88c35f-26e1-455b-b946-e1cd21dd1fe2"},"vehicle_type_id":"4","last_reported":1738001528,"current_range_meters":24400,"station_id":"ce4bgpp2rcd13ifvqc3g","pricing_plan_id":"cebpf4jnsgd1na2vs0mg"},{"bike_id":"f3a886a3-500d-4d32-a120-4a7101c0f911","system_id":"levelo_inurba_marseille","lat":43.26937,"lon":5.4025,"is_reserved":false,"is_disabled":false,"rental_uris":{"android":"levelo://app?vid=f3a886a3-500d-4d32-a120-4a7101c0f911","ios":"levelo://app?vid=f3a886a3-500d-4d32-a120-4a7101c0f911"},"vehicle_type_id":"4","last_reported":1738001528,"current_range_meters":39200,"station_id":"cjm6bp8fraef2m0cb0m0","pricing_plan_id":"cebpf4jnsgd1na2vs0mg"},{"bike_id":"433d6f7c-0677-4bab-90f4-b6c711a23b12","system_id":"levelo_inurba_marseille","lat":43.28667,"lon":5.36353,"is_reserved":false,"is_disabled":false,"rental_uris":{"android":"levelo://app?vid=433d6f7c-0677-4bab-90f4-b6c711a23b12","ios":"levelo://app?vid=433d6f7c-0677-4bab-90f4-b6c711a23b12"},"vehicle_type_id":"4","last_reported":1738001528,"current_range_meters":15200,"station_id":"ce4bhah2rcd13ifvqej0","pricing_plan_id":"cebpf4jnsgd1na2vs0mg"},{"bike_id":"f6b8de05-fb58-44b6-b9be-2b03f8d6d572","system_id":"levelo_inurba_marseille","lat":43.29886,"lon":5.3888,"is_reserved":false,"is_disabled":false,"rental_uris":{"android":"levelo://app?vid=f6b8de05-fb58-44b6-b9be-2b03f8d6d572","ios":"levelo://app?vid=f6b8de05-fb58-44b6-b9be-2b03f8d6d572"},"vehicle_type_id":"4","last_reported":1738001528,"current_range_meters":19200,"station_id":"ce4bh392rcd13ifvqdl0","pricing_plan_id":"cebpf4jnsgd1na2vs0mg"},{"bike_id":"60c94231-8bc3-4129-ba52-45fb69479696","system_id":"levelo_inurba_marseille","lat":43.30428,"lon":5.39745,"is_reserved":false,"is_disabled":false,"rental_uris":{"android":"levelo://app?vid=60c94231-8bc3-4129-ba52-45fb69479696","ios":"levelo://app?vid=60c94231-8bc3-4129-ba52-45fb69479696"},"vehicle_type_id":"4","last_reported":1738001528,"current_range_meters":33200,"station_id":"ce4bh092rcd13ifvqd20","pricing_plan_id":"cebpf4jnsgd1na2vs0mg"},{"bike_id":"f5558214-b4be-49a5-9317-5ff426fd90ba","system_id":"levelo_inurba_marseille","lat":43.308,"lon":5.43526,"is_reserved":false,"is_disabled":false,"rental_uris":{"android":"levelo://app?vid=f5558214-b4be-49a5-9317-5ff426fd90ba","ios":"levelo://app?vid=f5558214-b4be-49a5-9317-5ff426fd90ba"},"vehicle_type_id":"4","last_reported":1738001528,"current_range_meters":22000,"station_id":"ce4bhph2rcd13ifvqheg","pricing_plan_id":"cebpf4jnsgd1na2vs0mg"},{"bike_id":"5acb657b-8d0b-49cf-aa36-f17ecb650453","system_id":"levelo_inurba_marseille","lat":43.30352,"lon":5.41883,"is_reserved":false,"is_disabled":false,"rental_uris":{"android":"levelo://app?vid=5acb657b-8d0b-49cf-aa36-f17ecb650453","ios":"levelo://app?vid=5acb657b-8d0b-49cf-aa36-f17ecb650453"},"vehicle_type_id":"4","last_reported":1738001528,"current_range_meters":28800,"station_id":"ce4bhop2rcd13ifvqh7g","pricing_plan_id":"cebpf4jnsgd1na2vs0mg"},{"bike_id":"9dbe908f-59c4-4ff0-b02b-5400c7b52f9d","system_id":"levelo_inurba_marseille","lat":43.29633,"lon":5.40598,"is_reserved":false,"is_disabled":false,"rental_uris":{"android":"levelo://app?vid=9dbe908f-59c4-4ff0-b02b-5400c7b52f9d","ios":"levelo://app?vid=9dbe908f-59c4-4ff0-b02b-5400c7b52f9d"},"vehicle_type_id":"4","last_reported":1738001528,"current_range_meters":38800,"station_id":"ce4bh0h2rcd13ifvqd60","pricing_plan_id":"cebpf4jnsgd1na2vs0mg"},{"bike_id":"e4f81e6e-bff5-48ee-9cf0-1a2de2d7d1eb","system_id":"levelo_inurba_marseille","lat":43.31272,"lon":5.40148,"is_reserved":false,"is_disabled":false,"rental_uris":{"android":"levelo://app?vid=e4f81e6e-bff5-48ee-9cf0-1a2de2d7d1eb","ios":"levelo://app?vid=e4f81e6e-bff5-48ee-9cf0-1a2de2d7d1eb"},"vehicle_type_id":"4","last_reported":1738001528,"current_range_meters":19600,"station_id":"ce4bh092rcd13ifvqd30","pricing_plan_id":"cebpf4jnsgd1na2vs0mg"},{"bike_id":"2e0a8b86-b457-48a0-8577-213b01080398","system_id":"levelo_inurba_marseille","lat":43.23197,"lon":5.35547,"is_reserved":false,"is_disabled":false,"rental_uris":{"android":"levelo://app?vid=2e0a8b86-b457-48a0-8577-213b01080398","ios":"levelo://app?vid=2e0a8b86-b457-48a0-8577-213b01080398"},"vehicle_type_id":"4","last_reported":1738001528,"current_range_meters":38800,"station_id":"ce4bhu92rcd13ifvqi70","pricing_plan_id":"cebpf4jnsgd1na2vs0mg"},{"bike_id":"f3df00a7-1ba0-46c2-b261-2386e9fd2dfb","system_id":"levelo_inurba_marseille","lat":43.31112,"lon":5.37761,"is_reserved":false,"is_disabled":false,"rental_uris":{"android":"levelo://app?vid=f3df00a7-1ba0-46c2-b261-2386e9fd2dfb","ios":"levelo://app?vid=f3df00a7-1ba0-46c2-b261-2386e9fd2dfb"},"vehicle_type_id":"4","last_reported":1738001528,"current_range_meters":17200,"station_id":"ce4bgt92rcd13ifvqcg0","pricing_plan_id":"cebpf4jnsgd1na2vs0mg"},{"bike_id":"eefc26b4-ceeb-447b-96e9-86927bc262df","system_id":"levelo_inurba_marseille","lat":43.27889,"lon":5.37995,"is_reserved":false,"is_disabled":false,"rental_uris":{"android":"levelo://app?vid=eefc26b4-ceeb-447b-96e9-86927bc262df","ios":"levelo://app?vid=eefc26b4-ceeb-447b-96e9-86927bc262df"},"vehicle_type_id":"4","last_reported":1738001528,"current_range_meters":38400,"station_id":"ce4bhf92rcd13ifvqf50","pricing_plan_id":"cebpf4jnsgd1na2vs0mg"},{"bike_id":"d979d8d2-ec65-47af-9229-e4270aab279a","system_id":"levelo_inurba_marseille","lat":43.23068,"lon":5.35482,"is_reserved":false,"is_disabled":false,"rental_uris":{"android":"levelo://app?vid=d979d8d2-ec65-47af-9229-e4270aab279a","ios":"levelo://app?vid=d979d8d2-ec65-47af-9229-e4270aab279a"},"vehicle_type_id":"4","last_reported":1738001528,"current_range_meters":27200,"station_id":"cpo3342slgdg3j2ifvpg","pricing_plan_id":"cebpf4jnsgd1na2vs0mg"},{"bike_id":"7430dbdb-8516-48f1-b64f-01ca3d57a44e","system_id":"levelo_inurba_marseille","lat":43.24812,"lon":5.37446,"is_reserved":false,"is_disabled":false,"rental_uris":{"android":"levelo://app?vid=7430dbdb-8516-48f1-b64f-01ca3d57a44e","ios":"levelo://app?vid=7430dbdb-8516-48f1-b64f-01ca3d57a44e"},"vehicle_type_id":"4","last_reported":1738001528,"current_range_meters":25600,"station_id":"ce4bhgh2rcd13ifvqfb0","pricing_plan_id":"cebpf4jnsgd1na2vs0mg"},{"bike_id":"eecca6bf-8b74-40da-aaa1-519ada23f008","system_id":"levelo_inurba_marseille","lat":43.26805,"lon":5.40269,"is_reserved":false,"is_disabled":false,"rental_uris":{"android":"levelo://app?vid=eecca6bf-8b74-40da-aaa1-519ada23f008","ios":"levelo://app?vid=eecca6bf-8b74-40da-aaa1-519ada23f008"},"vehicle_type_id":"4","last_reported":1738001528,"current_range_meters":24800,"station_id":"ce501612rcd8frsf0b60","pricing_plan_id":"cebpf4jnsgd1na2vs0mg"},{"bike_id":"ae00de2f-f31f-40c5-afd5-77a43823ef3d","system_id":"levelo_inurba_marseille","lat":43.33007,"lon":5.39052,"is_reserved":false,"is_disabled":false,"rental_uris":{"android":"levelo://app?vid=ae00de2f-f31f-40c5-afd5-77a43823ef3d","ios":"levelo://app?vid=ae00de2f-f31f-40c5-afd5-77a43823ef3d"},"vehicle_type_id":"4","last_reported":1738001528,"current_range_meters":38800,"station_id":"ce4bhr92rcd13ifvqhrg","pricing_plan_id":"cebpf4jnsgd1na2vs0mg"},{"bike_id":"cac25317-4594-415a-8b2e-66e67346c82c","system_id":"levelo_inurba_marseille","lat":43.301005,"lon":5.390989,"is_reserved":false,"is_disabled":false,"rental_uris":{"android":"levelo://app?vid=cac25317-4594-415a-8b2e-66e67346c82c","ios":"levelo://app?vid=cac25317-4594-415a-8b2e-66e67346c82c"},"vehicle_type_id":"4","last_reported":1738001528,"current_range_meters":39200,"station_id":"ce4bh192rcd13ifvqdb0","pricing_plan_id":"cebpf4jnsgd1na2vs0mg"},{"bike_id":"f0797697-c6fe-4019-aa50-1195acbfcb65","system_id":"levelo_inurba_marseille","lat":43.29069,"lon":5.37153,"is_reserved":false,"is_disabled":false,"rental_uris":{"android":"levelo://app?vid=f0797697-c6fe-4019-aa50-1195acbfcb65","ios":"levelo://app?vid=f0797697-c6fe-4019-aa50-1195acbfcb65"},"vehicle_type_id":"4","last_reported":1738001528,"current_range_meters":33200,"station_id":"ce4bh5p2rcd13ifvqe4g","pricing_plan_id":"cebpf4jnsgd1na2vs0mg"},{"bike_id":"75214a19-3086-4aab-8ba6-a177978da634","system_id":"levelo_inurba_marseille","lat":43.29892,"lon":5.43649,"is_reserved":false,"is_disabled":false,"rental_uris":{"android":"levelo://app?vid=75214a19-3086-4aab-8ba6-a177978da634","ios":"levelo://app?vid=75214a19-3086-4aab-8ba6-a177978da634"},"vehicle_type_id":"4","last_reported":1738001528,"current_range_meters":38400,"station_id":"ce4bhpp2rcd13ifvqhfg","pricing_plan_id":"cebpf4jnsgd1na2vs0mg"},{"bike_id":"30bbb00e-1612-4a25-b2e9-c8ad656fb58a","system_id":"levelo_inurba_marseille","lat":43.33732,"lon":5.39173,"is_reserved":false,"is_disabled":false,"rental_uris":{"android":"levelo://app?vid=30bbb00e-1612-4a25-b2e9-c8ad656fb58a","ios":"levelo://app?vid=30bbb00e-1612-4a25-b2e9-c8ad656fb58a"},"vehicle_type_id":"4","last_reported":1738001528,"current_range_meters":38800,"station_id":"ce4bhr92rcd13ifvqhsg","pricing_plan_id":"cebpf4jnsgd1na2vs0mg"},{"bike_id":"cdba9093-1e92-471c-a6ea-8ba6d1c21ef6","system_id":"levelo_inurba_marseille","lat":43.30431,"lon":5.38915,"is_reserved":false,"is_disabled":true,"rental_uris":{"android":"levelo://app?vid=cdba9093-1e92-471c-a6ea-8ba6d1c21ef6","ios":"levelo://app?vid=cdba9093-1e92-471c-a6ea-8ba6d1c21ef6"},"vehicle_type_id":"4","last_reported":1738001528,"current_range_meters":36400,"station_id":"ce4bgk12rcd13ifvqbi0","pricing_plan_id":"cebpf4jnsgd1na2vs0mg"},{"bike_id":"489f6534-c1d5-483f-a648-2a087319e607","system_id":"levelo_inurba_marseille","lat":43.33026,"lon":5.39037,"is_reserved":false,"is_disabled":false,"rental_uris":{"android":"levelo://app?vid=489f6534-c1d5-483f-a648-2a087319e607","ios":"levelo://app?vid=489f6534-c1d5-483f-a648-2a087319e607"},"vehicle_type_id":"4","last_reported":1738001528,"current_range_meters":38800,"station_id":"ce4bhr92rcd13ifvqhrg","pricing_plan_id":"cebpf4jnsgd1na2vs0mg"},{"bike_id":"3816cd89-5ed5-4f57-af75-c6496f460332","system_id":"levelo_inurba_marseille","lat":43.29845,"lon":5.3627,"is_reserved":false,"is_disabled":false,"rental_uris":{"android":"levelo://app?vid=3816cd89-5ed5-4f57-af75-c6496f460332","ios":"levelo://app?vid=3816cd89-5ed5-4f57-af75-c6496f460332"},"vehicle_type_id":"4","last_reported":1738001528,"current_range_meters":38000,"station_id":"ce4bgpp2rcd13ifvqc3g","pricing_plan_id":"cebpf4jnsgd1na2vs0mg"},{"bike_id":"aa39e526-a388-407e-ae8a-27c6b99d14c8","system_id":"levelo_inurba_marseille","lat":43.30891,"lon":5.36876,"is_reserved":false,"is_disabled":false,"rental_uris":{"android":"levelo://app?vid=aa39e526-a388-407e-ae8a-27c6b99d14c8","ios":"levelo://app?vid=aa39e526-a388-407e-ae8a-27c6b99d14c8"},"vehicle_type_id":"4","last_reported":1738001528,"current_range_meters":16400,"station_id":"ce4bgn92rcd13ifvqbvg","pricing_plan_id":"cebpf4jnsgd1na2vs0mg"},{"bike_id":"6f5df92c-d671-4ad8-b000-a4b2cd1cddac","system_id":"levelo_inurba_marseille","lat":43.30537,"lon":5.3652,"is_reserved":false,"is_disabled":true,"rental_uris":{"android":"levelo://app?vid=6f5df92c-d671-4ad8-b000-a4b2cd1cddac","ios":"levelo://app?vid=6f5df92c-d671-4ad8-b000-a4b2cd1cddac"},"vehicle_type_id":"4","last_reported":1738001528,"current_range_meters":2000,"station_id":"ce4bgs12rcd13ifvqcag","pricing_plan_id":"cebpf4jnsgd1na2vs0mg"},{"bike_id":"3c9c9088-9c27-4609-bc62-8218c0dc2be8","system_id":"levelo_inurba_marseille","lat":43.232,"lon":5.35564,"is_reserved":false,"is_disabled":false,"rental_uris":{"android":"levelo://app?vid=3c9c9088-9c27-4609-bc62-8218c0dc2be8","ios":"levelo://app?vid=3c9c9088-9c27-4609-bc62-8218c0dc2be8"},"vehicle_type_id":"4","last_reported":1738001528,"current_range_meters":36400,"station_id":"ce4bhu92rcd13ifvqi70","pricing_plan_id":"cebpf4jnsgd1na2vs0mg"},{"bike_id":"8a4fd9c1-126f-44bd-8919-7cf37f162b5e","system_id":"levelo_inurba_marseille","lat":43.28152,"lon":5.42659,"is_reserved":false,"is_disabled":false,"rental_uris":{"android":"levelo://app?vid=8a4fd9c1-126f-44bd-8919-7cf37f162b5e","ios":"levelo://app?vid=8a4fd9c1-126f-44bd-8919-7cf37f162b5e"},"vehicle_type_id":"4","last_reported":1738001528,"current_range_meters":30400,"station_id":"ce4bhnh2rcd13ifvqgug","pricing_plan_id":"cebpf4jnsgd1na2vs0mg"},{"bike_id":"f94eb858-2be5-4cb9-9587-f71d2b0ef237","system_id":"levelo_inurba_marseille","lat":43.29846,"lon":5.3628,"is_reserved":false,"is_disabled":false,"rental_uris":{"android":"levelo://app?vid=f94eb858-2be5-4cb9-9587-f71d2b0ef237","ios":"levelo://app?vid=f94eb858-2be5-4cb9-9587-f71d2b0ef237"},"vehicle_type_id":"4","last_reported":1738001528,"current_range_meters":23200,"station_id":"ce4bgpp2rcd13ifvqc3g","pricing_plan_id":"cebpf4jnsgd1na2vs0mg"},{"bike_id":"753c3ea2-d8b6-423c-b75c-0eb720ec3bbf","system_id":"levelo_inurba_marseille","lat":43.27573,"lon":5.38424,"is_reserved":false,"is_disabled":false,"rental_uris":{"android":"levelo://app?vid=753c3ea2-d8b6-423c-b75c-0eb720ec3bbf","ios":"levelo://app?vid=753c3ea2-d8b6-423c-b75c-0eb720ec3bbf"},"vehicle_type_id":"4","last_reported":1738001528,"current_range_meters":39200,"station_id":"ce4bhh92rcd13ifvqfi0","pricing_plan_id":"cebpf4jnsgd1na2vs0mg"},{"bike_id":"62ca11e2-b4f2-42b1-8191-3701efed2ba1","system_id":"levelo_inurba_marseille","lat":43.30826,"lon":5.3821,"is_reserved":false,"is_disabled":false,"rental_uris":{"android":"levelo://app?vid=62ca11e2-b4f2-42b1-8191-3701efed2ba1","ios":"levelo://app?vid=62ca11e2-b4f2-42b1-8191-3701efed2ba1"},"vehicle_type_id":"4","last_reported":1738001528,"current_range_meters":38000,"station_id":"ce4bgt12rcd13ifvqce0","pricing_plan_id":"cebpf4jnsgd1na2vs0mg"},{"bike_id":"1c8a3b6c-5478-49de-9dcb-ade0923e8908","system_id":"levelo_inurba_marseille","lat":43.28577,"lon":5.39506,"is_reserved":false,"is_disabled":false,"rental_uris":{"android":"levelo://app?vid=1c8a3b6c-5478-49de-9dcb-ade0923e8908","ios":"levelo://app?vid=1c8a3b6c-5478-49de-9dcb-ade0923e8908"},"vehicle_type_id":"4","last_reported":1738001528,"current_range_meters":12800,"station_id":"ce4bh292rcd13ifvqdg0","pricing_plan_id":"cebpf4jnsgd1na2vs0mg"},{"bike_id":"df1440ab-6c98-4811-96ed-60cc1ae214b5","system_id":"levelo_inurba_marseille","lat":43.2408,"lon":5.37756,"is_reserved":false,"is_disabled":false,"rental_uris":{"android":"levelo://app?vid=df1440ab-6c98-4811-96ed-60cc1ae214b5","ios":"levelo://app?vid=df1440ab-6c98-4811-96ed-60cc1ae214b5"},"vehicle_type_id":"4","last_reported":1738001528,"current_range_meters":38800,"station_id":"ce4bhnp2rcd13ifvqgvg","pricing_plan_id":"cebpf4jnsgd1na2vs0mg"},{"bike_id":"47c13c22-8671-4a7b-a0f0-1846e8355cdb","system_id":"levelo_inurba_marseille","lat":43.32296,"lon":5.38267,"is_reserved":false,"is_disabled":true,"rental_uris":{"android":"levelo://app?vid=47c13c22-8671-4a7b-a0f0-1846e8355cdb","ios":"levelo://app?vid=47c13c22-8671-4a7b-a0f0-1846e8355cdb"},"vehicle_type_id":"4","last_reported":1738001528,"current_range_meters":0,"station_id":"ce4bhr12rcd13ifvqhqg","pricing_plan_id":"cebpf4jnsgd1na2vs0mg"},{"bike_id":"643852ce-59de-4b47-bae0-696322d3a313","system_id":"levelo_inurba_marseille","lat":43.30423,"lon":5.41283,"is_reserved":false,"is_disabled":false,"rental_uris":{"android":"levelo://app?vid=643852ce-59de-4b47-bae0-696322d3a313","ios":"levelo://app?vid=643852ce-59de-4b47-bae0-696322d3a313"},"vehicle_type_id":"4","last_reported":1738001528,"current_range_meters":11600,"station_id":"ce4bhop2rcd13ifvqh8g","pricing_plan_id":"cebpf4jnsgd1na2vs0mg"},{"bike_id":"449d82e6-2b58-4174-8329-341698b16f5c","system_id":"levelo_inurba_marseille","lat":43.2439,"lon":5.37062,"is_reserved":false,"is_disabled":false,"rental_uris":{"android":"levelo://app?vid=449d82e6-2b58-4174-8329-341698b16f5c","ios":"levelo://app?vid=449d82e6-2b58-4174-8329-341698b16f5c"},"vehicle_type_id":"4","last_reported":1738001528,"current_range_meters":32000,"station_id":"ce4bhhh2rcd13ifvqfk0","pricing_plan_id":"cebpf4jnsgd1na2vs0mg"},{"bike_id":"8707dca8-5fb6-4e35-a1ec-1f30a01fea05","system_id":"levelo_inurba_marseille","lat":43.29549,"lon":5.42286,"is_reserved":false,"is_disabled":false,"rental_uris":{"android":"levelo://app?vid=8707dca8-5fb6-4e35-a1ec-1f30a01fea05","ios":"levelo://app?vid=8707dca8-5fb6-4e35-a1ec-1f30a01fea05"},"vehicle_type_id":"4","last_reported":1738001528,"current_range_meters":38800,"station_id":"ce4bhph2rcd13ifvqhdg","pricing_plan_id":"cebpf4jnsgd1na2vs0mg"},{"bike_id":"b5f9da4a-0440-436b-86f5-ecc367051a64","system_id":"levelo_inurba_marseille","lat":43.29831,"lon":5.36274,"is_reserved":false,"is_disabled":false,"rental_uris":{"android":"levelo://app?vid=b5f9da4a-0440-436b-86f5-ecc367051a64","ios":"levelo://app?vid=b5f9da4a-0440-436b-86f5-ecc367051a64"},"vehicle_type_id":"4","last_reported":1738001528,"current_range_meters":30400,"station_id":"ce4bgpp2rcd13ifvqc3g","pricing_plan_id":"cebpf4jnsgd1na2vs0mg"},{"bike_id":"6307ff99-05f8-426a-b048-a0ca3198efd3","system_id":"levelo_inurba_marseille","lat":43.290437,"lon":5.35906,"is_reserved":false,"is_disabled":false,"rental_uris":{"android":"levelo://app?vid=6307ff99-05f8-426a-b048-a0ca3198efd3","ios":"levelo://app?vid=6307ff99-05f8-426a-b048-a0ca3198efd3"},"vehicle_type_id":"4","last_reported":1738001528,"current_range_meters":4400,"station_id":"ce4bha92rcd13ifvqeg0","pricing_plan_id":"cebpf4jnsgd1na2vs0mg"},{"bike_id":"bd0a4b3a-0002-476a-9750-d6e2675c7bd4","system_id":"levelo_inurba_marseille","lat":43.29194,"lon":5.35808,"is_reserved":false,"is_disabled":false,"rental_uris":{"android":"levelo://app?vid=bd0a4b3a-0002-476a-9750-d6e2675c7bd4","ios":"levelo://app?vid=bd0a4b3a-0002-476a-9750-d6e2675c7bd4"},"vehicle_type_id":"4","last_reported":1738001528,"current_range_meters":38800,"station_id":"ce4bhb12rcd13ifvqel0","pricing_plan_id":"cebpf4jnsgd1na2vs0mg"},{"bike_id":"4ab1c826-01de-4db1-bc4a-2fac2dfbb3c6","system_id":"levelo_inurba_marseille","lat":43.26691,"lon":5.38279,"is_reserved":false,"is_disabled":false,"rental_uris":{"android":"levelo://app?vid=4ab1c826-01de-4db1-bc4a-2fac2dfbb3c6","ios":"levelo://app?vid=4ab1c826-01de-4db1-bc4a-2fac2dfbb3c6"},"vehicle_type_id":"4","last_reported":1738001528,"current_range_meters":38400,"station_id":"ce4bho92rcd13ifvqh4g","pricing_plan_id":"cebpf4jnsgd1na2vs0mg"},{"bike_id":"d44f9aac-075d-42fe-ae0d-e74d09070282","system_id":"levelo_inurba_marseille","lat":43.29538,"lon":5.38549,"is_reserved":false,"is_disabled":false,"rental_uris":{"android":"levelo://app?vid=d44f9aac-075d-42fe-ae0d-e74d09070282","ios":"levelo://app?vid=d44f9aac-075d-42fe-ae0d-e74d09070282"},"vehicle_type_id":"4","last_reported":1738001528,"current_range_meters":27200,"station_id":"ce4bgih2rcd13ifvqba0","pricing_plan_id":"cebpf4jnsgd1na2vs0mg"},{"bike_id":"2256710f-428a-4b6c-afaf-f485da875c48","system_id":"levelo_inurba_marseille","lat":43.28605,"lon":5.35125,"is_reserved":false,"is_disabled":false,"rental_uris":{"android":"levelo://app?vid=2256710f-428a-4b6c-afaf-f485da875c48","ios":"levelo://app?vid=2256710f-428a-4b6c-afaf-f485da875c48"},"vehicle_type_id":"4","last_reported":1738001528,"current_range_meters":18800,"station_id":"ce4bhch2rcd13ifvqeug","pricing_plan_id":"cebpf4jnsgd1na2vs0mg"},{"bike_id":"ab2c796a-c23b-4a3a-9534-777b873d6a05","system_id":"levelo_inurba_marseille","lat":43.24155,"lon":5.36438,"is_reserved":false,"is_disabled":false,"rental_uris":{"android":"levelo://app?vid=ab2c796a-c23b-4a3a-9534-777b873d6a05","ios":"levelo://app?vid=ab2c796a-c23b-4a3a-9534-777b873d6a05"},"vehicle_type_id":"4","last_reported":1738001528,"current_range_meters":24800,"station_id":"cpo36qri1sfpv3e86is0","pricing_plan_id":"cebpf4jnsgd1na2vs0mg"},{"bike_id":"b97e5ebe-a5da-4b6a-bcab-1feef830a30a","system_id":"levelo_inurba_marseille","lat":43.28722,"lon":5.36068,"is_reserved":false,"is_disabled":false,"rental_uris":{"android":"levelo://app?vid=b97e5ebe-a5da-4b6a-bcab-1feef830a30a","ios":"levelo://app?vid=b97e5ebe-a5da-4b6a-bcab-1feef830a30a"},"vehicle_type_id":"4","last_reported":1738001528,"current_range_meters":38800,"station_id":"cki0cbj6b192h4jlfktg","pricing_plan_id":"cebpf4jnsgd1na2vs0mg"},{"bike_id":"f8e8117d-f2e7-48a3-bb10-0cd9f7d7eccb","system_id":"levelo_inurba_marseille","lat":43.27825,"lon":5.3921,"is_reserved":false,"is_disabled":false,"rental_uris":{"android":"levelo://app?vid=f8e8117d-f2e7-48a3-bb10-0cd9f7d7eccb","ios":"levelo://app?vid=f8e8117d-f2e7-48a3-bb10-0cd9f7d7eccb"},"vehicle_type_id":"4","last_reported":1738001528,"current_range_meters":38800,"station_id":"ce4bhjp2rcd13ifvqga0","pricing_plan_id":"cebpf4jnsgd1na2vs0mg"},{"bike_id":"5fecc68f-993f-403a-b01f-310bc7fe5b45","system_id":"levelo_inurba_marseille","lat":43.29883,"lon":5.39786,"is_reserved":false,"is_disabled":false,"rental_uris":{"android":"levelo://app?vid=5fecc68f-993f-403a-b01f-310bc7fe5b45","ios":"levelo://app?vid=5fecc68f-993f-403a-b01f-310bc7fe5b45"},"vehicle_type_id":"4","last_reported":1738001528,"current_range_meters":39200,"station_id":"ce4bh0h2rcd13ifvqd50","pricing_plan_id":"cebpf4jnsgd1na2vs0mg"},{"bike_id":"529f1ab7-390e-41c3-9180-30692697770e","system_id":"levelo_inurba_marseille","lat":43.28607,"lon":5.35103,"is_reserved":false,"is_disabled":false,"rental_uris":{"android":"levelo://app?vid=529f1ab7-390e-41c3-9180-30692697770e","ios":"levelo://app?vid=529f1ab7-390e-41c3-9180-30692697770e"},"vehicle_type_id":"4","last_reported":1738001528,"current_range_meters":18000,"station_id":"ce4bhch2rcd13ifvqeug","pricing_plan_id":"cebpf4jnsgd1na2vs0mg"},{"bike_id":"520f7b28-7f98-4d90-b326-7d3aac3e45ab","system_id":"levelo_inurba_marseille","lat":43.30301,"lon":5.39215,"is_reserved":false,"is_disabled":false,"rental_uris":{"android":"levelo://app?vid=520f7b28-7f98-4d90-b326-7d3aac3e45ab","ios":"levelo://app?vid=520f7b28-7f98-4d90-b326-7d3aac3e45ab"},"vehicle_type_id":"4","last_reported":1738001528,"current_range_meters":36400,"station_id":"ce4bgkh2rcd13ifvqbk0","pricing_plan_id":"cebpf4jnsgd1na2vs0mg"},{"bike_id":"6fa6066f-5f65-4bb4-8599-f92f6d55e912","system_id":"levelo_inurba_marseille","lat":43.29866,"lon":5.39735,"is_reserved":false,"is_disabled":false,"rental_uris":{"android":"levelo://app?vid=6fa6066f-5f65-4bb4-8599-f92f6d55e912","ios":"levelo://app?vid=6fa6066f-5f65-4bb4-8599-f92f6d55e912"},"vehicle_type_id":"4","last_reported":1738001528,"current_range_meters":21600,"station_id":"ce4bh0h2rcd13ifvqd50","pricing_plan_id":"cebpf4jnsgd1na2vs0mg"},{"bike_id":"1bfd3f93-f93f-44ab-9456-242bc679e8ee","system_id":"levelo_inurba_marseille","lat":43.32288,"lon":5.38278,"is_reserved":false,"is_disabled":false,"rental_uris":{"android":"levelo://app?vid=1bfd3f93-f93f-44ab-9456-242bc679e8ee","ios":"levelo://app?vid=1bfd3f93-f93f-44ab-9456-242bc679e8ee"},"vehicle_type_id":"4","last_reported":1738001528,"current_range_meters":24800,"station_id":"ce4bhr12rcd13ifvqhqg","pricing_plan_id":"cebpf4jnsgd1na2vs0mg"},{"bike_id":"caf4fd72-81be-4864-b40d-16ffdca5a851","system_id":"levelo_inurba_marseille","lat":43.31123,"lon":5.37766,"is_reserved":false,"is_disabled":false,"rental_uris":{"android":"levelo://app?vid=caf4fd72-81be-4864-b40d-16ffdca5a851","ios":"levelo://app?vid=caf4fd72-81be-4864-b40d-16ffdca5a851"},"vehicle_type_id":"4","last_reported":1738001528,"current_range_meters":38800,"station_id":"ce4bgt92rcd13ifvqcg0","pricing_plan_id":"cebpf4jnsgd1na2vs0mg"},{"bike_id":"88f45306-92e2-4461-b201-d09160064199","system_id":"levelo_inurba_marseille","lat":43.29421,"lon":5.38624,"is_reserved":false,"is_disabled":false,"rental_uris":{"android":"levelo://app?vid=88f45306-92e2-4461-b201-d09160064199","ios":"levelo://app?vid=88f45306-92e2-4461-b201-d09160064199"},"vehicle_type_id":"4","last_reported":1738001528,"current_range_meters":13600,"station_id":"ce4bh2h2rcd13ifvqdh0","pricing_plan_id":"cebpf4jnsgd1na2vs0mg"},{"bike_id":"d29df599-e6b4-4c2d-89b9-c953249bfa1d","system_id":"levelo_inurba_marseille","lat":43.26557,"lon":5.39004,"is_reserved":false,"is_disabled":true,"rental_uris":{"android":"levelo://app?vid=d29df599-e6b4-4c2d-89b9-c953249bfa1d","ios":"levelo://app?vid=d29df599-e6b4-4c2d-89b9-c953249bfa1d"},"vehicle_type_id":"4","last_reported":1738001528,"current_range_meters":1600,"station_id":"ce4bhe12rcd13ifvqf30","pricing_plan_id":"cebpf4jnsgd1na2vs0mg"},{"bike_id":"4a57ae2d-d6f4-4f42-9476-a8855216e80f","system_id":"levelo_inurba_marseille","lat":43.29275,"lon":5.3845,"is_reserved":false,"is_disabled":false,"rental_uris":{"android":"levelo://app?vid=4a57ae2d-d6f4-4f42-9476-a8855216e80f","ios":"levelo://app?vid=4a57ae2d-d6f4-4f42-9476-a8855216e80f"},"vehicle_type_id":"4","last_reported":1738001528,"current_range_meters":23200,"station_id":"ce4bh692rcd13ifvqea0","pricing_plan_id":"cebpf4jnsgd1na2vs0mg"},{"bike_id":"936d75aa-2ae5-4140-a9b3-beef7c41a92e","system_id":"levelo_inurba_marseille","lat":43.30889,"lon":5.39643,"is_reserved":false,"is_disabled":false,"rental_uris":{"android":"levelo://app?vid=936d75aa-2ae5-4140-a9b3-beef7c41a92e","ios":"levelo://app?vid=936d75aa-2ae5-4140-a9b3-beef7c41a92e"},"vehicle_type_id":"4","last_reported":1738001528,"current_range_meters":22400,"station_id":"ce4bh012rcd13ifvqcv0","pricing_plan_id":"cebpf4jnsgd1na2vs0mg"},{"bike_id":"1610365c-8b2a-4eec-b0cd-62e41d8489c4","system_id":"levelo_inurba_marseille","lat":43.27677,"lon":5.38859,"is_reserved":false,"is_disabled":false,"rental_uris":{"android":"levelo://app?vid=1610365c-8b2a-4eec-b0cd-62e41d8489c4","ios":"levelo://app?vid=1610365c-8b2a-4eec-b0cd-62e41d8489c4"},"vehicle_type_id":"4","last_reported":1738001528,"current_range_meters":28400,"station_id":"ce4bhi12rcd13ifvqfo0","pricing_plan_id":"cebpf4jnsgd1na2vs0mg"},{"bike_id":"27008ab4-fd65-436d-a4a9-bba5732c5712","system_id":"levelo_inurba_marseille","lat":43.28078,"lon":5.39644,"is_reserved":false,"is_disabled":false,"rental_uris":{"android":"levelo://app?vid=27008ab4-fd65-436d-a4a9-bba5732c5712","ios":"levelo://app?vid=27008ab4-fd65-436d-a4a9-bba5732c5712"},"vehicle_type_id":"4","last_reported":1738001528,"current_range_meters":11600,"station_id":"ce4bho12rcd13ifvqh2g","pricing_plan_id":"cebpf4jnsgd1na2vs0mg"},{"bike_id":"a02db55e-ba47-47e1-9cb6-3610b1989231","system_id":"levelo_inurba_marseille","lat":43.29518,"lon":5.39053,"is_reserved":false,"is_disabled":false,"rental_uris":{"android":"levelo://app?vid=a02db55e-ba47-47e1-9cb6-3610b1989231","ios":"levelo://app?vid=a02db55e-ba47-47e1-9cb6-3610b1989231"},"vehicle_type_id":"4","last_reported":1738001528,"current_range_meters":28000,"station_id":"ce4bh3p2rcd13ifvqdp0","pricing_plan_id":"cebpf4jnsgd1na2vs0mg"},{"bike_id":"fb718f77-42be-4664-9cdd-65305dc1c1ba","system_id":"levelo_inurba_marseille","lat":43.23177,"lon":5.39976,"is_reserved":false,"is_disabled":false,"rental_uris":{"android":"levelo://app?vid=fb718f77-42be-4664-9cdd-65305dc1c1ba","ios":"levelo://app?vid=fb718f77-42be-4664-9cdd-65305dc1c1ba"},"vehicle_type_id":"4","last_reported":1738001528,"current_range_meters":39200,"station_id":"ce4bhn12rcd13ifvqgqg","pricing_plan_id":"cebpf4jnsgd1na2vs0mg"},{"bike_id":"6964e9b8-be4d-48ce-8fea-7897babb72f9","system_id":"levelo_inurba_marseille","lat":43.25493,"lon":5.37638,"is_reserved":false,"is_disabled":false,"rental_uris":{"android":"levelo://app?vid=6964e9b8-be4d-48ce-8fea-7897babb72f9","ios":"levelo://app?vid=6964e9b8-be4d-48ce-8fea-7897babb72f9"},"vehicle_type_id":"4","last_reported":1738001528,"current_range_meters":20000,"station_id":"ce4bhh12rcd13ifvqff0","pricing_plan_id":"cebpf4jnsgd1na2vs0mg"},{"bike_id":"43cb41c5-439f-4eb6-9ca9-ddeec93fcf1d","system_id":"levelo_inurba_marseille","lat":43.23968,"lon":5.36629,"is_reserved":false,"is_disabled":false,"rental_uris":{"android":"levelo://app?vid=43cb41c5-439f-4eb6-9ca9-ddeec93fcf1d","ios":"levelo://app?vid=43cb41c5-439f-4eb6-9ca9-ddeec93fcf1d"},"vehicle_type_id":"4","last_reported":1738001528,"current_range_meters":9600,"station_id":"ce4bhi12rcd13ifvqfp0","pricing_plan_id":"cebpf4jnsgd1na2vs0mg"},{"bike_id":"878ec06a-928c-42ea-9151-25f00a5a8dcd","system_id":"levelo_inurba_marseille","lat":43.29355,"lon":5.37866,"is_reserved":false,"is_disabled":false,"rental_uris":{"android":"levelo://app?vid=878ec06a-928c-42ea-9151-25f00a5a8dcd","ios":"levelo://app?vid=878ec06a-928c-42ea-9151-25f00a5a8dcd"},"vehicle_type_id":"4","last_reported":1738001528,"current_range_meters":35600,"station_id":"ce4bgjh2rcd13ifvqbf0","pricing_plan_id":"cebpf4jnsgd1na2vs0mg"},{"bike_id":"4b4961b5-5e83-4377-a634-c1cb155aefdf","system_id":"levelo_inurba_marseille","lat":43.29229,"lon":5.36072,"is_reserved":false,"is_disabled":false,"rental_uris":{"android":"levelo://app?vid=4b4961b5-5e83-4377-a634-c1cb155aefdf","ios":"levelo://app?vid=4b4961b5-5e83-4377-a634-c1cb155aefdf"},"vehicle_type_id":"4","last_reported":1738001528,"current_range_meters":38800,"station_id":"ce4bhbh2rcd13ifvqeqg","pricing_plan_id":"cebpf4jnsgd1na2vs0mg"},{"bike_id":"9645258e-0985-4a32-9d68-2d9528eebe9c","system_id":"levelo_inurba_marseille","lat":43.29843,"lon":5.36269,"is_reserved":false,"is_disabled":false,"rental_uris":{"android":"levelo://app?vid=9645258e-0985-4a32-9d68-2d9528eebe9c","ios":"levelo://app?vid=9645258e-0985-4a32-9d68-2d9528eebe9c"},"vehicle_type_id":"4","last_reported":1738001528,"current_range_meters":25600,"station_id":"ce4bgpp2rcd13ifvqc3g","pricing_plan_id":"cebpf4jnsgd1na2vs0mg"},{"bike_id":"76a03fe2-6853-42db-8972-77b89a64555b","system_id":"levelo_inurba_marseille","lat":43.32098,"lon":5.36788,"is_reserved":false,"is_disabled":true,"rental_uris":{"android":"levelo://app?vid=76a03fe2-6853-42db-8972-77b89a64555b","ios":"levelo://app?vid=76a03fe2-6853-42db-8972-77b89a64555b"},"vehicle_type_id":"4","last_reported":1738001528,"current_range_meters":24800,"station_id":"ce4bhrh2rcd13ifvqhug","pricing_plan_id":"cebpf4jnsgd1na2vs0mg"},{"bike_id":"cfc7ac7b-cae1-404b-af3a-22511688b3d2","system_id":"levelo_inurba_marseille","lat":43.29183,"lon":5.37141,"is_reserved":false,"is_disabled":false,"rental_uris":{"android":"levelo://app?vid=cfc7ac7b-cae1-404b-af3a-22511688b3d2","ios":"levelo://app?vid=cfc7ac7b-cae1-404b-af3a-22511688b3d2"},"vehicle_type_id":"4","last_reported":1738001528,"current_range_meters":15200,"station_id":"ce4bha92rcd13ifvqeh0","pricing_plan_id":"cebpf4jnsgd1na2vs0mg"},{"bike_id":"88677356-551f-4c78-976d-d610cc147377","system_id":"levelo_inurba_marseille","lat":43.2923,"lon":5.36073,"is_reserved":false,"is_disabled":true,"rental_uris":{"android":"levelo://app?vid=88677356-551f-4c78-976d-d610cc147377","ios":"levelo://app?vid=88677356-551f-4c78-976d-d610cc147377"},"vehicle_type_id":"4","last_reported":1738001528,"current_range_meters":0,"station_id":"ce4bhbh2rcd13ifvqeqg","pricing_plan_id":"cebpf4jnsgd1na2vs0mg"},{"bike_id":"b01b0706-3a3a-4ff1-ac0d-6b17e48eff7a","system_id":"levelo_inurba_marseille","lat":43.23199,"lon":5.35559,"is_reserved":false,"is_disabled":false,"rental_uris":{"android":"levelo://app?vid=b01b0706-3a3a-4ff1-ac0d-6b17e48eff7a","ios":"levelo://app?vid=b01b0706-3a3a-4ff1-ac0d-6b17e48eff7a"},"vehicle_type_id":"4","last_reported":1738001528,"current_range_meters":36400,"station_id":"ce4bhu92rcd13ifvqi70","pricing_plan_id":"cebpf4jnsgd1na2vs0mg"},{"bike_id":"25927537-ebfd-4ad0-914a-6d68f96d9be7","system_id":"levelo_inurba_marseille","lat":43.30762,"lon":5.37647,"is_reserved":false,"is_disabled":false,"rental_uris":{"android":"levelo://app?vid=25927537-ebfd-4ad0-914a-6d68f96d9be7","ios":"levelo://app?vid=25927537-ebfd-4ad0-914a-6d68f96d9be7"},"vehicle_type_id":"4","last_reported":1738001528,"current_range_meters":38800,"station_id":"ce4bgv92rcd13ifvqcq0","pricing_plan_id":"cebpf4jnsgd1na2vs0mg"},{"bike_id":"31c2c0aa-5c48-41a7-aaac-d6a3d74218ea","system_id":"levelo_inurba_marseille","lat":43.30542,"lon":5.38433,"is_reserved":false,"is_disabled":false,"rental_uris":{"android":"levelo://app?vid=31c2c0aa-5c48-41a7-aaac-d6a3d74218ea","ios":"levelo://app?vid=31c2c0aa-5c48-41a7-aaac-d6a3d74218ea"},"vehicle_type_id":"4","last_reported":1738001528,"current_range_meters":17600,"station_id":"ce4bgg92rcd13ifvqb30","pricing_plan_id":"cebpf4jnsgd1na2vs0mg"},{"bike_id":"0c6fa2a7-0031-47aa-866d-31dbc6d98fec","system_id":"levelo_inurba_marseille","lat":43.24066,"lon":5.37752,"is_reserved":false,"is_disabled":false,"rental_uris":{"android":"levelo://app?vid=0c6fa2a7-0031-47aa-866d-31dbc6d98fec","ios":"levelo://app?vid=0c6fa2a7-0031-47aa-866d-31dbc6d98fec"},"vehicle_type_id":"4","last_reported":1738001528,"current_range_meters":23200,"station_id":"ce4bhnp2rcd13ifvqgvg","pricing_plan_id":"cebpf4jnsgd1na2vs0mg"},{"bike_id":"82268c69-bcd8-49fb-91ea-6277b4711aa7","system_id":"levelo_inurba_marseille","lat":43.255535,"lon":5.397816,"is_reserved":false,"is_disabled":false,"rental_uris":{"android":"levelo://app?vid=82268c69-bcd8-49fb-91ea-6277b4711aa7","ios":"levelo://app?vid=82268c69-bcd8-49fb-91ea-6277b4711aa7"},"vehicle_type_id":"4","last_reported":1738001528,"current_range_meters":25200,"station_id":"","pricing_plan_id":"cebpf4jnsgd1na2vs0mg"},{"bike_id":"915df6a6-30bf-4e90-9efc-34ebcb795923","system_id":"levelo_inurba_marseille","lat":43.28464,"lon":5.359,"is_reserved":false,"is_disabled":false,"rental_uris":{"android":"levelo://app?vid=915df6a6-30bf-4e90-9efc-34ebcb795923","ios":"levelo://app?vid=915df6a6-30bf-4e90-9efc-34ebcb795923"},"vehicle_type_id":"4","last_reported":1738001528,"current_range_meters":39200,"station_id":"ce4bhah2rcd13ifvqei0","pricing_plan_id":"cebpf4jnsgd1na2vs0mg"},{"bike_id":"df68443b-bbec-4b86-bad6-6d9dd27c5d36","system_id":"levelo_inurba_marseille","lat":43.30098,"lon":5.39079,"is_reserved":false,"is_disabled":false,"rental_uris":{"android":"levelo://app?vid=df68443b-bbec-4b86-bad6-6d9dd27c5d36","ios":"levelo://app?vid=df68443b-bbec-4b86-bad6-6d9dd27c5d36"},"vehicle_type_id":"4","last_reported":1738001528,"current_range_meters":10000,"station_id":"ce4bh192rcd13ifvqdb0","pricing_plan_id":"cebpf4jnsgd1na2vs0mg"},{"bike_id":"7e93f69d-703a-4c02-a965-70a3bbd51b48","system_id":"levelo_inurba_marseille","lat":43.29845,"lon":5.36277,"is_reserved":false,"is_disabled":false,"rental_uris":{"android":"levelo://app?vid=7e93f69d-703a-4c02-a965-70a3bbd51b48","ios":"levelo://app?vid=7e93f69d-703a-4c02-a965-70a3bbd51b48"},"vehicle_type_id":"4","last_reported":1738001528,"current_range_meters":11600,"station_id":"ce4bgpp2rcd13ifvqc3g","pricing_plan_id":"cebpf4jnsgd1na2vs0mg"},{"bike_id":"ecf18d5e-fe06-4d6d-aa21-6d4ba394f980","system_id":"levelo_inurba_marseille","lat":43.28578,"lon":5.39472,"is_reserved":false,"is_disabled":false,"rental_uris":{"android":"levelo://app?vid=ecf18d5e-fe06-4d6d-aa21-6d4ba394f980","ios":"levelo://app?vid=ecf18d5e-fe06-4d6d-aa21-6d4ba394f980"},"vehicle_type_id":"4","last_reported":1738001528,"current_range_meters":18800,"station_id":"ce4bh292rcd13ifvqdg0","pricing_plan_id":"cebpf4jnsgd1na2vs0mg"},{"bike_id":"48eaf086-a58e-442a-ac63-1b1e74c4ac84","system_id":"levelo_inurba_marseille","lat":43.31696,"lon":5.43693,"is_reserved":false,"is_disabled":false,"rental_uris":{"android":"levelo://app?vid=48eaf086-a58e-442a-ac63-1b1e74c4ac84","ios":"levelo://app?vid=48eaf086-a58e-442a-ac63-1b1e74c4ac84"},"vehicle_type_id":"4","last_reported":1738001528,"current_range_meters":39200,"station_id":"ce4bhp92rcd13ifvqhcg","pricing_plan_id":"cebpf4jnsgd1na2vs0mg"},{"bike_id":"438ef96e-576a-42aa-bc1f-ac59ea62970f","system_id":"levelo_inurba_marseille","lat":43.29595,"lon":5.36741,"is_reserved":false,"is_disabled":true,"rental_uris":{"android":"levelo://app?vid=438ef96e-576a-42aa-bc1f-ac59ea62970f","ios":"levelo://app?vid=438ef96e-576a-42aa-bc1f-ac59ea62970f"},"vehicle_type_id":"4","last_reported":1738001528,"current_range_meters":33600,"station_id":"ce4bgph2rcd13ifvqc2g","pricing_plan_id":"cebpf4jnsgd1na2vs0mg"},{"bike_id":"ab4ff5e8-a5c4-4ff6-96a4-921cd9408044","system_id":"levelo_inurba_marseille","lat":43.29012,"lon":5.3863,"is_reserved":false,"is_disabled":false,"rental_uris":{"android":"levelo://app?vid=ab4ff5e8-a5c4-4ff6-96a4-921cd9408044","ios":"levelo://app?vid=ab4ff5e8-a5c4-4ff6-96a4-921cd9408044"},"vehicle_type_id":"4","last_reported":1738001528,"current_range_meters":24400,"station_id":"ce4bh4p2rcd13ifvqe0g","pricing_plan_id":"cebpf4jnsgd1na2vs0mg"},{"bike_id":"73b16524-5bad-446d-b480-50c2aae535df","system_id":"levelo_inurba_marseille","lat":43.29885,"lon":5.39723,"is_reserved":false,"is_disabled":false,"rental_uris":{"android":"levelo://app?vid=73b16524-5bad-446d-b480-50c2aae535df","ios":"levelo://app?vid=73b16524-5bad-446d-b480-50c2aae535df"},"vehicle_type_id":"4","last_reported":1738001528,"current_range_meters":39200,"station_id":"ce4bh0h2rcd13ifvqd50","pricing_plan_id":"cebpf4jnsgd1na2vs0mg"},{"bike_id":"ff68af14-5554-4f8d-a3de-4549d987f602","system_id":"levelo_inurba_marseille","lat":43.29895,"lon":5.43659,"is_reserved":false,"is_disabled":false,"rental_uris":{"android":"levelo://app?vid=ff68af14-5554-4f8d-a3de-4549d987f602","ios":"levelo://app?vid=ff68af14-5554-4f8d-a3de-4549d987f602"},"vehicle_type_id":"4","last_reported":1738001528,"current_range_meters":38400,"station_id":"ce4bhpp2rcd13ifvqhfg","pricing_plan_id":"cebpf4jnsgd1na2vs0mg"},{"bike_id":"0484c39c-8656-441e-81aa-92b84f3510a9","system_id":"levelo_inurba_marseille","lat":43.2808,"lon":5.39661,"is_reserved":false,"is_disabled":false,"rental_uris":{"android":"levelo://app?vid=0484c39c-8656-441e-81aa-92b84f3510a9","ios":"levelo://app?vid=0484c39c-8656-441e-81aa-92b84f3510a9"},"vehicle_type_id":"4","last_reported":1738001528,"current_range_meters":26000,"station_id":"ce4bho12rcd13ifvqh2g","pricing_plan_id":"cebpf4jnsgd1na2vs0mg"},{"bike_id":"824a1984-9692-4554-8c47-08be5c6e12b1","system_id":"levelo_inurba_marseille","lat":43.29852,"lon":5.36279,"is_reserved":false,"is_disabled":false,"rental_uris":{"android":"levelo://app?vid=824a1984-9692-4554-8c47-08be5c6e12b1","ios":"levelo://app?vid=824a1984-9692-4554-8c47-08be5c6e12b1"},"vehicle_type_id":"4","last_reported":1738001528,"current_range_meters":16400,"station_id":"ce4bgpp2rcd13ifvqc3g","pricing_plan_id":"cebpf4jnsgd1na2vs0mg"},{"bike_id":"f906edcd-1206-4866-a7bc-c20f2dc6cf44","system_id":"levelo_inurba_marseille","lat":43.29852,"lon":5.36285,"is_reserved":false,"is_disabled":false,"rental_uris":{"android":"levelo://app?vid=f906edcd-1206-4866-a7bc-c20f2dc6cf44","ios":"levelo://app?vid=f906edcd-1206-4866-a7bc-c20f2dc6cf44"},"vehicle_type_id":"4","last_reported":1738001528,"current_range_meters":18000,"station_id":"ce4bgpp2rcd13ifvqc3g","pricing_plan_id":"cebpf4jnsgd1na2vs0mg"},{"bike_id":"e573c3ac-f7f5-4f22-b5e8-2967bee6c2bd","system_id":"levelo_inurba_marseille","lat":43.30917,"lon":5.36849,"is_reserved":false,"is_disabled":false,"rental_uris":{"android":"levelo://app?vid=e573c3ac-f7f5-4f22-b5e8-2967bee6c2bd","ios":"levelo://app?vid=e573c3ac-f7f5-4f22-b5e8-2967bee6c2bd"},"vehicle_type_id":"4","last_reported":1738001528,"current_range_meters":33600,"station_id":"ce4bgn92rcd13ifvqbvg","pricing_plan_id":"cebpf4jnsgd1na2vs0mg"},{"bike_id":"712329f9-e8f5-4533-b06e-8359f5ad199d","system_id":"levelo_inurba_marseille","lat":43.23968,"lon":5.36633,"is_reserved":false,"is_disabled":false,"rental_uris":{"android":"levelo://app?vid=712329f9-e8f5-4533-b06e-8359f5ad199d","ios":"levelo://app?vid=712329f9-e8f5-4533-b06e-8359f5ad199d"},"vehicle_type_id":"4","last_reported":1738001528,"current_range_meters":20400,"station_id":"ce4bhi12rcd13ifvqfp0","pricing_plan_id":"cebpf4jnsgd1na2vs0mg"},{"bike_id":"5bff34d8-4562-434c-a256-2d7c5b5deae6","system_id":"levelo_inurba_marseille","lat":43.29517,"lon":5.37513,"is_reserved":false,"is_disabled":false,"rental_uris":{"android":"levelo://app?vid=5bff34d8-4562-434c-a256-2d7c5b5deae6","ios":"levelo://app?vid=5bff34d8-4562-434c-a256-2d7c5b5deae6"},"vehicle_type_id":"4","last_reported":1738001528,"current_range_meters":32800,"station_id":"ce4bgkp2rcd13ifvqbmg","pricing_plan_id":"cebpf4jnsgd1na2vs0mg"},{"bike_id":"04add264-7ffa-44ea-8a2f-32324a7ecc6f","system_id":"levelo_inurba_marseille","lat":43.25711,"lon":5.41109,"is_reserved":false,"is_disabled":false,"rental_uris":{"android":"levelo://app?vid=04add264-7ffa-44ea-8a2f-32324a7ecc6f","ios":"levelo://app?vid=04add264-7ffa-44ea-8a2f-32324a7ecc6f"},"vehicle_type_id":"4","last_reported":1738001528,"current_range_meters":15200,"station_id":"ce4bhkp2rcd13ifvqgd0","pricing_plan_id":"cebpf4jnsgd1na2vs0mg"},{"bike_id":"e3c5a10e-948d-477c-91ce-8c835a7fe362","system_id":"levelo_inurba_marseille","lat":43.28066,"lon":5.39634,"is_reserved":false,"is_disabled":true,"rental_uris":{"android":"levelo://app?vid=e3c5a10e-948d-477c-91ce-8c835a7fe362","ios":"levelo://app?vid=e3c5a10e-948d-477c-91ce-8c835a7fe362"},"vehicle_type_id":"4","last_reported":1738001528,"current_range_meters":0,"station_id":"ce4bho12rcd13ifvqh2g","pricing_plan_id":"cebpf4jnsgd1na2vs0mg"},{"bike_id":"709455e8-576c-45f2-b998-1bac48b0563c","system_id":"levelo_inurba_marseille","lat":43.29587,"lon":5.36742,"is_reserved":false,"is_disabled":false,"rental_uris":{"android":"levelo://app?vid=709455e8-576c-45f2-b998-1bac48b0563c","ios":"levelo://app?vid=709455e8-576c-45f2-b998-1bac48b0563c"},"vehicle_type_id":"4","last_reported":1738001528,"current_range_meters":38400,"station_id":"ce4bgph2rcd13ifvqc2g","pricing_plan_id":"cebpf4jnsgd1na2vs0mg"},{"bike_id":"3af33c6a-efb8-4c32-b92f-c273b3ba3228","system_id":"levelo_inurba_marseille","lat":43.25084,"lon":5.39518,"is_reserved":false,"is_disabled":false,"rental_uris":{"android":"levelo://app?vid=3af33c6a-efb8-4c32-b92f-c273b3ba3228","ios":"levelo://app?vid=3af33c6a-efb8-4c32-b92f-c273b3ba3228"},"vehicle_type_id":"4","last_reported":1738001528,"current_range_meters":37600,"station_id":"ce4bhm12rcd13ifvqgkg","pricing_plan_id":"cebpf4jnsgd1na2vs0mg"},{"bike_id":"c69dd111-4a16-47d3-919c-b81c76daeb57","system_id":"levelo_inurba_marseille","lat":43.24804,"lon":5.37459,"is_reserved":false,"is_disabled":false,"rental_uris":{"android":"levelo://app?vid=c69dd111-4a16-47d3-919c-b81c76daeb57","ios":"levelo://app?vid=c69dd111-4a16-47d3-919c-b81c76daeb57"},"vehicle_type_id":"4","last_reported":1738001528,"current_range_meters":36400,"station_id":"ce4bhgh2rcd13ifvqfb0","pricing_plan_id":"cebpf4jnsgd1na2vs0mg"},{"bike_id":"f846d495-effa-4e8f-ae39-f2d7b1fc0ba3","system_id":"levelo_inurba_marseille","lat":43.26803,"lon":5.40263,"is_reserved":false,"is_disabled":false,"rental_uris":{"android":"levelo://app?vid=f846d495-effa-4e8f-ae39-f2d7b1fc0ba3","ios":"levelo://app?vid=f846d495-effa-4e8f-ae39-f2d7b1fc0ba3"},"vehicle_type_id":"4","last_reported":1738001528,"current_range_meters":26000,"station_id":"ce501612rcd8frsf0b60","pricing_plan_id":"cebpf4jnsgd1na2vs0mg"},{"bike_id":"bb99704f-e033-4ae8-a7fb-29e6cc77930e","system_id":"levelo_inurba_marseille","lat":43.280877,"lon":5.396433,"is_reserved":false,"is_disabled":false,"rental_uris":{"android":"levelo://app?vid=bb99704f-e033-4ae8-a7fb-29e6cc77930e","ios":"levelo://app?vid=bb99704f-e033-4ae8-a7fb-29e6cc77930e"},"vehicle_type_id":"4","last_reported":1738001528,"current_range_meters":38000,"station_id":"ce4bho12rcd13ifvqh2g","pricing_plan_id":"cebpf4jnsgd1na2vs0mg"},{"bike_id":"a284be49-bd17-4117-9887-5868a8a4ead4","system_id":"levelo_inurba_marseille","lat":43.31368,"lon":5.38516,"is_reserved":false,"is_disabled":true,"rental_uris":{"android":"levelo://app?vid=a284be49-bd17-4117-9887-5868a8a4ead4","ios":"levelo://app?vid=a284be49-bd17-4117-9887-5868a8a4ead4"},"vehicle_type_id":"4","last_reported":1738001528,"current_range_meters":2000,"station_id":"ce4bgt92rcd13ifvqcf0","pricing_plan_id":"cebpf4jnsgd1na2vs0mg"},{"bike_id":"97b18a4a-bd77-4ae7-9fb5-63f3232dcc4f","system_id":"levelo_inurba_marseille","lat":43.28461,"lon":5.35898,"is_reserved":false,"is_disabled":false,"rental_uris":{"android":"levelo://app?vid=97b18a4a-bd77-4ae7-9fb5-63f3232dcc4f","ios":"levelo://app?vid=97b18a4a-bd77-4ae7-9fb5-63f3232dcc4f"},"vehicle_type_id":"4","last_reported":1738001528,"current_range_meters":4400,"station_id":"ce4bhah2rcd13ifvqei0","pricing_plan_id":"cebpf4jnsgd1na2vs0mg"},{"bike_id":"f9173de2-2fa5-436f-a76b-3c96bd571284","system_id":"levelo_inurba_marseille","lat":43.29812,"lon":5.40406,"is_reserved":false,"is_disabled":false,"rental_uris":{"android":"levelo://app?vid=f9173de2-2fa5-436f-a76b-3c96bd571284","ios":"levelo://app?vid=f9173de2-2fa5-436f-a76b-3c96bd571284"},"vehicle_type_id":"4","last_reported":1738001528,"current_range_meters":38800,"station_id":"ce4bh112rcd13ifvqd90","pricing_plan_id":"cebpf4jnsgd1na2vs0mg"},{"bike_id":"4324a0dd-735e-442a-817b-b2e1bc0d7ff2","system_id":"levelo_inurba_marseille","lat":43.3032,"lon":5.41902,"is_reserved":false,"is_disabled":false,"rental_uris":{"android":"levelo://app?vid=4324a0dd-735e-442a-817b-b2e1bc0d7ff2","ios":"levelo://app?vid=4324a0dd-735e-442a-817b-b2e1bc0d7ff2"},"vehicle_type_id":"4","last_reported":1738001528,"current_range_meters":16800,"station_id":"","pricing_plan_id":"cebpf4jnsgd1na2vs0mg"},{"bike_id":"63ac41f4-fccc-4ea5-8ae5-3c41a93832ef","system_id":"levelo_inurba_marseille","lat":43.31331,"lon":5.39704,"is_reserved":false,"is_disabled":false,"rental_uris":{"android":"levelo://app?vid=63ac41f4-fccc-4ea5-8ae5-3c41a93832ef","ios":"levelo://app?vid=63ac41f4-fccc-4ea5-8ae5-3c41a93832ef"},"vehicle_type_id":"4","last_reported":1738001528,"current_range_meters":37600,"station_id":"ce4bgvp2rcd13ifvqcu0","pricing_plan_id":"cebpf4jnsgd1na2vs0mg"},{"bike_id":"28d2a089-c209-48fd-8b30-6cac9be82398","system_id":"levelo_inurba_marseille","lat":43.28461,"lon":5.38402,"is_reserved":false,"is_disabled":false,"rental_uris":{"android":"levelo://app?vid=28d2a089-c209-48fd-8b30-6cac9be82398","ios":"levelo://app?vid=28d2a089-c209-48fd-8b30-6cac9be82398"},"vehicle_type_id":"4","last_reported":1738001528,"current_range_meters":36000,"station_id":"ce4bh512rcd13ifvqe3g","pricing_plan_id":"cebpf4jnsgd1na2vs0mg"},{"bike_id":"db3aaaa1-2c83-4416-9be0-650e00b3a100","system_id":"levelo_inurba_marseille","lat":43.3174,"lon":5.3902,"is_reserved":false,"is_disabled":false,"rental_uris":{"android":"levelo://app?vid=db3aaaa1-2c83-4416-9be0-650e00b3a100","ios":"levelo://app?vid=db3aaaa1-2c83-4416-9be0-650e00b3a100"},"vehicle_type_id":"4","last_reported":1738001528,"current_range_meters":8000,"station_id":"ce4bhqp2rcd13ifvqhng","pricing_plan_id":"cebpf4jnsgd1na2vs0mg"},{"bike_id":"4879ae60-bcb1-4ab2-a455-e93c600fc0b3","system_id":"levelo_inurba_marseille","lat":43.304326,"lon":5.388934,"is_reserved":false,"is_disabled":true,"rental_uris":{"android":"levelo://app?vid=4879ae60-bcb1-4ab2-a455-e93c600fc0b3","ios":"levelo://app?vid=4879ae60-bcb1-4ab2-a455-e93c600fc0b3"},"vehicle_type_id":"4","last_reported":1738001528,"current_range_meters":0,"station_id":"ce4bgk12rcd13ifvqbi0","pricing_plan_id":"cebpf4jnsgd1na2vs0mg"},{"bike_id":"6c427e16-a09a-4f4f-8a97-0db113576b39","system_id":"levelo_inurba_marseille","lat":43.2927,"lon":5.40132,"is_reserved":false,"is_disabled":false,"rental_uris":{"android":"levelo://app?vid=6c427e16-a09a-4f4f-8a97-0db113576b39","ios":"levelo://app?vid=6c427e16-a09a-4f4f-8a97-0db113576b39"},"vehicle_type_id":"4","last_reported":1738001528,"current_range_meters":24800,"station_id":"ce4bh312rcd13ifvqdk0","pricing_plan_id":"cebpf4jnsgd1na2vs0mg"},{"bike_id":"7baf64e7-cb5d-43d5-a3de-7bf434415067","system_id":"levelo_inurba_marseille","lat":43.29262,"lon":5.40901,"is_reserved":false,"is_disabled":false,"rental_uris":{"android":"levelo://app?vid=7baf64e7-cb5d-43d5-a3de-7bf434415067","ios":"levelo://app?vid=7baf64e7-cb5d-43d5-a3de-7bf434415067"},"vehicle_type_id":"4","last_reported":1738001528,"current_range_meters":17600,"station_id":"ce4bh192rcd13ifvqdc0","pricing_plan_id":"cebpf4jnsgd1na2vs0mg"},{"bike_id":"dca1b3f1-bf12-4d48-b32e-51e78b8700aa","system_id":"levelo_inurba_marseille","lat":43.33024,"lon":5.39034,"is_reserved":false,"is_disabled":false,"rental_uris":{"android":"levelo://app?vid=dca1b3f1-bf12-4d48-b32e-51e78b8700aa","ios":"levelo://app?vid=dca1b3f1-bf12-4d48-b32e-51e78b8700aa"},"vehicle_type_id":"4","last_reported":1738001528,"current_range_meters":36800,"station_id":"ce4bhr92rcd13ifvqhrg","pricing_plan_id":"cebpf4jnsgd1na2vs0mg"},{"bike_id":"1e1c4345-71bd-4a47-89d4-252f4c570adc","system_id":"levelo_inurba_marseille","lat":43.2985,"lon":5.36287,"is_reserved":false,"is_disabled":false,"rental_uris":{"android":"levelo://app?vid=1e1c4345-71bd-4a47-89d4-252f4c570adc","ios":"levelo://app?vid=1e1c4345-71bd-4a47-89d4-252f4c570adc"},"vehicle_type_id":"4","last_reported":1738001528,"current_range_meters":36800,"station_id":"ce4bgpp2rcd13ifvqc3g","pricing_plan_id":"cebpf4jnsgd1na2vs0mg"},{"bike_id":"e09de9e7-4909-4413-b590-2dea2722814c","system_id":"levelo_inurba_marseille","lat":43.23181,"lon":5.40004,"is_reserved":false,"is_disabled":false,"rental_uris":{"android":"levelo://app?vid=e09de9e7-4909-4413-b590-2dea2722814c","ios":"levelo://app?vid=e09de9e7-4909-4413-b590-2dea2722814c"},"vehicle_type_id":"4","last_reported":1738001528,"current_range_meters":38800,"station_id":"ce4bhn12rcd13ifvqgqg","pricing_plan_id":"cebpf4jnsgd1na2vs0mg"},{"bike_id":"4e819cfc-66d0-44bc-b400-a92f780cb5a7","system_id":"levelo_inurba_marseille","lat":43.33026,"lon":5.39042,"is_reserved":false,"is_disabled":false,"rental_uris":{"android":"levelo://app?vid=4e819cfc-66d0-44bc-b400-a92f780cb5a7","ios":"levelo://app?vid=4e819cfc-66d0-44bc-b400-a92f780cb5a7"},"vehicle_type_id":"4","last_reported":1738001528,"current_range_meters":17200,"station_id":"ce4bhr92rcd13ifvqhrg","pricing_plan_id":"cebpf4jnsgd1na2vs0mg"},{"bike_id":"4ee7a4b2-dea3-4f4a-a76b-2d1e4fcbcafe","system_id":"levelo_inurba_marseille","lat":43.28502,"lon":5.38515,"is_reserved":false,"is_disabled":true,"rental_uris":{"android":"levelo://app?vid=4ee7a4b2-dea3-4f4a-a76b-2d1e4fcbcafe","ios":"levelo://app?vid=4ee7a4b2-dea3-4f4a-a76b-2d1e4fcbcafe"},"vehicle_type_id":"4","last_reported":1738001528,"current_range_meters":800,"station_id":"ce4bh8p2rcd13ifvqeb0","pricing_plan_id":"cebpf4jnsgd1na2vs0mg"},{"bike_id":"283c25d8-9fc5-495b-9825-5a72a68442bd","system_id":"levelo_inurba_marseille","lat":43.29245,"lon":5.40905,"is_reserved":false,"is_disabled":true,"rental_uris":{"android":"levelo://app?vid=283c25d8-9fc5-495b-9825-5a72a68442bd","ios":"levelo://app?vid=283c25d8-9fc5-495b-9825-5a72a68442bd"},"vehicle_type_id":"4","last_reported":1738001528,"current_range_meters":1600,"station_id":"ce4bh192rcd13ifvqdc0","pricing_plan_id":"cebpf4jnsgd1na2vs0mg"},{"bike_id":"245a3977-9722-42d3-af5f-09da846dbd2e","system_id":"levelo_inurba_marseille","lat":43.32151,"lon":5.38127,"is_reserved":false,"is_disabled":false,"rental_uris":{"android":"levelo://app?vid=245a3977-9722-42d3-af5f-09da846dbd2e","ios":"levelo://app?vid=245a3977-9722-42d3-af5f-09da846dbd2e"},"vehicle_type_id":"4","last_reported":1738001528,"current_range_meters":9600,"station_id":"ce4bhr12rcd13ifvqhqg","pricing_plan_id":"cebpf4jnsgd1na2vs0mg"},{"bike_id":"e3e26aee-15e1-425c-a48f-db58aa520742","system_id":"levelo_inurba_marseille","lat":43.23067,"lon":5.35507,"is_reserved":false,"is_disabled":false,"rental_uris":{"android":"levelo://app?vid=e3e26aee-15e1-425c-a48f-db58aa520742","ios":"levelo://app?vid=e3e26aee-15e1-425c-a48f-db58aa520742"},"vehicle_type_id":"4","last_reported":1738001528,"current_range_meters":38800,"station_id":"cpo3342slgdg3j2ifvpg","pricing_plan_id":"cebpf4jnsgd1na2vs0mg"},{"bike_id":"9fb813cb-e992-4585-8f3d-d25d13081f3b","system_id":"levelo_inurba_marseille","lat":43.23195,"lon":5.35558,"is_reserved":false,"is_disabled":false,"rental_uris":{"android":"levelo://app?vid=9fb813cb-e992-4585-8f3d-d25d13081f3b","ios":"levelo://app?vid=9fb813cb-e992-4585-8f3d-d25d13081f3b"},"vehicle_type_id":"4","last_reported":1738001528,"current_range_meters":6800,"station_id":"ce4bhu92rcd13ifvqi70","pricing_plan_id":"cebpf4jnsgd1na2vs0mg"},{"bike_id":"7c78a755-c7f5-4f07-a96b-621451d47948","system_id":"levelo_inurba_marseille","lat":43.29897,"lon":5.43643,"is_reserved":false,"is_disabled":false,"rental_uris":{"android":"levelo://app?vid=7c78a755-c7f5-4f07-a96b-621451d47948","ios":"levelo://app?vid=7c78a755-c7f5-4f07-a96b-621451d47948"},"vehicle_type_id":"4","last_reported":1738001528,"current_range_meters":27200,"station_id":"ce4bhpp2rcd13ifvqhfg","pricing_plan_id":"cebpf4jnsgd1na2vs0mg"},{"bike_id":"fa29864d-7300-4955-9fb1-25742b31d758","system_id":"levelo_inurba_marseille","lat":43.25001,"lon":5.38939,"is_reserved":false,"is_disabled":false,"rental_uris":{"android":"levelo://app?vid=fa29864d-7300-4955-9fb1-25742b31d758","ios":"levelo://app?vid=fa29864d-7300-4955-9fb1-25742b31d758"},"vehicle_type_id":"4","last_reported":1738001528,"current_range_meters":37600,"station_id":"ce4bhgp2rcd13ifvqfd0","pricing_plan_id":"cebpf4jnsgd1na2vs0mg"},{"bike_id":"a38c9c9c-9f50-4537-b00e-ab702888d2e0","system_id":"levelo_inurba_marseille","lat":43.29364,"lon":5.37838,"is_reserved":false,"is_disabled":false,"rental_uris":{"android":"levelo://app?vid=a38c9c9c-9f50-4537-b00e-ab702888d2e0","ios":"levelo://app?vid=a38c9c9c-9f50-4537-b00e-ab702888d2e0"},"vehicle_type_id":"4","last_reported":1738001528,"current_range_meters":38800,"station_id":"ce4bgjh2rcd13ifvqbf0","pricing_plan_id":"cebpf4jnsgd1na2vs0mg"},{"bike_id":"4eebfb7a-3d32-47ca-a63f-6da9d5367627","system_id":"levelo_inurba_marseille","lat":43.23189,"lon":5.39988,"is_reserved":false,"is_disabled":false,"rental_uris":{"android":"levelo://app?vid=4eebfb7a-3d32-47ca-a63f-6da9d5367627","ios":"levelo://app?vid=4eebfb7a-3d32-47ca-a63f-6da9d5367627"},"vehicle_type_id":"4","last_reported":1738001528,"current_range_meters":38400,"station_id":"ce4bhn12rcd13ifvqgqg","pricing_plan_id":"cebpf4jnsgd1na2vs0mg"},{"bike_id":"f5a96ec4-9b39-404f-aac4-0897341a8bef","system_id":"levelo_inurba_marseille","lat":43.2857,"lon":5.39498,"is_reserved":false,"is_disabled":false,"rental_uris":{"android":"levelo://app?vid=f5a96ec4-9b39-404f-aac4-0897341a8bef","ios":"levelo://app?vid=f5a96ec4-9b39-404f-aac4-0897341a8bef"},"vehicle_type_id":"4","last_reported":1738001528,"current_range_meters":25600,"station_id":"ce4bh292rcd13ifvqdg0","pricing_plan_id":"cebpf4jnsgd1na2vs0mg"},{"bike_id":"a48a4fa8-387b-4ecc-bc7a-c3f07822bf47","system_id":"levelo_inurba_marseille","lat":43.27062,"lon":5.39241,"is_reserved":false,"is_disabled":true,"rental_uris":{"android":"levelo://app?vid=a48a4fa8-387b-4ecc-bc7a-c3f07822bf47","ios":"levelo://app?vid=a48a4fa8-387b-4ecc-bc7a-c3f07822bf47"},"vehicle_type_id":"4","last_reported":1738001528,"current_range_meters":0,"station_id":"","pricing_plan_id":"cebpf4jnsgd1na2vs0mg"},{"bike_id":"9c2ae89f-02a9-42fa-92c9-ad67bba43257","system_id":"levelo_inurba_marseille","lat":43.29842,"lon":5.36292,"is_reserved":false,"is_disabled":false,"rental_uris":{"android":"levelo://app?vid=9c2ae89f-02a9-42fa-92c9-ad67bba43257","ios":"levelo://app?vid=9c2ae89f-02a9-42fa-92c9-ad67bba43257"},"vehicle_type_id":"4","last_reported":1738001528,"current_range_meters":22000,"station_id":"ce4bgpp2rcd13ifvqc3g","pricing_plan_id":"cebpf4jnsgd1na2vs0mg"},{"bike_id":"41fadb08-6384-431a-8fb7-83982b88c53e","system_id":"levelo_inurba_marseille","lat":43.30466,"lon":5.37904,"is_reserved":false,"is_disabled":true,"rental_uris":{"android":"levelo://app?vid=41fadb08-6384-431a-8fb7-83982b88c53e","ios":"levelo://app?vid=41fadb08-6384-431a-8fb7-83982b88c53e"},"vehicle_type_id":"4","last_reported":1738001528,"current_range_meters":38800,"station_id":"ce4bgup2rcd13ifvqcn0","pricing_plan_id":"cebpf4jnsgd1na2vs0mg"},{"bike_id":"a8d0380b-0a88-41c3-845f-e00ffb2cbc88","system_id":"levelo_inurba_marseille","lat":43.28001,"lon":5.40004,"is_reserved":false,"is_disabled":true,"rental_uris":{"android":"levelo://app?vid=a8d0380b-0a88-41c3-845f-e00ffb2cbc88","ios":"levelo://app?vid=a8d0380b-0a88-41c3-845f-e00ffb2cbc88"},"vehicle_type_id":"4","last_reported":1738001528,"current_range_meters":29600,"station_id":"ce4bho92rcd13ifvqh4g","pricing_plan_id":"cebpf4jnsgd1na2vs0mg"},{"bike_id":"960c2b1e-93ba-4e0e-baf5-fd8a6baa3c6b","system_id":"levelo_inurba_marseille","lat":43.25858,"lon":5.39907,"is_reserved":false,"is_disabled":true,"rental_uris":{"android":"levelo://app?vid=960c2b1e-93ba-4e0e-baf5-fd8a6baa3c6b","ios":"levelo://app?vid=960c2b1e-93ba-4e0e-baf5-fd8a6baa3c6b"},"vehicle_type_id":"4","last_reported":1738001528,"current_range_meters":36000,"station_id":"ce4bhl92rcd13ifvqghg","pricing_plan_id":"cebpf4jnsgd1na2vs0mg"},{"bike_id":"688eea87-7c36-4baa-b6b9-0ba0449d07a2","system_id":"levelo_inurba_marseille","lat":43.28068,"lon":5.39645,"is_reserved":false,"is_disabled":false,"rental_uris":{"android":"levelo://app?vid=688eea87-7c36-4baa-b6b9-0ba0449d07a2","ios":"levelo://app?vid=688eea87-7c36-4baa-b6b9-0ba0449d07a2"},"vehicle_type_id":"4","last_reported":1738001528,"current_range_meters":7200,"station_id":"ce4bho12rcd13ifvqh2g","pricing_plan_id":"cebpf4jnsgd1na2vs0mg"},{"bike_id":"a623944e-8ffb-4ca5-8cfd-d4f16cf59a61","system_id":"levelo_inurba_marseille","lat":43.25584,"lon":5.38231,"is_reserved":false,"is_disabled":false,"rental_uris":{"android":"levelo://app?vid=a623944e-8ffb-4ca5-8cfd-d4f16cf59a61","ios":"levelo://app?vid=a623944e-8ffb-4ca5-8cfd-d4f16cf59a61"},"vehicle_type_id":"4","last_reported":1738001528,"current_range_meters":27600,"station_id":"ce4bhih2rcd13ifvqfs0","pricing_plan_id":"cebpf4jnsgd1na2vs0mg"},{"bike_id":"a0647e71-4b64-4904-b96b-b4b0aa493cec","system_id":"levelo_inurba_marseille","lat":43.30325,"lon":5.4044,"is_reserved":false,"is_disabled":false,"rental_uris":{"android":"levelo://app?vid=a0647e71-4b64-4904-b96b-b4b0aa493cec","ios":"levelo://app?vid=a0647e71-4b64-4904-b96b-b4b0aa493cec"},"vehicle_type_id":"4","last_reported":1738001528,"current_range_meters":34800,"station_id":"ce4bh012rcd13ifvqd10","pricing_plan_id":"cebpf4jnsgd1na2vs0mg"},{"bike_id":"950ca279-f0d8-4ca1-a34b-f7e031f58ca6","system_id":"levelo_inurba_marseille","lat":43.29881,"lon":5.38912,"is_reserved":false,"is_disabled":false,"rental_uris":{"android":"levelo://app?vid=950ca279-f0d8-4ca1-a34b-f7e031f58ca6","ios":"levelo://app?vid=950ca279-f0d8-4ca1-a34b-f7e031f58ca6"},"vehicle_type_id":"4","last_reported":1738001528,"current_range_meters":7200,"station_id":"ce4bh392rcd13ifvqdl0","pricing_plan_id":"cebpf4jnsgd1na2vs0mg"},{"bike_id":"b2fd48c8-eb68-46fb-923c-03b85b7a1de2","system_id":"levelo_inurba_marseille","lat":43.31179,"lon":5.38716,"is_reserved":false,"is_disabled":false,"rental_uris":{"android":"levelo://app?vid=b2fd48c8-eb68-46fb-923c-03b85b7a1de2","ios":"levelo://app?vid=b2fd48c8-eb68-46fb-923c-03b85b7a1de2"},"vehicle_type_id":"4","last_reported":1738001528,"current_range_meters":24400,"station_id":"ce4bgv12rcd13ifvqcp0","pricing_plan_id":"cebpf4jnsgd1na2vs0mg"},{"bike_id":"c3238790-d7ad-47a5-a35e-3370473de763","system_id":"levelo_inurba_marseille","lat":43.24659,"lon":5.38161,"is_reserved":false,"is_disabled":false,"rental_uris":{"android":"levelo://app?vid=c3238790-d7ad-47a5-a35e-3370473de763","ios":"levelo://app?vid=c3238790-d7ad-47a5-a35e-3370473de763"},"vehicle_type_id":"4","last_reported":1738001528,"current_range_meters":38400,"station_id":"ce4bhih2rcd13ifvqfr0","pricing_plan_id":"cebpf4jnsgd1na2vs0mg"},{"bike_id":"0408ab56-23af-48b0-8d94-d6ad36902b56","system_id":"levelo_inurba_marseille","lat":43.2793,"lon":5.39583,"is_reserved":false,"is_disabled":false,"rental_uris":{"android":"levelo://app?vid=0408ab56-23af-48b0-8d94-d6ad36902b56","ios":"levelo://app?vid=0408ab56-23af-48b0-8d94-d6ad36902b56"},"vehicle_type_id":"4","last_reported":1738001528,"current_range_meters":6400,"station_id":"ce4bhf92rcd13ifvqf40","pricing_plan_id":"cebpf4jnsgd1na2vs0mg"},{"bike_id":"c438c788-2c8f-4eda-8233-a8485c23c4af","system_id":"levelo_inurba_marseille","lat":43.30421,"lon":5.41282,"is_reserved":false,"is_disabled":true,"rental_uris":{"android":"levelo://app?vid=c438c788-2c8f-4eda-8233-a8485c23c4af","ios":"levelo://app?vid=c438c788-2c8f-4eda-8233-a8485c23c4af"},"vehicle_type_id":"4","last_reported":1738001528,"current_range_meters":0,"station_id":"ce4bhop2rcd13ifvqh8g","pricing_plan_id":"cebpf4jnsgd1na2vs0mg"},{"bike_id":"0a5fde81-0685-4894-b805-5edb46505778","system_id":"levelo_inurba_marseille","lat":43.24639,"lon":5.38155,"is_reserved":false,"is_disabled":true,"rental_uris":{"android":"levelo://app?vid=0a5fde81-0685-4894-b805-5edb46505778","ios":"levelo://app?vid=0a5fde81-0685-4894-b805-5edb46505778"},"vehicle_type_id":"4","last_reported":1738001528,"current_range_meters":38800,"station_id":"ce4bhih2rcd13ifvqfr0","pricing_plan_id":"cebpf4jnsgd1na2vs0mg"},{"bike_id":"9c8682a0-e665-42ca-9e8b-8233d9f42b52","system_id":"levelo_inurba_marseille","lat":43.2692,"lon":5.40282,"is_reserved":false,"is_disabled":false,"rental_uris":{"android":"levelo://app?vid=9c8682a0-e665-42ca-9e8b-8233d9f42b52","ios":"levelo://app?vid=9c8682a0-e665-42ca-9e8b-8233d9f42b52"},"vehicle_type_id":"4","last_reported":1738001528,"current_range_meters":9600,"station_id":"cjm6bp8fraef2m0cb0m0","pricing_plan_id":"cebpf4jnsgd1na2vs0mg"},{"bike_id":"c8d48caa-591d-43fc-a34d-e9409bd0f176","system_id":"levelo_inurba_marseille","lat":43.31321,"lon":5.39723,"is_reserved":false,"is_disabled":false,"rental_uris":{"android":"levelo://app?vid=c8d48caa-591d-43fc-a34d-e9409bd0f176","ios":"levelo://app?vid=c8d48caa-591d-43fc-a34d-e9409bd0f176"},"vehicle_type_id":"4","last_reported":1738001528,"current_range_meters":39200,"station_id":"ce4bgvp2rcd13ifvqcu0","pricing_plan_id":"cebpf4jnsgd1na2vs0mg"},{"bike_id":"46e208d2-40e7-467a-add7-2481736a58db","system_id":"levelo_inurba_marseille","lat":43.29283,"lon":5.40122,"is_reserved":false,"is_disabled":false,"rental_uris":{"android":"levelo://app?vid=46e208d2-40e7-467a-add7-2481736a58db","ios":"levelo://app?vid=46e208d2-40e7-467a-add7-2481736a58db"},"vehicle_type_id":"4","last_reported":1738001528,"current_range_meters":29600,"station_id":"ce4bh312rcd13ifvqdk0","pricing_plan_id":"cebpf4jnsgd1na2vs0mg"},{"bike_id":"7dd225c7-0dd6-4324-9d71-381959d8650e","system_id":"levelo_inurba_marseille","lat":43.28575,"lon":5.39499,"is_reserved":false,"is_disabled":false,"rental_uris":{"android":"levelo://app?vid=7dd225c7-0dd6-4324-9d71-381959d8650e","ios":"levelo://app?vid=7dd225c7-0dd6-4324-9d71-381959d8650e"},"vehicle_type_id":"4","last_reported":1738001528,"current_range_meters":39200,"station_id":"ce4bh292rcd13ifvqdg0","pricing_plan_id":"cebpf4jnsgd1na2vs0mg"},{"bike_id":"3d98c6ce-e80d-46e8-b577-648cd8c28632","system_id":"levelo_inurba_marseille","lat":43.34699,"lon":5.34741,"is_reserved":false,"is_disabled":true,"rental_uris":{"android":"levelo://app?vid=3d98c6ce-e80d-46e8-b577-648cd8c28632","ios":"levelo://app?vid=3d98c6ce-e80d-46e8-b577-648cd8c28632"},"vehicle_type_id":"4","last_reported":1738001528,"current_range_meters":0,"station_id":"","pricing_plan_id":"cebpf4jnsgd1na2vs0mg"},{"bike_id":"e6a65b54-242d-40b3-ad1d-4f0c6a57cf1d","system_id":"levelo_inurba_marseille","lat":43.2681,"lon":5.40263,"is_reserved":false,"is_disabled":false,"rental_uris":{"android":"levelo://app?vid=e6a65b54-242d-40b3-ad1d-4f0c6a57cf1d","ios":"levelo://app?vid=e6a65b54-242d-40b3-ad1d-4f0c6a57cf1d"},"vehicle_type_id":"4","last_reported":1738001528,"current_range_meters":19200,"station_id":"ce501612rcd8frsf0b60","pricing_plan_id":"cebpf4jnsgd1na2vs0mg"},{"bike_id":"7f6c02e3-438c-40db-8dec-1bf108c97f67","system_id":"levelo_inurba_marseille","lat":43.28959,"lon":5.37821,"is_reserved":false,"is_disabled":true,"rental_uris":{"android":"levelo://app?vid=7f6c02e3-438c-40db-8dec-1bf108c97f67","ios":"levelo://app?vid=7f6c02e3-438c-40db-8dec-1bf108c97f67"},"vehicle_type_id":"4","last_reported":1738001528,"current_range_meters":27600,"station_id":"ce4bh9p2rcd13ifvqed0","pricing_plan_id":"cebpf4jnsgd1na2vs0mg"},{"bike_id":"16cba4e1-cb10-44ef-b1a1-eca95385335f","system_id":"levelo_inurba_marseille","lat":43.2843,"lon":5.3498,"is_reserved":false,"is_disabled":true,"rental_uris":{"android":"levelo://app?vid=16cba4e1-cb10-44ef-b1a1-eca95385335f","ios":"levelo://app?vid=16cba4e1-cb10-44ef-b1a1-eca95385335f"},"vehicle_type_id":"4","last_reported":1738001528,"current_range_meters":34800,"station_id":"ce4bhbh2rcd13ifvqepg","pricing_plan_id":"cebpf4jnsgd1na2vs0mg"},{"bike_id":"9c6c808c-2344-4484-b654-8a68fb115aa6","system_id":"levelo_inurba_marseille","lat":43.31433,"lon":5.37388,"is_reserved":false,"is_disabled":false,"rental_uris":{"android":"levelo://app?vid=9c6c808c-2344-4484-b654-8a68fb115aa6","ios":"levelo://app?vid=9c6c808c-2344-4484-b654-8a68fb115aa6"},"vehicle_type_id":"4","last_reported":1738001528,"current_range_meters":33200,"station_id":"","pricing_plan_id":"cebpf4jnsgd1na2vs0mg"},{"bike_id":"f18dafe1-3f45-4a08-94f9-e849bfe3564d","system_id":"levelo_inurba_marseille","lat":43.31646,"lon":5.37753,"is_reserved":false,"is_disabled":false,"rental_uris":{"android":"levelo://app?vid=f18dafe1-3f45-4a08-94f9-e849bfe3564d","ios":"levelo://app?vid=f18dafe1-3f45-4a08-94f9-e849bfe3564d"},"vehicle_type_id":"4","last_reported":1738001528,"current_range_meters":38800,"station_id":"","pricing_plan_id":"cebpf4jnsgd1na2vs0mg"},{"bike_id":"147c0c28-1299-413c-a3b0-e508aab778ac","system_id":"levelo_inurba_marseille","lat":43.32335,"lon":5.40614,"is_reserved":false,"is_disabled":true,"rental_uris":{"android":"levelo://app?vid=147c0c28-1299-413c-a3b0-e508aab778ac","ios":"levelo://app?vid=147c0c28-1299-413c-a3b0-e508aab778ac"},"vehicle_type_id":"4","last_reported":1738001528,"current_range_meters":1600,"station_id":"ce4bhq92rcd13ifvqhjg","pricing_plan_id":"cebpf4jnsgd1na2vs0mg"},{"bike_id":"641137b0-17df-4e28-adbb-ed7e8e5e6190","system_id":"levelo_inurba_marseille","lat":43.26557,"lon":5.37286,"is_reserved":false,"is_disabled":false,"rental_uris":{"android":"levelo://app?vid=641137b0-17df-4e28-adbb-ed7e8e5e6190","ios":"levelo://app?vid=641137b0-17df-4e28-adbb-ed7e8e5e6190"},"vehicle_type_id":"4","last_reported":1738001528,"current_range_meters":9200,"station_id":"ce4bhg12rcd13ifvqf70","pricing_plan_id":"cebpf4jnsgd1na2vs0mg"},{"bike_id":"8fc5f132-29ed-47c1-bff0-bf17728d82ae","system_id":"levelo_inurba_marseille","lat":43.29381,"lon":5.37838,"is_reserved":false,"is_disabled":true,"rental_uris":{"android":"levelo://app?vid=8fc5f132-29ed-47c1-bff0-bf17728d82ae","ios":"levelo://app?vid=8fc5f132-29ed-47c1-bff0-bf17728d82ae"},"vehicle_type_id":"4","last_reported":1738001528,"current_range_meters":28800,"station_id":"ce4bgjh2rcd13ifvqbf0","pricing_plan_id":"cebpf4jnsgd1na2vs0mg"},{"bike_id":"ea665730-ca4f-4b64-8b29-33a46171c919","system_id":"levelo_inurba_marseille","lat":43.29567,"lon":5.36745,"is_reserved":false,"is_disabled":false,"rental_uris":{"android":"levelo://app?vid=ea665730-ca4f-4b64-8b29-33a46171c919","ios":"levelo://app?vid=ea665730-ca4f-4b64-8b29-33a46171c919"},"vehicle_type_id":"4","last_reported":1738001528,"current_range_meters":38800,"station_id":"ce4bgph2rcd13ifvqc2g","pricing_plan_id":"cebpf4jnsgd1na2vs0mg"},{"bike_id":"c51e0877-3027-4004-bc59-85436e33b7d7","system_id":"levelo_inurba_marseille","lat":43.29032,"lon":5.38114,"is_reserved":false,"is_disabled":false,"rental_uris":{"android":"levelo://app?vid=c51e0877-3027-4004-bc59-85436e33b7d7","ios":"levelo://app?vid=c51e0877-3027-4004-bc59-85436e33b7d7"},"vehicle_type_id":"4","last_reported":1738001528,"current_range_meters":36400,"station_id":"ce4bh4p2rcd13ifvqe1g","pricing_plan_id":"cebpf4jnsgd1na2vs0mg"},{"bike_id":"4f5703bc-ce9b-4e71-a789-6e6da629163a","system_id":"levelo_inurba_marseille","lat":43.28573,"lon":5.39504,"is_reserved":false,"is_disabled":false,"rental_uris":{"android":"levelo://app?vid=4f5703bc-ce9b-4e71-a789-6e6da629163a","ios":"levelo://app?vid=4f5703bc-ce9b-4e71-a789-6e6da629163a"},"vehicle_type_id":"4","last_reported":1738001528,"current_range_meters":28400,"station_id":"ce4bh292rcd13ifvqdg0","pricing_plan_id":"cebpf4jnsgd1na2vs0mg"},{"bike_id":"ee8b1df2-1e22-4b48-bd7b-f74172e9fa96","system_id":"levelo_inurba_marseille","lat":43.27812,"lon":5.40718,"is_reserved":false,"is_disabled":false,"rental_uris":{"android":"levelo://app?vid=ee8b1df2-1e22-4b48-bd7b-f74172e9fa96","ios":"levelo://app?vid=ee8b1df2-1e22-4b48-bd7b-f74172e9fa96"},"vehicle_type_id":"4","last_reported":1738001528,"current_range_meters":17200,"station_id":"ce4bhnh2rcd13ifvqgtg","pricing_plan_id":"cebpf4jnsgd1na2vs0mg"},{"bike_id":"63121853-d3ae-48b9-933c-579cf2441cbf","system_id":"levelo_inurba_marseille","lat":43.28444,"lon":5.35853,"is_reserved":false,"is_disabled":false,"rental_uris":{"android":"levelo://app?vid=63121853-d3ae-48b9-933c-579cf2441cbf","ios":"levelo://app?vid=63121853-d3ae-48b9-933c-579cf2441cbf"},"vehicle_type_id":"4","last_reported":1738001528,"current_range_meters":39200,"station_id":"ce4bhah2rcd13ifvqei0","pricing_plan_id":"cebpf4jnsgd1na2vs0mg"},{"bike_id":"79cfbf55-97ec-4a5b-af3a-38bd70f71f3a","system_id":"levelo_inurba_marseille","lat":43.23195,"lon":5.35553,"is_reserved":false,"is_disabled":false,"rental_uris":{"android":"levelo://app?vid=79cfbf55-97ec-4a5b-af3a-38bd70f71f3a","ios":"levelo://app?vid=79cfbf55-97ec-4a5b-af3a-38bd70f71f3a"},"vehicle_type_id":"4","last_reported":1738001528,"current_range_meters":10800,"station_id":"ce4bhu92rcd13ifvqi70","pricing_plan_id":"cebpf4jnsgd1na2vs0mg"},{"bike_id":"dbb1b399-227f-446a-8b9e-f23c107c3f5a","system_id":"levelo_inurba_marseille","lat":43.28571,"lon":5.39508,"is_reserved":false,"is_disabled":false,"rental_uris":{"android":"levelo://app?vid=dbb1b399-227f-446a-8b9e-f23c107c3f5a","ios":"levelo://app?vid=dbb1b399-227f-446a-8b9e-f23c107c3f5a"},"vehicle_type_id":"4","last_reported":1738001528,"current_range_meters":20000,"station_id":"ce4bh292rcd13ifvqdg0","pricing_plan_id":"cebpf4jnsgd1na2vs0mg"},{"bike_id":"f4a67fd7-7ba0-462e-b321-724410a83bc3","system_id":"levelo_inurba_marseille","lat":43.286038,"lon":5.350989,"is_reserved":false,"is_disabled":false,"rental_uris":{"android":"levelo://app?vid=f4a67fd7-7ba0-462e-b321-724410a83bc3","ios":"levelo://app?vid=f4a67fd7-7ba0-462e-b321-724410a83bc3"},"vehicle_type_id":"4","last_reported":1738001528,"current_range_meters":36800,"station_id":"ce4bhch2rcd13ifvqeug","pricing_plan_id":"cebpf4jnsgd1na2vs0mg"},{"bike_id":"464c9cdf-360c-413c-85e0-bed94a651ca7","system_id":"levelo_inurba_marseille","lat":43.23183,"lon":5.39977,"is_reserved":false,"is_disabled":false,"rental_uris":{"android":"levelo://app?vid=464c9cdf-360c-413c-85e0-bed94a651ca7","ios":"levelo://app?vid=464c9cdf-360c-413c-85e0-bed94a651ca7"},"vehicle_type_id":"4","last_reported":1738001528,"current_range_meters":38800,"station_id":"ce4bhn12rcd13ifvqgqg","pricing_plan_id":"cebpf4jnsgd1na2vs0mg"},{"bike_id":"a7bb0c53-8f80-4e0d-b57d-aae3c0f20cca","system_id":"levelo_inurba_marseille","lat":43.29418,"lon":5.38645,"is_reserved":false,"is_disabled":false,"rental_uris":{"android":"levelo://app?vid=a7bb0c53-8f80-4e0d-b57d-aae3c0f20cca","ios":"levelo://app?vid=a7bb0c53-8f80-4e0d-b57d-aae3c0f20cca"},"vehicle_type_id":"4","last_reported":1738001528,"current_range_meters":18800,"station_id":"ce4bh2h2rcd13ifvqdh0","pricing_plan_id":"cebpf4jnsgd1na2vs0mg"},{"bike_id":"4008c5d4-accb-4981-8933-9e85f4cde128","system_id":"levelo_inurba_marseille","lat":43.2319,"lon":5.35559,"is_reserved":false,"is_disabled":false,"rental_uris":{"android":"levelo://app?vid=4008c5d4-accb-4981-8933-9e85f4cde128","ios":"levelo://app?vid=4008c5d4-accb-4981-8933-9e85f4cde128"},"vehicle_type_id":"4","last_reported":1738001528,"current_range_meters":16400,"station_id":"ce4bhu92rcd13ifvqi70","pricing_plan_id":"cebpf4jnsgd1na2vs0mg"},{"bike_id":"4b97fadc-60a8-46a0-ba51-350631f405f8","system_id":"levelo_inurba_marseille","lat":43.26916,"lon":5.4025,"is_reserved":false,"is_disabled":false,"rental_uris":{"android":"levelo://app?vid=4b97fadc-60a8-46a0-ba51-350631f405f8","ios":"levelo://app?vid=4b97fadc-60a8-46a0-ba51-350631f405f8"},"vehicle_type_id":"4","last_reported":1738001528,"current_range_meters":36800,"station_id":"cjm6bp8fraef2m0cb0m0","pricing_plan_id":"cebpf4jnsgd1na2vs0mg"},{"bike_id":"089f6b7e-e8af-4f6b-8e64-c77aadf1aaa5","system_id":"levelo_inurba_marseille","lat":43.31068,"lon":5.3836,"is_reserved":false,"is_disabled":true,"rental_uris":{"android":"levelo://app?vid=089f6b7e-e8af-4f6b-8e64-c77aadf1aaa5","ios":"levelo://app?vid=089f6b7e-e8af-4f6b-8e64-c77aadf1aaa5"},"vehicle_type_id":"4","last_reported":1738001528,"current_range_meters":0,"station_id":"ce4bgv92rcd13ifvqcr0","pricing_plan_id":"cebpf4jnsgd1na2vs0mg"},{"bike_id":"60ce60ee-301f-4589-8262-3509a7310834","system_id":"levelo_inurba_marseille","lat":43.28155,"lon":5.42636,"is_reserved":false,"is_disabled":true,"rental_uris":{"android":"levelo://app?vid=60ce60ee-301f-4589-8262-3509a7310834","ios":"levelo://app?vid=60ce60ee-301f-4589-8262-3509a7310834"},"vehicle_type_id":"4","last_reported":1738001528,"current_range_meters":0,"station_id":"ce4bhnh2rcd13ifvqgug","pricing_plan_id":"cebpf4jnsgd1na2vs0mg"},{"bike_id":"c47da181-033f-4c98-9f61-1d67f07c30cb","system_id":"levelo_inurba_marseille","lat":43.28464,"lon":5.35889,"is_reserved":false,"is_disabled":true,"rental_uris":{"android":"levelo://app?vid=c47da181-033f-4c98-9f61-1d67f07c30cb","ios":"levelo://app?vid=c47da181-033f-4c98-9f61-1d67f07c30cb"},"vehicle_type_id":"4","last_reported":1738001528,"current_range_meters":0,"station_id":"ce4bhah2rcd13ifvqei0","pricing_plan_id":"cebpf4jnsgd1na2vs0mg"},{"bike_id":"31b510b0-2cc1-4a91-ad18-976e4220af8d","system_id":"levelo_inurba_marseille","lat":43.26221,"lon":5.40445,"is_reserved":false,"is_disabled":false,"rental_uris":{"android":"levelo://app?vid=31b510b0-2cc1-4a91-ad18-976e4220af8d","ios":"levelo://app?vid=31b510b0-2cc1-4a91-ad18-976e4220af8d"},"vehicle_type_id":"4","last_reported":1738001528,"current_range_meters":33600,"station_id":"","pricing_plan_id":"cebpf4jnsgd1na2vs0mg"},{"bike_id":"af27571c-dbd9-4da4-85f4-96f3d0a1f3af","system_id":"levelo_inurba_marseille","lat":43.25009,"lon":5.38934,"is_reserved":false,"is_disabled":false,"rental_uris":{"android":"levelo://app?vid=af27571c-dbd9-4da4-85f4-96f3d0a1f3af","ios":"levelo://app?vid=af27571c-dbd9-4da4-85f4-96f3d0a1f3af"},"vehicle_type_id":"4","last_reported":1738001528,"current_range_meters":38800,"station_id":"ce4bhgp2rcd13ifvqfd0","pricing_plan_id":"cebpf4jnsgd1na2vs0mg"},{"bike_id":"dfea5cc1-992e-42e5-a18b-0d697a753b0a","system_id":"levelo_inurba_marseille","lat":43.30928,"lon":5.40165,"is_reserved":false,"is_disabled":false,"rental_uris":{"android":"levelo://app?vid=dfea5cc1-992e-42e5-a18b-0d697a753b0a","ios":"levelo://app?vid=dfea5cc1-992e-42e5-a18b-0d697a753b0a"},"vehicle_type_id":"4","last_reported":1738001528,"current_range_meters":27200,"station_id":"ce4bgvp2rcd13ifvqct0","pricing_plan_id":"cebpf4jnsgd1na2vs0mg"},