{"last_updated":1751267580,"ttl":60,"version":"2.2","data":{"bikes":[{"bike_id":"3da29fb8-fc97-44c6-b9ac-31dd456b2fd4","system_id":"levelo_inurba_marseille","lat":43.33771,"lon":5.37424,"is_reserved":false,"is_disabled":true,"rental_uris":{"android":"levelo://app?vid=3da29fb8-fc97-44c6-b9ac-31dd456b2fd4","ios":"levelo://app?vid=3da29fb8-fc97-44c6-b9ac-31dd456b2fd4"},"vehicle_type_id":"4","last_reported":1751267580,"current_range_meters":0,"station_id":"","pricing_plan_id":"cebpf4jnsgd1na2vs0mg"},{"bike_id":"01861ad8-a8d7-4be6-816e-651927c87584","system_id":"levelo_inurba_marseille","lat":43.33751,"lon":5.37456,"is_reserved":false,"is_disabled":true,"rental_uris":{"android":"levelo://app?vid=01861ad8-a8d7-4be6-816e-651927c87584","ios":"levelo://app?vid=01861ad8-a8d7-4be6-816e-651927c87584"},"vehicle_type_id":"4","last_reported":1751267580,"current_range_meters":0,"station_id":"","pricing_plan_id":"cebpf4jnsgd1na2vs0mg"},{"bike_id":"e83d088b-72a0-4ba6-a73e-716a311dec4d","system_id":"levelo_inurba_marseille","lat":43.24516,"lon":5.37309,"is_reserved":false,"is_disabled":true,"rental_uris":{"android":"levelo://app?vid=e83d088b-72a0-4ba6-a73e-716a311dec4d","ios":"levelo://app?vid=e83d088b-72a0-4ba6-a73e-716a311dec4d"},"vehicle_type_id":"4","last_reported":1751267580,"current_range_meters":0,"station_id":"","pricing_plan_id":"cebpf4jnsgd1na2vs0mg"},{"bike_id":"c189c64a-a9eb-4c27-8d9d-989757fb1cca","system_id":"levelo_inurba_marseille","lat":43.24785,"lon":5.3756,"is_reserved":false,"is_disabled":true,"rental_uris":{"android":"levelo://app?vid=c189c64a-a9eb-4c27-8d9d-989757fb1cca","ios":"levelo://app?vid=c189c64a-a9eb-4c27-8d9d-989757fb1cca"},"vehicle_type_id":"4","last_reported":1751267580,"current_range_meters":0,"station_id":"","pricing_plan_id":"cebpf4jnsgd1na2vs0mg"},{"bike_id":"7aac647a-260b-423f-ae41-874b82472ad9","system_id":"levelo_inurba_marseille","lat":43.232066,"lon":5.3509,"is_reserved":false,"is_disabled":true,"rental_uris":{"android":"levelo://app?vid=7aac647a-260b-423f-ae41-874b82472ad9","ios":"levelo://app?vid=7aac647a-260b-423f-ae41-874b82472ad9"},"vehicle_type_id":"4","last_reported":1751267580,"current_range_meters":0,"station_id":"","pricing_plan_id":"cebpf4jnsgd1na2vs0mg"},{"bike_id":"f1483ff6-ae8a-4286-a635-7d40887e3e92","system_id":"levelo_inurba_marseille","lat":43.269599,"lon":5.36634,"is_reserved":false,"is_disabled":true,"rental_uris":{"android":"levelo://app?vid=f1483ff6-ae8a-4286-a635-7d40887e3e92","ios":"levelo://app?vid=f1483ff6-ae8a-4286-a635-7d40887e3e92"},"vehicle_type_id":"4","last_reported":1751267580,"current_range_meters":0,"station_id":"","pricing_plan_id":"cebpf4jnsgd1na2vs0mg"},{"bike_id":"ce992139-b465-482c-8ef7-7f1636b3d518","system_id":"levelo_inurba_marseille","lat":43.21217,"lon":5.3503,"is_reserved":false,"is_disabled":true,"rental_uris":{"android":"levelo://app?vid=ce992139-b465-482c-8ef7-7f1636b3d518","ios":"levelo://app?vid=ce992139-b465-482c-8ef7-7f1636b3d518"},"vehicle_type_id":"4","last_reported":1751267580,"current_range_meters":0,"station_id":"","pricing_plan_id":"cebpf4jnsgd1na2vs0mg"},{"bike_id":"d72c4377-e465-4f63-add4-52e06f429353","system_id":"levelo_inurba_marseille","lat":43.310943,"lon":5.386373,"is_reserved":false,"is_disabled":true,"rental_uris":{"android":"levelo://app?vid=d72c4377-e465-4f63-add4-52e06f429353","ios":"levelo://app?vid=d72c4377-e465-4f63-add4-52e06f429353"},"vehicle_type_id":"4","last_reported":1751267580,"current_range_meters":0,"station_id":"","pricing_plan_id":"cebpf4jnsgd1na2vs0mg"},{"bike_id":"80955d0f-8669-4c02-b90f-c6fe20790c37","system_id":"levelo_inurba_marseille","lat":43.23206,"lon":5.35161,"is_reserved":false,"is_disabled":true,"rental_uris":{"android":"levelo://app?vid=80955d0f-8669-4c02-b90f-c6fe20790c37","ios":"levelo://app?vid=80955d0f-8669-4c02-b90f-c6fe20790c37"},"vehicle_type_id":"4","last_reported":1751267580,"current_range_meters":0,"station_id":"","pricing_plan_id":"cebpf4jnsgd1na2vs0mg"},{"bike_id":"6000c399-f13b-4295-bb92-4850a98945bc","system_id":"levelo_inurba_marseille","lat":43.24395,"lon":5.40093,"is_reserved":false,"is_disabled":true,"rental_uris":{"android":"levelo://app?vid=6000c399-f13b-4295-bb92-4850a98945bc","ios":"levelo://app?vid=6000c399-f13b-4295-bb92-4850a98945bc"},"vehicle_type_id":"4","last_reported":1751267580,"current_range_meters":0,"station_id":"","pricing_plan_id":"cebpf4jnsgd1na2vs0mg"},{"bike_id":"666ef40e-8142-4330-a1bf-355f72ca0910","system_id":"levelo_inurba_marseille","lat":43.26316,"lon":5.40109,"is_reserved":false,"is_disabled":true,"rental_uris":{"android":"levelo://app?vid=666ef40e-8142-4330-a1bf-355f72ca0910","ios":"levelo://app?vid=666ef40e-8142-4330-a1bf-355f72ca0910"},"vehicle_type_id":"4","last_reported":1751267580,"current_range_meters":0,"station_id":"","pricing_plan_id":"cebpf4jnsgd1na2vs0mg"},{"bike_id":"817f48ab-13a2-42e6-a4c1-199cce1d2786","system_id":"levelo_inurba_marseille","lat":43.30909,"lon":5.3685,"is_reserved":false,"is_disabled":true,"rental_uris":{"android":"levelo://app?vid=817f48ab-13a2-42e6-a4c1-199cce1d2786","ios":"levelo://app?vid=817f48ab-13a2-42e6-a4c1-199cce1d2786"},"vehicle_type_id":"4","last_reported":1751267580,"current_range_meters":0,"station_id":"ce4bgn92rcd13ifvqbvg","pricing_plan_id":"cebpf4jnsgd1na2vs0mg"},{"bike_id":"d59eb2c6-0aa8-47a3-9f58-9782c4d9293a","system_id":"levelo_inurba_marseille","lat":43.29224,"lon":5.39318,"is_reserved":false,"is_disabled":true,"rental_uris":{"android":"levelo://app?vid=d59eb2c6-0aa8-47a3-9f58-9782c4d9293a","ios":"levelo://app?vid=d59eb2c6-0aa8-47a3-9f58-9782c4d9293a"},"vehicle_type_id":"4","last_reported":1751267580,"current_range_meters":0,"station_id":"ce4bh192rcd13ifvqdd0","pricing_plan_id":"cebpf4jnsgd1na2vs0mg"},{"bike_id":"9ec8ee7a-70d2-4127-90a3-ff19e9cd7645","system_id":"levelo_inurba_marseille","lat":43.29042,"lon":5.39943,"is_reserved":false,"is_disabled":true,"rental_uris":{"android":"levelo://app?vid=9ec8ee7a-70d2-4127-90a3-ff19e9cd7645","ios":"levelo://app?vid=9ec8ee7a-70d2-4127-90a3-ff19e9cd7645"},"vehicle_type_id":"4","last_reported":1751267580,"current_range_meters":0,"station_id":"ce4bh392rcd13ifvqdm0","pricing_plan_id":"cebpf4jnsgd1na2vs0mg"},{"bike_id":"033a09f5-ae17-4a3e-8db3-110d81477f8c","system_id":"levelo_inurba_marseille","lat":43.25585,"lon":5.38227,"is_reserved":false,"is_disabled":true,"rental_uris":{"android":"levelo://app?vid=033a09f5-ae17-4a3e-8db3-110d81477f8c","ios":"levelo://app?vid=033a09f5-ae17-4a3e-8db3-110d81477f8c"},"vehicle_type_id":"4","last_reported":1751267580,"current_range_meters":0,"station_id":"ce4bhih2rcd13ifvqfs0","pricing_plan_id":"cebpf4jnsgd1na2vs0mg"},{"bike_id":"4fa57d96-2248-4f46-a1de-c1d178fbcb90","system_id":"levelo_inurba_marseille","lat":43.33605,"lon":5.41032,"is_reserved":false,"is_disabled":true,"rental_uris":{"android":"levelo://app?vid=4fa57d96-2248-4f46-a1de-c1d178fbcb90","ios":"levelo://app?vid=4fa57d96-2248-4f46-a1de-c1d178fbcb90"},"vehicle_type_id":"4","last_reported":1751267580,"current_range_meters":0,"station_id":"ce4bhqh2rcd13ifvqhmg","pricing_plan_id":"cebpf4jnsgd1na2vs0mg"},{"bike_id":"b7d0d8a1-c5dd-4278-8b3b-f5786872fe32","system_id":"levelo_inurba_marseille","lat":43.32109,"lon":5.36759,"is_reserved":false,"is_disabled":true,"rental_uris":{"android":"levelo://app?vid=b7d0d8a1-c5dd-4278-8b3b-f5786872fe32","ios":"levelo://app?vid=b7d0d8a1-c5dd-4278-8b3b-f5786872fe32"},"vehicle_type_id":"4","last_reported":1751267580,"current_range_meters":0,"station_id":"ce4bhrh2rcd13ifvqhug","pricing_plan_id":"cebpf4jnsgd1na2vs0mg"},{"bike_id":"a7efee83-97cf-42c6-80ef-3679a328d089","system_id":"levelo_inurba_marseille","lat":43.23071,"lon":5.35504,"is_reserved":false,"is_disabled":true,"rental_uris":{"android":"levelo://app?vid=a7efee83-97cf-42c6-80ef-3679a328d089","ios":"levelo://app?vid=a7efee83-97cf-42c6-80ef-3679a328d089"},"vehicle_type_id":"4","last_reported":1751267580,"current_range_meters":0,"station_id":"cpo3342slgdg3j2ifvpg","pricing_plan_id":"cebpf4jnsgd1na2vs0mg"},{"bike_id":"139b16ef-4f8c-42cc-82b4-72106a345d6b","system_id":"levelo_inurba_marseille","lat":43.21741,"lon":5.34593,"is_reserved":false,"is_disabled":true,"rental_uris":{"android":"levelo://app?vid=139b16ef-4f8c-42cc-82b4-72106a345d6b","ios":"levelo://app?vid=139b16ef-4f8c-42cc-82b4-72106a345d6b"},"vehicle_type_id":"4","last_reported":1751267580,"current_range_meters":0,"station_id":"st_cvj6r9ubvosntc0bgbag","pricing_plan_id":"cebpf4jnsgd1na2vs0mg"},{"bike_id":"a4867c56-fce5-41ab-8339-1b7a9dd9b55d","system_id":"levelo_inurba_marseille","lat":43.2893,"lon":5.427546,"is_reserved":false,"is_disabled":true,"rental_uris":{"android":"levelo://app?vid=a4867c56-fce5-41ab-8339-1b7a9dd9b55d","ios":"levelo://app?vid=a4867c56-fce5-41ab-8339-1b7a9dd9b55d"},"vehicle_type_id":"4","last_reported":1751267580,"current_range_meters":400,"station_id":"","pricing_plan_id":"cebpf4jnsgd1na2vs0mg"},{"bike_id":"e24119d7-79a9-4a48-ab78-b0006d97fe42","system_id":"levelo_inurba_marseille","lat":43.29564,"lon":5.37513,"is_reserved":false,"is_disabled":true,"rental_uris":{"android":"levelo://app?vid=e24119d7-79a9-4a48-ab78-b0006d97fe42","ios":"levelo://app?vid=e24119d7-79a9-4a48-ab78-b0006d97fe42"},"vehicle_type_id":"4","last_reported":1751267580,"current_range_meters":400,"station_id":"ce4bgh92rcd13ifvqb50","pricing_plan_id":"cebpf4jnsgd1na2vs0mg"},{"bike_id":"ef794f47-e691-4bda-a878-d5435ad0c50c","system_id":"levelo_inurba_marseille","lat":43.29626,"lon":5.37166,"is_reserved":false,"is_disabled":true,"rental_uris":{"android":"levelo://app?vid=ef794f47-e691-4bda-a878-d5435ad0c50c","ios":"levelo://app?vid=ef794f47-e691-4bda-a878-d5435ad0c50c"},"vehicle_type_id":"4","last_reported":1751267580,"current_range_meters":400,"station_id":"ce4bgnh2rcd13ifvqc0g","pricing_plan_id":"cebpf4jnsgd1na2vs0mg"},{"bike_id":"2b462f4b-bcde-4381-b4ff-5526e78ee72d","system_id":"levelo_inurba_marseille","lat":43.2409,"lon":5.37746,"is_reserved":false,"is_disabled":true,"rental_uris":{"android":"levelo://app?vid=2b462f4b-bcde-4381-b4ff-5526e78ee72d","ios":"levelo://app?vid=2b462f4b-bcde-4381-b4ff-5526e78ee72d"},"vehicle_type_id":"4","last_reported":1751267580,"current_range_meters":400,"station_id":"ce4bhnp2rcd13ifvqgvg","pricing_plan_id":"cebpf4jnsgd1na2vs0mg"},{"bike_id":"cb562e81-18e4-4e68-8044-00b42132ffb9","system_id":"levelo_inurba_marseille","lat":43.32487,"lon":5.3656,"is_reserved":false,"is_disabled":true,"rental_uris":{"android":"levelo://app?vid=cb562e81-18e4-4e68-8044-00b42132ffb9","ios":"levelo://app?vid=cb562e81-18e4-4e68-8044-00b42132ffb9"},"vehicle_type_id":"4","last_reported":1751267580,"current_range_meters":400,"station_id":"ce4bhs12rcd13ifvqhvg","pricing_plan_id":"cebpf4jnsgd1na2vs0mg"},{"bike_id":"55052a7e-1580-42cd-b5b8-08dbe013f484","system_id":"levelo_inurba_marseille","lat":43.31173,"lon":5.3872,"is_reserved":false,"is_disabled":true,"rental_uris":{"android":"levelo://app?vid=55052a7e-1580-42cd-b5b8-08dbe013f484","ios":"levelo://app?vid=55052a7e-1580-42cd-b5b8-08dbe013f484"},"vehicle_type_id":"4","last_reported":1751267580,"current_range_meters":800,"station_id":"ce4bgv12rcd13ifvqcp0","pricing_plan_id":"cebpf4jnsgd1na2vs0mg"},{"bike_id":"3cc928bf-fc87-4add-a0e4-9c30b334cbe9","system_id":"levelo_inurba_marseille","lat":43.2582,"lon":5.37595,"is_reserved":false,"is_disabled":true,"rental_uris":{"android":"levelo://app?vid=3cc928bf-fc87-4add-a0e4-9c30b334cbe9","ios":"levelo://app?vid=3cc928bf-fc87-4add-a0e4-9c30b334cbe9"},"vehicle_type_id":"4","last_reported":1751267580,"current_range_meters":1200,"station_id":"","pricing_plan_id":"cebpf4jnsgd1na2vs0mg"},{"bike_id":"a3c6d650-920c-4b36-bc45-9ab520c490cf","system_id":"levelo_inurba_marseille","lat":43.2908,"lon":5.3715,"is_reserved":false,"is_disabled":true,"rental_uris":{"android":"levelo://app?vid=a3c6d650-920c-4b36-bc45-9ab520c490cf","ios":"levelo://app?vid=a3c6d650-920c-4b36-bc45-9ab520c490cf"},"vehicle_type_id":"4","last_reported":1751267580,"current_range_meters":1200,"station_id":"ce4bh5p2rcd13ifvqe4g","pricing_plan_id":"cebpf4jnsgd1na2vs0mg"},{"bike_id":"30d17e57-9827-4709-9d66-3fe2ea7e0ea0","system_id":"levelo_inurba_marseille","lat":43.28485,"lon":5.38585,"is_reserved":false,"is_disabled":true,"rental_uris":{"android":"levelo://app?vid=30d17e57-9827-4709-9d66-3fe2ea7e0ea0","ios":"levelo://app?vid=30d17e57-9827-4709-9d66-3fe2ea7e0ea0"},"vehicle_type_id":"4","last_reported":1751267580,"current_range_meters":1600,"station_id":"","pricing_plan_id":"cebpf4jnsgd1na2vs0mg"},{"bike_id":"aefb0007-a9b6-4366-adf5-3c610c468f75","system_id":"levelo_inurba_marseille","lat":43.30949,"lon":5.39022,"is_reserved":false,"is_disabled":true,"rental_uris":{"android":"levelo://app?vid=aefb0007-a9b6-4366-adf5-3c610c468f75","ios":"levelo://app?vid=aefb0007-a9b6-4366-adf5-3c610c468f75"},"vehicle_type_id":"4","last_reported":1751267580,"current_range_meters":1600,"station_id":"ce4bgup2rcd13ifvqco0","pricing_plan_id":"cebpf4jnsgd1na2vs0mg"},{"bike_id":"2ea7f037-42c1-43df-9e1e-0fc90ecb016a","system_id":"levelo_inurba_marseille","lat":43.26805,"lon":5.40272,"is_reserved":false,"is_disabled":true,"rental_uris":{"android":"levelo://app?vid=2ea7f037-42c1-43df-9e1e-0fc90ecb016a","ios":"levelo://app?vid=2ea7f037-42c1-43df-9e1e-0fc90ecb016a"},"vehicle_type_id":"4","last_reported":1751267580,"current_range_meters":1600,"station_id":"ce501612rcd8frsf0b60","pricing_plan_id":"cebpf4jnsgd1na2vs0mg"},{"bike_id":"c4a0137e-a333-4bf2-be2c-dc9d4d53e9f7","system_id":"levelo_inurba_marseille","lat":43.211891,"lon":5.350711,"is_reserved":false,"is_disabled":true,"rental_uris":{"android":"levelo://app?vid=c4a0137e-a333-4bf2-be2c-dc9d4d53e9f7","ios":"levelo://app?vid=c4a0137e-a333-4bf2-be2c-dc9d4d53e9f7"},"vehicle_type_id":"4","last_reported":1751267580,"current_range_meters":1600,"station_id":"st_cvj6sg6p6f1abm77japg","pricing_plan_id":"cebpf4jnsgd1na2vs0mg"},{"bike_id":"29e697ca-26a6-4412-8107-f2c74b259edc","system_id":"levelo_inurba_marseille","lat":43.241891,"lon":5.383841,"is_reserved":false,"is_disabled":true,"rental_uris":{"android":"levelo://app?vid=29e697ca-26a6-4412-8107-f2c74b259edc","ios":"levelo://app?vid=29e697ca-26a6-4412-8107-f2c74b259edc"},"vehicle_type_id":"4","last_reported":1751267580,"current_range_meters":2000,"station_id":"","pricing_plan_id":"cebpf4jnsgd1na2vs0mg"},{"bike_id":"85eb80f1-fdf8-4910-9983-416402de22ff","system_id":"levelo_inurba_marseille","lat":43.27701,"lon":5.41541,"is_reserved":false,"is_disabled":true,"rental_uris":{"android":"levelo://app?vid=85eb80f1-fdf8-4910-9983-416402de22ff","ios":"levelo://app?vid=85eb80f1-fdf8-4910-9983-416402de22ff"},"vehicle_type_id":"4","last_reported":1751267580,"current_range_meters":2000,"station_id":"","pricing_plan_id":"cebpf4jnsgd1na2vs0mg"},{"bike_id":"43072655-977a-4559-b8cc-4a09540ea560","system_id":"levelo_inurba_marseille","lat":43.299642,"lon":5.384944,"is_reserved":false,"is_disabled":true,"rental_uris":{"android":"levelo://app?vid=43072655-977a-4559-b8cc-4a09540ea560","ios":"levelo://app?vid=43072655-977a-4559-b8cc-4a09540ea560"},"vehicle_type_id":"4","last_reported":1751267580,"current_range_meters":2000,"station_id":"ce4bgj92rcd13ifvqbd0","pricing_plan_id":"cebpf4jnsgd1na2vs0mg"},{"bike_id":"d5b68711-11fe-4386-a27c-3ec0b5905eba","system_id":"levelo_inurba_marseille","lat":43.30433,"lon":5.38893,"is_reserved":false,"is_disabled":true,"rental_uris":{"android":"levelo://app?vid=d5b68711-11fe-4386-a27c-3ec0b5905eba","ios":"levelo://app?vid=d5b68711-11fe-4386-a27c-3ec0b5905eba"},"vehicle_type_id":"4","last_reported":1751267580,"current_range_meters":2000,"station_id":"ce4bgk12rcd13ifvqbi0","pricing_plan_id":"cebpf4jnsgd1na2vs0mg"},{"bike_id":"ef86cf90-ed40-40bc-a142-9ce3591cc46b","system_id":"levelo_inurba_marseille","lat":43.31493,"lon":5.37303,"is_reserved":false,"is_disabled":true,"rental_uris":{"android":"levelo://app?vid=ef86cf90-ed40-40bc-a142-9ce3591cc46b","ios":"levelo://app?vid=ef86cf90-ed40-40bc-a142-9ce3591cc46b"},"vehicle_type_id":"4","last_reported":1751267580,"current_range_meters":2000,"station_id":"ce4bgt12rcd13ifvqcd0","pricing_plan_id":"cebpf4jnsgd1na2vs0mg"},{"bike_id":"e0717634-c1d1-4023-aab4-9a1a175a0d5b","system_id":"levelo_inurba_marseille","lat":43.29041,"lon":5.37161,"is_reserved":false,"is_disabled":false,"rental_uris":{"android":"levelo://app?vid=e0717634-c1d1-4023-aab4-9a1a175a0d5b","ios":"levelo://app?vid=e0717634-c1d1-4023-aab4-9a1a175a0d5b"},"vehicle_type_id":"4","last_reported":1751267580,"current_range_meters":2000,"station_id":"ce4bh5p2rcd13ifvqe4g","pricing_plan_id":"cebpf4jnsgd1na2vs0mg"},{"bike_id":"e92d2055-ce16-4e43-9414-b1f0b2f03e61","system_id":"levelo_inurba_marseille","lat":43.27978,"lon":5.38754,"is_reserved":false,"is_disabled":true,"rental_uris":{"android":"levelo://app?vid=e92d2055-ce16-4e43-9414-b1f0b2f03e61","ios":"levelo://app?vid=e92d2055-ce16-4e43-9414-b1f0b2f03e61"},"vehicle_type_id":"4","last_reported":1751267580,"current_range_meters":2000,"station_id":"ce4bhg12rcd13ifvqf80","pricing_plan_id":"cebpf4jnsgd1na2vs0mg"},{"bike_id":"50d869e6-7fbb-4182-9936-2cbd2e0ba23a","system_id":"levelo_inurba_marseille","lat":43.2861,"lon":5.37062,"is_reserved":false,"is_disabled":true,"rental_uris":{"android":"levelo://app?vid=50d869e6-7fbb-4182-9936-2cbd2e0ba23a","ios":"levelo://app?vid=50d869e6-7fbb-4182-9936-2cbd2e0ba23a"},"vehicle_type_id":"4","last_reported":1751267580,"current_range_meters":2000,"station_id":"ce4bht12rcd13ifvqi60","pricing_plan_id":"cebpf4jnsgd1na2vs0mg"},{"bike_id":"4bb4a733-a9bd-4772-9320-a8c7885ff73b","system_id":"levelo_inurba_marseille","lat":43.27773,"lon":5.3557,"is_reserved":false,"is_disabled":false,"rental_uris":{"android":"levelo://app?vid=4bb4a733-a9bd-4772-9320-a8c7885ff73b","ios":"levelo://app?vid=4bb4a733-a9bd-4772-9320-a8c7885ff73b"},"vehicle_type_id":"4","last_reported":1751267580,"current_range_meters":2800,"station_id":"","pricing_plan_id":"cebpf4jnsgd1na2vs0mg"},{"bike_id":"e660b1b0-8ece-479d-a4ca-0100ec937934","system_id":"levelo_inurba_marseille","lat":43.25002,"lon":5.38926,"is_reserved":false,"is_disabled":false,"rental_uris":{"android":"levelo://app?vid=e660b1b0-8ece-479d-a4ca-0100ec937934","ios":"levelo://app?vid=e660b1b0-8ece-479d-a4ca-0100ec937934"},"vehicle_type_id":"4","last_reported":1751267580,"current_range_meters":2800,"station_id":"ce4bhgp2rcd13ifvqfd0","pricing_plan_id":"cebpf4jnsgd1na2vs0mg"},{"bike_id":"ddb07b6a-230f-4bb2-a07b-8d06bcbb8c16","system_id":"levelo_inurba_marseille","lat":43.24544,"lon":5.39527,"is_reserved":false,"is_disabled":false,"rental_uris":{"android":"levelo://app?vid=ddb07b6a-230f-4bb2-a07b-8d06bcbb8c16","ios":"levelo://app?vid=ddb07b6a-230f-4bb2-a07b-8d06bcbb8c16"},"vehicle_type_id":"4","last_reported":1751267580,"current_range_meters":3200,"station_id":"ce4bhlp2rcd13ifvqgjg","pricing_plan_id":"cebpf4jnsgd1na2vs0mg"},{"bike_id":"d45e3d56-277e-4d05-8c5e-54e15808735a","system_id":"levelo_inurba_marseille","lat":43.31757,"lon":5.39019,"is_reserved":false,"is_disabled":false,"rental_uris":{"android":"levelo://app?vid=d45e3d56-277e-4d05-8c5e-54e15808735a","ios":"levelo://app?vid=d45e3d56-277e-4d05-8c5e-54e15808735a"},"vehicle_type_id":"4","last_reported":1751267580,"current_range_meters":3200,"station_id":"ce4bhqp2rcd13ifvqhng","pricing_plan_id":"cebpf4jnsgd1na2vs0mg"},{"bike_id":"ccc442f9-1e24-4578-ac90-5316dba08a63","system_id":"levelo_inurba_marseille","lat":43.30921,"lon":5.36858,"is_reserved":false,"is_disabled":false,"rental_uris":{"android":"levelo://app?vid=ccc442f9-1e24-4578-ac90-5316dba08a63","ios":"levelo://app?vid=ccc442f9-1e24-4578-ac90-5316dba08a63"},"vehicle_type_id":"4","last_reported":1751267580,"current_range_meters":3600,"station_id":"ce4bgn92rcd13ifvqbvg","pricing_plan_id":"cebpf4jnsgd1na2vs0mg"},{"bike_id":"daad9c7c-ef36-46f1-94e5-896ac219d4b1","system_id":"levelo_inurba_marseille","lat":43.2917,"lon":5.37164,"is_reserved":false,"is_disabled":false,"rental_uris":{"android":"levelo://app?vid=daad9c7c-ef36-46f1-94e5-896ac219d4b1","ios":"levelo://app?vid=daad9c7c-ef36-46f1-94e5-896ac219d4b1"},"vehicle_type_id":"4","last_reported":1751267580,"current_range_meters":3600,"station_id":"ce4bha92rcd13ifvqeh0","pricing_plan_id":"cebpf4jnsgd1na2vs0mg"},{"bike_id":"eefd366e-03f0-4e1c-842f-a102e77f7753","system_id":"levelo_inurba_marseille","lat":43.275146,"lon":5.38449,"is_reserved":false,"is_disabled":false,"rental_uris":{"android":"levelo://app?vid=eefd366e-03f0-4e1c-842f-a102e77f7753","ios":"levelo://app?vid=eefd366e-03f0-4e1c-842f-a102e77f7753"},"vehicle_type_id":"4","last_reported":1751267580,"current_range_meters":3600,"station_id":"ce4bhh92rcd13ifvqfi0","pricing_plan_id":"cebpf4jnsgd1na2vs0mg"},{"bike_id":"9e163c86-36ef-4269-bcd8-6c9e6f4075a0","system_id":"levelo_inurba_marseille","lat":43.30288,"lon":5.37136,"is_reserved":false,"is_disabled":false,"rental_uris":{"android":"levelo://app?vid=9e163c86-36ef-4269-bcd8-6c9e6f4075a0","ios":"levelo://app?vid=9e163c86-36ef-4269-bcd8-6c9e6f4075a0"},"vehicle_type_id":"4","last_reported":1751267580,"current_range_meters":4000,"station_id":"","pricing_plan_id":"cebpf4jnsgd1na2vs0mg"},{"bike_id":"9c33a7db-f3b3-4c7e-8382-23908a0e9ce6","system_id":"levelo_inurba_marseille","lat":43.309474,"lon":5.390323,"is_reserved":false,"is_disabled":true,"rental_uris":{"android":"levelo://app?vid=9c33a7db-f3b3-4c7e-8382-23908a0e9ce6","ios":"levelo://app?vid=9c33a7db-f3b3-4c7e-8382-23908a0e9ce6"},"vehicle_type_id":"4","last_reported":1751267580,"current_range_meters":4000,"station_id":"ce4bgup2rcd13ifvqco0","pricing_plan_id":"cebpf4jnsgd1na2vs0mg"},{"bike_id":"fd54897a-1f5c-4a96-ad59-c1fd52549dda","system_id":"levelo_inurba_marseille","lat":43.23178,"lon":5.39977,"is_reserved":false,"is_disabled":false,"rental_uris":{"android":"levelo://app?vid=fd54897a-1f5c-4a96-ad59-c1fd52549dda","ios":"levelo://app?vid=fd54897a-1f5c-4a96-ad59-c1fd52549dda"},"vehicle_type_id":"4","last_reported":1751267580,"current_range_meters":4000,"station_id":"ce4bhn12rcd13ifvqgqg","pricing_plan_id":"cebpf4jnsgd1na2vs0mg"},{"bike_id":"969d9f1a-5775-4c09-9e8e-0135c326068b","system_id":"levelo_inurba_marseille","lat":43.2781,"lon":5.40708,"is_reserved":false,"is_disabled":false,"rental_uris":{"android":"levelo://app?vid=969d9f1a-5775-4c09-9e8e-0135c326068b","ios":"levelo://app?vid=969d9f1a-5775-4c09-9e8e-0135c326068b"},"vehicle_type_id":"4","last_reported":1751267580,"current_range_meters":4000,"station_id":"ce4bhnh2rcd13ifvqgtg","pricing_plan_id":"cebpf4jnsgd1na2vs0mg"},{"bike_id":"23a29269-2136-41c7-8cfc-ceefe4e74a66","system_id":"levelo_inurba_marseille","lat":43.29896,"lon":5.38214,"is_reserved":false,"is_disabled":true,"rental_uris":{"android":"levelo://app?vid=23a29269-2136-41c7-8cfc-ceefe4e74a66","ios":"levelo://app?vid=23a29269-2136-41c7-8cfc-ceefe4e74a66"},"vehicle_type_id":"4","last_reported":1751267580,"current_range_meters":4400,"station_id":"","pricing_plan_id":"cebpf4jnsgd1na2vs0mg"},{"bike_id":"d803f6f5-9067-46f8-9680-533703397a36","system_id":"levelo_inurba_marseille","lat":43.3122,"lon":5.3685,"is_reserved":false,"is_disabled":false,"rental_uris":{"android":"levelo://app?vid=d803f6f5-9067-46f8-9680-533703397a36","ios":"levelo://app?vid=d803f6f5-9067-46f8-9680-533703397a36"},"vehicle_type_id":"4","last_reported":1751267580,"current_range_meters":4400,"station_id":"ce4bgl92rcd13ifvqbq0","pricing_plan_id":"cebpf4jnsgd1na2vs0mg"},{"bike_id":"f80a9e40-8be1-4c91-9352-64f465b52289","system_id":"levelo_inurba_marseille","lat":43.30916,"lon":5.36857,"is_reserved":false,"is_disabled":false,"rental_uris":{"android":"levelo://app?vid=f80a9e40-8be1-4c91-9352-64f465b52289","ios":"levelo://app?vid=f80a9e40-8be1-4c91-9352-64f465b52289"},"vehicle_type_id":"4","last_reported":1751267580,"current_range_meters":4400,"station_id":"ce4bgn92rcd13ifvqbvg","pricing_plan_id":"cebpf4jnsgd1na2vs0mg"},{"bike_id":"e449aa29-cae1-4432-9aec-dedc13360b20","system_id":"levelo_inurba_marseille","lat":43.21189,"lon":5.35076,"is_reserved":false,"is_disabled":false,"rental_uris":{"android":"levelo://app?vid=e449aa29-cae1-4432-9aec-dedc13360b20","ios":"levelo://app?vid=e449aa29-cae1-4432-9aec-dedc13360b20"},"vehicle_type_id":"4","last_reported":1751267580,"current_range_meters":4400,"station_id":"st_cvj6sg6p6f1abm77japg","pricing_plan_id":"cebpf4jnsgd1na2vs0mg"},{"bike_id":"c9097ea6-b8a8-4d27-a43b-0fc88579bde1","system_id":"levelo_inurba_marseille","lat":43.21217,"lon":5.35076,"is_reserved":false,"is_disabled":false,"rental_uris":{"android":"levelo://app?vid=c9097ea6-b8a8-4d27-a43b-0fc88579bde1","ios":"levelo://app?vid=c9097ea6-b8a8-4d27-a43b-0fc88579bde1"},"vehicle_type_id":"4","last_reported":1751267580,"current_range_meters":4400,"station_id":"st_cvj6sg6p6f1abm77japg","pricing_plan_id":"cebpf4jnsgd1na2vs0mg"},{"bike_id":"d5b5bc74-aaeb-40c0-b979-fb1a262527de","system_id":"levelo_inurba_marseille","lat":43.33251,"lon":5.35856,"is_reserved":false,"is_disabled":false,"rental_uris":{"android":"levelo://app?vid=d5b5bc74-aaeb-40c0-b979-fb1a262527de","ios":"levelo://app?vid=d5b5bc74-aaeb-40c0-b979-fb1a262527de"},"vehicle_type_id":"4","last_reported":1751267580,"current_range_meters":4800,"station_id":"","pricing_plan_id":"cebpf4jnsgd1na2vs0mg"},{"bike_id":"e897fe8d-2a1d-4c10-8358-595cedae77d9","system_id":"levelo_inurba_marseille","lat":43.30946,"lon":5.39034,"is_reserved":false,"is_disabled":false,"rental_uris":{"android":"levelo://app?vid=e897fe8d-2a1d-4c10-8358-595cedae77d9","ios":"levelo://app?vid=e897fe8d-2a1d-4c10-8358-595cedae77d9"},"vehicle_type_id":"4","last_reported":1751267580,"current_range_meters":4800,"station_id":"ce4bgup2rcd13ifvqco0","pricing_plan_id":"cebpf4jnsgd1na2vs0mg"},{"bike_id":"6eb63e15-815b-4ec4-99df-c60aa1b15c1e","system_id":"levelo_inurba_marseille","lat":43.32095,"lon":5.36778,"is_reserved":false,"is_disabled":false,"rental_uris":{"android":"levelo://app?vid=6eb63e15-815b-4ec4-99df-c60aa1b15c1e","ios":"levelo://app?vid=6eb63e15-815b-4ec4-99df-c60aa1b15c1e"},"vehicle_type_id":"4","last_reported":1751267580,"current_range_meters":4800,"station_id":"ce4bhrh2rcd13ifvqhug","pricing_plan_id":"cebpf4jnsgd1na2vs0mg"},{"bike_id":"30008ff9-f1c3-4917-aa89-8bfc8cae6054","system_id":"levelo_inurba_marseille","lat":43.30531,"lon":5.36713,"is_reserved":false,"is_disabled":false,"rental_uris":{"android":"levelo://app?vid=30008ff9-f1c3-4917-aa89-8bfc8cae6054","ios":"levelo://app?vid=30008ff9-f1c3-4917-aa89-8bfc8cae6054"},"vehicle_type_id":"4","last_reported":1751267580,"current_range_meters":5600,"station_id":"ce4bgrp2rcd13ifvqc9g","pricing_plan_id":"cebpf4jnsgd1na2vs0mg"},{"bike_id":"721165c1-ef6f-40cc-8d33-af3a7999864b","system_id":"levelo_inurba_marseille","lat":43.32606,"lon":5.37875,"is_reserved":false,"is_disabled":false,"rental_uris":{"android":"levelo://app?vid=721165c1-ef6f-40cc-8d33-af3a7999864b","ios":"levelo://app?vid=721165c1-ef6f-40cc-8d33-af3a7999864b"},"vehicle_type_id":"4","last_reported":1751267580,"current_range_meters":6000,"station_id":"","pricing_plan_id":"cebpf4jnsgd1na2vs0mg"},{"bike_id":"db977208-31e5-4269-929a-f5f84452186a","system_id":"levelo_inurba_marseille","lat":43.31362,"lon":5.3672,"is_reserved":false,"is_disabled":false,"rental_uris":{"android":"levelo://app?vid=db977208-31e5-4269-929a-f5f84452186a","ios":"levelo://app?vid=db977208-31e5-4269-929a-f5f84452186a"},"vehicle_type_id":"4","last_reported":1751267580,"current_range_meters":6000,"station_id":"ce4bgr92rcd13ifvqc6g","pricing_plan_id":"cebpf4jnsgd1na2vs0mg"},{"bike_id":"3ee296b3-b965-489e-ba59-f6f4c303ec99","system_id":"levelo_inurba_marseille","lat":43.25114,"lon":5.40325,"is_reserved":false,"is_disabled":false,"rental_uris":{"android":"levelo://app?vid=3ee296b3-b965-489e-ba59-f6f4c303ec99","ios":"levelo://app?vid=3ee296b3-b965-489e-ba59-f6f4c303ec99"},"vehicle_type_id":"4","last_reported":1751267580,"current_range_meters":6000,"station_id":"ce4bhlh2rcd13ifvqgig","pricing_plan_id":"cebpf4jnsgd1na2vs0mg"},{"bike_id":"d79eef29-302d-4e15-a57c-9a94c02c887a","system_id":"levelo_inurba_marseille","lat":43.30166,"lon":5.38102,"is_reserved":false,"is_disabled":false,"rental_uris":{"android":"levelo://app?vid=d79eef29-302d-4e15-a57c-9a94c02c887a","ios":"levelo://app?vid=d79eef29-302d-4e15-a57c-9a94c02c887a"},"vehicle_type_id":"4","last_reported":1751267580,"current_range_meters":6400,"station_id":"ce4bgjp2rcd13ifvqbh0","pricing_plan_id":"cebpf4jnsgd1na2vs0mg"},{"bike_id":"071d9ad8-79e9-447b-b25c-0a0463116df8","system_id":"levelo_inurba_marseille","lat":43.238537,"lon":5.365257,"is_reserved":false,"is_disabled":false,"rental_uris":{"android":"levelo://app?vid=071d9ad8-79e9-447b-b25c-0a0463116df8","ios":"levelo://app?vid=071d9ad8-79e9-447b-b25c-0a0463116df8"},"vehicle_type_id":"4","last_reported":1751267580,"current_range_meters":6800,"station_id":"","pricing_plan_id":"cebpf4jnsgd1na2vs0mg"},{"bike_id":"735fb3ec-51d3-42a0-b0e0-35a6ef148211","system_id":"levelo_inurba_marseille","lat":43.31299,"lon":5.372996,"is_reserved":false,"is_disabled":false,"rental_uris":{"android":"levelo://app?vid=735fb3ec-51d3-42a0-b0e0-35a6ef148211","ios":"levelo://app?vid=735fb3ec-51d3-42a0-b0e0-35a6ef148211"},"vehicle_type_id":"4","last_reported":1751267580,"current_range_meters":6800,"station_id":"","pricing_plan_id":"cebpf4jnsgd1na2vs0mg"},{"bike_id":"25f26fe8-d80e-4a96-bfce-8535e86dc5ba","system_id":"levelo_inurba_marseille","lat":43.30541,"lon":5.36526,"is_reserved":false,"is_disabled":false,"rental_uris":{"android":"levelo://app?vid=25f26fe8-d80e-4a96-bfce-8535e86dc5ba","ios":"levelo://app?vid=25f26fe8-d80e-4a96-bfce-8535e86dc5ba"},"vehicle_type_id":"4","last_reported":1751267580,"current_range_meters":6800,"station_id":"ce4bgs12rcd13ifvqcag","pricing_plan_id":"cebpf4jnsgd1na2vs0mg"},{"bike_id":"d6f6e438-5abe-436b-85d6-4eec5e03e47e","system_id":"levelo_inurba_marseille","lat":43.31129,"lon":5.37751,"is_reserved":false,"is_disabled":false,"rental_uris":{"android":"levelo://app?vid=d6f6e438-5abe-436b-85d6-4eec5e03e47e","ios":"levelo://app?vid=d6f6e438-5abe-436b-85d6-4eec5e03e47e"},"vehicle_type_id":"4","last_reported":1751267580,"current_range_meters":6800,"station_id":"ce4bgt92rcd13ifvqcg0","pricing_plan_id":"cebpf4jnsgd1na2vs0mg"},{"bike_id":"762acdc5-9b99-47a0-bda1-ee8060271245","system_id":"levelo_inurba_marseille","lat":43.211889,"lon":5.350791,"is_reserved":false,"is_disabled":false,"rental_uris":{"android":"levelo://app?vid=762acdc5-9b99-47a0-bda1-ee8060271245","ios":"levelo://app?vid=762acdc5-9b99-47a0-bda1-ee8060271245"},"vehicle_type_id":"4","last_reported":1751267580,"current_range_meters":6800,"station_id":"st_cvj6sg6p6f1abm77japg","pricing_plan_id":"cebpf4jnsgd1na2vs0mg"},{"bike_id":"1708411e-78cf-4617-919f-8f2729e00467","system_id":"levelo_inurba_marseille","lat":43.31215,"lon":5.36865,"is_reserved":false,"is_disabled":false,"rental_uris":{"android":"levelo://app?vid=1708411e-78cf-4617-919f-8f2729e00467","ios":"levelo://app?vid=1708411e-78cf-4617-919f-8f2729e00467"},"vehicle_type_id":"4","last_reported":1751267580,"current_range_meters":7200,"station_id":"ce4bgl92rcd13ifvqbq0","pricing_plan_id":"cebpf4jnsgd1na2vs0mg"},{"bike_id":"33abd933-f13c-4b90-a162-0fc4d9e79474","system_id":"levelo_inurba_marseille","lat":43.28968,"lon":5.37848,"is_reserved":false,"is_disabled":false,"rental_uris":{"android":"levelo://app?vid=33abd933-f13c-4b90-a162-0fc4d9e79474","ios":"levelo://app?vid=33abd933-f13c-4b90-a162-0fc4d9e79474"},"vehicle_type_id":"4","last_reported":1751267580,"current_range_meters":7200,"station_id":"ce4bh9p2rcd13ifvqed0","pricing_plan_id":"cebpf4jnsgd1na2vs0mg"},{"bike_id":"e809d2e9-9599-432a-b39c-084c7608b6d7","system_id":"levelo_inurba_marseille","lat":43.26789,"lon":5.39423,"is_reserved":false,"is_disabled":false,"rental_uris":{"android":"levelo://app?vid=e809d2e9-9599-432a-b39c-084c7608b6d7","ios":"levelo://app?vid=e809d2e9-9599-432a-b39c-084c7608b6d7"},"vehicle_type_id":"4","last_reported":1751267580,"current_range_meters":7200,"station_id":"ce4bhh12rcd13ifvqfg0","pricing_plan_id":"cebpf4jnsgd1na2vs0mg"},{"bike_id":"6b82a030-0f5b-4bfd-8ebd-ec5a1f9e335a","system_id":"levelo_inurba_marseille","lat":43.31083,"lon":5.42431,"is_reserved":false,"is_disabled":false,"rental_uris":{"android":"levelo://app?vid=6b82a030-0f5b-4bfd-8ebd-ec5a1f9e335a","ios":"levelo://app?vid=6b82a030-0f5b-4bfd-8ebd-ec5a1f9e335a"},"vehicle_type_id":"4","last_reported":1751267580,"current_range_meters":7200,"station_id":"ce4bhp92rcd13ifvqhag","pricing_plan_id":"cebpf4jnsgd1na2vs0mg"},{"bike_id":"99f281eb-44dd-4a50-b8f7-afecd19c12a4","system_id":"levelo_inurba_marseille","lat":43.31221,"lon":5.36896,"is_reserved":false,"is_disabled":false,"rental_uris":{"android":"levelo://app?vid=99f281eb-44dd-4a50-b8f7-afecd19c12a4","ios":"levelo://app?vid=99f281eb-44dd-4a50-b8f7-afecd19c12a4"},"vehicle_type_id":"4","last_reported":1751267580,"current_range_meters":8000,"station_id":"ce4bgl92rcd13ifvqbq0","pricing_plan_id":"cebpf4jnsgd1na2vs0mg"},{"bike_id":"44ee7da3-5d69-4a7f-a6dc-07275f134666","system_id":"levelo_inurba_marseille","lat":43.29078,"lon":5.37157,"is_reserved":false,"is_disabled":false,"rental_uris":{"android":"levelo://app?vid=44ee7da3-5d69-4a7f-a6dc-07275f134666","ios":"levelo://app?vid=44ee7da3-5d69-4a7f-a6dc-07275f134666"},"vehicle_type_id":"4","last_reported":1751267580,"current_range_meters":8000,"station_id":"ce4bh5p2rcd13ifvqe4g","pricing_plan_id":"cebpf4jnsgd1na2vs0mg"},{"bike_id":"779979fb-af16-428c-ad59-6b3d6835c2c8","system_id":"levelo_inurba_marseille","lat":43.26685,"lon":5.38283,"is_reserved":false,"is_disabled":false,"rental_uris":{"android":"levelo://app?vid=779979fb-af16-428c-ad59-6b3d6835c2c8","ios":"levelo://app?vid=779979fb-af16-428c-ad59-6b3d6835c2c8"},"vehicle_type_id":"4","last_reported":1751267580,"current_range_meters":8000,"station_id":"ce4bhg92rcd13ifvqf90","pricing_plan_id":"cebpf4jnsgd1na2vs0mg"},{"bike_id":"5fc966ad-f2b0-4cb3-9040-e099a74518a5","system_id":"levelo_inurba_marseille","lat":43.25001,"lon":5.3893,"is_reserved":false,"is_disabled":false,"rental_uris":{"android":"levelo://app?vid=5fc966ad-f2b0-4cb3-9040-e099a74518a5","ios":"levelo://app?vid=5fc966ad-f2b0-4cb3-9040-e099a74518a5"},"vehicle_type_id":"4","last_reported":1751267580,"current_range_meters":8000,"station_id":"ce4bhgp2rcd13ifvqfd0","pricing_plan_id":"cebpf4jnsgd1na2vs0mg"},{"bike_id":"8bf0d992-d2a0-428e-940a-091ee9b7c2a4","system_id":"levelo_inurba_marseille","lat":43.21192,"lon":5.35054,"is_reserved":false,"is_disabled":false,"rental_uris":{"android":"levelo://app?vid=8bf0d992-d2a0-428e-940a-091ee9b7c2a4","ios":"levelo://app?vid=8bf0d992-d2a0-428e-940a-091ee9b7c2a4"},"vehicle_type_id":"4","last_reported":1751267580,"current_range_meters":8000,"station_id":"st_cvj6sg6p6f1abm77japg","pricing_plan_id":"cebpf4jnsgd1na2vs0mg"},{"bike_id":"7b28ebac-3c6a-43aa-aca9-7bd954b07205","system_id":"levelo_inurba_marseille","lat":43.2969,"lon":5.37996,"is_reserved":false,"is_disabled":false,"rental_uris":{"android":"levelo://app?vid=7b28ebac-3c6a-43aa-aca9-7bd954b07205","ios":"levelo://app?vid=7b28ebac-3c6a-43aa-aca9-7bd954b07205"},"vehicle_type_id":"4","last_reported":1751267580,"current_range_meters":8400,"station_id":"","pricing_plan_id":"cebpf4jnsgd1na2vs0mg"},{"bike_id":"b09d1339-8c32-4bb9-918d-c3e3f9c1ec5a","system_id":"levelo_inurba_marseille","lat":43.30537,"lon":5.36548,"is_reserved":false,"is_disabled":false,"rental_uris":{"android":"levelo://app?vid=b09d1339-8c32-4bb9-918d-c3e3f9c1ec5a","ios":"levelo://app?vid=b09d1339-8c32-4bb9-918d-c3e3f9c1ec5a"},"vehicle_type_id":"4","last_reported":1751267580,"current_range_meters":8400,"station_id":"ce4bgs12rcd13ifvqcag","pricing_plan_id":"cebpf4jnsgd1na2vs0mg"},{"bike_id":"9e130316-5dd1-45a9-adc8-ade93e889fc5","system_id":"levelo_inurba_marseille","lat":43.31195,"lon":5.38714,"is_reserved":false,"is_disabled":false,"rental_uris":{"android":"levelo://app?vid=9e130316-5dd1-45a9-adc8-ade93e889fc5","ios":"levelo://app?vid=9e130316-5dd1-45a9-adc8-ade93e889fc5"},"vehicle_type_id":"4","last_reported":1751267580,"current_range_meters":8400,"station_id":"ce4bgv12rcd13ifvqcp0","pricing_plan_id":"cebpf4jnsgd1na2vs0mg"},{"bike_id":"b636965d-7db1-47cd-adbf-cfced905006a","system_id":"levelo_inurba_marseille","lat":43.21213,"lon":5.35069,"is_reserved":false,"is_disabled":false,"rental_uris":{"android":"levelo://app?vid=b636965d-7db1-47cd-adbf-cfced905006a","ios":"levelo://app?vid=b636965d-7db1-47cd-adbf-cfced905006a"},"vehicle_type_id":"4","last_reported":1751267580,"current_range_meters":8400,"station_id":"st_cvj6sg6p6f1abm77japg","pricing_plan_id":"cebpf4jnsgd1na2vs0mg"},{"bike_id":"cbe8cf16-ee4d-44dc-af26-2dea0d93d494","system_id":"levelo_inurba_marseille","lat":43.337444,"lon":5.374475,"is_reserved":false,"is_disabled":false,"rental_uris":{"android":"levelo://app?vid=cbe8cf16-ee4d-44dc-af26-2dea0d93d494","ios":"levelo://app?vid=cbe8cf16-ee4d-44dc-af26-2dea0d93d494"},"vehicle_type_id":"4","last_reported":1751267580,"current_range_meters":8800,"station_id":"","pricing_plan_id":"cebpf4jnsgd1na2vs0mg"},{"bike_id":"af0e60eb-97ab-46cb-9f98-a5dd9c8729b1","system_id":"levelo_inurba_marseille","lat":43.31341,"lon":5.36715,"is_reserved":false,"is_disabled":false,"rental_uris":{"android":"levelo://app?vid=af0e60eb-97ab-46cb-9f98-a5dd9c8729b1","ios":"levelo://app?vid=af0e60eb-97ab-46cb-9f98-a5dd9c8729b1"},"vehicle_type_id":"4","last_reported":1751267580,"current_range_meters":8800,"station_id":"ce4bgr92rcd13ifvqc6g","pricing_plan_id":"cebpf4jnsgd1na2vs0mg"},{"bike_id":"6aa1f292-abac-4014-82a8-0f7a46987b36","system_id":"levelo_inurba_marseille","lat":43.30271,"lon":5.377,"is_reserved":false,"is_disabled":false,"rental_uris":{"android":"levelo://app?vid=6aa1f292-abac-4014-82a8-0f7a46987b36","ios":"levelo://app?vid=6aa1f292-abac-4014-82a8-0f7a46987b36"},"vehicle_type_id":"4","last_reported":1751267580,"current_range_meters":8800,"station_id":"ce4bguh2rcd13ifvqcj0","pricing_plan_id":"cebpf4jnsgd1na2vs0mg"},{"bike_id":"dea7145e-0dd5-4e2b-b19c-8c39cb24e35c","system_id":"levelo_inurba_marseille","lat":43.27209,"lon":5.39181,"is_reserved":false,"is_disabled":false,"rental_uris":{"android":"levelo://app?vid=dea7145e-0dd5-4e2b-b19c-8c39cb24e35c","ios":"levelo://app?vid=dea7145e-0dd5-4e2b-b19c-8c39cb24e35c"},"vehicle_type_id":"4","last_reported":1751267580,"current_range_meters":8800,"station_id":"ce4bhhp2rcd13ifvqfm0","pricing_plan_id":"cebpf4jnsgd1na2vs0mg"},{"bike_id":"5581fd5d-9a65-40a4-aa90-7dc253033d26","system_id":"levelo_inurba_marseille","lat":43.22496,"lon":5.34781,"is_reserved":false,"is_disabled":false,"rental_uris":{"android":"levelo://app?vid=5581fd5d-9a65-40a4-aa90-7dc253033d26","ios":"levelo://app?vid=5581fd5d-9a65-40a4-aa90-7dc253033d26"},"vehicle_type_id":"4","last_reported":1751267580,"current_range_meters":8800,"station_id":"st_cvj5dfep6f1abm77gieg","pricing_plan_id":"cebpf4jnsgd1na2vs0mg"},{"bike_id":"9fc6b39a-5532-40ac-8f58-975bced56a19","system_id":"levelo_inurba_marseille","lat":43.32595,"lon":5.40442,"is_reserved":false,"is_disabled":false,"rental_uris":{"android":"levelo://app?vid=9fc6b39a-5532-40ac-8f58-975bced56a19","ios":"levelo://app?vid=9fc6b39a-5532-40ac-8f58-975bced56a19"},"vehicle_type_id":"4","last_reported":1751267580,"current_range_meters":9200,"station_id":"","pricing_plan_id":"cebpf4jnsgd1na2vs0mg"},{"bike_id":"fe3572d0-006c-4f5d-ba4f-de93df34bce2","system_id":"levelo_inurba_marseille","lat":43.29674,"lon":5.36235,"is_reserved":false,"is_disabled":false,"rental_uris":{"android":"levelo://app?vid=fe3572d0-006c-4f5d-ba4f-de93df34bce2","ios":"levelo://app?vid=fe3572d0-006c-4f5d-ba4f-de93df34bce2"},"vehicle_type_id":"4","last_reported":1751267580,"current_range_meters":9200,"station_id":"","pricing_plan_id":"cebpf4jnsgd1na2vs0mg"},{"bike_id":"d308c658-b19c-49c0-8014-5506ff26f69a","system_id":"levelo_inurba_marseille","lat":43.23071,"lon":5.4052,"is_reserved":false,"is_disabled":false,"rental_uris":{"android":"levelo://app?vid=d308c658-b19c-49c0-8014-5506ff26f69a","ios":"levelo://app?vid=d308c658-b19c-49c0-8014-5506ff26f69a"},"vehicle_type_id":"4","last_reported":1751267580,"current_range_meters":9200,"station_id":"","pricing_plan_id":"cebpf4jnsgd1na2vs0mg"},{"bike_id":"566a3d0f-1747-4a3f-8180-65816a3d316f","system_id":"levelo_inurba_marseille","lat":43.30528,"lon":5.36718,"is_reserved":false,"is_disabled":false,"rental_uris":{"android":"levelo://app?vid=566a3d0f-1747-4a3f-8180-65816a3d316f","ios":"levelo://app?vid=566a3d0f-1747-4a3f-8180-65816a3d316f"},"vehicle_type_id":"4","last_reported":1751267580,"current_range_meters":9200,"station_id":"ce4bgrp2rcd13ifvqc9g","pricing_plan_id":"cebpf4jnsgd1na2vs0mg"},{"bike_id":"c9beaaea-9e44-4a07-a208-2df300d5c16f","system_id":"levelo_inurba_marseille","lat":43.28487,"lon":5.38419,"is_reserved":false,"is_disabled":false,"rental_uris":{"android":"levelo://app?vid=c9beaaea-9e44-4a07-a208-2df300d5c16f","ios":"levelo://app?vid=c9beaaea-9e44-4a07-a208-2df300d5c16f"},"vehicle_type_id":"4","last_reported":1751267580,"current_range_meters":9200,"station_id":"ce4bh512rcd13ifvqe3g","pricing_plan_id":"cebpf4jnsgd1na2vs0mg"},{"bike_id":"d7d64aa7-3f1c-401a-afb1-2a560f7861c0","system_id":"levelo_inurba_marseille","lat":43.27376,"lon":5.3625,"is_reserved":false,"is_disabled":false,"rental_uris":{"android":"levelo://app?vid=d7d64aa7-3f1c-401a-afb1-2a560f7861c0","ios":"levelo://app?vid=d7d64aa7-3f1c-401a-afb1-2a560f7861c0"},"vehicle_type_id":"4","last_reported":1751267580,"current_range_meters":9200,"station_id":"ce4bhbh2rcd13ifvqeo0","pricing_plan_id":"cebpf4jnsgd1na2vs0mg"},{"bike_id":"e219543a-880e-4c38-aff0-63dd83878c8b","system_id":"levelo_inurba_marseille","lat":43.320989,"lon":5.367709,"is_reserved":false,"is_disabled":false,"rental_uris":{"android":"levelo://app?vid=e219543a-880e-4c38-aff0-63dd83878c8b","ios":"levelo://app?vid=e219543a-880e-4c38-aff0-63dd83878c8b"},"vehicle_type_id":"4","last_reported":1751267580,"current_range_meters":9200,"station_id":"ce4bhrh2rcd13ifvqhug","pricing_plan_id":"cebpf4jnsgd1na2vs0mg"},{"bike_id":"940c8448-39b7-4d8b-b4cc-9918765a5bbc","system_id":"levelo_inurba_marseille","lat":43.21197,"lon":5.35044,"is_reserved":false,"is_disabled":false,"rental_uris":{"android":"levelo://app?vid=940c8448-39b7-4d8b-b4cc-9918765a5bbc","ios":"levelo://app?vid=940c8448-39b7-4d8b-b4cc-9918765a5bbc"},"vehicle_type_id":"4","last_reported":1751267580,"current_range_meters":9200,"station_id":"st_cvj6sg6p6f1abm77japg","pricing_plan_id":"cebpf4jnsgd1na2vs0mg"},{"bike_id":"c595d0e1-c778-4abe-9c79-a9dd74f54e27","system_id":"levelo_inurba_marseille","lat":43.24474,"lon":5.37211,"is_reserved":false,"is_disabled":false,"rental_uris":{"android":"levelo://app?vid=c595d0e1-c778-4abe-9c79-a9dd74f54e27","ios":"levelo://app?vid=c595d0e1-c778-4abe-9c79-a9dd74f54e27"},"vehicle_type_id":"4","last_reported":1751267580,"current_range_meters":9600,"station_id":"","pricing_plan_id":"cebpf4jnsgd1na2vs0mg"},{"bike_id":"2630b0d7-8518-44a1-b41d-4305f5c2b588","system_id":"levelo_inurba_marseille","lat":43.288553,"lon":5.393204,"is_reserved":false,"is_disabled":false,"rental_uris":{"android":"levelo://app?vid=2630b0d7-8518-44a1-b41d-4305f5c2b588","ios":"levelo://app?vid=2630b0d7-8518-44a1-b41d-4305f5c2b588"},"vehicle_type_id":"4","last_reported":1751267580,"current_range_meters":9600,"station_id":"ce4bh492rcd13ifvqdug","pricing_plan_id":"cebpf4jnsgd1na2vs0mg"},{"bike_id":"cc435fa6-16b3-4dce-a11a-36f677e6660f","system_id":"levelo_inurba_marseille","lat":43.28719,"lon":5.37935,"is_reserved":false,"is_disabled":false,"rental_uris":{"android":"levelo://app?vid=cc435fa6-16b3-4dce-a11a-36f677e6660f","ios":"levelo://app?vid=cc435fa6-16b3-4dce-a11a-36f677e6660f"},"vehicle_type_id":"4","last_reported":1751267580,"current_range_meters":9600,"station_id":"ce4bh9p2rcd13ifvqec0","pricing_plan_id":"cebpf4jnsgd1na2vs0mg"},{"bike_id":"5e11f3fd-ff7d-4be3-a598-188aa7f5fecb","system_id":"levelo_inurba_marseille","lat":43.26557,"lon":5.37288,"is_reserved":false,"is_disabled":false,"rental_uris":{"android":"levelo://app?vid=5e11f3fd-ff7d-4be3-a598-188aa7f5fecb","ios":"levelo://app?vid=5e11f3fd-ff7d-4be3-a598-188aa7f5fecb"},"vehicle_type_id":"4","last_reported":1751267580,"current_range_meters":9600,"station_id":"ce4bhg12rcd13ifvqf70","pricing_plan_id":"cebpf4jnsgd1na2vs0mg"},{"bike_id":"7067479d-39ef-4842-af1e-5a309d182407","system_id":"levelo_inurba_marseille","lat":43.25089,"lon":5.39509,"is_reserved":false,"is_disabled":false,"rental_uris":{"android":"levelo://app?vid=7067479d-39ef-4842-af1e-5a309d182407","ios":"levelo://app?vid=7067479d-39ef-4842-af1e-5a309d182407"},"vehicle_type_id":"4","last_reported":1751267580,"current_range_meters":9600,"station_id":"ce4bhm12rcd13ifvqgkg","pricing_plan_id":"cebpf4jnsgd1na2vs0mg"},{"bike_id":"05d3d448-235e-4ac7-88df-050f15d5a616","system_id":"levelo_inurba_marseille","lat":43.27907,"lon":5.42167,"is_reserved":false,"is_disabled":false,"rental_uris":{"android":"levelo://app?vid=05d3d448-235e-4ac7-88df-050f15d5a616","ios":"levelo://app?vid=05d3d448-235e-4ac7-88df-050f15d5a616"},"vehicle_type_id":"4","last_reported":1751267580,"current_range_meters":10000,"station_id":"","pricing_plan_id":"cebpf4jnsgd1na2vs0mg"},{"bike_id":"3408ff0d-b731-4fc5-a65c-51c0c6d5a5e4","system_id":"levelo_inurba_marseille","lat":43.29583,"lon":5.36741,"is_reserved":false,"is_disabled":false,"rental_uris":{"android":"levelo://app?vid=3408ff0d-b731-4fc5-a65c-51c0c6d5a5e4","ios":"levelo://app?vid=3408ff0d-b731-4fc5-a65c-51c0c6d5a5e4"},"vehicle_type_id":"4","last_reported":1751267580,"current_range_meters":10000,"station_id":"ce4bgph2rcd13ifvqc2g","pricing_plan_id":"cebpf4jnsgd1na2vs0mg"},{"bike_id":"10b3857f-faea-459d-88db-8dd9d5e55423","system_id":"levelo_inurba_marseille","lat":43.29839,"lon":5.36267,"is_reserved":false,"is_disabled":false,"rental_uris":{"android":"levelo://app?vid=10b3857f-faea-459d-88db-8dd9d5e55423","ios":"levelo://app?vid=10b3857f-faea-459d-88db-8dd9d5e55423"},"vehicle_type_id":"4","last_reported":1751267580,"current_range_meters":10000,"station_id":"ce4bgpp2rcd13ifvqc3g","pricing_plan_id":"cebpf4jnsgd1na2vs0mg"},{"bike_id":"e0bc0dd0-d8ba-4832-b59f-e4f44500b98d","system_id":"levelo_inurba_marseille","lat":43.2893,"lon":5.36644,"is_reserved":false,"is_disabled":false,"rental_uris":{"android":"levelo://app?vid=e0bc0dd0-d8ba-4832-b59f-e4f44500b98d","ios":"levelo://app?vid=e0bc0dd0-d8ba-4832-b59f-e4f44500b98d"},"vehicle_type_id":"4","last_reported":1751267580,"current_range_meters":10000,"station_id":"ce4bhap2rcd13ifvqek0","pricing_plan_id":"cebpf4jnsgd1na2vs0mg"},{"bike_id":"b879504e-c85b-45ea-ab13-dce989cb130f","system_id":"levelo_inurba_marseille","lat":43.323688,"lon":5.367659,"is_reserved":false,"is_disabled":false,"rental_uris":{"android":"levelo://app?vid=b879504e-c85b-45ea-ab13-dce989cb130f","ios":"levelo://app?vid=b879504e-c85b-45ea-ab13-dce989cb130f"},"vehicle_type_id":"4","last_reported":1751267580,"current_range_meters":10000,"station_id":"ce4bhsh2rcd13ifvqi2g","pricing_plan_id":"cebpf4jnsgd1na2vs0mg"},{"bike_id":"29224259-329f-4f67-ac68-32eed89b18a1","system_id":"levelo_inurba_marseille","lat":43.21191,"lon":5.35051,"is_reserved":false,"is_disabled":false,"rental_uris":{"android":"levelo://app?vid=29224259-329f-4f67-ac68-32eed89b18a1","ios":"levelo://app?vid=29224259-329f-4f67-ac68-32eed89b18a1"},"vehicle_type_id":"4","last_reported":1751267580,"current_range_meters":10000,"station_id":"st_cvj6sg6p6f1abm77japg","pricing_plan_id":"cebpf4jnsgd1na2vs0mg"},{"bike_id":"120036e1-945c-4ddf-ba61-047361af53a6","system_id":"levelo_inurba_marseille","lat":43.21185,"lon":5.35049,"is_reserved":false,"is_disabled":false,"rental_uris":{"android":"levelo://app?vid=120036e1-945c-4ddf-ba61-047361af53a6","ios":"levelo://app?vid=120036e1-945c-4ddf-ba61-047361af53a6"},"vehicle_type_id":"4","last_reported":1751267580,"current_range_meters":10000,"station_id":"st_cvj6sg6p6f1abm77japg","pricing_plan_id":"cebpf4jnsgd1na2vs0mg"},{"bike_id":"78621625-9034-4586-9ea3-4cacfcec4505","system_id":"levelo_inurba_marseille","lat":43.25606,"lon":5.40843,"is_reserved":false,"is_disabled":false,"rental_uris":{"android":"levelo://app?vid=78621625-9034-4586-9ea3-4cacfcec4505","ios":"levelo://app?vid=78621625-9034-4586-9ea3-4cacfcec4505"},"vehicle_type_id":"4","last_reported":1751267580,"current_range_meters":10800,"station_id":"","pricing_plan_id":"cebpf4jnsgd1na2vs0mg"},{"bike_id":"7b47b272-fbf3-4098-ac79-c3a56cb95ee9","system_id":"levelo_inurba_marseille","lat":43.24512,"lon":5.37275,"is_reserved":false,"is_disabled":false,"rental_uris":{"android":"levelo://app?vid=7b47b272-fbf3-4098-ac79-c3a56cb95ee9","ios":"levelo://app?vid=7b47b272-fbf3-4098-ac79-c3a56cb95ee9"},"vehicle_type_id":"4","last_reported":1751267580,"current_range_meters":10800,"station_id":"","pricing_plan_id":"cebpf4jnsgd1na2vs0mg"},{"bike_id":"ba7d57e8-7789-4921-863f-037b4508ec83","system_id":"levelo_inurba_marseille","lat":43.26665,"lon":5.40259,"is_reserved":false,"is_disabled":false,"rental_uris":{"android":"levelo://app?vid=ba7d57e8-7789-4921-863f-037b4508ec83","ios":"levelo://app?vid=ba7d57e8-7789-4921-863f-037b4508ec83"},"vehicle_type_id":"4","last_reported":1751267580,"current_range_meters":10800,"station_id":"","pricing_plan_id":"cebpf4jnsgd1na2vs0mg"},{"bike_id":"1ed633a4-0c73-4c3e-8528-d445a1378c7f","system_id":"levelo_inurba_marseille","lat":43.26552,"lon":5.37286,"is_reserved":false,"is_disabled":false,"rental_uris":{"android":"levelo://app?vid=1ed633a4-0c73-4c3e-8528-d445a1378c7f","ios":"levelo://app?vid=1ed633a4-0c73-4c3e-8528-d445a1378c7f"},"vehicle_type_id":"4","last_reported":1751267580,"current_range_meters":10800,"station_id":"ce4bhg12rcd13ifvqf70","pricing_plan_id":"cebpf4jnsgd1na2vs0mg"},{"bike_id":"eab52660-9b10-45fa-ab53-31f8266abce3","system_id":"levelo_inurba_marseille","lat":43.24177,"lon":5.39702,"is_reserved":false,"is_disabled":false,"rental_uris":{"android":"levelo://app?vid=eab52660-9b10-45fa-ab53-31f8266abce3","ios":"levelo://app?vid=eab52660-9b10-45fa-ab53-31f8266abce3"},"vehicle_type_id":"4","last_reported":1751267580,"current_range_meters":10800,"station_id":"ce4bhn12rcd13ifvqgpg","pricing_plan_id":"cebpf4jnsgd1na2vs0mg"},{"bike_id":"9d6215af-4e15-42b5-a4ae-0c3ca1e22138","system_id":"levelo_inurba_marseille","lat":43.30536,"lon":5.36725,"is_reserved":false,"is_disabled":false,"rental_uris":{"android":"levelo://app?vid=9d6215af-4e15-42b5-a4ae-0c3ca1e22138","ios":"levelo://app?vid=9d6215af-4e15-42b5-a4ae-0c3ca1e22138"},"vehicle_type_id":"4","last_reported":1751267580,"current_range_meters":11200,"station_id":"","pricing_plan_id":"cebpf4jnsgd1na2vs0mg"},{"bike_id":"3394df42-a640-4fad-b72d-9e0a5d948706","system_id":"levelo_inurba_marseille","lat":43.30165,"lon":5.38072,"is_reserved":false,"is_disabled":false,"rental_uris":{"android":"levelo://app?vid=3394df42-a640-4fad-b72d-9e0a5d948706","ios":"levelo://app?vid=3394df42-a640-4fad-b72d-9e0a5d948706"},"vehicle_type_id":"4","last_reported":1751267580,"current_range_meters":11200,"station_id":"ce4bgjp2rcd13ifvqbh0","pricing_plan_id":"cebpf4jnsgd1na2vs0mg"},{"bike_id":"0e6b2e13-82f2-4680-9314-83d728468f0d","system_id":"levelo_inurba_marseille","lat":43.24651,"lon":5.38894,"is_reserved":false,"is_disabled":false,"rental_uris":{"android":"levelo://app?vid=0e6b2e13-82f2-4680-9314-83d728468f0d","ios":"levelo://app?vid=0e6b2e13-82f2-4680-9314-83d728468f0d"},"vehicle_type_id":"4","last_reported":1751267580,"current_range_meters":11200,"station_id":"ce4bhg12rcd13ifvqf60","pricing_plan_id":"cebpf4jnsgd1na2vs0mg"},{"bike_id":"0e3ddcf3-e9b4-45a2-aa46-0646d9302202","system_id":"levelo_inurba_marseille","lat":43.27315,"lon":5.3908,"is_reserved":false,"is_disabled":false,"rental_uris":{"android":"levelo://app?vid=0e3ddcf3-e9b4-45a2-aa46-0646d9302202","ios":"levelo://app?vid=0e3ddcf3-e9b4-45a2-aa46-0646d9302202"},"vehicle_type_id":"4","last_reported":1751267580,"current_range_meters":11200,"station_id":"ce4bhgp2rcd13ifvqfe0","pricing_plan_id":"cebpf4jnsgd1na2vs0mg"},{"bike_id":"761f7a97-5f6f-4f61-92c5-de6e9123cf16","system_id":"levelo_inurba_marseille","lat":43.29908,"lon":5.43678,"is_reserved":false,"is_disabled":false,"rental_uris":{"android":"levelo://app?vid=761f7a97-5f6f-4f61-92c5-de6e9123cf16","ios":"levelo://app?vid=761f7a97-5f6f-4f61-92c5-de6e9123cf16"},"vehicle_type_id":"4","last_reported":1751267580,"current_range_meters":11200,"station_id":"ce4bhpp2rcd13ifvqhfg","pricing_plan_id":"cebpf4jnsgd1na2vs0mg"},{"bike_id":"3035be0e-7c3d-4f7d-a1cb-7a1af59e497b","system_id":"levelo_inurba_marseille","lat":43.29632,"lon":5.35982,"is_reserved":false,"is_disabled":false,"rental_uris":{"android":"levelo://app?vid=3035be0e-7c3d-4f7d-a1cb-7a1af59e497b","ios":"levelo://app?vid=3035be0e-7c3d-4f7d-a1cb-7a1af59e497b"},"vehicle_type_id":"4","last_reported":1751267580,"current_range_meters":11600,"station_id":"","pricing_plan_id":"cebpf4jnsgd1na2vs0mg"},{"bike_id":"78284af2-bf69-4fd5-b7d0-bf87d4b01869","system_id":"levelo_inurba_marseille","lat":43.31236,"lon":5.36884,"is_reserved":false,"is_disabled":false,"rental_uris":{"android":"levelo://app?vid=78284af2-bf69-4fd5-b7d0-bf87d4b01869","ios":"levelo://app?vid=78284af2-bf69-4fd5-b7d0-bf87d4b01869"},"vehicle_type_id":"4","last_reported":1751267580,"current_range_meters":11600,"station_id":"ce4bgl92rcd13ifvqbq0","pricing_plan_id":"cebpf4jnsgd1na2vs0mg"},{"bike_id":"9f260653-9cd9-4062-9835-5b3ded1b0a96","system_id":"levelo_inurba_marseille","lat":43.30949,"lon":5.39028,"is_reserved":false,"is_disabled":false,"rental_uris":{"android":"levelo://app?vid=9f260653-9cd9-4062-9835-5b3ded1b0a96","ios":"levelo://app?vid=9f260653-9cd9-4062-9835-5b3ded1b0a96"},"vehicle_type_id":"4","last_reported":1751267580,"current_range_meters":11600,"station_id":"ce4bgup2rcd13ifvqco0","pricing_plan_id":"cebpf4jnsgd1na2vs0mg"},{"bike_id":"2c297e1c-c399-4d6e-8627-1536cc7a6b9f","system_id":"levelo_inurba_marseille","lat":43.28672,"lon":5.38658,"is_reserved":false,"is_disabled":false,"rental_uris":{"android":"levelo://app?vid=2c297e1c-c399-4d6e-8627-1536cc7a6b9f","ios":"levelo://app?vid=2c297e1c-c399-4d6e-8627-1536cc7a6b9f"},"vehicle_type_id":"4","last_reported":1751267580,"current_range_meters":11600,"station_id":"ce4bh492rcd13ifvqdug","pricing_plan_id":"cebpf4jnsgd1na2vs0mg"},{"bike_id":"221aa6a4-1358-49bc-8650-d584efc1651b","system_id":"levelo_inurba_marseille","lat":43.30008,"lon":5.38679,"is_reserved":false,"is_disabled":false,"rental_uris":{"android":"levelo://app?vid=221aa6a4-1358-49bc-8650-d584efc1651b","ios":"levelo://app?vid=221aa6a4-1358-49bc-8650-d584efc1651b"},"vehicle_type_id":"4","last_reported":1751267580,"current_range_meters":12000,"station_id":"","pricing_plan_id":"cebpf4jnsgd1na2vs0mg"},{"bike_id":"91e389c0-f5b9-475f-beca-3387a98e641d","system_id":"levelo_inurba_marseille","lat":43.31121,"lon":5.37757,"is_reserved":false,"is_disabled":false,"rental_uris":{"android":"levelo://app?vid=91e389c0-f5b9-475f-beca-3387a98e641d","ios":"levelo://app?vid=91e389c0-f5b9-475f-beca-3387a98e641d"},"vehicle_type_id":"4","last_reported":1751267580,"current_range_meters":12000,"station_id":"ce4bgt92rcd13ifvqcg0","pricing_plan_id":"cebpf4jnsgd1na2vs0mg"},{"bike_id":"d03eec7b-097f-4720-9e49-962f2a4897f6","system_id":"levelo_inurba_marseille","lat":43.231923,"lon":5.399896,"is_reserved":false,"is_disabled":false,"rental_uris":{"android":"levelo://app?vid=d03eec7b-097f-4720-9e49-962f2a4897f6","ios":"levelo://app?vid=d03eec7b-097f-4720-9e49-962f2a4897f6"},"vehicle_type_id":"4","last_reported":1751267580,"current_range_meters":12000,"station_id":"ce4bhn12rcd13ifvqgqg","pricing_plan_id":"cebpf4jnsgd1na2vs0mg"},{"bike_id":"bf24b26e-7f51-4120-9a48-54c87edaa2f7","system_id":"levelo_inurba_marseille","lat":43.211934,"lon":5.350741,"is_reserved":false,"is_disabled":false,"rental_uris":{"android":"levelo://app?vid=bf24b26e-7f51-4120-9a48-54c87edaa2f7","ios":"levelo://app?vid=bf24b26e-7f51-4120-9a48-54c87edaa2f7"},"vehicle_type_id":"4","last_reported":1751267580,"current_range_meters":12000,"station_id":"st_cvj6sg6p6f1abm77japg","pricing_plan_id":"cebpf4jnsgd1na2vs0mg"},{"bike_id":"786f230b-598f-4e58-bbc2-1e0a419e9de2","system_id":"levelo_inurba_marseille","lat":43.26475,"lon":5.39241,"is_reserved":false,"is_disabled":false,"rental_uris":{"android":"levelo://app?vid=786f230b-598f-4e58-bbc2-1e0a419e9de2","ios":"levelo://app?vid=786f230b-598f-4e58-bbc2-1e0a419e9de2"},"vehicle_type_id":"4","last_reported":1751267580,"current_range_meters":12400,"station_id":"","pricing_plan_id":"cebpf4jnsgd1na2vs0mg"},{"bike_id":"7cd73daf-6410-4b72-a872-e5224e9d29ff","system_id":"levelo_inurba_marseille","lat":43.274169,"lon":5.411589,"is_reserved":false,"is_disabled":false,"rental_uris":{"android":"levelo://app?vid=7cd73daf-6410-4b72-a872-e5224e9d29ff","ios":"levelo://app?vid=7cd73daf-6410-4b72-a872-e5224e9d29ff"},"vehicle_type_id":"4","last_reported":1751267580,"current_range_meters":12400,"station_id":"","pricing_plan_id":"cebpf4jnsgd1na2vs0mg"},{"bike_id":"b05ac08d-847b-4f20-ac36-038a0d69d167","system_id":"levelo_inurba_marseille","lat":43.28142,"lon":5.35855,"is_reserved":false,"is_disabled":false,"rental_uris":{"android":"levelo://app?vid=b05ac08d-847b-4f20-ac36-038a0d69d167","ios":"levelo://app?vid=b05ac08d-847b-4f20-ac36-038a0d69d167"},"vehicle_type_id":"4","last_reported":1751267580,"current_range_meters":12400,"station_id":"","pricing_plan_id":"cebpf4jnsgd1na2vs0mg"},{"bike_id":"2e79bb56-f456-4ead-924b-14d22ecb8872","system_id":"levelo_inurba_marseille","lat":43.29841,"lon":5.36266,"is_reserved":false,"is_disabled":false,"rental_uris":{"android":"levelo://app?vid=2e79bb56-f456-4ead-924b-14d22ecb8872","ios":"levelo://app?vid=2e79bb56-f456-4ead-924b-14d22ecb8872"},"vehicle_type_id":"4","last_reported":1751267580,"current_range_meters":12400,"station_id":"ce4bgpp2rcd13ifvqc3g","pricing_plan_id":"cebpf4jnsgd1na2vs0mg"},{"bike_id":"70a8913c-0a33-4d49-9701-d3b6082c5f81","system_id":"levelo_inurba_marseille","lat":43.30947,"lon":5.39025,"is_reserved":false,"is_disabled":false,"rental_uris":{"android":"levelo://app?vid=70a8913c-0a33-4d49-9701-d3b6082c5f81","ios":"levelo://app?vid=70a8913c-0a33-4d49-9701-d3b6082c5f81"},"vehicle_type_id":"4","last_reported":1751267580,"current_range_meters":12400,"station_id":"ce4bgup2rcd13ifvqco0","pricing_plan_id":"cebpf4jnsgd1na2vs0mg"},{"bike_id":"fc92e15b-dbbd-4c08-862e-67528212cf8c","system_id":"levelo_inurba_marseille","lat":43.241727,"lon":5.397334,"is_reserved":false,"is_disabled":false,"rental_uris":{"android":"levelo://app?vid=fc92e15b-dbbd-4c08-862e-67528212cf8c","ios":"levelo://app?vid=fc92e15b-dbbd-4c08-862e-67528212cf8c"},"vehicle_type_id":"4","last_reported":1751267580,"current_range_meters":12400,"station_id":"ce4bhn12rcd13ifvqgpg","pricing_plan_id":"cebpf4jnsgd1na2vs0mg"},{"bike_id":"e7641e58-176f-485d-9342-129003cdc52b","system_id":"levelo_inurba_marseille","lat":43.321066,"lon":5.367758,"is_reserved":false,"is_disabled":false,"rental_uris":{"android":"levelo://app?vid=e7641e58-176f-485d-9342-129003cdc52b","ios":"levelo://app?vid=e7641e58-176f-485d-9342-129003cdc52b"},"vehicle_type_id":"4","last_reported":1751267580,"current_range_meters":12400,"station_id":"ce4bhrh2rcd13ifvqhug","pricing_plan_id":"cebpf4jnsgd1na2vs0mg"},{"bike_id":"f5c16f07-bc6f-4121-91a7-5ad90eec4f34","system_id":"levelo_inurba_marseille","lat":43.31202,"lon":5.373404,"is_reserved":false,"is_disabled":false,"rental_uris":{"android":"levelo://app?vid=f5c16f07-bc6f-4121-91a7-5ad90eec4f34","ios":"levelo://app?vid=f5c16f07-bc6f-4121-91a7-5ad90eec4f34"},"vehicle_type_id":"4","last_reported":1751267580,"current_range_meters":12800,"station_id":"","pricing_plan_id":"cebpf4jnsgd1na2vs0mg"},{"bike_id":"acca692d-8d39-459c-a574-7087df4141fc","system_id":"levelo_inurba_marseille","lat":43.31488,"lon":5.37302,"is_reserved":false,"is_disabled":false,"rental_uris":{"android":"levelo://app?vid=acca692d-8d39-459c-a574-7087df4141fc","ios":"levelo://app?vid=acca692d-8d39-459c-a574-7087df4141fc"},"vehicle_type_id":"4","last_reported":1751267580,"current_range_meters":12800,"station_id":"ce4bgt12rcd13ifvqcd0","pricing_plan_id":"cebpf4jnsgd1na2vs0mg"},{"bike_id":"5243cf43-ff06-4c10-bea4-8ea1926bb053","system_id":"levelo_inurba_marseille","lat":43.30884,"lon":5.3719,"is_reserved":false,"is_disabled":false,"rental_uris":{"android":"levelo://app?vid=5243cf43-ff06-4c10-bea4-8ea1926bb053","ios":"levelo://app?vid=5243cf43-ff06-4c10-bea4-8ea1926bb053"},"vehicle_type_id":"4","last_reported":1751267580,"current_range_meters":12800,"station_id":"ce4bguh2rcd13ifvqckg","pricing_plan_id":"cebpf4jnsgd1na2vs0mg"},{"bike_id":"75dc1e7b-4004-4d28-b99b-2e3b83eec7ae","system_id":"levelo_inurba_marseille","lat":43.284867,"lon":5.384161,"is_reserved":false,"is_disabled":false,"rental_uris":{"android":"levelo://app?vid=75dc1e7b-4004-4d28-b99b-2e3b83eec7ae","ios":"levelo://app?vid=75dc1e7b-4004-4d28-b99b-2e3b83eec7ae"},"vehicle_type_id":"4","last_reported":1751267580,"current_range_meters":12800,"station_id":"ce4bh512rcd13ifvqe3g","pricing_plan_id":"cebpf4jnsgd1na2vs0mg"},{"bike_id":"be31c774-7e82-4ba5-a865-9e5eca957a7d","system_id":"levelo_inurba_marseille","lat":43.28722,"lon":5.37937,"is_reserved":false,"is_disabled":false,"rental_uris":{"android":"levelo://app?vid=be31c774-7e82-4ba5-a865-9e5eca957a7d","ios":"levelo://app?vid=be31c774-7e82-4ba5-a865-9e5eca957a7d"},"vehicle_type_id":"4","last_reported":1751267580,"current_range_meters":12800,"station_id":"ce4bh9p2rcd13ifvqec0","pricing_plan_id":"cebpf4jnsgd1na2vs0mg"},{"bike_id":"5be7eac5-d952-407f-8037-899de6dfebfe","system_id":"levelo_inurba_marseille","lat":43.27376,"lon":5.3626,"is_reserved":false,"is_disabled":false,"rental_uris":{"android":"levelo://app?vid=5be7eac5-d952-407f-8037-899de6dfebfe","ios":"levelo://app?vid=5be7eac5-d952-407f-8037-899de6dfebfe"},"vehicle_type_id":"4","last_reported":1751267580,"current_range_meters":12800,"station_id":"ce4bhbh2rcd13ifvqeo0","pricing_plan_id":"cebpf4jnsgd1na2vs0mg"},{"bike_id":"4a0f29cd-2307-456e-9d4f-8873f5625d93","system_id":"levelo_inurba_marseille","lat":43.25113,"lon":5.40321,"is_reserved":false,"is_disabled":false,"rental_uris":{"android":"levelo://app?vid=4a0f29cd-2307-456e-9d4f-8873f5625d93","ios":"levelo://app?vid=4a0f29cd-2307-456e-9d4f-8873f5625d93"},"vehicle_type_id":"4","last_reported":1751267580,"current_range_meters":12800,"station_id":"ce4bhlh2rcd13ifvqgig","pricing_plan_id":"cebpf4jnsgd1na2vs0mg"},{"bike_id":"8cb2cc9a-4a36-429c-b0f0-dc72e84b8935","system_id":"levelo_inurba_marseille","lat":43.32334,"lon":5.40618,"is_reserved":false,"is_disabled":false,"rental_uris":{"android":"levelo://app?vid=8cb2cc9a-4a36-429c-b0f0-dc72e84b8935","ios":"levelo://app?vid=8cb2cc9a-4a36-429c-b0f0-dc72e84b8935"},"vehicle_type_id":"4","last_reported":1751267580,"current_range_meters":12800,"station_id":"ce4bhq92rcd13ifvqhjg","pricing_plan_id":"cebpf4jnsgd1na2vs0mg"},{"bike_id":"184616c4-81fd-49a3-9c3a-5f6f924da807","system_id":"levelo_inurba_marseille","lat":43.283498,"lon":5.381056,"is_reserved":false,"is_disabled":false,"rental_uris":{"android":"levelo://app?vid=184616c4-81fd-49a3-9c3a-5f6f924da807","ios":"levelo://app?vid=184616c4-81fd-49a3-9c3a-5f6f924da807"},"vehicle_type_id":"4","last_reported":1751267580,"current_range_meters":13600,"station_id":"ce4bh412rcd13ifvqdr0","pricing_plan_id":"cebpf4jnsgd1na2vs0mg"},{"bike_id":"6b6a646f-e1ae-4138-9055-a2e578c870cb","system_id":"levelo_inurba_marseille","lat":43.217495,"lon":5.346066,"is_reserved":false,"is_disabled":false,"rental_uris":{"android":"levelo://app?vid=6b6a646f-e1ae-4138-9055-a2e578c870cb","ios":"levelo://app?vid=6b6a646f-e1ae-4138-9055-a2e578c870cb"},"vehicle_type_id":"4","last_reported":1751267580,"current_range_meters":13600,"station_id":"st_cvj6r9ubvosntc0bgbag","pricing_plan_id":"cebpf4jnsgd1na2vs0mg"},{"bike_id":"2a7d4522-b0dd-48c1-8653-7a6d0e58cc43","system_id":"levelo_inurba_marseille","lat":43.320809,"lon":5.401193,"is_reserved":false,"is_disabled":false,"rental_uris":{"android":"levelo://app?vid=2a7d4522-b0dd-48c1-8653-7a6d0e58cc43","ios":"levelo://app?vid=2a7d4522-b0dd-48c1-8653-7a6d0e58cc43"},"vehicle_type_id":"4","last_reported":1751267580,"current_range_meters":14000,"station_id":"","pricing_plan_id":"cebpf4jnsgd1na2vs0mg"},{"bike_id":"0b5cda5b-6f81-4549-a623-4ee2c6a2f04a","system_id":"levelo_inurba_marseille","lat":43.31217,"lon":5.36848,"is_reserved":false,"is_disabled":false,"rental_uris":{"android":"levelo://app?vid=0b5cda5b-6f81-4549-a623-4ee2c6a2f04a","ios":"levelo://app?vid=0b5cda5b-6f81-4549-a623-4ee2c6a2f04a"},"vehicle_type_id":"4","last_reported":1751267580,"current_range_meters":14000,"station_id":"ce4bgl92rcd13ifvqbq0","pricing_plan_id":"cebpf4jnsgd1na2vs0mg"},{"bike_id":"538b2f0d-81d8-4aa5-a3bd-54a001cc82bf","system_id":"levelo_inurba_marseille","lat":43.26801,"lon":5.39399,"is_reserved":false,"is_disabled":false,"rental_uris":{"android":"levelo://app?vid=538b2f0d-81d8-4aa5-a3bd-54a001cc82bf","ios":"levelo://app?vid=538b2f0d-81d8-4aa5-a3bd-54a001cc82bf"},"vehicle_type_id":"4","last_reported":1751267580,"current_range_meters":14000,"station_id":"ce4bhh12rcd13ifvqfg0","pricing_plan_id":"cebpf4jnsgd1na2vs0mg"},{"bike_id":"6b82ef9f-6c87-445c-9dae-e39727da3bf6","system_id":"levelo_inurba_marseille","lat":43.26929,"lon":5.38911,"is_reserved":false,"is_disabled":false,"rental_uris":{"android":"levelo://app?vid=6b82ef9f-6c87-445c-9dae-e39727da3bf6","ios":"levelo://app?vid=6b82ef9f-6c87-445c-9dae-e39727da3bf6"},"vehicle_type_id":"4","last_reported":1751267580,"current_range_meters":14000,"station_id":"ce4bhhh2rcd13ifvqfl0","pricing_plan_id":"cebpf4jnsgd1na2vs0mg"},{"bike_id":"5d535158-d906-4272-9014-965c58e9f560","system_id":"levelo_inurba_marseille","lat":43.255822,"lon":5.382346,"is_reserved":false,"is_disabled":false,"rental_uris":{"android":"levelo://app?vid=5d535158-d906-4272-9014-965c58e9f560","ios":"levelo://app?vid=5d535158-d906-4272-9014-965c58e9f560"},"vehicle_type_id":"4","last_reported":1751267580,"current_range_meters":14000,"station_id":"ce4bhih2rcd13ifvqfs0","pricing_plan_id":"cebpf4jnsgd1na2vs0mg"},{"bike_id":"7114fcc0-b78a-4ae5-9549-18d7c2205879","system_id":"levelo_inurba_marseille","lat":43.232109,"lon":5.436046,"is_reserved":false,"is_disabled":false,"rental_uris":{"android":"levelo://app?vid=7114fcc0-b78a-4ae5-9549-18d7c2205879","ios":"levelo://app?vid=7114fcc0-b78a-4ae5-9549-18d7c2205879"},"vehicle_type_id":"4","last_reported":1751267580,"current_range_meters":14000,"station_id":"ce4bhmp2rcd13ifvqgog","pricing_plan_id":"cebpf4jnsgd1na2vs0mg"},{"bike_id":"452e8211-4f44-45d0-814a-3e9e25b8c44e","system_id":"levelo_inurba_marseille","lat":43.21192,"lon":5.350746,"is_reserved":false,"is_disabled":false,"rental_uris":{"android":"levelo://app?vid=452e8211-4f44-45d0-814a-3e9e25b8c44e","ios":"levelo://app?vid=452e8211-4f44-45d0-814a-3e9e25b8c44e"},"vehicle_type_id":"4","last_reported":1751267580,"current_range_meters":14000,"station_id":"st_cvj6sg6p6f1abm77japg","pricing_plan_id":"cebpf4jnsgd1na2vs0mg"},{"bike_id":"5be1a4b5-3e1e-4bcd-9477-5aee0b89f062","system_id":"levelo_inurba_marseille","lat":43.278427,"lon":5.354588,"is_reserved":false,"is_disabled":false,"rental_uris":{"android":"levelo://app?vid=5be1a4b5-3e1e-4bcd-9477-5aee0b89f062","ios":"levelo://app?vid=5be1a4b5-3e1e-4bcd-9477-5aee0b89f062"},"vehicle_type_id":"4","last_reported":1751267580,"current_range_meters":14400,"station_id":"","pricing_plan_id":"cebpf4jnsgd1na2vs0mg"},{"bike_id":"7dc148e5-fd7e-4677-bce3-55c94c6ee080","system_id":"levelo_inurba_marseille","lat":43.30676,"lon":5.40929,"is_reserved":false,"is_disabled":false,"rental_uris":{"android":"levelo://app?vid=7dc148e5-fd7e-4677-bce3-55c94c6ee080","ios":"levelo://app?vid=7dc148e5-fd7e-4677-bce3-55c94c6ee080"},"vehicle_type_id":"4","last_reported":1751267580,"current_range_meters":14400,"station_id":"","pricing_plan_id":"cebpf4jnsgd1na2vs0mg"},{"bike_id":"e90e79d8-6995-450b-b953-7485053e37f8","system_id":"levelo_inurba_marseille","lat":43.30903,"lon":5.36856,"is_reserved":false,"is_disabled":false,"rental_uris":{"android":"levelo://app?vid=e90e79d8-6995-450b-b953-7485053e37f8","ios":"levelo://app?vid=e90e79d8-6995-450b-b953-7485053e37f8"},"vehicle_type_id":"4","last_reported":1751267580,"current_range_meters":14400,"station_id":"ce4bgn92rcd13ifvqbvg","pricing_plan_id":"cebpf4jnsgd1na2vs0mg"},{"bike_id":"e2c90806-e486-4ff7-97ac-251882f4b68e","system_id":"levelo_inurba_marseille","lat":43.24063,"lon":5.37754,"is_reserved":false,"is_disabled":false,"rental_uris":{"android":"levelo://app?vid=e2c90806-e486-4ff7-97ac-251882f4b68e","ios":"levelo://app?vid=e2c90806-e486-4ff7-97ac-251882f4b68e"},"vehicle_type_id":"4","last_reported":1751267580,"current_range_meters":14400,"station_id":"ce4bhnp2rcd13ifvqgvg","pricing_plan_id":"cebpf4jnsgd1na2vs0mg"},{"bike_id":"ba926bfc-9632-4680-b0ed-32a040d6fb83","system_id":"levelo_inurba_marseille","lat":43.2119,"lon":5.35073,"is_reserved":false,"is_disabled":false,"rental_uris":{"android":"levelo://app?vid=ba926bfc-9632-4680-b0ed-32a040d6fb83","ios":"levelo://app?vid=ba926bfc-9632-4680-b0ed-32a040d6fb83"},"vehicle_type_id":"4","last_reported":1751267580,"current_range_meters":14400,"station_id":"st_cvj6sg6p6f1abm77japg","pricing_plan_id":"cebpf4jnsgd1na2vs0mg"},{"bike_id":"6b352fdb-4980-452d-9441-954a1a4f7cc1","system_id":"levelo_inurba_marseille","lat":43.29581,"lon":5.374813,"is_reserved":false,"is_disabled":false,"rental_uris":{"android":"levelo://app?vid=6b352fdb-4980-452d-9441-954a1a4f7cc1","ios":"levelo://app?vid=6b352fdb-4980-452d-9441-954a1a4f7cc1"},"vehicle_type_id":"4","last_reported":1751267580,"current_range_meters":14800,"station_id":"ce4bgh92rcd13ifvqb50","pricing_plan_id":"cebpf4jnsgd1na2vs0mg"},{"bike_id":"fbd15603-4898-4429-8dfc-74296ff0bafc","system_id":"levelo_inurba_marseille","lat":43.296196,"lon":5.371594,"is_reserved":false,"is_disabled":false,"rental_uris":{"android":"levelo://app?vid=fbd15603-4898-4429-8dfc-74296ff0bafc","ios":"levelo://app?vid=fbd15603-4898-4429-8dfc-74296ff0bafc"},"vehicle_type_id":"4","last_reported":1751267580,"current_range_meters":14800,"station_id":"ce4bgnh2rcd13ifvqc0g","pricing_plan_id":"cebpf4jnsgd1na2vs0mg"},{"bike_id":"f5a5daea-23a6-4634-b172-55ba97a9bbfb","system_id":"levelo_inurba_marseille","lat":43.26556,"lon":5.37288,"is_reserved":false,"is_disabled":false,"rental_uris":{"android":"levelo://app?vid=f5a5daea-23a6-4634-b172-55ba97a9bbfb","ios":"levelo://app?vid=f5a5daea-23a6-4634-b172-55ba97a9bbfb"},"vehicle_type_id":"4","last_reported":1751267580,"current_range_meters":14800,"station_id":"ce4bhg12rcd13ifvqf70","pricing_plan_id":"cebpf4jnsgd1na2vs0mg"},{"bike_id":"8963e95a-d002-4536-ae22-48ad9969a805","system_id":"levelo_inurba_marseille","lat":43.26676,"lon":5.38267,"is_reserved":false,"is_disabled":false,"rental_uris":{"android":"levelo://app?vid=8963e95a-d002-4536-ae22-48ad9969a805","ios":"levelo://app?vid=8963e95a-d002-4536-ae22-48ad9969a805"},"vehicle_type_id":"4","last_reported":1751267580,"current_range_meters":14800,"station_id":"ce4bhg92rcd13ifvqf90","pricing_plan_id":"cebpf4jnsgd1na2vs0mg"},{"bike_id":"7cd6b8a7-3c59-4ac9-b582-c7ee6452bed6","system_id":"levelo_inurba_marseille","lat":43.27202,"lon":5.39183,"is_reserved":false,"is_disabled":false,"rental_uris":{"android":"levelo://app?vid=7cd6b8a7-3c59-4ac9-b582-c7ee6452bed6","ios":"levelo://app?vid=7cd6b8a7-3c59-4ac9-b582-c7ee6452bed6"},"vehicle_type_id":"4","last_reported":1751267580,"current_range_meters":14800,"station_id":"ce4bhhp2rcd13ifvqfm0","pricing_plan_id":"cebpf4jnsgd1na2vs0mg"},{"bike_id":"37b84a38-055a-4a6e-a56a-8ff3d0c1b2ec","system_id":"levelo_inurba_marseille","lat":43.212033,"lon":5.350731,"is_reserved":false,"is_disabled":false,"rental_uris":{"android":"levelo://app?vid=37b84a38-055a-4a6e-a56a-8ff3d0c1b2ec","ios":"levelo://app?vid=37b84a38-055a-4a6e-a56a-8ff3d0c1b2ec"},"vehicle_type_id":"4","last_reported":1751267580,"current_range_meters":14800,"station_id":"st_cvj6sg6p6f1abm77japg","pricing_plan_id":"cebpf4jnsgd1na2vs0mg"},{"bike_id":"5f470112-8139-4343-b082-08a74e0b7074","system_id":"levelo_inurba_marseille","lat":43.21203,"lon":5.35054,"is_reserved":false,"is_disabled":false,"rental_uris":{"android":"levelo://app?vid=5f470112-8139-4343-b082-08a74e0b7074","ios":"levelo://app?vid=5f470112-8139-4343-b082-08a74e0b7074"},"vehicle_type_id":"4","last_reported":1751267580,"current_range_meters":14800,"station_id":"st_cvj6sg6p6f1abm77japg","pricing_plan_id":"cebpf4jnsgd1na2vs0mg"},{"bike_id":"b3cff59b-38b6-4818-ad8e-77767419cac1","system_id":"levelo_inurba_marseille","lat":43.29918,"lon":5.37499,"is_reserved":false,"is_disabled":false,"rental_uris":{"android":"levelo://app?vid=b3cff59b-38b6-4818-ad8e-77767419cac1","ios":"levelo://app?vid=b3cff59b-38b6-4818-ad8e-77767419cac1"},"vehicle_type_id":"4","last_reported":1751267580,"current_range_meters":15200,"station_id":"ce4bgjh2rcd13ifvqbg0","pricing_plan_id":"cebpf4jnsgd1na2vs0mg"},{"bike_id":"ceb818d5-6a0e-45de-8d40-c9c1b19d5e60","system_id":"levelo_inurba_marseille","lat":43.32358,"lon":5.36761,"is_reserved":false,"is_disabled":false,"rental_uris":{"android":"levelo://app?vid=ceb818d5-6a0e-45de-8d40-c9c1b19d5e60","ios":"levelo://app?vid=ceb818d5-6a0e-45de-8d40-c9c1b19d5e60"},"vehicle_type_id":"4","last_reported":1751267580,"current_range_meters":15200,"station_id":"ce4bhsh2rcd13ifvqi2g","pricing_plan_id":"cebpf4jnsgd1na2vs0mg"},{"bike_id":"3eabe1e2-f9f5-41cb-a4ed-73ca7f909c5c","system_id":"levelo_inurba_marseille","lat":43.211971,"lon":5.350682,"is_reserved":false,"is_disabled":false,"rental_uris":{"android":"levelo://app?vid=3eabe1e2-f9f5-41cb-a4ed-73ca7f909c5c","ios":"levelo://app?vid=3eabe1e2-f9f5-41cb-a4ed-73ca7f909c5c"},"vehicle_type_id":"4","last_reported":1751267580,"current_range_meters":15200,"station_id":"st_cvj6sg6p6f1abm77japg","pricing_plan_id":"cebpf4jnsgd1na2vs0mg"},{"bike_id":"7b01a22e-9944-4026-bd44-e2190e990ac2","system_id":"levelo_inurba_marseille","lat":43.26165,"lon":5.37464,"is_reserved":false,"is_disabled":false,"rental_uris":{"android":"levelo://app?vid=7b01a22e-9944-4026-bd44-e2190e990ac2","ios":"levelo://app?vid=7b01a22e-9944-4026-bd44-e2190e990ac2"},"vehicle_type_id":"4","last_reported":1751267580,"current_range_meters":16000,"station_id":"","pricing_plan_id":"cebpf4jnsgd1na2vs0mg"},{"bike_id":"1ac664aa-f2a4-4b75-879f-dcb93272d133","system_id":"levelo_inurba_marseille","lat":43.32024,"lon":5.40945,"is_reserved":false,"is_disabled":false,"rental_uris":{"android":"levelo://app?vid=1ac664aa-f2a4-4b75-879f-dcb93272d133","ios":"levelo://app?vid=1ac664aa-f2a4-4b75-879f-dcb93272d133"},"vehicle_type_id":"4","last_reported":1751267580,"current_range_meters":16000,"station_id":"","pricing_plan_id":"cebpf4jnsgd1na2vs0mg"},{"bike_id":"0574b8ad-8689-4fa6-9257-d48dff7d91ff","system_id":"levelo_inurba_marseille","lat":43.29014,"lon":5.37851,"is_reserved":false,"is_disabled":false,"rental_uris":{"android":"levelo://app?vid=0574b8ad-8689-4fa6-9257-d48dff7d91ff","ios":"levelo://app?vid=0574b8ad-8689-4fa6-9257-d48dff7d91ff"},"vehicle_type_id":"4","last_reported":1751267580,"current_range_meters":16000,"station_id":"","pricing_plan_id":"cebpf4jnsgd1na2vs0mg"},{"bike_id":"b6941871-17ec-4dc8-9dbe-bf1e08f324ad","system_id":"levelo_inurba_marseille","lat":43.31218,"lon":5.36849,"is_reserved":false,"is_disabled":false,"rental_uris":{"android":"levelo://app?vid=b6941871-17ec-4dc8-9dbe-bf1e08f324ad","ios":"levelo://app?vid=b6941871-17ec-4dc8-9dbe-bf1e08f324ad"},"vehicle_type_id":"4","last_reported":1751267580,"current_range_meters":16000,"station_id":"ce4bgl92rcd13ifvqbq0","pricing_plan_id":"cebpf4jnsgd1na2vs0mg"},{"bike_id":"7f52a71a-d22e-488b-b7ff-07f28e979af8","system_id":"levelo_inurba_marseille","lat":43.3149,"lon":5.3731,"is_reserved":false,"is_disabled":false,"rental_uris":{"android":"levelo://app?vid=7f52a71a-d22e-488b-b7ff-07f28e979af8","ios":"levelo://app?vid=7f52a71a-d22e-488b-b7ff-07f28e979af8"},"vehicle_type_id":"4","last_reported":1751267580,"current_range_meters":16000,"station_id":"ce4bgt12rcd13ifvqcd0","pricing_plan_id":"cebpf4jnsgd1na2vs0mg"},{"bike_id":"6b04a8db-f012-4ea9-88f5-d59ff3f24fd9","system_id":"levelo_inurba_marseille","lat":43.29905,"lon":5.43668,"is_reserved":false,"is_disabled":false,"rental_uris":{"android":"levelo://app?vid=6b04a8db-f012-4ea9-88f5-d59ff3f24fd9","ios":"levelo://app?vid=6b04a8db-f012-4ea9-88f5-d59ff3f24fd9"},"vehicle_type_id":"4","last_reported":1751267580,"current_range_meters":16000,"station_id":"ce4bhpp2rcd13ifvqhfg","pricing_plan_id":"cebpf4jnsgd1na2vs0mg"},{"bike_id":"4e47abe4-6598-4756-807d-26ba558e3c39","system_id":"levelo_inurba_marseille","lat":43.29903,"lon":5.43672,"is_reserved":false,"is_disabled":false,"rental_uris":{"android":"levelo://app?vid=4e47abe4-6598-4756-807d-26ba558e3c39","ios":"levelo://app?vid=4e47abe4-6598-4756-807d-26ba558e3c39"},"vehicle_type_id":"4","last_reported":1751267580,"current_range_meters":16000,"station_id":"ce4bhpp2rcd13ifvqhfg","pricing_plan_id":"cebpf4jnsgd1na2vs0mg"},{"bike_id":"7712491c-e18b-4b09-bb79-30880b357c07","system_id":"levelo_inurba_marseille","lat":43.2121,"lon":5.35051,"is_reserved":false,"is_disabled":false,"rental_uris":{"android":"levelo://app?vid=7712491c-e18b-4b09-bb79-30880b357c07","ios":"levelo://app?vid=7712491c-e18b-4b09-bb79-30880b357c07"},"vehicle_type_id":"4","last_reported":1751267580,"current_range_meters":16000,"station_id":"st_cvj6sg6p6f1abm77japg","pricing_plan_id":"cebpf4jnsgd1na2vs0mg"},{"bike_id":"cc04118e-9312-4bf8-9106-d64e829afbaa","system_id":"levelo_inurba_marseille","lat":43.21201,"lon":5.3506,"is_reserved":false,"is_disabled":false,"rental_uris":{"android":"levelo://app?vid=cc04118e-9312-4bf8-9106-d64e829afbaa","ios":"levelo://app?vid=cc04118e-9312-4bf8-9106-d64e829afbaa"},"vehicle_type_id":"4","last_reported":1751267580,"current_range_meters":16000,"station_id":"st_cvj6sg6p6f1abm77japg","pricing_plan_id":"cebpf4jnsgd1na2vs0mg"},{"bike_id":"439b060c-1ed3-4dc0-aba8-51e0b7ea3d34","system_id":"levelo_inurba_marseille","lat":43.25901,"lon":5.41001,"is_reserved":false,"is_disabled":false,"rental_uris":{"android":"levelo://app?vid=439b060c-1ed3-4dc0-aba8-51e0b7ea3d34","ios":"levelo://app?vid=439b060c-1ed3-4dc0-aba8-51e0b7ea3d34"},"vehicle_type_id":"4","last_reported":1751267580,"current_range_meters":16400,"station_id":"","pricing_plan_id":"cebpf4jnsgd1na2vs0mg"},{"bike_id":"9b8ce672-64af-400d-8231-de8a26fcdf9c","system_id":"levelo_inurba_marseille","lat":43.30304,"lon":5.36928,"is_reserved":false,"is_disabled":false,"rental_uris":{"android":"levelo://app?vid=9b8ce672-64af-400d-8231-de8a26fcdf9c","ios":"levelo://app?vid=9b8ce672-64af-400d-8231-de8a26fcdf9c"},"vehicle_type_id":"4","last_reported":1751267580,"current_range_meters":16400,"station_id":"ce4bgqh2rcd13ifvqc5g","pricing_plan_id":"cebpf4jnsgd1na2vs0mg"},{"bike_id":"12960798-f814-4638-a173-41e773acf61d","system_id":"levelo_inurba_marseille","lat":43.29036,"lon":5.39965,"is_reserved":false,"is_disabled":false,"rental_uris":{"android":"levelo://app?vid=12960798-f814-4638-a173-41e773acf61d","ios":"levelo://app?vid=12960798-f814-4638-a173-41e773acf61d"},"vehicle_type_id":"4","last_reported":1751267580,"current_range_meters":16400,"station_id":"ce4bh392rcd13ifvqdm0","pricing_plan_id":"cebpf4jnsgd1na2vs0mg"},{"bike_id":"297c015c-0413-4b8b-ad06-4e1b4e117f34","system_id":"levelo_inurba_marseille","lat":43.26788,"lon":5.39417,"is_reserved":false,"is_disabled":false,"rental_uris":{"android":"levelo://app?vid=297c015c-0413-4b8b-ad06-4e1b4e117f34","ios":"levelo://app?vid=297c015c-0413-4b8b-ad06-4e1b4e117f34"},"vehicle_type_id":"4","last_reported":1751267580,"current_range_meters":16400,"station_id":"ce4bhh12rcd13ifvqfg0","pricing_plan_id":"cebpf4jnsgd1na2vs0mg"},{"bike_id":"eceb2c3c-f0b2-40bb-b79f-4349c99410a1","system_id":"levelo_inurba_marseille","lat":43.25718,"lon":5.41112,"is_reserved":false,"is_disabled":false,"rental_uris":{"android":"levelo://app?vid=eceb2c3c-f0b2-40bb-b79f-4349c99410a1","ios":"levelo://app?vid=eceb2c3c-f0b2-40bb-b79f-4349c99410a1"},"vehicle_type_id":"4","last_reported":1751267580,"current_range_meters":16400,"station_id":"ce4bhkp2rcd13ifvqgd0","pricing_plan_id":"cebpf4jnsgd1na2vs0mg"},{"bike_id":"f3be07ba-976c-4bda-93f8-676628a8db2e","system_id":"levelo_inurba_marseille","lat":43.25732,"lon":5.41065,"is_reserved":false,"is_disabled":false,"rental_uris":{"android":"levelo://app?vid=f3be07ba-976c-4bda-93f8-676628a8db2e","ios":"levelo://app?vid=f3be07ba-976c-4bda-93f8-676628a8db2e"},"vehicle_type_id":"4","last_reported":1751267580,"current_range_meters":16400,"station_id":"ce4bhkp2rcd13ifvqgd0","pricing_plan_id":"cebpf4jnsgd1na2vs0mg"},{"bike_id":"8a7be870-6bc9-4d10-9ce0-b10af3e6fa04","system_id":"levelo_inurba_marseille","lat":43.26248,"lon":5.4047,"is_reserved":false,"is_disabled":false,"rental_uris":{"android":"levelo://app?vid=8a7be870-6bc9-4d10-9ce0-b10af3e6fa04","ios":"levelo://app?vid=8a7be870-6bc9-4d10-9ce0-b10af3e6fa04"},"vehicle_type_id":"4","last_reported":1751267580,"current_range_meters":16400,"station_id":"ce4bhmh2rcd13ifvqgmg","pricing_plan_id":"cebpf4jnsgd1na2vs0mg"},{"bike_id":"4f97e136-2006-43b5-84b8-8ce28f4647e9","system_id":"levelo_inurba_marseille","lat":43.211865,"lon":5.350704,"is_reserved":false,"is_disabled":false,"rental_uris":{"android":"levelo://app?vid=4f97e136-2006-43b5-84b8-8ce28f4647e9","ios":"levelo://app?vid=4f97e136-2006-43b5-84b8-8ce28f4647e9"},"vehicle_type_id":"4","last_reported":1751267580,"current_range_meters":16400,"station_id":"st_cvj6sg6p6f1abm77japg","pricing_plan_id":"cebpf4jnsgd1na2vs0mg"},{"bike_id":"ad9a1bf3-7423-4a3f-b7d3-23958e3dbc15","system_id":"levelo_inurba_marseille","lat":43.30894,"lon":5.37826,"is_reserved":false,"is_disabled":false,"rental_uris":{"android":"levelo://app?vid=ad9a1bf3-7423-4a3f-b7d3-23958e3dbc15","ios":"levelo://app?vid=ad9a1bf3-7423-4a3f-b7d3-23958e3dbc15"},"vehicle_type_id":"4","last_reported":1751267580,"current_range_meters":16800,"station_id":"","pricing_plan_id":"cebpf4jnsgd1na2vs0mg"},{"bike_id":"deb47852-c541-46ec-ac9e-e9625326e89d","system_id":"levelo_inurba_marseille","lat":43.31353,"lon":5.367117,"is_reserved":false,"is_disabled":false,"rental_uris":{"android":"levelo://app?vid=deb47852-c541-46ec-ac9e-e9625326e89d","ios":"levelo://app?vid=deb47852-c541-46ec-ac9e-e9625326e89d"},"vehicle_type_id":"4","last_reported":1751267580,"current_range_meters":16800,"station_id":"ce4bgr92rcd13ifvqc6g","pricing_plan_id":"cebpf4jnsgd1na2vs0mg"},{"bike_id":"7def622c-1243-44da-af36-4c505b4f00ba","system_id":"levelo_inurba_marseille","lat":43.24179,"lon":5.39725,"is_reserved":false,"is_disabled":false,"rental_uris":{"android":"levelo://app?vid=7def622c-1243-44da-af36-4c505b4f00ba","ios":"levelo://app?vid=7def622c-1243-44da-af36-4c505b4f00ba"},"vehicle_type_id":"4","last_reported":1751267580,"current_range_meters":16800,"station_id":"ce4bhn12rcd13ifvqgpg","pricing_plan_id":"cebpf4jnsgd1na2vs0mg"},{"bike_id":"9f1a592c-1096-463e-9f87-57aa94f7d4de","system_id":"levelo_inurba_marseille","lat":43.23186,"lon":5.39995,"is_reserved":false,"is_disabled":false,"rental_uris":{"android":"levelo://app?vid=9f1a592c-1096-463e-9f87-57aa94f7d4de","ios":"levelo://app?vid=9f1a592c-1096-463e-9f87-57aa94f7d4de"},"vehicle_type_id":"4","last_reported":1751267580,"current_range_meters":16800,"station_id":"ce4bhn12rcd13ifvqgqg","pricing_plan_id":"cebpf4jnsgd1na2vs0mg"},{"bike_id":"d8facb10-b967-4a32-9b5c-8cfed4bbd05b","system_id":"levelo_inurba_marseille","lat":43.321143,"lon":5.367493,"is_reserved":false,"is_disabled":false,"rental_uris":{"android":"levelo://app?vid=d8facb10-b967-4a32-9b5c-8cfed4bbd05b","ios":"levelo://app?vid=d8facb10-b967-4a32-9b5c-8cfed4bbd05b"},"vehicle_type_id":"4","last_reported":1751267580,"current_range_meters":16800,"station_id":"ce4bhrh2rcd13ifvqhug","pricing_plan_id":"cebpf4jnsgd1na2vs0mg"},{"bike_id":"8ceb2860-ca09-420a-8aab-fcf0c529a0d3","system_id":"levelo_inurba_marseille","lat":43.21189,"lon":5.35068,"is_reserved":false,"is_disabled":false,"rental_uris":{"android":"levelo://app?vid=8ceb2860-ca09-420a-8aab-fcf0c529a0d3","ios":"levelo://app?vid=8ceb2860-ca09-420a-8aab-fcf0c529a0d3"},"vehicle_type_id":"4","last_reported":1751267580,"current_range_meters":16800,"station_id":"st_cvj6sg6p6f1abm77japg","pricing_plan_id":"cebpf4jnsgd1na2vs0mg"},{"bike_id":"828367f0-19fb-4e0a-8420-57a47d2ded31","system_id":"levelo_inurba_marseille","lat":43.260226,"lon":5.417444,"is_reserved":false,"is_disabled":false,"rental_uris":{"android":"levelo://app?vid=828367f0-19fb-4e0a-8420-57a47d2ded31","ios":"levelo://app?vid=828367f0-19fb-4e0a-8420-57a47d2ded31"},"vehicle_type_id":"4","last_reported":1751267580,"current_range_meters":17200,"station_id":"","pricing_plan_id":"cebpf4jnsgd1na2vs0mg"},{"bike_id":"a8fa4732-bdc8-44d9-9552-8e143b44d53f","system_id":"levelo_inurba_marseille","lat":43.31505,"lon":5.37293,"is_reserved":false,"is_disabled":false,"rental_uris":{"android":"levelo://app?vid=a8fa4732-bdc8-44d9-9552-8e143b44d53f","ios":"levelo://app?vid=a8fa4732-bdc8-44d9-9552-8e143b44d53f"},"vehicle_type_id":"4","last_reported":1751267580,"current_range_meters":17200,"station_id":"ce4bgt12rcd13ifvqcd0","pricing_plan_id":"cebpf4jnsgd1na2vs0mg"},{"bike_id":"431c2a11-f665-418a-ba29-dd423e67fa94","system_id":"levelo_inurba_marseille","lat":43.31113,"lon":5.3777,"is_reserved":false,"is_disabled":false,"rental_uris":{"android":"levelo://app?vid=431c2a11-f665-418a-ba29-dd423e67fa94","ios":"levelo://app?vid=431c2a11-f665-418a-ba29-dd423e67fa94"},"vehicle_type_id":"4","last_reported":1751267580,"current_range_meters":17200,"station_id":"ce4bgt92rcd13ifvqcg0","pricing_plan_id":"cebpf4jnsgd1na2vs0mg"},{"bike_id":"27de128b-79d6-4ae4-99ba-8537bd95d5a2","system_id":"levelo_inurba_marseille","lat":43.325026,"lon":5.365512,"is_reserved":false,"is_disabled":false,"rental_uris":{"android":"levelo://app?vid=27de128b-79d6-4ae4-99ba-8537bd95d5a2","ios":"levelo://app?vid=27de128b-79d6-4ae4-99ba-8537bd95d5a2"},"vehicle_type_id":"4","last_reported":1751267580,"current_range_meters":17200,"station_id":"ce4bhs12rcd13ifvqhvg","pricing_plan_id":"cebpf4jnsgd1na2vs0mg"},{"bike_id":"dac5eb1b-678e-44b8-b2b0-141283970fe1","system_id":"levelo_inurba_marseille","lat":43.212035,"lon":5.350674,"is_reserved":false,"is_disabled":false,"rental_uris":{"android":"levelo://app?vid=dac5eb1b-678e-44b8-b2b0-141283970fe1","ios":"levelo://app?vid=dac5eb1b-678e-44b8-b2b0-141283970fe1"},"vehicle_type_id":"4","last_reported":1751267580,"current_range_meters":17200,"station_id":"st_cvj6sg6p6f1abm77japg","pricing_plan_id":"cebpf4jnsgd1na2vs0mg"},{"bike_id":"ed5a027f-b281-4146-9db6-85c49b5093ae","system_id":"levelo_inurba_marseille","lat":43.25939,"lon":5.409,"is_reserved":false,"is_disabled":false,"rental_uris":{"android":"levelo://app?vid=ed5a027f-b281-4146-9db6-85c49b5093ae","ios":"levelo://app?vid=ed5a027f-b281-4146-9db6-85c49b5093ae"},"vehicle_type_id":"4","last_reported":1751267580,"current_range_meters":17600,"station_id":"ce4bhm92rcd13ifvqglg","pricing_plan_id":"cebpf4jnsgd1na2vs0mg"},{"bike_id":"6248a3ef-766e-45da-9351-45f0df09d787","system_id":"levelo_inurba_marseille","lat":43.33726,"lon":5.39186,"is_reserved":false,"is_disabled":false,"rental_uris":{"android":"levelo://app?vid=6248a3ef-766e-45da-9351-45f0df09d787","ios":"levelo://app?vid=6248a3ef-766e-45da-9351-45f0df09d787"},"vehicle_type_id":"4","last_reported":1751267580,"current_range_meters":17600,"station_id":"ce4bhr92rcd13ifvqhsg","pricing_plan_id":"cebpf4jnsgd1na2vs0mg"},{"bike_id":"048ec6e9-5fd9-4256-ae6a-a72856ab2acf","system_id":"levelo_inurba_marseille","lat":43.211928,"lon":5.350754,"is_reserved":false,"is_disabled":false,"rental_uris":{"android":"levelo://app?vid=048ec6e9-5fd9-4256-ae6a-a72856ab2acf","ios":"levelo://app?vid=048ec6e9-5fd9-4256-ae6a-a72856ab2acf"},"vehicle_type_id":"4","last_reported":1751267580,"current_range_meters":17600,"station_id":"st_cvj6sg6p6f1abm77japg","pricing_plan_id":"cebpf4jnsgd1na2vs0mg"},{"bike_id":"d5da5bd9-7c2a-48e5-92aa-fa21076cad13","system_id":"levelo_inurba_marseille","lat":43.21176,"lon":5.35054,"is_reserved":false,"is_disabled":false,"rental_uris":{"android":"levelo://app?vid=d5da5bd9-7c2a-48e5-92aa-fa21076cad13","ios":"levelo://app?vid=d5da5bd9-7c2a-48e5-92aa-fa21076cad13"},"vehicle_type_id":"4","last_reported":1751267580,"current_range_meters":17600,"station_id":"st_cvj6sg6p6f1abm77japg","pricing_plan_id":"cebpf4jnsgd1na2vs0mg"},{"bike_id":"046e6bd8-7988-486f-affb-0a726c6f703f","system_id":"levelo_inurba_marseille","lat":43.31786,"lon":5.38079,"is_reserved":false,"is_disabled":false,"rental_uris":{"android":"levelo://app?vid=046e6bd8-7988-486f-affb-0a726c6f703f","ios":"levelo://app?vid=046e6bd8-7988-486f-affb-0a726c6f703f"},"vehicle_type_id":"4","last_reported":1751267580,"current_range_meters":18000,"station_id":"","pricing_plan_id":"cebpf4jnsgd1na2vs0mg"},{"bike_id":"a88cf5a9-215e-4c25-b1b0-876b250343e2","system_id":"levelo_inurba_marseille","lat":43.29598,"lon":5.3809,"is_reserved":false,"is_disabled":false,"rental_uris":{"android":"levelo://app?vid=a88cf5a9-215e-4c25-b1b0-876b250343e2","ios":"levelo://app?vid=a88cf5a9-215e-4c25-b1b0-876b250343e2"},"vehicle_type_id":"4","last_reported":1751267580,"current_range_meters":18000,"station_id":"ce4bgl12rcd13ifvqbo0","pricing_plan_id":"cebpf4jnsgd1na2vs0mg"},{"bike_id":"210a3b0b-d6d6-4ec2-8daa-52db58415f3c","system_id":"levelo_inurba_marseille","lat":43.30903,"lon":5.36858,"is_reserved":false,"is_disabled":false,"rental_uris":{"android":"levelo://app?vid=210a3b0b-d6d6-4ec2-8daa-52db58415f3c","ios":"levelo://app?vid=210a3b0b-d6d6-4ec2-8daa-52db58415f3c"},"vehicle_type_id":"4","last_reported":1751267580,"current_range_meters":18000,"station_id":"ce4bgn92rcd13ifvqbvg","pricing_plan_id":"cebpf4jnsgd1na2vs0mg"},{"bike_id":"97467b9f-ecee-42ae-bce2-fa8778aa412f","system_id":"levelo_inurba_marseille","lat":43.31333,"lon":5.39694,"is_reserved":false,"is_disabled":false,"rental_uris":{"android":"levelo://app?vid=97467b9f-ecee-42ae-bce2-fa8778aa412f","ios":"levelo://app?vid=97467b9f-ecee-42ae-bce2-fa8778aa412f"},"vehicle_type_id":"4","last_reported":1751267580,"current_range_meters":18000,"station_id":"ce4bgvp2rcd13ifvqcu0","pricing_plan_id":"cebpf4jnsgd1na2vs0mg"},{"bike_id":"25514bbf-a94c-4160-bdee-c0299d157b74","system_id":"levelo_inurba_marseille","lat":43.29039,"lon":5.39953,"is_reserved":false,"is_disabled":false,"rental_uris":{"android":"levelo://app?vid=25514bbf-a94c-4160-bdee-c0299d157b74","ios":"levelo://app?vid=25514bbf-a94c-4160-bdee-c0299d157b74"},"vehicle_type_id":"4","last_reported":1751267580,"current_range_meters":18000,"station_id":"ce4bh392rcd13ifvqdm0","pricing_plan_id":"cebpf4jnsgd1na2vs0mg"},{"bike_id":"2c880aee-b10e-4adf-8eee-ee4a0d9b80d5","system_id":"levelo_inurba_marseille","lat":43.28493,"lon":5.38562,"is_reserved":false,"is_disabled":false,"rental_uris":{"android":"levelo://app?vid=2c880aee-b10e-4adf-8eee-ee4a0d9b80d5","ios":"levelo://app?vid=2c880aee-b10e-4adf-8eee-ee4a0d9b80d5"},"vehicle_type_id":"4","last_reported":1751267580,"current_range_meters":18000,"station_id":"ce4bh8p2rcd13ifvqeb0","pricing_plan_id":"cebpf4jnsgd1na2vs0mg"},{"bike_id":"4828e26a-7cc2-4acb-b667-6e25b567434f","system_id":"levelo_inurba_marseille","lat":43.2738,"lon":5.36267,"is_reserved":false,"is_disabled":false,"rental_uris":{"android":"levelo://app?vid=4828e26a-7cc2-4acb-b667-6e25b567434f","ios":"levelo://app?vid=4828e26a-7cc2-4acb-b667-6e25b567434f"},"vehicle_type_id":"4","last_reported":1751267580,"current_range_meters":18000,"station_id":"ce4bhbh2rcd13ifvqeo0","pricing_plan_id":"cebpf4jnsgd1na2vs0mg"},{"bike_id":"fc814b6b-cb52-4e0c-9c42-0ee1ac81251b","system_id":"levelo_inurba_marseille","lat":43.26785,"lon":5.39415,"is_reserved":false,"is_disabled":false,"rental_uris":{"android":"levelo://app?vid=fc814b6b-cb52-4e0c-9c42-0ee1ac81251b","ios":"levelo://app?vid=fc814b6b-cb52-4e0c-9c42-0ee1ac81251b"},"vehicle_type_id":"4","last_reported":1751267580,"current_range_meters":18000,"station_id":"ce4bhh12rcd13ifvqfg0","pricing_plan_id":"cebpf4jnsgd1na2vs0mg"},{"bike_id":"ac758949-f086-4d0f-b77a-813599123176","system_id":"levelo_inurba_marseille","lat":43.23964,"lon":5.36623,"is_reserved":false,"is_disabled":false,"rental_uris":{"android":"levelo://app?vid=ac758949-f086-4d0f-b77a-813599123176","ios":"levelo://app?vid=ac758949-f086-4d0f-b77a-813599123176"},"vehicle_type_id":"4","last_reported":1751267580,"current_range_meters":18000,"station_id":"ce4bhi12rcd13ifvqfp0","pricing_plan_id":"cebpf4jnsgd1na2vs0mg"},{"bike_id":"d90daeb2-baa5-4f84-8ba2-ffc1dcd4b96b","system_id":"levelo_inurba_marseille","lat":43.24165,"lon":5.36409,"is_reserved":false,"is_disabled":false,"rental_uris":{"android":"levelo://app?vid=d90daeb2-baa5-4f84-8ba2-ffc1dcd4b96b","ios":"levelo://app?vid=d90daeb2-baa5-4f84-8ba2-ffc1dcd4b96b"},"vehicle_type_id":"4","last_reported":1751267580,"current_range_meters":18000,"station_id":"cpo36qri1sfpv3e86is0","pricing_plan_id":"cebpf4jnsgd1na2vs0mg"},{"bike_id":"e552832c-7ca2-4106-b0f9-92bbabda27d1","system_id":"levelo_inurba_marseille","lat":43.211966,"lon":5.350659,"is_reserved":false,"is_disabled":false,"rental_uris":{"android":"levelo://app?vid=e552832c-7ca2-4106-b0f9-92bbabda27d1","ios":"levelo://app?vid=e552832c-7ca2-4106-b0f9-92bbabda27d1"},"vehicle_type_id":"4","last_reported":1751267580,"current_range_meters":18000,"station_id":"st_cvj6sg6p6f1abm77japg","pricing_plan_id":"cebpf4jnsgd1na2vs0mg"},{"bike_id":"b13877a6-4825-4d82-b46b-67fa8ad66c5d","system_id":"levelo_inurba_marseille","lat":43.21192,"lon":5.35071,"is_reserved":false,"is_disabled":false,"rental_uris":{"android":"levelo://app?vid=b13877a6-4825-4d82-b46b-67fa8ad66c5d","ios":"levelo://app?vid=b13877a6-4825-4d82-b46b-67fa8ad66c5d"},"vehicle_type_id":"4","last_reported":1751267580,"current_range_meters":18000,"station_id":"st_cvj6sg6p6f1abm77japg","pricing_plan_id":"cebpf4jnsgd1na2vs0mg"},{"bike_id":"fa16bbec-3211-49bd-a8b0-90a3ace4afe6","system_id":"levelo_inurba_marseille","lat":43.316181,"lon":5.384696,"is_reserved":false,"is_disabled":false,"rental_uris":{"android":"levelo://app?vid=fa16bbec-3211-49bd-a8b0-90a3ace4afe6","ios":"levelo://app?vid=fa16bbec-3211-49bd-a8b0-90a3ace4afe6"},"vehicle_type_id":"4","last_reported":1751267580,"current_range_meters":18800,"station_id":"","pricing_plan_id":"cebpf4jnsgd1na2vs0mg"},{"bike_id":"5522e2b8-7895-4449-a179-7bb9699a30a4","system_id":"levelo_inurba_marseille","lat":43.33752,"lon":5.37449,"is_reserved":false,"is_disabled":false,"rental_uris":{"android":"levelo://app?vid=5522e2b8-7895-4449-a179-7bb9699a30a4","ios":"levelo://app?vid=5522e2b8-7895-4449-a179-7bb9699a30a4"},"vehicle_type_id":"4","last_reported":1751267580,"current_range_meters":18800,"station_id":"","pricing_plan_id":"cebpf4jnsgd1na2vs0mg"},{"bike_id":"f7a9bd8b-9f9e-4766-af5a-d51acd8d1ad0","system_id":"levelo_inurba_marseille","lat":43.29303,"lon":5.37463,"is_reserved":false,"is_disabled":false,"rental_uris":{"android":"levelo://app?vid=f7a9bd8b-9f9e-4766-af5a-d51acd8d1ad0","ios":"levelo://app?vid=f7a9bd8b-9f9e-4766-af5a-d51acd8d1ad0"},"vehicle_type_id":"4","last_reported":1751267580,"current_range_meters":18800,"station_id":"ce4bgi12rcd13ifvqb70","pricing_plan_id":"cebpf4jnsgd1na2vs0mg"},{"bike_id":"1c1e0436-c990-4c38-b11e-d6968f287975","system_id":"levelo_inurba_marseille","lat":43.29612,"lon":5.36735,"is_reserved":false,"is_disabled":false,"rental_uris":{"android":"levelo://app?vid=1c1e0436-c990-4c38-b11e-d6968f287975","ios":"levelo://app?vid=1c1e0436-c990-4c38-b11e-d6968f287975"},"vehicle_type_id":"4","last_reported":1751267580,"current_range_meters":18800,"station_id":"ce4bgph2rcd13ifvqc2g","pricing_plan_id":"cebpf4jnsgd1na2vs0mg"},{"bike_id":"8c5d6661-7565-4379-b33f-435e865f84b0","system_id":"levelo_inurba_marseille","lat":43.317119,"lon":5.376601,"is_reserved":false,"is_disabled":false,"rental_uris":{"android":"levelo://app?vid=8c5d6661-7565-4379-b33f-435e865f84b0","ios":"levelo://app?vid=8c5d6661-7565-4379-b33f-435e865f84b0"},"vehicle_type_id":"4","last_reported":1751267580,"current_range_meters":19200,"station_id":"","pricing_plan_id":"cebpf4jnsgd1na2vs0mg"},{"bike_id":"e891d413-f511-44d4-9ddd-90f57509289b","system_id":"levelo_inurba_marseille","lat":43.317,"lon":5.367653,"is_reserved":false,"is_disabled":false,"rental_uris":{"android":"levelo://app?vid=e891d413-f511-44d4-9ddd-90f57509289b","ios":"levelo://app?vid=e891d413-f511-44d4-9ddd-90f57509289b"},"vehicle_type_id":"4","last_reported":1751267580,"current_range_meters":19200,"station_id":"","pricing_plan_id":"cebpf4jnsgd1na2vs0mg"},{"bike_id":"8e45ad08-692b-4479-8c3f-177543cd6927","system_id":"levelo_inurba_marseille","lat":43.31221,"lon":5.36852,"is_reserved":false,"is_disabled":false,"rental_uris":{"android":"levelo://app?vid=8e45ad08-692b-4479-8c3f-177543cd6927","ios":"levelo://app?vid=8e45ad08-692b-4479-8c3f-177543cd6927"},"vehicle_type_id":"4","last_reported":1751267580,"current_range_meters":19200,"station_id":"ce4bgl92rcd13ifvqbq0","pricing_plan_id":"cebpf4jnsgd1na2vs0mg"},{"bike_id":"0da97725-d656-430e-82c0-80aeb7c9f8a2","system_id":"levelo_inurba_marseille","lat":43.31199,"lon":5.36848,"is_reserved":false,"is_disabled":false,"rental_uris":{"android":"levelo://app?vid=0da97725-d656-430e-82c0-80aeb7c9f8a2","ios":"levelo://app?vid=0da97725-d656-430e-82c0-80aeb7c9f8a2"},"vehicle_type_id":"4","last_reported":1751267580,"current_range_meters":19200,"station_id":"ce4bgl92rcd13ifvqbq0","pricing_plan_id":"cebpf4jnsgd1na2vs0mg"},{"bike_id":"c2b72fe0-bae6-4c7b-ad48-9e771b203dc8","system_id":"levelo_inurba_marseille","lat":43.31375,"lon":5.38433,"is_reserved":false,"is_disabled":false,"rental_uris":{"android":"levelo://app?vid=c2b72fe0-bae6-4c7b-ad48-9e771b203dc8","ios":"levelo://app?vid=c2b72fe0-bae6-4c7b-ad48-9e771b203dc8"},"vehicle_type_id":"4","last_reported":1751267580,"current_range_meters":19200,"station_id":"ce4bgt92rcd13ifvqcf0","pricing_plan_id":"cebpf4jnsgd1na2vs0mg"},{"bike_id":"e01419d7-8f44-4040-82d4-ead02b262976","system_id":"levelo_inurba_marseille","lat":43.26196,"lon":5.37452,"is_reserved":false,"is_disabled":false,"rental_uris":{"android":"levelo://app?vid=e01419d7-8f44-4040-82d4-ead02b262976","ios":"levelo://app?vid=e01419d7-8f44-4040-82d4-ead02b262976"},"vehicle_type_id":"4","last_reported":1751267580,"current_range_meters":19200,"station_id":"ce4bhgp2rcd13ifvqfc0","pricing_plan_id":"cebpf4jnsgd1na2vs0mg"},{"bike_id":"f4523c00-7a65-4c29-a35b-1362af7dae31","system_id":"levelo_inurba_marseille","lat":43.245466,"lon":5.395216,"is_reserved":false,"is_disabled":false,"rental_uris":{"android":"levelo://app?vid=f4523c00-7a65-4c29-a35b-1362af7dae31","ios":"levelo://app?vid=f4523c00-7a65-4c29-a35b-1362af7dae31"},"vehicle_type_id":"4","last_reported":1751267580,"current_range_meters":19200,"station_id":"ce4bhlp2rcd13ifvqgjg","pricing_plan_id":"cebpf4jnsgd1na2vs0mg"},{"bike_id":"d91d2633-472c-4a81-ac98-20118462d9aa","system_id":"levelo_inurba_marseille","lat":43.25934,"lon":5.40909,"is_reserved":false,"is_disabled":false,"rental_uris":{"android":"levelo://app?vid=d91d2633-472c-4a81-ac98-20118462d9aa","ios":"levelo://app?vid=d91d2633-472c-4a81-ac98-20118462d9aa"},"vehicle_type_id":"4","last_reported":1751267580,"current_range_meters":19200,"station_id":"ce4bhm92rcd13ifvqglg","pricing_plan_id":"cebpf4jnsgd1na2vs0mg"},{"bike_id":"85ca1ae5-6e3f-4c64-9cd6-c84faffd9008","system_id":"levelo_inurba_marseille","lat":43.2315,"lon":5.43716,"is_reserved":false,"is_disabled":false,"rental_uris":{"android":"levelo://app?vid=85ca1ae5-6e3f-4c64-9cd6-c84faffd9008","ios":"levelo://app?vid=85ca1ae5-6e3f-4c64-9cd6-c84faffd9008"},"vehicle_type_id":"4","last_reported":1751267580,"current_range_meters":19200,"station_id":"ce4bhmp2rcd13ifvqgog","pricing_plan_id":"cebpf4jnsgd1na2vs0mg"},{"bike_id":"04c8e062-45ff-44bb-a341-1ffbc883a459","system_id":"levelo_inurba_marseille","lat":43.28611,"lon":5.37065,"is_reserved":false,"is_disabled":false,"rental_uris":{"android":"levelo://app?vid=04c8e062-45ff-44bb-a341-1ffbc883a459","ios":"levelo://app?vid=04c8e062-45ff-44bb-a341-1ffbc883a459"},"vehicle_type_id":"4","last_reported":1751267580,"current_range_meters":19200,"station_id":"ce4bht12rcd13ifvqi60","pricing_plan_id":"cebpf4jnsgd1na2vs0mg"},