{"last_updated":1744582114,"ttl":60,"version":"2.2","data":{"bikes":[{"bike_id":"a2a6eda1-ec1f-4417-8501-d9764927b04f","system_id":"levelo_inurba_marseille","lat":43.290173,"lon":5.381393,"is_reserved":false,"is_disabled":false,"rental_uris":{"android":"levelo://app?vid=a2a6eda1-ec1f-4417-8501-d9764927b04f","ios":"levelo://app?vid=a2a6eda1-ec1f-4417-8501-d9764927b04f"},"vehicle_type_id":"4","last_reported":1744582114,"current_range_meters":2800,"station_id":"ce4bh4p2rcd13ifvqe1g","pricing_plan_id":"cebpf4jnsgd1na2vs0mg"},{"bike_id":"aa16bda0-1590-4a3d-b41b-a4de272b9da7","system_id":"levelo_inurba_marseille","lat":43.28941,"lon":5.36632,"is_reserved":false,"is_disabled":false,"rental_uris":{"android":"levelo://app?vid=aa16bda0-1590-4a3d-b41b-a4de272b9da7","ios":"levelo://app?vid=aa16bda0-1590-4a3d-b41b-a4de272b9da7"},"vehicle_type_id":"4","last_reported":1744582114,"current_range_meters":2800,"station_id":"ce4bhap2rcd13ifvqek0","pricing_plan_id":"cebpf4jnsgd1na2vs0mg"},{"bike_id":"3438c5bd-1787-489f-9a0e-5eb33ff8500a","system_id":"levelo_inurba_marseille","lat":43.29554,"lon":5.42305,"is_reserved":false,"is_disabled":true,"rental_uris":{"android":"levelo://app?vid=3438c5bd-1787-489f-9a0e-5eb33ff8500a","ios":"levelo://app?vid=3438c5bd-1787-489f-9a0e-5eb33ff8500a"},"vehicle_type_id":"4","last_reported":1744582114,"current_range_meters":3200,"station_id":"ce4bhph2rcd13ifvqhdg","pricing_plan_id":"cebpf4jnsgd1na2vs0mg"},{"bike_id":"5a5f6957-f05c-4774-ad40-ebaa1ded1dd7","system_id":"levelo_inurba_marseille","lat":43.21766,"lon":5.34625,"is_reserved":false,"is_disabled":false,"rental_uris":{"android":"levelo://app?vid=5a5f6957-f05c-4774-ad40-ebaa1ded1dd7","ios":"levelo://app?vid=5a5f6957-f05c-4774-ad40-ebaa1ded1dd7"},"vehicle_type_id":"4","last_reported":1744582114,"current_range_meters":3600,"station_id":"st_cvj6r9ubvosntc0bgbag","pricing_plan_id":"cebpf4jnsgd1na2vs0mg"},{"bike_id":"ab200e9d-f03e-4812-ace1-bdbe3d39b09b","system_id":"levelo_inurba_marseille","lat":43.23185,"lon":5.39979,"is_reserved":false,"is_disabled":false,"rental_uris":{"android":"levelo://app?vid=ab200e9d-f03e-4812-ace1-bdbe3d39b09b","ios":"levelo://app?vid=ab200e9d-f03e-4812-ace1-bdbe3d39b09b"},"vehicle_type_id":"4","last_reported":1744582114,"current_range_meters":3600,"station_id":"ce4bhn12rcd13ifvqgqg","pricing_plan_id":"cebpf4jnsgd1na2vs0mg"},{"bike_id":"4c893399-b4ed-40ed-a49f-713da320f269","system_id":"levelo_inurba_marseille","lat":43.29861,"lon":5.37841,"is_reserved":false,"is_disabled":false,"rental_uris":{"android":"levelo://app?vid=4c893399-b4ed-40ed-a49f-713da320f269","ios":"levelo://app?vid=4c893399-b4ed-40ed-a49f-713da320f269"},"vehicle_type_id":"4","last_reported":1744582114,"current_range_meters":3600,"station_id":"","pricing_plan_id":"cebpf4jnsgd1na2vs0mg"},{"bike_id":"e3828467-5145-4b40-a836-722c61030e40","system_id":"levelo_inurba_marseille","lat":43.28157,"lon":5.42634,"is_reserved":false,"is_disabled":true,"rental_uris":{"android":"levelo://app?vid=e3828467-5145-4b40-a836-722c61030e40","ios":"levelo://app?vid=e3828467-5145-4b40-a836-722c61030e40"},"vehicle_type_id":"4","last_reported":1744582114,"current_range_meters":4000,"station_id":"ce4bhnh2rcd13ifvqgug","pricing_plan_id":"cebpf4jnsgd1na2vs0mg"},{"bike_id":"a2ccfbf7-8a0b-49de-8499-18c843f628a5","system_id":"levelo_inurba_marseille","lat":43.23191,"lon":5.35551,"is_reserved":false,"is_disabled":false,"rental_uris":{"android":"levelo://app?vid=a2ccfbf7-8a0b-49de-8499-18c843f628a5","ios":"levelo://app?vid=a2ccfbf7-8a0b-49de-8499-18c843f628a5"},"vehicle_type_id":"4","last_reported":1744582114,"current_range_meters":4800,"station_id":"ce4bhu92rcd13ifvqi70","pricing_plan_id":"cebpf4jnsgd1na2vs0mg"},{"bike_id":"1ac6fc31-c687-4c8f-9c88-c33314250341","system_id":"levelo_inurba_marseille","lat":43.28702,"lon":5.37388,"is_reserved":false,"is_disabled":false,"rental_uris":{"android":"levelo://app?vid=1ac6fc31-c687-4c8f-9c88-c33314250341","ios":"levelo://app?vid=1ac6fc31-c687-4c8f-9c88-c33314250341"},"vehicle_type_id":"4","last_reported":1744582114,"current_range_meters":4800,"station_id":"ce4bh3p2rcd13ifvqdq0","pricing_plan_id":"cebpf4jnsgd1na2vs0mg"},{"bike_id":"ef291804-1477-432e-b153-82ea15725418","system_id":"levelo_inurba_marseille","lat":43.33742,"lon":5.37454,"is_reserved":false,"is_disabled":false,"rental_uris":{"android":"levelo://app?vid=ef291804-1477-432e-b153-82ea15725418","ios":"levelo://app?vid=ef291804-1477-432e-b153-82ea15725418"},"vehicle_type_id":"4","last_reported":1744582114,"current_range_meters":4800,"station_id":"","pricing_plan_id":"cebpf4jnsgd1na2vs0mg"},{"bike_id":"2cb150e7-b520-435d-bb1c-0396055ba1bc","system_id":"levelo_inurba_marseille","lat":43.29874,"lon":5.39743,"is_reserved":false,"is_disabled":false,"rental_uris":{"android":"levelo://app?vid=2cb150e7-b520-435d-bb1c-0396055ba1bc","ios":"levelo://app?vid=2cb150e7-b520-435d-bb1c-0396055ba1bc"},"vehicle_type_id":"4","last_reported":1744582114,"current_range_meters":4800,"station_id":"ce4bh0h2rcd13ifvqd50","pricing_plan_id":"cebpf4jnsgd1na2vs0mg"},{"bike_id":"d53356ed-34e7-4ce0-8d94-e073954cdd85","system_id":"levelo_inurba_marseille","lat":43.26974,"lon":5.40267,"is_reserved":false,"is_disabled":true,"rental_uris":{"android":"levelo://app?vid=d53356ed-34e7-4ce0-8d94-e073954cdd85","ios":"levelo://app?vid=d53356ed-34e7-4ce0-8d94-e073954cdd85"},"vehicle_type_id":"4","last_reported":1744582114,"current_range_meters":5600,"station_id":"cjm6bp8fraef2m0cb0m0","pricing_plan_id":"cebpf4jnsgd1na2vs0mg"},{"bike_id":"1130922e-9ccc-463b-9207-aadecd794edb","system_id":"levelo_inurba_marseille","lat":43.31992,"lon":5.38147,"is_reserved":false,"is_disabled":true,"rental_uris":{"android":"levelo://app?vid=1130922e-9ccc-463b-9207-aadecd794edb","ios":"levelo://app?vid=1130922e-9ccc-463b-9207-aadecd794edb"},"vehicle_type_id":"4","last_reported":1744582114,"current_range_meters":5600,"station_id":"ce4bhr12rcd13ifvqhpg","pricing_plan_id":"cebpf4jnsgd1na2vs0mg"},{"bike_id":"a98f84de-6b99-47f0-8e68-90a445638932","system_id":"levelo_inurba_marseille","lat":43.28447,"lon":5.39198,"is_reserved":false,"is_disabled":false,"rental_uris":{"android":"levelo://app?vid=a98f84de-6b99-47f0-8e68-90a445638932","ios":"levelo://app?vid=a98f84de-6b99-47f0-8e68-90a445638932"},"vehicle_type_id":"4","last_reported":1744582114,"current_range_meters":5600,"station_id":"ce4bhoh2rcd13ifvqh5g","pricing_plan_id":"cebpf4jnsgd1na2vs0mg"},{"bike_id":"d8f603cd-3b83-4148-bab8-3a185ad2a59f","system_id":"levelo_inurba_marseille","lat":43.32416,"lon":5.3913,"is_reserved":false,"is_disabled":false,"rental_uris":{"android":"levelo://app?vid=d8f603cd-3b83-4148-bab8-3a185ad2a59f","ios":"levelo://app?vid=d8f603cd-3b83-4148-bab8-3a185ad2a59f"},"vehicle_type_id":"4","last_reported":1744582114,"current_range_meters":6000,"station_id":"","pricing_plan_id":"cebpf4jnsgd1na2vs0mg"},{"bike_id":"458725bc-46e9-4766-aa8b-f13cfc93ab12","system_id":"levelo_inurba_marseille","lat":43.319925,"lon":5.381616,"is_reserved":false,"is_disabled":false,"rental_uris":{"android":"levelo://app?vid=458725bc-46e9-4766-aa8b-f13cfc93ab12","ios":"levelo://app?vid=458725bc-46e9-4766-aa8b-f13cfc93ab12"},"vehicle_type_id":"4","last_reported":1744582114,"current_range_meters":6000,"station_id":"ce4bhr12rcd13ifvqhpg","pricing_plan_id":"cebpf4jnsgd1na2vs0mg"},{"bike_id":"3d903fec-aee7-4415-8c37-727ec4bec7a5","system_id":"levelo_inurba_marseille","lat":43.27975,"lon":5.38736,"is_reserved":false,"is_disabled":false,"rental_uris":{"android":"levelo://app?vid=3d903fec-aee7-4415-8c37-727ec4bec7a5","ios":"levelo://app?vid=3d903fec-aee7-4415-8c37-727ec4bec7a5"},"vehicle_type_id":"4","last_reported":1744582114,"current_range_meters":6000,"station_id":"ce4bhg12rcd13ifvqf80","pricing_plan_id":"cebpf4jnsgd1na2vs0mg"},{"bike_id":"fc2059e6-d88c-46c1-8e78-deb022c911a2","system_id":"levelo_inurba_marseille","lat":43.27056,"lon":5.40265,"is_reserved":false,"is_disabled":false,"rental_uris":{"android":"levelo://app?vid=fc2059e6-d88c-46c1-8e78-deb022c911a2","ios":"levelo://app?vid=fc2059e6-d88c-46c1-8e78-deb022c911a2"},"vehicle_type_id":"4","last_reported":1744582114,"current_range_meters":6000,"station_id":"ce4bhk92rcd13ifvqgc0","pricing_plan_id":"cebpf4jnsgd1na2vs0mg"},{"bike_id":"5b77a833-8185-45c2-9fe3-07eb40df54ca","system_id":"levelo_inurba_marseille","lat":43.33995,"lon":5.38057,"is_reserved":false,"is_disabled":false,"rental_uris":{"android":"levelo://app?vid=5b77a833-8185-45c2-9fe3-07eb40df54ca","ios":"levelo://app?vid=5b77a833-8185-45c2-9fe3-07eb40df54ca"},"vehicle_type_id":"4","last_reported":1744582114,"current_range_meters":6000,"station_id":"","pricing_plan_id":"cebpf4jnsgd1na2vs0mg"},{"bike_id":"72084d32-f4df-44fa-bf57-eccb5f194a83","system_id":"levelo_inurba_marseille","lat":43.2592,"lon":5.40871,"is_reserved":false,"is_disabled":false,"rental_uris":{"android":"levelo://app?vid=72084d32-f4df-44fa-bf57-eccb5f194a83","ios":"levelo://app?vid=72084d32-f4df-44fa-bf57-eccb5f194a83"},"vehicle_type_id":"4","last_reported":1744582114,"current_range_meters":6400,"station_id":"ce4bhm92rcd13ifvqglg","pricing_plan_id":"cebpf4jnsgd1na2vs0mg"},{"bike_id":"2c5411e0-662b-49e0-9209-86a72b7cb451","system_id":"levelo_inurba_marseille","lat":43.3112,"lon":5.37771,"is_reserved":false,"is_disabled":false,"rental_uris":{"android":"levelo://app?vid=2c5411e0-662b-49e0-9209-86a72b7cb451","ios":"levelo://app?vid=2c5411e0-662b-49e0-9209-86a72b7cb451"},"vehicle_type_id":"4","last_reported":1744582114,"current_range_meters":6400,"station_id":"ce4bgt92rcd13ifvqcg0","pricing_plan_id":"cebpf4jnsgd1na2vs0mg"},{"bike_id":"c8907ab1-08e3-4e34-b765-678ded4dfd20","system_id":"levelo_inurba_marseille","lat":43.26228,"lon":5.4045,"is_reserved":false,"is_disabled":false,"rental_uris":{"android":"levelo://app?vid=c8907ab1-08e3-4e34-b765-678ded4dfd20","ios":"levelo://app?vid=c8907ab1-08e3-4e34-b765-678ded4dfd20"},"vehicle_type_id":"4","last_reported":1744582114,"current_range_meters":6400,"station_id":"ce4bhmh2rcd13ifvqgmg","pricing_plan_id":"cebpf4jnsgd1na2vs0mg"},{"bike_id":"4a0973b0-92a0-41e8-9b0d-a99e944bafe0","system_id":"levelo_inurba_marseille","lat":43.344776,"lon":5.412826,"is_reserved":false,"is_disabled":false,"rental_uris":{"android":"levelo://app?vid=4a0973b0-92a0-41e8-9b0d-a99e944bafe0","ios":"levelo://app?vid=4a0973b0-92a0-41e8-9b0d-a99e944bafe0"},"vehicle_type_id":"4","last_reported":1744582114,"current_range_meters":6400,"station_id":"","pricing_plan_id":"cebpf4jnsgd1na2vs0mg"},{"bike_id":"6bfc4779-3d5c-441c-8e37-70bc904878da","system_id":"levelo_inurba_marseille","lat":43.28456,"lon":5.35888,"is_reserved":false,"is_disabled":false,"rental_uris":{"android":"levelo://app?vid=6bfc4779-3d5c-441c-8e37-70bc904878da","ios":"levelo://app?vid=6bfc4779-3d5c-441c-8e37-70bc904878da"},"vehicle_type_id":"4","last_reported":1744582114,"current_range_meters":6400,"station_id":"ce4bhah2rcd13ifvqei0","pricing_plan_id":"cebpf4jnsgd1na2vs0mg"},{"bike_id":"493cde9e-7859-4c26-a2e6-f744ee5d8553","system_id":"levelo_inurba_marseille","lat":43.31791,"lon":5.36519,"is_reserved":false,"is_disabled":false,"rental_uris":{"android":"levelo://app?vid=493cde9e-7859-4c26-a2e6-f744ee5d8553","ios":"levelo://app?vid=493cde9e-7859-4c26-a2e6-f744ee5d8553"},"vehicle_type_id":"4","last_reported":1744582114,"current_range_meters":6800,"station_id":"","pricing_plan_id":"cebpf4jnsgd1na2vs0mg"},{"bike_id":"ad6ed18b-1265-4c43-a009-6420ff91943e","system_id":"levelo_inurba_marseille","lat":43.284635,"lon":5.35892,"is_reserved":false,"is_disabled":true,"rental_uris":{"android":"levelo://app?vid=ad6ed18b-1265-4c43-a009-6420ff91943e","ios":"levelo://app?vid=ad6ed18b-1265-4c43-a009-6420ff91943e"},"vehicle_type_id":"4","last_reported":1744582114,"current_range_meters":6800,"station_id":"ce4bhah2rcd13ifvqei0","pricing_plan_id":"cebpf4jnsgd1na2vs0mg"},{"bike_id":"0e7bf4ae-5aed-4055-a1f8-96debbb9847e","system_id":"levelo_inurba_marseille","lat":43.24193,"lon":5.36387,"is_reserved":false,"is_disabled":false,"rental_uris":{"android":"levelo://app?vid=0e7bf4ae-5aed-4055-a1f8-96debbb9847e","ios":"levelo://app?vid=0e7bf4ae-5aed-4055-a1f8-96debbb9847e"},"vehicle_type_id":"4","last_reported":1744582114,"current_range_meters":6800,"station_id":"cpo36qri1sfpv3e86is0","pricing_plan_id":"cebpf4jnsgd1na2vs0mg"},{"bike_id":"b7e965ff-4854-44fc-8e2a-103893462049","system_id":"levelo_inurba_marseille","lat":43.337444,"lon":5.374475,"is_reserved":false,"is_disabled":true,"rental_uris":{"android":"levelo://app?vid=b7e965ff-4854-44fc-8e2a-103893462049","ios":"levelo://app?vid=b7e965ff-4854-44fc-8e2a-103893462049"},"vehicle_type_id":"4","last_reported":1744582114,"current_range_meters":7200,"station_id":"","pricing_plan_id":"cebpf4jnsgd1na2vs0mg"},{"bike_id":"97c5290c-6dcd-4f81-953a-f5953018fa5b","system_id":"levelo_inurba_marseille","lat":43.3104,"lon":5.37526,"is_reserved":false,"is_disabled":false,"rental_uris":{"android":"levelo://app?vid=97c5290c-6dcd-4f81-953a-f5953018fa5b","ios":"levelo://app?vid=97c5290c-6dcd-4f81-953a-f5953018fa5b"},"vehicle_type_id":"4","last_reported":1744582114,"current_range_meters":7200,"station_id":"","pricing_plan_id":"cebpf4jnsgd1na2vs0mg"},{"bike_id":"dab7f9b6-bca9-473a-ae7b-5cf9dcdb45f2","system_id":"levelo_inurba_marseille","lat":43.246847,"lon":5.385285,"is_reserved":false,"is_disabled":false,"rental_uris":{"android":"levelo://app?vid=dab7f9b6-bca9-473a-ae7b-5cf9dcdb45f2","ios":"levelo://app?vid=dab7f9b6-bca9-473a-ae7b-5cf9dcdb45f2"},"vehicle_type_id":"4","last_reported":1744582114,"current_range_meters":7200,"station_id":"ce4bhgh2rcd13ifvqfb0","pricing_plan_id":"cebpf4jnsgd1na2vs0mg"},{"bike_id":"c836623b-521e-4c67-bbac-cb14f1bce568","system_id":"levelo_inurba_marseille","lat":43.2873,"lon":5.37929,"is_reserved":false,"is_disabled":false,"rental_uris":{"android":"levelo://app?vid=c836623b-521e-4c67-bbac-cb14f1bce568","ios":"levelo://app?vid=c836623b-521e-4c67-bbac-cb14f1bce568"},"vehicle_type_id":"4","last_reported":1744582114,"current_range_meters":7200,"station_id":"ce4bh9p2rcd13ifvqec0","pricing_plan_id":"cebpf4jnsgd1na2vs0mg"},{"bike_id":"78905955-0a82-4d91-b744-03f1bbb99d3e","system_id":"levelo_inurba_marseille","lat":43.27918,"lon":5.3958,"is_reserved":false,"is_disabled":false,"rental_uris":{"android":"levelo://app?vid=78905955-0a82-4d91-b744-03f1bbb99d3e","ios":"levelo://app?vid=78905955-0a82-4d91-b744-03f1bbb99d3e"},"vehicle_type_id":"4","last_reported":1744582114,"current_range_meters":8000,"station_id":"ce4bhf92rcd13ifvqf40","pricing_plan_id":"cebpf4jnsgd1na2vs0mg"},{"bike_id":"6a36e1be-2c5b-4782-ad82-295976c1b92f","system_id":"levelo_inurba_marseille","lat":43.27826,"lon":5.407192,"is_reserved":false,"is_disabled":false,"rental_uris":{"android":"levelo://app?vid=6a36e1be-2c5b-4782-ad82-295976c1b92f","ios":"levelo://app?vid=6a36e1be-2c5b-4782-ad82-295976c1b92f"},"vehicle_type_id":"4","last_reported":1744582114,"current_range_meters":8000,"station_id":"ce4bhnh2rcd13ifvqgtg","pricing_plan_id":"cebpf4jnsgd1na2vs0mg"},{"bike_id":"3d879ee9-2b57-4008-8ce2-6ed627e41336","system_id":"levelo_inurba_marseille","lat":43.31096,"lon":5.42427,"is_reserved":false,"is_disabled":false,"rental_uris":{"android":"levelo://app?vid=3d879ee9-2b57-4008-8ce2-6ed627e41336","ios":"levelo://app?vid=3d879ee9-2b57-4008-8ce2-6ed627e41336"},"vehicle_type_id":"4","last_reported":1744582114,"current_range_meters":8000,"station_id":"ce4bhp92rcd13ifvqhag","pricing_plan_id":"cebpf4jnsgd1na2vs0mg"},{"bike_id":"2f5bc015-0a98-4a0d-a50f-f7181e1d6abe","system_id":"levelo_inurba_marseille","lat":43.23426,"lon":5.41259,"is_reserved":false,"is_disabled":false,"rental_uris":{"android":"levelo://app?vid=2f5bc015-0a98-4a0d-a50f-f7181e1d6abe","ios":"levelo://app?vid=2f5bc015-0a98-4a0d-a50f-f7181e1d6abe"},"vehicle_type_id":"4","last_reported":1744582114,"current_range_meters":8000,"station_id":"","pricing_plan_id":"cebpf4jnsgd1na2vs0mg"},{"bike_id":"4f38e127-be9f-468e-8871-e9cd4f365dca","system_id":"levelo_inurba_marseille","lat":43.24676,"lon":5.4118,"is_reserved":false,"is_disabled":false,"rental_uris":{"android":"levelo://app?vid=4f38e127-be9f-468e-8871-e9cd4f365dca","ios":"levelo://app?vid=4f38e127-be9f-468e-8871-e9cd4f365dca"},"vehicle_type_id":"4","last_reported":1744582114,"current_range_meters":8000,"station_id":"","pricing_plan_id":"cebpf4jnsgd1na2vs0mg"},{"bike_id":"3d16c2e3-7c12-4342-883a-029e0fc16b05","system_id":"levelo_inurba_marseille","lat":43.31032,"lon":5.3709,"is_reserved":false,"is_disabled":false,"rental_uris":{"android":"levelo://app?vid=3d16c2e3-7c12-4342-883a-029e0fc16b05","ios":"levelo://app?vid=3d16c2e3-7c12-4342-883a-029e0fc16b05"},"vehicle_type_id":"4","last_reported":1744582114,"current_range_meters":8000,"station_id":"","pricing_plan_id":"cebpf4jnsgd1na2vs0mg"},{"bike_id":"fe3d6e42-5076-494f-915f-43c55a9fdcc4","system_id":"levelo_inurba_marseille","lat":43.27071,"lon":5.42273,"is_reserved":false,"is_disabled":false,"rental_uris":{"android":"levelo://app?vid=fe3d6e42-5076-494f-915f-43c55a9fdcc4","ios":"levelo://app?vid=fe3d6e42-5076-494f-915f-43c55a9fdcc4"},"vehicle_type_id":"4","last_reported":1744582114,"current_range_meters":8000,"station_id":"ce4bhk92rcd13ifvqgb0","pricing_plan_id":"cebpf4jnsgd1na2vs0mg"},{"bike_id":"30cc8b33-f5d2-402b-bc22-73b6e88b3714","system_id":"levelo_inurba_marseille","lat":43.24659,"lon":5.38157,"is_reserved":false,"is_disabled":false,"rental_uris":{"android":"levelo://app?vid=30cc8b33-f5d2-402b-bc22-73b6e88b3714","ios":"levelo://app?vid=30cc8b33-f5d2-402b-bc22-73b6e88b3714"},"vehicle_type_id":"4","last_reported":1744582114,"current_range_meters":8000,"station_id":"ce4bhih2rcd13ifvqfr0","pricing_plan_id":"cebpf4jnsgd1na2vs0mg"},{"bike_id":"7a19dc1e-c605-44fa-ad0c-ac48b8d0aeb6","system_id":"levelo_inurba_marseille","lat":43.28156,"lon":5.42645,"is_reserved":false,"is_disabled":false,"rental_uris":{"android":"levelo://app?vid=7a19dc1e-c605-44fa-ad0c-ac48b8d0aeb6","ios":"levelo://app?vid=7a19dc1e-c605-44fa-ad0c-ac48b8d0aeb6"},"vehicle_type_id":"4","last_reported":1744582114,"current_range_meters":8400,"station_id":"ce4bhnh2rcd13ifvqgug","pricing_plan_id":"cebpf4jnsgd1na2vs0mg"},{"bike_id":"76450c2c-888f-4d08-a5c0-d825237615aa","system_id":"levelo_inurba_marseille","lat":43.2723,"lon":5.42308,"is_reserved":false,"is_disabled":false,"rental_uris":{"android":"levelo://app?vid=76450c2c-888f-4d08-a5c0-d825237615aa","ios":"levelo://app?vid=76450c2c-888f-4d08-a5c0-d825237615aa"},"vehicle_type_id":"4","last_reported":1744582114,"current_range_meters":8400,"station_id":"","pricing_plan_id":"cebpf4jnsgd1na2vs0mg"},{"bike_id":"f7843f46-58aa-4cf6-a1d0-1b94b16f71c2","system_id":"levelo_inurba_marseille","lat":43.29858,"lon":5.39671,"is_reserved":false,"is_disabled":false,"rental_uris":{"android":"levelo://app?vid=f7843f46-58aa-4cf6-a1d0-1b94b16f71c2","ios":"levelo://app?vid=f7843f46-58aa-4cf6-a1d0-1b94b16f71c2"},"vehicle_type_id":"4","last_reported":1744582114,"current_range_meters":8400,"station_id":"ce4bh0h2rcd13ifvqd50","pricing_plan_id":"cebpf4jnsgd1na2vs0mg"},{"bike_id":"49ee7a2d-b87d-42ef-bdb3-cf1b5b3fae9b","system_id":"levelo_inurba_marseille","lat":43.24168,"lon":5.36404,"is_reserved":false,"is_disabled":false,"rental_uris":{"android":"levelo://app?vid=49ee7a2d-b87d-42ef-bdb3-cf1b5b3fae9b","ios":"levelo://app?vid=49ee7a2d-b87d-42ef-bdb3-cf1b5b3fae9b"},"vehicle_type_id":"4","last_reported":1744582114,"current_range_meters":8400,"station_id":"cpo36qri1sfpv3e86is0","pricing_plan_id":"cebpf4jnsgd1na2vs0mg"},{"bike_id":"6e2ac28e-dfb7-46b8-8016-b7ae92b2a4f0","system_id":"levelo_inurba_marseille","lat":43.27966,"lon":5.40025,"is_reserved":false,"is_disabled":false,"rental_uris":{"android":"levelo://app?vid=6e2ac28e-dfb7-46b8-8016-b7ae92b2a4f0","ios":"levelo://app?vid=6e2ac28e-dfb7-46b8-8016-b7ae92b2a4f0"},"vehicle_type_id":"4","last_reported":1744582114,"current_range_meters":8400,"station_id":"ce4bho92rcd13ifvqh4g","pricing_plan_id":"cebpf4jnsgd1na2vs0mg"},{"bike_id":"0c30a5d7-82b9-4bb2-9032-224893c69d2f","system_id":"levelo_inurba_marseille","lat":43.265166,"lon":5.395596,"is_reserved":false,"is_disabled":true,"rental_uris":{"android":"levelo://app?vid=0c30a5d7-82b9-4bb2-9032-224893c69d2f","ios":"levelo://app?vid=0c30a5d7-82b9-4bb2-9032-224893c69d2f"},"vehicle_type_id":"4","last_reported":1744582114,"current_range_meters":8400,"station_id":"ce4bhi12rcd13ifvqfq0","pricing_plan_id":"cebpf4jnsgd1na2vs0mg"},{"bike_id":"eef662bd-49fa-4185-a5f5-5664aa402854","system_id":"levelo_inurba_marseille","lat":43.22931,"lon":5.3537,"is_reserved":false,"is_disabled":false,"rental_uris":{"android":"levelo://app?vid=eef662bd-49fa-4185-a5f5-5664aa402854","ios":"levelo://app?vid=eef662bd-49fa-4185-a5f5-5664aa402854"},"vehicle_type_id":"4","last_reported":1744582114,"current_range_meters":8400,"station_id":"cpo3532slgdg3j2ikp40","pricing_plan_id":"cebpf4jnsgd1na2vs0mg"},{"bike_id":"0dcc817d-733c-4ec3-9556-4431f10629f3","system_id":"levelo_inurba_marseille","lat":43.28704,"lon":5.39981,"is_reserved":false,"is_disabled":false,"rental_uris":{"android":"levelo://app?vid=0dcc817d-733c-4ec3-9556-4431f10629f3","ios":"levelo://app?vid=0dcc817d-733c-4ec3-9556-4431f10629f3"},"vehicle_type_id":"4","last_reported":1744582114,"current_range_meters":8400,"station_id":"ce4bho92rcd13ifvqh3g","pricing_plan_id":"cebpf4jnsgd1na2vs0mg"},{"bike_id":"998bf81d-ad9f-4ed4-abc9-e0d2ed6ed276","system_id":"levelo_inurba_marseille","lat":43.23187,"lon":5.35562,"is_reserved":false,"is_disabled":true,"rental_uris":{"android":"levelo://app?vid=998bf81d-ad9f-4ed4-abc9-e0d2ed6ed276","ios":"levelo://app?vid=998bf81d-ad9f-4ed4-abc9-e0d2ed6ed276"},"vehicle_type_id":"4","last_reported":1744582114,"current_range_meters":8400,"station_id":"ce4bhu92rcd13ifvqi70","pricing_plan_id":"cebpf4jnsgd1na2vs0mg"},{"bike_id":"f41b42b2-4044-4373-92ef-9850ec8e2558","system_id":"levelo_inurba_marseille","lat":43.24548,"lon":5.39523,"is_reserved":false,"is_disabled":false,"rental_uris":{"android":"levelo://app?vid=f41b42b2-4044-4373-92ef-9850ec8e2558","ios":"levelo://app?vid=f41b42b2-4044-4373-92ef-9850ec8e2558"},"vehicle_type_id":"4","last_reported":1744582114,"current_range_meters":8400,"station_id":"ce4bhlp2rcd13ifvqgjg","pricing_plan_id":"cebpf4jnsgd1na2vs0mg"},{"bike_id":"a97af672-b176-42f7-912b-8dfee7634705","system_id":"levelo_inurba_marseille","lat":43.30307,"lon":5.36891,"is_reserved":false,"is_disabled":false,"rental_uris":{"android":"levelo://app?vid=a97af672-b176-42f7-912b-8dfee7634705","ios":"levelo://app?vid=a97af672-b176-42f7-912b-8dfee7634705"},"vehicle_type_id":"4","last_reported":1744582114,"current_range_meters":8800,"station_id":"ce4bgqh2rcd13ifvqc5g","pricing_plan_id":"cebpf4jnsgd1na2vs0mg"},{"bike_id":"44faf0fe-b425-442a-93da-c7fc9219b599","system_id":"levelo_inurba_marseille","lat":43.28438,"lon":5.35915,"is_reserved":false,"is_disabled":false,"rental_uris":{"android":"levelo://app?vid=44faf0fe-b425-442a-93da-c7fc9219b599","ios":"levelo://app?vid=44faf0fe-b425-442a-93da-c7fc9219b599"},"vehicle_type_id":"4","last_reported":1744582114,"current_range_meters":8800,"station_id":"ce4bhah2rcd13ifvqei0","pricing_plan_id":"cebpf4jnsgd1na2vs0mg"},{"bike_id":"91fffdcd-2fa7-4f34-b242-95e7e93ac05b","system_id":"levelo_inurba_marseille","lat":43.26336,"lon":5.39764,"is_reserved":false,"is_disabled":false,"rental_uris":{"android":"levelo://app?vid=91fffdcd-2fa7-4f34-b242-95e7e93ac05b","ios":"levelo://app?vid=91fffdcd-2fa7-4f34-b242-95e7e93ac05b"},"vehicle_type_id":"4","last_reported":1744582114,"current_range_meters":8800,"station_id":"","pricing_plan_id":"cebpf4jnsgd1na2vs0mg"},{"bike_id":"5170fc26-5eab-4469-b982-1d77ae9ce418","system_id":"levelo_inurba_marseille","lat":43.32479,"lon":5.36572,"is_reserved":false,"is_disabled":false,"rental_uris":{"android":"levelo://app?vid=5170fc26-5eab-4469-b982-1d77ae9ce418","ios":"levelo://app?vid=5170fc26-5eab-4469-b982-1d77ae9ce418"},"vehicle_type_id":"4","last_reported":1744582114,"current_range_meters":8800,"station_id":"ce4bhs12rcd13ifvqhvg","pricing_plan_id":"cebpf4jnsgd1na2vs0mg"},{"bike_id":"4d49d7bf-c387-4802-8134-39419f66ab07","system_id":"levelo_inurba_marseille","lat":43.25088,"lon":5.39501,"is_reserved":false,"is_disabled":false,"rental_uris":{"android":"levelo://app?vid=4d49d7bf-c387-4802-8134-39419f66ab07","ios":"levelo://app?vid=4d49d7bf-c387-4802-8134-39419f66ab07"},"vehicle_type_id":"4","last_reported":1744582114,"current_range_meters":8800,"station_id":"ce4bhm12rcd13ifvqgkg","pricing_plan_id":"cebpf4jnsgd1na2vs0mg"},{"bike_id":"8bcdb45d-0e19-4e8f-ac19-67e8d9db87a5","system_id":"levelo_inurba_marseille","lat":43.29886,"lon":5.38907,"is_reserved":false,"is_disabled":false,"rental_uris":{"android":"levelo://app?vid=8bcdb45d-0e19-4e8f-ac19-67e8d9db87a5","ios":"levelo://app?vid=8bcdb45d-0e19-4e8f-ac19-67e8d9db87a5"},"vehicle_type_id":"4","last_reported":1744582114,"current_range_meters":8800,"station_id":"ce4bh392rcd13ifvqdl0","pricing_plan_id":"cebpf4jnsgd1na2vs0mg"},{"bike_id":"f7cd819f-b752-47cc-848d-ff43c669ccb8","system_id":"levelo_inurba_marseille","lat":43.309935,"lon":5.417203,"is_reserved":false,"is_disabled":false,"rental_uris":{"android":"levelo://app?vid=f7cd819f-b752-47cc-848d-ff43c669ccb8","ios":"levelo://app?vid=f7cd819f-b752-47cc-848d-ff43c669ccb8"},"vehicle_type_id":"4","last_reported":1744582114,"current_range_meters":9200,"station_id":"","pricing_plan_id":"cebpf4jnsgd1na2vs0mg"},{"bike_id":"82d38bd3-c046-4f55-aec8-4eb686f05e29","system_id":"levelo_inurba_marseille","lat":43.22939,"lon":5.35416,"is_reserved":false,"is_disabled":true,"rental_uris":{"android":"levelo://app?vid=82d38bd3-c046-4f55-aec8-4eb686f05e29","ios":"levelo://app?vid=82d38bd3-c046-4f55-aec8-4eb686f05e29"},"vehicle_type_id":"4","last_reported":1744582114,"current_range_meters":9200,"station_id":"cpo3532slgdg3j2ikp40","pricing_plan_id":"cebpf4jnsgd1na2vs0mg"},{"bike_id":"71d758d9-e1f9-440e-be18-d9a62c8ebcd3","system_id":"levelo_inurba_marseille","lat":43.27916,"lon":5.39574,"is_reserved":false,"is_disabled":false,"rental_uris":{"android":"levelo://app?vid=71d758d9-e1f9-440e-be18-d9a62c8ebcd3","ios":"levelo://app?vid=71d758d9-e1f9-440e-be18-d9a62c8ebcd3"},"vehicle_type_id":"4","last_reported":1744582114,"current_range_meters":9200,"station_id":"ce4bhf92rcd13ifvqf40","pricing_plan_id":"cebpf4jnsgd1na2vs0mg"},{"bike_id":"c127d1a8-0150-4856-a57b-18fd29314b2c","system_id":"levelo_inurba_marseille","lat":43.32494,"lon":5.36553,"is_reserved":false,"is_disabled":false,"rental_uris":{"android":"levelo://app?vid=c127d1a8-0150-4856-a57b-18fd29314b2c","ios":"levelo://app?vid=c127d1a8-0150-4856-a57b-18fd29314b2c"},"vehicle_type_id":"4","last_reported":1744582114,"current_range_meters":9200,"station_id":"ce4bhs12rcd13ifvqhvg","pricing_plan_id":"cebpf4jnsgd1na2vs0mg"},{"bike_id":"efd328ca-f8bf-4550-bd94-c2fd75978f3c","system_id":"levelo_inurba_marseille","lat":43.33043,"lon":5.3807,"is_reserved":false,"is_disabled":false,"rental_uris":{"android":"levelo://app?vid=efd328ca-f8bf-4550-bd94-c2fd75978f3c","ios":"levelo://app?vid=efd328ca-f8bf-4550-bd94-c2fd75978f3c"},"vehicle_type_id":"4","last_reported":1744582114,"current_range_meters":9200,"station_id":"","pricing_plan_id":"cebpf4jnsgd1na2vs0mg"},{"bike_id":"e3033e51-0403-4e5c-9649-cc323385bf93","system_id":"levelo_inurba_marseille","lat":43.27492,"lon":5.42449,"is_reserved":false,"is_disabled":false,"rental_uris":{"android":"levelo://app?vid=e3033e51-0403-4e5c-9649-cc323385bf93","ios":"levelo://app?vid=e3033e51-0403-4e5c-9649-cc323385bf93"},"vehicle_type_id":"4","last_reported":1744582114,"current_range_meters":9600,"station_id":"ce4bhn92rcd13ifvqgrg","pricing_plan_id":"cebpf4jnsgd1na2vs0mg"},{"bike_id":"12aec038-db5e-4d5d-a5cf-e01dc2e28ea3","system_id":"levelo_inurba_marseille","lat":43.30116,"lon":5.405011,"is_reserved":false,"is_disabled":true,"rental_uris":{"android":"levelo://app?vid=12aec038-db5e-4d5d-a5cf-e01dc2e28ea3","ios":"levelo://app?vid=12aec038-db5e-4d5d-a5cf-e01dc2e28ea3"},"vehicle_type_id":"4","last_reported":1744582114,"current_range_meters":9600,"station_id":"","pricing_plan_id":"cebpf4jnsgd1na2vs0mg"},{"bike_id":"83567ef6-3762-49b5-a856-7bc0d9276709","system_id":"levelo_inurba_marseille","lat":43.2782,"lon":5.39197,"is_reserved":false,"is_disabled":false,"rental_uris":{"android":"levelo://app?vid=83567ef6-3762-49b5-a856-7bc0d9276709","ios":"levelo://app?vid=83567ef6-3762-49b5-a856-7bc0d9276709"},"vehicle_type_id":"4","last_reported":1744582114,"current_range_meters":9600,"station_id":"ce4bhjp2rcd13ifvqga0","pricing_plan_id":"cebpf4jnsgd1na2vs0mg"},{"bike_id":"b0c064f7-6710-4684-831e-3fb959bd9f3a","system_id":"levelo_inurba_marseille","lat":43.27943,"lon":5.41044,"is_reserved":false,"is_disabled":false,"rental_uris":{"android":"levelo://app?vid=b0c064f7-6710-4684-831e-3fb959bd9f3a","ios":"levelo://app?vid=b0c064f7-6710-4684-831e-3fb959bd9f3a"},"vehicle_type_id":"4","last_reported":1744582114,"current_range_meters":9600,"station_id":"ce4bhnp2rcd13ifvqh0g","pricing_plan_id":"cebpf4jnsgd1na2vs0mg"},{"bike_id":"e5afee93-2191-4e03-8277-e3b90ad6fc7d","system_id":"levelo_inurba_marseille","lat":43.28459,"lon":5.38459,"is_reserved":false,"is_disabled":false,"rental_uris":{"android":"levelo://app?vid=e5afee93-2191-4e03-8277-e3b90ad6fc7d","ios":"levelo://app?vid=e5afee93-2191-4e03-8277-e3b90ad6fc7d"},"vehicle_type_id":"4","last_reported":1744582114,"current_range_meters":10000,"station_id":"ce4bh512rcd13ifvqe3g","pricing_plan_id":"cebpf4jnsgd1na2vs0mg"},{"bike_id":"b55dd5e7-54b2-4035-b945-7b626dd7afc7","system_id":"levelo_inurba_marseille","lat":43.27575,"lon":5.40918,"is_reserved":false,"is_disabled":false,"rental_uris":{"android":"levelo://app?vid=b55dd5e7-54b2-4035-b945-7b626dd7afc7","ios":"levelo://app?vid=b55dd5e7-54b2-4035-b945-7b626dd7afc7"},"vehicle_type_id":"4","last_reported":1744582114,"current_range_meters":9600,"station_id":"","pricing_plan_id":"cebpf4jnsgd1na2vs0mg"},{"bike_id":"982bb1bc-457f-43d7-ae21-85035c856353","system_id":"levelo_inurba_marseille","lat":43.22505,"lon":5.34778,"is_reserved":false,"is_disabled":true,"rental_uris":{"android":"levelo://app?vid=982bb1bc-457f-43d7-ae21-85035c856353","ios":"levelo://app?vid=982bb1bc-457f-43d7-ae21-85035c856353"},"vehicle_type_id":"4","last_reported":1744582114,"current_range_meters":9600,"station_id":"st_cvj5dfep6f1abm77gieg","pricing_plan_id":"cebpf4jnsgd1na2vs0mg"},{"bike_id":"d3d40591-4ab6-47c0-858b-e2d1c8bbaff8","system_id":"levelo_inurba_marseille","lat":43.32337,"lon":5.40615,"is_reserved":false,"is_disabled":false,"rental_uris":{"android":"levelo://app?vid=d3d40591-4ab6-47c0-858b-e2d1c8bbaff8","ios":"levelo://app?vid=d3d40591-4ab6-47c0-858b-e2d1c8bbaff8"},"vehicle_type_id":"4","last_reported":1744582114,"current_range_meters":9600,"station_id":"ce4bhq92rcd13ifvqhjg","pricing_plan_id":"cebpf4jnsgd1na2vs0mg"},{"bike_id":"020e9999-d552-48d0-ae5f-b725af0dbea2","system_id":"levelo_inurba_marseille","lat":43.2991,"lon":5.43755,"is_reserved":false,"is_disabled":false,"rental_uris":{"android":"levelo://app?vid=020e9999-d552-48d0-ae5f-b725af0dbea2","ios":"levelo://app?vid=020e9999-d552-48d0-ae5f-b725af0dbea2"},"vehicle_type_id":"4","last_reported":1744582114,"current_range_meters":9600,"station_id":"","pricing_plan_id":"cebpf4jnsgd1na2vs0mg"},{"bike_id":"a3bf51d9-08b7-458c-9b6d-ef5680cc95d6","system_id":"levelo_inurba_marseille","lat":43.21754,"lon":5.34602,"is_reserved":false,"is_disabled":true,"rental_uris":{"android":"levelo://app?vid=a3bf51d9-08b7-458c-9b6d-ef5680cc95d6","ios":"levelo://app?vid=a3bf51d9-08b7-458c-9b6d-ef5680cc95d6"},"vehicle_type_id":"4","last_reported":1744582114,"current_range_meters":9600,"station_id":"st_cvj6r9ubvosntc0bgbag","pricing_plan_id":"cebpf4jnsgd1na2vs0mg"},{"bike_id":"4bbe6e48-9bfa-4dec-aab0-5597477f7da1","system_id":"levelo_inurba_marseille","lat":43.32412,"lon":5.39141,"is_reserved":false,"is_disabled":false,"rental_uris":{"android":"levelo://app?vid=4bbe6e48-9bfa-4dec-aab0-5597477f7da1","ios":"levelo://app?vid=4bbe6e48-9bfa-4dec-aab0-5597477f7da1"},"vehicle_type_id":"4","last_reported":1744582114,"current_range_meters":9600,"station_id":"","pricing_plan_id":"cebpf4jnsgd1na2vs0mg"},{"bike_id":"1074a5be-9d1d-4ad6-95da-26234c98201e","system_id":"levelo_inurba_marseille","lat":43.29451,"lon":5.39731,"is_reserved":false,"is_disabled":false,"rental_uris":{"android":"levelo://app?vid=1074a5be-9d1d-4ad6-95da-26234c98201e","ios":"levelo://app?vid=1074a5be-9d1d-4ad6-95da-26234c98201e"},"vehicle_type_id":"4","last_reported":1744582114,"current_range_meters":10000,"station_id":"ce4bh3h2rcd13ifvqdo0","pricing_plan_id":"cebpf4jnsgd1na2vs0mg"},{"bike_id":"7f6c4363-715d-4f42-b9a9-3392906a5fa6","system_id":"levelo_inurba_marseille","lat":43.24667,"lon":5.38161,"is_reserved":false,"is_disabled":false,"rental_uris":{"android":"levelo://app?vid=7f6c4363-715d-4f42-b9a9-3392906a5fa6","ios":"levelo://app?vid=7f6c4363-715d-4f42-b9a9-3392906a5fa6"},"vehicle_type_id":"4","last_reported":1744582114,"current_range_meters":10000,"station_id":"ce4bhih2rcd13ifvqfr0","pricing_plan_id":"cebpf4jnsgd1na2vs0mg"},{"bike_id":"5bd83869-317c-4f7d-93ed-182a084c5a24","system_id":"levelo_inurba_marseille","lat":43.25706,"lon":5.41123,"is_reserved":false,"is_disabled":false,"rental_uris":{"android":"levelo://app?vid=5bd83869-317c-4f7d-93ed-182a084c5a24","ios":"levelo://app?vid=5bd83869-317c-4f7d-93ed-182a084c5a24"},"vehicle_type_id":"4","last_reported":1744582114,"current_range_meters":10000,"station_id":"ce4bhkp2rcd13ifvqgd0","pricing_plan_id":"cebpf4jnsgd1na2vs0mg"},{"bike_id":"d8b9884b-4022-4710-9f87-50e0dbfd421d","system_id":"levelo_inurba_marseille","lat":43.24175,"lon":5.36373,"is_reserved":false,"is_disabled":false,"rental_uris":{"android":"levelo://app?vid=d8b9884b-4022-4710-9f87-50e0dbfd421d","ios":"levelo://app?vid=d8b9884b-4022-4710-9f87-50e0dbfd421d"},"vehicle_type_id":"4","last_reported":1744582114,"current_range_meters":10000,"station_id":"cpo36qri1sfpv3e86is0","pricing_plan_id":"cebpf4jnsgd1na2vs0mg"},{"bike_id":"bac238c1-16ce-4496-8a56-a76b60a16357","system_id":"levelo_inurba_marseille","lat":43.28703,"lon":5.39972,"is_reserved":false,"is_disabled":false,"rental_uris":{"android":"levelo://app?vid=bac238c1-16ce-4496-8a56-a76b60a16357","ios":"levelo://app?vid=bac238c1-16ce-4496-8a56-a76b60a16357"},"vehicle_type_id":"4","last_reported":1744582114,"current_range_meters":10800,"station_id":"ce4bho92rcd13ifvqh3g","pricing_plan_id":"cebpf4jnsgd1na2vs0mg"},{"bike_id":"b22c52cf-8d34-4f5f-82e8-349789267ec5","system_id":"levelo_inurba_marseille","lat":43.290927,"lon":5.381453,"is_reserved":false,"is_disabled":false,"rental_uris":{"android":"levelo://app?vid=b22c52cf-8d34-4f5f-82e8-349789267ec5","ios":"levelo://app?vid=b22c52cf-8d34-4f5f-82e8-349789267ec5"},"vehicle_type_id":"4","last_reported":1744582114,"current_range_meters":10800,"station_id":"ce4bh512rcd13ifvqe2g","pricing_plan_id":"cebpf4jnsgd1na2vs0mg"},{"bike_id":"0ceb1776-0c88-4ba3-9905-2f990572e867","system_id":"levelo_inurba_marseille","lat":43.30376,"lon":5.42497,"is_reserved":false,"is_disabled":false,"rental_uris":{"android":"levelo://app?vid=0ceb1776-0c88-4ba3-9905-2f990572e867","ios":"levelo://app?vid=0ceb1776-0c88-4ba3-9905-2f990572e867"},"vehicle_type_id":"4","last_reported":1744582114,"current_range_meters":10800,"station_id":"ce4bhoh2rcd13ifvqh6g","pricing_plan_id":"cebpf4jnsgd1na2vs0mg"},{"bike_id":"d49ed5f3-63dd-41d8-a7c3-7b7860b035b1","system_id":"levelo_inurba_marseille","lat":43.24809,"lon":5.37457,"is_reserved":false,"is_disabled":true,"rental_uris":{"android":"levelo://app?vid=d49ed5f3-63dd-41d8-a7c3-7b7860b035b1","ios":"levelo://app?vid=d49ed5f3-63dd-41d8-a7c3-7b7860b035b1"},"vehicle_type_id":"4","last_reported":1744582114,"current_range_meters":10800,"station_id":"ce4bhgh2rcd13ifvqfb0","pricing_plan_id":"cebpf4jnsgd1na2vs0mg"},{"bike_id":"5591936e-ca63-41c7-89f3-9c9493c86f89","system_id":"levelo_inurba_marseille","lat":43.24173,"lon":5.36389,"is_reserved":false,"is_disabled":false,"rental_uris":{"android":"levelo://app?vid=5591936e-ca63-41c7-89f3-9c9493c86f89","ios":"levelo://app?vid=5591936e-ca63-41c7-89f3-9c9493c86f89"},"vehicle_type_id":"4","last_reported":1744582114,"current_range_meters":10800,"station_id":"cpo36qri1sfpv3e86is0","pricing_plan_id":"cebpf4jnsgd1na2vs0mg"},{"bike_id":"b685ddfd-dae1-4f83-8180-4c8c75cc6933","system_id":"levelo_inurba_marseille","lat":43.279888,"lon":5.400202,"is_reserved":false,"is_disabled":true,"rental_uris":{"android":"levelo://app?vid=b685ddfd-dae1-4f83-8180-4c8c75cc6933","ios":"levelo://app?vid=b685ddfd-dae1-4f83-8180-4c8c75cc6933"},"vehicle_type_id":"4","last_reported":1744582114,"current_range_meters":10800,"station_id":"ce4bho92rcd13ifvqh4g","pricing_plan_id":"cebpf4jnsgd1na2vs0mg"},{"bike_id":"8a6043a2-2245-4366-9dd8-85faf764f337","system_id":"levelo_inurba_marseille","lat":43.33768,"lon":5.39135,"is_reserved":false,"is_disabled":false,"rental_uris":{"android":"levelo://app?vid=8a6043a2-2245-4366-9dd8-85faf764f337","ios":"levelo://app?vid=8a6043a2-2245-4366-9dd8-85faf764f337"},"vehicle_type_id":"4","last_reported":1744582114,"current_range_meters":10800,"station_id":"","pricing_plan_id":"cebpf4jnsgd1na2vs0mg"},{"bike_id":"35bd4d02-fb6f-47e3-8b9b-a14059c8d044","system_id":"levelo_inurba_marseille","lat":43.24183,"lon":5.39742,"is_reserved":false,"is_disabled":false,"rental_uris":{"android":"levelo://app?vid=35bd4d02-fb6f-47e3-8b9b-a14059c8d044","ios":"levelo://app?vid=35bd4d02-fb6f-47e3-8b9b-a14059c8d044"},"vehicle_type_id":"4","last_reported":1744582114,"current_range_meters":10800,"station_id":"ce4bhn12rcd13ifvqgpg","pricing_plan_id":"cebpf4jnsgd1na2vs0mg"},{"bike_id":"6645ed66-986f-49fc-a7a1-0165cdf355d2","system_id":"levelo_inurba_marseille","lat":43.29066,"lon":5.35906,"is_reserved":false,"is_disabled":false,"rental_uris":{"android":"levelo://app?vid=6645ed66-986f-49fc-a7a1-0165cdf355d2","ios":"levelo://app?vid=6645ed66-986f-49fc-a7a1-0165cdf355d2"},"vehicle_type_id":"4","last_reported":1744582114,"current_range_meters":11200,"station_id":"ce4bha92rcd13ifvqeg0","pricing_plan_id":"cebpf4jnsgd1na2vs0mg"},{"bike_id":"eeecd2fe-6254-4002-abf4-dbb4c5b284dc","system_id":"levelo_inurba_marseille","lat":43.27988,"lon":5.41663,"is_reserved":false,"is_disabled":true,"rental_uris":{"android":"levelo://app?vid=eeecd2fe-6254-4002-abf4-dbb4c5b284dc","ios":"levelo://app?vid=eeecd2fe-6254-4002-abf4-dbb4c5b284dc"},"vehicle_type_id":"4","last_reported":1744582114,"current_range_meters":11200,"station_id":"ce4bho12rcd13ifvqh1g","pricing_plan_id":"cebpf4jnsgd1na2vs0mg"},{"bike_id":"cec9fed2-74bc-4f07-a628-035c465b00b6","system_id":"levelo_inurba_marseille","lat":43.24175,"lon":5.39735,"is_reserved":false,"is_disabled":false,"rental_uris":{"android":"levelo://app?vid=cec9fed2-74bc-4f07-a628-035c465b00b6","ios":"levelo://app?vid=cec9fed2-74bc-4f07-a628-035c465b00b6"},"vehicle_type_id":"4","last_reported":1744582114,"current_range_meters":11200,"station_id":"ce4bhn12rcd13ifvqgpg","pricing_plan_id":"cebpf4jnsgd1na2vs0mg"},{"bike_id":"34f6756b-3176-41ae-9a17-73fda68b3b50","system_id":"levelo_inurba_marseille","lat":43.28944,"lon":5.36635,"is_reserved":false,"is_disabled":false,"rental_uris":{"android":"levelo://app?vid=34f6756b-3176-41ae-9a17-73fda68b3b50","ios":"levelo://app?vid=34f6756b-3176-41ae-9a17-73fda68b3b50"},"vehicle_type_id":"4","last_reported":1744582114,"current_range_meters":11200,"station_id":"ce4bhap2rcd13ifvqek0","pricing_plan_id":"cebpf4jnsgd1na2vs0mg"},{"bike_id":"b3e64b14-29c8-4f32-9a7d-73acca2d0222","system_id":"levelo_inurba_marseille","lat":43.29042,"lon":5.39979,"is_reserved":false,"is_disabled":true,"rental_uris":{"android":"levelo://app?vid=b3e64b14-29c8-4f32-9a7d-73acca2d0222","ios":"levelo://app?vid=b3e64b14-29c8-4f32-9a7d-73acca2d0222"},"vehicle_type_id":"4","last_reported":1744582114,"current_range_meters":11200,"station_id":"ce4bh392rcd13ifvqdm0","pricing_plan_id":"cebpf4jnsgd1na2vs0mg"},{"bike_id":"368d4567-767c-4eeb-afba-40b9b593ad1c","system_id":"levelo_inurba_marseille","lat":43.27077,"lon":5.42278,"is_reserved":false,"is_disabled":false,"rental_uris":{"android":"levelo://app?vid=368d4567-767c-4eeb-afba-40b9b593ad1c","ios":"levelo://app?vid=368d4567-767c-4eeb-afba-40b9b593ad1c"},"vehicle_type_id":"4","last_reported":1744582114,"current_range_meters":11600,"station_id":"ce4bhk92rcd13ifvqgb0","pricing_plan_id":"cebpf4jnsgd1na2vs0mg"},{"bike_id":"e1610100-8eba-4687-9e78-f3158d0c4625","system_id":"levelo_inurba_marseille","lat":43.29074,"lon":5.38147,"is_reserved":false,"is_disabled":false,"rental_uris":{"android":"levelo://app?vid=e1610100-8eba-4687-9e78-f3158d0c4625","ios":"levelo://app?vid=e1610100-8eba-4687-9e78-f3158d0c4625"},"vehicle_type_id":"4","last_reported":1744582114,"current_range_meters":11600,"station_id":"ce4bh512rcd13ifvqe2g","pricing_plan_id":"cebpf4jnsgd1na2vs0mg"},{"bike_id":"72ebdd68-4727-45bd-ae87-df9c54928155","system_id":"levelo_inurba_marseille","lat":43.3251,"lon":5.41049,"is_reserved":false,"is_disabled":false,"rental_uris":{"android":"levelo://app?vid=72ebdd68-4727-45bd-ae87-df9c54928155","ios":"levelo://app?vid=72ebdd68-4727-45bd-ae87-df9c54928155"},"vehicle_type_id":"4","last_reported":1744582114,"current_range_meters":11600,"station_id":"","pricing_plan_id":"cebpf4jnsgd1na2vs0mg"},{"bike_id":"6a003e47-a1cc-4c38-b762-6e37af426d05","system_id":"levelo_inurba_marseille","lat":43.32361,"lon":5.36725,"is_reserved":false,"is_disabled":false,"rental_uris":{"android":"levelo://app?vid=6a003e47-a1cc-4c38-b762-6e37af426d05","ios":"levelo://app?vid=6a003e47-a1cc-4c38-b762-6e37af426d05"},"vehicle_type_id":"4","last_reported":1744582114,"current_range_meters":11600,"station_id":"ce4bhsh2rcd13ifvqi2g","pricing_plan_id":"cebpf4jnsgd1na2vs0mg"},{"bike_id":"931ca8c7-adfe-42dc-beac-f2556a1d82a2","system_id":"levelo_inurba_marseille","lat":43.2942,"lon":5.38618,"is_reserved":false,"is_disabled":false,"rental_uris":{"android":"levelo://app?vid=931ca8c7-adfe-42dc-beac-f2556a1d82a2","ios":"levelo://app?vid=931ca8c7-adfe-42dc-beac-f2556a1d82a2"},"vehicle_type_id":"4","last_reported":1744582114,"current_range_meters":11600,"station_id":"ce4bh2h2rcd13ifvqdh0","pricing_plan_id":"cebpf4jnsgd1na2vs0mg"},{"bike_id":"2790b634-13eb-456b-ac36-4aa5af47fec0","system_id":"levelo_inurba_marseille","lat":43.27845,"lon":5.39212,"is_reserved":false,"is_disabled":false,"rental_uris":{"android":"levelo://app?vid=2790b634-13eb-456b-ac36-4aa5af47fec0","ios":"levelo://app?vid=2790b634-13eb-456b-ac36-4aa5af47fec0"},"vehicle_type_id":"4","last_reported":1744582114,"current_range_meters":11600,"station_id":"ce4bhjp2rcd13ifvqga0","pricing_plan_id":"cebpf4jnsgd1na2vs0mg"},{"bike_id":"103fb907-3aa0-4f1b-ba50-f374d9a45d27","system_id":"levelo_inurba_marseille","lat":43.27993,"lon":5.40023,"is_reserved":false,"is_disabled":false,"rental_uris":{"android":"levelo://app?vid=103fb907-3aa0-4f1b-ba50-f374d9a45d27","ios":"levelo://app?vid=103fb907-3aa0-4f1b-ba50-f374d9a45d27"},"vehicle_type_id":"4","last_reported":1744582114,"current_range_meters":11600,"station_id":"ce4bho92rcd13ifvqh4g","pricing_plan_id":"cebpf4jnsgd1na2vs0mg"},{"bike_id":"7c3c7f97-c8ac-4fe5-9c23-7542e2489897","system_id":"levelo_inurba_marseille","lat":43.31235,"lon":5.36862,"is_reserved":false,"is_disabled":false,"rental_uris":{"android":"levelo://app?vid=7c3c7f97-c8ac-4fe5-9c23-7542e2489897","ios":"levelo://app?vid=7c3c7f97-c8ac-4fe5-9c23-7542e2489897"},"vehicle_type_id":"4","last_reported":1744582114,"current_range_meters":12000,"station_id":"ce4bgl92rcd13ifvqbq0","pricing_plan_id":"cebpf4jnsgd1na2vs0mg"},{"bike_id":"ba0617bc-a737-4e7c-be8e-b25cef28a43b","system_id":"levelo_inurba_marseille","lat":43.30323,"lon":5.40439,"is_reserved":false,"is_disabled":false,"rental_uris":{"android":"levelo://app?vid=ba0617bc-a737-4e7c-be8e-b25cef28a43b","ios":"levelo://app?vid=ba0617bc-a737-4e7c-be8e-b25cef28a43b"},"vehicle_type_id":"4","last_reported":1744582114,"current_range_meters":12000,"station_id":"ce4bh012rcd13ifvqd10","pricing_plan_id":"cebpf4jnsgd1na2vs0mg"},{"bike_id":"f630f11d-90e5-4c4a-b030-16b058a163ae","system_id":"levelo_inurba_marseille","lat":43.265521,"lon":5.372843,"is_reserved":false,"is_disabled":false,"rental_uris":{"android":"levelo://app?vid=f630f11d-90e5-4c4a-b030-16b058a163ae","ios":"levelo://app?vid=f630f11d-90e5-4c4a-b030-16b058a163ae"},"vehicle_type_id":"4","last_reported":1744582114,"current_range_meters":12000,"station_id":"ce4bh5p2rcd13ifvqe4g","pricing_plan_id":"cebpf4jnsgd1na2vs0mg"},{"bike_id":"e0c9e09f-8004-440c-8329-33dcb2098b13","system_id":"levelo_inurba_marseille","lat":43.28948,"lon":5.36388,"is_reserved":false,"is_disabled":false,"rental_uris":{"android":"levelo://app?vid=e0c9e09f-8004-440c-8329-33dcb2098b13","ios":"levelo://app?vid=e0c9e09f-8004-440c-8329-33dcb2098b13"},"vehicle_type_id":"4","last_reported":1744582114,"current_range_meters":12000,"station_id":"ce4bhc92rcd13ifvqetg","pricing_plan_id":"cebpf4jnsgd1na2vs0mg"},{"bike_id":"a8139af7-eaba-494d-bab6-f948d1d363c5","system_id":"levelo_inurba_marseille","lat":43.27817,"lon":5.39207,"is_reserved":false,"is_disabled":false,"rental_uris":{"android":"levelo://app?vid=a8139af7-eaba-494d-bab6-f948d1d363c5","ios":"levelo://app?vid=a8139af7-eaba-494d-bab6-f948d1d363c5"},"vehicle_type_id":"4","last_reported":1744582114,"current_range_meters":12000,"station_id":"ce4bhjp2rcd13ifvqga0","pricing_plan_id":"cebpf4jnsgd1na2vs0mg"},{"bike_id":"0d6889fd-fc28-4905-ae73-dde45f2ce921","system_id":"levelo_inurba_marseille","lat":43.24664,"lon":5.38162,"is_reserved":false,"is_disabled":false,"rental_uris":{"android":"levelo://app?vid=0d6889fd-fc28-4905-ae73-dde45f2ce921","ios":"levelo://app?vid=0d6889fd-fc28-4905-ae73-dde45f2ce921"},"vehicle_type_id":"4","last_reported":1744582114,"current_range_meters":12000,"station_id":"ce4bhih2rcd13ifvqfr0","pricing_plan_id":"cebpf4jnsgd1na2vs0mg"},{"bike_id":"2bb6b5da-a4a8-4544-9220-ce73d140bbc1","system_id":"levelo_inurba_marseille","lat":43.28437,"lon":5.39213,"is_reserved":false,"is_disabled":false,"rental_uris":{"android":"levelo://app?vid=2bb6b5da-a4a8-4544-9220-ce73d140bbc1","ios":"levelo://app?vid=2bb6b5da-a4a8-4544-9220-ce73d140bbc1"},"vehicle_type_id":"4","last_reported":1744582114,"current_range_meters":12400,"station_id":"ce4bhoh2rcd13ifvqh5g","pricing_plan_id":"cebpf4jnsgd1na2vs0mg"},{"bike_id":"cb918d5b-8793-4d93-bf83-5042608ad86c","system_id":"levelo_inurba_marseille","lat":43.33202,"lon":5.39572,"is_reserved":false,"is_disabled":false,"rental_uris":{"android":"levelo://app?vid=cb918d5b-8793-4d93-bf83-5042608ad86c","ios":"levelo://app?vid=cb918d5b-8793-4d93-bf83-5042608ad86c"},"vehicle_type_id":"4","last_reported":1744582114,"current_range_meters":12400,"station_id":"","pricing_plan_id":"cebpf4jnsgd1na2vs0mg"},{"bike_id":"fbcffd98-9af3-437e-a238-670cf1dcb555","system_id":"levelo_inurba_marseille","lat":43.289556,"lon":5.366336,"is_reserved":false,"is_disabled":true,"rental_uris":{"android":"levelo://app?vid=fbcffd98-9af3-437e-a238-670cf1dcb555","ios":"levelo://app?vid=fbcffd98-9af3-437e-a238-670cf1dcb555"},"vehicle_type_id":"4","last_reported":1744582114,"current_range_meters":12400,"station_id":"ce4bhap2rcd13ifvqek0","pricing_plan_id":"cebpf4jnsgd1na2vs0mg"},{"bike_id":"c2a31b7c-37b8-460a-a9ba-47af7e49c6b9","system_id":"levelo_inurba_marseille","lat":43.27511,"lon":5.4247,"is_reserved":false,"is_disabled":false,"rental_uris":{"android":"levelo://app?vid=c2a31b7c-37b8-460a-a9ba-47af7e49c6b9","ios":"levelo://app?vid=c2a31b7c-37b8-460a-a9ba-47af7e49c6b9"},"vehicle_type_id":"4","last_reported":1744582114,"current_range_meters":12400,"station_id":"ce4bhn92rcd13ifvqgrg","pricing_plan_id":"cebpf4jnsgd1na2vs0mg"},{"bike_id":"65f98b52-627f-4221-921f-c1d48e4da20d","system_id":"levelo_inurba_marseille","lat":43.21751,"lon":5.34611,"is_reserved":false,"is_disabled":false,"rental_uris":{"android":"levelo://app?vid=65f98b52-627f-4221-921f-c1d48e4da20d","ios":"levelo://app?vid=65f98b52-627f-4221-921f-c1d48e4da20d"},"vehicle_type_id":"4","last_reported":1744582114,"current_range_meters":12400,"station_id":"st_cvj6r9ubvosntc0bgbag","pricing_plan_id":"cebpf4jnsgd1na2vs0mg"},{"bike_id":"fd88b09a-f546-4194-b879-708f82b01a19","system_id":"levelo_inurba_marseille","lat":43.3093,"lon":5.40151,"is_reserved":false,"is_disabled":false,"rental_uris":{"android":"levelo://app?vid=fd88b09a-f546-4194-b879-708f82b01a19","ios":"levelo://app?vid=fd88b09a-f546-4194-b879-708f82b01a19"},"vehicle_type_id":"4","last_reported":1744582114,"current_range_meters":12400,"station_id":"ce4bgvp2rcd13ifvqct0","pricing_plan_id":"cebpf4jnsgd1na2vs0mg"},{"bike_id":"d7eac028-2fd0-4f39-be58-fbce5fdcab81","system_id":"levelo_inurba_marseille","lat":43.28394,"lon":5.34987,"is_reserved":false,"is_disabled":true,"rental_uris":{"android":"levelo://app?vid=d7eac028-2fd0-4f39-be58-fbce5fdcab81","ios":"levelo://app?vid=d7eac028-2fd0-4f39-be58-fbce5fdcab81"},"vehicle_type_id":"4","last_reported":1744582114,"current_range_meters":12800,"station_id":"ce4bhbh2rcd13ifvqepg","pricing_plan_id":"cebpf4jnsgd1na2vs0mg"},{"bike_id":"c5de9f04-a68c-4314-9995-789e3d717983","system_id":"levelo_inurba_marseille","lat":43.24386,"lon":5.3706,"is_reserved":false,"is_disabled":true,"rental_uris":{"android":"levelo://app?vid=c5de9f04-a68c-4314-9995-789e3d717983","ios":"levelo://app?vid=c5de9f04-a68c-4314-9995-789e3d717983"},"vehicle_type_id":"4","last_reported":1744582114,"current_range_meters":12800,"station_id":"ce4bhhh2rcd13ifvqfk0","pricing_plan_id":"cebpf4jnsgd1na2vs0mg"},{"bike_id":"f3e82772-96d5-4bcb-b490-a9bb8e7a4f12","system_id":"levelo_inurba_marseille","lat":43.30811,"lon":5.38162,"is_reserved":false,"is_disabled":false,"rental_uris":{"android":"levelo://app?vid=f3e82772-96d5-4bcb-b490-a9bb8e7a4f12","ios":"levelo://app?vid=f3e82772-96d5-4bcb-b490-a9bb8e7a4f12"},"vehicle_type_id":"4","last_reported":1744582114,"current_range_meters":12800,"station_id":"ce4bgt12rcd13ifvqce0","pricing_plan_id":"cebpf4jnsgd1na2vs0mg"},{"bike_id":"e6be24a9-462c-4d93-b7b5-635bacae826f","system_id":"levelo_inurba_marseille","lat":43.29935,"lon":5.40352,"is_reserved":false,"is_disabled":false,"rental_uris":{"android":"levelo://app?vid=e6be24a9-462c-4d93-b7b5-635bacae826f","ios":"levelo://app?vid=e6be24a9-462c-4d93-b7b5-635bacae826f"},"vehicle_type_id":"4","last_reported":1744582114,"current_range_meters":12800,"station_id":"","pricing_plan_id":"cebpf4jnsgd1na2vs0mg"},{"bike_id":"1d02afc1-b029-4e8f-a065-b803adf8d6c7","system_id":"levelo_inurba_marseille","lat":43.27562,"lon":5.38431,"is_reserved":false,"is_disabled":false,"rental_uris":{"android":"levelo://app?vid=1d02afc1-b029-4e8f-a065-b803adf8d6c7","ios":"levelo://app?vid=1d02afc1-b029-4e8f-a065-b803adf8d6c7"},"vehicle_type_id":"4","last_reported":1744582114,"current_range_meters":13600,"station_id":"ce4bhh92rcd13ifvqfi0","pricing_plan_id":"cebpf4jnsgd1na2vs0mg"},{"bike_id":"c0b7cffe-1bb8-4392-9f9a-3f85e1aca32a","system_id":"levelo_inurba_marseille","lat":43.298016,"lon":5.382275,"is_reserved":false,"is_disabled":false,"rental_uris":{"android":"levelo://app?vid=c0b7cffe-1bb8-4392-9f9a-3f85e1aca32a","ios":"levelo://app?vid=c0b7cffe-1bb8-4392-9f9a-3f85e1aca32a"},"vehicle_type_id":"4","last_reported":1744582114,"current_range_meters":13600,"station_id":"ce4bhph2rcd13ifvqhdg","pricing_plan_id":"cebpf4jnsgd1na2vs0mg"},{"bike_id":"e617923d-5e38-4ab5-9f0a-d006b9dcc88d","system_id":"levelo_inurba_marseille","lat":43.29543,"lon":5.38547,"is_reserved":false,"is_disabled":true,"rental_uris":{"android":"levelo://app?vid=e617923d-5e38-4ab5-9f0a-d006b9dcc88d","ios":"levelo://app?vid=e617923d-5e38-4ab5-9f0a-d006b9dcc88d"},"vehicle_type_id":"4","last_reported":1744582114,"current_range_meters":13600,"station_id":"ce4bgih2rcd13ifvqba0","pricing_plan_id":"cebpf4jnsgd1na2vs0mg"},{"bike_id":"cad1d6ba-44f5-40d3-9aa1-39f6be83068d","system_id":"levelo_inurba_marseille","lat":43.25497,"lon":5.37654,"is_reserved":false,"is_disabled":false,"rental_uris":{"android":"levelo://app?vid=cad1d6ba-44f5-40d3-9aa1-39f6be83068d","ios":"levelo://app?vid=cad1d6ba-44f5-40d3-9aa1-39f6be83068d"},"vehicle_type_id":"4","last_reported":1744582114,"current_range_meters":13600,"station_id":"ce4bhh12rcd13ifvqff0","pricing_plan_id":"cebpf4jnsgd1na2vs0mg"},{"bike_id":"1fe08170-843a-4805-bdff-cc804c925b61","system_id":"levelo_inurba_marseille","lat":43.30449,"lon":5.3889,"is_reserved":false,"is_disabled":false,"rental_uris":{"android":"levelo://app?vid=1fe08170-843a-4805-bdff-cc804c925b61","ios":"levelo://app?vid=1fe08170-843a-4805-bdff-cc804c925b61"},"vehicle_type_id":"4","last_reported":1744582114,"current_range_meters":13600,"station_id":"ce4bgk12rcd13ifvqbi0","pricing_plan_id":"cebpf4jnsgd1na2vs0mg"},{"bike_id":"ccb89218-1760-4c33-987c-ea7c17bce33c","system_id":"levelo_inurba_marseille","lat":43.27945,"lon":5.41045,"is_reserved":false,"is_disabled":false,"rental_uris":{"android":"levelo://app?vid=ccb89218-1760-4c33-987c-ea7c17bce33c","ios":"levelo://app?vid=ccb89218-1760-4c33-987c-ea7c17bce33c"},"vehicle_type_id":"4","last_reported":1744582114,"current_range_meters":14000,"station_id":"ce4bhnp2rcd13ifvqh0g","pricing_plan_id":"cebpf4jnsgd1na2vs0mg"},{"bike_id":"bad792e9-9b55-4be6-a4fe-7ff5da3aeb0d","system_id":"levelo_inurba_marseille","lat":43.28692,"lon":5.38639,"is_reserved":false,"is_disabled":false,"rental_uris":{"android":"levelo://app?vid=bad792e9-9b55-4be6-a4fe-7ff5da3aeb0d","ios":"levelo://app?vid=bad792e9-9b55-4be6-a4fe-7ff5da3aeb0d"},"vehicle_type_id":"4","last_reported":1744582114,"current_range_meters":14000,"station_id":"ce4bh492rcd13ifvqdug","pricing_plan_id":"cebpf4jnsgd1na2vs0mg"},{"bike_id":"67868cb0-fe57-4755-a0f4-83fc5971e42b","system_id":"levelo_inurba_marseille","lat":43.26807,"lon":5.40253,"is_reserved":false,"is_disabled":false,"rental_uris":{"android":"levelo://app?vid=67868cb0-fe57-4755-a0f4-83fc5971e42b","ios":"levelo://app?vid=67868cb0-fe57-4755-a0f4-83fc5971e42b"},"vehicle_type_id":"4","last_reported":1744582114,"current_range_meters":14000,"station_id":"ce501612rcd8frsf0b60","pricing_plan_id":"cebpf4jnsgd1na2vs0mg"},{"bike_id":"64538bc4-b51e-4503-877d-144db96564f3","system_id":"levelo_inurba_marseille","lat":43.30323,"lon":5.40441,"is_reserved":false,"is_disabled":false,"rental_uris":{"android":"levelo://app?vid=64538bc4-b51e-4503-877d-144db96564f3","ios":"levelo://app?vid=64538bc4-b51e-4503-877d-144db96564f3"},"vehicle_type_id":"4","last_reported":1744582114,"current_range_meters":14000,"station_id":"ce4bh012rcd13ifvqd10","pricing_plan_id":"cebpf4jnsgd1na2vs0mg"},{"bike_id":"79e05f01-3e6d-42cc-915a-0b30913e821f","system_id":"levelo_inurba_marseille","lat":43.28938,"lon":5.36629,"is_reserved":false,"is_disabled":false,"rental_uris":{"android":"levelo://app?vid=79e05f01-3e6d-42cc-915a-0b30913e821f","ios":"levelo://app?vid=79e05f01-3e6d-42cc-915a-0b30913e821f"},"vehicle_type_id":"4","last_reported":1744582114,"current_range_meters":14000,"station_id":"ce4bhap2rcd13ifvqek0","pricing_plan_id":"cebpf4jnsgd1na2vs0mg"},{"bike_id":"343cc64c-4a39-45e1-84bf-d73c3feac488","system_id":"levelo_inurba_marseille","lat":43.31485,"lon":5.37306,"is_reserved":false,"is_disabled":false,"rental_uris":{"android":"levelo://app?vid=343cc64c-4a39-45e1-84bf-d73c3feac488","ios":"levelo://app?vid=343cc64c-4a39-45e1-84bf-d73c3feac488"},"vehicle_type_id":"4","last_reported":1744582114,"current_range_meters":14000,"station_id":"ce4bgt12rcd13ifvqcd0","pricing_plan_id":"cebpf4jnsgd1na2vs0mg"},{"bike_id":"7ece343c-ed75-415e-9fc3-18cd796202b0","system_id":"levelo_inurba_marseille","lat":43.323378,"lon":5.406237,"is_reserved":false,"is_disabled":false,"rental_uris":{"android":"levelo://app?vid=7ece343c-ed75-415e-9fc3-18cd796202b0","ios":"levelo://app?vid=7ece343c-ed75-415e-9fc3-18cd796202b0"},"vehicle_type_id":"4","last_reported":1744582114,"current_range_meters":14400,"station_id":"","pricing_plan_id":"cebpf4jnsgd1na2vs0mg"},{"bike_id":"72795014-e60d-4831-88a1-e24f7bb1743d","system_id":"levelo_inurba_marseille","lat":43.32389,"lon":5.38997,"is_reserved":false,"is_disabled":false,"rental_uris":{"android":"levelo://app?vid=72795014-e60d-4831-88a1-e24f7bb1743d","ios":"levelo://app?vid=72795014-e60d-4831-88a1-e24f7bb1743d"},"vehicle_type_id":"4","last_reported":1744582114,"current_range_meters":14400,"station_id":"","pricing_plan_id":"cebpf4jnsgd1na2vs0mg"},{"bike_id":"229e8b04-963a-4bfa-a656-9fbbab07788e","system_id":"levelo_inurba_marseille","lat":43.31203,"lon":5.38707,"is_reserved":false,"is_disabled":true,"rental_uris":{"android":"levelo://app?vid=229e8b04-963a-4bfa-a656-9fbbab07788e","ios":"levelo://app?vid=229e8b04-963a-4bfa-a656-9fbbab07788e"},"vehicle_type_id":"4","last_reported":1744582114,"current_range_meters":14400,"station_id":"ce4bgv12rcd13ifvqcp0","pricing_plan_id":"cebpf4jnsgd1na2vs0mg"},{"bike_id":"94ebb454-9dc3-4e5a-a1c0-ae0c608bc7ee","system_id":"levelo_inurba_marseille","lat":43.2802,"lon":5.41648,"is_reserved":false,"is_disabled":true,"rental_uris":{"android":"levelo://app?vid=94ebb454-9dc3-4e5a-a1c0-ae0c608bc7ee","ios":"levelo://app?vid=94ebb454-9dc3-4e5a-a1c0-ae0c608bc7ee"},"vehicle_type_id":"4","last_reported":1744582114,"current_range_meters":14800,"station_id":"ce4bho12rcd13ifvqh1g","pricing_plan_id":"cebpf4jnsgd1na2vs0mg"},{"bike_id":"50f3a6ca-1b32-4e17-a21b-a50e16960e96","system_id":"levelo_inurba_marseille","lat":43.337766,"lon":5.374441,"is_reserved":false,"is_disabled":false,"rental_uris":{"android":"levelo://app?vid=50f3a6ca-1b32-4e17-a21b-a50e16960e96","ios":"levelo://app?vid=50f3a6ca-1b32-4e17-a21b-a50e16960e96"},"vehicle_type_id":"4","last_reported":1744582114,"current_range_meters":15200,"station_id":"","pricing_plan_id":"cebpf4jnsgd1na2vs0mg"},{"bike_id":"94823d69-90f5-4615-8d77-28264cc7f88d","system_id":"levelo_inurba_marseille","lat":43.28151,"lon":5.42651,"is_reserved":false,"is_disabled":false,"rental_uris":{"android":"levelo://app?vid=94823d69-90f5-4615-8d77-28264cc7f88d","ios":"levelo://app?vid=94823d69-90f5-4615-8d77-28264cc7f88d"},"vehicle_type_id":"4","last_reported":1744582114,"current_range_meters":14800,"station_id":"ce4bhnh2rcd13ifvqgug","pricing_plan_id":"cebpf4jnsgd1na2vs0mg"},{"bike_id":"491f8d55-213a-4477-afe5-576efb509e41","system_id":"levelo_inurba_marseille","lat":43.3032,"lon":5.40427,"is_reserved":false,"is_disabled":false,"rental_uris":{"android":"levelo://app?vid=491f8d55-213a-4477-afe5-576efb509e41","ios":"levelo://app?vid=491f8d55-213a-4477-afe5-576efb509e41"},"vehicle_type_id":"4","last_reported":1744582114,"current_range_meters":15200,"station_id":"ce4bh012rcd13ifvqd10","pricing_plan_id":"cebpf4jnsgd1na2vs0mg"},{"bike_id":"2551df23-46eb-4dc9-b328-33c9a95ff7ca","system_id":"levelo_inurba_marseille","lat":43.29223,"lon":5.36051,"is_reserved":false,"is_disabled":true,"rental_uris":{"android":"levelo://app?vid=2551df23-46eb-4dc9-b328-33c9a95ff7ca","ios":"levelo://app?vid=2551df23-46eb-4dc9-b328-33c9a95ff7ca"},"vehicle_type_id":"4","last_reported":1744582114,"current_range_meters":15200,"station_id":"ce4bhbh2rcd13ifvqeqg","pricing_plan_id":"cebpf4jnsgd1na2vs0mg"},{"bike_id":"935a7e55-4cea-4394-8ed2-15f7e1ee706c","system_id":"levelo_inurba_marseille","lat":43.2725,"lon":5.43151,"is_reserved":false,"is_disabled":false,"rental_uris":{"android":"levelo://app?vid=935a7e55-4cea-4394-8ed2-15f7e1ee706c","ios":"levelo://app?vid=935a7e55-4cea-4394-8ed2-15f7e1ee706c"},"vehicle_type_id":"4","last_reported":1744582114,"current_range_meters":16000,"station_id":"","pricing_plan_id":"cebpf4jnsgd1na2vs0mg"},{"bike_id":"da48e56b-5b98-4592-a2ea-cf5907cac18b","system_id":"levelo_inurba_marseille","lat":43.337652,"lon":5.374374,"is_reserved":false,"is_disabled":false,"rental_uris":{"android":"levelo://app?vid=da48e56b-5b98-4592-a2ea-cf5907cac18b","ios":"levelo://app?vid=da48e56b-5b98-4592-a2ea-cf5907cac18b"},"vehicle_type_id":"4","last_reported":1744582114,"current_range_meters":16000,"station_id":"","pricing_plan_id":"cebpf4jnsgd1na2vs0mg"},{"bike_id":"6f9cf811-1927-4a51-a336-b458bdfafc6f","system_id":"levelo_inurba_marseille","lat":43.29984,"lon":5.38564,"is_reserved":false,"is_disabled":false,"rental_uris":{"android":"levelo://app?vid=6f9cf811-1927-4a51-a336-b458bdfafc6f","ios":"levelo://app?vid=6f9cf811-1927-4a51-a336-b458bdfafc6f"},"vehicle_type_id":"4","last_reported":1744582114,"current_range_meters":16000,"station_id":"","pricing_plan_id":"cebpf4jnsgd1na2vs0mg"},{"bike_id":"1a921eff-7b64-4ad4-b996-31ea7c209c14","system_id":"levelo_inurba_marseille","lat":43.2961,"lon":5.37716,"is_reserved":false,"is_disabled":false,"rental_uris":{"android":"levelo://app?vid=1a921eff-7b64-4ad4-b996-31ea7c209c14","ios":"levelo://app?vid=1a921eff-7b64-4ad4-b996-31ea7c209c14"},"vehicle_type_id":"4","last_reported":1744582114,"current_range_meters":16000,"station_id":"ce4bgi92rcd13ifvqb90","pricing_plan_id":"cebpf4jnsgd1na2vs0mg"},{"bike_id":"4c136dfa-4100-4342-869f-12101c9845be","system_id":"levelo_inurba_marseille","lat":43.29267,"lon":5.37619,"is_reserved":false,"is_disabled":false,"rental_uris":{"android":"levelo://app?vid=4c136dfa-4100-4342-869f-12101c9845be","ios":"levelo://app?vid=4c136dfa-4100-4342-869f-12101c9845be"},"vehicle_type_id":"4","last_reported":1744582114,"current_range_meters":16400,"station_id":"ce4bgi12rcd13ifvqb80","pricing_plan_id":"cebpf4jnsgd1na2vs0mg"},{"bike_id":"86ac3ad7-4349-4b45-82d1-b61ad882a2f6","system_id":"levelo_inurba_marseille","lat":43.21757,"lon":5.34604,"is_reserved":false,"is_disabled":true,"rental_uris":{"android":"levelo://app?vid=86ac3ad7-4349-4b45-82d1-b61ad882a2f6","ios":"levelo://app?vid=86ac3ad7-4349-4b45-82d1-b61ad882a2f6"},"vehicle_type_id":"4","last_reported":1744582114,"current_range_meters":16400,"station_id":"st_cvj6r9ubvosntc0bgbag","pricing_plan_id":"cebpf4jnsgd1na2vs0mg"},{"bike_id":"c2652164-c871-427c-840e-2dcb99169578","system_id":"levelo_inurba_marseille","lat":43.24676,"lon":5.38171,"is_reserved":false,"is_disabled":false,"rental_uris":{"android":"levelo://app?vid=c2652164-c871-427c-840e-2dcb99169578","ios":"levelo://app?vid=c2652164-c871-427c-840e-2dcb99169578"},"vehicle_type_id":"4","last_reported":1744582114,"current_range_meters":16800,"station_id":"ce4bhih2rcd13ifvqfr0","pricing_plan_id":"cebpf4jnsgd1na2vs0mg"},{"bike_id":"02fb2619-dcc2-4d40-b925-714a0c199e7c","system_id":"levelo_inurba_marseille","lat":43.31122,"lon":5.3777,"is_reserved":false,"is_disabled":false,"rental_uris":{"android":"levelo://app?vid=02fb2619-dcc2-4d40-b925-714a0c199e7c","ios":"levelo://app?vid=02fb2619-dcc2-4d40-b925-714a0c199e7c"},"vehicle_type_id":"4","last_reported":1744582114,"current_range_meters":16800,"station_id":"ce4bgt92rcd13ifvqcg0","pricing_plan_id":"cebpf4jnsgd1na2vs0mg"},{"bike_id":"9032fd9f-8258-4b06-828f-3216c8110290","system_id":"levelo_inurba_marseille","lat":43.30992,"lon":5.41722,"is_reserved":false,"is_disabled":false,"rental_uris":{"android":"levelo://app?vid=9032fd9f-8258-4b06-828f-3216c8110290","ios":"levelo://app?vid=9032fd9f-8258-4b06-828f-3216c8110290"},"vehicle_type_id":"4","last_reported":1744582114,"current_range_meters":16800,"station_id":"","pricing_plan_id":"cebpf4jnsgd1na2vs0mg"},{"bike_id":"24cc8415-ba84-4032-944d-d7ebfd214730","system_id":"levelo_inurba_marseille","lat":43.26556,"lon":5.37285,"is_reserved":false,"is_disabled":false,"rental_uris":{"android":"levelo://app?vid=24cc8415-ba84-4032-944d-d7ebfd214730","ios":"levelo://app?vid=24cc8415-ba84-4032-944d-d7ebfd214730"},"vehicle_type_id":"4","last_reported":1744582114,"current_range_meters":17200,"station_id":"ce4bhg12rcd13ifvqf70","pricing_plan_id":"cebpf4jnsgd1na2vs0mg"},{"bike_id":"216a8464-4ea5-4b56-8cd6-224becea39c4","system_id":"levelo_inurba_marseille","lat":43.27817,"lon":5.40723,"is_reserved":false,"is_disabled":false,"rental_uris":{"android":"levelo://app?vid=216a8464-4ea5-4b56-8cd6-224becea39c4","ios":"levelo://app?vid=216a8464-4ea5-4b56-8cd6-224becea39c4"},"vehicle_type_id":"4","last_reported":1744582114,"current_range_meters":17200,"station_id":"ce4bhnh2rcd13ifvqgtg","pricing_plan_id":"cebpf4jnsgd1na2vs0mg"},{"bike_id":"df49f249-4aa5-4aa6-9193-27ea889ed0d0","system_id":"levelo_inurba_marseille","lat":43.30462,"lon":5.38909,"is_reserved":false,"is_disabled":true,"rental_uris":{"android":"levelo://app?vid=df49f249-4aa5-4aa6-9193-27ea889ed0d0","ios":"levelo://app?vid=df49f249-4aa5-4aa6-9193-27ea889ed0d0"},"vehicle_type_id":"4","last_reported":1744582114,"current_range_meters":17200,"station_id":"ce4bgk12rcd13ifvqbi0","pricing_plan_id":"cebpf4jnsgd1na2vs0mg"},{"bike_id":"7397fdfe-7e90-496c-9947-80ce65e17a33","system_id":"levelo_inurba_marseille","lat":43.27821,"lon":5.39213,"is_reserved":false,"is_disabled":false,"rental_uris":{"android":"levelo://app?vid=7397fdfe-7e90-496c-9947-80ce65e17a33","ios":"levelo://app?vid=7397fdfe-7e90-496c-9947-80ce65e17a33"},"vehicle_type_id":"4","last_reported":1744582114,"current_range_meters":17200,"station_id":"ce4bhjp2rcd13ifvqga0","pricing_plan_id":"cebpf4jnsgd1na2vs0mg"},{"bike_id":"f92aa571-a3b5-4063-9c44-80d1db5d1a0f","system_id":"levelo_inurba_marseille","lat":43.31473,"lon":5.37381,"is_reserved":false,"is_disabled":false,"rental_uris":{"android":"levelo://app?vid=f92aa571-a3b5-4063-9c44-80d1db5d1a0f","ios":"levelo://app?vid=f92aa571-a3b5-4063-9c44-80d1db5d1a0f"},"vehicle_type_id":"4","last_reported":1744582114,"current_range_meters":17200,"station_id":"","pricing_plan_id":"cebpf4jnsgd1na2vs0mg"},{"bike_id":"27a55245-8dd2-4f1a-af63-95a9d7b71690","system_id":"levelo_inurba_marseille","lat":43.3108,"lon":5.37842,"is_reserved":false,"is_disabled":true,"rental_uris":{"android":"levelo://app?vid=27a55245-8dd2-4f1a-af63-95a9d7b71690","ios":"levelo://app?vid=27a55245-8dd2-4f1a-af63-95a9d7b71690"},"vehicle_type_id":"4","last_reported":1744582114,"current_range_meters":17200,"station_id":"","pricing_plan_id":"cebpf4jnsgd1na2vs0mg"},{"bike_id":"72ad346f-af5e-432a-a6d9-1168723b0f51","system_id":"levelo_inurba_marseille","lat":43.29815,"lon":5.4041,"is_reserved":false,"is_disabled":false,"rental_uris":{"android":"levelo://app?vid=72ad346f-af5e-432a-a6d9-1168723b0f51","ios":"levelo://app?vid=72ad346f-af5e-432a-a6d9-1168723b0f51"},"vehicle_type_id":"4","last_reported":1744582114,"current_range_meters":17200,"station_id":"ce4bh112rcd13ifvqd90","pricing_plan_id":"cebpf4jnsgd1na2vs0mg"},{"bike_id":"8e84781a-82c3-4b14-a541-78f95f1999c0","system_id":"levelo_inurba_marseille","lat":43.27453,"lon":5.39408,"is_reserved":false,"is_disabled":true,"rental_uris":{"android":"levelo://app?vid=8e84781a-82c3-4b14-a541-78f95f1999c0","ios":"levelo://app?vid=8e84781a-82c3-4b14-a541-78f95f1999c0"},"vehicle_type_id":"4","last_reported":1744582114,"current_range_meters":17600,"station_id":"ce4bhdp2rcd13ifvqf20","pricing_plan_id":"cebpf4jnsgd1na2vs0mg"},{"bike_id":"59c7d7f9-492d-4240-b3d4-e8d1015f1ebd","system_id":"levelo_inurba_marseille","lat":43.21755,"lon":5.34603,"is_reserved":false,"is_disabled":true,"rental_uris":{"android":"levelo://app?vid=59c7d7f9-492d-4240-b3d4-e8d1015f1ebd","ios":"levelo://app?vid=59c7d7f9-492d-4240-b3d4-e8d1015f1ebd"},"vehicle_type_id":"4","last_reported":1744582114,"current_range_meters":17600,"station_id":"st_cvj6r9ubvosntc0bgbag","pricing_plan_id":"cebpf4jnsgd1na2vs0mg"},{"bike_id":"8150261a-70ea-4a1d-9e71-78fcb6519d8e","system_id":"levelo_inurba_marseille","lat":43.29241,"lon":5.40048,"is_reserved":false,"is_disabled":false,"rental_uris":{"android":"levelo://app?vid=8150261a-70ea-4a1d-9e71-78fcb6519d8e","ios":"levelo://app?vid=8150261a-70ea-4a1d-9e71-78fcb6519d8e"},"vehicle_type_id":"4","last_reported":1744582114,"current_range_meters":17600,"station_id":"","pricing_plan_id":"cebpf4jnsgd1na2vs0mg"},{"bike_id":"fb13c941-1858-46a4-86ad-2a5e302996c3","system_id":"levelo_inurba_marseille","lat":43.25856,"lon":5.39931,"is_reserved":false,"is_disabled":true,"rental_uris":{"android":"levelo://app?vid=fb13c941-1858-46a4-86ad-2a5e302996c3","ios":"levelo://app?vid=fb13c941-1858-46a4-86ad-2a5e302996c3"},"vehicle_type_id":"4","last_reported":1744582114,"current_range_meters":17600,"station_id":"ce4bhl92rcd13ifvqghg","pricing_plan_id":"cebpf4jnsgd1na2vs0mg"},{"bike_id":"720ed923-7d26-4452-9884-782592164e35","system_id":"levelo_inurba_marseille","lat":43.28709,"lon":5.3999,"is_reserved":false,"is_disabled":false,"rental_uris":{"android":"levelo://app?vid=720ed923-7d26-4452-9884-782592164e35","ios":"levelo://app?vid=720ed923-7d26-4452-9884-782592164e35"},"vehicle_type_id":"4","last_reported":1744582114,"current_range_meters":17600,"station_id":"ce4bho92rcd13ifvqh3g","pricing_plan_id":"cebpf4jnsgd1na2vs0mg"},{"bike_id":"a6535ba8-9ced-4cad-b71b-a79f16af244f","system_id":"levelo_inurba_marseille","lat":43.24665,"lon":5.38164,"is_reserved":false,"is_disabled":false,"rental_uris":{"android":"levelo://app?vid=a6535ba8-9ced-4cad-b71b-a79f16af244f","ios":"levelo://app?vid=a6535ba8-9ced-4cad-b71b-a79f16af244f"},"vehicle_type_id":"4","last_reported":1744582114,"current_range_meters":18000,"station_id":"ce4bhih2rcd13ifvqfr0","pricing_plan_id":"cebpf4jnsgd1na2vs0mg"},{"bike_id":"10f9e84f-2f08-49b5-bb9a-785f0bd93774","system_id":"levelo_inurba_marseille","lat":43.27987,"lon":5.40021,"is_reserved":false,"is_disabled":false,"rental_uris":{"android":"levelo://app?vid=10f9e84f-2f08-49b5-bb9a-785f0bd93774","ios":"levelo://app?vid=10f9e84f-2f08-49b5-bb9a-785f0bd93774"},"vehicle_type_id":"4","last_reported":1744582114,"current_range_meters":18000,"station_id":"ce4bho92rcd13ifvqh4g","pricing_plan_id":"cebpf4jnsgd1na2vs0mg"},{"bike_id":"5eeaf609-4973-4475-b591-59c6ee1ca74d","system_id":"levelo_inurba_marseille","lat":43.29977,"lon":5.38487,"is_reserved":false,"is_disabled":false,"rental_uris":{"android":"levelo://app?vid=5eeaf609-4973-4475-b591-59c6ee1ca74d","ios":"levelo://app?vid=5eeaf609-4973-4475-b591-59c6ee1ca74d"},"vehicle_type_id":"4","last_reported":1744582114,"current_range_meters":18000,"station_id":"ce4bgj92rcd13ifvqbd0","pricing_plan_id":"cebpf4jnsgd1na2vs0mg"},{"bike_id":"b456b85c-8928-4a5a-9171-1132c2572ebe","system_id":"levelo_inurba_marseille","lat":43.267897,"lon":5.402542,"is_reserved":false,"is_disabled":false,"rental_uris":{"android":"levelo://app?vid=b456b85c-8928-4a5a-9171-1132c2572ebe","ios":"levelo://app?vid=b456b85c-8928-4a5a-9171-1132c2572ebe"},"vehicle_type_id":"4","last_reported":1744582114,"current_range_meters":18800,"station_id":"ce501612rcd8frsf0b60","pricing_plan_id":"cebpf4jnsgd1na2vs0mg"},{"bike_id":"407a54c4-ce42-4e1a-bc9b-9b8f2ef8a27a","system_id":"levelo_inurba_marseille","lat":43.32413,"lon":5.39122,"is_reserved":false,"is_disabled":false,"rental_uris":{"android":"levelo://app?vid=407a54c4-ce42-4e1a-bc9b-9b8f2ef8a27a","ios":"levelo://app?vid=407a54c4-ce42-4e1a-bc9b-9b8f2ef8a27a"},"vehicle_type_id":"4","last_reported":1744582114,"current_range_meters":18800,"station_id":"","pricing_plan_id":"cebpf4jnsgd1na2vs0mg"},{"bike_id":"93152d5b-49ec-4d2d-86a9-edb72bdfe75c","system_id":"levelo_inurba_marseille","lat":43.23958,"lon":5.36643,"is_reserved":false,"is_disabled":false,"rental_uris":{"android":"levelo://app?vid=93152d5b-49ec-4d2d-86a9-edb72bdfe75c","ios":"levelo://app?vid=93152d5b-49ec-4d2d-86a9-edb72bdfe75c"},"vehicle_type_id":"4","last_reported":1744582114,"current_range_meters":18800,"station_id":"ce4bhi12rcd13ifvqfp0","pricing_plan_id":"cebpf4jnsgd1na2vs0mg"},{"bike_id":"72ecbc85-7cd1-4418-be98-d8877b1e610a","system_id":"levelo_inurba_marseille","lat":43.28968,"lon":5.36622,"is_reserved":false,"is_disabled":false,"rental_uris":{"android":"levelo://app?vid=72ecbc85-7cd1-4418-be98-d8877b1e610a","ios":"levelo://app?vid=72ecbc85-7cd1-4418-be98-d8877b1e610a"},"vehicle_type_id":"4","last_reported":1744582114,"current_range_meters":18800,"station_id":"","pricing_plan_id":"cebpf4jnsgd1na2vs0mg"},{"bike_id":"7068e823-0ef7-4bec-9d46-9774d9ea3ba0","system_id":"levelo_inurba_marseille","lat":43.31487,"lon":5.37302,"is_reserved":false,"is_disabled":false,"rental_uris":{"android":"levelo://app?vid=7068e823-0ef7-4bec-9d46-9774d9ea3ba0","ios":"levelo://app?vid=7068e823-0ef7-4bec-9d46-9774d9ea3ba0"},"vehicle_type_id":"4","last_reported":1744582114,"current_range_meters":18800,"station_id":"ce4bgt12rcd13ifvqcd0","pricing_plan_id":"cebpf4jnsgd1na2vs0mg"},{"bike_id":"a8791189-08ab-44ed-9124-c68d4aa71e0a","system_id":"levelo_inurba_marseille","lat":43.28712,"lon":5.39977,"is_reserved":false,"is_disabled":false,"rental_uris":{"android":"levelo://app?vid=a8791189-08ab-44ed-9124-c68d4aa71e0a","ios":"levelo://app?vid=a8791189-08ab-44ed-9124-c68d4aa71e0a"},"vehicle_type_id":"4","last_reported":1744582114,"current_range_meters":18800,"station_id":"ce4bho92rcd13ifvqh3g","pricing_plan_id":"cebpf4jnsgd1na2vs0mg"},{"bike_id":"56135a82-d19f-45ea-a72c-58b1131d0fcb","system_id":"levelo_inurba_marseille","lat":43.2809,"lon":5.39656,"is_reserved":false,"is_disabled":true,"rental_uris":{"android":"levelo://app?vid=56135a82-d19f-45ea-a72c-58b1131d0fcb","ios":"levelo://app?vid=56135a82-d19f-45ea-a72c-58b1131d0fcb"},"vehicle_type_id":"4","last_reported":1744582114,"current_range_meters":18800,"station_id":"ce4bho12rcd13ifvqh2g","pricing_plan_id":"cebpf4jnsgd1na2vs0mg"},{"bike_id":"ac3c167b-6aff-4193-8f82-b9a885edc17c","system_id":"levelo_inurba_marseille","lat":43.28824,"lon":5.35863,"is_reserved":false,"is_disabled":false,"rental_uris":{"android":"levelo://app?vid=ac3c167b-6aff-4193-8f82-b9a885edc17c","ios":"levelo://app?vid=ac3c167b-6aff-4193-8f82-b9a885edc17c"},"vehicle_type_id":"4","last_reported":1744582114,"current_range_meters":18800,"station_id":"ce4bhb12rcd13ifvqem0","pricing_plan_id":"cebpf4jnsgd1na2vs0mg"},{"bike_id":"e23c1586-efd0-4043-8e03-1ad9b7450b00","system_id":"levelo_inurba_marseille","lat":43.28679,"lon":5.38663,"is_reserved":false,"is_disabled":false,"rental_uris":{"android":"levelo://app?vid=e23c1586-efd0-4043-8e03-1ad9b7450b00","ios":"levelo://app?vid=e23c1586-efd0-4043-8e03-1ad9b7450b00"},"vehicle_type_id":"4","last_reported":1744582114,"current_range_meters":19200,"station_id":"ce4bh492rcd13ifvqdug","pricing_plan_id":"cebpf4jnsgd1na2vs0mg"},{"bike_id":"1c7452f1-3408-419b-95dc-5244c9bdf58c","system_id":"levelo_inurba_marseille","lat":43.299149,"lon":5.374745,"is_reserved":false,"is_disabled":false,"rental_uris":{"android":"levelo://app?vid=1c7452f1-3408-419b-95dc-5244c9bdf58c","ios":"levelo://app?vid=1c7452f1-3408-419b-95dc-5244c9bdf58c"},"vehicle_type_id":"4","last_reported":1744582114,"current_range_meters":18800,"station_id":"ce4bgjh2rcd13ifvqbg0","pricing_plan_id":"cebpf4jnsgd1na2vs0mg"},{"bike_id":"626065a0-5dba-4dd3-94f8-76bb3800d58f","system_id":"levelo_inurba_marseille","lat":43.257,"lon":5.41128,"is_reserved":false,"is_disabled":false,"rental_uris":{"android":"levelo://app?vid=626065a0-5dba-4dd3-94f8-76bb3800d58f","ios":"levelo://app?vid=626065a0-5dba-4dd3-94f8-76bb3800d58f"},"vehicle_type_id":"4","last_reported":1744582114,"current_range_meters":19200,"station_id":"ce4bhkp2rcd13ifvqgd0","pricing_plan_id":"cebpf4jnsgd1na2vs0mg"},{"bike_id":"a818834f-725d-4dbb-9bab-d3518b1b13c4","system_id":"levelo_inurba_marseille","lat":43.32351,"lon":5.36743,"is_reserved":false,"is_disabled":false,"rental_uris":{"android":"levelo://app?vid=a818834f-725d-4dbb-9bab-d3518b1b13c4","ios":"levelo://app?vid=a818834f-725d-4dbb-9bab-d3518b1b13c4"},"vehicle_type_id":"4","last_reported":1744582114,"current_range_meters":19200,"station_id":"ce4bhsh2rcd13ifvqi2g","pricing_plan_id":"cebpf4jnsgd1na2vs0mg"},{"bike_id":"08e69920-6699-44a2-bf5e-065531bec167","system_id":"levelo_inurba_marseille","lat":43.29258,"lon":5.40117,"is_reserved":false,"is_disabled":true,"rental_uris":{"android":"levelo://app?vid=08e69920-6699-44a2-bf5e-065531bec167","ios":"levelo://app?vid=08e69920-6699-44a2-bf5e-065531bec167"},"vehicle_type_id":"4","last_reported":1744582114,"current_range_meters":19200,"station_id":"ce4bh312rcd13ifvqdk0","pricing_plan_id":"cebpf4jnsgd1na2vs0mg"},{"bike_id":"a60d7b62-256e-4184-956a-1f073b4fcf42","system_id":"levelo_inurba_marseille","lat":43.2992,"lon":5.36515,"is_reserved":false,"is_disabled":false,"rental_uris":{"android":"levelo://app?vid=a60d7b62-256e-4184-956a-1f073b4fcf42","ios":"levelo://app?vid=a60d7b62-256e-4184-956a-1f073b4fcf42"},"vehicle_type_id":"4","last_reported":1744582114,"current_range_meters":19200,"station_id":"ce4bgm92rcd13ifvqbr0","pricing_plan_id":"cebpf4jnsgd1na2vs0mg"},{"bike_id":"301f53d6-0a8d-48c7-b250-860880def1f4","system_id":"levelo_inurba_marseille","lat":43.31018,"lon":5.37106,"is_reserved":false,"is_disabled":false,"rental_uris":{"android":"levelo://app?vid=301f53d6-0a8d-48c7-b250-860880def1f4","ios":"levelo://app?vid=301f53d6-0a8d-48c7-b250-860880def1f4"},"vehicle_type_id":"4","last_reported":1744582114,"current_range_meters":19600,"station_id":"","pricing_plan_id":"cebpf4jnsgd1na2vs0mg"},{"bike_id":"c4dad776-b313-4b24-9e80-4bc6d43cf5a0","system_id":"levelo_inurba_marseille","lat":43.31487,"lon":5.37309,"is_reserved":false,"is_disabled":false,"rental_uris":{"android":"levelo://app?vid=c4dad776-b313-4b24-9e80-4bc6d43cf5a0","ios":"levelo://app?vid=c4dad776-b313-4b24-9e80-4bc6d43cf5a0"},"vehicle_type_id":"4","last_reported":1744582114,"current_range_meters":19600,"station_id":"ce4bgt12rcd13ifvqcd0","pricing_plan_id":"cebpf4jnsgd1na2vs0mg"},{"bike_id":"476f6d9d-e554-4b4c-ac09-a6fdfc49a8a4","system_id":"levelo_inurba_marseille","lat":43.3089,"lon":5.39639,"is_reserved":false,"is_disabled":false,"rental_uris":{"android":"levelo://app?vid=476f6d9d-e554-4b4c-ac09-a6fdfc49a8a4","ios":"levelo://app?vid=476f6d9d-e554-4b4c-ac09-a6fdfc49a8a4"},"vehicle_type_id":"4","last_reported":1744582114,"current_range_meters":19600,"station_id":"ce4bh012rcd13ifvqcv0","pricing_plan_id":"cebpf4jnsgd1na2vs0mg"},{"bike_id":"7c2a4588-bcf7-4c8d-b580-ff8de5ba6372","system_id":"levelo_inurba_marseille","lat":43.28734,"lon":5.40005,"is_reserved":false,"is_disabled":true,"rental_uris":{"android":"levelo://app?vid=7c2a4588-bcf7-4c8d-b580-ff8de5ba6372","ios":"levelo://app?vid=7c2a4588-bcf7-4c8d-b580-ff8de5ba6372"},"vehicle_type_id":"4","last_reported":1744582114,"current_range_meters":19600,"station_id":"ce4bho92rcd13ifvqh3g","pricing_plan_id":"cebpf4jnsgd1na2vs0mg"},{"bike_id":"f22fa8dc-6557-4cde-88db-5208b495088a","system_id":"levelo_inurba_marseille","lat":43.23975,"lon":5.36617,"is_reserved":false,"is_disabled":false,"rental_uris":{"android":"levelo://app?vid=f22fa8dc-6557-4cde-88db-5208b495088a","ios":"levelo://app?vid=f22fa8dc-6557-4cde-88db-5208b495088a"},"vehicle_type_id":"4","last_reported":1744582114,"current_range_meters":19600,"station_id":"ce4bhi12rcd13ifvqfp0","pricing_plan_id":"cebpf4jnsgd1na2vs0mg"},{"bike_id":"92acc3ad-3130-40c6-a9a1-3c9cc354f998","system_id":"levelo_inurba_marseille","lat":43.24393,"lon":5.37071,"is_reserved":false,"is_disabled":false,"rental_uris":{"android":"levelo://app?vid=92acc3ad-3130-40c6-a9a1-3c9cc354f998","ios":"levelo://app?vid=92acc3ad-3130-40c6-a9a1-3c9cc354f998"},"vehicle_type_id":"4","last_reported":1744582114,"current_range_meters":19600,"station_id":"ce4bhhh2rcd13ifvqfk0","pricing_plan_id":"cebpf4jnsgd1na2vs0mg"},{"bike_id":"86c06b03-5d3d-487a-bec3-c7d20381f28b","system_id":"levelo_inurba_marseille","lat":43.29035,"lon":5.38133,"is_reserved":false,"is_disabled":true,"rental_uris":{"android":"levelo://app?vid=86c06b03-5d3d-487a-bec3-c7d20381f28b","ios":"levelo://app?vid=86c06b03-5d3d-487a-bec3-c7d20381f28b"},"vehicle_type_id":"4","last_reported":1744582114,"current_range_meters":19600,"station_id":"ce4bh4p2rcd13ifvqe1g","pricing_plan_id":"cebpf4jnsgd1na2vs0mg"},{"bike_id":"86507adb-43c1-4a89-acc7-c74cd80a099f","system_id":"levelo_inurba_marseille","lat":43.23126,"lon":5.36665,"is_reserved":false,"is_disabled":false,"rental_uris":{"android":"levelo://app?vid=86507adb-43c1-4a89-acc7-c74cd80a099f","ios":"levelo://app?vid=86507adb-43c1-4a89-acc7-c74cd80a099f"},"vehicle_type_id":"4","last_reported":1744582114,"current_range_meters":19600,"station_id":"","pricing_plan_id":"cebpf4jnsgd1na2vs0mg"},{"bike_id":"b1e29b61-0823-402e-8aac-97ad7a834195","system_id":"levelo_inurba_marseille","lat":43.24805,"lon":5.37455,"is_reserved":false,"is_disabled":false,"rental_uris":{"android":"levelo://app?vid=b1e29b61-0823-402e-8aac-97ad7a834195","ios":"levelo://app?vid=b1e29b61-0823-402e-8aac-97ad7a834195"},"vehicle_type_id":"4","last_reported":1744582114,"current_range_meters":19600,"station_id":"ce4bhgh2rcd13ifvqfb0","pricing_plan_id":"cebpf4jnsgd1na2vs0mg"},{"bike_id":"46e1fc9d-0b93-4a87-b368-562a1bf4c38d","system_id":"levelo_inurba_marseille","lat":43.34131,"lon":5.40885,"is_reserved":false,"is_disabled":false,"rental_uris":{"android":"levelo://app?vid=46e1fc9d-0b93-4a87-b368-562a1bf4c38d","ios":"levelo://app?vid=46e1fc9d-0b93-4a87-b368-562a1bf4c38d"},"vehicle_type_id":"4","last_reported":1744582114,"current_range_meters":19600,"station_id":"ce4bhqh2rcd13ifvqhlg","pricing_plan_id":"cebpf4jnsgd1na2vs0mg"},{"bike_id":"9ccaf1e8-d14c-4218-be36-430bac425c11","system_id":"levelo_inurba_marseille","lat":43.30616,"lon":5.39355,"is_reserved":false,"is_disabled":true,"rental_uris":{"android":"levelo://app?vid=9ccaf1e8-d14c-4218-be36-430bac425c11","ios":"levelo://app?vid=9ccaf1e8-d14c-4218-be36-430bac425c11"},"vehicle_type_id":"4","last_reported":1744582114,"current_range_meters":20000,"station_id":"ce4bh0p2rcd13ifvqd80","pricing_plan_id":"cebpf4jnsgd1na2vs0mg"},{"bike_id":"bb35359e-3721-46df-9fce-d1af7b55b305","system_id":"levelo_inurba_marseille","lat":43.26507,"lon":5.39551,"is_reserved":false,"is_disabled":false,"rental_uris":{"android":"levelo://app?vid=bb35359e-3721-46df-9fce-d1af7b55b305","ios":"levelo://app?vid=bb35359e-3721-46df-9fce-d1af7b55b305"},"vehicle_type_id":"4","last_reported":1744582114,"current_range_meters":20000,"station_id":"ce4bhi12rcd13ifvqfq0","pricing_plan_id":"cebpf4jnsgd1na2vs0mg"},{"bike_id":"ec55715f-50ef-4b62-b932-d89df8729be7","system_id":"levelo_inurba_marseille","lat":43.31591,"lon":5.38863,"is_reserved":false,"is_disabled":false,"rental_uris":{"android":"levelo://app?vid=ec55715f-50ef-4b62-b932-d89df8729be7","ios":"levelo://app?vid=ec55715f-50ef-4b62-b932-d89df8729be7"},"vehicle_type_id":"4","last_reported":1744582114,"current_range_meters":20000,"station_id":"","pricing_plan_id":"cebpf4jnsgd1na2vs0mg"},{"bike_id":"38217dce-6f89-41ec-8a4d-a1e502da3258","system_id":"levelo_inurba_marseille","lat":43.26064,"lon":5.39399,"is_reserved":false,"is_disabled":false,"rental_uris":{"android":"levelo://app?vid=38217dce-6f89-41ec-8a4d-a1e502da3258","ios":"levelo://app?vid=38217dce-6f89-41ec-8a4d-a1e502da3258"},"vehicle_type_id":"4","last_reported":1744582114,"current_range_meters":20000,"station_id":"ce4bhh92rcd13ifvqfj0","pricing_plan_id":"cebpf4jnsgd1na2vs0mg"},{"bike_id":"f27f36b9-1bce-47fd-a43c-76ea52ae5f9a","system_id":"levelo_inurba_marseille","lat":43.29825,"lon":5.40402,"is_reserved":false,"is_disabled":false,"rental_uris":{"android":"levelo://app?vid=f27f36b9-1bce-47fd-a43c-76ea52ae5f9a","ios":"levelo://app?vid=f27f36b9-1bce-47fd-a43c-76ea52ae5f9a"},"vehicle_type_id":"4","last_reported":1744582114,"current_range_meters":20000,"station_id":"ce4bh112rcd13ifvqd90","pricing_plan_id":"cebpf4jnsgd1na2vs0mg"},{"bike_id":"05ef945a-87ec-42f8-9aba-7b0a3ccc320a","system_id":"levelo_inurba_marseille","lat":43.31727,"lon":5.42421,"is_reserved":false,"is_disabled":false,"rental_uris":{"android":"levelo://app?vid=05ef945a-87ec-42f8-9aba-7b0a3ccc320a","ios":"levelo://app?vid=05ef945a-87ec-42f8-9aba-7b0a3ccc320a"},"vehicle_type_id":"4","last_reported":1744582114,"current_range_meters":20000,"station_id":"ce4bhp92rcd13ifvqhbg","pricing_plan_id":"cebpf4jnsgd1na2vs0mg"},{"bike_id":"fb699e76-3264-4e44-9571-0622c9467b82","system_id":"levelo_inurba_marseille","lat":43.27918,"lon":5.39572,"is_reserved":false,"is_disabled":false,"rental_uris":{"android":"levelo://app?vid=fb699e76-3264-4e44-9571-0622c9467b82","ios":"levelo://app?vid=fb699e76-3264-4e44-9571-0622c9467b82"},"vehicle_type_id":"4","last_reported":1744582114,"current_range_meters":20400,"station_id":"ce4bhf92rcd13ifvqf40","pricing_plan_id":"cebpf4jnsgd1na2vs0mg"},{"bike_id":"cbe9e82b-ad36-4a15-9c2e-e807ab4c6685","system_id":"levelo_inurba_marseille","lat":43.27626,"lon":5.36108,"is_reserved":false,"is_disabled":false,"rental_uris":{"android":"levelo://app?vid=cbe9e82b-ad36-4a15-9c2e-e807ab4c6685","ios":"levelo://app?vid=cbe9e82b-ad36-4a15-9c2e-e807ab4c6685"},"vehicle_type_id":"4","last_reported":1744582114,"current_range_meters":20400,"station_id":"ce4bgj92rcd13ifvqbe0","pricing_plan_id":"cebpf4jnsgd1na2vs0mg"},{"bike_id":"c9807653-1569-422f-b993-c144fcd23f3b","system_id":"levelo_inurba_marseille","lat":43.28154,"lon":5.42645,"is_reserved":false,"is_disabled":false,"rental_uris":{"android":"levelo://app?vid=c9807653-1569-422f-b993-c144fcd23f3b","ios":"levelo://app?vid=c9807653-1569-422f-b993-c144fcd23f3b"},"vehicle_type_id":"4","last_reported":1744582114,"current_range_meters":20400,"station_id":"ce4bhnh2rcd13ifvqgug","pricing_plan_id":"cebpf4jnsgd1na2vs0mg"},{"bike_id":"9eadf9cf-7f7e-4421-9c46-553525e13da4","system_id":"levelo_inurba_marseille","lat":43.30143,"lon":5.3984,"is_reserved":false,"is_disabled":false,"rental_uris":{"android":"levelo://app?vid=9eadf9cf-7f7e-4421-9c46-553525e13da4","ios":"levelo://app?vid=9eadf9cf-7f7e-4421-9c46-553525e13da4"},"vehicle_type_id":"4","last_reported":1744582114,"current_range_meters":20000,"station_id":"ce4bh0h2rcd13ifvqd40","pricing_plan_id":"cebpf4jnsgd1na2vs0mg"},{"bike_id":"4b2df0e3-30a2-4aeb-a7ac-9a581d090790","system_id":"levelo_inurba_marseille","lat":43.29278,"lon":5.40115,"is_reserved":false,"is_disabled":false,"rental_uris":{"android":"levelo://app?vid=4b2df0e3-30a2-4aeb-a7ac-9a581d090790","ios":"levelo://app?vid=4b2df0e3-30a2-4aeb-a7ac-9a581d090790"},"vehicle_type_id":"4","last_reported":1744582114,"current_range_meters":20800,"station_id":"ce4bh312rcd13ifvqdk0","pricing_plan_id":"cebpf4jnsgd1na2vs0mg"},{"bike_id":"a475f994-da62-44d6-8aa4-95338c19573c","system_id":"levelo_inurba_marseille","lat":43.28438,"lon":5.39202,"is_reserved":false,"is_disabled":false,"rental_uris":{"android":"levelo://app?vid=a475f994-da62-44d6-8aa4-95338c19573c","ios":"levelo://app?vid=a475f994-da62-44d6-8aa4-95338c19573c"},"vehicle_type_id":"4","last_reported":1744582114,"current_range_meters":20800,"station_id":"ce4bhoh2rcd13ifvqh5g","pricing_plan_id":"cebpf4jnsgd1na2vs0mg"},{"bike_id":"730c5e85-5d7c-4ba0-bad9-be798910c304","system_id":"levelo_inurba_marseille","lat":43.2944,"lon":5.39758,"is_reserved":false,"is_disabled":false,"rental_uris":{"android":"levelo://app?vid=730c5e85-5d7c-4ba0-bad9-be798910c304","ios":"levelo://app?vid=730c5e85-5d7c-4ba0-bad9-be798910c304"},"vehicle_type_id":"4","last_reported":1744582114,"current_range_meters":20800,"station_id":"ce4bh3h2rcd13ifvqdo0","pricing_plan_id":"cebpf4jnsgd1na2vs0mg"},{"bike_id":"4d88e192-340a-4e05-bf4a-582b8adef399","system_id":"levelo_inurba_marseille","lat":43.30655,"lon":5.40095,"is_reserved":false,"is_disabled":false,"rental_uris":{"android":"levelo://app?vid=4d88e192-340a-4e05-bf4a-582b8adef399","ios":"levelo://app?vid=4d88e192-340a-4e05-bf4a-582b8adef399"},"vehicle_type_id":"4","last_reported":1744582114,"current_range_meters":20800,"station_id":"ce4bh112rcd13ifvqda0","pricing_plan_id":"cebpf4jnsgd1na2vs0mg"},{"bike_id":"1db2c28a-e0ef-4f48-818f-eb01d86707b7","system_id":"levelo_inurba_marseille","lat":43.29266,"lon":5.40928,"is_reserved":false,"is_disabled":true,"rental_uris":{"android":"levelo://app?vid=1db2c28a-e0ef-4f48-818f-eb01d86707b7","ios":"levelo://app?vid=1db2c28a-e0ef-4f48-818f-eb01d86707b7"},"vehicle_type_id":"4","last_reported":1744582114,"current_range_meters":20800,"station_id":"ce4bh192rcd13ifvqdc0","pricing_plan_id":"cebpf4jnsgd1na2vs0mg"},{"bike_id":"205a676e-388e-4b5d-b5d4-92bca6b76c07","system_id":"levelo_inurba_marseille","lat":43.31155,"lon":5.38016,"is_reserved":false,"is_disabled":false,"rental_uris":{"android":"levelo://app?vid=205a676e-388e-4b5d-b5d4-92bca6b76c07","ios":"levelo://app?vid=205a676e-388e-4b5d-b5d4-92bca6b76c07"},"vehicle_type_id":"4","last_reported":1744582114,"current_range_meters":20800,"station_id":"","pricing_plan_id":"cebpf4jnsgd1na2vs0mg"},{"bike_id":"b29efbe8-db41-498c-a99e-45a39795718c","system_id":"levelo_inurba_marseille","lat":43.33607,"lon":5.40916,"is_reserved":false,"is_disabled":false,"rental_uris":{"android":"levelo://app?vid=b29efbe8-db41-498c-a99e-45a39795718c","ios":"levelo://app?vid=b29efbe8-db41-498c-a99e-45a39795718c"},"vehicle_type_id":"4","last_reported":1744582114,"current_range_meters":21600,"station_id":"ce4bhqh2rcd13ifvqhmg","pricing_plan_id":"cebpf4jnsgd1na2vs0mg"},{"bike_id":"17eac8dc-4f38-4dfe-b351-de45fcef0301","system_id":"levelo_inurba_marseille","lat":43.27922,"lon":5.39581,"is_reserved":false,"is_disabled":false,"rental_uris":{"android":"levelo://app?vid=17eac8dc-4f38-4dfe-b351-de45fcef0301","ios":"levelo://app?vid=17eac8dc-4f38-4dfe-b351-de45fcef0301"},"vehicle_type_id":"4","last_reported":1744582114,"current_range_meters":21600,"station_id":"ce4bhf92rcd13ifvqf40","pricing_plan_id":"cebpf4jnsgd1na2vs0mg"},{"bike_id":"0f9fb95e-4043-4007-9a12-982fef975ad2","system_id":"levelo_inurba_marseille","lat":43.286582,"lon":5.413228,"is_reserved":false,"is_disabled":false,"rental_uris":{"android":"levelo://app?vid=0f9fb95e-4043-4007-9a12-982fef975ad2","ios":"levelo://app?vid=0f9fb95e-4043-4007-9a12-982fef975ad2"},"vehicle_type_id":"4","last_reported":1744582114,"current_range_meters":21600,"station_id":"ce4bhnh2rcd13ifvqgug","pricing_plan_id":"cebpf4jnsgd1na2vs0mg"},{"bike_id":"0c89cc46-3a4b-4000-b641-0c7712c59585","system_id":"levelo_inurba_marseille","lat":43.30326,"lon":5.37504,"is_reserved":false,"is_disabled":true,"rental_uris":{"android":"levelo://app?vid=0c89cc46-3a4b-4000-b641-0c7712c59585","ios":"levelo://app?vid=0c89cc46-3a4b-4000-b641-0c7712c59585"},"vehicle_type_id":"4","last_reported":1744582114,"current_range_meters":21600,"station_id":"","pricing_plan_id":"cebpf4jnsgd1na2vs0mg"},{"bike_id":"382a1a40-cce5-4bcf-8677-ad51fb5a2457","system_id":"levelo_inurba_marseille","lat":43.28835,"lon":5.39352,"is_reserved":false,"is_disabled":true,"rental_uris":{"android":"levelo://app?vid=382a1a40-cce5-4bcf-8677-ad51fb5a2457","ios":"levelo://app?vid=382a1a40-cce5-4bcf-8677-ad51fb5a2457"},"vehicle_type_id":"4","last_reported":1744582114,"current_range_meters":21600,"station_id":"ce4bh2p2rcd13ifvqdi0","pricing_plan_id":"cebpf4jnsgd1na2vs0mg"},{"bike_id":"e951b6c2-47b9-4111-a7ec-03f8051784e9","system_id":"levelo_inurba_marseille","lat":43.25903,"lon":5.40891,"is_reserved":false,"is_disabled":false,"rental_uris":{"android":"levelo://app?vid=e951b6c2-47b9-4111-a7ec-03f8051784e9","ios":"levelo://app?vid=e951b6c2-47b9-4111-a7ec-03f8051784e9"},"vehicle_type_id":"4","last_reported":1744582114,"current_range_meters":21600,"station_id":"ce4bhm92rcd13ifvqglg","pricing_plan_id":"cebpf4jnsgd1na2vs0mg"},{"bike_id":"61788b27-74ee-400b-92ea-fa87486fb4d1","system_id":"levelo_inurba_marseille","lat":43.32999,"lon":5.43856,"is_reserved":false,"is_disabled":false,"rental_uris":{"android":"levelo://app?vid=61788b27-74ee-400b-92ea-fa87486fb4d1","ios":"levelo://app?vid=61788b27-74ee-400b-92ea-fa87486fb4d1"},"vehicle_type_id":"4","last_reported":1744582114,"current_range_meters":22000,"station_id":"","pricing_plan_id":"cebpf4jnsgd1na2vs0mg"},{"bike_id":"1e8cc7af-6955-45de-96fb-b930b948e842","system_id":"levelo_inurba_marseille","lat":43.30597,"lon":5.39353,"is_reserved":false,"is_disabled":false,"rental_uris":{"android":"levelo://app?vid=1e8cc7af-6955-45de-96fb-b930b948e842","ios":"levelo://app?vid=1e8cc7af-6955-45de-96fb-b930b948e842"},"vehicle_type_id":"4","last_reported":1744582114,"current_range_meters":22000,"station_id":"ce4bh0p2rcd13ifvqd80","pricing_plan_id":"cebpf4jnsgd1na2vs0mg"},{"bike_id":"37ea3314-df3d-4c70-ae4d-8a3f12bd8c11","system_id":"levelo_inurba_marseille","lat":43.23154,"lon":5.43713,"is_reserved":false,"is_disabled":false,"rental_uris":{"android":"levelo://app?vid=37ea3314-df3d-4c70-ae4d-8a3f12bd8c11","ios":"levelo://app?vid=37ea3314-df3d-4c70-ae4d-8a3f12bd8c11"},"vehicle_type_id":"4","last_reported":1744582114,"current_range_meters":21600,"station_id":"","pricing_plan_id":"cebpf4jnsgd1na2vs0mg"},{"bike_id":"d2d37f01-fa46-4fbc-a721-7789f4003663","system_id":"levelo_inurba_marseille","lat":43.24963,"lon":5.38952,"is_reserved":false,"is_disabled":false,"rental_uris":{"android":"levelo://app?vid=d2d37f01-fa46-4fbc-a721-7789f4003663","ios":"levelo://app?vid=d2d37f01-fa46-4fbc-a721-7789f4003663"},"vehicle_type_id":"4","last_reported":1744582114,"current_range_meters":22000,"station_id":"","pricing_plan_id":"cebpf4jnsgd1na2vs0mg"},{"bike_id":"7b98c8bb-62d9-4cd3-a36f-0a17b94f78cd","system_id":"levelo_inurba_marseille","lat":43.23479,"lon":5.38079,"is_reserved":false,"is_disabled":false,"rental_uris":{"android":"levelo://app?vid=7b98c8bb-62d9-4cd3-a36f-0a17b94f78cd","ios":"levelo://app?vid=7b98c8bb-62d9-4cd3-a36f-0a17b94f78cd"},"vehicle_type_id":"4","last_reported":1744582114,"current_range_meters":22000,"station_id":"","pricing_plan_id":"cebpf4jnsgd1na2vs0mg"},{"bike_id":"468f8b85-c30d-4a82-a61b-d8ed9e522211","system_id":"levelo_inurba_marseille","lat":43.28458,"lon":5.35874,"is_reserved":false,"is_disabled":false,"rental_uris":{"android":"levelo://app?vid=468f8b85-c30d-4a82-a61b-d8ed9e522211","ios":"levelo://app?vid=468f8b85-c30d-4a82-a61b-d8ed9e522211"},"vehicle_type_id":"4","last_reported":1744582114,"current_range_meters":22400,"station_id":"ce4bhah2rcd13ifvqei0","pricing_plan_id":"cebpf4jnsgd1na2vs0mg"},{"bike_id":"8ba8da06-09b4-4e35-9af5-e823a105a352","system_id":"levelo_inurba_marseille","lat":43.230705,"lon":5.355105,"is_reserved":false,"is_disabled":false,"rental_uris":{"android":"levelo://app?vid=8ba8da06-09b4-4e35-9af5-e823a105a352","ios":"levelo://app?vid=8ba8da06-09b4-4e35-9af5-e823a105a352"},"vehicle_type_id":"4","last_reported":1744582114,"current_range_meters":22400,"station_id":"cpo3342slgdg3j2ifvpg","pricing_plan_id":"cebpf4jnsgd1na2vs0mg"},{"bike_id":"7b373de9-a4fc-42ba-a0cd-5e438d52420c","system_id":"levelo_inurba_marseille","lat":43.27906,"lon":5.39582,"is_reserved":false,"is_disabled":false,"rental_uris":{"android":"levelo://app?vid=7b373de9-a4fc-42ba-a0cd-5e438d52420c","ios":"levelo://app?vid=7b373de9-a4fc-42ba-a0cd-5e438d52420c"},"vehicle_type_id":"4","last_reported":1744582114,"current_range_meters":22400,"station_id":"ce4bhf92rcd13ifvqf40","pricing_plan_id":"cebpf4jnsgd1na2vs0mg"},{"bike_id":"0dbb8451-6fbf-4474-9639-bd687b68c8c2","system_id":"levelo_inurba_marseille","lat":43.31577,"lon":5.37438,"is_reserved":false,"is_disabled":false,"rental_uris":{"android":"levelo://app?vid=0dbb8451-6fbf-4474-9639-bd687b68c8c2","ios":"levelo://app?vid=0dbb8451-6fbf-4474-9639-bd687b68c8c2"},"vehicle_type_id":"4","last_reported":1744582114,"current_range_meters":22400,"station_id":"","pricing_plan_id":"cebpf4jnsgd1na2vs0mg"},{"bike_id":"8712c4fb-fd70-4efb-a2f3-0da4120a3f95","system_id":"levelo_inurba_marseille","lat":43.31164,"lon":5.38688,"is_reserved":false,"is_disabled":true,"rental_uris":{"android":"levelo://app?vid=8712c4fb-fd70-4efb-a2f3-0da4120a3f95","ios":"levelo://app?vid=8712c4fb-fd70-4efb-a2f3-0da4120a3f95"},"vehicle_type_id":"4","last_reported":1744582114,"current_range_meters":22400,"station_id":"ce4bgv12rcd13ifvqcp0","pricing_plan_id":"cebpf4jnsgd1na2vs0mg"},{"bike_id":"b645c4d4-d941-43da-81dd-7656dbc6ad28","system_id":"levelo_inurba_marseille","lat":43.326108,"lon":5.409466,"is_reserved":false,"is_disabled":false,"rental_uris":{"android":"levelo://app?vid=b645c4d4-d941-43da-81dd-7656dbc6ad28","ios":"levelo://app?vid=b645c4d4-d941-43da-81dd-7656dbc6ad28"},"vehicle_type_id":"4","last_reported":1744582114,"current_range_meters":22400,"station_id":"ce4bhqh2rcd13ifvqhmg","pricing_plan_id":"cebpf4jnsgd1na2vs0mg"},{"bike_id":"f2b958c0-24a2-4e27-9609-9870f4395933","system_id":"levelo_inurba_marseille","lat":43.29049,"lon":5.3999,"is_reserved":false,"is_disabled":true,"rental_uris":{"android":"levelo://app?vid=f2b958c0-24a2-4e27-9609-9870f4395933","ios":"levelo://app?vid=f2b958c0-24a2-4e27-9609-9870f4395933"},"vehicle_type_id":"4","last_reported":1744582114,"current_range_meters":22800,"station_id":"ce4bh392rcd13ifvqdm0","pricing_plan_id":"cebpf4jnsgd1na2vs0mg"},{"bike_id":"bc7f3646-d64f-4e8d-900f-b7490af21685","system_id":"levelo_inurba_marseille","lat":43.29524,"lon":5.39403,"is_reserved":false,"is_disabled":false,"rental_uris":{"android":"levelo://app?vid=bc7f3646-d64f-4e8d-900f-b7490af21685","ios":"levelo://app?vid=bc7f3646-d64f-4e8d-900f-b7490af21685"},"vehicle_type_id":"4","last_reported":1744582114,"current_range_meters":22800,"station_id":"ce4bh292rcd13ifvqdf0","pricing_plan_id":"cebpf4jnsgd1na2vs0mg"},{"bike_id":"bbaf0c83-6bba-46e5-8e6f-9127105744be","system_id":"levelo_inurba_marseille","lat":43.26804,"lon":5.40265,"is_reserved":false,"is_disabled":false,"rental_uris":{"android":"levelo://app?vid=bbaf0c83-6bba-46e5-8e6f-9127105744be","ios":"levelo://app?vid=bbaf0c83-6bba-46e5-8e6f-9127105744be"},"vehicle_type_id":"4","last_reported":1744582114,"current_range_meters":22800,"station_id":"ce501612rcd8frsf0b60","pricing_plan_id":"cebpf4jnsgd1na2vs0mg"},{"bike_id":"e0d2759b-65a8-4e12-b59a-3c32c94666b7","system_id":"levelo_inurba_marseille","lat":43.31076,"lon":5.38345,"is_reserved":false,"is_disabled":false,"rental_uris":{"android":"levelo://app?vid=e0d2759b-65a8-4e12-b59a-3c32c94666b7","ios":"levelo://app?vid=e0d2759b-65a8-4e12-b59a-3c32c94666b7"},"vehicle_type_id":"4","last_reported":1744582114,"current_range_meters":22800,"station_id":"ce4bgv92rcd13ifvqcr0","pricing_plan_id":"cebpf4jnsgd1na2vs0mg"},{"bike_id":"12fa8c2b-ae7c-4e8e-9096-066e0ad31116","system_id":"levelo_inurba_marseille","lat":43.28271,"lon":5.35063,"is_reserved":false,"is_disabled":false,"rental_uris":{"android":"levelo://app?vid=12fa8c2b-ae7c-4e8e-9096-066e0ad31116","ios":"levelo://app?vid=12fa8c2b-ae7c-4e8e-9096-066e0ad31116"},"vehicle_type_id":"4","last_reported":1744582114,"current_range_meters":22800,"station_id":"ce4bhbp2rcd13ifvqerg","pricing_plan_id":"cebpf4jnsgd1na2vs0mg"},{"bike_id":"469cac9e-0c72-4c46-a796-98a152ab1135","system_id":"levelo_inurba_marseille","lat":43.23534,"lon":5.4133,"is_reserved":false,"is_disabled":false,"rental_uris":{"android":"levelo://app?vid=469cac9e-0c72-4c46-a796-98a152ab1135","ios":"levelo://app?vid=469cac9e-0c72-4c46-a796-98a152ab1135"},"vehicle_type_id":"4","last_reported":1744582114,"current_range_meters":22800,"station_id":"","pricing_plan_id":"cebpf4jnsgd1na2vs0mg"},{"bike_id":"a5a25820-1dcf-4110-a407-b33e16e478ca","system_id":"levelo_inurba_marseille","lat":43.2808,"lon":5.39641,"is_reserved":false,"is_disabled":false,"rental_uris":{"android":"levelo://app?vid=a5a25820-1dcf-4110-a407-b33e16e478ca","ios":"levelo://app?vid=a5a25820-1dcf-4110-a407-b33e16e478ca"},"vehicle_type_id":"4","last_reported":1744582114,"current_range_meters":22800,"station_id":"ce4bho12rcd13ifvqh2g","pricing_plan_id":"cebpf4jnsgd1na2vs0mg"},{"bike_id":"315eb489-a255-48a1-be36-39f7329fe376","system_id":"levelo_inurba_marseille","lat":43.299622,"lon":5.384822,"is_reserved":false,"is_disabled":false,"rental_uris":{"android":"levelo://app?vid=315eb489-a255-48a1-be36-39f7329fe376","ios":"levelo://app?vid=315eb489-a255-48a1-be36-39f7329fe376"},"vehicle_type_id":"4","last_reported":1744582114,"current_range_meters":22800,"station_id":"ce4bhqh2rcd13ifvqhmg","pricing_plan_id":"cebpf4jnsgd1na2vs0mg"},{"bike_id":"d2e7b202-c0a7-4bdc-b207-26c7ead4fb9c","system_id":"levelo_inurba_marseille","lat":43.265558,"lon":5.373129,"is_reserved":false,"is_disabled":true,"rental_uris":{"android":"levelo://app?vid=d2e7b202-c0a7-4bdc-b207-26c7ead4fb9c","ios":"levelo://app?vid=d2e7b202-c0a7-4bdc-b207-26c7ead4fb9c"},"vehicle_type_id":"4","last_reported":1744582114,"current_range_meters":22800,"station_id":"ce4bhg12rcd13ifvqf70","pricing_plan_id":"cebpf4jnsgd1na2vs0mg"},{"bike_id":"40e32cee-9c94-4ec8-8cc1-dfc745c5629a","system_id":"levelo_inurba_marseille","lat":43.24171,"lon":5.36409,"is_reserved":false,"is_disabled":false,"rental_uris":{"android":"levelo://app?vid=40e32cee-9c94-4ec8-8cc1-dfc745c5629a","ios":"levelo://app?vid=40e32cee-9c94-4ec8-8cc1-dfc745c5629a"},