{"last_updated":1776790020,"ttl":60,"version":"2.2","data":{"bikes":[{"bike_id":"4d4dc850-6cc3-4284-a98a-72cf4e34b1db","system_id":"levelo_inurba_marseille","lat":43.29272,"lon":5.38448,"is_reserved":false,"is_disabled":false,"rental_uris":{"android":"levelo://app?vid=4d4dc850-6cc3-4284-a98a-72cf4e34b1db","ios":"levelo://app?vid=4d4dc850-6cc3-4284-a98a-72cf4e34b1db"},"vehicle_type_id":"4","last_reported":1776790021,"current_range_meters":2800,"station_id":"ce4bh692rcd13ifvqea0","pricing_plan_id":"cebpf4jnsgd1na2vs0mg"},{"bike_id":"921f8208-07d2-440e-a776-4857feacdf16","system_id":"levelo_inurba_marseille","lat":43.27676,"lon":5.38937,"is_reserved":false,"is_disabled":false,"rental_uris":{"android":"levelo://app?vid=921f8208-07d2-440e-a776-4857feacdf16","ios":"levelo://app?vid=921f8208-07d2-440e-a776-4857feacdf16"},"vehicle_type_id":"4","last_reported":1776790021,"current_range_meters":2800,"station_id":"ce4bhi12rcd13ifvqfo0","pricing_plan_id":"cebpf4jnsgd1na2vs0mg"},{"bike_id":"29c6ec60-a00a-4541-b977-704d6b03700d","system_id":"levelo_inurba_marseille","lat":43.29813,"lon":5.38098,"is_reserved":false,"is_disabled":false,"rental_uris":{"android":"levelo://app?vid=29c6ec60-a00a-4541-b977-704d6b03700d","ios":"levelo://app?vid=29c6ec60-a00a-4541-b977-704d6b03700d"},"vehicle_type_id":"4","last_reported":1776790021,"current_range_meters":2800,"station_id":"ce4bgip2rcd13ifvqbb0","pricing_plan_id":"cebpf4jnsgd1na2vs0mg"},{"bike_id":"a7020a93-7c00-4fec-b1a2-4f1670bbc6d7","system_id":"levelo_inurba_marseille","lat":43.23842,"lon":5.41346,"is_reserved":false,"is_disabled":false,"rental_uris":{"android":"levelo://app?vid=a7020a93-7c00-4fec-b1a2-4f1670bbc6d7","ios":"levelo://app?vid=a7020a93-7c00-4fec-b1a2-4f1670bbc6d7"},"vehicle_type_id":"4","last_reported":1776790021,"current_range_meters":2800,"station_id":"","pricing_plan_id":"cebpf4jnsgd1na2vs0mg"},{"bike_id":"42ddb006-6c78-499d-a6fa-8d3d53105855","system_id":"levelo_inurba_marseille","lat":43.27194,"lon":5.40977,"is_reserved":false,"is_disabled":false,"rental_uris":{"android":"levelo://app?vid=42ddb006-6c78-499d-a6fa-8d3d53105855","ios":"levelo://app?vid=42ddb006-6c78-499d-a6fa-8d3d53105855"},"vehicle_type_id":"4","last_reported":1776790021,"current_range_meters":2800,"station_id":"ce4bhl12rcd13ifvqgf0","pricing_plan_id":"cebpf4jnsgd1na2vs0mg"},{"bike_id":"0276d1a9-ff15-4953-816f-4f8e9d9a6acf","system_id":"levelo_inurba_marseille","lat":43.29614,"lon":5.3718,"is_reserved":false,"is_disabled":false,"rental_uris":{"android":"levelo://app?vid=0276d1a9-ff15-4953-816f-4f8e9d9a6acf","ios":"levelo://app?vid=0276d1a9-ff15-4953-816f-4f8e9d9a6acf"},"vehicle_type_id":"4","last_reported":1776790021,"current_range_meters":2800,"station_id":"ce4bgnh2rcd13ifvqc0g","pricing_plan_id":"cebpf4jnsgd1na2vs0mg"},{"bike_id":"0f5113d1-d0df-41dd-a910-454fc6a0c468","system_id":"levelo_inurba_marseille","lat":43.27391,"lon":5.36258,"is_reserved":false,"is_disabled":false,"rental_uris":{"android":"levelo://app?vid=0f5113d1-d0df-41dd-a910-454fc6a0c468","ios":"levelo://app?vid=0f5113d1-d0df-41dd-a910-454fc6a0c468"},"vehicle_type_id":"4","last_reported":1776790021,"current_range_meters":2800,"station_id":"ce4bhbh2rcd13ifvqeo0","pricing_plan_id":"cebpf4jnsgd1na2vs0mg"},{"bike_id":"a30b841b-541f-4e52-830e-62d4b76b3ef1","system_id":"levelo_inurba_marseille","lat":43.30283,"lon":5.37705,"is_reserved":false,"is_disabled":false,"rental_uris":{"android":"levelo://app?vid=a30b841b-541f-4e52-830e-62d4b76b3ef1","ios":"levelo://app?vid=a30b841b-541f-4e52-830e-62d4b76b3ef1"},"vehicle_type_id":"4","last_reported":1776790021,"current_range_meters":2800,"station_id":"ce4bguh2rcd13ifvqcj0","pricing_plan_id":"cebpf4jnsgd1na2vs0mg"},{"bike_id":"48713af2-72c3-4ac6-97df-5f2e919c9f23","system_id":"levelo_inurba_marseille","lat":43.29051,"lon":5.4271,"is_reserved":false,"is_disabled":false,"rental_uris":{"android":"levelo://app?vid=48713af2-72c3-4ac6-97df-5f2e919c9f23","ios":"levelo://app?vid=48713af2-72c3-4ac6-97df-5f2e919c9f23"},"vehicle_type_id":"4","last_reported":1776790021,"current_range_meters":3200,"station_id":"","pricing_plan_id":"cebpf4jnsgd1na2vs0mg"},{"bike_id":"12f1e97f-d259-447c-9165-592224195b34","system_id":"levelo_inurba_marseille","lat":43.31708,"lon":5.37752,"is_reserved":false,"is_disabled":false,"rental_uris":{"android":"levelo://app?vid=12f1e97f-d259-447c-9165-592224195b34","ios":"levelo://app?vid=12f1e97f-d259-447c-9165-592224195b34"},"vehicle_type_id":"4","last_reported":1776790021,"current_range_meters":3200,"station_id":"ce4bgth2rcd13ifvqch0","pricing_plan_id":"cebpf4jnsgd1na2vs0mg"},{"bike_id":"ae327807-d8ff-45af-b8c4-c90d3303c082","system_id":"levelo_inurba_marseille","lat":43.28476,"lon":5.48393,"is_reserved":false,"is_disabled":false,"rental_uris":{"android":"levelo://app?vid=ae327807-d8ff-45af-b8c4-c90d3303c082","ios":"levelo://app?vid=ae327807-d8ff-45af-b8c4-c90d3303c082"},"vehicle_type_id":"4","last_reported":1776790021,"current_range_meters":3200,"station_id":"","pricing_plan_id":"cebpf4jnsgd1na2vs0mg"},{"bike_id":"a2e0a403-6fb6-4418-9b19-ecf66709fae6","system_id":"levelo_inurba_marseille","lat":43.28698,"lon":5.46686,"is_reserved":false,"is_disabled":false,"rental_uris":{"android":"levelo://app?vid=a2e0a403-6fb6-4418-9b19-ecf66709fae6","ios":"levelo://app?vid=a2e0a403-6fb6-4418-9b19-ecf66709fae6"},"vehicle_type_id":"4","last_reported":1776790021,"current_range_meters":3200,"station_id":"st_d6tc3vkotcvc738tfjhg","pricing_plan_id":"cebpf4jnsgd1na2vs0mg"},{"bike_id":"973797d2-0b74-4f66-a28c-727366823c4e","system_id":"levelo_inurba_marseille","lat":43.27159,"lon":5.40981,"is_reserved":false,"is_disabled":false,"rental_uris":{"android":"levelo://app?vid=973797d2-0b74-4f66-a28c-727366823c4e","ios":"levelo://app?vid=973797d2-0b74-4f66-a28c-727366823c4e"},"vehicle_type_id":"4","last_reported":1776790021,"current_range_meters":3200,"station_id":"ce4bhl12rcd13ifvqgf0","pricing_plan_id":"cebpf4jnsgd1na2vs0mg"},{"bike_id":"a2f16209-a68b-401b-91f8-28a5abbac2b6","system_id":"levelo_inurba_marseille","lat":43.29426,"lon":5.37384,"is_reserved":false,"is_disabled":false,"rental_uris":{"android":"levelo://app?vid=a2f16209-a68b-401b-91f8-28a5abbac2b6","ios":"levelo://app?vid=a2f16209-a68b-401b-91f8-28a5abbac2b6"},"vehicle_type_id":"4","last_reported":1776790021,"current_range_meters":3200,"station_id":"","pricing_plan_id":"cebpf4jnsgd1na2vs0mg"},{"bike_id":"7177c66a-e5e5-49a6-8582-0e08e8184f67","system_id":"levelo_inurba_marseille","lat":43.28468,"lon":5.35884,"is_reserved":false,"is_disabled":false,"rental_uris":{"android":"levelo://app?vid=7177c66a-e5e5-49a6-8582-0e08e8184f67","ios":"levelo://app?vid=7177c66a-e5e5-49a6-8582-0e08e8184f67"},"vehicle_type_id":"4","last_reported":1776790021,"current_range_meters":3200,"station_id":"ce4bhah2rcd13ifvqei0","pricing_plan_id":"cebpf4jnsgd1na2vs0mg"},{"bike_id":"91f13632-e19e-4a44-8ac2-0ec92c0781b9","system_id":"levelo_inurba_marseille","lat":43.31056,"lon":5.39372,"is_reserved":false,"is_disabled":false,"rental_uris":{"android":"levelo://app?vid=91f13632-e19e-4a44-8ac2-0ec92c0781b9","ios":"levelo://app?vid=91f13632-e19e-4a44-8ac2-0ec92c0781b9"},"vehicle_type_id":"4","last_reported":1776790021,"current_range_meters":3200,"station_id":"","pricing_plan_id":"cebpf4jnsgd1na2vs0mg"},{"bike_id":"fe7a43f5-ab71-40ac-abd9-ec12cd2a3c8f","system_id":"levelo_inurba_marseille","lat":43.26501,"lon":5.3954,"is_reserved":false,"is_disabled":false,"rental_uris":{"android":"levelo://app?vid=fe7a43f5-ab71-40ac-abd9-ec12cd2a3c8f","ios":"levelo://app?vid=fe7a43f5-ab71-40ac-abd9-ec12cd2a3c8f"},"vehicle_type_id":"4","last_reported":1776790021,"current_range_meters":3200,"station_id":"ce4bhi12rcd13ifvqfq0","pricing_plan_id":"cebpf4jnsgd1na2vs0mg"},{"bike_id":"ee0ce6b6-e058-47d7-9549-2587374d9509","system_id":"levelo_inurba_marseille","lat":43.29455,"lon":5.39742,"is_reserved":false,"is_disabled":false,"rental_uris":{"android":"levelo://app?vid=ee0ce6b6-e058-47d7-9549-2587374d9509","ios":"levelo://app?vid=ee0ce6b6-e058-47d7-9549-2587374d9509"},"vehicle_type_id":"4","last_reported":1776790021,"current_range_meters":3200,"station_id":"ce4bh3h2rcd13ifvqdo0","pricing_plan_id":"cebpf4jnsgd1na2vs0mg"},{"bike_id":"82e4a329-5952-4081-9814-b1ad72240a02","system_id":"levelo_inurba_marseille","lat":43.26066,"lon":5.39939,"is_reserved":false,"is_disabled":false,"rental_uris":{"android":"levelo://app?vid=82e4a329-5952-4081-9814-b1ad72240a02","ios":"levelo://app?vid=82e4a329-5952-4081-9814-b1ad72240a02"},"vehicle_type_id":"4","last_reported":1776790021,"current_range_meters":3200,"station_id":"","pricing_plan_id":"cebpf4jnsgd1na2vs0mg"},{"bike_id":"7307f549-f752-4b6f-9489-d1e3e691bfd3","system_id":"levelo_inurba_marseille","lat":43.292681,"lon":5.372259,"is_reserved":false,"is_disabled":false,"rental_uris":{"android":"levelo://app?vid=7307f549-f752-4b6f-9489-d1e3e691bfd3","ios":"levelo://app?vid=7307f549-f752-4b6f-9489-d1e3e691bfd3"},"vehicle_type_id":"4","last_reported":1776790021,"current_range_meters":3200,"station_id":"ce4bgh92rcd13ifvqb40","pricing_plan_id":"cebpf4jnsgd1na2vs0mg"},{"bike_id":"a4e0f64d-01c4-4b0d-9de4-db9e20bfbea8","system_id":"levelo_inurba_marseille","lat":43.23193,"lon":5.35555,"is_reserved":false,"is_disabled":false,"rental_uris":{"android":"levelo://app?vid=a4e0f64d-01c4-4b0d-9de4-db9e20bfbea8","ios":"levelo://app?vid=a4e0f64d-01c4-4b0d-9de4-db9e20bfbea8"},"vehicle_type_id":"4","last_reported":1776790021,"current_range_meters":3200,"station_id":"ce4bhu92rcd13ifvqi70","pricing_plan_id":"cebpf4jnsgd1na2vs0mg"},{"bike_id":"5bc7df5e-5e82-4f14-b446-6daf4f972fa7","system_id":"levelo_inurba_marseille","lat":43.28939,"lon":5.36644,"is_reserved":false,"is_disabled":false,"rental_uris":{"android":"levelo://app?vid=5bc7df5e-5e82-4f14-b446-6daf4f972fa7","ios":"levelo://app?vid=5bc7df5e-5e82-4f14-b446-6daf4f972fa7"},"vehicle_type_id":"4","last_reported":1776790021,"current_range_meters":3200,"station_id":"ce4bhap2rcd13ifvqek0","pricing_plan_id":"cebpf4jnsgd1na2vs0mg"},{"bike_id":"ae286478-deb9-4f14-8729-95e7c85581dc","system_id":"levelo_inurba_marseille","lat":43.31728,"lon":5.42394,"is_reserved":false,"is_disabled":false,"rental_uris":{"android":"levelo://app?vid=ae286478-deb9-4f14-8729-95e7c85581dc","ios":"levelo://app?vid=ae286478-deb9-4f14-8729-95e7c85581dc"},"vehicle_type_id":"4","last_reported":1776790021,"current_range_meters":3600,"station_id":"ce4bhp92rcd13ifvqhbg","pricing_plan_id":"cebpf4jnsgd1na2vs0mg"},{"bike_id":"ed479148-abde-4bc3-b864-9b5d2b929732","system_id":"levelo_inurba_marseille","lat":43.30146,"lon":5.37416,"is_reserved":false,"is_disabled":false,"rental_uris":{"android":"levelo://app?vid=ed479148-abde-4bc3-b864-9b5d2b929732","ios":"levelo://app?vid=ed479148-abde-4bc3-b864-9b5d2b929732"},"vehicle_type_id":"4","last_reported":1776790021,"current_range_meters":3600,"station_id":"ce4bgs92rcd13ifvqcc0","pricing_plan_id":"cebpf4jnsgd1na2vs0mg"},{"bike_id":"5cffafda-44f6-4926-ab4e-a1c0f74fe94d","system_id":"levelo_inurba_marseille","lat":43.26928,"lon":5.40242,"is_reserved":false,"is_disabled":false,"rental_uris":{"android":"levelo://app?vid=5cffafda-44f6-4926-ab4e-a1c0f74fe94d","ios":"levelo://app?vid=5cffafda-44f6-4926-ab4e-a1c0f74fe94d"},"vehicle_type_id":"4","last_reported":1776790021,"current_range_meters":3600,"station_id":"cjm6bp8fraef2m0cb0m0","pricing_plan_id":"cebpf4jnsgd1na2vs0mg"},{"bike_id":"30d87ff1-3522-4098-a0b4-a7d36c1bced3","system_id":"levelo_inurba_marseille","lat":43.2762,"lon":5.36109,"is_reserved":false,"is_disabled":false,"rental_uris":{"android":"levelo://app?vid=30d87ff1-3522-4098-a0b4-a7d36c1bced3","ios":"levelo://app?vid=30d87ff1-3522-4098-a0b4-a7d36c1bced3"},"vehicle_type_id":"4","last_reported":1776790021,"current_range_meters":3600,"station_id":"ce4bgj92rcd13ifvqbe0","pricing_plan_id":"cebpf4jnsgd1na2vs0mg"},{"bike_id":"714dcc00-e1f0-496e-b551-da2d0ef32618","system_id":"levelo_inurba_marseille","lat":43.28425,"lon":5.34983,"is_reserved":false,"is_disabled":false,"rental_uris":{"android":"levelo://app?vid=714dcc00-e1f0-496e-b551-da2d0ef32618","ios":"levelo://app?vid=714dcc00-e1f0-496e-b551-da2d0ef32618"},"vehicle_type_id":"4","last_reported":1776790021,"current_range_meters":3600,"station_id":"ce4bhbh2rcd13ifvqepg","pricing_plan_id":"cebpf4jnsgd1na2vs0mg"},{"bike_id":"fea68ac7-cb65-4e41-81c7-58049c5bc07f","system_id":"levelo_inurba_marseille","lat":43.27375,"lon":5.36254,"is_reserved":false,"is_disabled":false,"rental_uris":{"android":"levelo://app?vid=fea68ac7-cb65-4e41-81c7-58049c5bc07f","ios":"levelo://app?vid=fea68ac7-cb65-4e41-81c7-58049c5bc07f"},"vehicle_type_id":"4","last_reported":1776790021,"current_range_meters":3600,"station_id":"ce4bhbh2rcd13ifvqeo0","pricing_plan_id":"cebpf4jnsgd1na2vs0mg"},{"bike_id":"f8480ab2-d207-44dd-8cf7-0c80b8e63f57","system_id":"levelo_inurba_marseille","lat":43.29009,"lon":5.35614,"is_reserved":false,"is_disabled":false,"rental_uris":{"android":"levelo://app?vid=f8480ab2-d207-44dd-8cf7-0c80b8e63f57","ios":"levelo://app?vid=f8480ab2-d207-44dd-8cf7-0c80b8e63f57"},"vehicle_type_id":"4","last_reported":1776790021,"current_range_meters":3600,"station_id":"ce4bhb92rcd13ifvqen0","pricing_plan_id":"cebpf4jnsgd1na2vs0mg"},{"bike_id":"bb2f5b64-00d2-4ee1-b727-bb7764f27fcc","system_id":"levelo_inurba_marseille","lat":43.2871,"lon":5.39994,"is_reserved":false,"is_disabled":false,"rental_uris":{"android":"levelo://app?vid=bb2f5b64-00d2-4ee1-b727-bb7764f27fcc","ios":"levelo://app?vid=bb2f5b64-00d2-4ee1-b727-bb7764f27fcc"},"vehicle_type_id":"4","last_reported":1776790021,"current_range_meters":3600,"station_id":"ce4bho92rcd13ifvqh3g","pricing_plan_id":"cebpf4jnsgd1na2vs0mg"},{"bike_id":"28d36ded-91f0-40b8-88b5-570aad9ca48c","system_id":"levelo_inurba_marseille","lat":43.302159,"lon":5.394703,"is_reserved":false,"is_disabled":false,"rental_uris":{"android":"levelo://app?vid=28d36ded-91f0-40b8-88b5-570aad9ca48c","ios":"levelo://app?vid=28d36ded-91f0-40b8-88b5-570aad9ca48c"},"vehicle_type_id":"4","last_reported":1776790021,"current_range_meters":3600,"station_id":"ce4bh0p2rcd13ifvqd70","pricing_plan_id":"cebpf4jnsgd1na2vs0mg"},{"bike_id":"ed30fe44-e3f8-4517-83b8-5f6b41cc9416","system_id":"levelo_inurba_marseille","lat":43.3169,"lon":5.4048,"is_reserved":false,"is_disabled":false,"rental_uris":{"android":"levelo://app?vid=ed30fe44-e3f8-4517-83b8-5f6b41cc9416","ios":"levelo://app?vid=ed30fe44-e3f8-4517-83b8-5f6b41cc9416"},"vehicle_type_id":"4","last_reported":1776790021,"current_range_meters":3600,"station_id":"ce4bh012rcd13ifvqd00","pricing_plan_id":"cebpf4jnsgd1na2vs0mg"},{"bike_id":"b2011645-cbc6-44f3-8c33-1aca90ae2d9e","system_id":"levelo_inurba_marseille","lat":43.23226,"lon":5.35136,"is_reserved":false,"is_disabled":false,"rental_uris":{"android":"levelo://app?vid=b2011645-cbc6-44f3-8c33-1aca90ae2d9e","ios":"levelo://app?vid=b2011645-cbc6-44f3-8c33-1aca90ae2d9e"},"vehicle_type_id":"4","last_reported":1776790021,"current_range_meters":3600,"station_id":"","pricing_plan_id":"cebpf4jnsgd1na2vs0mg"},{"bike_id":"5dfc2431-5c8a-4fae-8ed2-514bf15e6280","system_id":"levelo_inurba_marseille","lat":43.29562,"lon":5.39967,"is_reserved":false,"is_disabled":false,"rental_uris":{"android":"levelo://app?vid=5dfc2431-5c8a-4fae-8ed2-514bf15e6280","ios":"levelo://app?vid=5dfc2431-5c8a-4fae-8ed2-514bf15e6280"},"vehicle_type_id":"4","last_reported":1776790021,"current_range_meters":3600,"station_id":"ce4bh312rcd13ifvqdj0","pricing_plan_id":"cebpf4jnsgd1na2vs0mg"},{"bike_id":"f8f8aa4f-7d3a-46e0-84b5-afc05bec6d51","system_id":"levelo_inurba_marseille","lat":43.249482,"lon":5.404917,"is_reserved":false,"is_disabled":false,"rental_uris":{"android":"levelo://app?vid=f8f8aa4f-7d3a-46e0-84b5-afc05bec6d51","ios":"levelo://app?vid=f8f8aa4f-7d3a-46e0-84b5-afc05bec6d51"},"vehicle_type_id":"4","last_reported":1776790021,"current_range_meters":3600,"station_id":"st_d2ngiaodas8pm72gd1h0","pricing_plan_id":"cebpf4jnsgd1na2vs0mg"},{"bike_id":"1f7a2d29-0ba7-4b8b-9cac-6ff894aac21f","system_id":"levelo_inurba_marseille","lat":43.3299,"lon":5.39053,"is_reserved":false,"is_disabled":false,"rental_uris":{"android":"levelo://app?vid=1f7a2d29-0ba7-4b8b-9cac-6ff894aac21f","ios":"levelo://app?vid=1f7a2d29-0ba7-4b8b-9cac-6ff894aac21f"},"vehicle_type_id":"4","last_reported":1776790021,"current_range_meters":4000,"station_id":"ce4bhr92rcd13ifvqhrg","pricing_plan_id":"cebpf4jnsgd1na2vs0mg"},{"bike_id":"ae3cdbc1-046c-42e5-b909-29c9e0bcb254","system_id":"levelo_inurba_marseille","lat":43.33165,"lon":5.37688,"is_reserved":false,"is_disabled":false,"rental_uris":{"android":"levelo://app?vid=ae3cdbc1-046c-42e5-b909-29c9e0bcb254","ios":"levelo://app?vid=ae3cdbc1-046c-42e5-b909-29c9e0bcb254"},"vehicle_type_id":"4","last_reported":1776790021,"current_range_meters":4000,"station_id":"st_d46cu089ee8s73dldbu0","pricing_plan_id":"cebpf4jnsgd1na2vs0mg"},{"bike_id":"491149f2-9882-4f8d-8d05-4434bd331921","system_id":"levelo_inurba_marseille","lat":43.23968,"lon":5.36634,"is_reserved":false,"is_disabled":false,"rental_uris":{"android":"levelo://app?vid=491149f2-9882-4f8d-8d05-4434bd331921","ios":"levelo://app?vid=491149f2-9882-4f8d-8d05-4434bd331921"},"vehicle_type_id":"4","last_reported":1776790021,"current_range_meters":4000,"station_id":"ce4bhi12rcd13ifvqfp0","pricing_plan_id":"cebpf4jnsgd1na2vs0mg"},{"bike_id":"72ce5c7b-f90a-4320-83e6-79770c82c65e","system_id":"levelo_inurba_marseille","lat":43.27408,"lon":5.38494,"is_reserved":false,"is_disabled":false,"rental_uris":{"android":"levelo://app?vid=72ce5c7b-f90a-4320-83e6-79770c82c65e","ios":"levelo://app?vid=72ce5c7b-f90a-4320-83e6-79770c82c65e"},"vehicle_type_id":"4","last_reported":1776790021,"current_range_meters":4000,"station_id":"","pricing_plan_id":"cebpf4jnsgd1na2vs0mg"},{"bike_id":"460f2b2c-9ed7-4674-aa76-10525a1d945b","system_id":"levelo_inurba_marseille","lat":43.25119,"lon":5.40292,"is_reserved":false,"is_disabled":false,"rental_uris":{"android":"levelo://app?vid=460f2b2c-9ed7-4674-aa76-10525a1d945b","ios":"levelo://app?vid=460f2b2c-9ed7-4674-aa76-10525a1d945b"},"vehicle_type_id":"4","last_reported":1776790021,"current_range_meters":4000,"station_id":"ce4bhlh2rcd13ifvqgig","pricing_plan_id":"cebpf4jnsgd1na2vs0mg"},{"bike_id":"fdde59fb-e056-425c-9fdc-14b94359e5a7","system_id":"levelo_inurba_marseille","lat":43.31803,"lon":5.38437,"is_reserved":false,"is_disabled":false,"rental_uris":{"android":"levelo://app?vid=fdde59fb-e056-425c-9fdc-14b94359e5a7","ios":"levelo://app?vid=fdde59fb-e056-425c-9fdc-14b94359e5a7"},"vehicle_type_id":"4","last_reported":1776790021,"current_range_meters":4000,"station_id":"","pricing_plan_id":"cebpf4jnsgd1na2vs0mg"},{"bike_id":"22033817-0b57-4aac-b4c2-cb663c9a4002","system_id":"levelo_inurba_marseille","lat":43.31157,"lon":5.3899,"is_reserved":false,"is_disabled":false,"rental_uris":{"android":"levelo://app?vid=22033817-0b57-4aac-b4c2-cb663c9a4002","ios":"levelo://app?vid=22033817-0b57-4aac-b4c2-cb663c9a4002"},"vehicle_type_id":"4","last_reported":1776790021,"current_range_meters":4000,"station_id":"","pricing_plan_id":"cebpf4jnsgd1na2vs0mg"},{"bike_id":"bbcd543d-210b-45b8-8a3d-25ea36f253f7","system_id":"levelo_inurba_marseille","lat":43.25595,"lon":5.38225,"is_reserved":false,"is_disabled":false,"rental_uris":{"android":"levelo://app?vid=bbcd543d-210b-45b8-8a3d-25ea36f253f7","ios":"levelo://app?vid=bbcd543d-210b-45b8-8a3d-25ea36f253f7"},"vehicle_type_id":"4","last_reported":1776790021,"current_range_meters":4000,"station_id":"ce4bhih2rcd13ifvqfs0","pricing_plan_id":"cebpf4jnsgd1na2vs0mg"},{"bike_id":"9e2273ae-0ffc-41dd-b44b-b792742379d5","system_id":"levelo_inurba_marseille","lat":43.26196,"lon":5.37462,"is_reserved":false,"is_disabled":false,"rental_uris":{"android":"levelo://app?vid=9e2273ae-0ffc-41dd-b44b-b792742379d5","ios":"levelo://app?vid=9e2273ae-0ffc-41dd-b44b-b792742379d5"},"vehicle_type_id":"4","last_reported":1776790021,"current_range_meters":4000,"station_id":"ce4bhgp2rcd13ifvqfc0","pricing_plan_id":"cebpf4jnsgd1na2vs0mg"},{"bike_id":"0fdc542d-acd2-4025-8d63-512d2f4432f7","system_id":"levelo_inurba_marseille","lat":43.292316,"lon":5.360695,"is_reserved":false,"is_disabled":false,"rental_uris":{"android":"levelo://app?vid=0fdc542d-acd2-4025-8d63-512d2f4432f7","ios":"levelo://app?vid=0fdc542d-acd2-4025-8d63-512d2f4432f7"},"vehicle_type_id":"4","last_reported":1776790021,"current_range_meters":4000,"station_id":"ce4bh192rcd13ifvqdd0","pricing_plan_id":"cebpf4jnsgd1na2vs0mg"},{"bike_id":"5988aba7-63d5-484a-bd84-cc158dea8031","system_id":"levelo_inurba_marseille","lat":43.28678,"lon":5.38669,"is_reserved":false,"is_disabled":false,"rental_uris":{"android":"levelo://app?vid=5988aba7-63d5-484a-bd84-cc158dea8031","ios":"levelo://app?vid=5988aba7-63d5-484a-bd84-cc158dea8031"},"vehicle_type_id":"4","last_reported":1776790021,"current_range_meters":4400,"station_id":"ce4bh492rcd13ifvqdug","pricing_plan_id":"cebpf4jnsgd1na2vs0mg"},{"bike_id":"678be1e3-7bf2-4e61-8458-42d5abd6c5bd","system_id":"levelo_inurba_marseille","lat":43.33758,"lon":5.37483,"is_reserved":false,"is_disabled":false,"rental_uris":{"android":"levelo://app?vid=678be1e3-7bf2-4e61-8458-42d5abd6c5bd","ios":"levelo://app?vid=678be1e3-7bf2-4e61-8458-42d5abd6c5bd"},"vehicle_type_id":"4","last_reported":1776790021,"current_range_meters":4400,"station_id":"","pricing_plan_id":"cebpf4jnsgd1na2vs0mg"},{"bike_id":"7ed3f086-b2fd-4665-8b87-23514e95911b","system_id":"levelo_inurba_marseille","lat":43.29199,"lon":5.35805,"is_reserved":false,"is_disabled":false,"rental_uris":{"android":"levelo://app?vid=7ed3f086-b2fd-4665-8b87-23514e95911b","ios":"levelo://app?vid=7ed3f086-b2fd-4665-8b87-23514e95911b"},"vehicle_type_id":"4","last_reported":1776790021,"current_range_meters":4400,"station_id":"ce4bhb12rcd13ifvqel0","pricing_plan_id":"cebpf4jnsgd1na2vs0mg"},{"bike_id":"428a3e1f-0c14-4644-9951-f64ac1c47a29","system_id":"levelo_inurba_marseille","lat":43.33532,"lon":5.37456,"is_reserved":false,"is_disabled":false,"rental_uris":{"android":"levelo://app?vid=428a3e1f-0c14-4644-9951-f64ac1c47a29","ios":"levelo://app?vid=428a3e1f-0c14-4644-9951-f64ac1c47a29"},"vehicle_type_id":"4","last_reported":1776790021,"current_range_meters":4400,"station_id":"st_d46tts09ee8s73dlu43g","pricing_plan_id":"cebpf4jnsgd1na2vs0mg"},{"bike_id":"7ea2ee0d-b78a-4ea0-a71e-7c83b33c250e","system_id":"levelo_inurba_marseille","lat":43.29534,"lon":5.38544,"is_reserved":false,"is_disabled":false,"rental_uris":{"android":"levelo://app?vid=7ea2ee0d-b78a-4ea0-a71e-7c83b33c250e","ios":"levelo://app?vid=7ea2ee0d-b78a-4ea0-a71e-7c83b33c250e"},"vehicle_type_id":"4","last_reported":1776790021,"current_range_meters":4400,"station_id":"ce4bgih2rcd13ifvqba0","pricing_plan_id":"cebpf4jnsgd1na2vs0mg"},{"bike_id":"90f5c609-852a-4917-87c2-c45eaeb3be9b","system_id":"levelo_inurba_marseille","lat":43.2862,"lon":5.35125,"is_reserved":false,"is_disabled":false,"rental_uris":{"android":"levelo://app?vid=90f5c609-852a-4917-87c2-c45eaeb3be9b","ios":"levelo://app?vid=90f5c609-852a-4917-87c2-c45eaeb3be9b"},"vehicle_type_id":"4","last_reported":1776790021,"current_range_meters":4400,"station_id":"ce4bhch2rcd13ifvqeug","pricing_plan_id":"cebpf4jnsgd1na2vs0mg"},{"bike_id":"7dcfb58d-8e6a-4715-bbfe-3d93a778f997","system_id":"levelo_inurba_marseille","lat":43.28734,"lon":5.36076,"is_reserved":false,"is_disabled":false,"rental_uris":{"android":"levelo://app?vid=7dcfb58d-8e6a-4715-bbfe-3d93a778f997","ios":"levelo://app?vid=7dcfb58d-8e6a-4715-bbfe-3d93a778f997"},"vehicle_type_id":"4","last_reported":1776790021,"current_range_meters":4400,"station_id":"cki0cbj6b192h4jlfktg","pricing_plan_id":"cebpf4jnsgd1na2vs0mg"},{"bike_id":"e9282f30-8294-4990-aba4-677e08699a67","system_id":"levelo_inurba_marseille","lat":43.27894,"lon":5.38017,"is_reserved":false,"is_disabled":true,"rental_uris":{"android":"levelo://app?vid=e9282f30-8294-4990-aba4-677e08699a67","ios":"levelo://app?vid=e9282f30-8294-4990-aba4-677e08699a67"},"vehicle_type_id":"4","last_reported":1776790021,"current_range_meters":4800,"station_id":"ce4bhf92rcd13ifvqf50","pricing_plan_id":"cebpf4jnsgd1na2vs0mg"},{"bike_id":"64d94556-6834-4dbf-9283-c66d7f63f63b","system_id":"levelo_inurba_marseille","lat":43.29492,"lon":5.43326,"is_reserved":false,"is_disabled":false,"rental_uris":{"android":"levelo://app?vid=64d94556-6834-4dbf-9283-c66d7f63f63b","ios":"levelo://app?vid=64d94556-6834-4dbf-9283-c66d7f63f63b"},"vehicle_type_id":"4","last_reported":1776790021,"current_range_meters":4800,"station_id":"st_d3j5ugp08ojc73fj9d10","pricing_plan_id":"cebpf4jnsgd1na2vs0mg"},{"bike_id":"6d5976f2-c13c-4550-a96c-00d8b4b17068","system_id":"levelo_inurba_marseille","lat":43.30249,"lon":5.40052,"is_reserved":false,"is_disabled":false,"rental_uris":{"android":"levelo://app?vid=6d5976f2-c13c-4550-a96c-00d8b4b17068","ios":"levelo://app?vid=6d5976f2-c13c-4550-a96c-00d8b4b17068"},"vehicle_type_id":"4","last_reported":1776790021,"current_range_meters":4800,"station_id":"ce4bgvh2rcd13ifvqcs0","pricing_plan_id":"cebpf4jnsgd1na2vs0mg"},{"bike_id":"55565613-0533-4bac-b456-46c24c3b32d6","system_id":"levelo_inurba_marseille","lat":43.29577,"lon":5.37522,"is_reserved":false,"is_disabled":false,"rental_uris":{"android":"levelo://app?vid=55565613-0533-4bac-b456-46c24c3b32d6","ios":"levelo://app?vid=55565613-0533-4bac-b456-46c24c3b32d6"},"vehicle_type_id":"4","last_reported":1776790021,"current_range_meters":4800,"station_id":"ce4bgh92rcd13ifvqb50","pricing_plan_id":"cebpf4jnsgd1na2vs0mg"},{"bike_id":"65c36df8-a7fe-4010-8370-f48b0c45f206","system_id":"levelo_inurba_marseille","lat":43.33561,"lon":5.37452,"is_reserved":false,"is_disabled":false,"rental_uris":{"android":"levelo://app?vid=65c36df8-a7fe-4010-8370-f48b0c45f206","ios":"levelo://app?vid=65c36df8-a7fe-4010-8370-f48b0c45f206"},"vehicle_type_id":"4","last_reported":1776790021,"current_range_meters":4800,"station_id":"st_d46tts09ee8s73dlu43g","pricing_plan_id":"cebpf4jnsgd1na2vs0mg"},{"bike_id":"eb0dd92c-7777-4aff-ab88-96a22419386b","system_id":"levelo_inurba_marseille","lat":43.30163,"lon":5.38118,"is_reserved":false,"is_disabled":true,"rental_uris":{"android":"levelo://app?vid=eb0dd92c-7777-4aff-ab88-96a22419386b","ios":"levelo://app?vid=eb0dd92c-7777-4aff-ab88-96a22419386b"},"vehicle_type_id":"4","last_reported":1776790021,"current_range_meters":4800,"station_id":"ce4bgjp2rcd13ifvqbh0","pricing_plan_id":"cebpf4jnsgd1na2vs0mg"},{"bike_id":"49d1b85e-854b-4965-8a72-355bbfdb3332","system_id":"levelo_inurba_marseille","lat":43.27325,"lon":5.3908,"is_reserved":false,"is_disabled":false,"rental_uris":{"android":"levelo://app?vid=49d1b85e-854b-4965-8a72-355bbfdb3332","ios":"levelo://app?vid=49d1b85e-854b-4965-8a72-355bbfdb3332"},"vehicle_type_id":"4","last_reported":1776790021,"current_range_meters":4800,"station_id":"ce4bhgp2rcd13ifvqfe0","pricing_plan_id":"cebpf4jnsgd1na2vs0mg"},{"bike_id":"2b91d518-5095-4415-99e4-124095a25fff","system_id":"levelo_inurba_marseille","lat":43.33692,"lon":5.39839,"is_reserved":false,"is_disabled":false,"rental_uris":{"android":"levelo://app?vid=2b91d518-5095-4415-99e4-124095a25fff","ios":"levelo://app?vid=2b91d518-5095-4415-99e4-124095a25fff"},"vehicle_type_id":"4","last_reported":1776790021,"current_range_meters":4800,"station_id":"","pricing_plan_id":"cebpf4jnsgd1na2vs0mg"},{"bike_id":"642c3158-d605-4664-a261-c779c823cfc9","system_id":"levelo_inurba_marseille","lat":43.29812,"lon":5.38104,"is_reserved":false,"is_disabled":false,"rental_uris":{"android":"levelo://app?vid=642c3158-d605-4664-a261-c779c823cfc9","ios":"levelo://app?vid=642c3158-d605-4664-a261-c779c823cfc9"},"vehicle_type_id":"4","last_reported":1776790021,"current_range_meters":4800,"station_id":"ce4bgip2rcd13ifvqbb0","pricing_plan_id":"cebpf4jnsgd1na2vs0mg"},{"bike_id":"c42aba59-3e9b-4802-ad20-d7f6fbee54b5","system_id":"levelo_inurba_marseille","lat":43.29376,"lon":5.39531,"is_reserved":false,"is_disabled":false,"rental_uris":{"android":"levelo://app?vid=c42aba59-3e9b-4802-ad20-d7f6fbee54b5","ios":"levelo://app?vid=c42aba59-3e9b-4802-ad20-d7f6fbee54b5"},"vehicle_type_id":"4","last_reported":1776790021,"current_range_meters":4800,"station_id":"","pricing_plan_id":"cebpf4jnsgd1na2vs0mg"},{"bike_id":"d44e7de2-0c57-436a-9b45-afbb4a40cdd7","system_id":"levelo_inurba_marseille","lat":43.33025,"lon":5.39041,"is_reserved":false,"is_disabled":false,"rental_uris":{"android":"levelo://app?vid=d44e7de2-0c57-436a-9b45-afbb4a40cdd7","ios":"levelo://app?vid=d44e7de2-0c57-436a-9b45-afbb4a40cdd7"},"vehicle_type_id":"4","last_reported":1776790021,"current_range_meters":4800,"station_id":"ce4bhr92rcd13ifvqhrg","pricing_plan_id":"cebpf4jnsgd1na2vs0mg"},{"bike_id":"e12c18a7-2e3a-4b6a-87a4-c9a9915d9e04","system_id":"levelo_inurba_marseille","lat":43.28527,"lon":5.38433,"is_reserved":false,"is_disabled":false,"rental_uris":{"android":"levelo://app?vid=e12c18a7-2e3a-4b6a-87a4-c9a9915d9e04","ios":"levelo://app?vid=e12c18a7-2e3a-4b6a-87a4-c9a9915d9e04"},"vehicle_type_id":"4","last_reported":1776790021,"current_range_meters":4800,"station_id":"ce4bh512rcd13ifvqe3g","pricing_plan_id":"cebpf4jnsgd1na2vs0mg"},{"bike_id":"0a45b756-8869-4609-be86-55e8cb353d29","system_id":"levelo_inurba_marseille","lat":43.25122,"lon":5.4032,"is_reserved":false,"is_disabled":false,"rental_uris":{"android":"levelo://app?vid=0a45b756-8869-4609-be86-55e8cb353d29","ios":"levelo://app?vid=0a45b756-8869-4609-be86-55e8cb353d29"},"vehicle_type_id":"4","last_reported":1776790021,"current_range_meters":4800,"station_id":"ce4bhlh2rcd13ifvqgig","pricing_plan_id":"cebpf4jnsgd1na2vs0mg"},{"bike_id":"53c700b8-845b-473e-b238-598a75d59a87","system_id":"levelo_inurba_marseille","lat":43.308004,"lon":5.381417,"is_reserved":false,"is_disabled":false,"rental_uris":{"android":"levelo://app?vid=53c700b8-845b-473e-b238-598a75d59a87","ios":"levelo://app?vid=53c700b8-845b-473e-b238-598a75d59a87"},"vehicle_type_id":"4","last_reported":1776790021,"current_range_meters":4800,"station_id":"ce4bgt12rcd13ifvqce0","pricing_plan_id":"cebpf4jnsgd1na2vs0mg"},{"bike_id":"58ed09d9-0aa1-471f-818a-54c432b83970","system_id":"levelo_inurba_marseille","lat":43.26603,"lon":5.42824,"is_reserved":false,"is_disabled":false,"rental_uris":{"android":"levelo://app?vid=58ed09d9-0aa1-471f-818a-54c432b83970","ios":"levelo://app?vid=58ed09d9-0aa1-471f-818a-54c432b83970"},"vehicle_type_id":"4","last_reported":1776790021,"current_range_meters":5600,"station_id":"","pricing_plan_id":"cebpf4jnsgd1na2vs0mg"},{"bike_id":"96bc24e1-014f-4761-8431-a57fac597c23","system_id":"levelo_inurba_marseille","lat":43.28271,"lon":5.35078,"is_reserved":false,"is_disabled":false,"rental_uris":{"android":"levelo://app?vid=96bc24e1-014f-4761-8431-a57fac597c23","ios":"levelo://app?vid=96bc24e1-014f-4761-8431-a57fac597c23"},"vehicle_type_id":"4","last_reported":1776790021,"current_range_meters":5600,"station_id":"ce4bhbp2rcd13ifvqerg","pricing_plan_id":"cebpf4jnsgd1na2vs0mg"},{"bike_id":"e3cb4e7a-e192-4496-b719-7cc0b747e800","system_id":"levelo_inurba_marseille","lat":43.28265,"lon":5.35063,"is_reserved":false,"is_disabled":false,"rental_uris":{"android":"levelo://app?vid=e3cb4e7a-e192-4496-b719-7cc0b747e800","ios":"levelo://app?vid=e3cb4e7a-e192-4496-b719-7cc0b747e800"},"vehicle_type_id":"4","last_reported":1776790021,"current_range_meters":5600,"station_id":"ce4bhbp2rcd13ifvqerg","pricing_plan_id":"cebpf4jnsgd1na2vs0mg"},{"bike_id":"595494a8-4052-4c6a-9535-2b84dd157f3e","system_id":"levelo_inurba_marseille","lat":43.2737,"lon":5.36248,"is_reserved":false,"is_disabled":false,"rental_uris":{"android":"levelo://app?vid=595494a8-4052-4c6a-9535-2b84dd157f3e","ios":"levelo://app?vid=595494a8-4052-4c6a-9535-2b84dd157f3e"},"vehicle_type_id":"4","last_reported":1776790021,"current_range_meters":5600,"station_id":"ce4bhbh2rcd13ifvqeo0","pricing_plan_id":"cebpf4jnsgd1na2vs0mg"},{"bike_id":"55b9e363-aef1-4e55-a55c-7c19ee416703","system_id":"levelo_inurba_marseille","lat":43.31876,"lon":5.37272,"is_reserved":false,"is_disabled":false,"rental_uris":{"android":"levelo://app?vid=55b9e363-aef1-4e55-a55c-7c19ee416703","ios":"levelo://app?vid=55b9e363-aef1-4e55-a55c-7c19ee416703"},"vehicle_type_id":"4","last_reported":1776790021,"current_range_meters":5600,"station_id":"","pricing_plan_id":"cebpf4jnsgd1na2vs0mg"},{"bike_id":"addf6811-20a5-48f1-b8c7-984f280aa6f7","system_id":"levelo_inurba_marseille","lat":43.30329,"lon":5.4043,"is_reserved":false,"is_disabled":false,"rental_uris":{"android":"levelo://app?vid=addf6811-20a5-48f1-b8c7-984f280aa6f7","ios":"levelo://app?vid=addf6811-20a5-48f1-b8c7-984f280aa6f7"},"vehicle_type_id":"4","last_reported":1776790021,"current_range_meters":5600,"station_id":"ce4bh012rcd13ifvqd10","pricing_plan_id":"cebpf4jnsgd1na2vs0mg"},{"bike_id":"be5348a3-1499-4f44-9d7a-d050ef9268e8","system_id":"levelo_inurba_marseille","lat":43.32699,"lon":5.38328,"is_reserved":false,"is_disabled":false,"rental_uris":{"android":"levelo://app?vid=be5348a3-1499-4f44-9d7a-d050ef9268e8","ios":"levelo://app?vid=be5348a3-1499-4f44-9d7a-d050ef9268e8"},"vehicle_type_id":"4","last_reported":1776790021,"current_range_meters":5600,"station_id":"","pricing_plan_id":"cebpf4jnsgd1na2vs0mg"},{"bike_id":"f50abb5a-c46f-4f50-8bf5-012dc508e7bf","system_id":"levelo_inurba_marseille","lat":43.27269,"lon":5.36288,"is_reserved":false,"is_disabled":false,"rental_uris":{"android":"levelo://app?vid=f50abb5a-c46f-4f50-8bf5-012dc508e7bf","ios":"levelo://app?vid=f50abb5a-c46f-4f50-8bf5-012dc508e7bf"},"vehicle_type_id":"4","last_reported":1776790021,"current_range_meters":5600,"station_id":"","pricing_plan_id":"cebpf4jnsgd1na2vs0mg"},{"bike_id":"624daf69-f815-4f9b-8f7c-0a5468b5d0f6","system_id":"levelo_inurba_marseille","lat":43.26195,"lon":5.37046,"is_reserved":false,"is_disabled":false,"rental_uris":{"android":"levelo://app?vid=624daf69-f815-4f9b-8f7c-0a5468b5d0f6","ios":"levelo://app?vid=624daf69-f815-4f9b-8f7c-0a5468b5d0f6"},"vehicle_type_id":"4","last_reported":1776790021,"current_range_meters":5600,"station_id":"","pricing_plan_id":"cebpf4jnsgd1na2vs0mg"},{"bike_id":"200949f4-7e02-46ba-8666-6fef72852440","system_id":"levelo_inurba_marseille","lat":43.29273,"lon":5.38433,"is_reserved":false,"is_disabled":false,"rental_uris":{"android":"levelo://app?vid=200949f4-7e02-46ba-8666-6fef72852440","ios":"levelo://app?vid=200949f4-7e02-46ba-8666-6fef72852440"},"vehicle_type_id":"4","last_reported":1776790021,"current_range_meters":5600,"station_id":"ce4bh692rcd13ifvqea0","pricing_plan_id":"cebpf4jnsgd1na2vs0mg"},{"bike_id":"ac881409-e7c1-4dc7-868f-5470aa726fd2","system_id":"levelo_inurba_marseille","lat":43.29822,"lon":5.44068,"is_reserved":false,"is_disabled":false,"rental_uris":{"android":"levelo://app?vid=ac881409-e7c1-4dc7-868f-5470aa726fd2","ios":"levelo://app?vid=ac881409-e7c1-4dc7-868f-5470aa726fd2"},"vehicle_type_id":"4","last_reported":1776790021,"current_range_meters":6000,"station_id":"st_d3jp68qikq2c7381ktn0","pricing_plan_id":"cebpf4jnsgd1na2vs0mg"},{"bike_id":"71876fdf-04f6-4545-b4f2-a740d6faadde","system_id":"levelo_inurba_marseille","lat":43.27625,"lon":5.3611,"is_reserved":false,"is_disabled":false,"rental_uris":{"android":"levelo://app?vid=71876fdf-04f6-4545-b4f2-a740d6faadde","ios":"levelo://app?vid=71876fdf-04f6-4545-b4f2-a740d6faadde"},"vehicle_type_id":"4","last_reported":1776790021,"current_range_meters":6000,"station_id":"ce4bgj92rcd13ifvqbe0","pricing_plan_id":"cebpf4jnsgd1na2vs0mg"},{"bike_id":"fec54d59-47d4-4ddb-8655-648e0f95cb70","system_id":"levelo_inurba_marseille","lat":43.2319,"lon":5.35546,"is_reserved":false,"is_disabled":false,"rental_uris":{"android":"levelo://app?vid=fec54d59-47d4-4ddb-8655-648e0f95cb70","ios":"levelo://app?vid=fec54d59-47d4-4ddb-8655-648e0f95cb70"},"vehicle_type_id":"4","last_reported":1776790021,"current_range_meters":6000,"station_id":"ce4bhu92rcd13ifvqi70","pricing_plan_id":"cebpf4jnsgd1na2vs0mg"},{"bike_id":"ce4f7ebb-425f-47f9-bd03-7a83850a37bd","system_id":"levelo_inurba_marseille","lat":43.27672,"lon":5.38935,"is_reserved":false,"is_disabled":false,"rental_uris":{"android":"levelo://app?vid=ce4f7ebb-425f-47f9-bd03-7a83850a37bd","ios":"levelo://app?vid=ce4f7ebb-425f-47f9-bd03-7a83850a37bd"},"vehicle_type_id":"4","last_reported":1776790021,"current_range_meters":6000,"station_id":"ce4bhi12rcd13ifvqfo0","pricing_plan_id":"cebpf4jnsgd1na2vs0mg"},{"bike_id":"78395b3a-b628-4971-add7-088613079c76","system_id":"levelo_inurba_marseille","lat":43.25125,"lon":5.40319,"is_reserved":false,"is_disabled":false,"rental_uris":{"android":"levelo://app?vid=78395b3a-b628-4971-add7-088613079c76","ios":"levelo://app?vid=78395b3a-b628-4971-add7-088613079c76"},"vehicle_type_id":"4","last_reported":1776790021,"current_range_meters":6000,"station_id":"ce4bhlh2rcd13ifvqgig","pricing_plan_id":"cebpf4jnsgd1na2vs0mg"},{"bike_id":"b88d1eca-961e-4040-91f9-1483e9f58388","system_id":"levelo_inurba_marseille","lat":43.28042,"lon":5.36959,"is_reserved":false,"is_disabled":false,"rental_uris":{"android":"levelo://app?vid=b88d1eca-961e-4040-91f9-1483e9f58388","ios":"levelo://app?vid=b88d1eca-961e-4040-91f9-1483e9f58388"},"vehicle_type_id":"4","last_reported":1776790021,"current_range_meters":6000,"station_id":"ce4bha12rcd13ifvqef0","pricing_plan_id":"cebpf4jnsgd1na2vs0mg"},{"bike_id":"908ae91c-1c71-4e49-862b-992bd94d477a","system_id":"levelo_inurba_marseille","lat":43.2841,"lon":5.34995,"is_reserved":false,"is_disabled":false,"rental_uris":{"android":"levelo://app?vid=908ae91c-1c71-4e49-862b-992bd94d477a","ios":"levelo://app?vid=908ae91c-1c71-4e49-862b-992bd94d477a"},"vehicle_type_id":"4","last_reported":1776790021,"current_range_meters":6400,"station_id":"ce4bhbh2rcd13ifvqepg","pricing_plan_id":"cebpf4jnsgd1na2vs0mg"},{"bike_id":"2bf658ef-a912-4563-9f63-3110eb25e849","system_id":"levelo_inurba_marseille","lat":43.29747,"lon":5.36011,"is_reserved":false,"is_disabled":false,"rental_uris":{"android":"levelo://app?vid=2bf658ef-a912-4563-9f63-3110eb25e849","ios":"levelo://app?vid=2bf658ef-a912-4563-9f63-3110eb25e849"},"vehicle_type_id":"4","last_reported":1776790021,"current_range_meters":6400,"station_id":"","pricing_plan_id":"cebpf4jnsgd1na2vs0mg"},{"bike_id":"5c86cbe9-afe5-41b0-8b9c-f0fc93c92ebf","system_id":"levelo_inurba_marseille","lat":43.25504,"lon":5.37658,"is_reserved":false,"is_disabled":false,"rental_uris":{"android":"levelo://app?vid=5c86cbe9-afe5-41b0-8b9c-f0fc93c92ebf","ios":"levelo://app?vid=5c86cbe9-afe5-41b0-8b9c-f0fc93c92ebf"},"vehicle_type_id":"4","last_reported":1776790021,"current_range_meters":6400,"station_id":"ce4bhh12rcd13ifvqff0","pricing_plan_id":"cebpf4jnsgd1na2vs0mg"},{"bike_id":"cd21d688-2ebb-488d-b6ac-9fdcb9b807b4","system_id":"levelo_inurba_marseille","lat":43.29569,"lon":5.36735,"is_reserved":false,"is_disabled":false,"rental_uris":{"android":"levelo://app?vid=cd21d688-2ebb-488d-b6ac-9fdcb9b807b4","ios":"levelo://app?vid=cd21d688-2ebb-488d-b6ac-9fdcb9b807b4"},"vehicle_type_id":"4","last_reported":1776790021,"current_range_meters":6400,"station_id":"ce4bgph2rcd13ifvqc2g","pricing_plan_id":"cebpf4jnsgd1na2vs0mg"},{"bike_id":"496ff36b-a971-41d6-94ec-89b74a099bec","system_id":"levelo_inurba_marseille","lat":43.30685,"lon":5.37062,"is_reserved":false,"is_disabled":false,"rental_uris":{"android":"levelo://app?vid=496ff36b-a971-41d6-94ec-89b74a099bec","ios":"levelo://app?vid=496ff36b-a971-41d6-94ec-89b74a099bec"},"vehicle_type_id":"4","last_reported":1776790021,"current_range_meters":6400,"station_id":"","pricing_plan_id":"cebpf4jnsgd1na2vs0mg"},{"bike_id":"d1a8240f-e0fc-444f-b13f-d1d31a570251","system_id":"levelo_inurba_marseille","lat":43.27573,"lon":5.38432,"is_reserved":false,"is_disabled":false,"rental_uris":{"android":"levelo://app?vid=d1a8240f-e0fc-444f-b13f-d1d31a570251","ios":"levelo://app?vid=d1a8240f-e0fc-444f-b13f-d1d31a570251"},"vehicle_type_id":"4","last_reported":1776790021,"current_range_meters":6400,"station_id":"ce4bhh92rcd13ifvqfi0","pricing_plan_id":"cebpf4jnsgd1na2vs0mg"},{"bike_id":"c224c9cf-d497-4bf6-82cd-eee25423f927","system_id":"levelo_inurba_marseille","lat":43.29661,"lon":5.37388,"is_reserved":false,"is_disabled":true,"rental_uris":{"android":"levelo://app?vid=c224c9cf-d497-4bf6-82cd-eee25423f927","ios":"levelo://app?vid=c224c9cf-d497-4bf6-82cd-eee25423f927"},"vehicle_type_id":"4","last_reported":1776790021,"current_range_meters":6400,"station_id":"","pricing_plan_id":"cebpf4jnsgd1na2vs0mg"},{"bike_id":"85d008d7-db23-4109-8c7e-d94d301d8f6b","system_id":"levelo_inurba_marseille","lat":43.26305,"lon":5.37376,"is_reserved":false,"is_disabled":false,"rental_uris":{"android":"levelo://app?vid=85d008d7-db23-4109-8c7e-d94d301d8f6b","ios":"levelo://app?vid=85d008d7-db23-4109-8c7e-d94d301d8f6b"},"vehicle_type_id":"4","last_reported":1776790021,"current_range_meters":6400,"station_id":"","pricing_plan_id":"cebpf4jnsgd1na2vs0mg"},{"bike_id":"92f10f31-7878-40d3-9dad-e48d2f506f05","system_id":"levelo_inurba_marseille","lat":43.24405,"lon":5.37062,"is_reserved":false,"is_disabled":false,"rental_uris":{"android":"levelo://app?vid=92f10f31-7878-40d3-9dad-e48d2f506f05","ios":"levelo://app?vid=92f10f31-7878-40d3-9dad-e48d2f506f05"},"vehicle_type_id":"4","last_reported":1776790021,"current_range_meters":6800,"station_id":"ce4bhhh2rcd13ifvqfk0","pricing_plan_id":"cebpf4jnsgd1na2vs0mg"},{"bike_id":"285126cc-b302-49eb-8b0f-d14b94b4311d","system_id":"levelo_inurba_marseille","lat":43.30142,"lon":5.37403,"is_reserved":false,"is_disabled":false,"rental_uris":{"android":"levelo://app?vid=285126cc-b302-49eb-8b0f-d14b94b4311d","ios":"levelo://app?vid=285126cc-b302-49eb-8b0f-d14b94b4311d"},"vehicle_type_id":"4","last_reported":1776790021,"current_range_meters":6800,"station_id":"ce4bgs92rcd13ifvqcc0","pricing_plan_id":"cebpf4jnsgd1na2vs0mg"},{"bike_id":"026c4924-8b6b-41e4-b885-041daab1c853","system_id":"levelo_inurba_marseille","lat":43.29376,"lon":5.37843,"is_reserved":false,"is_disabled":false,"rental_uris":{"android":"levelo://app?vid=026c4924-8b6b-41e4-b885-041daab1c853","ios":"levelo://app?vid=026c4924-8b6b-41e4-b885-041daab1c853"},"vehicle_type_id":"4","last_reported":1776790021,"current_range_meters":6800,"station_id":"ce4bgjh2rcd13ifvqbf0","pricing_plan_id":"cebpf4jnsgd1na2vs0mg"},{"bike_id":"b590e20a-127c-412c-a47a-960be2e4ed64","system_id":"levelo_inurba_marseille","lat":43.28928,"lon":5.38397,"is_reserved":false,"is_disabled":false,"rental_uris":{"android":"levelo://app?vid=b590e20a-127c-412c-a47a-960be2e4ed64","ios":"levelo://app?vid=b590e20a-127c-412c-a47a-960be2e4ed64"},"vehicle_type_id":"4","last_reported":1776790021,"current_range_meters":6800,"station_id":"ce4bh612rcd13ifvqe6g","pricing_plan_id":"cebpf4jnsgd1na2vs0mg"},{"bike_id":"3d70049a-28e9-45ba-adba-927c33cac154","system_id":"levelo_inurba_marseille","lat":43.27369,"lon":5.36245,"is_reserved":false,"is_disabled":false,"rental_uris":{"android":"levelo://app?vid=3d70049a-28e9-45ba-adba-927c33cac154","ios":"levelo://app?vid=3d70049a-28e9-45ba-adba-927c33cac154"},"vehicle_type_id":"4","last_reported":1776790021,"current_range_meters":6800,"station_id":"ce4bhbh2rcd13ifvqeo0","pricing_plan_id":"cebpf4jnsgd1na2vs0mg"},{"bike_id":"8528d356-087a-4d7e-b7aa-b112f62c54d5","system_id":"levelo_inurba_marseille","lat":43.268128,"lon":5.393496,"is_reserved":false,"is_disabled":false,"rental_uris":{"android":"levelo://app?vid=8528d356-087a-4d7e-b7aa-b112f62c54d5","ios":"levelo://app?vid=8528d356-087a-4d7e-b7aa-b112f62c54d5"},"vehicle_type_id":"4","last_reported":1776790021,"current_range_meters":6800,"station_id":"ce4bhe12rcd13ifvqf30","pricing_plan_id":"cebpf4jnsgd1na2vs0mg"},{"bike_id":"1cb60a3b-9cc8-49b7-801a-2c1ead1f5047","system_id":"levelo_inurba_marseille","lat":43.28268,"lon":5.35062,"is_reserved":false,"is_disabled":false,"rental_uris":{"android":"levelo://app?vid=1cb60a3b-9cc8-49b7-801a-2c1ead1f5047","ios":"levelo://app?vid=1cb60a3b-9cc8-49b7-801a-2c1ead1f5047"},"vehicle_type_id":"4","last_reported":1776790021,"current_range_meters":6800,"station_id":"ce4bhbp2rcd13ifvqerg","pricing_plan_id":"cebpf4jnsgd1na2vs0mg"},{"bike_id":"14290775-1809-431a-89de-994574cdc895","system_id":"levelo_inurba_marseille","lat":43.27591,"lon":5.38636,"is_reserved":false,"is_disabled":false,"rental_uris":{"android":"levelo://app?vid=14290775-1809-431a-89de-994574cdc895","ios":"levelo://app?vid=14290775-1809-431a-89de-994574cdc895"},"vehicle_type_id":"4","last_reported":1776790021,"current_range_meters":6800,"station_id":"","pricing_plan_id":"cebpf4jnsgd1na2vs0mg"},{"bike_id":"879f8884-756f-4f2b-add8-e8b0f60f86a6","system_id":"levelo_inurba_marseille","lat":43.3112,"lon":5.37776,"is_reserved":false,"is_disabled":false,"rental_uris":{"android":"levelo://app?vid=879f8884-756f-4f2b-add8-e8b0f60f86a6","ios":"levelo://app?vid=879f8884-756f-4f2b-add8-e8b0f60f86a6"},"vehicle_type_id":"4","last_reported":1776790021,"current_range_meters":6800,"station_id":"ce4bgt92rcd13ifvqcg0","pricing_plan_id":"cebpf4jnsgd1na2vs0mg"},{"bike_id":"f9e36f38-ef4d-44c9-9f31-a0f8b13d14ba","system_id":"levelo_inurba_marseille","lat":43.33153,"lon":5.37649,"is_reserved":false,"is_disabled":false,"rental_uris":{"android":"levelo://app?vid=f9e36f38-ef4d-44c9-9f31-a0f8b13d14ba","ios":"levelo://app?vid=f9e36f38-ef4d-44c9-9f31-a0f8b13d14ba"},"vehicle_type_id":"4","last_reported":1776790021,"current_range_meters":6800,"station_id":"st_d46cu089ee8s73dldbu0","pricing_plan_id":"cebpf4jnsgd1na2vs0mg"},{"bike_id":"7bf5b4b5-8f49-4d36-8dbf-e403920e37c2","system_id":"levelo_inurba_marseille","lat":43.27379,"lon":5.36261,"is_reserved":false,"is_disabled":false,"rental_uris":{"android":"levelo://app?vid=7bf5b4b5-8f49-4d36-8dbf-e403920e37c2","ios":"levelo://app?vid=7bf5b4b5-8f49-4d36-8dbf-e403920e37c2"},"vehicle_type_id":"4","last_reported":1776790021,"current_range_meters":6800,"station_id":"ce4bhbh2rcd13ifvqeo0","pricing_plan_id":"cebpf4jnsgd1na2vs0mg"},{"bike_id":"a2f3a9df-2bd0-4776-9bd4-51de189cc809","system_id":"levelo_inurba_marseille","lat":43.30557,"lon":5.36527,"is_reserved":false,"is_disabled":false,"rental_uris":{"android":"levelo://app?vid=a2f3a9df-2bd0-4776-9bd4-51de189cc809","ios":"levelo://app?vid=a2f3a9df-2bd0-4776-9bd4-51de189cc809"},"vehicle_type_id":"4","last_reported":1776790021,"current_range_meters":7200,"station_id":"ce4bgs12rcd13ifvqcag","pricing_plan_id":"cebpf4jnsgd1na2vs0mg"},{"bike_id":"513b0d35-c7fa-4c95-9dd5-0893b2c6e366","system_id":"levelo_inurba_marseille","lat":43.21772,"lon":5.34601,"is_reserved":false,"is_disabled":false,"rental_uris":{"android":"levelo://app?vid=513b0d35-c7fa-4c95-9dd5-0893b2c6e366","ios":"levelo://app?vid=513b0d35-c7fa-4c95-9dd5-0893b2c6e366"},"vehicle_type_id":"4","last_reported":1776790021,"current_range_meters":7200,"station_id":"st_cvj6r9ubvosntc0bgbag","pricing_plan_id":"cebpf4jnsgd1na2vs0mg"},{"bike_id":"38a0c1fe-c793-4677-abc9-44884653b8c5","system_id":"levelo_inurba_marseille","lat":43.29593,"lon":5.37776,"is_reserved":false,"is_disabled":false,"rental_uris":{"android":"levelo://app?vid=38a0c1fe-c793-4677-abc9-44884653b8c5","ios":"levelo://app?vid=38a0c1fe-c793-4677-abc9-44884653b8c5"},"vehicle_type_id":"4","last_reported":1776790021,"current_range_meters":7200,"station_id":"","pricing_plan_id":"cebpf4jnsgd1na2vs0mg"},{"bike_id":"6f66d36e-abf9-446b-820f-b2a4e276752f","system_id":"levelo_inurba_marseille","lat":43.24171,"lon":5.36401,"is_reserved":false,"is_disabled":false,"rental_uris":{"android":"levelo://app?vid=6f66d36e-abf9-446b-820f-b2a4e276752f","ios":"levelo://app?vid=6f66d36e-abf9-446b-820f-b2a4e276752f"},"vehicle_type_id":"4","last_reported":1776790021,"current_range_meters":7200,"station_id":"cpo36qri1sfpv3e86is0","pricing_plan_id":"cebpf4jnsgd1na2vs0mg"},{"bike_id":"1fd10be9-0a9a-46a4-9d74-69cc8527ad5b","system_id":"levelo_inurba_marseille","lat":43.2848,"lon":5.484,"is_reserved":false,"is_disabled":false,"rental_uris":{"android":"levelo://app?vid=1fd10be9-0a9a-46a4-9d74-69cc8527ad5b","ios":"levelo://app?vid=1fd10be9-0a9a-46a4-9d74-69cc8527ad5b"},"vehicle_type_id":"4","last_reported":1776790021,"current_range_meters":7200,"station_id":"","pricing_plan_id":"cebpf4jnsgd1na2vs0mg"},{"bike_id":"f0560ebd-54f4-470b-b211-8f235f923412","system_id":"levelo_inurba_marseille","lat":43.31314,"lon":5.37682,"is_reserved":false,"is_disabled":false,"rental_uris":{"android":"levelo://app?vid=f0560ebd-54f4-470b-b211-8f235f923412","ios":"levelo://app?vid=f0560ebd-54f4-470b-b211-8f235f923412"},"vehicle_type_id":"4","last_reported":1776790021,"current_range_meters":7200,"station_id":"","pricing_plan_id":"cebpf4jnsgd1na2vs0mg"},{"bike_id":"afe6c9ff-8c7f-40d2-96bc-86354113b443","system_id":"levelo_inurba_marseille","lat":43.28481,"lon":5.48383,"is_reserved":false,"is_disabled":false,"rental_uris":{"android":"levelo://app?vid=afe6c9ff-8c7f-40d2-96bc-86354113b443","ios":"levelo://app?vid=afe6c9ff-8c7f-40d2-96bc-86354113b443"},"vehicle_type_id":"4","last_reported":1776790021,"current_range_meters":7200,"station_id":"","pricing_plan_id":"cebpf4jnsgd1na2vs0mg"},{"bike_id":"5a78d7f8-5102-4b54-a6a4-3e45af5a78e7","system_id":"levelo_inurba_marseille","lat":43.29882,"lon":5.39745,"is_reserved":false,"is_disabled":false,"rental_uris":{"android":"levelo://app?vid=5a78d7f8-5102-4b54-a6a4-3e45af5a78e7","ios":"levelo://app?vid=5a78d7f8-5102-4b54-a6a4-3e45af5a78e7"},"vehicle_type_id":"4","last_reported":1776790021,"current_range_meters":7200,"station_id":"ce4bh0h2rcd13ifvqd50","pricing_plan_id":"cebpf4jnsgd1na2vs0mg"},{"bike_id":"91f91614-7c6f-453f-b0dc-996c028fc574","system_id":"levelo_inurba_marseille","lat":43.23969,"lon":5.36642,"is_reserved":false,"is_disabled":false,"rental_uris":{"android":"levelo://app?vid=91f91614-7c6f-453f-b0dc-996c028fc574","ios":"levelo://app?vid=91f91614-7c6f-453f-b0dc-996c028fc574"},"vehicle_type_id":"4","last_reported":1776790021,"current_range_meters":7200,"station_id":"ce4bhi12rcd13ifvqfp0","pricing_plan_id":"cebpf4jnsgd1na2vs0mg"},{"bike_id":"364373be-549a-4330-beba-78d6932fde3f","system_id":"levelo_inurba_marseille","lat":43.27383,"lon":5.36264,"is_reserved":false,"is_disabled":false,"rental_uris":{"android":"levelo://app?vid=364373be-549a-4330-beba-78d6932fde3f","ios":"levelo://app?vid=364373be-549a-4330-beba-78d6932fde3f"},"vehicle_type_id":"4","last_reported":1776790021,"current_range_meters":7200,"station_id":"ce4bhbh2rcd13ifvqeo0","pricing_plan_id":"cebpf4jnsgd1na2vs0mg"},{"bike_id":"7eb95136-c180-4b14-b549-0d6389a20cde","system_id":"levelo_inurba_marseille","lat":43.30751,"lon":5.44045,"is_reserved":false,"is_disabled":false,"rental_uris":{"android":"levelo://app?vid=7eb95136-c180-4b14-b549-0d6389a20cde","ios":"levelo://app?vid=7eb95136-c180-4b14-b549-0d6389a20cde"},"vehicle_type_id":"4","last_reported":1776790021,"current_range_meters":7200,"station_id":"","pricing_plan_id":"cebpf4jnsgd1na2vs0mg"},{"bike_id":"66fae2cd-c339-4a35-9b82-120a55851bc7","system_id":"levelo_inurba_marseille","lat":43.28489,"lon":5.38419,"is_reserved":false,"is_disabled":false,"rental_uris":{"android":"levelo://app?vid=66fae2cd-c339-4a35-9b82-120a55851bc7","ios":"levelo://app?vid=66fae2cd-c339-4a35-9b82-120a55851bc7"},"vehicle_type_id":"4","last_reported":1776790021,"current_range_meters":7200,"station_id":"ce4bh512rcd13ifvqe3g","pricing_plan_id":"cebpf4jnsgd1na2vs0mg"},{"bike_id":"2d40a836-133e-4df4-8e94-64278280c4e2","system_id":"levelo_inurba_marseille","lat":43.28492,"lon":5.48408,"is_reserved":false,"is_disabled":false,"rental_uris":{"android":"levelo://app?vid=2d40a836-133e-4df4-8e94-64278280c4e2","ios":"levelo://app?vid=2d40a836-133e-4df4-8e94-64278280c4e2"},"vehicle_type_id":"4","last_reported":1776790021,"current_range_meters":7200,"station_id":"","pricing_plan_id":"cebpf4jnsgd1na2vs0mg"},{"bike_id":"2224c961-bce6-4c33-966e-f3361d1b2ab2","system_id":"levelo_inurba_marseille","lat":43.2751,"lon":5.416,"is_reserved":false,"is_disabled":false,"rental_uris":{"android":"levelo://app?vid=2224c961-bce6-4c33-966e-f3361d1b2ab2","ios":"levelo://app?vid=2224c961-bce6-4c33-966e-f3361d1b2ab2"},"vehicle_type_id":"4","last_reported":1776790021,"current_range_meters":7200,"station_id":"st_d6im8g6chgec73a5pndg","pricing_plan_id":"cebpf4jnsgd1na2vs0mg"},{"bike_id":"17a218ae-0cbc-4023-80f0-9ffddf1324e3","system_id":"levelo_inurba_marseille","lat":43.260356,"lon":5.397998,"is_reserved":false,"is_disabled":false,"rental_uris":{"android":"levelo://app?vid=17a218ae-0cbc-4023-80f0-9ffddf1324e3","ios":"levelo://app?vid=17a218ae-0cbc-4023-80f0-9ffddf1324e3"},"vehicle_type_id":"4","last_reported":1776790021,"current_range_meters":8000,"station_id":"","pricing_plan_id":"cebpf4jnsgd1na2vs0mg"},{"bike_id":"c5e6cd05-bbf8-4616-b31c-e44e77c1a2d0","system_id":"levelo_inurba_marseille","lat":43.30539,"lon":5.36525,"is_reserved":false,"is_disabled":false,"rental_uris":{"android":"levelo://app?vid=c5e6cd05-bbf8-4616-b31c-e44e77c1a2d0","ios":"levelo://app?vid=c5e6cd05-bbf8-4616-b31c-e44e77c1a2d0"},"vehicle_type_id":"4","last_reported":1776790021,"current_range_meters":8000,"station_id":"ce4bgs12rcd13ifvqcag","pricing_plan_id":"cebpf4jnsgd1na2vs0mg"},{"bike_id":"909929ad-6150-4e90-9010-fc5021f6e58c","system_id":"levelo_inurba_marseille","lat":43.27192,"lon":5.40108,"is_reserved":false,"is_disabled":false,"rental_uris":{"android":"levelo://app?vid=909929ad-6150-4e90-9010-fc5021f6e58c","ios":"levelo://app?vid=909929ad-6150-4e90-9010-fc5021f6e58c"},"vehicle_type_id":"4","last_reported":1776790021,"current_range_meters":8000,"station_id":"","pricing_plan_id":"cebpf4jnsgd1na2vs0mg"},{"bike_id":"415e0658-223c-4fe0-abd1-f3287f2893c2","system_id":"levelo_inurba_marseille","lat":43.31913,"lon":5.36812,"is_reserved":false,"is_disabled":false,"rental_uris":{"android":"levelo://app?vid=415e0658-223c-4fe0-abd1-f3287f2893c2","ios":"levelo://app?vid=415e0658-223c-4fe0-abd1-f3287f2893c2"},"vehicle_type_id":"4","last_reported":1776790021,"current_range_meters":8000,"station_id":"st_d6o2h0d0559c73evc1b0","pricing_plan_id":"cebpf4jnsgd1na2vs0mg"},{"bike_id":"8be43462-7405-4915-a7ad-2efab1f9832e","system_id":"levelo_inurba_marseille","lat":43.28272,"lon":5.35076,"is_reserved":false,"is_disabled":false,"rental_uris":{"android":"levelo://app?vid=8be43462-7405-4915-a7ad-2efab1f9832e","ios":"levelo://app?vid=8be43462-7405-4915-a7ad-2efab1f9832e"},"vehicle_type_id":"4","last_reported":1776790021,"current_range_meters":8000,"station_id":"ce4bhbp2rcd13ifvqerg","pricing_plan_id":"cebpf4jnsgd1na2vs0mg"},{"bike_id":"357c8a3f-22a7-437b-9400-0efde2fb9a38","system_id":"levelo_inurba_marseille","lat":43.2709,"lon":5.42273,"is_reserved":false,"is_disabled":false,"rental_uris":{"android":"levelo://app?vid=357c8a3f-22a7-437b-9400-0efde2fb9a38","ios":"levelo://app?vid=357c8a3f-22a7-437b-9400-0efde2fb9a38"},"vehicle_type_id":"4","last_reported":1776790021,"current_range_meters":8000,"station_id":"ce4bhk92rcd13ifvqgb0","pricing_plan_id":"cebpf4jnsgd1na2vs0mg"},{"bike_id":"1d10a8b0-ce89-481e-a139-3be3b522a109","system_id":"levelo_inurba_marseille","lat":43.26215,"lon":5.37443,"is_reserved":false,"is_disabled":false,"rental_uris":{"android":"levelo://app?vid=1d10a8b0-ce89-481e-a139-3be3b522a109","ios":"levelo://app?vid=1d10a8b0-ce89-481e-a139-3be3b522a109"},"vehicle_type_id":"4","last_reported":1776790021,"current_range_meters":8000,"station_id":"ce4bhgp2rcd13ifvqfc0","pricing_plan_id":"cebpf4jnsgd1na2vs0mg"},{"bike_id":"e3ac4bb4-6e44-4c03-a377-f5f3944b6737","system_id":"levelo_inurba_marseille","lat":43.28846,"lon":5.39333,"is_reserved":false,"is_disabled":false,"rental_uris":{"android":"levelo://app?vid=e3ac4bb4-6e44-4c03-a377-f5f3944b6737","ios":"levelo://app?vid=e3ac4bb4-6e44-4c03-a377-f5f3944b6737"},"vehicle_type_id":"4","last_reported":1776790021,"current_range_meters":8000,"station_id":"ce4bh2p2rcd13ifvqdi0","pricing_plan_id":"cebpf4jnsgd1na2vs0mg"},{"bike_id":"c5eb009f-3480-4876-add3-608c0b457401","system_id":"levelo_inurba_marseille","lat":43.27397,"lon":5.36258,"is_reserved":false,"is_disabled":false,"rental_uris":{"android":"levelo://app?vid=c5eb009f-3480-4876-add3-608c0b457401","ios":"levelo://app?vid=c5eb009f-3480-4876-add3-608c0b457401"},"vehicle_type_id":"4","last_reported":1776790021,"current_range_meters":8000,"station_id":"ce4bhbh2rcd13ifvqeo0","pricing_plan_id":"cebpf4jnsgd1na2vs0mg"},{"bike_id":"ccb706a2-5cb7-4123-a828-6f57892b08ad","system_id":"levelo_inurba_marseille","lat":43.25346,"lon":5.42176,"is_reserved":false,"is_disabled":false,"rental_uris":{"android":"levelo://app?vid=ccb706a2-5cb7-4123-a828-6f57892b08ad","ios":"levelo://app?vid=ccb706a2-5cb7-4123-a828-6f57892b08ad"},"vehicle_type_id":"4","last_reported":1776790021,"current_range_meters":8000,"station_id":"st_d2m65c5bi1j21697t3ng","pricing_plan_id":"cebpf4jnsgd1na2vs0mg"},{"bike_id":"4dd90c3a-c53a-454b-ad3a-8e2561f63203","system_id":"levelo_inurba_marseille","lat":43.312301,"lon":5.36869,"is_reserved":false,"is_disabled":false,"rental_uris":{"android":"levelo://app?vid=4dd90c3a-c53a-454b-ad3a-8e2561f63203","ios":"levelo://app?vid=4dd90c3a-c53a-454b-ad3a-8e2561f63203"},"vehicle_type_id":"4","last_reported":1776790021,"current_range_meters":8000,"station_id":"","pricing_plan_id":"cebpf4jnsgd1na2vs0mg"},{"bike_id":"1e8bcecc-75f8-42c6-8f1f-02534003396d","system_id":"levelo_inurba_marseille","lat":43.29581,"lon":5.36729,"is_reserved":false,"is_disabled":false,"rental_uris":{"android":"levelo://app?vid=1e8bcecc-75f8-42c6-8f1f-02534003396d","ios":"levelo://app?vid=1e8bcecc-75f8-42c6-8f1f-02534003396d"},"vehicle_type_id":"4","last_reported":1776790021,"current_range_meters":8000,"station_id":"ce4bgph2rcd13ifvqc2g","pricing_plan_id":"cebpf4jnsgd1na2vs0mg"},{"bike_id":"477578aa-461b-42d7-a65f-a91e7dbe7434","system_id":"levelo_inurba_marseille","lat":43.28849,"lon":5.42519,"is_reserved":false,"is_disabled":false,"rental_uris":{"android":"levelo://app?vid=477578aa-461b-42d7-a65f-a91e7dbe7434","ios":"levelo://app?vid=477578aa-461b-42d7-a65f-a91e7dbe7434"},"vehicle_type_id":"4","last_reported":1776790021,"current_range_meters":8000,"station_id":"st_d3b462108ojc7389ooeg","pricing_plan_id":"cebpf4jnsgd1na2vs0mg"},{"bike_id":"6e632b6a-0de9-43eb-884a-a0809cef0a34","system_id":"levelo_inurba_marseille","lat":43.28416,"lon":5.34988,"is_reserved":false,"is_disabled":false,"rental_uris":{"android":"levelo://app?vid=6e632b6a-0de9-43eb-884a-a0809cef0a34","ios":"levelo://app?vid=6e632b6a-0de9-43eb-884a-a0809cef0a34"},"vehicle_type_id":"4","last_reported":1776790021,"current_range_meters":8000,"station_id":"ce4bhbh2rcd13ifvqepg","pricing_plan_id":"cebpf4jnsgd1na2vs0mg"},{"bike_id":"759afe19-3253-4450-a112-6131260027f4","system_id":"levelo_inurba_marseille","lat":43.28481,"lon":5.38418,"is_reserved":false,"is_disabled":false,"rental_uris":{"android":"levelo://app?vid=759afe19-3253-4450-a112-6131260027f4","ios":"levelo://app?vid=759afe19-3253-4450-a112-6131260027f4"},"vehicle_type_id":"4","last_reported":1776790021,"current_range_meters":8000,"station_id":"ce4bh512rcd13ifvqe3g","pricing_plan_id":"cebpf4jnsgd1na2vs0mg"},{"bike_id":"09b23f2b-f144-41e9-93c0-0b139a04d29d","system_id":"levelo_inurba_marseille","lat":43.29901,"lon":5.43673,"is_reserved":false,"is_disabled":false,"rental_uris":{"android":"levelo://app?vid=09b23f2b-f144-41e9-93c0-0b139a04d29d","ios":"levelo://app?vid=09b23f2b-f144-41e9-93c0-0b139a04d29d"},"vehicle_type_id":"4","last_reported":1776790021,"current_range_meters":8000,"station_id":"ce4bhpp2rcd13ifvqhfg","pricing_plan_id":"cebpf4jnsgd1na2vs0mg"},{"bike_id":"99cfcdac-1c6f-4544-bda8-e208b5ed95c8","system_id":"levelo_inurba_marseille","lat":43.26262,"lon":5.37486,"is_reserved":false,"is_disabled":false,"rental_uris":{"android":"levelo://app?vid=99cfcdac-1c6f-4544-bda8-e208b5ed95c8","ios":"levelo://app?vid=99cfcdac-1c6f-4544-bda8-e208b5ed95c8"},"vehicle_type_id":"4","last_reported":1776790021,"current_range_meters":8000,"station_id":"","pricing_plan_id":"cebpf4jnsgd1na2vs0mg"},{"bike_id":"921135c7-c9ae-4093-80e5-e56955581a11","system_id":"levelo_inurba_marseille","lat":43.267792,"lon":5.394199,"is_reserved":false,"is_disabled":false,"rental_uris":{"android":"levelo://app?vid=921135c7-c9ae-4093-80e5-e56955581a11","ios":"levelo://app?vid=921135c7-c9ae-4093-80e5-e56955581a11"},"vehicle_type_id":"4","last_reported":1776790021,"current_range_meters":8000,"station_id":"ce4bhhp2rcd13ifvqfm0","pricing_plan_id":"cebpf4jnsgd1na2vs0mg"},{"bike_id":"1c6b755e-7dd3-46b3-bdff-1e43d7c0a653","system_id":"levelo_inurba_marseille","lat":43.30646,"lon":5.40104,"is_reserved":false,"is_disabled":false,"rental_uris":{"android":"levelo://app?vid=1c6b755e-7dd3-46b3-bdff-1e43d7c0a653","ios":"levelo://app?vid=1c6b755e-7dd3-46b3-bdff-1e43d7c0a653"},"vehicle_type_id":"4","last_reported":1776790021,"current_range_meters":8400,"station_id":"ce4bh112rcd13ifvqda0","pricing_plan_id":"cebpf4jnsgd1na2vs0mg"},{"bike_id":"44e696fa-fa54-42a6-be08-1bab5286dc01","system_id":"levelo_inurba_marseille","lat":43.28419,"lon":5.35002,"is_reserved":false,"is_disabled":false,"rental_uris":{"android":"levelo://app?vid=44e696fa-fa54-42a6-be08-1bab5286dc01","ios":"levelo://app?vid=44e696fa-fa54-42a6-be08-1bab5286dc01"},"vehicle_type_id":"4","last_reported":1776790021,"current_range_meters":8400,"station_id":"ce4bhbh2rcd13ifvqepg","pricing_plan_id":"cebpf4jnsgd1na2vs0mg"},{"bike_id":"81bc26ea-d8cb-46ab-b7ef-05d759ea57e3","system_id":"levelo_inurba_marseille","lat":43.30831,"lon":5.41652,"is_reserved":false,"is_disabled":false,"rental_uris":{"android":"levelo://app?vid=81bc26ea-d8cb-46ab-b7ef-05d759ea57e3","ios":"levelo://app?vid=81bc26ea-d8cb-46ab-b7ef-05d759ea57e3"},"vehicle_type_id":"4","last_reported":1776790021,"current_range_meters":8400,"station_id":"","pricing_plan_id":"cebpf4jnsgd1na2vs0mg"},{"bike_id":"d420143e-37e9-4bbd-a3bb-322c4c4ad02e","system_id":"levelo_inurba_marseille","lat":43.2795,"lon":5.38705,"is_reserved":false,"is_disabled":false,"rental_uris":{"android":"levelo://app?vid=d420143e-37e9-4bbd-a3bb-322c4c4ad02e","ios":"levelo://app?vid=d420143e-37e9-4bbd-a3bb-322c4c4ad02e"},"vehicle_type_id":"4","last_reported":1776790021,"current_range_meters":8400,"station_id":"ce4bhg12rcd13ifvqf80","pricing_plan_id":"cebpf4jnsgd1na2vs0mg"},{"bike_id":"c967b760-28a0-4d48-9637-1a449965c541","system_id":"levelo_inurba_marseille","lat":43.25928,"lon":5.38592,"is_reserved":false,"is_disabled":false,"rental_uris":{"android":"levelo://app?vid=c967b760-28a0-4d48-9637-1a449965c541","ios":"levelo://app?vid=c967b760-28a0-4d48-9637-1a449965c541"},"vehicle_type_id":"4","last_reported":1776790021,"current_range_meters":8400,"station_id":"","pricing_plan_id":"cebpf4jnsgd1na2vs0mg"},{"bike_id":"23b71376-382a-4e83-a92a-fc3fbbaf3295","system_id":"levelo_inurba_marseille","lat":43.30543,"lon":5.36551,"is_reserved":false,"is_disabled":false,"rental_uris":{"android":"levelo://app?vid=23b71376-382a-4e83-a92a-fc3fbbaf3295","ios":"levelo://app?vid=23b71376-382a-4e83-a92a-fc3fbbaf3295"},"vehicle_type_id":"4","last_reported":1776790021,"current_range_meters":8400,"station_id":"ce4bgs12rcd13ifvqcag","pricing_plan_id":"cebpf4jnsgd1na2vs0mg"},{"bike_id":"ae1a0ce0-3e2e-4cf2-b858-405a12aeabc1","system_id":"levelo_inurba_marseille","lat":43.27072,"lon":5.42321,"is_reserved":false,"is_disabled":false,"rental_uris":{"android":"levelo://app?vid=ae1a0ce0-3e2e-4cf2-b858-405a12aeabc1","ios":"levelo://app?vid=ae1a0ce0-3e2e-4cf2-b858-405a12aeabc1"},"vehicle_type_id":"4","last_reported":1776790021,"current_range_meters":8400,"station_id":"ce4bhk92rcd13ifvqgb0","pricing_plan_id":"cebpf4jnsgd1na2vs0mg"},{"bike_id":"7eb05a57-ffbe-425b-af9a-6f4f7926e2c1","system_id":"levelo_inurba_marseille","lat":43.28682,"lon":5.46696,"is_reserved":false,"is_disabled":false,"rental_uris":{"android":"levelo://app?vid=7eb05a57-ffbe-425b-af9a-6f4f7926e2c1","ios":"levelo://app?vid=7eb05a57-ffbe-425b-af9a-6f4f7926e2c1"},"vehicle_type_id":"4","last_reported":1776790021,"current_range_meters":8400,"station_id":"st_d6tc3vkotcvc738tfjhg","pricing_plan_id":"cebpf4jnsgd1na2vs0mg"},{"bike_id":"0cbfccae-bcad-4e64-9a29-809dce752376","system_id":"levelo_inurba_marseille","lat":43.3168,"lon":5.40507,"is_reserved":false,"is_disabled":false,"rental_uris":{"android":"levelo://app?vid=0cbfccae-bcad-4e64-9a29-809dce752376","ios":"levelo://app?vid=0cbfccae-bcad-4e64-9a29-809dce752376"},"vehicle_type_id":"4","last_reported":1776790021,"current_range_meters":8400,"station_id":"ce4bh012rcd13ifvqd00","pricing_plan_id":"cebpf4jnsgd1na2vs0mg"},{"bike_id":"3e552aad-d4a1-455a-ad97-0511817ef94e","system_id":"levelo_inurba_marseille","lat":43.293446,"lon":5.371391,"is_reserved":false,"is_disabled":false,"rental_uris":{"android":"levelo://app?vid=3e552aad-d4a1-455a-ad97-0511817ef94e","ios":"levelo://app?vid=3e552aad-d4a1-455a-ad97-0511817ef94e"},"vehicle_type_id":"4","last_reported":1776790021,"current_range_meters":8400,"station_id":"ce4bgh92rcd13ifvqb40","pricing_plan_id":"cebpf4jnsgd1na2vs0mg"},{"bike_id":"d9be86bb-6c4e-4c05-bc60-e02431cbb916","system_id":"levelo_inurba_marseille","lat":43.31941,"lon":5.36816,"is_reserved":false,"is_disabled":false,"rental_uris":{"android":"levelo://app?vid=d9be86bb-6c4e-4c05-bc60-e02431cbb916","ios":"levelo://app?vid=d9be86bb-6c4e-4c05-bc60-e02431cbb916"},"vehicle_type_id":"4","last_reported":1776790021,"current_range_meters":8400,"station_id":"st_d6o2h0d0559c73evc1b0","pricing_plan_id":"cebpf4jnsgd1na2vs0mg"},{"bike_id":"fab89942-b1c7-4637-9601-2b9517692c1c","system_id":"levelo_inurba_marseille","lat":43.29078,"lon":5.35927,"is_reserved":false,"is_disabled":false,"rental_uris":{"android":"levelo://app?vid=fab89942-b1c7-4637-9601-2b9517692c1c","ios":"levelo://app?vid=fab89942-b1c7-4637-9601-2b9517692c1c"},"vehicle_type_id":"4","last_reported":1776790021,"current_range_meters":8400,"station_id":"ce4bha92rcd13ifvqeg0","pricing_plan_id":"cebpf4jnsgd1na2vs0mg"},{"bike_id":"b07a51c3-709c-4acd-829c-ed70a5239154","system_id":"levelo_inurba_marseille","lat":43.29193,"lon":5.35804,"is_reserved":false,"is_disabled":false,"rental_uris":{"android":"levelo://app?vid=b07a51c3-709c-4acd-829c-ed70a5239154","ios":"levelo://app?vid=b07a51c3-709c-4acd-829c-ed70a5239154"},"vehicle_type_id":"4","last_reported":1776790021,"current_range_meters":8400,"station_id":"ce4bhb12rcd13ifvqel0","pricing_plan_id":"cebpf4jnsgd1na2vs0mg"},{"bike_id":"a511edf3-b3d3-43e5-9e77-baa7c129208e","system_id":"levelo_inurba_marseille","lat":43.2842,"lon":5.34989,"is_reserved":false,"is_disabled":false,"rental_uris":{"android":"levelo://app?vid=a511edf3-b3d3-43e5-9e77-baa7c129208e","ios":"levelo://app?vid=a511edf3-b3d3-43e5-9e77-baa7c129208e"},"vehicle_type_id":"4","last_reported":1776790021,"current_range_meters":8400,"station_id":"ce4bhbh2rcd13ifvqepg","pricing_plan_id":"cebpf4jnsgd1na2vs0mg"},{"bike_id":"f36b765d-0d6f-4a5f-9f6c-3cb9e1935dc2","system_id":"levelo_inurba_marseille","lat":43.29838,"lon":5.37742,"is_reserved":false,"is_disabled":false,"rental_uris":{"android":"levelo://app?vid=f36b765d-0d6f-4a5f-9f6c-3cb9e1935dc2","ios":"levelo://app?vid=f36b765d-0d6f-4a5f-9f6c-3cb9e1935dc2"},"vehicle_type_id":"4","last_reported":1776790021,"current_range_meters":8800,"station_id":"","pricing_plan_id":"cebpf4jnsgd1na2vs0mg"},{"bike_id":"156a9278-c7f8-442d-9b54-2a52d275e0c5","system_id":"levelo_inurba_marseille","lat":43.28615,"lon":5.35101,"is_reserved":false,"is_disabled":true,"rental_uris":{"android":"levelo://app?vid=156a9278-c7f8-442d-9b54-2a52d275e0c5","ios":"levelo://app?vid=156a9278-c7f8-442d-9b54-2a52d275e0c5"},"vehicle_type_id":"4","last_reported":1776790021,"current_range_meters":8800,"station_id":"ce4bhch2rcd13ifvqeug","pricing_plan_id":"cebpf4jnsgd1na2vs0mg"},{"bike_id":"0cfb2b68-bee7-45a9-b197-4342c6f62233","system_id":"levelo_inurba_marseille","lat":43.2843,"lon":5.34995,"is_reserved":false,"is_disabled":false,"rental_uris":{"android":"levelo://app?vid=0cfb2b68-bee7-45a9-b197-4342c6f62233","ios":"levelo://app?vid=0cfb2b68-bee7-45a9-b197-4342c6f62233"},"vehicle_type_id":"4","last_reported":1776790021,"current_range_meters":8800,"station_id":"ce4bhbh2rcd13ifvqepg","pricing_plan_id":"cebpf4jnsgd1na2vs0mg"},{"bike_id":"dc118715-7f3d-4561-8988-dedacdeee5a7","system_id":"levelo_inurba_marseille","lat":43.29556,"lon":5.42282,"is_reserved":false,"is_disabled":false,"rental_uris":{"android":"levelo://app?vid=dc118715-7f3d-4561-8988-dedacdeee5a7","ios":"levelo://app?vid=dc118715-7f3d-4561-8988-dedacdeee5a7"},"vehicle_type_id":"4","last_reported":1776790021,"current_range_meters":8800,"station_id":"ce4bhph2rcd13ifvqhdg","pricing_plan_id":"cebpf4jnsgd1na2vs0mg"},{"bike_id":"37eae820-b39c-4a10-b9f1-bbf6af567e33","system_id":"levelo_inurba_marseille","lat":43.29605,"lon":5.37722,"is_reserved":false,"is_disabled":false,"rental_uris":{"android":"levelo://app?vid=37eae820-b39c-4a10-b9f1-bbf6af567e33","ios":"levelo://app?vid=37eae820-b39c-4a10-b9f1-bbf6af567e33"},"vehicle_type_id":"4","last_reported":1776790021,"current_range_meters":8800,"station_id":"ce4bgi92rcd13ifvqb90","pricing_plan_id":"cebpf4jnsgd1na2vs0mg"},{"bike_id":"0cf9c7d1-4ff6-4885-afdb-1945ed4e0993","system_id":"levelo_inurba_marseille","lat":43.29645,"lon":5.40596,"is_reserved":false,"is_disabled":true,"rental_uris":{"android":"levelo://app?vid=0cf9c7d1-4ff6-4885-afdb-1945ed4e0993","ios":"levelo://app?vid=0cf9c7d1-4ff6-4885-afdb-1945ed4e0993"},"vehicle_type_id":"4","last_reported":1776790021,"current_range_meters":8800,"station_id":"ce4bh0h2rcd13ifvqd60","pricing_plan_id":"cebpf4jnsgd1na2vs0mg"},{"bike_id":"74d936c7-ffd9-4cf3-8de5-4d5fdb5ef9ee","system_id":"levelo_inurba_marseille","lat":43.29581,"lon":5.36738,"is_reserved":false,"is_disabled":false,"rental_uris":{"android":"levelo://app?vid=74d936c7-ffd9-4cf3-8de5-4d5fdb5ef9ee","ios":"levelo://app?vid=74d936c7-ffd9-4cf3-8de5-4d5fdb5ef9ee"},"vehicle_type_id":"4","last_reported":1776790021,"current_range_meters":8800,"station_id":"ce4bgph2rcd13ifvqc2g","pricing_plan_id":"cebpf4jnsgd1na2vs0mg"},{"bike_id":"26108a7d-7d1b-4747-a538-4f3558fbfe24","system_id":"levelo_inurba_marseille","lat":43.29198,"lon":5.358,"is_reserved":false,"is_disabled":false,"rental_uris":{"android":"levelo://app?vid=26108a7d-7d1b-4747-a538-4f3558fbfe24","ios":"levelo://app?vid=26108a7d-7d1b-4747-a538-4f3558fbfe24"},"vehicle_type_id":"4","last_reported":1776790021,"current_range_meters":8800,"station_id":"ce4bhb12rcd13ifvqel0","pricing_plan_id":"cebpf4jnsgd1na2vs0mg"},{"bike_id":"3448f0f4-d448-4b78-8559-0a980538ebbf","system_id":"levelo_inurba_marseille","lat":43.29483,"lon":5.43305,"is_reserved":false,"is_disabled":false,"rental_uris":{"android":"levelo://app?vid=3448f0f4-d448-4b78-8559-0a980538ebbf","ios":"levelo://app?vid=3448f0f4-d448-4b78-8559-0a980538ebbf"},"vehicle_type_id":"4","last_reported":1776790021,"current_range_meters":8800,"station_id":"st_d3j5ugp08ojc73fj9d10","pricing_plan_id":"cebpf4jnsgd1na2vs0mg"},{"bike_id":"5b31ba61-f229-47dd-99bf-d4aac0400a73","system_id":"levelo_inurba_marseille","lat":43.28433,"lon":5.34969,"is_reserved":false,"is_disabled":false,"rental_uris":{"android":"levelo://app?vid=5b31ba61-f229-47dd-99bf-d4aac0400a73","ios":"levelo://app?vid=5b31ba61-f229-47dd-99bf-d4aac0400a73"},"vehicle_type_id":"4","last_reported":1776790021,"current_range_meters":8800,"station_id":"ce4bhbh2rcd13ifvqepg","pricing_plan_id":"cebpf4jnsgd1na2vs0mg"},{"bike_id":"7da03474-09b2-44d7-aed2-64f78735c9f7","system_id":"levelo_inurba_marseille","lat":43.28423,"lon":5.3499,"is_reserved":false,"is_disabled":false,"rental_uris":{"android":"levelo://app?vid=7da03474-09b2-44d7-aed2-64f78735c9f7","ios":"levelo://app?vid=7da03474-09b2-44d7-aed2-64f78735c9f7"},"vehicle_type_id":"4","last_reported":1776790021,"current_range_meters":8800,"station_id":"ce4bhbh2rcd13ifvqepg","pricing_plan_id":"cebpf4jnsgd1na2vs0mg"},{"bike_id":"a5932d33-7fe4-4ab5-ab73-558a4a420627","system_id":"levelo_inurba_marseille","lat":43.24453,"lon":5.40049,"is_reserved":false,"is_disabled":false,"rental_uris":{"android":"levelo://app?vid=a5932d33-7fe4-4ab5-ab73-558a4a420627","ios":"levelo://app?vid=a5932d33-7fe4-4ab5-ab73-558a4a420627"},"vehicle_type_id":"4","last_reported":1776790021,"current_range_meters":8800,"station_id":"","pricing_plan_id":"cebpf4jnsgd1na2vs0mg"},{"bike_id":"adbc3ce7-da46-439d-a511-553cc4470446","system_id":"levelo_inurba_marseille","lat":43.26209,"lon":5.37448,"is_reserved":false,"is_disabled":false,"rental_uris":{"android":"levelo://app?vid=adbc3ce7-da46-439d-a511-553cc4470446","ios":"levelo://app?vid=adbc3ce7-da46-439d-a511-553cc4470446"},"vehicle_type_id":"4","last_reported":1776790021,"current_range_meters":8800,"station_id":"ce4bhgp2rcd13ifvqfc0","pricing_plan_id":"cebpf4jnsgd1na2vs0mg"},{"bike_id":"5240aeed-5a68-4d29-a0ce-1a635f0d3b8e","system_id":"levelo_inurba_marseille","lat":43.26202,"lon":5.37937,"is_reserved":false,"is_disabled":false,"rental_uris":{"android":"levelo://app?vid=5240aeed-5a68-4d29-a0ce-1a635f0d3b8e","ios":"levelo://app?vid=5240aeed-5a68-4d29-a0ce-1a635f0d3b8e"},"vehicle_type_id":"4","last_reported":1776790021,"current_range_meters":8800,"station_id":"ce4bhjp2rcd13ifvqg90","pricing_plan_id":"cebpf4jnsgd1na2vs0mg"},{"bike_id":"61b3aea9-0113-4ac0-b8e1-3dc8d194446c","system_id":"levelo_inurba_marseille","lat":43.30138,"lon":5.43125,"is_reserved":false,"is_disabled":true,"rental_uris":{"android":"levelo://app?vid=61b3aea9-0113-4ac0-b8e1-3dc8d194446c","ios":"levelo://app?vid=61b3aea9-0113-4ac0-b8e1-3dc8d194446c"},"vehicle_type_id":"4","last_reported":1776790021,"current_range_meters":8800,"station_id":"st_d3js3co5814s73ftftug","pricing_plan_id":"cebpf4jnsgd1na2vs0mg"},{"bike_id":"65a8b774-a3ae-49e2-a641-e726fad4ffed","system_id":"levelo_inurba_marseille","lat":43.29287,"lon":5.36822,"is_reserved":false,"is_disabled":false,"rental_uris":{"android":"levelo://app?vid=65a8b774-a3ae-49e2-a641-e726fad4ffed","ios":"levelo://app?vid=65a8b774-a3ae-49e2-a641-e726fad4ffed"},"vehicle_type_id":"4","last_reported":1776790021,"current_range_meters":9200,"station_id":"ce4bhbp2rcd13ifvqesg","pricing_plan_id":"cebpf4jnsgd1na2vs0mg"},{"bike_id":"07a9a8e0-ee81-4fc3-882a-eff9eff6e772","system_id":"levelo_inurba_marseille","lat":43.27617,"lon":5.36119,"is_reserved":false,"is_disabled":false,"rental_uris":{"android":"levelo://app?vid=07a9a8e0-ee81-4fc3-882a-eff9eff6e772","ios":"levelo://app?vid=07a9a8e0-ee81-4fc3-882a-eff9eff6e772"},"vehicle_type_id":"4","last_reported":1776790021,"current_range_meters":9200,"station_id":"ce4bgj92rcd13ifvqbe0","pricing_plan_id":"cebpf4jnsgd1na2vs0mg"},{"bike_id":"f3ddfd56-59d4-4df4-a2e2-c2cc0fe7ccdc","system_id":"levelo_inurba_marseille","lat":43.30549,"lon":5.36548,"is_reserved":false,"is_disabled":false,"rental_uris":{"android":"levelo://app?vid=f3ddfd56-59d4-4df4-a2e2-c2cc0fe7ccdc","ios":"levelo://app?vid=f3ddfd56-59d4-4df4-a2e2-c2cc0fe7ccdc"},"vehicle_type_id":"4","last_reported":1776790021,"current_range_meters":9200,"station_id":"ce4bgs12rcd13ifvqcag","pricing_plan_id":"cebpf4jnsgd1na2vs0mg"},{"bike_id":"0e0ec4d9-635c-44a5-bea6-23df2e27f4b9","system_id":"levelo_inurba_marseille","lat":43.27619,"lon":5.36112,"is_reserved":false,"is_disabled":false,"rental_uris":{"android":"levelo://app?vid=0e0ec4d9-635c-44a5-bea6-23df2e27f4b9","ios":"levelo://app?vid=0e0ec4d9-635c-44a5-bea6-23df2e27f4b9"},"vehicle_type_id":"4","last_reported":1776790021,"current_range_meters":9200,"station_id":"ce4bgj92rcd13ifvqbe0","pricing_plan_id":"cebpf4jnsgd1na2vs0mg"},{"bike_id":"b0adef55-9e7a-4a75-89f0-0111ed2c79d4","system_id":"levelo_inurba_marseille","lat":43.29534,"lon":5.38543,"is_reserved":false,"is_disabled":false,"rental_uris":{"android":"levelo://app?vid=b0adef55-9e7a-4a75-89f0-0111ed2c79d4","ios":"levelo://app?vid=b0adef55-9e7a-4a75-89f0-0111ed2c79d4"},"vehicle_type_id":"4","last_reported":1776790021,"current_range_meters":9200,"station_id":"ce4bgih2rcd13ifvqba0","pricing_plan_id":"cebpf4jnsgd1na2vs0mg"},{"bike_id":"e4470980-b65c-4b6a-adf3-8e9408816e0b","system_id":"levelo_inurba_marseille","lat":43.28446,"lon":5.35027,"is_reserved":false,"is_disabled":false,"rental_uris":{"android":"levelo://app?vid=e4470980-b65c-4b6a-adf3-8e9408816e0b","ios":"levelo://app?vid=e4470980-b65c-4b6a-adf3-8e9408816e0b"},"vehicle_type_id":"4","last_reported":1776790021,"current_range_meters":9200,"station_id":"","pricing_plan_id":"cebpf4jnsgd1na2vs0mg"},{"bike_id":"c403fb33-7589-47c9-b0ce-28a085618ce0","system_id":"levelo_inurba_marseille","lat":43.27376,"lon":5.36264,"is_reserved":false,"is_disabled":false,"rental_uris":{"android":"levelo://app?vid=c403fb33-7589-47c9-b0ce-28a085618ce0","ios":"levelo://app?vid=c403fb33-7589-47c9-b0ce-28a085618ce0"},"vehicle_type_id":"4","last_reported":1776790021,"current_range_meters":9200,"station_id":"ce4bhbh2rcd13ifvqeo0","pricing_plan_id":"cebpf4jnsgd1na2vs0mg"},{"bike_id":"353dbd75-4f34-4a0c-8a05-bb9d61e99cd2","system_id":"levelo_inurba_marseille","lat":43.30251,"lon":5.40065,"is_reserved":false,"is_disabled":false,"rental_uris":{"android":"levelo://app?vid=353dbd75-4f34-4a0c-8a05-bb9d61e99cd2","ios":"levelo://app?vid=353dbd75-4f34-4a0c-8a05-bb9d61e99cd2"},"vehicle_type_id":"4","last_reported":1776790021,"current_range_meters":9200,"station_id":"ce4bgvh2rcd13ifvqcs0","pricing_plan_id":"cebpf4jnsgd1na2vs0mg"},{"bike_id":"fd6523c6-ed34-4c3b-9867-9c0a23461711","system_id":"levelo_inurba_marseille","lat":43.27078,"lon":5.42295,"is_reserved":false,"is_disabled":false,"rental_uris":{"android":"levelo://app?vid=fd6523c6-ed34-4c3b-9867-9c0a23461711","ios":"levelo://app?vid=fd6523c6-ed34-4c3b-9867-9c0a23461711"},"vehicle_type_id":"4","last_reported":1776790021,"current_range_meters":9200,"station_id":"ce4bhk92rcd13ifvqgb0","pricing_plan_id":"cebpf4jnsgd1na2vs0mg"},{"bike_id":"e0a58202-517b-476f-ba0a-118d118738e5","system_id":"levelo_inurba_marseille","lat":43.27381,"lon":5.36261,"is_reserved":false,"is_disabled":false,"rental_uris":{"android":"levelo://app?vid=e0a58202-517b-476f-ba0a-118d118738e5","ios":"levelo://app?vid=e0a58202-517b-476f-ba0a-118d118738e5"},"vehicle_type_id":"4","last_reported":1776790021,"current_range_meters":9600,"station_id":"ce4bhbh2rcd13ifvqeo0","pricing_plan_id":"cebpf4jnsgd1na2vs0mg"},{"bike_id":"32023100-5ce8-4637-ad41-206e633c27ce","system_id":"levelo_inurba_marseille","lat":43.24809,"lon":5.37461,"is_reserved":false,"is_disabled":true,"rental_uris":{"android":"levelo://app?vid=32023100-5ce8-4637-ad41-206e633c27ce","ios":"levelo://app?vid=32023100-5ce8-4637-ad41-206e633c27ce"},"vehicle_type_id":"4","last_reported":1776790021,"current_range_meters":9600,"station_id":"ce4bhgh2rcd13ifvqfb0","pricing_plan_id":"cebpf4jnsgd1na2vs0mg"},{"bike_id":"fc83597b-c92a-4d6b-9ec3-85cccb5b70a7","system_id":"levelo_inurba_marseille","lat":43.31957,"lon":5.3677,"is_reserved":false,"is_disabled":false,"rental_uris":{"android":"levelo://app?vid=fc83597b-c92a-4d6b-9ec3-85cccb5b70a7","ios":"levelo://app?vid=fc83597b-c92a-4d6b-9ec3-85cccb5b70a7"},"vehicle_type_id":"4","last_reported":1776790021,"current_range_meters":9600,"station_id":"","pricing_plan_id":"cebpf4jnsgd1na2vs0mg"},{"bike_id":"04257b95-4499-46e1-a4e3-88ab526291ba","system_id":"levelo_inurba_marseille","lat":43.28481,"lon":5.48395,"is_reserved":false,"is_disabled":false,"rental_uris":{"android":"levelo://app?vid=04257b95-4499-46e1-a4e3-88ab526291ba","ios":"levelo://app?vid=04257b95-4499-46e1-a4e3-88ab526291ba"},"vehicle_type_id":"4","last_reported":1776790021,"current_range_meters":9600,"station_id":"st_d3svhcjqgbts73a3dn0g","pricing_plan_id":"cebpf4jnsgd1na2vs0mg"},{"bike_id":"5f2a025a-0e6c-4d03-8502-73ba5136b86b","system_id":"levelo_inurba_marseille","lat":43.28434,"lon":5.34992,"is_reserved":false,"is_disabled":false,"rental_uris":{"android":"levelo://app?vid=5f2a025a-0e6c-4d03-8502-73ba5136b86b","ios":"levelo://app?vid=5f2a025a-0e6c-4d03-8502-73ba5136b86b"},"vehicle_type_id":"4","last_reported":1776790021,"current_range_meters":9600,"station_id":"ce4bhbh2rcd13ifvqepg","pricing_plan_id":"cebpf4jnsgd1na2vs0mg"},{"bike_id":"dc4bb06c-0b64-4a65-9258-90331ab0a7e4","system_id":"levelo_inurba_marseille","lat":43.2871,"lon":5.39994,"is_reserved":false,"is_disabled":false,"rental_uris":{"android":"levelo://app?vid=dc4bb06c-0b64-4a65-9258-90331ab0a7e4","ios":"levelo://app?vid=dc4bb06c-0b64-4a65-9258-90331ab0a7e4"},"vehicle_type_id":"4","last_reported":1776790021,"current_range_meters":9600,"station_id":"ce4bho92rcd13ifvqh3g","pricing_plan_id":"cebpf4jnsgd1na2vs0mg"},{"bike_id":"e865ba2f-3d4d-4eb4-bd0c-5eed6b5ad6c3","system_id":"levelo_inurba_marseille","lat":43.2954,"lon":5.38556,"is_reserved":false,"is_disabled":false,"rental_uris":{"android":"levelo://app?vid=e865ba2f-3d4d-4eb4-bd0c-5eed6b5ad6c3","ios":"levelo://app?vid=e865ba2f-3d4d-4eb4-bd0c-5eed6b5ad6c3"},"vehicle_type_id":"4","last_reported":1776790021,"current_range_meters":9600,"station_id":"ce4bgih2rcd13ifvqba0","pricing_plan_id":"cebpf4jnsgd1na2vs0mg"},{"bike_id":"01afb218-8229-40e7-a2b7-4395e96f3cad","system_id":"levelo_inurba_marseille","lat":43.23072,"lon":5.35489,"is_reserved":false,"is_disabled":false,"rental_uris":{"android":"levelo://app?vid=01afb218-8229-40e7-a2b7-4395e96f3cad","ios":"levelo://app?vid=01afb218-8229-40e7-a2b7-4395e96f3cad"},"vehicle_type_id":"4","last_reported":1776790021,"current_range_meters":9600,"station_id":"cpo3342slgdg3j2ifvpg","pricing_plan_id":"cebpf4jnsgd1na2vs0mg"},{"bike_id":"c7ff1d8c-9f80-4101-92ef-2f0b68fb525f","system_id":"levelo_inurba_marseille","lat":43.27556,"lon":5.39513,"is_reserved":false,"is_disabled":false,"rental_uris":{"android":"levelo://app?vid=c7ff1d8c-9f80-4101-92ef-2f0b68fb525f","ios":"levelo://app?vid=c7ff1d8c-9f80-4101-92ef-2f0b68fb525f"},"vehicle_type_id":"4","last_reported":1776790021,"current_range_meters":9600,"station_id":"","pricing_plan_id":"cebpf4jnsgd1na2vs0mg"},{"bike_id":"f9fdc7f7-f561-4f5b-855a-8af5d1d4eaf2","system_id":"levelo_inurba_marseille","lat":43.28454,"lon":5.3921,"is_reserved":false,"is_disabled":false,"rental_uris":{"android":"levelo://app?vid=f9fdc7f7-f561-4f5b-855a-8af5d1d4eaf2","ios":"levelo://app?vid=f9fdc7f7-f561-4f5b-855a-8af5d1d4eaf2"},"vehicle_type_id":"4","last_reported":1776790021,"current_range_meters":9600,"station_id":"ce4bhoh2rcd13ifvqh5g","pricing_plan_id":"cebpf4jnsgd1na2vs0mg"},{"bike_id":"111c5f43-1d8a-453e-8d23-1742712e8606","system_id":"levelo_inurba_marseille","lat":43.28109,"lon":5.3783,"is_reserved":false,"is_disabled":false,"rental_uris":{"android":"levelo://app?vid=111c5f43-1d8a-453e-8d23-1742712e8606","ios":"levelo://app?vid=111c5f43-1d8a-453e-8d23-1742712e8606"},"vehicle_type_id":"4","last_reported":1776790021,"current_range_meters":9600,"station_id":"ce4bha12rcd13ifvqee0","pricing_plan_id":"cebpf4jnsgd1na2vs0mg"},{"bike_id":"ba484d30-ae7b-475d-9efa-cb2630fd3178","system_id":"levelo_inurba_marseille","lat":43.25517,"lon":5.37674,"is_reserved":false,"is_disabled":false,"rental_uris":{"android":"levelo://app?vid=ba484d30-ae7b-475d-9efa-cb2630fd3178","ios":"levelo://app?vid=ba484d30-ae7b-475d-9efa-cb2630fd3178"},"vehicle_type_id":"4","last_reported":1776790021,"current_range_meters":9600,"station_id":"ce4bhh12rcd13ifvqff0","pricing_plan_id":"cebpf4jnsgd1na2vs0mg"},{"bike_id":"d43177de-9b7b-466e-8865-8bb85bcd1ada","system_id":"levelo_inurba_marseille","lat":43.27016,"lon":5.39889,"is_reserved":false,"is_disabled":false,"rental_uris":{"android":"levelo://app?vid=d43177de-9b7b-466e-8865-8bb85bcd1ada","ios":"levelo://app?vid=d43177de-9b7b-466e-8865-8bb85bcd1ada"},"vehicle_type_id":"4","last_reported":1776790021,"current_range_meters":9600,"station_id":"","pricing_plan_id":"cebpf4jnsgd1na2vs0mg"},{"bike_id":"059b4ad8-665d-46df-9a3f-e9b9a20a1c99","system_id":"levelo_inurba_marseille","lat":43.33543,"lon":5.37482,"is_reserved":false,"is_disabled":false,"rental_uris":{"android":"levelo://app?vid=059b4ad8-665d-46df-9a3f-e9b9a20a1c99","ios":"levelo://app?vid=059b4ad8-665d-46df-9a3f-e9b9a20a1c99"},"vehicle_type_id":"4","last_reported":1776790021,"current_range_meters":9600,"station_id":"st_d46tts09ee8s73dlu43g","pricing_plan_id":"cebpf4jnsgd1na2vs0mg"},{"bike_id":"1cd3978d-30b2-4766-9b4d-557d3ee3c49e","system_id":"levelo_inurba_marseille","lat":43.29008,"lon":5.35611,"is_reserved":false,"is_disabled":false,"rental_uris":{"android":"levelo://app?vid=1cd3978d-30b2-4766-9b4d-557d3ee3c49e","ios":"levelo://app?vid=1cd3978d-30b2-4766-9b4d-557d3ee3c49e"},"vehicle_type_id":"4","last_reported":1776790021,"current_range_meters":10000,"station_id":"ce4bhb92rcd13ifvqen0","pricing_plan_id":"cebpf4jnsgd1na2vs0mg"},{"bike_id":"75400a98-acf8-4b08-98c2-025c3347576a","system_id":"levelo_inurba_marseille","lat":43.29551,"lon":5.38675,"is_reserved":false,"is_disabled":false,"rental_uris":{"android":"levelo://app?vid=75400a98-acf8-4b08-98c2-025c3347576a","ios":"levelo://app?vid=75400a98-acf8-4b08-98c2-025c3347576a"},"vehicle_type_id":"4","last_reported":1776790021,"current_range_meters":10000,"station_id":"","pricing_plan_id":"cebpf4jnsgd1na2vs0mg"},{"bike_id":"a3967867-b86a-457f-a410-c33acf78fe0e","system_id":"levelo_inurba_marseille","lat":43.2925,"lon":5.40923,"is_reserved":false,"is_disabled":false,"rental_uris":{"android":"levelo://app?vid=a3967867-b86a-457f-a410-c33acf78fe0e","ios":"levelo://app?vid=a3967867-b86a-457f-a410-c33acf78fe0e"},"vehicle_type_id":"4","last_reported":1776790021,"current_range_meters":10000,"station_id":"ce4bh192rcd13ifvqdc0","pricing_plan_id":"cebpf4jnsgd1na2vs0mg"},{"bike_id":"0e3211be-7832-484d-9fc7-4688dff947ac","system_id":"levelo_inurba_marseille","lat":43.30143,"lon":5.39878,"is_reserved":false,"is_disabled":false,"rental_uris":{"android":"levelo://app?vid=0e3211be-7832-484d-9fc7-4688dff947ac","ios":"levelo://app?vid=0e3211be-7832-484d-9fc7-4688dff947ac"},"vehicle_type_id":"4","last_reported":1776790021,"current_range_meters":10000,"station_id":"ce4bh0h2rcd13ifvqd40","pricing_plan_id":"cebpf4jnsgd1na2vs0mg"},{"bike_id":"0ae342eb-a682-4024-97ab-997c93fd978f","system_id":"levelo_inurba_marseille","lat":43.31137,"lon":5.37277,"is_reserved":false,"is_disabled":false,"rental_uris":{"android":"levelo://app?vid=0ae342eb-a682-4024-97ab-997c93fd978f","ios":"levelo://app?vid=0ae342eb-a682-4024-97ab-997c93fd978f"},"vehicle_type_id":"4","last_reported":1776790021,"current_range_meters":10000,"station_id":"","pricing_plan_id":"cebpf4jnsgd1na2vs0mg"},{"bike_id":"8feb9757-8658-49fc-83e9-28d9ed41991d","system_id":"levelo_inurba_marseille","lat":43.29971,"lon":5.41313,"is_reserved":false,"is_disabled":false,"rental_uris":{"android":"levelo://app?vid=8feb9757-8658-49fc-83e9-28d9ed41991d","ios":"levelo://app?vid=8feb9757-8658-49fc-83e9-28d9ed41991d"},"vehicle_type_id":"4","last_reported":1776790021,"current_range_meters":10000,"station_id":"ce4bhp12rcd13ifvqh9g","pricing_plan_id":"cebpf4jnsgd1na2vs0mg"},{"bike_id":"3e44af47-15f1-4eab-8dc7-82170c179e57","system_id":"levelo_inurba_marseille","lat":43.28421,"lon":5.34987,"is_reserved":false,"is_disabled":false,"rental_uris":{"android":"levelo://app?vid=3e44af47-15f1-4eab-8dc7-82170c179e57","ios":"levelo://app?vid=3e44af47-15f1-4eab-8dc7-82170c179e57"},"vehicle_type_id":"4","last_reported":1776790021,"current_range_meters":10000,"station_id":"ce4bhbh2rcd13ifvqepg","pricing_plan_id":"cebpf4jnsgd1na2vs0mg"},{"bike_id":"12d1ddb5-1e2c-4b2d-a0d4-dafdec917212","system_id":"levelo_inurba_marseille","lat":43.28461,"lon":5.4842,"is_reserved":false,"is_disabled":false,"rental_uris":{"android":"levelo://app?vid=12d1ddb5-1e2c-4b2d-a0d4-dafdec917212","ios":"levelo://app?vid=12d1ddb5-1e2c-4b2d-a0d4-dafdec917212"},"vehicle_type_id":"4","last_reported":1776790021,"current_range_meters":10000,"station_id":"","pricing_plan_id":"cebpf4jnsgd1na2vs0mg"},{"bike_id":"07cc4347-af86-46df-bc26-aefa1eede097","system_id":"levelo_inurba_marseille","lat":43.287,"lon":5.39986,"is_reserved":false,"is_disabled":false,"rental_uris":{"android":"levelo://app?vid=07cc4347-af86-46df-bc26-aefa1eede097","ios":"levelo://app?vid=07cc4347-af86-46df-bc26-aefa1eede097"},"vehicle_type_id":"4","last_reported":1776790021,"current_range_meters":10000,"station_id":"ce4bho92rcd13ifvqh3g","pricing_plan_id":"cebpf4jnsgd1na2vs0mg"},{"bike_id":"42bc5912-9f51-49f0-a597-ebcfd7df5cbb","system_id":"levelo_inurba_marseille","lat":43.29689,"lon":5.36604,"is_reserved":false,"is_disabled":true,"rental_uris":{"android":"levelo://app?vid=42bc5912-9f51-49f0-a597-ebcfd7df5cbb","ios":"levelo://app?vid=42bc5912-9f51-49f0-a597-ebcfd7df5cbb"},"vehicle_type_id":"4","last_reported":1776790021,"current_range_meters":10000,"station_id":"ce4bgn12rcd13ifvqbt0","pricing_plan_id":"cebpf4jnsgd1na2vs0mg"},{"bike_id":"d1fda486-70ba-4609-b998-7713b50defe1","system_id":"levelo_inurba_marseille","lat":43.27049,"lon":5.40067,"is_reserved":false,"is_disabled":false,"rental_uris":{"android":"levelo://app?vid=d1fda486-70ba-4609-b998-7713b50defe1","ios":"levelo://app?vid=d1fda486-70ba-4609-b998-7713b50defe1"},"vehicle_type_id":"4","last_reported":1776790021,"current_range_meters":10000,"station_id":"","pricing_plan_id":"cebpf4jnsgd1na2vs0mg"},{"bike_id":"ea54b7f9-00c6-43b1-9a5a-534a8cb9648e","system_id":"levelo_inurba_marseille","lat":43.29815,"lon":5.38542,"is_reserved":false,"is_disabled":false,"rental_uris":{"android":"levelo://app?vid=ea54b7f9-00c6-43b1-9a5a-534a8cb9648e","ios":"levelo://app?vid=ea54b7f9-00c6-43b1-9a5a-534a8cb9648e"},"vehicle_type_id":"4","last_reported":1776790021,"current_range_meters":10000,"station_id":"","pricing_plan_id":"cebpf4jnsgd1na2vs0mg"},{"bike_id":"53ac9b94-d2b8-401a-8133-9009372f217e","system_id":"levelo_inurba_marseille","lat":43.28446,"lon":5.48421,"is_reserved":false,"is_disabled":false,"rental_uris":{"android":"levelo://app?vid=53ac9b94-d2b8-401a-8133-9009372f217e","ios":"levelo://app?vid=53ac9b94-d2b8-401a-8133-9009372f217e"},"vehicle_type_id":"4","last_reported":1776790021,"current_range_meters":10000,"station_id":"st_d3svhcjqgbts73a3dn0g","pricing_plan_id":"cebpf4jnsgd1na2vs0mg"},{"bike_id":"3fd8a6e7-2228-45c4-925d-db63c872ba62","system_id":"levelo_inurba_marseille","lat":43.29009,"lon":5.35614,"is_reserved":false,"is_disabled":false,"rental_uris":{"android":"levelo://app?vid=3fd8a6e7-2228-45c4-925d-db63c872ba62","ios":"levelo://app?vid=3fd8a6e7-2228-45c4-925d-db63c872ba62"},"vehicle_type_id":"4","last_reported":1776790021,"current_range_meters":10000,"station_id":"ce4bhb92rcd13ifvqen0","pricing_plan_id":"cebpf4jnsgd1na2vs0mg"},{"bike_id":"00189a0e-8bac-4d11-85b6-2438ebff76d6","system_id":"levelo_inurba_marseille","lat":43.29436,"lon":5.38419,"is_reserved":false,"is_disabled":false,"rental_uris":{"android":"levelo://app?vid=00189a0e-8bac-4d11-85b6-2438ebff76d6","ios":"levelo://app?vid=00189a0e-8bac-4d11-85b6-2438ebff76d6"},"vehicle_type_id":"4","last_reported":1776790021,"current_range_meters":10000,"station_id":"","pricing_plan_id":"cebpf4jnsgd1na2vs0mg"},{"bike_id":"dff1859b-e883-4e5f-aa77-a304a288267c","system_id":"levelo_inurba_marseille","lat":43.28613,"lon":5.39873,"is_reserved":false,"is_disabled":false,"rental_uris":{"android":"levelo://app?vid=dff1859b-e883-4e5f-aa77-a304a288267c","ios":"levelo://app?vid=dff1859b-e883-4e5f-aa77-a304a288267c"},"vehicle_type_id":"4","last_reported":1776790021,"current_range_meters":10000,"station_id":"st_d4a7ka997mjs738ck50g","pricing_plan_id":"cebpf4jnsgd1na2vs0mg"},{"bike_id":"2ac15ea7-1904-4a69-9f5e-f4cb7754354f","system_id":"levelo_inurba_marseille","lat":43.24059,"lon":5.37738,"is_reserved":false,"is_disabled":false,"rental_uris":{"android":"levelo://app?vid=2ac15ea7-1904-4a69-9f5e-f4cb7754354f","ios":"levelo://app?vid=2ac15ea7-1904-4a69-9f5e-f4cb7754354f"},"vehicle_type_id":"4","last_reported":1776790021,"current_range_meters":10000,"station_id":"ce4bhnp2rcd13ifvqgvg","pricing_plan_id":"cebpf4jnsgd1na2vs0mg"},{"bike_id":"b70bba5d-cc08-4bd8-97a5-4ab70cf98a5c","system_id":"levelo_inurba_marseille","lat":43.28358,"lon":5.38094,"is_reserved":false,"is_disabled":false,"rental_uris":{"android":"levelo://app?vid=b70bba5d-cc08-4bd8-97a5-4ab70cf98a5c","ios":"levelo://app?vid=b70bba5d-cc08-4bd8-97a5-4ab70cf98a5c"},"vehicle_type_id":"4","last_reported":1776790021,"current_range_meters":10000,"station_id":"ce4bh412rcd13ifvqdr0","pricing_plan_id":"cebpf4jnsgd1na2vs0mg"},{"bike_id":"9a98ade9-612a-426c-a08d-612dd27875e1","system_id":"levelo_inurba_marseille","lat":43.303,"lon":5.39634,"is_reserved":false,"is_disabled":false,"rental_uris":{"android":"levelo://app?vid=9a98ade9-612a-426c-a08d-612dd27875e1","ios":"levelo://app?vid=9a98ade9-612a-426c-a08d-612dd27875e1"},"vehicle_type_id":"4","last_reported":1776790021,"current_range_meters":10000,"station_id":"","pricing_plan_id":"cebpf4jnsgd1na2vs0mg"},{"bike_id":"3b3d6ce7-5c8c-4664-97b2-eb9e762b2833","system_id":"levelo_inurba_marseille","lat":43.27972,"lon":5.38727,"is_reserved":false,"is_disabled":false,"rental_uris":{"android":"levelo://app?vid=3b3d6ce7-5c8c-4664-97b2-eb9e762b2833","ios":"levelo://app?vid=3b3d6ce7-5c8c-4664-97b2-eb9e762b2833"},"vehicle_type_id":"4","last_reported":1776790021,"current_range_meters":10000,"station_id":"ce4bhg12rcd13ifvqf80","pricing_plan_id":"cebpf4jnsgd1na2vs0mg"},{"bike_id":"e4e51681-4c09-46cc-b22b-e8bd103ccbb6","system_id":"levelo_inurba_marseille","lat":43.2603,"lon":5.37558,"is_reserved":false,"is_disabled":false,"rental_uris":{"android":"levelo://app?vid=e4e51681-4c09-46cc-b22b-e8bd103ccbb6","ios":"levelo://app?vid=e4e51681-4c09-46cc-b22b-e8bd103ccbb6"},"vehicle_type_id":"4","last_reported":1776790021,"current_range_meters":10000,"station_id":"ce4bhgh2rcd13ifvqfa0","pricing_plan_id":"cebpf4jnsgd1na2vs0mg"},{"bike_id":"9bee36b8-13f8-4fea-a2d5-f3c72e3a07d6","system_id":"levelo_inurba_marseille","lat":43.2856,"lon":5.4018,"is_reserved":false,"is_disabled":false,"rental_uris":{"android":"levelo://app?vid=9bee36b8-13f8-4fea-a2d5-f3c72e3a07d6","ios":"levelo://app?vid=9bee36b8-13f8-4fea-a2d5-f3c72e3a07d6"},"vehicle_type_id":"4","last_reported":1776790021,"current_range_meters":10000,"station_id":"","pricing_plan_id":"cebpf4jnsgd1na2vs0mg"},{"bike_id":"85acb5d5-ee61-4921-a901-c200e863dca3","system_id":"levelo_inurba_marseille","lat":43.30876,"lon":5.37181,"is_reserved":false,"is_disabled":false,"rental_uris":{"android":"levelo://app?vid=85acb5d5-ee61-4921-a901-c200e863dca3","ios":"levelo://app?vid=85acb5d5-ee61-4921-a901-c200e863dca3"},"vehicle_type_id":"4","last_reported":1776790021,"current_range_meters":10000,"station_id":"ce4bguh2rcd13ifvqckg","pricing_plan_id":"cebpf4jnsgd1na2vs0mg"},{"bike_id":"305e1809-8fdd-4298-af7d-437eb4120cdd","system_id":"levelo_inurba_marseille","lat":43.28585,"lon":5.38137,"is_reserved":false,"is_disabled":false,"rental_uris":{"android":"levelo://app?vid=305e1809-8fdd-4298-af7d-437eb4120cdd","ios":"levelo://app?vid=305e1809-8fdd-4298-af7d-437eb4120cdd"},"vehicle_type_id":"4","last_reported":1776790021,"current_range_meters":10000,"station_id":"","pricing_plan_id":"cebpf4jnsgd1na2vs0mg"},{"bike_id":"8c1579ea-9b6f-4d90-9430-2a4a6d00abd6","system_id":"levelo_inurba_marseille","lat":43.27614,"lon":5.36105,"is_reserved":false,"is_disabled":false,"rental_uris":{"android":"levelo://app?vid=8c1579ea-9b6f-4d90-9430-2a4a6d00abd6","ios":"levelo://app?vid=8c1579ea-9b6f-4d90-9430-2a4a6d00abd6"},"vehicle_type_id":"4","last_reported":1776790021,"current_range_meters":10800,"station_id":"ce4bgj92rcd13ifvqbe0","pricing_plan_id":"cebpf4jnsgd1na2vs0mg"},{"bike_id":"1c4db81e-e54e-450a-b910-a202dc639503","system_id":"levelo_inurba_marseille","lat":43.28475,"lon":5.4841,"is_reserved":false,"is_disabled":false,"rental_uris":{"android":"levelo://app?vid=1c4db81e-e54e-450a-b910-a202dc639503","ios":"levelo://app?vid=1c4db81e-e54e-450a-b910-a202dc639503"},"vehicle_type_id":"4","last_reported":1776790021,"current_range_meters":10800,"station_id":"","pricing_plan_id":"cebpf4jnsgd1na2vs0mg"},{"bike_id":"6278f332-46f8-498d-826d-48124f4c431d","system_id":"levelo_inurba_marseille","lat":43.26194,"lon":5.37466,"is_reserved":false,"is_disabled":false,"rental_uris":{"android":"levelo://app?vid=6278f332-46f8-498d-826d-48124f4c431d","ios":"levelo://app?vid=6278f332-46f8-498d-826d-48124f4c431d"},"vehicle_type_id":"4","last_reported":1776790021,"current_range_meters":10800,"station_id":"ce4bhgp2rcd13ifvqfc0","pricing_plan_id":"cebpf4jnsgd1na2vs0mg"},{"bike_id":"cd8cd980-3422-4564-bbb5-21d6de54d9d5","system_id":"levelo_inurba_marseille","lat":43.29629,"lon":5.40627,"is_reserved":false,"is_disabled":false,"rental_uris":{"android":"levelo://app?vid=cd8cd980-3422-4564-bbb5-21d6de54d9d5","ios":"levelo://app?vid=cd8cd980-3422-4564-bbb5-21d6de54d9d5"},"vehicle_type_id":"4","last_reported":1776790021,"current_range_meters":10800,"station_id":"ce4bh0h2rcd13ifvqd60","pricing_plan_id":"cebpf4jnsgd1na2vs0mg"},{"bike_id":"204f5d13-a1b9-4360-b2ca-8f34cc6d4298","system_id":"levelo_inurba_marseille","lat":43.296877,"lon":5.373012,"is_reserved":false,"is_disabled":false,"rental_uris":{"android":"levelo://app?vid=204f5d13-a1b9-4360-b2ca-8f34cc6d4298","ios":"levelo://app?vid=204f5d13-a1b9-4360-b2ca-8f34cc6d4298"},"vehicle_type_id":"4","last_reported":1776790021,"current_range_meters":10800,"station_id":"ce4bgk12rcd13ifvqbj0","pricing_plan_id":"cebpf4jnsgd1na2vs0mg"},{"bike_id":"7d25f7aa-5a3e-4159-aa13-cbcda974ae17","system_id":"levelo_inurba_marseille","lat":43.29871,"lon":5.39737,"is_reserved":false,"is_disabled":false,"rental_uris":{"android":"levelo://app?vid=7d25f7aa-5a3e-4159-aa13-cbcda974ae17","ios":"levelo://app?vid=7d25f7aa-5a3e-4159-aa13-cbcda974ae17"},"vehicle_type_id":"4","last_reported":1776790021,"current_range_meters":10800,"station_id":"ce4bh0h2rcd13ifvqd50","pricing_plan_id":"cebpf4jnsgd1na2vs0mg"},{"bike_id":"0949df6d-87e5-48c0-9d77-a0594cc8a1bb","system_id":"levelo_inurba_marseille","lat":43.2739,"lon":5.36303,"is_reserved":false,"is_disabled":false,"rental_uris":{"android":"levelo://app?vid=0949df6d-87e5-48c0-9d77-a0594cc8a1bb","ios":"levelo://app?vid=0949df6d-87e5-48c0-9d77-a0594cc8a1bb"},"vehicle_type_id":"4","last_reported":1776790021,"current_range_meters":10800,"station_id":"ce4bhbh2rcd13ifvqeo0","pricing_plan_id":"cebpf4jnsgd1na2vs0mg"},{"bike_id":"ab441cdc-9cd1-4c8e-b69e-34bb46fece34","system_id":"levelo_inurba_marseille","lat":43.29391,"lon":5.363,"is_reserved":false,"is_disabled":false,"rental_uris":{"android":"levelo://app?vid=ab441cdc-9cd1-4c8e-b69e-34bb46fece34","ios":"levelo://app?vid=ab441cdc-9cd1-4c8e-b69e-34bb46fece34"},"vehicle_type_id":"4","last_reported":1776790021,"current_range_meters":10800,"station_id":"","pricing_plan_id":"cebpf4jnsgd1na2vs0mg"},{"bike_id":"226ece2b-87fc-494b-b9b1-29d4f3a23456","system_id":"levelo_inurba_marseille","lat":43.28324,"lon":5.42632,"is_reserved":false,"is_disabled":false,"rental_uris":{"android":"levelo://app?vid=226ece2b-87fc-494b-b9b1-29d4f3a23456","ios":"levelo://app?vid=226ece2b-87fc-494b-b9b1-29d4f3a23456"},"vehicle_type_id":"4","last_reported":1776790021,"current_range_meters":10800,"station_id":"","pricing_plan_id":"cebpf4jnsgd1na2vs0mg"},{"bike_id":"a94d236d-eba8-4733-81ef-6d7a05120d94","system_id":"levelo_inurba_marseille","lat":43.24898,"lon":5.39442,"is_reserved":false,"is_disabled":false,"rental_uris":{"android":"levelo://app?vid=a94d236d-eba8-4733-81ef-6d7a05120d94","ios":"levelo://app?vid=a94d236d-eba8-4733-81ef-6d7a05120d94"},"vehicle_type_id":"4","last_reported":1776790021,"current_range_meters":10800,"station_id":"","pricing_plan_id":"cebpf4jnsgd1na2vs0mg"},{"bike_id":"ff5ece9a-dacb-4c7f-8dfd-3b39fb1ee81d","system_id":"levelo_inurba_marseille","lat":43.2742,"lon":5.39414,"is_reserved":false,"is_disabled":false,"rental_uris":{"android":"levelo://app?vid=ff5ece9a-dacb-4c7f-8dfd-3b39fb1ee81d","ios":"levelo://app?vid=ff5ece9a-dacb-4c7f-8dfd-3b39fb1ee81d"},"vehicle_type_id":"4","last_reported":1776790021,"current_range_meters":10800,"station_id":"ce4bhdp2rcd13ifvqf20","pricing_plan_id":"cebpf4jnsgd1na2vs0mg"},{"bike_id":"f8d46f57-68ae-42a5-9479-ae67d8834276","system_id":"levelo_inurba_marseille","lat":43.29991,"lon":5.37087,"is_reserved":false,"is_disabled":false,"rental_uris":{"android":"levelo://app?vid=f8d46f57-68ae-42a5-9479-ae67d8834276","ios":"levelo://app?vid=f8d46f57-68ae-42a5-9479-ae67d8834276"},"vehicle_type_id":"4","last_reported":1776790021,"current_range_meters":10800,"station_id":"","pricing_plan_id":"cebpf4jnsgd1na2vs0mg"},