{"last_updated":1740662285,"ttl":60,"version":"2.2","data":{"bikes":[{"bike_id":"afc1e285-a5b4-4ea8-b8ea-60fa90d7309a","system_id":"levelo_inurba_marseille","lat":43.28349,"lon":5.381,"is_reserved":false,"is_disabled":false,"rental_uris":{"android":"levelo://app?vid=afc1e285-a5b4-4ea8-b8ea-60fa90d7309a","ios":"levelo://app?vid=afc1e285-a5b4-4ea8-b8ea-60fa90d7309a"},"vehicle_type_id":"4","last_reported":1740662285,"current_range_meters":2800,"station_id":"ce4bh412rcd13ifvqdr0","pricing_plan_id":"cebpf4jnsgd1na2vs0mg"},{"bike_id":"e6393745-557c-4067-afdc-9db8bcdf2699","system_id":"levelo_inurba_marseille","lat":43.2991,"lon":5.38151,"is_reserved":false,"is_disabled":false,"rental_uris":{"android":"levelo://app?vid=e6393745-557c-4067-afdc-9db8bcdf2699","ios":"levelo://app?vid=e6393745-557c-4067-afdc-9db8bcdf2699"},"vehicle_type_id":"4","last_reported":1740662285,"current_range_meters":3200,"station_id":"ce4bgj12rcd13ifvqbc0","pricing_plan_id":"cebpf4jnsgd1na2vs0mg"},{"bike_id":"a3e13766-928a-45dc-a961-cf036f4339de","system_id":"levelo_inurba_marseille","lat":43.291229,"lon":5.355895,"is_reserved":false,"is_disabled":false,"rental_uris":{"android":"levelo://app?vid=a3e13766-928a-45dc-a961-cf036f4339de","ios":"levelo://app?vid=a3e13766-928a-45dc-a961-cf036f4339de"},"vehicle_type_id":"4","last_reported":1740662285,"current_range_meters":3200,"station_id":"ce4bh2h2rcd13ifvqdh0","pricing_plan_id":"cebpf4jnsgd1na2vs0mg"},{"bike_id":"91521714-db01-4ad7-8d9c-05e970247ca1","system_id":"levelo_inurba_marseille","lat":43.29087,"lon":5.38171,"is_reserved":false,"is_disabled":false,"rental_uris":{"android":"levelo://app?vid=91521714-db01-4ad7-8d9c-05e970247ca1","ios":"levelo://app?vid=91521714-db01-4ad7-8d9c-05e970247ca1"},"vehicle_type_id":"4","last_reported":1740662285,"current_range_meters":3200,"station_id":"ce4bh512rcd13ifvqe2g","pricing_plan_id":"cebpf4jnsgd1na2vs0mg"},{"bike_id":"515417d4-1a36-480a-bb57-d38b1f368d7b","system_id":"levelo_inurba_marseille","lat":43.26568,"lon":5.3902,"is_reserved":false,"is_disabled":false,"rental_uris":{"android":"levelo://app?vid=515417d4-1a36-480a-bb57-d38b1f368d7b","ios":"levelo://app?vid=515417d4-1a36-480a-bb57-d38b1f368d7b"},"vehicle_type_id":"4","last_reported":1740662285,"current_range_meters":3200,"station_id":"ce4bhe12rcd13ifvqf30","pricing_plan_id":"cebpf4jnsgd1na2vs0mg"},{"bike_id":"f2444228-1c79-480c-8118-2c6787d24b92","system_id":"levelo_inurba_marseille","lat":43.29034,"lon":5.38138,"is_reserved":false,"is_disabled":false,"rental_uris":{"android":"levelo://app?vid=f2444228-1c79-480c-8118-2c6787d24b92","ios":"levelo://app?vid=f2444228-1c79-480c-8118-2c6787d24b92"},"vehicle_type_id":"4","last_reported":1740662285,"current_range_meters":3200,"station_id":"ce4bh4p2rcd13ifvqe1g","pricing_plan_id":"cebpf4jnsgd1na2vs0mg"},{"bike_id":"eaf2d068-3688-4c1b-b793-f0b44f6ab291","system_id":"levelo_inurba_marseille","lat":43.28351,"lon":5.38108,"is_reserved":false,"is_disabled":false,"rental_uris":{"android":"levelo://app?vid=eaf2d068-3688-4c1b-b793-f0b44f6ab291","ios":"levelo://app?vid=eaf2d068-3688-4c1b-b793-f0b44f6ab291"},"vehicle_type_id":"4","last_reported":1740662285,"current_range_meters":3200,"station_id":"ce4bh412rcd13ifvqdr0","pricing_plan_id":"cebpf4jnsgd1na2vs0mg"},{"bike_id":"b5368874-e19e-4e33-8e44-b3ac25e43af6","system_id":"levelo_inurba_marseille","lat":43.31314,"lon":5.37082,"is_reserved":false,"is_disabled":false,"rental_uris":{"android":"levelo://app?vid=b5368874-e19e-4e33-8e44-b3ac25e43af6","ios":"levelo://app?vid=b5368874-e19e-4e33-8e44-b3ac25e43af6"},"vehicle_type_id":"4","last_reported":1740662285,"current_range_meters":3600,"station_id":"","pricing_plan_id":"cebpf4jnsgd1na2vs0mg"},{"bike_id":"f51921e5-c0ce-4ecc-9838-315df1b34d4a","system_id":"levelo_inurba_marseille","lat":43.24077,"lon":5.37754,"is_reserved":false,"is_disabled":false,"rental_uris":{"android":"levelo://app?vid=f51921e5-c0ce-4ecc-9838-315df1b34d4a","ios":"levelo://app?vid=f51921e5-c0ce-4ecc-9838-315df1b34d4a"},"vehicle_type_id":"4","last_reported":1740662285,"current_range_meters":4000,"station_id":"ce4bhnp2rcd13ifvqgvg","pricing_plan_id":"cebpf4jnsgd1na2vs0mg"},{"bike_id":"5ccfa91a-6373-47a9-9c9d-dd41403e6728","system_id":"levelo_inurba_marseille","lat":43.28351,"lon":5.38095,"is_reserved":false,"is_disabled":false,"rental_uris":{"android":"levelo://app?vid=5ccfa91a-6373-47a9-9c9d-dd41403e6728","ios":"levelo://app?vid=5ccfa91a-6373-47a9-9c9d-dd41403e6728"},"vehicle_type_id":"4","last_reported":1740662285,"current_range_meters":7200,"station_id":"ce4bh412rcd13ifvqdr0","pricing_plan_id":"cebpf4jnsgd1na2vs0mg"},{"bike_id":"05a499a8-15ef-4dea-936f-8f7db62497e5","system_id":"levelo_inurba_marseille","lat":43.3009,"lon":5.39058,"is_reserved":false,"is_disabled":false,"rental_uris":{"android":"levelo://app?vid=05a499a8-15ef-4dea-936f-8f7db62497e5","ios":"levelo://app?vid=05a499a8-15ef-4dea-936f-8f7db62497e5"},"vehicle_type_id":"4","last_reported":1740662285,"current_range_meters":4000,"station_id":"ce4bh192rcd13ifvqdb0","pricing_plan_id":"cebpf4jnsgd1na2vs0mg"},{"bike_id":"5cb30a4e-a788-45c1-89a0-32a8e696e45e","system_id":"levelo_inurba_marseille","lat":43.29804,"lon":5.3809,"is_reserved":false,"is_disabled":false,"rental_uris":{"android":"levelo://app?vid=5cb30a4e-a788-45c1-89a0-32a8e696e45e","ios":"levelo://app?vid=5cb30a4e-a788-45c1-89a0-32a8e696e45e"},"vehicle_type_id":"4","last_reported":1740662285,"current_range_meters":4400,"station_id":"ce4bgip2rcd13ifvqbb0","pricing_plan_id":"cebpf4jnsgd1na2vs0mg"},{"bike_id":"126e1cf7-f162-4446-96ed-54ec7a64b75b","system_id":"levelo_inurba_marseille","lat":43.24379,"lon":5.3704,"is_reserved":false,"is_disabled":false,"rental_uris":{"android":"levelo://app?vid=126e1cf7-f162-4446-96ed-54ec7a64b75b","ios":"levelo://app?vid=126e1cf7-f162-4446-96ed-54ec7a64b75b"},"vehicle_type_id":"4","last_reported":1740662285,"current_range_meters":4400,"station_id":"ce4bhhh2rcd13ifvqfk0","pricing_plan_id":"cebpf4jnsgd1na2vs0mg"},{"bike_id":"ec260d5d-0244-4fa1-9ca5-4a065ad8d6d0","system_id":"levelo_inurba_marseille","lat":43.279018,"lon":5.395747,"is_reserved":false,"is_disabled":false,"rental_uris":{"android":"levelo://app?vid=ec260d5d-0244-4fa1-9ca5-4a065ad8d6d0","ios":"levelo://app?vid=ec260d5d-0244-4fa1-9ca5-4a065ad8d6d0"},"vehicle_type_id":"4","last_reported":1740662285,"current_range_meters":4400,"station_id":"ce4bhf92rcd13ifvqf40","pricing_plan_id":"cebpf4jnsgd1na2vs0mg"},{"bike_id":"a882b5cc-10d5-4665-8892-a626513d3ca2","system_id":"levelo_inurba_marseille","lat":43.23183,"lon":5.39997,"is_reserved":false,"is_disabled":true,"rental_uris":{"android":"levelo://app?vid=a882b5cc-10d5-4665-8892-a626513d3ca2","ios":"levelo://app?vid=a882b5cc-10d5-4665-8892-a626513d3ca2"},"vehicle_type_id":"4","last_reported":1740662285,"current_range_meters":4800,"station_id":"ce4bhn12rcd13ifvqgqg","pricing_plan_id":"cebpf4jnsgd1na2vs0mg"},{"bike_id":"5b84ca4f-7625-483f-9a9d-6186eecdda3a","system_id":"levelo_inurba_marseille","lat":43.27206,"lon":5.39181,"is_reserved":false,"is_disabled":false,"rental_uris":{"android":"levelo://app?vid=5b84ca4f-7625-483f-9a9d-6186eecdda3a","ios":"levelo://app?vid=5b84ca4f-7625-483f-9a9d-6186eecdda3a"},"vehicle_type_id":"4","last_reported":1740662285,"current_range_meters":4800,"station_id":"ce4bhhp2rcd13ifvqfm0","pricing_plan_id":"cebpf4jnsgd1na2vs0mg"},{"bike_id":"3ef15daa-15c3-425e-a9c0-71c8bbbd0510","system_id":"levelo_inurba_marseille","lat":43.32472,"lon":5.3656,"is_reserved":false,"is_disabled":false,"rental_uris":{"android":"levelo://app?vid=3ef15daa-15c3-425e-a9c0-71c8bbbd0510","ios":"levelo://app?vid=3ef15daa-15c3-425e-a9c0-71c8bbbd0510"},"vehicle_type_id":"4","last_reported":1740662285,"current_range_meters":6400,"station_id":"ce4bhs12rcd13ifvqhvg","pricing_plan_id":"cebpf4jnsgd1na2vs0mg"},{"bike_id":"65e52c55-9754-4530-a7ee-501f5ff5adf6","system_id":"levelo_inurba_marseille","lat":43.30182,"lon":5.36618,"is_reserved":false,"is_disabled":false,"rental_uris":{"android":"levelo://app?vid=65e52c55-9754-4530-a7ee-501f5ff5adf6","ios":"levelo://app?vid=65e52c55-9754-4530-a7ee-501f5ff5adf6"},"vehicle_type_id":"4","last_reported":1740662285,"current_range_meters":5600,"station_id":"ce4bgrh2rcd13ifvqc8g","pricing_plan_id":"cebpf4jnsgd1na2vs0mg"},{"bike_id":"0dcc0352-3717-4f22-a65a-a320d0beaf65","system_id":"levelo_inurba_marseille","lat":43.26939,"lon":5.4026,"is_reserved":false,"is_disabled":false,"rental_uris":{"android":"levelo://app?vid=0dcc0352-3717-4f22-a65a-a320d0beaf65","ios":"levelo://app?vid=0dcc0352-3717-4f22-a65a-a320d0beaf65"},"vehicle_type_id":"4","last_reported":1740662285,"current_range_meters":6000,"station_id":"cjm6bp8fraef2m0cb0m0","pricing_plan_id":"cebpf4jnsgd1na2vs0mg"},{"bike_id":"a2c85ab7-1e06-4246-89e2-5126635f3241","system_id":"levelo_inurba_marseille","lat":43.25578,"lon":5.38228,"is_reserved":false,"is_disabled":false,"rental_uris":{"android":"levelo://app?vid=a2c85ab7-1e06-4246-89e2-5126635f3241","ios":"levelo://app?vid=a2c85ab7-1e06-4246-89e2-5126635f3241"},"vehicle_type_id":"4","last_reported":1740662285,"current_range_meters":6000,"station_id":"ce4bhih2rcd13ifvqfs0","pricing_plan_id":"cebpf4jnsgd1na2vs0mg"},{"bike_id":"69213612-dd0c-45c0-bfbd-222a5d9833c0","system_id":"levelo_inurba_marseille","lat":43.26991,"lon":5.36602,"is_reserved":false,"is_disabled":false,"rental_uris":{"android":"levelo://app?vid=69213612-dd0c-45c0-bfbd-222a5d9833c0","ios":"levelo://app?vid=69213612-dd0c-45c0-bfbd-222a5d9833c0"},"vehicle_type_id":"4","last_reported":1740662285,"current_range_meters":6400,"station_id":"","pricing_plan_id":"cebpf4jnsgd1na2vs0mg"},{"bike_id":"e41f216d-d1d5-46a8-87ef-b63a1e128af0","system_id":"levelo_inurba_marseille","lat":43.29564,"lon":5.375,"is_reserved":false,"is_disabled":false,"rental_uris":{"android":"levelo://app?vid=e41f216d-d1d5-46a8-87ef-b63a1e128af0","ios":"levelo://app?vid=e41f216d-d1d5-46a8-87ef-b63a1e128af0"},"vehicle_type_id":"4","last_reported":1740662285,"current_range_meters":6400,"station_id":"ce4bgh92rcd13ifvqb50","pricing_plan_id":"cebpf4jnsgd1na2vs0mg"},{"bike_id":"c7b17967-71b2-44c1-9149-17b9070e38ce","system_id":"levelo_inurba_marseille","lat":43.24073,"lon":5.37762,"is_reserved":false,"is_disabled":false,"rental_uris":{"android":"levelo://app?vid=c7b17967-71b2-44c1-9149-17b9070e38ce","ios":"levelo://app?vid=c7b17967-71b2-44c1-9149-17b9070e38ce"},"vehicle_type_id":"4","last_reported":1740662285,"current_range_meters":6400,"station_id":"ce4bhnp2rcd13ifvqgvg","pricing_plan_id":"cebpf4jnsgd1na2vs0mg"},{"bike_id":"881ccb12-2a64-4151-87a0-8884ae66c52c","system_id":"levelo_inurba_marseille","lat":43.290031,"lon":5.356197,"is_reserved":false,"is_disabled":false,"rental_uris":{"android":"levelo://app?vid=881ccb12-2a64-4151-87a0-8884ae66c52c","ios":"levelo://app?vid=881ccb12-2a64-4151-87a0-8884ae66c52c"},"vehicle_type_id":"4","last_reported":1740662285,"current_range_meters":6400,"station_id":"ce4bh692rcd13ifvqea0","pricing_plan_id":"cebpf4jnsgd1na2vs0mg"},{"bike_id":"ad802583-4a4d-479d-bfe4-743f806ae64c","system_id":"levelo_inurba_marseille","lat":43.28616,"lon":5.351,"is_reserved":false,"is_disabled":false,"rental_uris":{"android":"levelo://app?vid=ad802583-4a4d-479d-bfe4-743f806ae64c","ios":"levelo://app?vid=ad802583-4a4d-479d-bfe4-743f806ae64c"},"vehicle_type_id":"4","last_reported":1740662285,"current_range_meters":7200,"station_id":"ce4bhch2rcd13ifvqeug","pricing_plan_id":"cebpf4jnsgd1na2vs0mg"},{"bike_id":"005ef489-60dd-4804-b818-ceeb34ef27a1","system_id":"levelo_inurba_marseille","lat":43.28336,"lon":5.38085,"is_reserved":false,"is_disabled":false,"rental_uris":{"android":"levelo://app?vid=005ef489-60dd-4804-b818-ceeb34ef27a1","ios":"levelo://app?vid=005ef489-60dd-4804-b818-ceeb34ef27a1"},"vehicle_type_id":"4","last_reported":1740662285,"current_range_meters":6400,"station_id":"ce4bhgp2rcd13ifvqfe0","pricing_plan_id":"cebpf4jnsgd1na2vs0mg"},{"bike_id":"cc5b8803-1413-4f2d-912e-42c063433ae4","system_id":"levelo_inurba_marseille","lat":43.32104,"lon":5.36771,"is_reserved":false,"is_disabled":false,"rental_uris":{"android":"levelo://app?vid=cc5b8803-1413-4f2d-912e-42c063433ae4","ios":"levelo://app?vid=cc5b8803-1413-4f2d-912e-42c063433ae4"},"vehicle_type_id":"4","last_reported":1740662285,"current_range_meters":6800,"station_id":"ce4bhrh2rcd13ifvqhug","pricing_plan_id":"cebpf4jnsgd1na2vs0mg"},{"bike_id":"26d17ae7-f1e7-4bda-9d27-e8b81405f9da","system_id":"levelo_inurba_marseille","lat":43.24069,"lon":5.37769,"is_reserved":false,"is_disabled":false,"rental_uris":{"android":"levelo://app?vid=26d17ae7-f1e7-4bda-9d27-e8b81405f9da","ios":"levelo://app?vid=26d17ae7-f1e7-4bda-9d27-e8b81405f9da"},"vehicle_type_id":"4","last_reported":1740662285,"current_range_meters":6800,"station_id":"ce4bhnp2rcd13ifvqgvg","pricing_plan_id":"cebpf4jnsgd1na2vs0mg"},{"bike_id":"f9503fac-af60-4989-be43-5d24f2f801b1","system_id":"levelo_inurba_marseille","lat":43.24816,"lon":5.37416,"is_reserved":false,"is_disabled":false,"rental_uris":{"android":"levelo://app?vid=f9503fac-af60-4989-be43-5d24f2f801b1","ios":"levelo://app?vid=f9503fac-af60-4989-be43-5d24f2f801b1"},"vehicle_type_id":"4","last_reported":1740662285,"current_range_meters":7200,"station_id":"ce4bhgh2rcd13ifvqfb0","pricing_plan_id":"cebpf4jnsgd1na2vs0mg"},{"bike_id":"145ab98a-40b7-47ff-af0f-3920118bb7e0","system_id":"levelo_inurba_marseille","lat":43.31324,"lon":5.39686,"is_reserved":false,"is_disabled":false,"rental_uris":{"android":"levelo://app?vid=145ab98a-40b7-47ff-af0f-3920118bb7e0","ios":"levelo://app?vid=145ab98a-40b7-47ff-af0f-3920118bb7e0"},"vehicle_type_id":"4","last_reported":1740662285,"current_range_meters":6400,"station_id":"ce4bgvp2rcd13ifvqcu0","pricing_plan_id":"cebpf4jnsgd1na2vs0mg"},{"bike_id":"9fa81dbc-ac93-435a-a8af-b57bf15f8b88","system_id":"levelo_inurba_marseille","lat":43.23197,"lon":5.35551,"is_reserved":false,"is_disabled":false,"rental_uris":{"android":"levelo://app?vid=9fa81dbc-ac93-435a-a8af-b57bf15f8b88","ios":"levelo://app?vid=9fa81dbc-ac93-435a-a8af-b57bf15f8b88"},"vehicle_type_id":"4","last_reported":1740662285,"current_range_meters":7200,"station_id":"ce4bhu92rcd13ifvqi70","pricing_plan_id":"cebpf4jnsgd1na2vs0mg"},{"bike_id":"1dd01741-bc71-4906-b337-607250f831ed","system_id":"levelo_inurba_marseille","lat":43.26569,"lon":5.39018,"is_reserved":false,"is_disabled":false,"rental_uris":{"android":"levelo://app?vid=1dd01741-bc71-4906-b337-607250f831ed","ios":"levelo://app?vid=1dd01741-bc71-4906-b337-607250f831ed"},"vehicle_type_id":"4","last_reported":1740662285,"current_range_meters":7200,"station_id":"ce4bhe12rcd13ifvqf30","pricing_plan_id":"cebpf4jnsgd1na2vs0mg"},{"bike_id":"da3c4fb5-c137-4b78-a6d7-9e67786b17b0","system_id":"levelo_inurba_marseille","lat":43.3134,"lon":5.36743,"is_reserved":false,"is_disabled":false,"rental_uris":{"android":"levelo://app?vid=da3c4fb5-c137-4b78-a6d7-9e67786b17b0","ios":"levelo://app?vid=da3c4fb5-c137-4b78-a6d7-9e67786b17b0"},"vehicle_type_id":"4","last_reported":1740662285,"current_range_meters":7200,"station_id":"ce4bgr92rcd13ifvqc6g","pricing_plan_id":"cebpf4jnsgd1na2vs0mg"},{"bike_id":"122ce7e4-f8d3-48b2-b711-a731973a577d","system_id":"levelo_inurba_marseille","lat":43.29844,"lon":5.36285,"is_reserved":false,"is_disabled":false,"rental_uris":{"android":"levelo://app?vid=122ce7e4-f8d3-48b2-b711-a731973a577d","ios":"levelo://app?vid=122ce7e4-f8d3-48b2-b711-a731973a577d"},"vehicle_type_id":"4","last_reported":1740662285,"current_range_meters":8000,"station_id":"ce4bgpp2rcd13ifvqc3g","pricing_plan_id":"cebpf4jnsgd1na2vs0mg"},{"bike_id":"726c59e3-85f3-4c19-9069-59332ed75e6b","system_id":"levelo_inurba_marseille","lat":43.29846,"lon":5.3628,"is_reserved":false,"is_disabled":false,"rental_uris":{"android":"levelo://app?vid=726c59e3-85f3-4c19-9069-59332ed75e6b","ios":"levelo://app?vid=726c59e3-85f3-4c19-9069-59332ed75e6b"},"vehicle_type_id":"4","last_reported":1740662285,"current_range_meters":6000,"station_id":"ce4bgpp2rcd13ifvqc3g","pricing_plan_id":"cebpf4jnsgd1na2vs0mg"},{"bike_id":"810cef40-d7c0-418e-b5d2-270e19831319","system_id":"levelo_inurba_marseille","lat":43.29273,"lon":5.40127,"is_reserved":false,"is_disabled":false,"rental_uris":{"android":"levelo://app?vid=810cef40-d7c0-418e-b5d2-270e19831319","ios":"levelo://app?vid=810cef40-d7c0-418e-b5d2-270e19831319"},"vehicle_type_id":"4","last_reported":1740662285,"current_range_meters":7200,"station_id":"ce4bh312rcd13ifvqdk0","pricing_plan_id":"cebpf4jnsgd1na2vs0mg"},{"bike_id":"eaf865df-5620-4c52-8b05-94b3233cd1bf","system_id":"levelo_inurba_marseille","lat":43.30157,"lon":5.38082,"is_reserved":false,"is_disabled":false,"rental_uris":{"android":"levelo://app?vid=eaf865df-5620-4c52-8b05-94b3233cd1bf","ios":"levelo://app?vid=eaf865df-5620-4c52-8b05-94b3233cd1bf"},"vehicle_type_id":"4","last_reported":1740662285,"current_range_meters":7200,"station_id":"ce4bgjp2rcd13ifvqbh0","pricing_plan_id":"cebpf4jnsgd1na2vs0mg"},{"bike_id":"bde3ecc2-fd13-4519-8cd8-959b951ba9a3","system_id":"levelo_inurba_marseille","lat":43.26024,"lon":5.37547,"is_reserved":false,"is_disabled":false,"rental_uris":{"android":"levelo://app?vid=bde3ecc2-fd13-4519-8cd8-959b951ba9a3","ios":"levelo://app?vid=bde3ecc2-fd13-4519-8cd8-959b951ba9a3"},"vehicle_type_id":"4","last_reported":1740662285,"current_range_meters":8000,"station_id":"ce4bhgh2rcd13ifvqfa0","pricing_plan_id":"cebpf4jnsgd1na2vs0mg"},{"bike_id":"338c1835-14ef-43f4-904c-c66f2e0ef0f3","system_id":"levelo_inurba_marseille","lat":43.30542,"lon":5.36554,"is_reserved":false,"is_disabled":false,"rental_uris":{"android":"levelo://app?vid=338c1835-14ef-43f4-904c-c66f2e0ef0f3","ios":"levelo://app?vid=338c1835-14ef-43f4-904c-c66f2e0ef0f3"},"vehicle_type_id":"4","last_reported":1740662285,"current_range_meters":8000,"station_id":"ce4bgs12rcd13ifvqcag","pricing_plan_id":"cebpf4jnsgd1na2vs0mg"},{"bike_id":"ff34c52f-56f1-4588-9323-32f37bcf554e","system_id":"levelo_inurba_marseille","lat":43.32363,"lon":5.38884,"is_reserved":false,"is_disabled":false,"rental_uris":{"android":"levelo://app?vid=ff34c52f-56f1-4588-9323-32f37bcf554e","ios":"levelo://app?vid=ff34c52f-56f1-4588-9323-32f37bcf554e"},"vehicle_type_id":"4","last_reported":1740662285,"current_range_meters":8400,"station_id":"ce4bhqp2rcd13ifvqhog","pricing_plan_id":"cebpf4jnsgd1na2vs0mg"},{"bike_id":"ffb923a4-3388-4e1d-9e39-7e66ae3fdb92","system_id":"levelo_inurba_marseille","lat":43.29283,"lon":5.36852,"is_reserved":false,"is_disabled":false,"rental_uris":{"android":"levelo://app?vid=ffb923a4-3388-4e1d-9e39-7e66ae3fdb92","ios":"levelo://app?vid=ffb923a4-3388-4e1d-9e39-7e66ae3fdb92"},"vehicle_type_id":"4","last_reported":1740662285,"current_range_meters":8000,"station_id":"ce4bhbp2rcd13ifvqesg","pricing_plan_id":"cebpf4jnsgd1na2vs0mg"},{"bike_id":"f64b50fd-c0d3-4766-aa8c-920c7166ef73","system_id":"levelo_inurba_marseille","lat":43.31339,"lon":5.36733,"is_reserved":false,"is_disabled":false,"rental_uris":{"android":"levelo://app?vid=f64b50fd-c0d3-4766-aa8c-920c7166ef73","ios":"levelo://app?vid=f64b50fd-c0d3-4766-aa8c-920c7166ef73"},"vehicle_type_id":"4","last_reported":1740662285,"current_range_meters":8000,"station_id":"ce4bgr92rcd13ifvqc6g","pricing_plan_id":"cebpf4jnsgd1na2vs0mg"},{"bike_id":"527ef4b3-93d6-4f2e-9fc1-ef36990dcc9b","system_id":"levelo_inurba_marseille","lat":43.24074,"lon":5.37738,"is_reserved":false,"is_disabled":false,"rental_uris":{"android":"levelo://app?vid=527ef4b3-93d6-4f2e-9fc1-ef36990dcc9b","ios":"levelo://app?vid=527ef4b3-93d6-4f2e-9fc1-ef36990dcc9b"},"vehicle_type_id":"4","last_reported":1740662285,"current_range_meters":8000,"station_id":"ce4bhnp2rcd13ifvqgvg","pricing_plan_id":"cebpf4jnsgd1na2vs0mg"},{"bike_id":"e6b4a9b1-cd65-416d-8562-60444f594f28","system_id":"levelo_inurba_marseille","lat":43.28714,"lon":5.3794,"is_reserved":false,"is_disabled":false,"rental_uris":{"android":"levelo://app?vid=e6b4a9b1-cd65-416d-8562-60444f594f28","ios":"levelo://app?vid=e6b4a9b1-cd65-416d-8562-60444f594f28"},"vehicle_type_id":"4","last_reported":1740662285,"current_range_meters":7200,"station_id":"ce4bh9p2rcd13ifvqec0","pricing_plan_id":"cebpf4jnsgd1na2vs0mg"},{"bike_id":"112c1a00-6aac-4e2f-86bc-844dc36c4f5c","system_id":"levelo_inurba_marseille","lat":43.31333,"lon":5.36777,"is_reserved":false,"is_disabled":false,"rental_uris":{"android":"levelo://app?vid=112c1a00-6aac-4e2f-86bc-844dc36c4f5c","ios":"levelo://app?vid=112c1a00-6aac-4e2f-86bc-844dc36c4f5c"},"vehicle_type_id":"4","last_reported":1740662285,"current_range_meters":5600,"station_id":"","pricing_plan_id":"cebpf4jnsgd1na2vs0mg"},{"bike_id":"c0d0e1d4-db4c-45b1-a63a-f00660c82781","system_id":"levelo_inurba_marseille","lat":43.27618,"lon":5.36102,"is_reserved":false,"is_disabled":false,"rental_uris":{"android":"levelo://app?vid=c0d0e1d4-db4c-45b1-a63a-f00660c82781","ios":"levelo://app?vid=c0d0e1d4-db4c-45b1-a63a-f00660c82781"},"vehicle_type_id":"4","last_reported":1740662285,"current_range_meters":8000,"station_id":"ce4bgj92rcd13ifvqbe0","pricing_plan_id":"cebpf4jnsgd1na2vs0mg"},{"bike_id":"e58b6d76-b6c8-417a-98b6-86376a088db4","system_id":"levelo_inurba_marseille","lat":43.28944,"lon":5.36385,"is_reserved":false,"is_disabled":false,"rental_uris":{"android":"levelo://app?vid=e58b6d76-b6c8-417a-98b6-86376a088db4","ios":"levelo://app?vid=e58b6d76-b6c8-417a-98b6-86376a088db4"},"vehicle_type_id":"4","last_reported":1740662285,"current_range_meters":8400,"station_id":"ce4bhc92rcd13ifvqetg","pricing_plan_id":"cebpf4jnsgd1na2vs0mg"},{"bike_id":"4d472430-f798-4d66-a15e-a2aa6ed57ca5","system_id":"levelo_inurba_marseille","lat":43.30947,"lon":5.39052,"is_reserved":false,"is_disabled":false,"rental_uris":{"android":"levelo://app?vid=4d472430-f798-4d66-a15e-a2aa6ed57ca5","ios":"levelo://app?vid=4d472430-f798-4d66-a15e-a2aa6ed57ca5"},"vehicle_type_id":"4","last_reported":1740662285,"current_range_meters":8400,"station_id":"ce4bgup2rcd13ifvqco0","pricing_plan_id":"cebpf4jnsgd1na2vs0mg"},{"bike_id":"0a3a40b9-ef61-4fd7-bbd9-c13123c4cf06","system_id":"levelo_inurba_marseille","lat":43.27587,"lon":5.36081,"is_reserved":false,"is_disabled":false,"rental_uris":{"android":"levelo://app?vid=0a3a40b9-ef61-4fd7-bbd9-c13123c4cf06","ios":"levelo://app?vid=0a3a40b9-ef61-4fd7-bbd9-c13123c4cf06"},"vehicle_type_id":"4","last_reported":1740662285,"current_range_meters":8400,"station_id":"ce4bgj92rcd13ifvqbe0","pricing_plan_id":"cebpf4jnsgd1na2vs0mg"},{"bike_id":"4254bdbf-255e-4469-9303-9390a8bf7d03","system_id":"levelo_inurba_marseille","lat":43.31708,"lon":5.43706,"is_reserved":false,"is_disabled":false,"rental_uris":{"android":"levelo://app?vid=4254bdbf-255e-4469-9303-9390a8bf7d03","ios":"levelo://app?vid=4254bdbf-255e-4469-9303-9390a8bf7d03"},"vehicle_type_id":"4","last_reported":1740662285,"current_range_meters":8400,"station_id":"ce4bhp92rcd13ifvqhcg","pricing_plan_id":"cebpf4jnsgd1na2vs0mg"},{"bike_id":"5e68656b-4654-4790-ad7f-01437bdae155","system_id":"levelo_inurba_marseille","lat":43.30536,"lon":5.36527,"is_reserved":false,"is_disabled":false,"rental_uris":{"android":"levelo://app?vid=5e68656b-4654-4790-ad7f-01437bdae155","ios":"levelo://app?vid=5e68656b-4654-4790-ad7f-01437bdae155"},"vehicle_type_id":"4","last_reported":1740662285,"current_range_meters":8400,"station_id":"ce4bgs12rcd13ifvqcag","pricing_plan_id":"cebpf4jnsgd1na2vs0mg"},{"bike_id":"ea7f00c4-a465-4e8e-b086-f967e48e6d83","system_id":"levelo_inurba_marseille","lat":43.29906,"lon":5.37478,"is_reserved":false,"is_disabled":false,"rental_uris":{"android":"levelo://app?vid=ea7f00c4-a465-4e8e-b086-f967e48e6d83","ios":"levelo://app?vid=ea7f00c4-a465-4e8e-b086-f967e48e6d83"},"vehicle_type_id":"4","last_reported":1740662285,"current_range_meters":8400,"station_id":"ce4bgjh2rcd13ifvqbg0","pricing_plan_id":"cebpf4jnsgd1na2vs0mg"},{"bike_id":"8085251c-175b-408b-8076-09f29b3e05ef","system_id":"levelo_inurba_marseille","lat":43.25108,"lon":5.40327,"is_reserved":false,"is_disabled":false,"rental_uris":{"android":"levelo://app?vid=8085251c-175b-408b-8076-09f29b3e05ef","ios":"levelo://app?vid=8085251c-175b-408b-8076-09f29b3e05ef"},"vehicle_type_id":"4","last_reported":1740662285,"current_range_meters":8400,"station_id":"ce4bhlh2rcd13ifvqgig","pricing_plan_id":"cebpf4jnsgd1na2vs0mg"},{"bike_id":"dfc0caa1-6215-4787-99c9-04097bd6985f","system_id":"levelo_inurba_marseille","lat":43.29605,"lon":5.38105,"is_reserved":false,"is_disabled":false,"rental_uris":{"android":"levelo://app?vid=dfc0caa1-6215-4787-99c9-04097bd6985f","ios":"levelo://app?vid=dfc0caa1-6215-4787-99c9-04097bd6985f"},"vehicle_type_id":"4","last_reported":1740662285,"current_range_meters":8400,"station_id":"ce4bgl12rcd13ifvqbo0","pricing_plan_id":"cebpf4jnsgd1na2vs0mg"},{"bike_id":"5740d0f0-e033-43c2-805a-09ab6675288f","system_id":"levelo_inurba_marseille","lat":43.31213,"lon":5.3686,"is_reserved":false,"is_disabled":false,"rental_uris":{"android":"levelo://app?vid=5740d0f0-e033-43c2-805a-09ab6675288f","ios":"levelo://app?vid=5740d0f0-e033-43c2-805a-09ab6675288f"},"vehicle_type_id":"4","last_reported":1740662285,"current_range_meters":1600,"station_id":"ce4bgl92rcd13ifvqbq0","pricing_plan_id":"cebpf4jnsgd1na2vs0mg"},{"bike_id":"84c0f05d-790b-42e7-b05b-b5eb83fe189c","system_id":"levelo_inurba_marseille","lat":43.306006,"lon":5.372281,"is_reserved":false,"is_disabled":false,"rental_uris":{"android":"levelo://app?vid=84c0f05d-790b-42e7-b05b-b5eb83fe189c","ios":"levelo://app?vid=84c0f05d-790b-42e7-b05b-b5eb83fe189c"},"vehicle_type_id":"4","last_reported":1740662285,"current_range_meters":9200,"station_id":"ce4bgqh2rcd13ifvqc4g","pricing_plan_id":"cebpf4jnsgd1na2vs0mg"},{"bike_id":"1a4f671a-f954-404e-8875-3b9e94408277","system_id":"levelo_inurba_marseille","lat":43.260373,"lon":5.37548,"is_reserved":false,"is_disabled":false,"rental_uris":{"android":"levelo://app?vid=1a4f671a-f954-404e-8875-3b9e94408277","ios":"levelo://app?vid=1a4f671a-f954-404e-8875-3b9e94408277"},"vehicle_type_id":"4","last_reported":1740662285,"current_range_meters":8400,"station_id":"ce4bhgh2rcd13ifvqfa0","pricing_plan_id":"cebpf4jnsgd1na2vs0mg"},{"bike_id":"9fc706c2-079e-41bb-846c-4846c643b247","system_id":"levelo_inurba_marseille","lat":43.24181,"lon":5.39727,"is_reserved":false,"is_disabled":false,"rental_uris":{"android":"levelo://app?vid=9fc706c2-079e-41bb-846c-4846c643b247","ios":"levelo://app?vid=9fc706c2-079e-41bb-846c-4846c643b247"},"vehicle_type_id":"4","last_reported":1740662285,"current_range_meters":8400,"station_id":"ce4bhn12rcd13ifvqgpg","pricing_plan_id":"cebpf4jnsgd1na2vs0mg"},{"bike_id":"832c7aa0-66bb-4e99-9f1f-f5f45bdd6361","system_id":"levelo_inurba_marseille","lat":43.32356,"lon":5.38887,"is_reserved":false,"is_disabled":false,"rental_uris":{"android":"levelo://app?vid=832c7aa0-66bb-4e99-9f1f-f5f45bdd6361","ios":"levelo://app?vid=832c7aa0-66bb-4e99-9f1f-f5f45bdd6361"},"vehicle_type_id":"4","last_reported":1740662285,"current_range_meters":8800,"station_id":"ce4bhqp2rcd13ifvqhog","pricing_plan_id":"cebpf4jnsgd1na2vs0mg"},{"bike_id":"8824bfb7-cf33-45ac-8566-87ba7db2be7f","system_id":"levelo_inurba_marseille","lat":43.23193,"lon":5.35555,"is_reserved":false,"is_disabled":false,"rental_uris":{"android":"levelo://app?vid=8824bfb7-cf33-45ac-8566-87ba7db2be7f","ios":"levelo://app?vid=8824bfb7-cf33-45ac-8566-87ba7db2be7f"},"vehicle_type_id":"4","last_reported":1740662285,"current_range_meters":9200,"station_id":"ce4bhu92rcd13ifvqi70","pricing_plan_id":"cebpf4jnsgd1na2vs0mg"},{"bike_id":"6cd2cf02-8380-49e9-9b70-6b86136e67bf","system_id":"levelo_inurba_marseille","lat":43.22926,"lon":5.35379,"is_reserved":false,"is_disabled":false,"rental_uris":{"android":"levelo://app?vid=6cd2cf02-8380-49e9-9b70-6b86136e67bf","ios":"levelo://app?vid=6cd2cf02-8380-49e9-9b70-6b86136e67bf"},"vehicle_type_id":"4","last_reported":1740662285,"current_range_meters":8800,"station_id":"cpo3532slgdg3j2ikp40","pricing_plan_id":"cebpf4jnsgd1na2vs0mg"},{"bike_id":"f766e3d4-eb35-4777-b7ef-5fba818cdd52","system_id":"levelo_inurba_marseille","lat":43.29852,"lon":5.36292,"is_reserved":false,"is_disabled":false,"rental_uris":{"android":"levelo://app?vid=f766e3d4-eb35-4777-b7ef-5fba818cdd52","ios":"levelo://app?vid=f766e3d4-eb35-4777-b7ef-5fba818cdd52"},"vehicle_type_id":"4","last_reported":1740662285,"current_range_meters":8800,"station_id":"ce4bgpp2rcd13ifvqc3g","pricing_plan_id":"cebpf4jnsgd1na2vs0mg"},{"bike_id":"89d1523a-440e-43aa-aa7d-8756bdac2fc3","system_id":"levelo_inurba_marseille","lat":43.23153,"lon":5.43704,"is_reserved":false,"is_disabled":false,"rental_uris":{"android":"levelo://app?vid=89d1523a-440e-43aa-aa7d-8756bdac2fc3","ios":"levelo://app?vid=89d1523a-440e-43aa-aa7d-8756bdac2fc3"},"vehicle_type_id":"4","last_reported":1740662285,"current_range_meters":8400,"station_id":"ce4bhmp2rcd13ifvqgog","pricing_plan_id":"cebpf4jnsgd1na2vs0mg"},{"bike_id":"40f8cdc7-e99f-4bc0-b133-53c02dabc7a9","system_id":"levelo_inurba_marseille","lat":43.26566,"lon":5.39028,"is_reserved":false,"is_disabled":false,"rental_uris":{"android":"levelo://app?vid=40f8cdc7-e99f-4bc0-b133-53c02dabc7a9","ios":"levelo://app?vid=40f8cdc7-e99f-4bc0-b133-53c02dabc7a9"},"vehicle_type_id":"4","last_reported":1740662285,"current_range_meters":9200,"station_id":"ce4bhe12rcd13ifvqf30","pricing_plan_id":"cebpf4jnsgd1na2vs0mg"},{"bike_id":"11f6d0c4-3761-4d4d-a7de-24309d995e65","system_id":"levelo_inurba_marseille","lat":43.28934,"lon":5.36639,"is_reserved":false,"is_disabled":false,"rental_uris":{"android":"levelo://app?vid=11f6d0c4-3761-4d4d-a7de-24309d995e65","ios":"levelo://app?vid=11f6d0c4-3761-4d4d-a7de-24309d995e65"},"vehicle_type_id":"4","last_reported":1740662285,"current_range_meters":9200,"station_id":"ce4bhap2rcd13ifvqek0","pricing_plan_id":"cebpf4jnsgd1na2vs0mg"},{"bike_id":"b9a207d6-452c-4a88-af25-6e46bcc64b3c","system_id":"levelo_inurba_marseille","lat":43.30541,"lon":5.36708,"is_reserved":false,"is_disabled":false,"rental_uris":{"android":"levelo://app?vid=b9a207d6-452c-4a88-af25-6e46bcc64b3c","ios":"levelo://app?vid=b9a207d6-452c-4a88-af25-6e46bcc64b3c"},"vehicle_type_id":"4","last_reported":1740662285,"current_range_meters":9200,"station_id":"ce4bgrp2rcd13ifvqc9g","pricing_plan_id":"cebpf4jnsgd1na2vs0mg"},{"bike_id":"35593f52-cea1-47f3-bc31-1b5a2af0d4d0","system_id":"levelo_inurba_marseille","lat":43.30958,"lon":5.39046,"is_reserved":false,"is_disabled":false,"rental_uris":{"android":"levelo://app?vid=35593f52-cea1-47f3-bc31-1b5a2af0d4d0","ios":"levelo://app?vid=35593f52-cea1-47f3-bc31-1b5a2af0d4d0"},"vehicle_type_id":"4","last_reported":1740662285,"current_range_meters":9200,"station_id":"ce4bgup2rcd13ifvqco0","pricing_plan_id":"cebpf4jnsgd1na2vs0mg"},{"bike_id":"8633070a-4ddc-47e6-b5b4-61d91c0b9736","system_id":"levelo_inurba_marseille","lat":43.29164,"lon":5.37161,"is_reserved":false,"is_disabled":false,"rental_uris":{"android":"levelo://app?vid=8633070a-4ddc-47e6-b5b4-61d91c0b9736","ios":"levelo://app?vid=8633070a-4ddc-47e6-b5b4-61d91c0b9736"},"vehicle_type_id":"4","last_reported":1740662285,"current_range_meters":9200,"station_id":"ce4bha92rcd13ifvqeh0","pricing_plan_id":"cebpf4jnsgd1na2vs0mg"},{"bike_id":"3e42538a-cfb5-4f79-84bb-cc9fd7181266","system_id":"levelo_inurba_marseille","lat":43.29597,"lon":5.38095,"is_reserved":false,"is_disabled":false,"rental_uris":{"android":"levelo://app?vid=3e42538a-cfb5-4f79-84bb-cc9fd7181266","ios":"levelo://app?vid=3e42538a-cfb5-4f79-84bb-cc9fd7181266"},"vehicle_type_id":"4","last_reported":1740662285,"current_range_meters":9200,"station_id":"ce4bgl12rcd13ifvqbo0","pricing_plan_id":"cebpf4jnsgd1na2vs0mg"},{"bike_id":"cca746aa-dc8e-4488-be2e-f08f5457a279","system_id":"levelo_inurba_marseille","lat":43.30538,"lon":5.36551,"is_reserved":false,"is_disabled":false,"rental_uris":{"android":"levelo://app?vid=cca746aa-dc8e-4488-be2e-f08f5457a279","ios":"levelo://app?vid=cca746aa-dc8e-4488-be2e-f08f5457a279"},"vehicle_type_id":"4","last_reported":1740662285,"current_range_meters":11200,"station_id":"ce4bgs12rcd13ifvqcag","pricing_plan_id":"cebpf4jnsgd1na2vs0mg"},{"bike_id":"e2dd7f05-6911-493d-b673-53311ddb0db7","system_id":"levelo_inurba_marseille","lat":43.24076,"lon":5.37741,"is_reserved":false,"is_disabled":false,"rental_uris":{"android":"levelo://app?vid=e2dd7f05-6911-493d-b673-53311ddb0db7","ios":"levelo://app?vid=e2dd7f05-6911-493d-b673-53311ddb0db7"},"vehicle_type_id":"4","last_reported":1740662285,"current_range_meters":9200,"station_id":"ce4bhnp2rcd13ifvqgvg","pricing_plan_id":"cebpf4jnsgd1na2vs0mg"},{"bike_id":"af204ba1-4164-4887-b622-3048e8be38bb","system_id":"levelo_inurba_marseille","lat":43.31174,"lon":5.38716,"is_reserved":false,"is_disabled":false,"rental_uris":{"android":"levelo://app?vid=af204ba1-4164-4887-b622-3048e8be38bb","ios":"levelo://app?vid=af204ba1-4164-4887-b622-3048e8be38bb"},"vehicle_type_id":"4","last_reported":1740662285,"current_range_meters":8800,"station_id":"ce4bgv12rcd13ifvqcp0","pricing_plan_id":"cebpf4jnsgd1na2vs0mg"},{"bike_id":"90daab13-1537-4f62-b842-df384d9a4a9b","system_id":"levelo_inurba_marseille","lat":43.28352,"lon":5.38099,"is_reserved":false,"is_disabled":false,"rental_uris":{"android":"levelo://app?vid=90daab13-1537-4f62-b842-df384d9a4a9b","ios":"levelo://app?vid=90daab13-1537-4f62-b842-df384d9a4a9b"},"vehicle_type_id":"4","last_reported":1740662285,"current_range_meters":12400,"station_id":"ce4bh412rcd13ifvqdr0","pricing_plan_id":"cebpf4jnsgd1na2vs0mg"},{"bike_id":"c1e7515d-57f4-43b9-a45e-84091c05a705","system_id":"levelo_inurba_marseille","lat":43.2926,"lon":5.38453,"is_reserved":false,"is_disabled":false,"rental_uris":{"android":"levelo://app?vid=c1e7515d-57f4-43b9-a45e-84091c05a705","ios":"levelo://app?vid=c1e7515d-57f4-43b9-a45e-84091c05a705"},"vehicle_type_id":"4","last_reported":1740662285,"current_range_meters":9600,"station_id":"ce4bh692rcd13ifvqea0","pricing_plan_id":"cebpf4jnsgd1na2vs0mg"},{"bike_id":"089a6c73-82b3-4ee9-93a5-d1e8c831e3f3","system_id":"levelo_inurba_marseille","lat":43.28965,"lon":5.37836,"is_reserved":false,"is_disabled":false,"rental_uris":{"android":"levelo://app?vid=089a6c73-82b3-4ee9-93a5-d1e8c831e3f3","ios":"levelo://app?vid=089a6c73-82b3-4ee9-93a5-d1e8c831e3f3"},"vehicle_type_id":"4","last_reported":1740662285,"current_range_meters":8800,"station_id":"ce4bh9p2rcd13ifvqed0","pricing_plan_id":"cebpf4jnsgd1na2vs0mg"},{"bike_id":"e15aa004-9615-44c3-9bce-dea692307d47","system_id":"levelo_inurba_marseille","lat":43.30085,"lon":5.39076,"is_reserved":false,"is_disabled":false,"rental_uris":{"android":"levelo://app?vid=e15aa004-9615-44c3-9bce-dea692307d47","ios":"levelo://app?vid=e15aa004-9615-44c3-9bce-dea692307d47"},"vehicle_type_id":"4","last_reported":1740662285,"current_range_meters":9600,"station_id":"ce4bh192rcd13ifvqdb0","pricing_plan_id":"cebpf4jnsgd1na2vs0mg"},{"bike_id":"44369458-17e5-4d90-ac65-db3b0ce2a1a2","system_id":"levelo_inurba_marseille","lat":43.28716,"lon":5.3791,"is_reserved":false,"is_disabled":false,"rental_uris":{"android":"levelo://app?vid=44369458-17e5-4d90-ac65-db3b0ce2a1a2","ios":"levelo://app?vid=44369458-17e5-4d90-ac65-db3b0ce2a1a2"},"vehicle_type_id":"4","last_reported":1740662285,"current_range_meters":9600,"station_id":"ce4bh9p2rcd13ifvqec0","pricing_plan_id":"cebpf4jnsgd1na2vs0mg"},{"bike_id":"f5d53e07-ca3c-4a71-95da-7845f9fc891b","system_id":"levelo_inurba_marseille","lat":43.31162,"lon":5.38721,"is_reserved":false,"is_disabled":false,"rental_uris":{"android":"levelo://app?vid=f5d53e07-ca3c-4a71-95da-7845f9fc891b","ios":"levelo://app?vid=f5d53e07-ca3c-4a71-95da-7845f9fc891b"},"vehicle_type_id":"4","last_reported":1740662285,"current_range_meters":9600,"station_id":"ce4bgv12rcd13ifvqcp0","pricing_plan_id":"cebpf4jnsgd1na2vs0mg"},{"bike_id":"7690b43f-d71c-4749-a54d-ceeca390bcea","system_id":"levelo_inurba_marseille","lat":43.32491,"lon":5.36544,"is_reserved":false,"is_disabled":false,"rental_uris":{"android":"levelo://app?vid=7690b43f-d71c-4749-a54d-ceeca390bcea","ios":"levelo://app?vid=7690b43f-d71c-4749-a54d-ceeca390bcea"},"vehicle_type_id":"4","last_reported":1740662285,"current_range_meters":9600,"station_id":"ce4bhs12rcd13ifvqhvg","pricing_plan_id":"cebpf4jnsgd1na2vs0mg"},{"bike_id":"42ee642a-cbaf-4a27-8ccd-00636c00cffc","system_id":"levelo_inurba_marseille","lat":43.2781,"lon":5.40717,"is_reserved":false,"is_disabled":true,"rental_uris":{"android":"levelo://app?vid=42ee642a-cbaf-4a27-8ccd-00636c00cffc","ios":"levelo://app?vid=42ee642a-cbaf-4a27-8ccd-00636c00cffc"},"vehicle_type_id":"4","last_reported":1740662285,"current_range_meters":9600,"station_id":"ce4bhnh2rcd13ifvqgtg","pricing_plan_id":"cebpf4jnsgd1na2vs0mg"},{"bike_id":"6f23134c-d7da-4ff9-87d8-3242c0ebbb4b","system_id":"levelo_inurba_marseille","lat":43.296,"lon":5.38104,"is_reserved":false,"is_disabled":false,"rental_uris":{"android":"levelo://app?vid=6f23134c-d7da-4ff9-87d8-3242c0ebbb4b","ios":"levelo://app?vid=6f23134c-d7da-4ff9-87d8-3242c0ebbb4b"},"vehicle_type_id":"4","last_reported":1740662285,"current_range_meters":9600,"station_id":"ce4bgl12rcd13ifvqbo0","pricing_plan_id":"cebpf4jnsgd1na2vs0mg"},{"bike_id":"19e4983d-b74d-4524-9c14-80fb6905f947","system_id":"levelo_inurba_marseille","lat":43.32101,"lon":5.36767,"is_reserved":false,"is_disabled":false,"rental_uris":{"android":"levelo://app?vid=19e4983d-b74d-4524-9c14-80fb6905f947","ios":"levelo://app?vid=19e4983d-b74d-4524-9c14-80fb6905f947"},"vehicle_type_id":"4","last_reported":1740662285,"current_range_meters":9600,"station_id":"ce4bhrh2rcd13ifvqhug","pricing_plan_id":"cebpf4jnsgd1na2vs0mg"},{"bike_id":"014901b3-f986-4c95-a4b1-e65d43686de4","system_id":"levelo_inurba_marseille","lat":43.33605,"lon":5.41034,"is_reserved":false,"is_disabled":false,"rental_uris":{"android":"levelo://app?vid=014901b3-f986-4c95-a4b1-e65d43686de4","ios":"levelo://app?vid=014901b3-f986-4c95-a4b1-e65d43686de4"},"vehicle_type_id":"4","last_reported":1740662285,"current_range_meters":9600,"station_id":"ce4bhqh2rcd13ifvqhmg","pricing_plan_id":"cebpf4jnsgd1na2vs0mg"},{"bike_id":"fd87c4fa-0727-41b9-b3a1-166d3090ef75","system_id":"levelo_inurba_marseille","lat":43.23147,"lon":5.43714,"is_reserved":false,"is_disabled":false,"rental_uris":{"android":"levelo://app?vid=fd87c4fa-0727-41b9-b3a1-166d3090ef75","ios":"levelo://app?vid=fd87c4fa-0727-41b9-b3a1-166d3090ef75"},"vehicle_type_id":"4","last_reported":1740662285,"current_range_meters":9600,"station_id":"ce4bhmp2rcd13ifvqgog","pricing_plan_id":"cebpf4jnsgd1na2vs0mg"},{"bike_id":"770ae70b-22c8-4878-9559-54f37da87f6d","system_id":"levelo_inurba_marseille","lat":43.23181,"lon":5.35537,"is_reserved":false,"is_disabled":false,"rental_uris":{"android":"levelo://app?vid=770ae70b-22c8-4878-9559-54f37da87f6d","ios":"levelo://app?vid=770ae70b-22c8-4878-9559-54f37da87f6d"},"vehicle_type_id":"4","last_reported":1740662285,"current_range_meters":10000,"station_id":"ce4bhu92rcd13ifvqi70","pricing_plan_id":"cebpf4jnsgd1na2vs0mg"},{"bike_id":"afd98e29-9e65-49b1-96e9-da6c0e62de76","system_id":"levelo_inurba_marseille","lat":43.292598,"lon":5.382,"is_reserved":false,"is_disabled":false,"rental_uris":{"android":"levelo://app?vid=afd98e29-9e65-49b1-96e9-da6c0e62de76","ios":"levelo://app?vid=afd98e29-9e65-49b1-96e9-da6c0e62de76"},"vehicle_type_id":"4","last_reported":1740662285,"current_range_meters":10000,"station_id":"","pricing_plan_id":"cebpf4jnsgd1na2vs0mg"},{"bike_id":"82d64e81-8d40-4c80-b5b5-a958f80dbced","system_id":"levelo_inurba_marseille","lat":43.28422,"lon":5.3499,"is_reserved":false,"is_disabled":false,"rental_uris":{"android":"levelo://app?vid=82d64e81-8d40-4c80-b5b5-a958f80dbced","ios":"levelo://app?vid=82d64e81-8d40-4c80-b5b5-a958f80dbced"},"vehicle_type_id":"4","last_reported":1740662285,"current_range_meters":10000,"station_id":"ce4bhbh2rcd13ifvqepg","pricing_plan_id":"cebpf4jnsgd1na2vs0mg"},{"bike_id":"522bf755-23ed-4894-8d44-591899ea74d7","system_id":"levelo_inurba_marseille","lat":43.25941,"lon":5.40896,"is_reserved":false,"is_disabled":false,"rental_uris":{"android":"levelo://app?vid=522bf755-23ed-4894-8d44-591899ea74d7","ios":"levelo://app?vid=522bf755-23ed-4894-8d44-591899ea74d7"},"vehicle_type_id":"4","last_reported":1740662285,"current_range_meters":10000,"station_id":"ce4bhm92rcd13ifvqglg","pricing_plan_id":"cebpf4jnsgd1na2vs0mg"},{"bike_id":"8df81cb0-faac-43d8-b77b-65fe4c7f59b9","system_id":"levelo_inurba_marseille","lat":43.28155,"lon":5.42635,"is_reserved":false,"is_disabled":false,"rental_uris":{"android":"levelo://app?vid=8df81cb0-faac-43d8-b77b-65fe4c7f59b9","ios":"levelo://app?vid=8df81cb0-faac-43d8-b77b-65fe4c7f59b9"},"vehicle_type_id":"4","last_reported":1740662285,"current_range_meters":10000,"station_id":"ce4bhnh2rcd13ifvqgug","pricing_plan_id":"cebpf4jnsgd1na2vs0mg"},{"bike_id":"a8ccb9d1-8384-4a0e-b047-d7782d3c2597","system_id":"levelo_inurba_marseille","lat":43.23147,"lon":5.43714,"is_reserved":false,"is_disabled":false,"rental_uris":{"android":"levelo://app?vid=a8ccb9d1-8384-4a0e-b047-d7782d3c2597","ios":"levelo://app?vid=a8ccb9d1-8384-4a0e-b047-d7782d3c2597"},"vehicle_type_id":"4","last_reported":1740662285,"current_range_meters":10000,"station_id":"ce4bhmp2rcd13ifvqgog","pricing_plan_id":"cebpf4jnsgd1na2vs0mg"},{"bike_id":"5249bc2c-af1a-4b55-92f5-5ca5eef8feb6","system_id":"levelo_inurba_marseille","lat":43.29259,"lon":5.37629,"is_reserved":false,"is_disabled":false,"rental_uris":{"android":"levelo://app?vid=5249bc2c-af1a-4b55-92f5-5ca5eef8feb6","ios":"levelo://app?vid=5249bc2c-af1a-4b55-92f5-5ca5eef8feb6"},"vehicle_type_id":"4","last_reported":1740662285,"current_range_meters":10000,"station_id":"ce4bgi12rcd13ifvqb80","pricing_plan_id":"cebpf4jnsgd1na2vs0mg"},{"bike_id":"02cc2372-404c-4579-ad86-798421fb7c0d","system_id":"levelo_inurba_marseille","lat":43.24082,"lon":5.37747,"is_reserved":false,"is_disabled":false,"rental_uris":{"android":"levelo://app?vid=02cc2372-404c-4579-ad86-798421fb7c0d","ios":"levelo://app?vid=02cc2372-404c-4579-ad86-798421fb7c0d"},"vehicle_type_id":"4","last_reported":1740662285,"current_range_meters":10000,"station_id":"ce4bhnp2rcd13ifvqgvg","pricing_plan_id":"cebpf4jnsgd1na2vs0mg"},{"bike_id":"91f909e9-358e-43ed-a45f-822af931a978","system_id":"levelo_inurba_marseille","lat":43.232177,"lon":5.403727,"is_reserved":false,"is_disabled":false,"rental_uris":{"android":"levelo://app?vid=91f909e9-358e-43ed-a45f-822af931a978","ios":"levelo://app?vid=91f909e9-358e-43ed-a45f-822af931a978"},"vehicle_type_id":"4","last_reported":1740662285,"current_range_meters":10000,"station_id":"","pricing_plan_id":"cebpf4jnsgd1na2vs0mg"},{"bike_id":"052db997-fc63-41c3-90a5-3a763e3006b5","system_id":"levelo_inurba_marseille","lat":43.29042,"lon":5.359,"is_reserved":false,"is_disabled":false,"rental_uris":{"android":"levelo://app?vid=052db997-fc63-41c3-90a5-3a763e3006b5","ios":"levelo://app?vid=052db997-fc63-41c3-90a5-3a763e3006b5"},"vehicle_type_id":"4","last_reported":1740662285,"current_range_meters":10800,"station_id":"ce4bha92rcd13ifvqeg0","pricing_plan_id":"cebpf4jnsgd1na2vs0mg"},{"bike_id":"325124be-80e3-46a5-a08e-70d46953ab2b","system_id":"levelo_inurba_marseille","lat":43.246578,"lon":5.381611,"is_reserved":false,"is_disabled":false,"rental_uris":{"android":"levelo://app?vid=325124be-80e3-46a5-a08e-70d46953ab2b","ios":"levelo://app?vid=325124be-80e3-46a5-a08e-70d46953ab2b"},"vehicle_type_id":"4","last_reported":1740662285,"current_range_meters":10800,"station_id":"ce4bhh92rcd13ifvqfj0","pricing_plan_id":"cebpf4jnsgd1na2vs0mg"},{"bike_id":"ac46a519-e819-409c-a9a3-bac51afdb0eb","system_id":"levelo_inurba_marseille","lat":43.27564,"lon":5.3842,"is_reserved":false,"is_disabled":false,"rental_uris":{"android":"levelo://app?vid=ac46a519-e819-409c-a9a3-bac51afdb0eb","ios":"levelo://app?vid=ac46a519-e819-409c-a9a3-bac51afdb0eb"},"vehicle_type_id":"4","last_reported":1740662285,"current_range_meters":10800,"station_id":"ce4bhh92rcd13ifvqfi0","pricing_plan_id":"cebpf4jnsgd1na2vs0mg"},{"bike_id":"920cd895-d6ab-4d06-9867-6fe2f30e6270","system_id":"levelo_inurba_marseille","lat":43.29269,"lon":5.36853,"is_reserved":false,"is_disabled":false,"rental_uris":{"android":"levelo://app?vid=920cd895-d6ab-4d06-9867-6fe2f30e6270","ios":"levelo://app?vid=920cd895-d6ab-4d06-9867-6fe2f30e6270"},"vehicle_type_id":"4","last_reported":1740662285,"current_range_meters":11200,"station_id":"ce4bhbp2rcd13ifvqesg","pricing_plan_id":"cebpf4jnsgd1na2vs0mg"},{"bike_id":"7843fef8-fa6b-4b02-9a30-0d426bde2243","system_id":"levelo_inurba_marseille","lat":43.25013,"lon":5.38914,"is_reserved":false,"is_disabled":false,"rental_uris":{"android":"levelo://app?vid=7843fef8-fa6b-4b02-9a30-0d426bde2243","ios":"levelo://app?vid=7843fef8-fa6b-4b02-9a30-0d426bde2243"},"vehicle_type_id":"4","last_reported":1740662285,"current_range_meters":10800,"station_id":"ce4bhgp2rcd13ifvqfd0","pricing_plan_id":"cebpf4jnsgd1na2vs0mg"},{"bike_id":"f50ceea9-08cf-482d-b1ac-b59dcf16de4b","system_id":"levelo_inurba_marseille","lat":43.2842,"lon":5.34983,"is_reserved":false,"is_disabled":false,"rental_uris":{"android":"levelo://app?vid=f50ceea9-08cf-482d-b1ac-b59dcf16de4b","ios":"levelo://app?vid=f50ceea9-08cf-482d-b1ac-b59dcf16de4b"},"vehicle_type_id":"4","last_reported":1740662285,"current_range_meters":8800,"station_id":"ce4bhbh2rcd13ifvqepg","pricing_plan_id":"cebpf4jnsgd1na2vs0mg"},{"bike_id":"ceada319-f43c-489f-8514-905ab74c8e1c","system_id":"levelo_inurba_marseille","lat":43.29906,"lon":5.3747,"is_reserved":false,"is_disabled":false,"rental_uris":{"android":"levelo://app?vid=ceada319-f43c-489f-8514-905ab74c8e1c","ios":"levelo://app?vid=ceada319-f43c-489f-8514-905ab74c8e1c"},"vehicle_type_id":"4","last_reported":1740662285,"current_range_meters":11600,"station_id":"ce4bgjh2rcd13ifvqbg0","pricing_plan_id":"cebpf4jnsgd1na2vs0mg"},{"bike_id":"68a0718a-9614-472b-ab22-57937c54ae74","system_id":"levelo_inurba_marseille","lat":43.29047,"lon":5.35907,"is_reserved":false,"is_disabled":false,"rental_uris":{"android":"levelo://app?vid=68a0718a-9614-472b-ab22-57937c54ae74","ios":"levelo://app?vid=68a0718a-9614-472b-ab22-57937c54ae74"},"vehicle_type_id":"4","last_reported":1740662285,"current_range_meters":11600,"station_id":"ce4bha92rcd13ifvqeg0","pricing_plan_id":"cebpf4jnsgd1na2vs0mg"},{"bike_id":"7ba56adb-fef1-4fb4-94ed-3de8114f6441","system_id":"levelo_inurba_marseille","lat":43.31303,"lon":5.36713,"is_reserved":false,"is_disabled":false,"rental_uris":{"android":"levelo://app?vid=7ba56adb-fef1-4fb4-94ed-3de8114f6441","ios":"levelo://app?vid=7ba56adb-fef1-4fb4-94ed-3de8114f6441"},"vehicle_type_id":"4","last_reported":1740662285,"current_range_meters":11200,"station_id":"ce4bgr92rcd13ifvqc6g","pricing_plan_id":"cebpf4jnsgd1na2vs0mg"},{"bike_id":"9c05c137-ce73-4888-83ec-51c9674942d3","system_id":"levelo_inurba_marseille","lat":43.313564,"lon":5.367099,"is_reserved":false,"is_disabled":false,"rental_uris":{"android":"levelo://app?vid=9c05c137-ce73-4888-83ec-51c9674942d3","ios":"levelo://app?vid=9c05c137-ce73-4888-83ec-51c9674942d3"},"vehicle_type_id":"4","last_reported":1740662285,"current_range_meters":12000,"station_id":"ce4bgr92rcd13ifvqc6g","pricing_plan_id":"cebpf4jnsgd1na2vs0mg"},{"bike_id":"f7848387-0626-4043-afd1-ad9f4e57dad1","system_id":"levelo_inurba_marseille","lat":43.23157,"lon":5.4372,"is_reserved":false,"is_disabled":false,"rental_uris":{"android":"levelo://app?vid=f7848387-0626-4043-afd1-ad9f4e57dad1","ios":"levelo://app?vid=f7848387-0626-4043-afd1-ad9f4e57dad1"},"vehicle_type_id":"4","last_reported":1740662285,"current_range_meters":12000,"station_id":"ce4bhmp2rcd13ifvqgog","pricing_plan_id":"cebpf4jnsgd1na2vs0mg"},{"bike_id":"d1c19e30-9464-4956-bfd9-8938b93b3166","system_id":"levelo_inurba_marseille","lat":43.24188,"lon":5.39725,"is_reserved":false,"is_disabled":false,"rental_uris":{"android":"levelo://app?vid=d1c19e30-9464-4956-bfd9-8938b93b3166","ios":"levelo://app?vid=d1c19e30-9464-4956-bfd9-8938b93b3166"},"vehicle_type_id":"4","last_reported":1740662285,"current_range_meters":12000,"station_id":"ce4bhn12rcd13ifvqgpg","pricing_plan_id":"cebpf4jnsgd1na2vs0mg"},{"bike_id":"fd9f64d4-d06f-4df6-872f-b3450a0dc06c","system_id":"levelo_inurba_marseille","lat":43.30959,"lon":5.39038,"is_reserved":false,"is_disabled":false,"rental_uris":{"android":"levelo://app?vid=fd9f64d4-d06f-4df6-872f-b3450a0dc06c","ios":"levelo://app?vid=fd9f64d4-d06f-4df6-872f-b3450a0dc06c"},"vehicle_type_id":"4","last_reported":1740662285,"current_range_meters":11600,"station_id":"ce4bgup2rcd13ifvqco0","pricing_plan_id":"cebpf4jnsgd1na2vs0mg"},{"bike_id":"48085696-96c2-4247-a1ec-b25a9a74b0ea","system_id":"levelo_inurba_marseille","lat":43.27494,"lon":5.42452,"is_reserved":false,"is_disabled":false,"rental_uris":{"android":"levelo://app?vid=48085696-96c2-4247-a1ec-b25a9a74b0ea","ios":"levelo://app?vid=48085696-96c2-4247-a1ec-b25a9a74b0ea"},"vehicle_type_id":"4","last_reported":1740662285,"current_range_meters":12000,"station_id":"ce4bhn92rcd13ifvqgrg","pricing_plan_id":"cebpf4jnsgd1na2vs0mg"},{"bike_id":"9e734f18-57fb-4b6c-b617-7f02b2ae1a7e","system_id":"levelo_inurba_marseille","lat":43.29873,"lon":5.39725,"is_reserved":false,"is_disabled":false,"rental_uris":{"android":"levelo://app?vid=9e734f18-57fb-4b6c-b617-7f02b2ae1a7e","ios":"levelo://app?vid=9e734f18-57fb-4b6c-b617-7f02b2ae1a7e"},"vehicle_type_id":"4","last_reported":1740662285,"current_range_meters":12000,"station_id":"ce4bh0h2rcd13ifvqd50","pricing_plan_id":"cebpf4jnsgd1na2vs0mg"},{"bike_id":"f14fe204-1031-4efe-a79d-1fc5fd200a52","system_id":"levelo_inurba_marseille","lat":43.30604,"lon":5.37225,"is_reserved":false,"is_disabled":false,"rental_uris":{"android":"levelo://app?vid=f14fe204-1031-4efe-a79d-1fc5fd200a52","ios":"levelo://app?vid=f14fe204-1031-4efe-a79d-1fc5fd200a52"},"vehicle_type_id":"4","last_reported":1740662285,"current_range_meters":11600,"station_id":"ce4bgqh2rcd13ifvqc4g","pricing_plan_id":"cebpf4jnsgd1na2vs0mg"},{"bike_id":"4b652788-5170-4217-a26e-78653b048387","system_id":"levelo_inurba_marseille","lat":43.31502,"lon":5.3731,"is_reserved":false,"is_disabled":false,"rental_uris":{"android":"levelo://app?vid=4b652788-5170-4217-a26e-78653b048387","ios":"levelo://app?vid=4b652788-5170-4217-a26e-78653b048387"},"vehicle_type_id":"4","last_reported":1740662285,"current_range_meters":12000,"station_id":"ce4bgt12rcd13ifvqcd0","pricing_plan_id":"cebpf4jnsgd1na2vs0mg"},{"bike_id":"84f89e3c-12df-4756-96d2-2bed8ea6d583","system_id":"levelo_inurba_marseille","lat":43.30552,"lon":5.36536,"is_reserved":false,"is_disabled":false,"rental_uris":{"android":"levelo://app?vid=84f89e3c-12df-4756-96d2-2bed8ea6d583","ios":"levelo://app?vid=84f89e3c-12df-4756-96d2-2bed8ea6d583"},"vehicle_type_id":"4","last_reported":1740662285,"current_range_meters":12400,"station_id":"ce4bgs12rcd13ifvqcag","pricing_plan_id":"cebpf4jnsgd1na2vs0mg"},{"bike_id":"2837d85d-02af-49af-900a-3b751e6ef0d6","system_id":"levelo_inurba_marseille","lat":43.32098,"lon":5.36777,"is_reserved":false,"is_disabled":false,"rental_uris":{"android":"levelo://app?vid=2837d85d-02af-49af-900a-3b751e6ef0d6","ios":"levelo://app?vid=2837d85d-02af-49af-900a-3b751e6ef0d6"},"vehicle_type_id":"4","last_reported":1740662285,"current_range_meters":12400,"station_id":"ce4bhrh2rcd13ifvqhug","pricing_plan_id":"cebpf4jnsgd1na2vs0mg"},{"bike_id":"24215169-3d4d-4dfb-aefa-fb157d3b831d","system_id":"levelo_inurba_marseille","lat":43.29878,"lon":5.39727,"is_reserved":false,"is_disabled":false,"rental_uris":{"android":"levelo://app?vid=24215169-3d4d-4dfb-aefa-fb157d3b831d","ios":"levelo://app?vid=24215169-3d4d-4dfb-aefa-fb157d3b831d"},"vehicle_type_id":"4","last_reported":1740662285,"current_range_meters":12400,"station_id":"ce4bh0h2rcd13ifvqd50","pricing_plan_id":"cebpf4jnsgd1na2vs0mg"},{"bike_id":"53c97519-31f9-4538-b031-fd7d8c97dfd2","system_id":"levelo_inurba_marseille","lat":43.31373,"lon":5.38492,"is_reserved":false,"is_disabled":false,"rental_uris":{"android":"levelo://app?vid=53c97519-31f9-4538-b031-fd7d8c97dfd2","ios":"levelo://app?vid=53c97519-31f9-4538-b031-fd7d8c97dfd2"},"vehicle_type_id":"4","last_reported":1740662285,"current_range_meters":12400,"station_id":"ce4bgt92rcd13ifvqcf0","pricing_plan_id":"cebpf4jnsgd1na2vs0mg"},{"bike_id":"206574c1-7834-44f7-85d2-9312f4f73fde","system_id":"levelo_inurba_marseille","lat":43.23152,"lon":5.43704,"is_reserved":false,"is_disabled":false,"rental_uris":{"android":"levelo://app?vid=206574c1-7834-44f7-85d2-9312f4f73fde","ios":"levelo://app?vid=206574c1-7834-44f7-85d2-9312f4f73fde"},"vehicle_type_id":"4","last_reported":1740662285,"current_range_meters":12400,"station_id":"ce4bhmp2rcd13ifvqgog","pricing_plan_id":"cebpf4jnsgd1na2vs0mg"},{"bike_id":"0c286632-cf14-46b4-9136-3952897e2965","system_id":"levelo_inurba_marseille","lat":43.284186,"lon":5.349772,"is_reserved":false,"is_disabled":false,"rental_uris":{"android":"levelo://app?vid=0c286632-cf14-46b4-9136-3952897e2965","ios":"levelo://app?vid=0c286632-cf14-46b4-9136-3952897e2965"},"vehicle_type_id":"4","last_reported":1740662285,"current_range_meters":12800,"station_id":"ce4bhbh2rcd13ifvqepg","pricing_plan_id":"cebpf4jnsgd1na2vs0mg"},{"bike_id":"eb59bedd-e6e3-454b-a45f-83bcd0b2ab51","system_id":"levelo_inurba_marseille","lat":43.31187,"lon":5.38655,"is_reserved":false,"is_disabled":false,"rental_uris":{"android":"levelo://app?vid=eb59bedd-e6e3-454b-a45f-83bcd0b2ab51","ios":"levelo://app?vid=eb59bedd-e6e3-454b-a45f-83bcd0b2ab51"},"vehicle_type_id":"4","last_reported":1740662285,"current_range_meters":17600,"station_id":"ce4bgv12rcd13ifvqcp0","pricing_plan_id":"cebpf4jnsgd1na2vs0mg"},{"bike_id":"122b4606-1177-4843-b5b8-5cc158b75dfe","system_id":"levelo_inurba_marseille","lat":43.28477,"lon":5.38539,"is_reserved":false,"is_disabled":false,"rental_uris":{"android":"levelo://app?vid=122b4606-1177-4843-b5b8-5cc158b75dfe","ios":"levelo://app?vid=122b4606-1177-4843-b5b8-5cc158b75dfe"},"vehicle_type_id":"4","last_reported":1740662285,"current_range_meters":13600,"station_id":"ce4bh8p2rcd13ifvqeb0","pricing_plan_id":"cebpf4jnsgd1na2vs0mg"},{"bike_id":"1b3cb628-e9ba-49f9-9bd2-f45361dc8aaf","system_id":"levelo_inurba_marseille","lat":43.241812,"lon":5.397282,"is_reserved":false,"is_disabled":false,"rental_uris":{"android":"levelo://app?vid=1b3cb628-e9ba-49f9-9bd2-f45361dc8aaf","ios":"levelo://app?vid=1b3cb628-e9ba-49f9-9bd2-f45361dc8aaf"},"vehicle_type_id":"4","last_reported":1740662285,"current_range_meters":12800,"station_id":"ce4bhn12rcd13ifvqgpg","pricing_plan_id":"cebpf4jnsgd1na2vs0mg"},{"bike_id":"09706c44-a6ea-4772-a00d-22d62ef3baa3","system_id":"levelo_inurba_marseille","lat":43.25724,"lon":5.41109,"is_reserved":false,"is_disabled":false,"rental_uris":{"android":"levelo://app?vid=09706c44-a6ea-4772-a00d-22d62ef3baa3","ios":"levelo://app?vid=09706c44-a6ea-4772-a00d-22d62ef3baa3"},"vehicle_type_id":"4","last_reported":1740662285,"current_range_meters":12800,"station_id":"ce4bhkp2rcd13ifvqgd0","pricing_plan_id":"cebpf4jnsgd1na2vs0mg"},{"bike_id":"cc1cbe66-e54f-40cc-99eb-83a6d46b9dd6","system_id":"levelo_inurba_marseille","lat":43.243853,"lon":5.370597,"is_reserved":false,"is_disabled":false,"rental_uris":{"android":"levelo://app?vid=cc1cbe66-e54f-40cc-99eb-83a6d46b9dd6","ios":"levelo://app?vid=cc1cbe66-e54f-40cc-99eb-83a6d46b9dd6"},"vehicle_type_id":"4","last_reported":1740662285,"current_range_meters":12800,"station_id":"ce4bhhh2rcd13ifvqfk0","pricing_plan_id":"cebpf4jnsgd1na2vs0mg"},{"bike_id":"3648d549-1aa7-44d1-bde4-30bac4ece65c","system_id":"levelo_inurba_marseille","lat":43.25588,"lon":5.38235,"is_reserved":false,"is_disabled":false,"rental_uris":{"android":"levelo://app?vid=3648d549-1aa7-44d1-bde4-30bac4ece65c","ios":"levelo://app?vid=3648d549-1aa7-44d1-bde4-30bac4ece65c"},"vehicle_type_id":"4","last_reported":1740662285,"current_range_meters":12800,"station_id":"ce4bhih2rcd13ifvqfs0","pricing_plan_id":"cebpf4jnsgd1na2vs0mg"},{"bike_id":"f9ab44dd-86a9-42d5-a785-c92ffa39973e","system_id":"levelo_inurba_marseille","lat":43.25581,"lon":5.3823,"is_reserved":false,"is_disabled":false,"rental_uris":{"android":"levelo://app?vid=f9ab44dd-86a9-42d5-a785-c92ffa39973e","ios":"levelo://app?vid=f9ab44dd-86a9-42d5-a785-c92ffa39973e"},"vehicle_type_id":"4","last_reported":1740662285,"current_range_meters":12800,"station_id":"ce4bhih2rcd13ifvqfs0","pricing_plan_id":"cebpf4jnsgd1na2vs0mg"},{"bike_id":"8ffac97d-6c90-4b50-bd8e-01b8b24837c6","system_id":"levelo_inurba_marseille","lat":43.27561,"lon":5.38427,"is_reserved":false,"is_disabled":false,"rental_uris":{"android":"levelo://app?vid=8ffac97d-6c90-4b50-bd8e-01b8b24837c6","ios":"levelo://app?vid=8ffac97d-6c90-4b50-bd8e-01b8b24837c6"},"vehicle_type_id":"4","last_reported":1740662285,"current_range_meters":12800,"station_id":"ce4bhh92rcd13ifvqfi0","pricing_plan_id":"cebpf4jnsgd1na2vs0mg"},{"bike_id":"443370dd-f8b8-457a-b6f8-389b804ff6fc","system_id":"levelo_inurba_marseille","lat":43.32364,"lon":5.38897,"is_reserved":false,"is_disabled":false,"rental_uris":{"android":"levelo://app?vid=443370dd-f8b8-457a-b6f8-389b804ff6fc","ios":"levelo://app?vid=443370dd-f8b8-457a-b6f8-389b804ff6fc"},"vehicle_type_id":"4","last_reported":1740662285,"current_range_meters":13600,"station_id":"ce4bhqp2rcd13ifvqhog","pricing_plan_id":"cebpf4jnsgd1na2vs0mg"},{"bike_id":"c9a46336-8808-467e-8593-79b169fe9875","system_id":"levelo_inurba_marseille","lat":43.2316,"lon":5.43706,"is_reserved":false,"is_disabled":false,"rental_uris":{"android":"levelo://app?vid=c9a46336-8808-467e-8593-79b169fe9875","ios":"levelo://app?vid=c9a46336-8808-467e-8593-79b169fe9875"},"vehicle_type_id":"4","last_reported":1740662285,"current_range_meters":14000,"station_id":"ce4bhmp2rcd13ifvqgog","pricing_plan_id":"cebpf4jnsgd1na2vs0mg"},{"bike_id":"0f2abc8e-0846-42bf-87d9-061743ab7b4a","system_id":"levelo_inurba_marseille","lat":43.23197,"lon":5.35546,"is_reserved":false,"is_disabled":false,"rental_uris":{"android":"levelo://app?vid=0f2abc8e-0846-42bf-87d9-061743ab7b4a","ios":"levelo://app?vid=0f2abc8e-0846-42bf-87d9-061743ab7b4a"},"vehicle_type_id":"4","last_reported":1740662285,"current_range_meters":13600,"station_id":"ce4bhu92rcd13ifvqi70","pricing_plan_id":"cebpf4jnsgd1na2vs0mg"},{"bike_id":"d155a60d-e183-4f8b-b4af-d008a652110f","system_id":"levelo_inurba_marseille","lat":43.29845,"lon":5.36275,"is_reserved":false,"is_disabled":false,"rental_uris":{"android":"levelo://app?vid=d155a60d-e183-4f8b-b4af-d008a652110f","ios":"levelo://app?vid=d155a60d-e183-4f8b-b4af-d008a652110f"},"vehicle_type_id":"4","last_reported":1740662285,"current_range_meters":13600,"station_id":"ce4bgpp2rcd13ifvqc3g","pricing_plan_id":"cebpf4jnsgd1na2vs0mg"},{"bike_id":"69b55210-e03b-4723-843f-15d9acb153a4","system_id":"levelo_inurba_marseille","lat":43.255843,"lon":5.382325,"is_reserved":false,"is_disabled":false,"rental_uris":{"android":"levelo://app?vid=69b55210-e03b-4723-843f-15d9acb153a4","ios":"levelo://app?vid=69b55210-e03b-4723-843f-15d9acb153a4"},"vehicle_type_id":"4","last_reported":1740662285,"current_range_meters":13600,"station_id":"ce4bhih2rcd13ifvqfs0","pricing_plan_id":"cebpf4jnsgd1na2vs0mg"},{"bike_id":"58f350d8-ccb4-4d78-8b4e-fff65cafbffa","system_id":"levelo_inurba_marseille","lat":43.29781,"lon":5.37112,"is_reserved":false,"is_disabled":false,"rental_uris":{"android":"levelo://app?vid=58f350d8-ccb4-4d78-8b4e-fff65cafbffa","ios":"levelo://app?vid=58f350d8-ccb4-4d78-8b4e-fff65cafbffa"},"vehicle_type_id":"4","last_reported":1740662285,"current_range_meters":13600,"station_id":"ce4bgop2rcd13ifvqc1g","pricing_plan_id":"cebpf4jnsgd1na2vs0mg"},{"bike_id":"3df4e373-0e88-43a7-bef0-545b84f22399","system_id":"levelo_inurba_marseille","lat":43.33599,"lon":5.41034,"is_reserved":false,"is_disabled":true,"rental_uris":{"android":"levelo://app?vid=3df4e373-0e88-43a7-bef0-545b84f22399","ios":"levelo://app?vid=3df4e373-0e88-43a7-bef0-545b84f22399"},"vehicle_type_id":"4","last_reported":1740662285,"current_range_meters":13600,"station_id":"ce4bhqh2rcd13ifvqhmg","pricing_plan_id":"cebpf4jnsgd1na2vs0mg"},{"bike_id":"b1abd704-283d-4f44-a6f6-c162360f7b32","system_id":"levelo_inurba_marseille","lat":43.3176,"lon":5.43741,"is_reserved":false,"is_disabled":false,"rental_uris":{"android":"levelo://app?vid=b1abd704-283d-4f44-a6f6-c162360f7b32","ios":"levelo://app?vid=b1abd704-283d-4f44-a6f6-c162360f7b32"},"vehicle_type_id":"4","last_reported":1740662285,"current_range_meters":14000,"station_id":"","pricing_plan_id":"cebpf4jnsgd1na2vs0mg"},{"bike_id":"3de9aeda-1f9a-4bbc-8b90-e02a49e56ca9","system_id":"levelo_inurba_marseille","lat":43.23193,"lon":5.35557,"is_reserved":false,"is_disabled":false,"rental_uris":{"android":"levelo://app?vid=3de9aeda-1f9a-4bbc-8b90-e02a49e56ca9","ios":"levelo://app?vid=3de9aeda-1f9a-4bbc-8b90-e02a49e56ca9"},"vehicle_type_id":"4","last_reported":1740662285,"current_range_meters":14000,"station_id":"ce4bhu92rcd13ifvqi70","pricing_plan_id":"cebpf4jnsgd1na2vs0mg"},{"bike_id":"df94eac8-6731-4a29-b5fb-fa40dcdf9de4","system_id":"levelo_inurba_marseille","lat":43.24063,"lon":5.37755,"is_reserved":false,"is_disabled":false,"rental_uris":{"android":"levelo://app?vid=df94eac8-6731-4a29-b5fb-fa40dcdf9de4","ios":"levelo://app?vid=df94eac8-6731-4a29-b5fb-fa40dcdf9de4"},"vehicle_type_id":"4","last_reported":1740662285,"current_range_meters":14400,"station_id":"ce4bhnp2rcd13ifvqgvg","pricing_plan_id":"cebpf4jnsgd1na2vs0mg"},{"bike_id":"b39c4f21-9bc4-43df-912c-8cff952b214f","system_id":"levelo_inurba_marseille","lat":43.30308,"lon":5.36899,"is_reserved":false,"is_disabled":false,"rental_uris":{"android":"levelo://app?vid=b39c4f21-9bc4-43df-912c-8cff952b214f","ios":"levelo://app?vid=b39c4f21-9bc4-43df-912c-8cff952b214f"},"vehicle_type_id":"4","last_reported":1740662285,"current_range_meters":14400,"station_id":"ce4bgqh2rcd13ifvqc5g","pricing_plan_id":"cebpf4jnsgd1na2vs0mg"},{"bike_id":"20ac0122-8fc7-48a7-9ece-d0eae822fe83","system_id":"levelo_inurba_marseille","lat":43.2319,"lon":5.35555,"is_reserved":false,"is_disabled":false,"rental_uris":{"android":"levelo://app?vid=20ac0122-8fc7-48a7-9ece-d0eae822fe83","ios":"levelo://app?vid=20ac0122-8fc7-48a7-9ece-d0eae822fe83"},"vehicle_type_id":"4","last_reported":1740662285,"current_range_meters":14400,"station_id":"ce4bhu92rcd13ifvqi70","pricing_plan_id":"cebpf4jnsgd1na2vs0mg"},{"bike_id":"1e260793-1f0f-4d34-a480-7fd5a5587546","system_id":"levelo_inurba_marseille","lat":43.28415,"lon":5.34985,"is_reserved":false,"is_disabled":false,"rental_uris":{"android":"levelo://app?vid=1e260793-1f0f-4d34-a480-7fd5a5587546","ios":"levelo://app?vid=1e260793-1f0f-4d34-a480-7fd5a5587546"},"vehicle_type_id":"4","last_reported":1740662285,"current_range_meters":14400,"station_id":"ce4bhbh2rcd13ifvqepg","pricing_plan_id":"cebpf4jnsgd1na2vs0mg"},{"bike_id":"d87a4773-6328-43f6-871f-76210bb4e613","system_id":"levelo_inurba_marseille","lat":43.31483,"lon":5.37317,"is_reserved":false,"is_disabled":false,"rental_uris":{"android":"levelo://app?vid=d87a4773-6328-43f6-871f-76210bb4e613","ios":"levelo://app?vid=d87a4773-6328-43f6-871f-76210bb4e613"},"vehicle_type_id":"4","last_reported":1740662285,"current_range_meters":14800,"station_id":"ce4bgt12rcd13ifvqcd0","pricing_plan_id":"cebpf4jnsgd1na2vs0mg"},{"bike_id":"fa8b0b2c-37be-4e8b-bb5f-5c47b42c68c4","system_id":"levelo_inurba_marseille","lat":43.294303,"lon":5.374766,"is_reserved":false,"is_disabled":false,"rental_uris":{"android":"levelo://app?vid=fa8b0b2c-37be-4e8b-bb5f-5c47b42c68c4","ios":"levelo://app?vid=fa8b0b2c-37be-4e8b-bb5f-5c47b42c68c4"},"vehicle_type_id":"4","last_reported":1740662285,"current_range_meters":14800,"station_id":"ce4bgi12rcd13ifvqb70","pricing_plan_id":"cebpf4jnsgd1na2vs0mg"},{"bike_id":"ad7f994d-dcbb-4b9f-a1d4-48998b8eb7dc","system_id":"levelo_inurba_marseille","lat":43.3107,"lon":5.4008,"is_reserved":false,"is_disabled":false,"rental_uris":{"android":"levelo://app?vid=ad7f994d-dcbb-4b9f-a1d4-48998b8eb7dc","ios":"levelo://app?vid=ad7f994d-dcbb-4b9f-a1d4-48998b8eb7dc"},"vehicle_type_id":"4","last_reported":1740662285,"current_range_meters":14800,"station_id":"","pricing_plan_id":"cebpf4jnsgd1na2vs0mg"},{"bike_id":"201b43e1-9166-4b93-9ecb-211bb1985890","system_id":"levelo_inurba_marseille","lat":43.32354,"lon":5.36763,"is_reserved":false,"is_disabled":false,"rental_uris":{"android":"levelo://app?vid=201b43e1-9166-4b93-9ecb-211bb1985890","ios":"levelo://app?vid=201b43e1-9166-4b93-9ecb-211bb1985890"},"vehicle_type_id":"4","last_reported":1740662285,"current_range_meters":14800,"station_id":"ce4bhsh2rcd13ifvqi2g","pricing_plan_id":"cebpf4jnsgd1na2vs0mg"},{"bike_id":"5169bf4e-5ac4-4560-9d3b-f48581611c45","system_id":"levelo_inurba_marseille","lat":43.25086,"lon":5.3952,"is_reserved":false,"is_disabled":false,"rental_uris":{"android":"levelo://app?vid=5169bf4e-5ac4-4560-9d3b-f48581611c45","ios":"levelo://app?vid=5169bf4e-5ac4-4560-9d3b-f48581611c45"},"vehicle_type_id":"4","last_reported":1740662285,"current_range_meters":14800,"station_id":"ce4bhm12rcd13ifvqgkg","pricing_plan_id":"cebpf4jnsgd1na2vs0mg"},{"bike_id":"50148488-c4f1-4027-8e1c-3a65c150b495","system_id":"levelo_inurba_marseille","lat":43.31328,"lon":5.39694,"is_reserved":false,"is_disabled":false,"rental_uris":{"android":"levelo://app?vid=50148488-c4f1-4027-8e1c-3a65c150b495","ios":"levelo://app?vid=50148488-c4f1-4027-8e1c-3a65c150b495"},"vehicle_type_id":"4","last_reported":1740662285,"current_range_meters":14800,"station_id":"ce4bgvp2rcd13ifvqcu0","pricing_plan_id":"cebpf4jnsgd1na2vs0mg"},{"bike_id":"f5749779-9f8d-4c84-823a-8dfeff4d7ef1","system_id":"levelo_inurba_marseille","lat":43.28268,"lon":5.3506,"is_reserved":false,"is_disabled":false,"rental_uris":{"android":"levelo://app?vid=f5749779-9f8d-4c84-823a-8dfeff4d7ef1","ios":"levelo://app?vid=f5749779-9f8d-4c84-823a-8dfeff4d7ef1"},"vehicle_type_id":"4","last_reported":1740662285,"current_range_meters":16800,"station_id":"ce4bhbp2rcd13ifvqerg","pricing_plan_id":"cebpf4jnsgd1na2vs0mg"},{"bike_id":"6bf62df5-9f2c-4676-be2e-3425368f3119","system_id":"levelo_inurba_marseille","lat":43.29337,"lon":5.38244,"is_reserved":false,"is_disabled":false,"rental_uris":{"android":"levelo://app?vid=6bf62df5-9f2c-4676-be2e-3425368f3119","ios":"levelo://app?vid=6bf62df5-9f2c-4676-be2e-3425368f3119"},"vehicle_type_id":"4","last_reported":1740662285,"current_range_meters":14800,"station_id":"","pricing_plan_id":"cebpf4jnsgd1na2vs0mg"},{"bike_id":"2bc6b0c1-7127-4e48-b7f5-50a3d89bfd6a","system_id":"levelo_inurba_marseille","lat":43.30932,"lon":5.37256,"is_reserved":false,"is_disabled":false,"rental_uris":{"android":"levelo://app?vid=2bc6b0c1-7127-4e48-b7f5-50a3d89bfd6a","ios":"levelo://app?vid=2bc6b0c1-7127-4e48-b7f5-50a3d89bfd6a"},"vehicle_type_id":"4","last_reported":1740662285,"current_range_meters":15200,"station_id":"","pricing_plan_id":"cebpf4jnsgd1na2vs0mg"},{"bike_id":"d3d1acb6-c294-4bee-8b71-33d7435d876e","system_id":"levelo_inurba_marseille","lat":43.30188,"lon":5.36621,"is_reserved":false,"is_disabled":false,"rental_uris":{"android":"levelo://app?vid=d3d1acb6-c294-4bee-8b71-33d7435d876e","ios":"levelo://app?vid=d3d1acb6-c294-4bee-8b71-33d7435d876e"},"vehicle_type_id":"4","last_reported":1740662285,"current_range_meters":14800,"station_id":"ce4bgrh2rcd13ifvqc8g","pricing_plan_id":"cebpf4jnsgd1na2vs0mg"},{"bike_id":"ad1d2a93-c8bd-4ed1-94eb-429ef262e9fc","system_id":"levelo_inurba_marseille","lat":43.290649,"lon":5.371465,"is_reserved":false,"is_disabled":false,"rental_uris":{"android":"levelo://app?vid=ad1d2a93-c8bd-4ed1-94eb-429ef262e9fc","ios":"levelo://app?vid=ad1d2a93-c8bd-4ed1-94eb-429ef262e9fc"},"vehicle_type_id":"4","last_reported":1740662285,"current_range_meters":14800,"station_id":"ce4bgjh2rcd13ifvqbg0","pricing_plan_id":"cebpf4jnsgd1na2vs0mg"},{"bike_id":"e7323438-5667-4285-8555-e4e5ad11332c","system_id":"levelo_inurba_marseille","lat":43.29274,"lon":5.36843,"is_reserved":false,"is_disabled":false,"rental_uris":{"android":"levelo://app?vid=e7323438-5667-4285-8555-e4e5ad11332c","ios":"levelo://app?vid=e7323438-5667-4285-8555-e4e5ad11332c"},"vehicle_type_id":"4","last_reported":1740662285,"current_range_meters":15200,"station_id":"ce4bhbp2rcd13ifvqesg","pricing_plan_id":"cebpf4jnsgd1na2vs0mg"},{"bike_id":"fb70dea8-fe5e-4f29-a636-7a21a96df401","system_id":"levelo_inurba_marseille","lat":43.25594,"lon":5.38222,"is_reserved":false,"is_disabled":false,"rental_uris":{"android":"levelo://app?vid=fb70dea8-fe5e-4f29-a636-7a21a96df401","ios":"levelo://app?vid=fb70dea8-fe5e-4f29-a636-7a21a96df401"},"vehicle_type_id":"4","last_reported":1740662285,"current_range_meters":15200,"station_id":"ce4bhih2rcd13ifvqfs0","pricing_plan_id":"cebpf4jnsgd1na2vs0mg"},{"bike_id":"af1ddcad-43e7-43b3-af98-bb940c88b0c3","system_id":"levelo_inurba_marseille","lat":43.30945,"lon":5.39038,"is_reserved":false,"is_disabled":false,"rental_uris":{"android":"levelo://app?vid=af1ddcad-43e7-43b3-af98-bb940c88b0c3","ios":"levelo://app?vid=af1ddcad-43e7-43b3-af98-bb940c88b0c3"},"vehicle_type_id":"4","last_reported":1740662285,"current_range_meters":15200,"station_id":"ce4bgup2rcd13ifvqco0","pricing_plan_id":"cebpf4jnsgd1na2vs0mg"},{"bike_id":"5b28cd77-a409-482f-8702-f764eef9151e","system_id":"levelo_inurba_marseille","lat":43.2593,"lon":5.4091,"is_reserved":false,"is_disabled":true,"rental_uris":{"android":"levelo://app?vid=5b28cd77-a409-482f-8702-f764eef9151e","ios":"levelo://app?vid=5b28cd77-a409-482f-8702-f764eef9151e"},"vehicle_type_id":"4","last_reported":1740662285,"current_range_meters":14800,"station_id":"ce4bhm92rcd13ifvqglg","pricing_plan_id":"cebpf4jnsgd1na2vs0mg"},{"bike_id":"8f3fe5b2-0a68-4dcd-960c-11db4e84f9eb","system_id":"levelo_inurba_marseille","lat":43.244529,"lon":5.368446,"is_reserved":false,"is_disabled":false,"rental_uris":{"android":"levelo://app?vid=8f3fe5b2-0a68-4dcd-960c-11db4e84f9eb","ios":"levelo://app?vid=8f3fe5b2-0a68-4dcd-960c-11db4e84f9eb"},"vehicle_type_id":"4","last_reported":1740662285,"current_range_meters":15200,"station_id":"ce4bgvh2rcd13ifvqcs0","pricing_plan_id":"cebpf4jnsgd1na2vs0mg"},{"bike_id":"d4918d6a-5525-4be8-b0c4-7af64b54343d","system_id":"levelo_inurba_marseille","lat":43.24163,"lon":5.36401,"is_reserved":false,"is_disabled":false,"rental_uris":{"android":"levelo://app?vid=d4918d6a-5525-4be8-b0c4-7af64b54343d","ios":"levelo://app?vid=d4918d6a-5525-4be8-b0c4-7af64b54343d"},"vehicle_type_id":"4","last_reported":1740662285,"current_range_meters":16000,"station_id":"cpo36qri1sfpv3e86is0","pricing_plan_id":"cebpf4jnsgd1na2vs0mg"},{"bike_id":"59ee61a2-a71b-4362-acc5-4789299e013e","system_id":"levelo_inurba_marseille","lat":43.30151,"lon":5.37403,"is_reserved":false,"is_disabled":false,"rental_uris":{"android":"levelo://app?vid=59ee61a2-a71b-4362-acc5-4789299e013e","ios":"levelo://app?vid=59ee61a2-a71b-4362-acc5-4789299e013e"},"vehicle_type_id":"4","last_reported":1740662285,"current_range_meters":16000,"station_id":"ce4bgs92rcd13ifvqcc0","pricing_plan_id":"cebpf4jnsgd1na2vs0mg"},{"bike_id":"7cf7b894-d393-4f1a-903c-6b57f99cdc54","system_id":"levelo_inurba_marseille","lat":43.26397,"lon":5.3843,"is_reserved":false,"is_disabled":false,"rental_uris":{"android":"levelo://app?vid=7cf7b894-d393-4f1a-903c-6b57f99cdc54","ios":"levelo://app?vid=7cf7b894-d393-4f1a-903c-6b57f99cdc54"},"vehicle_type_id":"4","last_reported":1740662285,"current_range_meters":16000,"station_id":"","pricing_plan_id":"cebpf4jnsgd1na2vs0mg"},{"bike_id":"cadf36d4-8397-4f67-9648-8720310c1392","system_id":"levelo_inurba_marseille","lat":43.27497,"lon":5.42446,"is_reserved":false,"is_disabled":false,"rental_uris":{"android":"levelo://app?vid=cadf36d4-8397-4f67-9648-8720310c1392","ios":"levelo://app?vid=cadf36d4-8397-4f67-9648-8720310c1392"},"vehicle_type_id":"4","last_reported":1740662285,"current_range_meters":16000,"station_id":"ce4bhn92rcd13ifvqgrg","pricing_plan_id":"cebpf4jnsgd1na2vs0mg"},{"bike_id":"b55d37ce-d9ba-48e2-b53d-9819952d55df","system_id":"levelo_inurba_marseille","lat":43.28719,"lon":5.37943,"is_reserved":false,"is_disabled":false,"rental_uris":{"android":"levelo://app?vid=b55d37ce-d9ba-48e2-b53d-9819952d55df","ios":"levelo://app?vid=b55d37ce-d9ba-48e2-b53d-9819952d55df"},"vehicle_type_id":"4","last_reported":1740662285,"current_range_meters":16000,"station_id":"ce4bh9p2rcd13ifvqec0","pricing_plan_id":"cebpf4jnsgd1na2vs0mg"},{"bike_id":"0f665076-3e0b-47a6-8189-e37583df5925","system_id":"levelo_inurba_marseille","lat":43.29259,"lon":5.37617,"is_reserved":false,"is_disabled":false,"rental_uris":{"android":"levelo://app?vid=0f665076-3e0b-47a6-8189-e37583df5925","ios":"levelo://app?vid=0f665076-3e0b-47a6-8189-e37583df5925"},"vehicle_type_id":"4","last_reported":1740662285,"current_range_meters":16000,"station_id":"ce4bgi12rcd13ifvqb80","pricing_plan_id":"cebpf4jnsgd1na2vs0mg"},{"bike_id":"db969468-b380-4e55-a026-273e3aaa7506","system_id":"levelo_inurba_marseille","lat":43.313517,"lon":5.367159,"is_reserved":false,"is_disabled":false,"rental_uris":{"android":"levelo://app?vid=db969468-b380-4e55-a026-273e3aaa7506","ios":"levelo://app?vid=db969468-b380-4e55-a026-273e3aaa7506"},"vehicle_type_id":"4","last_reported":1740662285,"current_range_meters":16000,"station_id":"ce4bgr92rcd13ifvqc6g","pricing_plan_id":"cebpf4jnsgd1na2vs0mg"},{"bike_id":"20d08730-d04f-482a-9ed2-1d3e29b92784","system_id":"levelo_inurba_marseille","lat":43.32349,"lon":5.38885,"is_reserved":false,"is_disabled":false,"rental_uris":{"android":"levelo://app?vid=20d08730-d04f-482a-9ed2-1d3e29b92784","ios":"levelo://app?vid=20d08730-d04f-482a-9ed2-1d3e29b92784"},"vehicle_type_id":"4","last_reported":1740662285,"current_range_meters":16000,"station_id":"ce4bhqp2rcd13ifvqhog","pricing_plan_id":"cebpf4jnsgd1na2vs0mg"},{"bike_id":"c08c3901-403c-46cd-b0ac-742840d1a2fe","system_id":"levelo_inurba_marseille","lat":43.2952,"lon":5.37502,"is_reserved":false,"is_disabled":false,"rental_uris":{"android":"levelo://app?vid=c08c3901-403c-46cd-b0ac-742840d1a2fe","ios":"levelo://app?vid=c08c3901-403c-46cd-b0ac-742840d1a2fe"},"vehicle_type_id":"4","last_reported":1740662285,"current_range_meters":16000,"station_id":"ce4bgkp2rcd13ifvqbmg","pricing_plan_id":"cebpf4jnsgd1na2vs0mg"},{"bike_id":"695ef3eb-351a-4b09-8f6f-beaffcc84183","system_id":"levelo_inurba_marseille","lat":43.28857,"lon":5.35856,"is_reserved":false,"is_disabled":false,"rental_uris":{"android":"levelo://app?vid=695ef3eb-351a-4b09-8f6f-beaffcc84183","ios":"levelo://app?vid=695ef3eb-351a-4b09-8f6f-beaffcc84183"},"vehicle_type_id":"4","last_reported":1740662285,"current_range_meters":16400,"station_id":"ce4bhb12rcd13ifvqem0","pricing_plan_id":"cebpf4jnsgd1na2vs0mg"},{"bike_id":"3aa7653f-0612-4089-8cb0-c552b8c84bdf","system_id":"levelo_inurba_marseille","lat":43.29602,"lon":5.38099,"is_reserved":false,"is_disabled":false,"rental_uris":{"android":"levelo://app?vid=3aa7653f-0612-4089-8cb0-c552b8c84bdf","ios":"levelo://app?vid=3aa7653f-0612-4089-8cb0-c552b8c84bdf"},"vehicle_type_id":"4","last_reported":1740662285,"current_range_meters":16400,"station_id":"ce4bgl12rcd13ifvqbo0","pricing_plan_id":"cebpf4jnsgd1na2vs0mg"},{"bike_id":"a25a2d33-1d8e-4fa7-b677-45c8444c8775","system_id":"levelo_inurba_marseille","lat":43.2319,"lon":5.35566,"is_reserved":false,"is_disabled":false,"rental_uris":{"android":"levelo://app?vid=a25a2d33-1d8e-4fa7-b677-45c8444c8775","ios":"levelo://app?vid=a25a2d33-1d8e-4fa7-b677-45c8444c8775"},"vehicle_type_id":"4","last_reported":1740662285,"current_range_meters":16800,"station_id":"ce4bhu92rcd13ifvqi70","pricing_plan_id":"cebpf4jnsgd1na2vs0mg"},{"bike_id":"3f5e4c77-943b-4a46-b257-614bf13afec4","system_id":"levelo_inurba_marseille","lat":43.24168,"lon":5.36412,"is_reserved":false,"is_disabled":false,"rental_uris":{"android":"levelo://app?vid=3f5e4c77-943b-4a46-b257-614bf13afec4","ios":"levelo://app?vid=3f5e4c77-943b-4a46-b257-614bf13afec4"},"vehicle_type_id":"4","last_reported":1740662285,"current_range_meters":16800,"station_id":"cpo36qri1sfpv3e86is0","pricing_plan_id":"cebpf4jnsgd1na2vs0mg"},{"bike_id":"517bb96e-1924-4c3d-bf45-b529859d147d","system_id":"levelo_inurba_marseille","lat":43.27207,"lon":5.39182,"is_reserved":false,"is_disabled":false,"rental_uris":{"android":"levelo://app?vid=517bb96e-1924-4c3d-bf45-b529859d147d","ios":"levelo://app?vid=517bb96e-1924-4c3d-bf45-b529859d147d"},"vehicle_type_id":"4","last_reported":1740662285,"current_range_meters":17600,"station_id":"ce4bhhp2rcd13ifvqfm0","pricing_plan_id":"cebpf4jnsgd1na2vs0mg"},{"bike_id":"ef77bf7f-5b88-41c9-8d3b-c8c9c0447dd9","system_id":"levelo_inurba_marseille","lat":43.28068,"lon":5.35046,"is_reserved":false,"is_disabled":false,"rental_uris":{"android":"levelo://app?vid=ef77bf7f-5b88-41c9-8d3b-c8c9c0447dd9","ios":"levelo://app?vid=ef77bf7f-5b88-41c9-8d3b-c8c9c0447dd9"},"vehicle_type_id":"4","last_reported":1740662285,"current_range_meters":16400,"station_id":"","pricing_plan_id":"cebpf4jnsgd1na2vs0mg"},{"bike_id":"4ce0ffad-3bfa-4dc6-aa60-ac6e9332fb9b","system_id":"levelo_inurba_marseille","lat":43.25005,"lon":5.38925,"is_reserved":false,"is_disabled":false,"rental_uris":{"android":"levelo://app?vid=4ce0ffad-3bfa-4dc6-aa60-ac6e9332fb9b","ios":"levelo://app?vid=4ce0ffad-3bfa-4dc6-aa60-ac6e9332fb9b"},"vehicle_type_id":"4","last_reported":1740662285,"current_range_meters":16800,"station_id":"ce4bhgp2rcd13ifvqfd0","pricing_plan_id":"cebpf4jnsgd1na2vs0mg"},{"bike_id":"6dfe4406-9129-4c50-a50f-38fc6c32cf1b","system_id":"levelo_inurba_marseille","lat":43.30144,"lon":5.37424,"is_reserved":false,"is_disabled":false,"rental_uris":{"android":"levelo://app?vid=6dfe4406-9129-4c50-a50f-38fc6c32cf1b","ios":"levelo://app?vid=6dfe4406-9129-4c50-a50f-38fc6c32cf1b"},"vehicle_type_id":"4","last_reported":1740662285,"current_range_meters":18800,"station_id":"ce4bgs92rcd13ifvqcc0","pricing_plan_id":"cebpf4jnsgd1na2vs0mg"},{"bike_id":"43d6aa6f-20c7-4a1b-bcb8-31b660876567","system_id":"levelo_inurba_marseille","lat":43.26548,"lon":5.37296,"is_reserved":false,"is_disabled":false,"rental_uris":{"android":"levelo://app?vid=43d6aa6f-20c7-4a1b-bcb8-31b660876567","ios":"levelo://app?vid=43d6aa6f-20c7-4a1b-bcb8-31b660876567"},"vehicle_type_id":"4","last_reported":1740662285,"current_range_meters":16800,"station_id":"ce4bhg12rcd13ifvqf70","pricing_plan_id":"cebpf4jnsgd1na2vs0mg"},{"bike_id":"ecb1ccad-f6bd-4058-bf8d-166cce4d9742","system_id":"levelo_inurba_marseille","lat":43.30427,"lon":5.39748,"is_reserved":false,"is_disabled":false,"rental_uris":{"android":"levelo://app?vid=ecb1ccad-f6bd-4058-bf8d-166cce4d9742","ios":"levelo://app?vid=ecb1ccad-f6bd-4058-bf8d-166cce4d9742"},"vehicle_type_id":"4","last_reported":1740662285,"current_range_meters":16800,"station_id":"ce4bh092rcd13ifvqd20","pricing_plan_id":"cebpf4jnsgd1na2vs0mg"},{"bike_id":"a2035f8a-71d6-4907-9d48-9df7f337d1f0","system_id":"levelo_inurba_marseille","lat":43.31379,"lon":5.36715,"is_reserved":false,"is_disabled":false,"rental_uris":{"android":"levelo://app?vid=a2035f8a-71d6-4907-9d48-9df7f337d1f0","ios":"levelo://app?vid=a2035f8a-71d6-4907-9d48-9df7f337d1f0"},"vehicle_type_id":"4","last_reported":1740662285,"current_range_meters":16800,"station_id":"ce4bgr92rcd13ifvqc6g","pricing_plan_id":"cebpf4jnsgd1na2vs0mg"},{"bike_id":"8e100345-e773-4b5f-aa04-a4e55e7b32d1","system_id":"levelo_inurba_marseille","lat":43.3148,"lon":5.37301,"is_reserved":false,"is_disabled":false,"rental_uris":{"android":"levelo://app?vid=8e100345-e773-4b5f-aa04-a4e55e7b32d1","ios":"levelo://app?vid=8e100345-e773-4b5f-aa04-a4e55e7b32d1"},"vehicle_type_id":"4","last_reported":1740662285,"current_range_meters":16800,"station_id":"ce4bgt12rcd13ifvqcd0","pricing_plan_id":"cebpf4jnsgd1na2vs0mg"},{"bike_id":"f33e0df0-ce76-4cb5-b6e3-31dd0d380a33","system_id":"levelo_inurba_marseille","lat":43.27563,"lon":5.38422,"is_reserved":false,"is_disabled":false,"rental_uris":{"android":"levelo://app?vid=f33e0df0-ce76-4cb5-b6e3-31dd0d380a33","ios":"levelo://app?vid=f33e0df0-ce76-4cb5-b6e3-31dd0d380a33"},"vehicle_type_id":"4","last_reported":1740662285,"current_range_meters":16800,"station_id":"ce4bhh92rcd13ifvqfi0","pricing_plan_id":"cebpf4jnsgd1na2vs0mg"},{"bike_id":"1fe965d4-1303-4c7e-9ce2-f8a140af6f8d","system_id":"levelo_inurba_marseille","lat":43.26957,"lon":5.3864,"is_reserved":false,"is_disabled":false,"rental_uris":{"android":"levelo://app?vid=1fe965d4-1303-4c7e-9ce2-f8a140af6f8d","ios":"levelo://app?vid=1fe965d4-1303-4c7e-9ce2-f8a140af6f8d"},"vehicle_type_id":"4","last_reported":1740662285,"current_range_meters":16800,"station_id":"ce4bhh92rcd13ifvqfh0","pricing_plan_id":"cebpf4jnsgd1na2vs0mg"},{"bike_id":"c69287e7-070c-40e7-8b93-08a36cdbb68d","system_id":"levelo_inurba_marseille","lat":43.265,"lon":5.39546,"is_reserved":false,"is_disabled":false,"rental_uris":{"android":"levelo://app?vid=c69287e7-070c-40e7-8b93-08a36cdbb68d","ios":"levelo://app?vid=c69287e7-070c-40e7-8b93-08a36cdbb68d"},"vehicle_type_id":"4","last_reported":1740662285,"current_range_meters":12400,"station_id":"ce4bhi12rcd13ifvqfq0","pricing_plan_id":"cebpf4jnsgd1na2vs0mg"},{"bike_id":"617f85e6-f17d-49a0-a4fa-f6d9f79b0990","system_id":"levelo_inurba_marseille","lat":43.30284,"lon":5.37707,"is_reserved":false,"is_disabled":false,"rental_uris":{"android":"levelo://app?vid=617f85e6-f17d-49a0-a4fa-f6d9f79b0990","ios":"levelo://app?vid=617f85e6-f17d-49a0-a4fa-f6d9f79b0990"},"vehicle_type_id":"4","last_reported":1740662285,"current_range_meters":17200,"station_id":"ce4bguh2rcd13ifvqcj0","pricing_plan_id":"cebpf4jnsgd1na2vs0mg"},{"bike_id":"352c2446-b039-4302-bc75-3b54c81d9240","system_id":"levelo_inurba_marseille","lat":43.24075,"lon":5.37761,"is_reserved":false,"is_disabled":false,"rental_uris":{"android":"levelo://app?vid=352c2446-b039-4302-bc75-3b54c81d9240","ios":"levelo://app?vid=352c2446-b039-4302-bc75-3b54c81d9240"},"vehicle_type_id":"4","last_reported":1740662285,"current_range_meters":17200,"station_id":"ce4bhnp2rcd13ifvqgvg","pricing_plan_id":"cebpf4jnsgd1na2vs0mg"},{"bike_id":"16657fa1-03c6-49ec-a407-f3061564a488","system_id":"levelo_inurba_marseille","lat":43.262248,"lon":5.404631,"is_reserved":false,"is_disabled":false,"rental_uris":{"android":"levelo://app?vid=16657fa1-03c6-49ec-a407-f3061564a488","ios":"levelo://app?vid=16657fa1-03c6-49ec-a407-f3061564a488"},"vehicle_type_id":"4","last_reported":1740662285,"current_range_meters":17200,"station_id":"ce4bhmh2rcd13ifvqgmg","pricing_plan_id":"cebpf4jnsgd1na2vs0mg"},{"bike_id":"4c02fa58-61ee-403a-a469-0132f40aa7d6","system_id":"levelo_inurba_marseille","lat":43.31481,"lon":5.37306,"is_reserved":false,"is_disabled":false,"rental_uris":{"android":"levelo://app?vid=4c02fa58-61ee-403a-a469-0132f40aa7d6","ios":"levelo://app?vid=4c02fa58-61ee-403a-a469-0132f40aa7d6"},"vehicle_type_id":"4","last_reported":1740662285,"current_range_meters":17200,"station_id":"ce4bgt12rcd13ifvqcd0","pricing_plan_id":"cebpf4jnsgd1na2vs0mg"},{"bike_id":"015035ab-1c5d-42ff-bb22-c2353634a72d","system_id":"levelo_inurba_marseille","lat":43.30541,"lon":5.36702,"is_reserved":false,"is_disabled":false,"rental_uris":{"android":"levelo://app?vid=015035ab-1c5d-42ff-bb22-c2353634a72d","ios":"levelo://app?vid=015035ab-1c5d-42ff-bb22-c2353634a72d"},"vehicle_type_id":"4","last_reported":1740662285,"current_range_meters":17200,"station_id":"ce4bgrp2rcd13ifvqc9g","pricing_plan_id":"cebpf4jnsgd1na2vs0mg"},{"bike_id":"a5b9f4cb-e9b6-4bbe-a894-612e041d2e8c","system_id":"levelo_inurba_marseille","lat":43.29795,"lon":5.38108,"is_reserved":false,"is_disabled":false,"rental_uris":{"android":"levelo://app?vid=a5b9f4cb-e9b6-4bbe-a894-612e041d2e8c","ios":"levelo://app?vid=a5b9f4cb-e9b6-4bbe-a894-612e041d2e8c"},"vehicle_type_id":"4","last_reported":1740662285,"current_range_meters":16800,"station_id":"ce4bgip2rcd13ifvqbb0","pricing_plan_id":"cebpf4jnsgd1na2vs0mg"},{"bike_id":"3e6eb902-1468-4be5-a04c-2a9c0331323f","system_id":"levelo_inurba_marseille","lat":43.28721,"lon":5.3999,"is_reserved":false,"is_disabled":false,"rental_uris":{"android":"levelo://app?vid=3e6eb902-1468-4be5-a04c-2a9c0331323f","ios":"levelo://app?vid=3e6eb902-1468-4be5-a04c-2a9c0331323f"},"vehicle_type_id":"4","last_reported":1740662285,"current_range_meters":17200,"station_id":"ce4bho92rcd13ifvqh3g","pricing_plan_id":"cebpf4jnsgd1na2vs0mg"},{"bike_id":"9c8a8d53-71cc-410c-8975-5cc5bfd67f2e","system_id":"levelo_inurba_marseille","lat":43.30283,"lon":5.37714,"is_reserved":false,"is_disabled":false,"rental_uris":{"android":"levelo://app?vid=9c8a8d53-71cc-410c-8975-5cc5bfd67f2e","ios":"levelo://app?vid=9c8a8d53-71cc-410c-8975-5cc5bfd67f2e"},"vehicle_type_id":"4","last_reported":1740662285,"current_range_meters":17200,"station_id":"ce4bguh2rcd13ifvqcj0","pricing_plan_id":"cebpf4jnsgd1na2vs0mg"},{"bike_id":"394ad06d-cd07-47bf-9d20-d3a92d1d606b","system_id":"levelo_inurba_marseille","lat":43.22928,"lon":5.35382,"is_reserved":false,"is_disabled":false,"rental_uris":{"android":"levelo://app?vid=394ad06d-cd07-47bf-9d20-d3a92d1d606b","ios":"levelo://app?vid=394ad06d-cd07-47bf-9d20-d3a92d1d606b"},"vehicle_type_id":"4","last_reported":1740662285,"current_range_meters":17600,"station_id":"cpo3532slgdg3j2ikp40","pricing_plan_id":"cebpf4jnsgd1na2vs0mg"},{"bike_id":"a9757b2e-0188-4e2f-9062-079c74f7d4d4","system_id":"levelo_inurba_marseille","lat":43.25583,"lon":5.38213,"is_reserved":false,"is_disabled":false,"rental_uris":{"android":"levelo://app?vid=a9757b2e-0188-4e2f-9062-079c74f7d4d4","ios":"levelo://app?vid=a9757b2e-0188-4e2f-9062-079c74f7d4d4"},"vehicle_type_id":"4","last_reported":1740662285,"current_range_meters":17600,"station_id":"ce4bhih2rcd13ifvqfs0","pricing_plan_id":"cebpf4jnsgd1na2vs0mg"},{"bike_id":"83e3d64b-e018-4d9c-8bb2-581502b1a586","system_id":"levelo_inurba_marseille","lat":43.29302,"lon":5.37184,"is_reserved":false,"is_disabled":false,"rental_uris":{"android":"levelo://app?vid=83e3d64b-e018-4d9c-8bb2-581502b1a586","ios":"levelo://app?vid=83e3d64b-e018-4d9c-8bb2-581502b1a586"},"vehicle_type_id":"4","last_reported":1740662285,"current_range_meters":17200,"station_id":"ce4bgh92rcd13ifvqb40","pricing_plan_id":"cebpf4jnsgd1na2vs0mg"},{"bike_id":"ad98dd82-f10b-46a3-9117-f19469c8ba18","system_id":"levelo_inurba_marseille","lat":43.28352,"lon":5.38114,"is_reserved":false,"is_disabled":false,"rental_uris":{"android":"levelo://app?vid=ad98dd82-f10b-46a3-9117-f19469c8ba18","ios":"levelo://app?vid=ad98dd82-f10b-46a3-9117-f19469c8ba18"},"vehicle_type_id":"4","last_reported":1740662285,"current_range_meters":17200,"station_id":"ce4bh412rcd13ifvqdr0","pricing_plan_id":"cebpf4jnsgd1na2vs0mg"},{"bike_id":"852d9e7a-5bff-41ba-8baf-a0e349a4142b","system_id":"levelo_inurba_marseille","lat":43.23942,"lon":5.36636,"is_reserved":false,"is_disabled":true,"rental_uris":{"android":"levelo://app?vid=852d9e7a-5bff-41ba-8baf-a0e349a4142b","ios":"levelo://app?vid=852d9e7a-5bff-41ba-8baf-a0e349a4142b"},"vehicle_type_id":"4","last_reported":1740662285,"current_range_meters":17600,"station_id":"ce4bhi12rcd13ifvqfp0","pricing_plan_id":"cebpf4jnsgd1na2vs0mg"},{"bike_id":"24476cb6-9c12-4997-ab8d-8cfe9d8b4bb4","system_id":"levelo_inurba_marseille","lat":43.286516,"lon":5.350786,"is_reserved":false,"is_disabled":false,"rental_uris":{"android":"levelo://app?vid=24476cb6-9c12-4997-ab8d-8cfe9d8b4bb4","ios":"levelo://app?vid=24476cb6-9c12-4997-ab8d-8cfe9d8b4bb4"},"vehicle_type_id":"4","last_reported":1740662285,"current_range_meters":18000,"station_id":"ce4bhch2rcd13ifvqeug","pricing_plan_id":"cebpf4jnsgd1na2vs0mg"},{"bike_id":"79880c14-4c94-4044-a57d-08c11db401b1","system_id":"levelo_inurba_marseille","lat":43.29037,"lon":5.39958,"is_reserved":false,"is_disabled":false,"rental_uris":{"android":"levelo://app?vid=79880c14-4c94-4044-a57d-08c11db401b1","ios":"levelo://app?vid=79880c14-4c94-4044-a57d-08c11db401b1"},"vehicle_type_id":"4","last_reported":1740662285,"current_range_meters":18000,"station_id":"ce4bh392rcd13ifvqdm0","pricing_plan_id":"cebpf4jnsgd1na2vs0mg"},{"bike_id":"086d7aa7-e301-4d46-b820-623c8b1bfc75","system_id":"levelo_inurba_marseille","lat":43.29266,"lon":5.37628,"is_reserved":false,"is_disabled":false,"rental_uris":{"android":"levelo://app?vid=086d7aa7-e301-4d46-b820-623c8b1bfc75","ios":"levelo://app?vid=086d7aa7-e301-4d46-b820-623c8b1bfc75"},"vehicle_type_id":"4","last_reported":1740662285,"current_range_meters":18000,"station_id":"ce4bgi12rcd13ifvqb80","pricing_plan_id":"cebpf4jnsgd1na2vs0mg"},{"bike_id":"d2ce65bf-34ec-4c2d-b5ed-a159f9a03192","system_id":"levelo_inurba_marseille","lat":43.32543,"lon":5.4145,"is_reserved":false,"is_disabled":false,"rental_uris":{"android":"levelo://app?vid=d2ce65bf-34ec-4c2d-b5ed-a159f9a03192","ios":"levelo://app?vid=d2ce65bf-34ec-4c2d-b5ed-a159f9a03192"},"vehicle_type_id":"4","last_reported":1740662285,"current_range_meters":18800,"station_id":"ce4bhq12rcd13ifvqhhg","pricing_plan_id":"cebpf4jnsgd1na2vs0mg"},{"bike_id":"76b8872c-d0cd-403c-b96b-08e30bb4765b","system_id":"levelo_inurba_marseille","lat":43.27562,"lon":5.38415,"is_reserved":false,"is_disabled":false,"rental_uris":{"android":"levelo://app?vid=76b8872c-d0cd-403c-b96b-08e30bb4765b","ios":"levelo://app?vid=76b8872c-d0cd-403c-b96b-08e30bb4765b"},"vehicle_type_id":"4","last_reported":1740662285,"current_range_meters":19600,"station_id":"ce4bhh92rcd13ifvqfi0","pricing_plan_id":"cebpf4jnsgd1na2vs0mg"},{"bike_id":"f1086d87-c6ea-4fd0-97fb-3e70fcc5c76b","system_id":"levelo_inurba_marseille","lat":43.26686,"lon":5.38268,"is_reserved":false,"is_disabled":false,"rental_uris":{"android":"levelo://app?vid=f1086d87-c6ea-4fd0-97fb-3e70fcc5c76b","ios":"levelo://app?vid=f1086d87-c6ea-4fd0-97fb-3e70fcc5c76b"},"vehicle_type_id":"4","last_reported":1740662285,"current_range_meters":18800,"station_id":"ce4bhg92rcd13ifvqf90","pricing_plan_id":"cebpf4jnsgd1na2vs0mg"},{"bike_id":"dad0ef6b-d8d6-45de-bfc8-4227de15088e","system_id":"levelo_inurba_marseille","lat":43.32541,"lon":5.41421,"is_reserved":false,"is_disabled":false,"rental_uris":{"android":"levelo://app?vid=dad0ef6b-d8d6-45de-bfc8-4227de15088e","ios":"levelo://app?vid=dad0ef6b-d8d6-45de-bfc8-4227de15088e"},"vehicle_type_id":"4","last_reported":1740662285,"current_range_meters":17600,"station_id":"ce4bhq12rcd13ifvqhhg","pricing_plan_id":"cebpf4jnsgd1na2vs0mg"},{"bike_id":"c5ccba82-1f5e-466b-89fe-87ad604957ae","system_id":"levelo_inurba_marseille","lat":43.250894,"lon":5.395231,"is_reserved":false,"is_disabled":false,"rental_uris":{"android":"levelo://app?vid=c5ccba82-1f5e-466b-89fe-87ad604957ae","ios":"levelo://app?vid=c5ccba82-1f5e-466b-89fe-87ad604957ae"},"vehicle_type_id":"4","last_reported":1740662285,"current_range_meters":19200,"station_id":"ce4bhnp2rcd13ifvqgvg","pricing_plan_id":"cebpf4jnsgd1na2vs0mg"},{"bike_id":"d45b1e76-b01c-443a-8f72-de7657881e6e","system_id":"levelo_inurba_marseille","lat":43.30497,"lon":5.39903,"is_reserved":false,"is_disabled":false,"rental_uris":{"android":"levelo://app?vid=d45b1e76-b01c-443a-8f72-de7657881e6e","ios":"levelo://app?vid=d45b1e76-b01c-443a-8f72-de7657881e6e"},"vehicle_type_id":"4","last_reported":1740662285,"current_range_meters":18000,"station_id":"ce4bh092rcd13ifvqd30","pricing_plan_id":"cebpf4jnsgd1na2vs0mg"},{"bike_id":"f216f540-89ff-4b63-a7c8-4a6ddfb486d0","system_id":"levelo_inurba_marseille","lat":43.31165,"lon":5.38731,"is_reserved":false,"is_disabled":false,"rental_uris":{"android":"levelo://app?vid=f216f540-89ff-4b63-a7c8-4a6ddfb486d0","ios":"levelo://app?vid=f216f540-89ff-4b63-a7c8-4a6ddfb486d0"},"vehicle_type_id":"4","last_reported":1740662285,"current_range_meters":18000,"station_id":"ce4bgv12rcd13ifvqcp0","pricing_plan_id":"cebpf4jnsgd1na2vs0mg"},{"bike_id":"5a6e6d5a-8680-4e2f-8f5f-4afc94d43b61","system_id":"levelo_inurba_marseille","lat":43.25117,"lon":5.40315,"is_reserved":false,"is_disabled":false,"rental_uris":{"android":"levelo://app?vid=5a6e6d5a-8680-4e2f-8f5f-4afc94d43b61","ios":"levelo://app?vid=5a6e6d5a-8680-4e2f-8f5f-4afc94d43b61"},"vehicle_type_id":"4","last_reported":1740662285,"current_range_meters":18800,"station_id":"ce4bhlh2rcd13ifvqgig","pricing_plan_id":"cebpf4jnsgd1na2vs0mg"},{"bike_id":"24481060-5d76-4c45-8516-3e3eaacd3cc9","system_id":"levelo_inurba_marseille","lat":43.30536,"lon":5.36533,"is_reserved":false,"is_disabled":false,"rental_uris":{"android":"levelo://app?vid=24481060-5d76-4c45-8516-3e3eaacd3cc9","ios":"levelo://app?vid=24481060-5d76-4c45-8516-3e3eaacd3cc9"},"vehicle_type_id":"4","last_reported":1740662285,"current_range_meters":18800,"station_id":"ce4bgs12rcd13ifvqcag","pricing_plan_id":"cebpf4jnsgd1na2vs0mg"},{"bike_id":"61908fa1-21ff-4b66-9a56-c8edde804494","system_id":"levelo_inurba_marseille","lat":43.27538,"lon":5.36003,"is_reserved":false,"is_disabled":false,"rental_uris":{"android":"levelo://app?vid=61908fa1-21ff-4b66-9a56-c8edde804494","ios":"levelo://app?vid=61908fa1-21ff-4b66-9a56-c8edde804494"},"vehicle_type_id":"4","last_reported":1740662285,"current_range_meters":18800,"station_id":"ce4bgj92rcd13ifvqbe0","pricing_plan_id":"cebpf4jnsgd1na2vs0mg"},{"bike_id":"42613b90-f96e-41c5-8864-90dd1b35a09d","system_id":"levelo_inurba_marseille","lat":43.32359,"lon":5.36755,"is_reserved":false,"is_disabled":false,"rental_uris":{"android":"levelo://app?vid=42613b90-f96e-41c5-8864-90dd1b35a09d","ios":"levelo://app?vid=42613b90-f96e-41c5-8864-90dd1b35a09d"},"vehicle_type_id":"4","last_reported":1740662285,"current_range_meters":18800,"station_id":"ce4bhsh2rcd13ifvqi2g","pricing_plan_id":"cebpf4jnsgd1na2vs0mg"},{"bike_id":"fbd1ec82-57fb-4f08-bba8-e7623104524f","system_id":"levelo_inurba_marseille","lat":43.23196,"lon":5.39992,"is_reserved":false,"is_disabled":false,"rental_uris":{"android":"levelo://app?vid=fbd1ec82-57fb-4f08-bba8-e7623104524f","ios":"levelo://app?vid=fbd1ec82-57fb-4f08-bba8-e7623104524f"},"vehicle_type_id":"4","last_reported":1740662285,"current_range_meters":18800,"station_id":"ce4bhn12rcd13ifvqgqg","pricing_plan_id":"cebpf4jnsgd1na2vs0mg"},{"bike_id":"96decd0f-fbf8-436e-bb27-8dc8d55a2f59","system_id":"levelo_inurba_marseille","lat":43.30136,"lon":5.3986,"is_reserved":false,"is_disabled":false,"rental_uris":{"android":"levelo://app?vid=96decd0f-fbf8-436e-bb27-8dc8d55a2f59","ios":"levelo://app?vid=96decd0f-fbf8-436e-bb27-8dc8d55a2f59"},"vehicle_type_id":"4","last_reported":1740662285,"current_range_meters":19200,"station_id":"ce4bh0h2rcd13ifvqd40","pricing_plan_id":"cebpf4jnsgd1na2vs0mg"},{"bike_id":"a34cf40c-9ad5-4f0c-bf4d-4fd153702875","system_id":"levelo_inurba_marseille","lat":43.28479,"lon":5.38533,"is_reserved":false,"is_disabled":false,"rental_uris":{"android":"levelo://app?vid=a34cf40c-9ad5-4f0c-bf4d-4fd153702875","ios":"levelo://app?vid=a34cf40c-9ad5-4f0c-bf4d-4fd153702875"},"vehicle_type_id":"4","last_reported":1740662285,"current_range_meters":18800,"station_id":"ce4bh8p2rcd13ifvqeb0","pricing_plan_id":"cebpf4jnsgd1na2vs0mg"},{"bike_id":"6875df9b-5b11-4e24-abff-039259e57b5a","system_id":"levelo_inurba_marseille","lat":43.30181,"lon":5.3662,"is_reserved":false,"is_disabled":false,"rental_uris":{"android":"levelo://app?vid=6875df9b-5b11-4e24-abff-039259e57b5a","ios":"levelo://app?vid=6875df9b-5b11-4e24-abff-039259e57b5a"},"vehicle_type_id":"4","last_reported":1740662285,"current_range_meters":18800,"station_id":"ce4bgrh2rcd13ifvqc8g","pricing_plan_id":"cebpf4jnsgd1na2vs0mg"},{"bike_id":"17b35230-78aa-43d0-82e5-c3055f10064f","system_id":"levelo_inurba_marseille","lat":43.27059,"lon":5.40263,"is_reserved":false,"is_disabled":false,"rental_uris":{"android":"levelo://app?vid=17b35230-78aa-43d0-82e5-c3055f10064f","ios":"levelo://app?vid=17b35230-78aa-43d0-82e5-c3055f10064f"},"vehicle_type_id":"4","last_reported":1740662285,"current_range_meters":18800,"station_id":"ce4bhk92rcd13ifvqgc0","pricing_plan_id":"cebpf4jnsgd1na2vs0mg"},{"bike_id":"e9bdbae0-8a4d-410d-ad63-99801402b176","system_id":"levelo_inurba_marseille","lat":43.23195,"lon":5.35556,"is_reserved":false,"is_disabled":false,"rental_uris":{"android":"levelo://app?vid=e9bdbae0-8a4d-410d-ad63-99801402b176","ios":"levelo://app?vid=e9bdbae0-8a4d-410d-ad63-99801402b176"},"vehicle_type_id":"4","last_reported":1740662285,"current_range_meters":18800,"station_id":"ce4bhu92rcd13ifvqi70","pricing_plan_id":"cebpf4jnsgd1na2vs0mg"},{"bike_id":"364ea645-aefe-4d71-8bcd-ea54ed59c50a","system_id":"levelo_inurba_marseille","lat":43.31712,"lon":5.43712,"is_reserved":false,"is_disabled":false,"rental_uris":{"android":"levelo://app?vid=364ea645-aefe-4d71-8bcd-ea54ed59c50a","ios":"levelo://app?vid=364ea645-aefe-4d71-8bcd-ea54ed59c50a"},"vehicle_type_id":"4","last_reported":1740662285,"current_range_meters":19200,"station_id":"ce4bhp92rcd13ifvqhcg","pricing_plan_id":"cebpf4jnsgd1na2vs0mg"},{"bike_id":"57b2ccf8-672b-471f-97a2-fd6c3ad48e3d","system_id":"levelo_inurba_marseille","lat":43.29792,"lon":5.38114,"is_reserved":false,"is_disabled":false,"rental_uris":{"android":"levelo://app?vid=57b2ccf8-672b-471f-97a2-fd6c3ad48e3d","ios":"levelo://app?vid=57b2ccf8-672b-471f-97a2-fd6c3ad48e3d"},"vehicle_type_id":"4","last_reported":1740662285,"current_range_meters":18800,"station_id":"ce4bgip2rcd13ifvqbb0","pricing_plan_id":"cebpf4jnsgd1na2vs0mg"},{"bike_id":"09a08648-2d6f-4bd8-8ba2-f195a36f435c","system_id":"levelo_inurba_marseille","lat":43.30009,"lon":5.374266,"is_reserved":false,"is_disabled":false,"rental_uris":{"android":"levelo://app?vid=09a08648-2d6f-4bd8-8ba2-f195a36f435c","ios":"levelo://app?vid=09a08648-2d6f-4bd8-8ba2-f195a36f435c"},"vehicle_type_id":"4","last_reported":1740662285,"current_range_meters":19200,"station_id":"","pricing_plan_id":"cebpf4jnsgd1na2vs0mg"},{"bike_id":"ec6b7105-a2d4-4380-b43f-9a4a410476d1","system_id":"levelo_inurba_marseille","lat":43.30086,"lon":5.39081,"is_reserved":false,"is_disabled":false,"rental_uris":{"android":"levelo://app?vid=ec6b7105-a2d4-4380-b43f-9a4a410476d1","ios":"levelo://app?vid=ec6b7105-a2d4-4380-b43f-9a4a410476d1"},"vehicle_type_id":"4","last_reported":1740662285,"current_range_meters":19200,"station_id":"ce4bh192rcd13ifvqdb0","pricing_plan_id":"cebpf4jnsgd1na2vs0mg"},{"bike_id":"f6290769-c7e5-4fbe-8266-cd0c71e918dd","system_id":"levelo_inurba_marseille","lat":43.2621,"lon":5.40452,"is_reserved":false,"is_disabled":false,"rental_uris":{"android":"levelo://app?vid=f6290769-c7e5-4fbe-8266-cd0c71e918dd","ios":"levelo://app?vid=f6290769-c7e5-4fbe-8266-cd0c71e918dd"},"vehicle_type_id":"4","last_reported":1740662285,"current_range_meters":19600,"station_id":"ce4bhmh2rcd13ifvqgmg","pricing_plan_id":"cebpf4jnsgd1na2vs0mg"},{"bike_id":"55917d25-c445-46a6-817a-22bc46fa0a67","system_id":"levelo_inurba_marseille","lat":43.30297,"lon":5.39206,"is_reserved":false,"is_disabled":false,"rental_uris":{"android":"levelo://app?vid=55917d25-c445-46a6-817a-22bc46fa0a67","ios":"levelo://app?vid=55917d25-c445-46a6-817a-22bc46fa0a67"},"vehicle_type_id":"4","last_reported":1740662285,"current_range_meters":19200,"station_id":"ce4bgkh2rcd13ifvqbk0","pricing_plan_id":"cebpf4jnsgd1na2vs0mg"},{"bike_id":"9d897a88-36f3-414d-a245-fa7e5e676f43","system_id":"levelo_inurba_marseille","lat":43.28416,"lon":5.34989,"is_reserved":false,"is_disabled":false,"rental_uris":{"android":"levelo://app?vid=9d897a88-36f3-414d-a245-fa7e5e676f43","ios":"levelo://app?vid=9d897a88-36f3-414d-a245-fa7e5e676f43"},"vehicle_type_id":"4","last_reported":1740662285,"current_range_meters":19200,"station_id":"ce4bhbh2rcd13ifvqepg","pricing_plan_id":"cebpf4jnsgd1na2vs0mg"},{"bike_id":"364b209e-752e-45ea-b26c-06b2552c1833","system_id":"levelo_inurba_marseille","lat":43.23191,"lon":5.35555,"is_reserved":false,"is_disabled":false,"rental_uris":{"android":"levelo://app?vid=364b209e-752e-45ea-b26c-06b2552c1833","ios":"levelo://app?vid=364b209e-752e-45ea-b26c-06b2552c1833"},"vehicle_type_id":"4","last_reported":1740662285,"current_range_meters":19200,"station_id":"ce4bhu92rcd13ifvqi70","pricing_plan_id":"cebpf4jnsgd1na2vs0mg"},{"bike_id":"e13a1a47-29bb-41d6-b479-d2746f986693","system_id":"levelo_inurba_marseille","lat":43.30434,"lon":5.38887,"is_reserved":false,"is_disabled":false,"rental_uris":{"android":"levelo://app?vid=e13a1a47-29bb-41d6-b479-d2746f986693","ios":"levelo://app?vid=e13a1a47-29bb-41d6-b479-d2746f986693"},"vehicle_type_id":"4","last_reported":1740662285,"current_range_meters":19200,"station_id":"ce4bgk12rcd13ifvqbi0","pricing_plan_id":"cebpf4jnsgd1na2vs0mg"},